{"last_updated":1713024537,"ttl":30,"version":"2.2","data":{"bikes":[{"bike_id":"1981b4cd-b9f9-4ffe-a6e3-d4f625672546","system_id":"levelo_inurba_marseille","lat":43.314811,"lon":5.373103,"is_reserved":false,"is_disabled":false,"rental_uris":{"android":"levelo://app?vid=1981b4cd-b9f9-4ffe-a6e3-d4f625672546","ios":"levelo://app?vid=1981b4cd-b9f9-4ffe-a6e3-d4f625672546"},"vehicle_type_id":"4","last_reported":1713024537,"current_range_meters":10400,"station_id":"ce4bgt12rcd13ifvqcd0","pricing_plan_id":"cebpf4jnsgd1na2vs0mg"},{"bike_id":"447aba51-b1d3-4d96-a53a-81c66b0663fe","system_id":"levelo_inurba_marseille","lat":43.314811,"lon":5.373104,"is_reserved":false,"is_disabled":false,"rental_uris":{"android":"levelo://app?vid=447aba51-b1d3-4d96-a53a-81c66b0663fe","ios":"levelo://app?vid=447aba51-b1d3-4d96-a53a-81c66b0663fe"},"vehicle_type_id":"4","last_reported":1713024537,"current_range_meters":27200,"station_id":"ce4bgt12rcd13ifvqcd0","pricing_plan_id":"cebpf4jnsgd1na2vs0mg"},{"bike_id":"1765d094-dfb0-4912-a696-c6e36b6d5599","system_id":"levelo_inurba_marseille","lat":43.30543,"lon":5.36543,"is_reserved":false,"is_disabled":false,"rental_uris":{"android":"levelo://app?vid=1765d094-dfb0-4912-a696-c6e36b6d5599","ios":"levelo://app?vid=1765d094-dfb0-4912-a696-c6e36b6d5599"},"vehicle_type_id":"4","last_reported":1713024537,"current_range_meters":0,"station_id":"ce4bgs12rcd13ifvqcag","pricing_plan_id":"cebpf4jnsgd1na2vs0mg"},{"bike_id":"5e0f199c-b9eb-4c14-bb59-f10124f2b63d","system_id":"levelo_inurba_marseille","lat":43.305706,"lon":5.365654,"is_reserved":false,"is_disabled":false,"rental_uris":{"android":"levelo://app?vid=5e0f199c-b9eb-4c14-bb59-f10124f2b63d","ios":"levelo://app?vid=5e0f199c-b9eb-4c14-bb59-f10124f2b63d"},"vehicle_type_id":"4","last_reported":1713024537,"current_range_meters":27600,"station_id":"ce4bgs12rcd13ifvqcag","pricing_plan_id":"cebpf4jnsgd1na2vs0mg"},{"bike_id":"99757555-d34c-4b40-9545-d26da4afff9e","system_id":"levelo_inurba_marseille","lat":43.305989,"lon":5.37225,"is_reserved":false,"is_disabled":false,"rental_uris":{"android":"levelo://app?vid=99757555-d34c-4b40-9545-d26da4afff9e","ios":"levelo://app?vid=99757555-d34c-4b40-9545-d26da4afff9e"},"vehicle_type_id":"4","last_reported":1713024537,"current_range_meters":5200,"station_id":"ce4bgqh2rcd13ifvqc4g","pricing_plan_id":"cebpf4jnsgd1na2vs0mg"},{"bike_id":"3c96d886-3cfc-4f02-9d74-2590bfeb174f","system_id":"levelo_inurba_marseille","lat":43.307945,"lon":5.376487,"is_reserved":false,"is_disabled":false,"rental_uris":{"android":"levelo://app?vid=3c96d886-3cfc-4f02-9d74-2590bfeb174f","ios":"levelo://app?vid=3c96d886-3cfc-4f02-9d74-2590bfeb174f"},"vehicle_type_id":"4","last_reported":1713024537,"current_range_meters":0,"station_id":"ce4bgv92rcd13ifvqcq0","pricing_plan_id":"cebpf4jnsgd1na2vs0mg"},{"bike_id":"d659bb9e-3f81-42d9-a552-9b48a34e694d","system_id":"levelo_inurba_marseille","lat":43.317075,"lon":5.377367,"is_reserved":false,"is_disabled":false,"rental_uris":{"android":"levelo://app?vid=d659bb9e-3f81-42d9-a552-9b48a34e694d","ios":"levelo://app?vid=d659bb9e-3f81-42d9-a552-9b48a34e694d"},"vehicle_type_id":"4","last_reported":1713024537,"current_range_meters":2400,"station_id":"ce4bgth2rcd13ifvqch0","pricing_plan_id":"cebpf4jnsgd1na2vs0mg"},{"bike_id":"15662bbf-c3d1-4230-8a60-3eb8da801c56","system_id":"levelo_inurba_marseille","lat":43.303098,"lon":5.369106,"is_reserved":false,"is_disabled":false,"rental_uris":{"android":"levelo://app?vid=15662bbf-c3d1-4230-8a60-3eb8da801c56","ios":"levelo://app?vid=15662bbf-c3d1-4230-8a60-3eb8da801c56"},"vehicle_type_id":"4","last_reported":1713024537,"current_range_meters":22000,"station_id":"ce4bguh2rcd13ifvqcj0","pricing_plan_id":"cebpf4jnsgd1na2vs0mg"},{"bike_id":"6ef16e0a-8361-4799-9d84-fb495806fc69","system_id":"levelo_inurba_marseille","lat":43.30304,"lon":5.368987,"is_reserved":false,"is_disabled":false,"rental_uris":{"android":"levelo://app?vid=6ef16e0a-8361-4799-9d84-fb495806fc69","ios":"levelo://app?vid=6ef16e0a-8361-4799-9d84-fb495806fc69"},"vehicle_type_id":"4","last_reported":1713024537,"current_range_meters":0,"station_id":"ce4bgqh2rcd13ifvqc5g","pricing_plan_id":"cebpf4jnsgd1na2vs0mg"},{"bike_id":"c973c696-6cf3-4ef6-9922-20142626237f","system_id":"levelo_inurba_marseille","lat":43.30282,"lon":5.37259,"is_reserved":false,"is_disabled":false,"rental_uris":{"android":"levelo://app?vid=c973c696-6cf3-4ef6-9922-20142626237f","ios":"levelo://app?vid=c973c696-6cf3-4ef6-9922-20142626237f"},"vehicle_type_id":"4","last_reported":1713024537,"current_range_meters":14800,"station_id":"","pricing_plan_id":"cebpf4jnsgd1na2vs0mg"},{"bike_id":"f5a3f466-5519-44bf-977c-e286a7d55481","system_id":"levelo_inurba_marseille","lat":43.308012,"lon":5.381511,"is_reserved":false,"is_disabled":false,"rental_uris":{"android":"levelo://app?vid=f5a3f466-5519-44bf-977c-e286a7d55481","ios":"levelo://app?vid=f5a3f466-5519-44bf-977c-e286a7d55481"},"vehicle_type_id":"4","last_reported":1713024537,"current_range_meters":0,"station_id":"ce4bgt12rcd13ifvqce0","pricing_plan_id":"cebpf4jnsgd1na2vs0mg"},{"bike_id":"a0a07164-c0c2-41aa-b710-99113a5fa34b","system_id":"levelo_inurba_marseille","lat":43.324771,"lon":5.36557,"is_reserved":false,"is_disabled":false,"rental_uris":{"android":"levelo://app?vid=a0a07164-c0c2-41aa-b710-99113a5fa34b","ios":"levelo://app?vid=a0a07164-c0c2-41aa-b710-99113a5fa34b"},"vehicle_type_id":"4","last_reported":1713024537,"current_range_meters":12000,"station_id":"ce4bhs12rcd13ifvqhvg","pricing_plan_id":"cebpf4jnsgd1na2vs0mg"},{"bike_id":"0386cda5-1e13-4bc5-8e81-964e6eb70ae0","system_id":"levelo_inurba_marseille","lat":43.324771,"lon":5.36557,"is_reserved":false,"is_disabled":false,"rental_uris":{"android":"levelo://app?vid=0386cda5-1e13-4bc5-8e81-964e6eb70ae0","ios":"levelo://app?vid=0386cda5-1e13-4bc5-8e81-964e6eb70ae0"},"vehicle_type_id":"4","last_reported":1713024537,"current_range_meters":6800,"station_id":"ce4bhs12rcd13ifvqhvg","pricing_plan_id":"cebpf4jnsgd1na2vs0mg"},{"bike_id":"6bd30c09-c007-4c03-a14e-53bb25dc6171","system_id":"levelo_inurba_marseille","lat":43.324771,"lon":5.36557,"is_reserved":false,"is_disabled":false,"rental_uris":{"android":"levelo://app?vid=6bd30c09-c007-4c03-a14e-53bb25dc6171","ios":"levelo://app?vid=6bd30c09-c007-4c03-a14e-53bb25dc6171"},"vehicle_type_id":"4","last_reported":1713024537,"current_range_meters":25200,"station_id":"ce4bhs12rcd13ifvqhvg","pricing_plan_id":"cebpf4jnsgd1na2vs0mg"},{"bike_id":"f4a06a1e-6a98-4e89-9ce8-bee10217e2a7","system_id":"levelo_inurba_marseille","lat":43.304606,"lon":5.379026,"is_reserved":false,"is_disabled":false,"rental_uris":{"android":"levelo://app?vid=f4a06a1e-6a98-4e89-9ce8-bee10217e2a7","ios":"levelo://app?vid=f4a06a1e-6a98-4e89-9ce8-bee10217e2a7"},"vehicle_type_id":"4","last_reported":1713024537,"current_range_meters":6400,"station_id":"ce4bgup2rcd13ifvqcn0","pricing_plan_id":"cebpf4jnsgd1na2vs0mg"},{"bike_id":"108db3dc-b837-409a-a01e-fda882e49460","system_id":"levelo_inurba_marseille","lat":43.302937,"lon":5.376958,"is_reserved":false,"is_disabled":false,"rental_uris":{"android":"levelo://app?vid=108db3dc-b837-409a-a01e-fda882e49460","ios":"levelo://app?vid=108db3dc-b837-409a-a01e-fda882e49460"},"vehicle_type_id":"4","last_reported":1713024537,"current_range_meters":0,"station_id":"ce4bguh2rcd13ifvqcj0","pricing_plan_id":"cebpf4jnsgd1na2vs0mg"},{"bike_id":"740219bc-7e6d-41e9-a09d-f13f419bdeff","system_id":"levelo_inurba_marseille","lat":43.299222,"lon":5.365554,"is_reserved":false,"is_disabled":false,"rental_uris":{"android":"levelo://app?vid=740219bc-7e6d-41e9-a09d-f13f419bdeff","ios":"levelo://app?vid=740219bc-7e6d-41e9-a09d-f13f419bdeff"},"vehicle_type_id":"4","last_reported":1713024537,"current_range_meters":14800,"station_id":"ce4bgm92rcd13ifvqbr0","pricing_plan_id":"cebpf4jnsgd1na2vs0mg"},{"bike_id":"d51cc53b-c5fa-4a05-b4e8-b160a8eddf75","system_id":"levelo_inurba_marseille","lat":43.299222,"lon":5.365554,"is_reserved":false,"is_disabled":false,"rental_uris":{"android":"levelo://app?vid=d51cc53b-c5fa-4a05-b4e8-b160a8eddf75","ios":"levelo://app?vid=d51cc53b-c5fa-4a05-b4e8-b160a8eddf75"},"vehicle_type_id":"4","last_reported":1713024537,"current_range_meters":5600,"station_id":"ce4bgm92rcd13ifvqbr0","pricing_plan_id":"cebpf4jnsgd1na2vs0mg"},{"bike_id":"f290603e-aaf8-4bb7-a93a-05895abca40d","system_id":"levelo_inurba_marseille","lat":43.299222,"lon":5.365554,"is_reserved":false,"is_disabled":false,"rental_uris":{"android":"levelo://app?vid=f290603e-aaf8-4bb7-a93a-05895abca40d","ios":"levelo://app?vid=f290603e-aaf8-4bb7-a93a-05895abca40d"},"vehicle_type_id":"4","last_reported":1713024537,"current_range_meters":9200,"station_id":"ce4bgm92rcd13ifvqbr0","pricing_plan_id":"cebpf4jnsgd1na2vs0mg"},{"bike_id":"032fa2cd-3a76-49fd-91c0-7843a1b1ef78","system_id":"levelo_inurba_marseille","lat":43.29851,"lon":5.36281,"is_reserved":false,"is_disabled":false,"rental_uris":{"android":"levelo://app?vid=032fa2cd-3a76-49fd-91c0-7843a1b1ef78","ios":"levelo://app?vid=032fa2cd-3a76-49fd-91c0-7843a1b1ef78"},"vehicle_type_id":"4","last_reported":1713024537,"current_range_meters":0,"station_id":"ce4bgpp2rcd13ifvqc3g","pricing_plan_id":"cebpf4jnsgd1na2vs0mg"},{"bike_id":"770e9f0d-6af1-4c51-b027-18aa1d5d80a9","system_id":"levelo_inurba_marseille","lat":43.305364,"lon":5.384119,"is_reserved":false,"is_disabled":false,"rental_uris":{"android":"levelo://app?vid=770e9f0d-6af1-4c51-b027-18aa1d5d80a9","ios":"levelo://app?vid=770e9f0d-6af1-4c51-b027-18aa1d5d80a9"},"vehicle_type_id":"4","last_reported":1713024537,"current_range_meters":10400,"station_id":"ce4bgg92rcd13ifvqb30","pricing_plan_id":"cebpf4jnsgd1na2vs0mg"},{"bike_id":"98f7c97d-b437-4940-a9a0-c133a3b2a1b2","system_id":"levelo_inurba_marseille","lat":43.311805,"lon":5.387105,"is_reserved":false,"is_disabled":false,"rental_uris":{"android":"levelo://app?vid=98f7c97d-b437-4940-a9a0-c133a3b2a1b2","ios":"levelo://app?vid=98f7c97d-b437-4940-a9a0-c133a3b2a1b2"},"vehicle_type_id":"4","last_reported":1713024537,"current_range_meters":0,"station_id":"ce4bgv12rcd13ifvqcp0","pricing_plan_id":"cebpf4jnsgd1na2vs0mg"},{"bike_id":"74300b46-4939-4de5-94af-25fb62bcba94","system_id":"levelo_inurba_marseille","lat":43.31163,"lon":5.38712,"is_reserved":false,"is_disabled":false,"rental_uris":{"android":"levelo://app?vid=74300b46-4939-4de5-94af-25fb62bcba94","ios":"levelo://app?vid=74300b46-4939-4de5-94af-25fb62bcba94"},"vehicle_type_id":"4","last_reported":1713024537,"current_range_meters":7200,"station_id":"ce4bgv12rcd13ifvqcp0","pricing_plan_id":"cebpf4jnsgd1na2vs0mg"},{"bike_id":"54c31db1-973f-4cea-8a98-cea98caea5b7","system_id":"levelo_inurba_marseille","lat":43.31166,"lon":5.38715,"is_reserved":false,"is_disabled":false,"rental_uris":{"android":"levelo://app?vid=54c31db1-973f-4cea-8a98-cea98caea5b7","ios":"levelo://app?vid=54c31db1-973f-4cea-8a98-cea98caea5b7"},"vehicle_type_id":"4","last_reported":1713024537,"current_range_meters":6400,"station_id":"ce4bgv12rcd13ifvqcp0","pricing_plan_id":"cebpf4jnsgd1na2vs0mg"},{"bike_id":"5cdf81d7-974b-4148-9569-41e38dee4aa4","system_id":"levelo_inurba_marseille","lat":43.311722,"lon":5.387247,"is_reserved":false,"is_disabled":false,"rental_uris":{"android":"levelo://app?vid=5cdf81d7-974b-4148-9569-41e38dee4aa4","ios":"levelo://app?vid=5cdf81d7-974b-4148-9569-41e38dee4aa4"},"vehicle_type_id":"4","last_reported":1713024537,"current_range_meters":10800,"station_id":"ce4bgv12rcd13ifvqcp0","pricing_plan_id":"cebpf4jnsgd1na2vs0mg"},{"bike_id":"c616fabd-3b95-4949-961f-f3913b5326a6","system_id":"levelo_inurba_marseille","lat":43.311722,"lon":5.387247,"is_reserved":false,"is_disabled":false,"rental_uris":{"android":"levelo://app?vid=c616fabd-3b95-4949-961f-f3913b5326a6","ios":"levelo://app?vid=c616fabd-3b95-4949-961f-f3913b5326a6"},"vehicle_type_id":"4","last_reported":1713024537,"current_range_meters":2400,"station_id":"ce4bgv12rcd13ifvqcp0","pricing_plan_id":"cebpf4jnsgd1na2vs0mg"},{"bike_id":"239c34cb-74d7-47fd-91be-b62b5f962780","system_id":"levelo_inurba_marseille","lat":43.297794,"lon":5.370888,"is_reserved":false,"is_disabled":false,"rental_uris":{"android":"levelo://app?vid=239c34cb-74d7-47fd-91be-b62b5f962780","ios":"levelo://app?vid=239c34cb-74d7-47fd-91be-b62b5f962780"},"vehicle_type_id":"4","last_reported":1713024537,"current_range_meters":1600,"station_id":"ce4bgop2rcd13ifvqc1g","pricing_plan_id":"cebpf4jnsgd1na2vs0mg"},{"bike_id":"67ddfd41-f2ae-4e91-987f-b2d2988b25ef","system_id":"levelo_inurba_marseille","lat":43.297163,"lon":5.365866,"is_reserved":false,"is_disabled":false,"rental_uris":{"android":"levelo://app?vid=67ddfd41-f2ae-4e91-987f-b2d2988b25ef","ios":"levelo://app?vid=67ddfd41-f2ae-4e91-987f-b2d2988b25ef"},"vehicle_type_id":"4","last_reported":1713024537,"current_range_meters":5600,"station_id":"ce4bgn12rcd13ifvqbt0","pricing_plan_id":"cebpf4jnsgd1na2vs0mg"},{"bike_id":"079f63a2-5650-4740-ba20-595d322f265f","system_id":"levelo_inurba_marseille","lat":43.297163,"lon":5.365866,"is_reserved":false,"is_disabled":false,"rental_uris":{"android":"levelo://app?vid=079f63a2-5650-4740-ba20-595d322f265f","ios":"levelo://app?vid=079f63a2-5650-4740-ba20-595d322f265f"},"vehicle_type_id":"4","last_reported":1713024537,"current_range_meters":0,"station_id":"ce4bgn12rcd13ifvqbt0","pricing_plan_id":"cebpf4jnsgd1na2vs0mg"},{"bike_id":"f6de7672-5e32-4ace-9872-8cb1300fbbe2","system_id":"levelo_inurba_marseille","lat":43.297163,"lon":5.365866,"is_reserved":false,"is_disabled":false,"rental_uris":{"android":"levelo://app?vid=f6de7672-5e32-4ace-9872-8cb1300fbbe2","ios":"levelo://app?vid=f6de7672-5e32-4ace-9872-8cb1300fbbe2"},"vehicle_type_id":"4","last_reported":1713024537,"current_range_meters":13200,"station_id":"ce4bgn12rcd13ifvqbt0","pricing_plan_id":"cebpf4jnsgd1na2vs0mg"},{"bike_id":"bb3a4af6-a95b-4cc5-a101-dab398bbb0cc","system_id":"levelo_inurba_marseille","lat":43.2968,"lon":5.37291,"is_reserved":false,"is_disabled":false,"rental_uris":{"android":"levelo://app?vid=bb3a4af6-a95b-4cc5-a101-dab398bbb0cc","ios":"levelo://app?vid=bb3a4af6-a95b-4cc5-a101-dab398bbb0cc"},"vehicle_type_id":"4","last_reported":1713024537,"current_range_meters":0,"station_id":"ce4bgk12rcd13ifvqbj0","pricing_plan_id":"cebpf4jnsgd1na2vs0mg"},{"bike_id":"5a8a2719-d793-4c1f-8da4-b4cd9630951d","system_id":"levelo_inurba_marseille","lat":43.2968,"lon":5.37291,"is_reserved":false,"is_disabled":false,"rental_uris":{"android":"levelo://app?vid=5a8a2719-d793-4c1f-8da4-b4cd9630951d","ios":"levelo://app?vid=5a8a2719-d793-4c1f-8da4-b4cd9630951d"},"vehicle_type_id":"4","last_reported":1713024537,"current_range_meters":2800,"station_id":"ce4bgk12rcd13ifvqbj0","pricing_plan_id":"cebpf4jnsgd1na2vs0mg"},{"bike_id":"2d5e5f3a-784e-4756-bdf1-ba9228b3b9d3","system_id":"levelo_inurba_marseille","lat":43.296131,"lon":5.370791,"is_reserved":false,"is_disabled":false,"rental_uris":{"android":"levelo://app?vid=2d5e5f3a-784e-4756-bdf1-ba9228b3b9d3","ios":"levelo://app?vid=2d5e5f3a-784e-4756-bdf1-ba9228b3b9d3"},"vehicle_type_id":"4","last_reported":1713024537,"current_range_meters":12400,"station_id":"ce4bgnh2rcd13ifvqc0g","pricing_plan_id":"cebpf4jnsgd1na2vs0mg"},{"bike_id":"129e65e2-b1ca-4196-95e2-fbdbc24acf88","system_id":"levelo_inurba_marseille","lat":43.299028,"lon":5.381509,"is_reserved":false,"is_disabled":false,"rental_uris":{"android":"levelo://app?vid=129e65e2-b1ca-4196-95e2-fbdbc24acf88","ios":"levelo://app?vid=129e65e2-b1ca-4196-95e2-fbdbc24acf88"},"vehicle_type_id":"4","last_reported":1713024537,"current_range_meters":24400,"station_id":"ce4bgj12rcd13ifvqbc0","pricing_plan_id":"cebpf4jnsgd1na2vs0mg"},{"bike_id":"fb581762-e409-48d1-a301-da23130a5b31","system_id":"levelo_inurba_marseille","lat":43.2968,"lon":5.37291,"is_reserved":false,"is_disabled":false,"rental_uris":{"android":"levelo://app?vid=fb581762-e409-48d1-a301-da23130a5b31","ios":"levelo://app?vid=fb581762-e409-48d1-a301-da23130a5b31"},"vehicle_type_id":"4","last_reported":1713024537,"current_range_meters":6800,"station_id":"ce4bgk12rcd13ifvqbj0","pricing_plan_id":"cebpf4jnsgd1na2vs0mg"},{"bike_id":"56b8dad8-e7ec-4c83-ae73-93d5992ddfc4","system_id":"levelo_inurba_marseille","lat":43.330442,"lon":5.389148,"is_reserved":false,"is_disabled":false,"rental_uris":{"android":"levelo://app?vid=56b8dad8-e7ec-4c83-ae73-93d5992ddfc4","ios":"levelo://app?vid=56b8dad8-e7ec-4c83-ae73-93d5992ddfc4"},"vehicle_type_id":"4","last_reported":1713024537,"current_range_meters":20400,"station_id":"ce4bhr92rcd13ifvqhrg","pricing_plan_id":"cebpf4jnsgd1na2vs0mg"},{"bike_id":"640dc4c3-11a4-46a6-a935-8e04eb0475bf","system_id":"levelo_inurba_marseille","lat":43.299028,"lon":5.381509,"is_reserved":false,"is_disabled":false,"rental_uris":{"android":"levelo://app?vid=640dc4c3-11a4-46a6-a935-8e04eb0475bf","ios":"levelo://app?vid=640dc4c3-11a4-46a6-a935-8e04eb0475bf"},"vehicle_type_id":"4","last_reported":1713024537,"current_range_meters":2400,"station_id":"ce4bgj12rcd13ifvqbc0","pricing_plan_id":"cebpf4jnsgd1na2vs0mg"},{"bike_id":"05c6ad1b-88ac-4ff1-bfa3-4a4afb882da5","system_id":"levelo_inurba_marseille","lat":43.299028,"lon":5.381509,"is_reserved":false,"is_disabled":false,"rental_uris":{"android":"levelo://app?vid=05c6ad1b-88ac-4ff1-bfa3-4a4afb882da5","ios":"levelo://app?vid=05c6ad1b-88ac-4ff1-bfa3-4a4afb882da5"},"vehicle_type_id":"4","last_reported":1713024537,"current_range_meters":0,"station_id":"ce4bgj12rcd13ifvqbc0","pricing_plan_id":"cebpf4jnsgd1na2vs0mg"},{"bike_id":"e2f1c7a7-38ff-476a-b1b7-759bf43fc762","system_id":"levelo_inurba_marseille","lat":43.309589,"lon":5.390258,"is_reserved":false,"is_disabled":false,"rental_uris":{"android":"levelo://app?vid=e2f1c7a7-38ff-476a-b1b7-759bf43fc762","ios":"levelo://app?vid=e2f1c7a7-38ff-476a-b1b7-759bf43fc762"},"vehicle_type_id":"4","last_reported":1713024537,"current_range_meters":15600,"station_id":"ce4bgup2rcd13ifvqco0","pricing_plan_id":"cebpf4jnsgd1na2vs0mg"},{"bike_id":"60bf52f9-a881-4c9c-82e5-88a8c3716fce","system_id":"levelo_inurba_marseille","lat":43.309589,"lon":5.390258,"is_reserved":false,"is_disabled":false,"rental_uris":{"android":"levelo://app?vid=60bf52f9-a881-4c9c-82e5-88a8c3716fce","ios":"levelo://app?vid=60bf52f9-a881-4c9c-82e5-88a8c3716fce"},"vehicle_type_id":"4","last_reported":1713024537,"current_range_meters":7200,"station_id":"ce4bgup2rcd13ifvqco0","pricing_plan_id":"cebpf4jnsgd1na2vs0mg"},{"bike_id":"5fa1fead-9e2e-4793-ba8f-8e2de79bdc98","system_id":"levelo_inurba_marseille","lat":43.309589,"lon":5.390258,"is_reserved":false,"is_disabled":false,"rental_uris":{"android":"levelo://app?vid=5fa1fead-9e2e-4793-ba8f-8e2de79bdc98","ios":"levelo://app?vid=5fa1fead-9e2e-4793-ba8f-8e2de79bdc98"},"vehicle_type_id":"4","last_reported":1713024537,"current_range_meters":22000,"station_id":"ce4bgup2rcd13ifvqco0","pricing_plan_id":"cebpf4jnsgd1na2vs0mg"},{"bike_id":"145cb2b7-9f50-4da9-9ea1-e1a1763f3b75","system_id":"levelo_inurba_marseille","lat":43.29736,"lon":5.37917,"is_reserved":false,"is_disabled":false,"rental_uris":{"android":"levelo://app?vid=145cb2b7-9f50-4da9-9ea1-e1a1763f3b75","ios":"levelo://app?vid=145cb2b7-9f50-4da9-9ea1-e1a1763f3b75"},"vehicle_type_id":"4","last_reported":1713024537,"current_range_meters":1600,"station_id":"","pricing_plan_id":"cebpf4jnsgd1na2vs0mg"},{"bike_id":"1eab1b1e-7f7a-45c2-915b-3fd57ae3d5f5","system_id":"levelo_inurba_marseille","lat":43.297936,"lon":5.380833,"is_reserved":false,"is_disabled":false,"rental_uris":{"android":"levelo://app?vid=1eab1b1e-7f7a-45c2-915b-3fd57ae3d5f5","ios":"levelo://app?vid=1eab1b1e-7f7a-45c2-915b-3fd57ae3d5f5"},"vehicle_type_id":"4","last_reported":1713024537,"current_range_meters":0,"station_id":"ce4bgip2rcd13ifvqbb0","pricing_plan_id":"cebpf4jnsgd1na2vs0mg"},{"bike_id":"79e3e683-32a2-4369-82d1-250ffac93f58","system_id":"levelo_inurba_marseille","lat":43.289307,"lon":5.38406,"is_reserved":false,"is_disabled":false,"rental_uris":{"android":"levelo://app?vid=79e3e683-32a2-4369-82d1-250ffac93f58","ios":"levelo://app?vid=79e3e683-32a2-4369-82d1-250ffac93f58"},"vehicle_type_id":"4","last_reported":1713024537,"current_range_meters":2800,"station_id":"ce4bh612rcd13ifvqe6g","pricing_plan_id":"cebpf4jnsgd1na2vs0mg"},{"bike_id":"d5ebcb2c-2212-496b-ae76-fa459e8a346c","system_id":"levelo_inurba_marseille","lat":43.259013,"lon":5.409301,"is_reserved":false,"is_disabled":false,"rental_uris":{"android":"levelo://app?vid=d5ebcb2c-2212-496b-ae76-fa459e8a346c","ios":"levelo://app?vid=d5ebcb2c-2212-496b-ae76-fa459e8a346c"},"vehicle_type_id":"4","last_reported":1713024537,"current_range_meters":0,"station_id":"ce4bhm92rcd13ifvqglg","pricing_plan_id":"cebpf4jnsgd1na2vs0mg"},{"bike_id":"58dd9420-96ac-425c-9323-f3450dbced9f","system_id":"levelo_inurba_marseille","lat":43.29567,"lon":5.37515,"is_reserved":false,"is_disabled":false,"rental_uris":{"android":"levelo://app?vid=58dd9420-96ac-425c-9323-f3450dbced9f","ios":"levelo://app?vid=58dd9420-96ac-425c-9323-f3450dbced9f"},"vehicle_type_id":"4","last_reported":1713024537,"current_range_meters":0,"station_id":"ce4bgh92rcd13ifvqb50","pricing_plan_id":"cebpf4jnsgd1na2vs0mg"},{"bike_id":"1831662c-e0b0-49c4-b6f7-319f09c011f3","system_id":"levelo_inurba_marseille","lat":43.295672,"lon":5.375199,"is_reserved":false,"is_disabled":false,"rental_uris":{"android":"levelo://app?vid=1831662c-e0b0-49c4-b6f7-319f09c011f3","ios":"levelo://app?vid=1831662c-e0b0-49c4-b6f7-319f09c011f3"},"vehicle_type_id":"4","last_reported":1713024537,"current_range_meters":0,"station_id":"ce4bgh92rcd13ifvqb50","pricing_plan_id":"cebpf4jnsgd1na2vs0mg"},{"bike_id":"affc6411-1342-4c8f-b2b4-cb71f1f2865a","system_id":"levelo_inurba_marseille","lat":43.29562,"lon":5.37506,"is_reserved":false,"is_disabled":false,"rental_uris":{"android":"levelo://app?vid=affc6411-1342-4c8f-b2b4-cb71f1f2865a","ios":"levelo://app?vid=affc6411-1342-4c8f-b2b4-cb71f1f2865a"},"vehicle_type_id":"4","last_reported":1713024537,"current_range_meters":0,"station_id":"ce4bgh92rcd13ifvqb50","pricing_plan_id":"cebpf4jnsgd1na2vs0mg"},{"bike_id":"b16aadf5-abdf-472d-a46b-f651d592b48c","system_id":"levelo_inurba_marseille","lat":43.2962,"lon":5.37713,"is_reserved":false,"is_disabled":false,"rental_uris":{"android":"levelo://app?vid=b16aadf5-abdf-472d-a46b-f651d592b48c","ios":"levelo://app?vid=b16aadf5-abdf-472d-a46b-f651d592b48c"},"vehicle_type_id":"4","last_reported":1713024537,"current_range_meters":0,"station_id":"ce4bgi92rcd13ifvqb90","pricing_plan_id":"cebpf4jnsgd1na2vs0mg"},{"bike_id":"cac74f92-a9d0-4f7c-ab72-9990fc28f14c","system_id":"levelo_inurba_marseille","lat":43.295618,"lon":5.375156,"is_reserved":false,"is_disabled":false,"rental_uris":{"android":"levelo://app?vid=cac74f92-a9d0-4f7c-ab72-9990fc28f14c","ios":"levelo://app?vid=cac74f92-a9d0-4f7c-ab72-9990fc28f14c"},"vehicle_type_id":"4","last_reported":1713024537,"current_range_meters":0,"station_id":"ce4bgh92rcd13ifvqb50","pricing_plan_id":"cebpf4jnsgd1na2vs0mg"},{"bike_id":"bd51b2a1-fde0-4f0d-ba60-e3bfc2c79ee7","system_id":"levelo_inurba_marseille","lat":43.2962,"lon":5.3774,"is_reserved":false,"is_disabled":false,"rental_uris":{"android":"levelo://app?vid=bd51b2a1-fde0-4f0d-ba60-e3bfc2c79ee7","ios":"levelo://app?vid=bd51b2a1-fde0-4f0d-ba60-e3bfc2c79ee7"},"vehicle_type_id":"4","last_reported":1713024537,"current_range_meters":0,"station_id":"ce4bgi92rcd13ifvqb90","pricing_plan_id":"cebpf4jnsgd1na2vs0mg"},{"bike_id":"6d0c3f08-309b-43db-b313-651628b6de99","system_id":"levelo_inurba_marseille","lat":43.299707,"lon":5.384859,"is_reserved":false,"is_disabled":false,"rental_uris":{"android":"levelo://app?vid=6d0c3f08-309b-43db-b313-651628b6de99","ios":"levelo://app?vid=6d0c3f08-309b-43db-b313-651628b6de99"},"vehicle_type_id":"4","last_reported":1713024537,"current_range_meters":20400,"station_id":"ce4bgj92rcd13ifvqbd0","pricing_plan_id":"cebpf4jnsgd1na2vs0mg"},{"bike_id":"783a0233-e641-4472-9c33-66194751b4b5","system_id":"levelo_inurba_marseille","lat":43.304274,"lon":5.388873,"is_reserved":false,"is_disabled":false,"rental_uris":{"android":"levelo://app?vid=783a0233-e641-4472-9c33-66194751b4b5","ios":"levelo://app?vid=783a0233-e641-4472-9c33-66194751b4b5"},"vehicle_type_id":"4","last_reported":1713024537,"current_range_meters":16800,"station_id":"ce4bgk12rcd13ifvqbi0","pricing_plan_id":"cebpf4jnsgd1na2vs0mg"},{"bike_id":"c82eee52-ceeb-4084-bd47-e39e92289740","system_id":"levelo_inurba_marseille","lat":43.299717,"lon":5.384845,"is_reserved":false,"is_disabled":false,"rental_uris":{"android":"levelo://app?vid=c82eee52-ceeb-4084-bd47-e39e92289740","ios":"levelo://app?vid=c82eee52-ceeb-4084-bd47-e39e92289740"},"vehicle_type_id":"4","last_reported":1713024537,"current_range_meters":16000,"station_id":"ce4bgj92rcd13ifvqbd0","pricing_plan_id":"cebpf4jnsgd1na2vs0mg"},{"bike_id":"45b301aa-58e8-4e80-9432-0517071ffbfd","system_id":"levelo_inurba_marseille","lat":43.299717,"lon":5.384845,"is_reserved":false,"is_disabled":false,"rental_uris":{"android":"levelo://app?vid=45b301aa-58e8-4e80-9432-0517071ffbfd","ios":"levelo://app?vid=45b301aa-58e8-4e80-9432-0517071ffbfd"},"vehicle_type_id":"4","last_reported":1713024537,"current_range_meters":0,"station_id":"ce4bgj92rcd13ifvqbd0","pricing_plan_id":"cebpf4jnsgd1na2vs0mg"},{"bike_id":"5a832cbd-bccd-44d9-8a27-0a576bc29ce9","system_id":"levelo_inurba_marseille","lat":43.299724,"lon":5.371829,"is_reserved":false,"is_disabled":false,"rental_uris":{"android":"levelo://app?vid=5a832cbd-bccd-44d9-8a27-0a576bc29ce9","ios":"levelo://app?vid=5a832cbd-bccd-44d9-8a27-0a576bc29ce9"},"vehicle_type_id":"4","last_reported":1713024537,"current_range_meters":8800,"station_id":"ce4bgr92rcd13ifvqc7g","pricing_plan_id":"cebpf4jnsgd1na2vs0mg"},{"bike_id":"d8baea62-988e-4625-9c8f-6e995c5cf346","system_id":"levelo_inurba_marseille","lat":43.300793,"lon":5.386497,"is_reserved":false,"is_disabled":false,"rental_uris":{"android":"levelo://app?vid=d8baea62-988e-4625-9c8f-6e995c5cf346","ios":"levelo://app?vid=d8baea62-988e-4625-9c8f-6e995c5cf346"},"vehicle_type_id":"4","last_reported":1713024537,"current_range_meters":0,"station_id":"","pricing_plan_id":"cebpf4jnsgd1na2vs0mg"},{"bike_id":"17b61457-6c41-4569-b40a-224f7524ffea","system_id":"levelo_inurba_marseille","lat":43.32367,"lon":5.388836,"is_reserved":false,"is_disabled":false,"rental_uris":{"android":"levelo://app?vid=17b61457-6c41-4569-b40a-224f7524ffea","ios":"levelo://app?vid=17b61457-6c41-4569-b40a-224f7524ffea"},"vehicle_type_id":"4","last_reported":1713024537,"current_range_meters":3600,"station_id":"ce4bhqp2rcd13ifvqhog","pricing_plan_id":"cebpf4jnsgd1na2vs0mg"},{"bike_id":"16be6522-4ffe-44b7-a384-4b0ca8ebd8df","system_id":"levelo_inurba_marseille","lat":43.292749,"lon":5.368398,"is_reserved":false,"is_disabled":false,"rental_uris":{"android":"levelo://app?vid=16be6522-4ffe-44b7-a384-4b0ca8ebd8df","ios":"levelo://app?vid=16be6522-4ffe-44b7-a384-4b0ca8ebd8df"},"vehicle_type_id":"4","last_reported":1713024537,"current_range_meters":0,"station_id":"ce4bhbp2rcd13ifvqesg","pricing_plan_id":"cebpf4jnsgd1na2vs0mg"},{"bike_id":"fb75e36a-d0ec-4dd9-8eff-c143fa8d39a8","system_id":"levelo_inurba_marseille","lat":43.292749,"lon":5.368398,"is_reserved":false,"is_disabled":false,"rental_uris":{"android":"levelo://app?vid=fb75e36a-d0ec-4dd9-8eff-c143fa8d39a8","ios":"levelo://app?vid=fb75e36a-d0ec-4dd9-8eff-c143fa8d39a8"},"vehicle_type_id":"4","last_reported":1713024537,"current_range_meters":0,"station_id":"ce4bhbp2rcd13ifvqesg","pricing_plan_id":"cebpf4jnsgd1na2vs0mg"},{"bike_id":"08915538-1dd2-4517-b1ff-92b559377809","system_id":"levelo_inurba_marseille","lat":43.293249,"lon":5.371578,"is_reserved":false,"is_disabled":false,"rental_uris":{"android":"levelo://app?vid=08915538-1dd2-4517-b1ff-92b559377809","ios":"levelo://app?vid=08915538-1dd2-4517-b1ff-92b559377809"},"vehicle_type_id":"4","last_reported":1713024537,"current_range_meters":0,"station_id":"ce4bgh92rcd13ifvqb40","pricing_plan_id":"cebpf4jnsgd1na2vs0mg"},{"bike_id":"8c7b8283-ed1e-44bc-8253-3a1ba960272a","system_id":"levelo_inurba_marseille","lat":43.292693,"lon":5.368423,"is_reserved":false,"is_disabled":false,"rental_uris":{"android":"levelo://app?vid=8c7b8283-ed1e-44bc-8253-3a1ba960272a","ios":"levelo://app?vid=8c7b8283-ed1e-44bc-8253-3a1ba960272a"},"vehicle_type_id":"4","last_reported":1713024537,"current_range_meters":29600,"station_id":"ce4bhbp2rcd13ifvqesg","pricing_plan_id":"cebpf4jnsgd1na2vs0mg"},{"bike_id":"fe2baaac-f7e3-4d30-a5c1-f36eff6548b6","system_id":"levelo_inurba_marseille","lat":43.294455,"lon":5.378355,"is_reserved":false,"is_disabled":false,"rental_uris":{"android":"levelo://app?vid=fe2baaac-f7e3-4d30-a5c1-f36eff6548b6","ios":"levelo://app?vid=fe2baaac-f7e3-4d30-a5c1-f36eff6548b6"},"vehicle_type_id":"4","last_reported":1713024537,"current_range_meters":0,"station_id":"ce4bh392rcd13ifvqdl0","pricing_plan_id":"cebpf4jnsgd1na2vs0mg"},{"bike_id":"384ae375-8dde-4ad3-9571-ae43266c2338","system_id":"levelo_inurba_marseille","lat":43.297794,"lon":5.370888,"is_reserved":false,"is_disabled":false,"rental_uris":{"android":"levelo://app?vid=384ae375-8dde-4ad3-9571-ae43266c2338","ios":"levelo://app?vid=384ae375-8dde-4ad3-9571-ae43266c2338"},"vehicle_type_id":"4","last_reported":1713024537,"current_range_meters":400,"station_id":"ce4bgop2rcd13ifvqc1g","pricing_plan_id":"cebpf4jnsgd1na2vs0mg"},{"bike_id":"bd43a807-3bc6-476e-b8b0-d075fe3ea4c4","system_id":"levelo_inurba_marseille","lat":43.303002,"lon":5.392142,"is_reserved":false,"is_disabled":false,"rental_uris":{"android":"levelo://app?vid=bd43a807-3bc6-476e-b8b0-d075fe3ea4c4","ios":"levelo://app?vid=bd43a807-3bc6-476e-b8b0-d075fe3ea4c4"},"vehicle_type_id":"4","last_reported":1713024537,"current_range_meters":400,"station_id":"ce4bgkh2rcd13ifvqbk0","pricing_plan_id":"cebpf4jnsgd1na2vs0mg"},{"bike_id":"a21b281b-6f67-4218-a32b-8aa6e90d0b61","system_id":"levelo_inurba_marseille","lat":43.2936,"lon":5.37835,"is_reserved":false,"is_disabled":false,"rental_uris":{"android":"levelo://app?vid=a21b281b-6f67-4218-a32b-8aa6e90d0b61","ios":"levelo://app?vid=a21b281b-6f67-4218-a32b-8aa6e90d0b61"},"vehicle_type_id":"4","last_reported":1713024537,"current_range_meters":0,"station_id":"ce4bgjh2rcd13ifvqbf0","pricing_plan_id":"cebpf4jnsgd1na2vs0mg"},{"bike_id":"5590541f-d301-47cc-b70f-2c315b0045a1","system_id":"levelo_inurba_marseille","lat":43.29889,"lon":5.38896,"is_reserved":false,"is_disabled":false,"rental_uris":{"android":"levelo://app?vid=5590541f-d301-47cc-b70f-2c315b0045a1","ios":"levelo://app?vid=5590541f-d301-47cc-b70f-2c315b0045a1"},"vehicle_type_id":"4","last_reported":1713024537,"current_range_meters":0,"station_id":"ce4bh392rcd13ifvqdl0","pricing_plan_id":"cebpf4jnsgd1na2vs0mg"},{"bike_id":"9ddd0c84-9804-4c54-8998-6cc755b9b3d3","system_id":"levelo_inurba_marseille","lat":43.298764,"lon":5.388973,"is_reserved":false,"is_disabled":false,"rental_uris":{"android":"levelo://app?vid=9ddd0c84-9804-4c54-8998-6cc755b9b3d3","ios":"levelo://app?vid=9ddd0c84-9804-4c54-8998-6cc755b9b3d3"},"vehicle_type_id":"4","last_reported":1713024537,"current_range_meters":5600,"station_id":"ce4bh392rcd13ifvqdl0","pricing_plan_id":"cebpf4jnsgd1na2vs0mg"},{"bike_id":"86d6cc4b-25b0-49ee-8981-ad18ab1cf158","system_id":"levelo_inurba_marseille","lat":43.294153,"lon":5.386305,"is_reserved":false,"is_disabled":false,"rental_uris":{"android":"levelo://app?vid=86d6cc4b-25b0-49ee-8981-ad18ab1cf158","ios":"levelo://app?vid=86d6cc4b-25b0-49ee-8981-ad18ab1cf158"},"vehicle_type_id":"4","last_reported":1713024537,"current_range_meters":7200,"station_id":"ce4bh2h2rcd13ifvqdh0","pricing_plan_id":"cebpf4jnsgd1na2vs0mg"},{"bike_id":"af2bad0f-62a1-473a-94ad-711ca6bb7fca","system_id":"levelo_inurba_marseille","lat":43.31331,"lon":5.39686,"is_reserved":false,"is_disabled":false,"rental_uris":{"android":"levelo://app?vid=af2bad0f-62a1-473a-94ad-711ca6bb7fca","ios":"levelo://app?vid=af2bad0f-62a1-473a-94ad-711ca6bb7fca"},"vehicle_type_id":"4","last_reported":1713024537,"current_range_meters":8400,"station_id":"ce4bgvp2rcd13ifvqcu0","pricing_plan_id":"cebpf4jnsgd1na2vs0mg"},{"bike_id":"779bbdf6-1957-4723-b79f-ff16307d2abc","system_id":"levelo_inurba_marseille","lat":43.313291,"lon":5.396838,"is_reserved":false,"is_disabled":false,"rental_uris":{"android":"levelo://app?vid=779bbdf6-1957-4723-b79f-ff16307d2abc","ios":"levelo://app?vid=779bbdf6-1957-4723-b79f-ff16307d2abc"},"vehicle_type_id":"4","last_reported":1713024537,"current_range_meters":4400,"station_id":"ce4bgvp2rcd13ifvqcu0","pricing_plan_id":"cebpf4jnsgd1na2vs0mg"},{"bike_id":"99f03cee-668a-4f6a-848d-6f90fd173253","system_id":"levelo_inurba_marseille","lat":43.290104,"lon":5.356111,"is_reserved":false,"is_disabled":false,"rental_uris":{"android":"levelo://app?vid=99f03cee-668a-4f6a-848d-6f90fd173253","ios":"levelo://app?vid=99f03cee-668a-4f6a-848d-6f90fd173253"},"vehicle_type_id":"4","last_reported":1713024537,"current_range_meters":0,"station_id":"ce4bhb92rcd13ifvqen0","pricing_plan_id":"cebpf4jnsgd1na2vs0mg"},{"bike_id":"0b0f23b4-ad71-4a2f-a3b1-47533aa5af6f","system_id":"levelo_inurba_marseille","lat":43.290779,"lon":5.371482,"is_reserved":false,"is_disabled":false,"rental_uris":{"android":"levelo://app?vid=0b0f23b4-ad71-4a2f-a3b1-47533aa5af6f","ios":"levelo://app?vid=0b0f23b4-ad71-4a2f-a3b1-47533aa5af6f"},"vehicle_type_id":"4","last_reported":1713024537,"current_range_meters":0,"station_id":"ce4bh5p2rcd13ifvqe4g","pricing_plan_id":"cebpf4jnsgd1na2vs0mg"},{"bike_id":"f4b884ba-c743-4eec-a5b6-fff75f0149df","system_id":"levelo_inurba_marseille","lat":43.290779,"lon":5.371482,"is_reserved":false,"is_disabled":false,"rental_uris":{"android":"levelo://app?vid=f4b884ba-c743-4eec-a5b6-fff75f0149df","ios":"levelo://app?vid=f4b884ba-c743-4eec-a5b6-fff75f0149df"},"vehicle_type_id":"4","last_reported":1713024537,"current_range_meters":12400,"station_id":"ce4bh5p2rcd13ifvqe4g","pricing_plan_id":"cebpf4jnsgd1na2vs0mg"},{"bike_id":"5e252c1e-5ee4-4392-8065-e8ea2f5e3bd8","system_id":"levelo_inurba_marseille","lat":43.290535,"lon":5.371339,"is_reserved":false,"is_disabled":false,"rental_uris":{"android":"levelo://app?vid=5e252c1e-5ee4-4392-8065-e8ea2f5e3bd8","ios":"levelo://app?vid=5e252c1e-5ee4-4392-8065-e8ea2f5e3bd8"},"vehicle_type_id":"4","last_reported":1713024537,"current_range_meters":0,"station_id":"ce4bh5p2rcd13ifvqe4g","pricing_plan_id":"cebpf4jnsgd1na2vs0mg"},{"bike_id":"ffe4264c-79f8-4efe-aa31-c0dd0e711207","system_id":"levelo_inurba_marseille","lat":43.312609,"lon":5.401662,"is_reserved":false,"is_disabled":false,"rental_uris":{"android":"levelo://app?vid=ffe4264c-79f8-4efe-aa31-c0dd0e711207","ios":"levelo://app?vid=ffe4264c-79f8-4efe-aa31-c0dd0e711207"},"vehicle_type_id":"4","last_reported":1713024537,"current_range_meters":6000,"station_id":"ce4bh092rcd13ifvqd30","pricing_plan_id":"cebpf4jnsgd1na2vs0mg"},{"bike_id":"2332ba67-8871-4f69-95a1-f5355f1684c2","system_id":"levelo_inurba_marseille","lat":43.316828,"lon":5.404723,"is_reserved":false,"is_disabled":false,"rental_uris":{"android":"levelo://app?vid=2332ba67-8871-4f69-95a1-f5355f1684c2","ios":"levelo://app?vid=2332ba67-8871-4f69-95a1-f5355f1684c2"},"vehicle_type_id":"4","last_reported":1713024537,"current_range_meters":23600,"station_id":"ce4bh012rcd13ifvqd00","pricing_plan_id":"cebpf4jnsgd1na2vs0mg"},{"bike_id":"64951452-c892-4000-8736-186c8b0a8ba4","system_id":"levelo_inurba_marseille","lat":43.302008,"lon":5.394694,"is_reserved":false,"is_disabled":false,"rental_uris":{"android":"levelo://app?vid=64951452-c892-4000-8736-186c8b0a8ba4","ios":"levelo://app?vid=64951452-c892-4000-8736-186c8b0a8ba4"},"vehicle_type_id":"4","last_reported":1713024537,"current_range_meters":800,"station_id":"ce4bh0p2rcd13ifvqd70","pricing_plan_id":"cebpf4jnsgd1na2vs0mg"},{"bike_id":"bcabd74e-e12f-417c-ab50-dfbfe9280532","system_id":"levelo_inurba_marseille","lat":43.29419,"lon":5.38625,"is_reserved":false,"is_disabled":false,"rental_uris":{"android":"levelo://app?vid=bcabd74e-e12f-417c-ab50-dfbfe9280532","ios":"levelo://app?vid=bcabd74e-e12f-417c-ab50-dfbfe9280532"},"vehicle_type_id":"4","last_reported":1713024537,"current_range_meters":0,"station_id":"ce4bh2h2rcd13ifvqdh0","pricing_plan_id":"cebpf4jnsgd1na2vs0mg"},{"bike_id":"9f2c5a17-dbe4-4ca0-8623-2f5078f22719","system_id":"levelo_inurba_marseille","lat":43.285856,"lon":5.350771,"is_reserved":false,"is_disabled":false,"rental_uris":{"android":"levelo://app?vid=9f2c5a17-dbe4-4ca0-8623-2f5078f22719","ios":"levelo://app?vid=9f2c5a17-dbe4-4ca0-8623-2f5078f22719"},"vehicle_type_id":"4","last_reported":1713024537,"current_range_meters":0,"station_id":"ce4bhch2rcd13ifvqeug","pricing_plan_id":"cebpf4jnsgd1na2vs0mg"},{"bike_id":"65c1387b-8e1b-4c36-a901-6af7b961f1d6","system_id":"levelo_inurba_marseille","lat":43.29417,"lon":5.38632,"is_reserved":false,"is_disabled":false,"rental_uris":{"android":"levelo://app?vid=65c1387b-8e1b-4c36-a901-6af7b961f1d6","ios":"levelo://app?vid=65c1387b-8e1b-4c36-a901-6af7b961f1d6"},"vehicle_type_id":"4","last_reported":1713024537,"current_range_meters":0,"station_id":"ce4bh2h2rcd13ifvqdh0","pricing_plan_id":"cebpf4jnsgd1na2vs0mg"},{"bike_id":"77e54ce3-63bc-425c-a9ae-9d2b3b47cba6","system_id":"levelo_inurba_marseille","lat":43.294138,"lon":5.38631,"is_reserved":false,"is_disabled":false,"rental_uris":{"android":"levelo://app?vid=77e54ce3-63bc-425c-a9ae-9d2b3b47cba6","ios":"levelo://app?vid=77e54ce3-63bc-425c-a9ae-9d2b3b47cba6"},"vehicle_type_id":"4","last_reported":1713024537,"current_range_meters":0,"station_id":"ce4bh2h2rcd13ifvqdh0","pricing_plan_id":"cebpf4jnsgd1na2vs0mg"},{"bike_id":"ad9fe818-03c4-438c-88d9-e523270ad42e","system_id":"levelo_inurba_marseille","lat":43.289184,"lon":5.366408,"is_reserved":false,"is_disabled":false,"rental_uris":{"android":"levelo://app?vid=ad9fe818-03c4-438c-88d9-e523270ad42e","ios":"levelo://app?vid=ad9fe818-03c4-438c-88d9-e523270ad42e"},"vehicle_type_id":"4","last_reported":1713024537,"current_range_meters":17600,"station_id":"ce4bhap2rcd13ifvqek0","pricing_plan_id":"cebpf4jnsgd1na2vs0mg"},{"bike_id":"22af9740-aae1-421a-a16b-bd0979ff0fa8","system_id":"levelo_inurba_marseille","lat":43.289468,"lon":5.363719,"is_reserved":false,"is_disabled":false,"rental_uris":{"android":"levelo://app?vid=22af9740-aae1-421a-a16b-bd0979ff0fa8","ios":"levelo://app?vid=22af9740-aae1-421a-a16b-bd0979ff0fa8"},"vehicle_type_id":"4","last_reported":1713024537,"current_range_meters":3600,"station_id":"ce4bhc92rcd13ifvqetg","pricing_plan_id":"cebpf4jnsgd1na2vs0mg"},{"bike_id":"ca12f8b7-fb1d-47ff-aaad-49dc6d243648","system_id":"levelo_inurba_marseille","lat":43.290319,"lon":5.375732,"is_reserved":false,"is_disabled":false,"rental_uris":{"android":"levelo://app?vid=ca12f8b7-fb1d-47ff-aaad-49dc6d243648","ios":"levelo://app?vid=ca12f8b7-fb1d-47ff-aaad-49dc6d243648"},"vehicle_type_id":"4","last_reported":1713024537,"current_range_meters":10400,"station_id":"ce4bh692rcd13ifvqe90","pricing_plan_id":"cebpf4jnsgd1na2vs0mg"},{"bike_id":"30cba3d5-638b-4ec8-adc4-3a5a8de74531","system_id":"levelo_inurba_marseille","lat":43.289184,"lon":5.366408,"is_reserved":false,"is_disabled":false,"rental_uris":{"android":"levelo://app?vid=30cba3d5-638b-4ec8-adc4-3a5a8de74531","ios":"levelo://app?vid=30cba3d5-638b-4ec8-adc4-3a5a8de74531"},"vehicle_type_id":"4","last_reported":1713024537,"current_range_meters":2400,"station_id":"ce4bhap2rcd13ifvqek0","pricing_plan_id":"cebpf4jnsgd1na2vs0mg"},{"bike_id":"afe49d34-766d-4312-88f2-9e517a1fb31e","system_id":"levelo_inurba_marseille","lat":43.289184,"lon":5.366408,"is_reserved":false,"is_disabled":false,"rental_uris":{"android":"levelo://app?vid=afe49d34-766d-4312-88f2-9e517a1fb31e","ios":"levelo://app?vid=afe49d34-766d-4312-88f2-9e517a1fb31e"},"vehicle_type_id":"4","last_reported":1713024537,"current_range_meters":18000,"station_id":"ce4bhap2rcd13ifvqek0","pricing_plan_id":"cebpf4jnsgd1na2vs0mg"},{"bike_id":"ce8177cc-cb46-4008-97f9-d32c0076c9d4","system_id":"levelo_inurba_marseille","lat":43.289184,"lon":5.366408,"is_reserved":false,"is_disabled":false,"rental_uris":{"android":"levelo://app?vid=ce8177cc-cb46-4008-97f9-d32c0076c9d4","ios":"levelo://app?vid=ce8177cc-cb46-4008-97f9-d32c0076c9d4"},"vehicle_type_id":"4","last_reported":1713024537,"current_range_meters":0,"station_id":"ce4bhap2rcd13ifvqek0","pricing_plan_id":"cebpf4jnsgd1na2vs0mg"},{"bike_id":"f55cfcb1-2de5-485f-b22f-c02900a5b626","system_id":"levelo_inurba_marseille","lat":43.29263,"lon":5.38444,"is_reserved":false,"is_disabled":false,"rental_uris":{"android":"levelo://app?vid=f55cfcb1-2de5-485f-b22f-c02900a5b626","ios":"levelo://app?vid=f55cfcb1-2de5-485f-b22f-c02900a5b626"},"vehicle_type_id":"4","last_reported":1713024537,"current_range_meters":0,"station_id":"ce4bh692rcd13ifvqea0","pricing_plan_id":"cebpf4jnsgd1na2vs0mg"},{"bike_id":"a0be9bed-8bea-4c15-a571-4fd62ae067d8","system_id":"levelo_inurba_marseille","lat":43.290104,"lon":5.356111,"is_reserved":false,"is_disabled":false,"rental_uris":{"android":"levelo://app?vid=a0be9bed-8bea-4c15-a571-4fd62ae067d8","ios":"levelo://app?vid=a0be9bed-8bea-4c15-a571-4fd62ae067d8"},"vehicle_type_id":"4","last_reported":1713024537,"current_range_meters":0,"station_id":"ce4bhb92rcd13ifvqen0","pricing_plan_id":"cebpf4jnsgd1na2vs0mg"},{"bike_id":"bddf8761-3927-486c-b2ff-278a8e7c1a37","system_id":"levelo_inurba_marseille","lat":43.290104,"lon":5.356111,"is_reserved":false,"is_disabled":false,"rental_uris":{"android":"levelo://app?vid=bddf8761-3927-486c-b2ff-278a8e7c1a37","ios":"levelo://app?vid=bddf8761-3927-486c-b2ff-278a8e7c1a37"},"vehicle_type_id":"4","last_reported":1713024537,"current_range_meters":800,"station_id":"ce4bhb92rcd13ifvqen0","pricing_plan_id":"cebpf4jnsgd1na2vs0mg"},{"bike_id":"90bdac4a-0de7-41d9-9562-2d17e16fe5c9","system_id":"levelo_inurba_marseille","lat":43.290104,"lon":5.356111,"is_reserved":false,"is_disabled":false,"rental_uris":{"android":"levelo://app?vid=90bdac4a-0de7-41d9-9562-2d17e16fe5c9","ios":"levelo://app?vid=90bdac4a-0de7-41d9-9562-2d17e16fe5c9"},"vehicle_type_id":"4","last_reported":1713024537,"current_range_meters":2400,"station_id":"ce4bhb92rcd13ifvqen0","pricing_plan_id":"cebpf4jnsgd1na2vs0mg"},{"bike_id":"a3dbaac0-9315-4ab0-b35a-ea8699b9ed99","system_id":"levelo_inurba_marseille","lat":43.290104,"lon":5.356111,"is_reserved":false,"is_disabled":false,"rental_uris":{"android":"levelo://app?vid=a3dbaac0-9315-4ab0-b35a-ea8699b9ed99","ios":"levelo://app?vid=a3dbaac0-9315-4ab0-b35a-ea8699b9ed99"},"vehicle_type_id":"4","last_reported":1713024537,"current_range_meters":9200,"station_id":"ce4bhb92rcd13ifvqen0","pricing_plan_id":"cebpf4jnsgd1na2vs0mg"},{"bike_id":"784b514e-aec4-47bf-a088-cc5ea8a325ec","system_id":"levelo_inurba_marseille","lat":43.290962,"lon":5.38127,"is_reserved":false,"is_disabled":false,"rental_uris":{"android":"levelo://app?vid=784b514e-aec4-47bf-a088-cc5ea8a325ec","ios":"levelo://app?vid=784b514e-aec4-47bf-a088-cc5ea8a325ec"},"vehicle_type_id":"4","last_reported":1713024537,"current_range_meters":0,"station_id":"ce4bh512rcd13ifvqe2g","pricing_plan_id":"cebpf4jnsgd1na2vs0mg"},{"bike_id":"19d26b28-1062-4a5f-8c31-afe830ef2c4c","system_id":"levelo_inurba_marseille","lat":43.290995,"lon":5.381361,"is_reserved":false,"is_disabled":false,"rental_uris":{"android":"levelo://app?vid=19d26b28-1062-4a5f-8c31-afe830ef2c4c","ios":"levelo://app?vid=19d26b28-1062-4a5f-8c31-afe830ef2c4c"},"vehicle_type_id":"4","last_reported":1713024537,"current_range_meters":14400,"station_id":"ce4bh512rcd13ifvqe2g","pricing_plan_id":"cebpf4jnsgd1na2vs0mg"},{"bike_id":"04cde014-8160-4cf7-b3b2-08f7f8530825","system_id":"levelo_inurba_marseille","lat":43.2909,"lon":5.38129,"is_reserved":false,"is_disabled":false,"rental_uris":{"android":"levelo://app?vid=04cde014-8160-4cf7-b3b2-08f7f8530825","ios":"levelo://app?vid=04cde014-8160-4cf7-b3b2-08f7f8530825"},"vehicle_type_id":"4","last_reported":1713024537,"current_range_meters":4000,"station_id":"ce4bh512rcd13ifvqe2g","pricing_plan_id":"cebpf4jnsgd1na2vs0mg"},{"bike_id":"ca085c08-1d4e-4efc-992e-d94af4fed63f","system_id":"levelo_inurba_marseille","lat":43.2977,"lon":5.39323,"is_reserved":false,"is_disabled":false,"rental_uris":{"android":"levelo://app?vid=ca085c08-1d4e-4efc-992e-d94af4fed63f","ios":"levelo://app?vid=ca085c08-1d4e-4efc-992e-d94af4fed63f"},"vehicle_type_id":"4","last_reported":1713024537,"current_range_meters":2800,"station_id":"chh1huq6cuj3fo74tm60","pricing_plan_id":"cebpf4jnsgd1na2vs0mg"},{"bike_id":"7108b49c-69d8-466b-a2bd-a4967bd8bf6a","system_id":"levelo_inurba_marseille","lat":43.295318,"lon":5.390374,"is_reserved":false,"is_disabled":false,"rental_uris":{"android":"levelo://app?vid=7108b49c-69d8-466b-a2bd-a4967bd8bf6a","ios":"levelo://app?vid=7108b49c-69d8-466b-a2bd-a4967bd8bf6a"},"vehicle_type_id":"4","last_reported":1713024537,"current_range_meters":0,"station_id":"ce4bh3p2rcd13ifvqdp0","pricing_plan_id":"cebpf4jnsgd1na2vs0mg"},{"bike_id":"1c60af28-089e-4fc7-a0da-3fa30fe32b65","system_id":"levelo_inurba_marseille","lat":43.330442,"lon":5.389148,"is_reserved":false,"is_disabled":false,"rental_uris":{"android":"levelo://app?vid=1c60af28-089e-4fc7-a0da-3fa30fe32b65","ios":"levelo://app?vid=1c60af28-089e-4fc7-a0da-3fa30fe32b65"},"vehicle_type_id":"4","last_reported":1713024537,"current_range_meters":13600,"station_id":"ce4bhr92rcd13ifvqhrg","pricing_plan_id":"cebpf4jnsgd1na2vs0mg"},{"bike_id":"7f549e66-f0c8-4dce-a000-e777a3e04bbb","system_id":"levelo_inurba_marseille","lat":43.289743,"lon":5.378304,"is_reserved":false,"is_disabled":false,"rental_uris":{"android":"levelo://app?vid=7f549e66-f0c8-4dce-a000-e777a3e04bbb","ios":"levelo://app?vid=7f549e66-f0c8-4dce-a000-e777a3e04bbb"},"vehicle_type_id":"4","last_reported":1713024537,"current_range_meters":0,"station_id":"ce4bh9p2rcd13ifvqed0","pricing_plan_id":"cebpf4jnsgd1na2vs0mg"},{"bike_id":"bb5eb9c8-1234-40bb-ba44-edef878b2053","system_id":"levelo_inurba_marseille","lat":43.295169,"lon":5.390426,"is_reserved":false,"is_disabled":false,"rental_uris":{"android":"levelo://app?vid=bb5eb9c8-1234-40bb-ba44-edef878b2053","ios":"levelo://app?vid=bb5eb9c8-1234-40bb-ba44-edef878b2053"},"vehicle_type_id":"4","last_reported":1713024537,"current_range_meters":2000,"station_id":"ce4bh3p2rcd13ifvqdp0","pricing_plan_id":"cebpf4jnsgd1na2vs0mg"},{"bike_id":"bc7a5267-bdca-4957-a5af-336920a2bb14","system_id":"levelo_inurba_marseille","lat":43.290094,"lon":5.381264,"is_reserved":false,"is_disabled":false,"rental_uris":{"android":"levelo://app?vid=bc7a5267-bdca-4957-a5af-336920a2bb14","ios":"levelo://app?vid=bc7a5267-bdca-4957-a5af-336920a2bb14"},"vehicle_type_id":"4","last_reported":1713024537,"current_range_meters":2800,"station_id":"ce4bh4p2rcd13ifvqe1g","pricing_plan_id":"cebpf4jnsgd1na2vs0mg"},{"bike_id":"8c63c568-31a1-4908-b166-4bf6278810f5","system_id":"levelo_inurba_marseille","lat":43.301117,"lon":5.398795,"is_reserved":false,"is_disabled":false,"rental_uris":{"android":"levelo://app?vid=8c63c568-31a1-4908-b166-4bf6278810f5","ios":"levelo://app?vid=8c63c568-31a1-4908-b166-4bf6278810f5"},"vehicle_type_id":"4","last_reported":1713024537,"current_range_meters":8400,"station_id":"ce4bh0h2rcd13ifvqd40","pricing_plan_id":"cebpf4jnsgd1na2vs0mg"},{"bike_id":"fdba5038-ba29-4afa-b88c-7c392ca884f5","system_id":"levelo_inurba_marseille","lat":43.28856,"lon":5.358371,"is_reserved":false,"is_disabled":false,"rental_uris":{"android":"levelo://app?vid=fdba5038-ba29-4afa-b88c-7c392ca884f5","ios":"levelo://app?vid=fdba5038-ba29-4afa-b88c-7c392ca884f5"},"vehicle_type_id":"4","last_reported":1713024537,"current_range_meters":0,"station_id":"ce4bhb12rcd13ifvqem0","pricing_plan_id":"cebpf4jnsgd1na2vs0mg"},{"bike_id":"2cc2a59f-2378-48ae-9eac-0c82c0510caa","system_id":"levelo_inurba_marseille","lat":43.28848,"lon":5.3584,"is_reserved":false,"is_disabled":false,"rental_uris":{"android":"levelo://app?vid=2cc2a59f-2378-48ae-9eac-0c82c0510caa","ios":"levelo://app?vid=2cc2a59f-2378-48ae-9eac-0c82c0510caa"},"vehicle_type_id":"4","last_reported":1713024537,"current_range_meters":0,"station_id":"ce4bhb12rcd13ifvqem0","pricing_plan_id":"cebpf4jnsgd1na2vs0mg"},{"bike_id":"f690c031-3687-49ac-8624-cdebbf670aad","system_id":"levelo_inurba_marseille","lat":43.295169,"lon":5.390426,"is_reserved":false,"is_disabled":false,"rental_uris":{"android":"levelo://app?vid=f690c031-3687-49ac-8624-cdebbf670aad","ios":"levelo://app?vid=f690c031-3687-49ac-8624-cdebbf670aad"},"vehicle_type_id":"4","last_reported":1713024537,"current_range_meters":4400,"station_id":"ce4bh3p2rcd13ifvqdp0","pricing_plan_id":"cebpf4jnsgd1na2vs0mg"},{"bike_id":"43bb4cbf-3fcb-45c8-938a-800d20c89f77","system_id":"levelo_inurba_marseille","lat":43.283494,"lon":5.380945,"is_reserved":false,"is_disabled":false,"rental_uris":{"android":"levelo://app?vid=43bb4cbf-3fcb-45c8-938a-800d20c89f77","ios":"levelo://app?vid=43bb4cbf-3fcb-45c8-938a-800d20c89f77"},"vehicle_type_id":"4","last_reported":1713024537,"current_range_meters":0,"station_id":"ce4bh412rcd13ifvqdr0","pricing_plan_id":"cebpf4jnsgd1na2vs0mg"},{"bike_id":"d3ea26f4-7d4d-45b7-8172-0133ecd9329b","system_id":"levelo_inurba_marseille","lat":43.337576,"lon":5.374574,"is_reserved":false,"is_disabled":false,"rental_uris":{"android":"levelo://app?vid=d3ea26f4-7d4d-45b7-8172-0133ecd9329b","ios":"levelo://app?vid=d3ea26f4-7d4d-45b7-8172-0133ecd9329b"},"vehicle_type_id":"4","last_reported":1713024537,"current_range_meters":25200,"station_id":"","pricing_plan_id":"cebpf4jnsgd1na2vs0mg"},{"bike_id":"5c49b4f6-ab3f-4110-aef5-d47870657532","system_id":"levelo_inurba_marseille","lat":43.306412,"lon":5.401035,"is_reserved":false,"is_disabled":false,"rental_uris":{"android":"levelo://app?vid=5c49b4f6-ab3f-4110-aef5-d47870657532","ios":"levelo://app?vid=5c49b4f6-ab3f-4110-aef5-d47870657532"},"vehicle_type_id":"4","last_reported":1713024537,"current_range_meters":2800,"station_id":"ce4bh112rcd13ifvqda0","pricing_plan_id":"cebpf4jnsgd1na2vs0mg"},{"bike_id":"14281150-568b-4062-bd3b-9d64ed8d4c4e","system_id":"levelo_inurba_marseille","lat":43.306412,"lon":5.401035,"is_reserved":false,"is_disabled":false,"rental_uris":{"android":"levelo://app?vid=14281150-568b-4062-bd3b-9d64ed8d4c4e","ios":"levelo://app?vid=14281150-568b-4062-bd3b-9d64ed8d4c4e"},"vehicle_type_id":"4","last_reported":1713024537,"current_range_meters":1600,"station_id":"ce4bh112rcd13ifvqda0","pricing_plan_id":"cebpf4jnsgd1na2vs0mg"},{"bike_id":"09a4076a-7cf8-4cf0-8319-95fe71438b9b","system_id":"levelo_inurba_marseille","lat":43.286591,"lon":5.363346,"is_reserved":false,"is_disabled":false,"rental_uris":{"android":"levelo://app?vid=09a4076a-7cf8-4cf0-8319-95fe71438b9b","ios":"levelo://app?vid=09a4076a-7cf8-4cf0-8319-95fe71438b9b"},"vehicle_type_id":"4","last_reported":1713024537,"current_range_meters":0,"station_id":"ce4bhah2rcd13ifvqej0","pricing_plan_id":"cebpf4jnsgd1na2vs0mg"},{"bike_id":"a6120b11-2413-4277-8345-a367c8f57976","system_id":"levelo_inurba_marseille","lat":43.28697,"lon":5.37305,"is_reserved":false,"is_disabled":false,"rental_uris":{"android":"levelo://app?vid=a6120b11-2413-4277-8345-a367c8f57976","ios":"levelo://app?vid=a6120b11-2413-4277-8345-a367c8f57976"},"vehicle_type_id":"4","last_reported":1713024537,"current_range_meters":1200,"station_id":"","pricing_plan_id":"cebpf4jnsgd1na2vs0mg"},{"bike_id":"41bc4d58-6619-4e9d-9d65-881109cb9c63","system_id":"levelo_inurba_marseille","lat":43.28705,"lon":5.37385,"is_reserved":false,"is_disabled":false,"rental_uris":{"android":"levelo://app?vid=41bc4d58-6619-4e9d-9d65-881109cb9c63","ios":"levelo://app?vid=41bc4d58-6619-4e9d-9d65-881109cb9c63"},"vehicle_type_id":"4","last_reported":1713024537,"current_range_meters":0,"station_id":"ce4bh3p2rcd13ifvqdq0","pricing_plan_id":"cebpf4jnsgd1na2vs0mg"},{"bike_id":"b05d8872-40f3-4485-80f4-b6fbd27601cc","system_id":"levelo_inurba_marseille","lat":43.28696,"lon":5.37375,"is_reserved":false,"is_disabled":false,"rental_uris":{"android":"levelo://app?vid=b05d8872-40f3-4485-80f4-b6fbd27601cc","ios":"levelo://app?vid=b05d8872-40f3-4485-80f4-b6fbd27601cc"},"vehicle_type_id":"4","last_reported":1713024537,"current_range_meters":12800,"station_id":"ce4bh3p2rcd13ifvqdq0","pricing_plan_id":"cebpf4jnsgd1na2vs0mg"},{"bike_id":"75c3e5d8-5961-44e2-b891-760adef6a8dd","system_id":"levelo_inurba_marseille","lat":43.28698,"lon":5.3739,"is_reserved":false,"is_disabled":false,"rental_uris":{"android":"levelo://app?vid=75c3e5d8-5961-44e2-b891-760adef6a8dd","ios":"levelo://app?vid=75c3e5d8-5961-44e2-b891-760adef6a8dd"},"vehicle_type_id":"4","last_reported":1713024537,"current_range_meters":2800,"station_id":"ce4bh3p2rcd13ifvqdq0","pricing_plan_id":"cebpf4jnsgd1na2vs0mg"},{"bike_id":"0e9fb8af-25c7-47c4-b946-f75148c5c72c","system_id":"levelo_inurba_marseille","lat":43.309589,"lon":5.390258,"is_reserved":false,"is_disabled":false,"rental_uris":{"android":"levelo://app?vid=0e9fb8af-25c7-47c4-b946-f75148c5c72c","ios":"levelo://app?vid=0e9fb8af-25c7-47c4-b946-f75148c5c72c"},"vehicle_type_id":"4","last_reported":1713024537,"current_range_meters":2400,"station_id":"ce4bgup2rcd13ifvqco0","pricing_plan_id":"cebpf4jnsgd1na2vs0mg"},{"bike_id":"b3b234da-32f4-47fa-bced-1a973561a853","system_id":"levelo_inurba_marseille","lat":43.289307,"lon":5.38406,"is_reserved":false,"is_disabled":false,"rental_uris":{"android":"levelo://app?vid=b3b234da-32f4-47fa-bced-1a973561a853","ios":"levelo://app?vid=b3b234da-32f4-47fa-bced-1a973561a853"},"vehicle_type_id":"4","last_reported":1713024537,"current_range_meters":4800,"station_id":"ce4bh612rcd13ifvqe6g","pricing_plan_id":"cebpf4jnsgd1na2vs0mg"},{"bike_id":"e8a78b75-680e-485f-b3b1-304cd1f1614f","system_id":"levelo_inurba_marseille","lat":43.295194,"lon":5.39397,"is_reserved":false,"is_disabled":false,"rental_uris":{"android":"levelo://app?vid=e8a78b75-680e-485f-b3b1-304cd1f1614f","ios":"levelo://app?vid=e8a78b75-680e-485f-b3b1-304cd1f1614f"},"vehicle_type_id":"4","last_reported":1713024537,"current_range_meters":0,"station_id":"ce4bh292rcd13ifvqdf0","pricing_plan_id":"cebpf4jnsgd1na2vs0mg"},{"bike_id":"38f31b8d-f2e8-4710-bfa2-2f6bf7f683d6","system_id":"levelo_inurba_marseille","lat":43.290345,"lon":5.38646,"is_reserved":false,"is_disabled":false,"rental_uris":{"android":"levelo://app?vid=38f31b8d-f2e8-4710-bfa2-2f6bf7f683d6","ios":"levelo://app?vid=38f31b8d-f2e8-4710-bfa2-2f6bf7f683d6"},"vehicle_type_id":"4","last_reported":1713024537,"current_range_meters":400,"station_id":"ce4bh4p2rcd13ifvqe0g","pricing_plan_id":"cebpf4jnsgd1na2vs0mg"},{"bike_id":"ccf8ae1c-e308-43c6-85c6-55aba6dc3f8a","system_id":"levelo_inurba_marseille","lat":43.286039,"lon":5.370679,"is_reserved":false,"is_disabled":false,"rental_uris":{"android":"levelo://app?vid=ccf8ae1c-e308-43c6-85c6-55aba6dc3f8a","ios":"levelo://app?vid=ccf8ae1c-e308-43c6-85c6-55aba6dc3f8a"},"vehicle_type_id":"4","last_reported":1713024537,"current_range_meters":400,"station_id":"ce4bht12rcd13ifvqi60","pricing_plan_id":"cebpf4jnsgd1na2vs0mg"},{"bike_id":"5b1cb1cb-3745-40dc-a491-63ff79129b55","system_id":"levelo_inurba_marseille","lat":43.286039,"lon":5.370679,"is_reserved":false,"is_disabled":false,"rental_uris":{"android":"levelo://app?vid=5b1cb1cb-3745-40dc-a491-63ff79129b55","ios":"levelo://app?vid=5b1cb1cb-3745-40dc-a491-63ff79129b55"},"vehicle_type_id":"4","last_reported":1713024537,"current_range_meters":29200,"station_id":"ce4bht12rcd13ifvqi60","pricing_plan_id":"cebpf4jnsgd1na2vs0mg"},{"bike_id":"5838b3e0-faf9-44f9-adc0-1eb5944f002a","system_id":"levelo_inurba_marseille","lat":43.286039,"lon":5.370679,"is_reserved":false,"is_disabled":false,"rental_uris":{"android":"levelo://app?vid=5838b3e0-faf9-44f9-adc0-1eb5944f002a","ios":"levelo://app?vid=5838b3e0-faf9-44f9-adc0-1eb5944f002a"},"vehicle_type_id":"4","last_reported":1713024537,"current_range_meters":10800,"station_id":"ce4bht12rcd13ifvqi60","pricing_plan_id":"cebpf4jnsgd1na2vs0mg"},{"bike_id":"52b073c2-6725-46a4-a517-c25735d9132d","system_id":"levelo_inurba_marseille","lat":43.287185,"lon":5.379373,"is_reserved":false,"is_disabled":false,"rental_uris":{"android":"levelo://app?vid=52b073c2-6725-46a4-a517-c25735d9132d","ios":"levelo://app?vid=52b073c2-6725-46a4-a517-c25735d9132d"},"vehicle_type_id":"4","last_reported":1713024537,"current_range_meters":0,"station_id":"ce4bh9p2rcd13ifvqec0","pricing_plan_id":"cebpf4jnsgd1na2vs0mg"},{"bike_id":"223933ab-a9c7-4257-95ac-b9a35c54f1f1","system_id":"levelo_inurba_marseille","lat":43.286039,"lon":5.370679,"is_reserved":false,"is_disabled":false,"rental_uris":{"android":"levelo://app?vid=223933ab-a9c7-4257-95ac-b9a35c54f1f1","ios":"levelo://app?vid=223933ab-a9c7-4257-95ac-b9a35c54f1f1"},"vehicle_type_id":"4","last_reported":1713024537,"current_range_meters":1600,"station_id":"ce4bht12rcd13ifvqi60","pricing_plan_id":"cebpf4jnsgd1na2vs0mg"},{"bike_id":"33a1d37d-1097-4517-a6ec-61972a254a37","system_id":"levelo_inurba_marseille","lat":43.31687,"lon":5.40471,"is_reserved":false,"is_disabled":false,"rental_uris":{"android":"levelo://app?vid=33a1d37d-1097-4517-a6ec-61972a254a37","ios":"levelo://app?vid=33a1d37d-1097-4517-a6ec-61972a254a37"},"vehicle_type_id":"4","last_reported":1713024537,"current_range_meters":12400,"station_id":"ce4bh012rcd13ifvqd00","pricing_plan_id":"cebpf4jnsgd1na2vs0mg"},{"bike_id":"59369db9-220b-4184-a63d-22f2a5a1ecee","system_id":"levelo_inurba_marseille","lat":43.316821,"lon":5.404737,"is_reserved":false,"is_disabled":false,"rental_uris":{"android":"levelo://app?vid=59369db9-220b-4184-a63d-22f2a5a1ecee","ios":"levelo://app?vid=59369db9-220b-4184-a63d-22f2a5a1ecee"},"vehicle_type_id":"4","last_reported":1713024537,"current_range_meters":0,"station_id":"ce4bh012rcd13ifvqd00","pricing_plan_id":"cebpf4jnsgd1na2vs0mg"},{"bike_id":"496a450c-12c7-4b32-a3b7-0cc77dd7df1e","system_id":"levelo_inurba_marseille","lat":43.291994,"lon":5.392907,"is_reserved":false,"is_disabled":false,"rental_uris":{"android":"levelo://app?vid=496a450c-12c7-4b32-a3b7-0cc77dd7df1e","ios":"levelo://app?vid=496a450c-12c7-4b32-a3b7-0cc77dd7df1e"},"vehicle_type_id":"4","last_reported":1713024537,"current_range_meters":10000,"station_id":"ce4bh192rcd13ifvqdd0","pricing_plan_id":"cebpf4jnsgd1na2vs0mg"},{"bike_id":"116176b0-83a9-4236-ad98-073f944156ce","system_id":"levelo_inurba_marseille","lat":43.284534,"lon":5.358662,"is_reserved":false,"is_disabled":false,"rental_uris":{"android":"levelo://app?vid=116176b0-83a9-4236-ad98-073f944156ce","ios":"levelo://app?vid=116176b0-83a9-4236-ad98-073f944156ce"},"vehicle_type_id":"4","last_reported":1713024537,"current_range_meters":2000,"station_id":"ce4bhah2rcd13ifvqei0","pricing_plan_id":"cebpf4jnsgd1na2vs0mg"},{"bike_id":"66d302b9-1ff2-4df7-aac9-4aa425d50b22","system_id":"levelo_inurba_marseille","lat":43.2846,"lon":5.35885,"is_reserved":false,"is_disabled":false,"rental_uris":{"android":"levelo://app?vid=66d302b9-1ff2-4df7-aac9-4aa425d50b22","ios":"levelo://app?vid=66d302b9-1ff2-4df7-aac9-4aa425d50b22"},"vehicle_type_id":"4","last_reported":1713024537,"current_range_meters":0,"station_id":"ce4bhah2rcd13ifvqei0","pricing_plan_id":"cebpf4jnsgd1na2vs0mg"},{"bike_id":"af1fede6-7a86-465c-8844-6bc91c5c51ee","system_id":"levelo_inurba_marseille","lat":43.285856,"lon":5.350771,"is_reserved":false,"is_disabled":false,"rental_uris":{"android":"levelo://app?vid=af1fede6-7a86-465c-8844-6bc91c5c51ee","ios":"levelo://app?vid=af1fede6-7a86-465c-8844-6bc91c5c51ee"},"vehicle_type_id":"4","last_reported":1713024537,"current_range_meters":0,"station_id":"ce4bhch2rcd13ifvqeug","pricing_plan_id":"cebpf4jnsgd1na2vs0mg"},{"bike_id":"e92f7893-22ad-4936-8f3a-fb1ce950ceff","system_id":"levelo_inurba_marseille","lat":43.28614,"lon":5.351,"is_reserved":false,"is_disabled":false,"rental_uris":{"android":"levelo://app?vid=e92f7893-22ad-4936-8f3a-fb1ce950ceff","ios":"levelo://app?vid=e92f7893-22ad-4936-8f3a-fb1ce950ceff"},"vehicle_type_id":"4","last_reported":1713024537,"current_range_meters":0,"station_id":"","pricing_plan_id":"cebpf4jnsgd1na2vs0mg"},{"bike_id":"b37dcc2c-9f92-442a-978e-a4a3cb1f6a04","system_id":"levelo_inurba_marseille","lat":43.284538,"lon":5.358657,"is_reserved":false,"is_disabled":false,"rental_uris":{"android":"levelo://app?vid=b37dcc2c-9f92-442a-978e-a4a3cb1f6a04","ios":"levelo://app?vid=b37dcc2c-9f92-442a-978e-a4a3cb1f6a04"},"vehicle_type_id":"4","last_reported":1713024537,"current_range_meters":1200,"station_id":"ce4bhah2rcd13ifvqei0","pricing_plan_id":"cebpf4jnsgd1na2vs0mg"},{"bike_id":"c3a145f4-08b1-4561-9773-0adc748f3c3e","system_id":"levelo_inurba_marseille","lat":43.284787,"lon":5.384116,"is_reserved":false,"is_disabled":false,"rental_uris":{"android":"levelo://app?vid=c3a145f4-08b1-4561-9773-0adc748f3c3e","ios":"levelo://app?vid=c3a145f4-08b1-4561-9773-0adc748f3c3e"},"vehicle_type_id":"4","last_reported":1713024537,"current_range_meters":0,"station_id":"ce4bh512rcd13ifvqe3g","pricing_plan_id":"cebpf4jnsgd1na2vs0mg"},{"bike_id":"1f6a7034-32d9-48f9-81d7-c5c357287c92","system_id":"levelo_inurba_marseille","lat":43.297946,"lon":5.404063,"is_reserved":false,"is_disabled":false,"rental_uris":{"android":"levelo://app?vid=1f6a7034-32d9-48f9-81d7-c5c357287c92","ios":"levelo://app?vid=1f6a7034-32d9-48f9-81d7-c5c357287c92"},"vehicle_type_id":"4","last_reported":1713024537,"current_range_meters":6800,"station_id":"ce4bh112rcd13ifvqd90","pricing_plan_id":"cebpf4jnsgd1na2vs0mg"},{"bike_id":"f7a6302f-f9ac-43a7-883a-69b81f126c58","system_id":"levelo_inurba_marseille","lat":43.284787,"lon":5.384116,"is_reserved":false,"is_disabled":false,"rental_uris":{"android":"levelo://app?vid=f7a6302f-f9ac-43a7-883a-69b81f126c58","ios":"levelo://app?vid=f7a6302f-f9ac-43a7-883a-69b81f126c58"},"vehicle_type_id":"4","last_reported":1713024537,"current_range_meters":800,"station_id":"ce4bh512rcd13ifvqe3g","pricing_plan_id":"cebpf4jnsgd1na2vs0mg"},{"bike_id":"4231e44f-6e64-47d9-802b-1946e9c53ecf","system_id":"levelo_inurba_marseille","lat":43.32532,"lon":5.40558,"is_reserved":false,"is_disabled":false,"rental_uris":{"android":"levelo://app?vid=4231e44f-6e64-47d9-802b-1946e9c53ecf","ios":"levelo://app?vid=4231e44f-6e64-47d9-802b-1946e9c53ecf"},"vehicle_type_id":"4","last_reported":1713024537,"current_range_meters":4800,"station_id":"","pricing_plan_id":"cebpf4jnsgd1na2vs0mg"},{"bike_id":"46be5b27-bdc0-4ccd-9cdd-2d0ba62a4987","system_id":"levelo_inurba_marseille","lat":43.29795,"lon":5.404086,"is_reserved":false,"is_disabled":false,"rental_uris":{"android":"levelo://app?vid=46be5b27-bdc0-4ccd-9cdd-2d0ba62a4987","ios":"levelo://app?vid=46be5b27-bdc0-4ccd-9cdd-2d0ba62a4987"},"vehicle_type_id":"4","last_reported":1713024537,"current_range_meters":4400,"station_id":"ce4bh112rcd13ifvqd90","pricing_plan_id":"cebpf4jnsgd1na2vs0mg"},{"bike_id":"9220796c-850a-4542-af32-b23061a1144d","system_id":"levelo_inurba_marseille","lat":43.288501,"lon":5.393087,"is_reserved":false,"is_disabled":false,"rental_uris":{"android":"levelo://app?vid=9220796c-850a-4542-af32-b23061a1144d","ios":"levelo://app?vid=9220796c-850a-4542-af32-b23061a1144d"},"vehicle_type_id":"4","last_reported":1713024537,"current_range_meters":0,"station_id":"ce4bh2p2rcd13ifvqdi0","pricing_plan_id":"cebpf4jnsgd1na2vs0mg"},{"bike_id":"d9ca1156-ced6-4c3a-8439-a241fabfb770","system_id":"levelo_inurba_marseille","lat":43.32533,"lon":5.40562,"is_reserved":false,"is_disabled":false,"rental_uris":{"android":"levelo://app?vid=d9ca1156-ced6-4c3a-8439-a241fabfb770","ios":"levelo://app?vid=d9ca1156-ced6-4c3a-8439-a241fabfb770"},"vehicle_type_id":"4","last_reported":1713024537,"current_range_meters":8800,"station_id":"","pricing_plan_id":"cebpf4jnsgd1na2vs0mg"},{"bike_id":"7b01e74e-0183-4f57-a68d-3da972284d84","system_id":"levelo_inurba_marseille","lat":43.29795,"lon":5.404086,"is_reserved":false,"is_disabled":false,"rental_uris":{"android":"levelo://app?vid=7b01e74e-0183-4f57-a68d-3da972284d84","ios":"levelo://app?vid=7b01e74e-0183-4f57-a68d-3da972284d84"},"vehicle_type_id":"4","last_reported":1713024537,"current_range_meters":0,"station_id":"ce4bh112rcd13ifvqd90","pricing_plan_id":"cebpf4jnsgd1na2vs0mg"},{"bike_id":"16354239-de35-43ca-875c-92bb4a5ace82","system_id":"levelo_inurba_marseille","lat":43.32534,"lon":5.40567,"is_reserved":false,"is_disabled":false,"rental_uris":{"android":"levelo://app?vid=16354239-de35-43ca-875c-92bb4a5ace82","ios":"levelo://app?vid=16354239-de35-43ca-875c-92bb4a5ace82"},"vehicle_type_id":"4","last_reported":1713024537,"current_range_meters":24000,"station_id":"","pricing_plan_id":"cebpf4jnsgd1na2vs0mg"},{"bike_id":"5ddbc401-15f3-4184-9421-4cd55156225a","system_id":"levelo_inurba_marseille","lat":43.28432,"lon":5.34993,"is_reserved":false,"is_disabled":false,"rental_uris":{"android":"levelo://app?vid=5ddbc401-15f3-4184-9421-4cd55156225a","ios":"levelo://app?vid=5ddbc401-15f3-4184-9421-4cd55156225a"},"vehicle_type_id":"4","last_reported":1713024537,"current_range_meters":0,"station_id":"ce4bhbh2rcd13ifvqepg","pricing_plan_id":"cebpf4jnsgd1na2vs0mg"},{"bike_id":"81251bb7-d06b-4bca-8ebf-680722af01ee","system_id":"levelo_inurba_marseille","lat":43.284219,"lon":5.3497,"is_reserved":false,"is_disabled":false,"rental_uris":{"android":"levelo://app?vid=81251bb7-d06b-4bca-8ebf-680722af01ee","ios":"levelo://app?vid=81251bb7-d06b-4bca-8ebf-680722af01ee"},"vehicle_type_id":"4","last_reported":1713024537,"current_range_meters":0,"station_id":"ce4bhbh2rcd13ifvqepg","pricing_plan_id":"cebpf4jnsgd1na2vs0mg"},{"bike_id":"b8db0bee-fa72-4450-9f76-a1cf2fa2219d","system_id":"levelo_inurba_marseille","lat":43.28423,"lon":5.349816,"is_reserved":false,"is_disabled":false,"rental_uris":{"android":"levelo://app?vid=b8db0bee-fa72-4450-9f76-a1cf2fa2219d","ios":"levelo://app?vid=b8db0bee-fa72-4450-9f76-a1cf2fa2219d"},"vehicle_type_id":"4","last_reported":1713024537,"current_range_meters":0,"station_id":"ce4bhbh2rcd13ifvqepg","pricing_plan_id":"cebpf4jnsgd1na2vs0mg"},{"bike_id":"8518f45b-cbbc-4888-9c59-9f3edb1935a4","system_id":"levelo_inurba_marseille","lat":43.283733,"lon":5.350031,"is_reserved":false,"is_disabled":false,"rental_uris":{"android":"levelo://app?vid=8518f45b-cbbc-4888-9c59-9f3edb1935a4","ios":"levelo://app?vid=8518f45b-cbbc-4888-9c59-9f3edb1935a4"},"vehicle_type_id":"4","last_reported":1713024537,"current_range_meters":2800,"station_id":"ce4bhbh2rcd13ifvqepg","pricing_plan_id":"cebpf4jnsgd1na2vs0mg"},{"bike_id":"400edfa6-c7c7-48d8-8503-e892119bed39","system_id":"levelo_inurba_marseille","lat":43.289363,"lon":5.396322,"is_reserved":false,"is_disabled":false,"rental_uris":{"android":"levelo://app?vid=400edfa6-c7c7-48d8-8503-e892119bed39","ios":"levelo://app?vid=400edfa6-c7c7-48d8-8503-e892119bed39"},"vehicle_type_id":"4","last_reported":1713024537,"current_range_meters":23600,"station_id":"ce4bh3h2rcd13ifvqdn0","pricing_plan_id":"cebpf4jnsgd1na2vs0mg"},{"bike_id":"ee60c64e-6166-41d5-a4ad-247b0dee9c88","system_id":"levelo_inurba_marseille","lat":43.28336,"lon":5.3502,"is_reserved":false,"is_disabled":false,"rental_uris":{"android":"levelo://app?vid=ee60c64e-6166-41d5-a4ad-247b0dee9c88","ios":"levelo://app?vid=ee60c64e-6166-41d5-a4ad-247b0dee9c88"},"vehicle_type_id":"4","last_reported":1713024537,"current_range_meters":0,"station_id":"ce4bhbh2rcd13ifvqeo0","pricing_plan_id":"cebpf4jnsgd1na2vs0mg"},{"bike_id":"060d7e5d-b278-41ec-bdb3-9385d09f5046","system_id":"levelo_inurba_marseille","lat":43.292724,"lon":5.401131,"is_reserved":false,"is_disabled":false,"rental_uris":{"android":"levelo://app?vid=060d7e5d-b278-41ec-bdb3-9385d09f5046","ios":"levelo://app?vid=060d7e5d-b278-41ec-bdb3-9385d09f5046"},"vehicle_type_id":"4","last_reported":1713024537,"current_range_meters":17600,"station_id":"ce4bh312rcd13ifvqdk0","pricing_plan_id":"cebpf4jnsgd1na2vs0mg"},{"bike_id":"03f0f3f2-07c3-4af7-bd83-7843cb20b85e","system_id":"levelo_inurba_marseille","lat":43.28279,"lon":5.35063,"is_reserved":false,"is_disabled":false,"rental_uris":{"android":"levelo://app?vid=03f0f3f2-07c3-4af7-bd83-7843cb20b85e","ios":"levelo://app?vid=03f0f3f2-07c3-4af7-bd83-7843cb20b85e"},"vehicle_type_id":"4","last_reported":1713024537,"current_range_meters":0,"station_id":"ce4bhbp2rcd13ifvqerg","pricing_plan_id":"cebpf4jnsgd1na2vs0mg"},{"bike_id":"113efc77-937b-4c40-9949-535d4de99897","system_id":"levelo_inurba_marseille","lat":43.28277,"lon":5.35065,"is_reserved":false,"is_disabled":false,"rental_uris":{"android":"levelo://app?vid=113efc77-937b-4c40-9949-535d4de99897","ios":"levelo://app?vid=113efc77-937b-4c40-9949-535d4de99897"},"vehicle_type_id":"4","last_reported":1713024537,"current_range_meters":0,"station_id":"ce4bhbp2rcd13ifvqerg","pricing_plan_id":"cebpf4jnsgd1na2vs0mg"},{"bike_id":"3b462549-0580-40a6-803c-200960c0bbaf","system_id":"levelo_inurba_marseille","lat":43.282757,"lon":5.350623,"is_reserved":false,"is_disabled":false,"rental_uris":{"android":"levelo://app?vid=3b462549-0580-40a6-803c-200960c0bbaf","ios":"levelo://app?vid=3b462549-0580-40a6-803c-200960c0bbaf"},"vehicle_type_id":"4","last_reported":1713024537,"current_range_meters":0,"station_id":"ce4bhbp2rcd13ifvqerg","pricing_plan_id":"cebpf4jnsgd1na2vs0mg"},{"bike_id":"e29ed7aa-80c4-4df6-a3eb-e25fe365a218","system_id":"levelo_inurba_marseille","lat":43.282755,"lon":5.350598,"is_reserved":false,"is_disabled":false,"rental_uris":{"android":"levelo://app?vid=e29ed7aa-80c4-4df6-a3eb-e25fe365a218","ios":"levelo://app?vid=e29ed7aa-80c4-4df6-a3eb-e25fe365a218"},"vehicle_type_id":"4","last_reported":1713024537,"current_range_meters":0,"station_id":"ce4bhbp2rcd13ifvqerg","pricing_plan_id":"cebpf4jnsgd1na2vs0mg"},{"bike_id":"101ed52a-7fea-4a54-a3ff-facb8ff7f475","system_id":"levelo_inurba_marseille","lat":43.282754,"lon":5.350519,"is_reserved":false,"is_disabled":false,"rental_uris":{"android":"levelo://app?vid=101ed52a-7fea-4a54-a3ff-facb8ff7f475","ios":"levelo://app?vid=101ed52a-7fea-4a54-a3ff-facb8ff7f475"},"vehicle_type_id":"4","last_reported":1713024537,"current_range_meters":0,"station_id":"ce4bhbp2rcd13ifvqerg","pricing_plan_id":"cebpf4jnsgd1na2vs0mg"},{"bike_id":"25e16444-6d2f-47db-976a-afef1a02efaa","system_id":"levelo_inurba_marseille","lat":43.282698,"lon":5.350694,"is_reserved":false,"is_disabled":false,"rental_uris":{"android":"levelo://app?vid=25e16444-6d2f-47db-976a-afef1a02efaa","ios":"levelo://app?vid=25e16444-6d2f-47db-976a-afef1a02efaa"},"vehicle_type_id":"4","last_reported":1713024537,"current_range_meters":0,"station_id":"ce4bhbp2rcd13ifvqerg","pricing_plan_id":"cebpf4jnsgd1na2vs0mg"},{"bike_id":"5c22e7c8-a63a-4744-88ae-9f389f82d075","system_id":"levelo_inurba_marseille","lat":43.282696,"lon":5.350701,"is_reserved":false,"is_disabled":false,"rental_uris":{"android":"levelo://app?vid=5c22e7c8-a63a-4744-88ae-9f389f82d075","ios":"levelo://app?vid=5c22e7c8-a63a-4744-88ae-9f389f82d075"},"vehicle_type_id":"4","last_reported":1713024537,"current_range_meters":0,"station_id":"ce4bhbp2rcd13ifvqerg","pricing_plan_id":"cebpf4jnsgd1na2vs0mg"},{"bike_id":"01d6eab3-d969-4d9a-bef0-d8184aa5123b","system_id":"levelo_inurba_marseille","lat":43.272124,"lon":5.391768,"is_reserved":false,"is_disabled":false,"rental_uris":{"android":"levelo://app?vid=01d6eab3-d969-4d9a-bef0-d8184aa5123b","ios":"levelo://app?vid=01d6eab3-d969-4d9a-bef0-d8184aa5123b"},"vehicle_type_id":"4","last_reported":1713024537,"current_range_meters":0,"station_id":"ce4bhhp2rcd13ifvqfm0","pricing_plan_id":"cebpf4jnsgd1na2vs0mg"},{"bike_id":"238f8796-f611-4bb2-b736-bbd314f18afb","system_id":"levelo_inurba_marseille","lat":43.28268,"lon":5.35058,"is_reserved":false,"is_disabled":false,"rental_uris":{"android":"levelo://app?vid=238f8796-f611-4bb2-b736-bbd314f18afb","ios":"levelo://app?vid=238f8796-f611-4bb2-b736-bbd314f18afb"},"vehicle_type_id":"4","last_reported":1713024537,"current_range_meters":0,"station_id":"ce4bhbp2rcd13ifvqerg","pricing_plan_id":"cebpf4jnsgd1na2vs0mg"},{"bike_id":"250c3167-3a37-4f80-a596-4fe7cfce7f42","system_id":"levelo_inurba_marseille","lat":43.281044,"lon":5.378308,"is_reserved":false,"is_disabled":false,"rental_uris":{"android":"levelo://app?vid=250c3167-3a37-4f80-a596-4fe7cfce7f42","ios":"levelo://app?vid=250c3167-3a37-4f80-a596-4fe7cfce7f42"},"vehicle_type_id":"4","last_reported":1713024537,"current_range_meters":0,"station_id":"ce4bha12rcd13ifvqee0","pricing_plan_id":"cebpf4jnsgd1na2vs0mg"},{"bike_id":"41446b26-a43f-42ff-b937-719c6ced2e34","system_id":"levelo_inurba_marseille","lat":43.281044,"lon":5.378308,"is_reserved":false,"is_disabled":false,"rental_uris":{"android":"levelo://app?vid=41446b26-a43f-42ff-b937-719c6ced2e34","ios":"levelo://app?vid=41446b26-a43f-42ff-b937-719c6ced2e34"},"vehicle_type_id":"4","last_reported":1713024537,"current_range_meters":16000,"station_id":"ce4bha12rcd13ifvqee0","pricing_plan_id":"cebpf4jnsgd1na2vs0mg"},{"bike_id":"4c22c7d7-075b-4d4a-a007-b98615e9f9d4","system_id":"levelo_inurba_marseille","lat":43.29033,"lon":5.3997,"is_reserved":false,"is_disabled":false,"rental_uris":{"android":"levelo://app?vid=4c22c7d7-075b-4d4a-a007-b98615e9f9d4","ios":"levelo://app?vid=4c22c7d7-075b-4d4a-a007-b98615e9f9d4"},"vehicle_type_id":"4","last_reported":1713024537,"current_range_meters":0,"station_id":"ce4bh392rcd13ifvqdm0","pricing_plan_id":"cebpf4jnsgd1na2vs0mg"},{"bike_id":"a2c3b114-5dbc-4e65-bd03-d49fec1c28fd","system_id":"levelo_inurba_marseille","lat":43.281044,"lon":5.378308,"is_reserved":false,"is_disabled":false,"rental_uris":{"android":"levelo://app?vid=a2c3b114-5dbc-4e65-bd03-d49fec1c28fd","ios":"levelo://app?vid=a2c3b114-5dbc-4e65-bd03-d49fec1c28fd"},"vehicle_type_id":"4","last_reported":1713024537,"current_range_meters":4400,"station_id":"ce4bha12rcd13ifvqee0","pricing_plan_id":"cebpf4jnsgd1na2vs0mg"},{"bike_id":"e1d20ad7-4d55-418f-8f41-4ec6b5f9b016","system_id":"levelo_inurba_marseille","lat":43.281044,"lon":5.378308,"is_reserved":false,"is_disabled":false,"rental_uris":{"android":"levelo://app?vid=e1d20ad7-4d55-418f-8f41-4ec6b5f9b016","ios":"levelo://app?vid=e1d20ad7-4d55-418f-8f41-4ec6b5f9b016"},"vehicle_type_id":"4","last_reported":1713024537,"current_range_meters":0,"station_id":"ce4bha12rcd13ifvqee0","pricing_plan_id":"cebpf4jnsgd1na2vs0mg"},{"bike_id":"5cd46b47-eed6-4cc5-aa64-456aa7affa6b","system_id":"levelo_inurba_marseille","lat":43.281044,"lon":5.378308,"is_reserved":false,"is_disabled":false,"rental_uris":{"android":"levelo://app?vid=5cd46b47-eed6-4cc5-aa64-456aa7affa6b","ios":"levelo://app?vid=5cd46b47-eed6-4cc5-aa64-456aa7affa6b"},"vehicle_type_id":"4","last_reported":1713024537,"current_range_meters":1600,"station_id":"ce4bha12rcd13ifvqee0","pricing_plan_id":"cebpf4jnsgd1na2vs0mg"},{"bike_id":"23e962de-82fd-4727-83ed-13d1601fa25c","system_id":"levelo_inurba_marseille","lat":43.281044,"lon":5.378308,"is_reserved":false,"is_disabled":false,"rental_uris":{"android":"levelo://app?vid=23e962de-82fd-4727-83ed-13d1601fa25c","ios":"levelo://app?vid=23e962de-82fd-4727-83ed-13d1601fa25c"},"vehicle_type_id":"4","last_reported":1713024537,"current_range_meters":0,"station_id":"ce4bha12rcd13ifvqee0","pricing_plan_id":"cebpf4jnsgd1na2vs0mg"},{"bike_id":"44b71564-c8cd-4d03-9e0a-48f14dbb12ae","system_id":"levelo_inurba_marseille","lat":43.281044,"lon":5.378308,"is_reserved":false,"is_disabled":false,"rental_uris":{"android":"levelo://app?vid=44b71564-c8cd-4d03-9e0a-48f14dbb12ae","ios":"levelo://app?vid=44b71564-c8cd-4d03-9e0a-48f14dbb12ae"},"vehicle_type_id":"4","last_reported":1713024537,"current_range_meters":9600,"station_id":"ce4bha12rcd13ifvqee0","pricing_plan_id":"cebpf4jnsgd1na2vs0mg"},{"bike_id":"fdb5c2fe-302f-4e6f-99fd-32e6ef7a981e","system_id":"levelo_inurba_marseille","lat":43.281044,"lon":5.378308,"is_reserved":false,"is_disabled":false,"rental_uris":{"android":"levelo://app?vid=fdb5c2fe-302f-4e6f-99fd-32e6ef7a981e","ios":"levelo://app?vid=fdb5c2fe-302f-4e6f-99fd-32e6ef7a981e"},"vehicle_type_id":"4","last_reported":1713024537,"current_range_meters":23600,"station_id":"ce4bha12rcd13ifvqee0","pricing_plan_id":"cebpf4jnsgd1na2vs0mg"},{"bike_id":"10e9639c-6deb-4f57-8849-92434af4dd94","system_id":"levelo_inurba_marseille","lat":43.326605,"lon":5.409903,"is_reserved":false,"is_disabled":false,"rental_uris":{"android":"levelo://app?vid=10e9639c-6deb-4f57-8849-92434af4dd94","ios":"levelo://app?vid=10e9639c-6deb-4f57-8849-92434af4dd94"},"vehicle_type_id":"4","last_reported":1713024537,"current_range_meters":4000,"station_id":"ce4bhpp2rcd13ifvqhgg","pricing_plan_id":"cebpf4jnsgd1na2vs0mg"},{"bike_id":"cba20068-6412-436a-9351-690bda108887","system_id":"levelo_inurba_marseille","lat":43.326605,"lon":5.409903,"is_reserved":false,"is_disabled":false,"rental_uris":{"android":"levelo://app?vid=cba20068-6412-436a-9351-690bda108887","ios":"levelo://app?vid=cba20068-6412-436a-9351-690bda108887"},"vehicle_type_id":"4","last_reported":1713024537,"current_range_meters":8400,"station_id":"ce4bhpp2rcd13ifvqhgg","pricing_plan_id":"cebpf4jnsgd1na2vs0mg"},{"bike_id":"0a270a7e-44fe-46ae-a10f-e40c6727d3bf","system_id":"levelo_inurba_marseille","lat":43.326605,"lon":5.409903,"is_reserved":false,"is_disabled":false,"rental_uris":{"android":"levelo://app?vid=0a270a7e-44fe-46ae-a10f-e40c6727d3bf","ios":"levelo://app?vid=0a270a7e-44fe-46ae-a10f-e40c6727d3bf"},"vehicle_type_id":"4","last_reported":1713024537,"current_range_meters":21200,"station_id":"ce4bhpp2rcd13ifvqhgg","pricing_plan_id":"cebpf4jnsgd1na2vs0mg"},{"bike_id":"7f0a9bed-0a3e-439e-9a40-62bbb875efe4","system_id":"levelo_inurba_marseille","lat":43.304188,"lon":5.412904,"is_reserved":false,"is_disabled":false,"rental_uris":{"android":"levelo://app?vid=7f0a9bed-0a3e-439e-9a40-62bbb875efe4","ios":"levelo://app?vid=7f0a9bed-0a3e-439e-9a40-62bbb875efe4"},"vehicle_type_id":"4","last_reported":1713024537,"current_range_meters":0,"station_id":"ce4bhop2rcd13ifvqh8g","pricing_plan_id":"cebpf4jnsgd1na2vs0mg"},{"bike_id":"b5d6fdc3-0bdb-4a64-9d56-e9b82f165cb6","system_id":"levelo_inurba_marseille","lat":43.304188,"lon":5.412904,"is_reserved":false,"is_disabled":false,"rental_uris":{"android":"levelo://app?vid=b5d6fdc3-0bdb-4a64-9d56-e9b82f165cb6","ios":"levelo://app?vid=b5d6fdc3-0bdb-4a64-9d56-e9b82f165cb6"},"vehicle_type_id":"4","last_reported":1713024537,"current_range_meters":800,"station_id":"ce4bhop2rcd13ifvqh8g","pricing_plan_id":"cebpf4jnsgd1na2vs0mg"},{"bike_id":"f8654e40-d8d0-454c-bafc-b2c8973b3064","system_id":"levelo_inurba_marseille","lat":43.304188,"lon":5.412904,"is_reserved":false,"is_disabled":false,"rental_uris":{"android":"levelo://app?vid=f8654e40-d8d0-454c-bafc-b2c8973b3064","ios":"levelo://app?vid=f8654e40-d8d0-454c-bafc-b2c8973b3064"},"vehicle_type_id":"4","last_reported":1713024537,"current_range_meters":1600,"station_id":"ce4bhop2rcd13ifvqh8g","pricing_plan_id":"cebpf4jnsgd1na2vs0mg"},{"bike_id":"c209257e-117e-40b2-b4dc-d4c0371d26f5","system_id":"levelo_inurba_marseille","lat":43.304188,"lon":5.412904,"is_reserved":false,"is_disabled":false,"rental_uris":{"android":"levelo://app?vid=c209257e-117e-40b2-b4dc-d4c0371d26f5","ios":"levelo://app?vid=c209257e-117e-40b2-b4dc-d4c0371d26f5"},"vehicle_type_id":"4","last_reported":1713024537,"current_range_meters":18000,"station_id":"ce4bhop2rcd13ifvqh8g","pricing_plan_id":"cebpf4jnsgd1na2vs0mg"},{"bike_id":"efbf1829-2e76-415b-9251-5a07ae04082f","system_id":"levelo_inurba_marseille","lat":43.304188,"lon":5.412904,"is_reserved":false,"is_disabled":false,"rental_uris":{"android":"levelo://app?vid=efbf1829-2e76-415b-9251-5a07ae04082f","ios":"levelo://app?vid=efbf1829-2e76-415b-9251-5a07ae04082f"},"vehicle_type_id":"4","last_reported":1713024537,"current_range_meters":22400,"station_id":"ce4bhop2rcd13ifvqh8g","pricing_plan_id":"cebpf4jnsgd1na2vs0mg"},{"bike_id":"116e4736-a83f-4f16-bbf9-71fcb6185ee4","system_id":"levelo_inurba_marseille","lat":43.279087,"lon":5.380114,"is_reserved":false,"is_disabled":false,"rental_uris":{"android":"levelo://app?vid=116e4736-a83f-4f16-bbf9-71fcb6185ee4","ios":"levelo://app?vid=116e4736-a83f-4f16-bbf9-71fcb6185ee4"},"vehicle_type_id":"4","last_reported":1713024537,"current_range_meters":800,"station_id":"ce4bhf92rcd13ifvqf50","pricing_plan_id":"cebpf4jnsgd1na2vs0mg"},{"bike_id":"de671c61-df91-4139-bf01-4abd9f6eacb7","system_id":"levelo_inurba_marseille","lat":43.279087,"lon":5.380114,"is_reserved":false,"is_disabled":false,"rental_uris":{"android":"levelo://app?vid=de671c61-df91-4139-bf01-4abd9f6eacb7","ios":"levelo://app?vid=de671c61-df91-4139-bf01-4abd9f6eacb7"},"vehicle_type_id":"4","last_reported":1713024537,"current_range_meters":0,"station_id":"ce4bhf92rcd13ifvqf50","pricing_plan_id":"cebpf4jnsgd1na2vs0mg"},{"bike_id":"f14935fd-dc2a-4df4-b51a-5aad38c73104","system_id":"levelo_inurba_marseille","lat":43.279087,"lon":5.380114,"is_reserved":false,"is_disabled":false,"rental_uris":{"android":"levelo://app?vid=f14935fd-dc2a-4df4-b51a-5aad38c73104","ios":"levelo://app?vid=f14935fd-dc2a-4df4-b51a-5aad38c73104"},"vehicle_type_id":"4","last_reported":1713024537,"current_range_meters":25600,"station_id":"ce4bhf92rcd13ifvqf50","pricing_plan_id":"cebpf4jnsgd1na2vs0mg"},{"bike_id":"eaf2ac10-238d-48fa-843f-707303b75a97","system_id":"levelo_inurba_marseille","lat":43.279087,"lon":5.380114,"is_reserved":false,"is_disabled":false,"rental_uris":{"android":"levelo://app?vid=eaf2ac10-238d-48fa-843f-707303b75a97","ios":"levelo://app?vid=eaf2ac10-238d-48fa-843f-707303b75a97"},"vehicle_type_id":"4","last_reported":1713024537,"current_range_meters":9200,"station_id":"ce4bhf92rcd13ifvqf50","pricing_plan_id":"cebpf4jnsgd1na2vs0mg"},{"bike_id":"36649457-cab6-4f41-a5ec-b0c4af20017a","system_id":"levelo_inurba_marseille","lat":43.320582,"lon":5.415305,"is_reserved":false,"is_disabled":false,"rental_uris":{"android":"levelo://app?vid=36649457-cab6-4f41-a5ec-b0c4af20017a","ios":"levelo://app?vid=36649457-cab6-4f41-a5ec-b0c4af20017a"},"vehicle_type_id":"4","last_reported":1713024537,"current_range_meters":4000,"station_id":"ce4bhq92rcd13ifvqhkg","pricing_plan_id":"cebpf4jnsgd1na2vs0mg"},{"bike_id":"b5b209f8-8227-4ffd-be9e-68478e5fd4cd","system_id":"levelo_inurba_marseille","lat":43.279693,"lon":5.387261,"is_reserved":false,"is_disabled":false,"rental_uris":{"android":"levelo://app?vid=b5b209f8-8227-4ffd-be9e-68478e5fd4cd","ios":"levelo://app?vid=b5b209f8-8227-4ffd-be9e-68478e5fd4cd"},"vehicle_type_id":"4","last_reported":1713024537,"current_range_meters":0,"station_id":"ce4bhg12rcd13ifvqf80","pricing_plan_id":"cebpf4jnsgd1na2vs0mg"},{"bike_id":"f8829751-a794-4c41-bf4c-f6eab4c1c16d","system_id":"levelo_inurba_marseille","lat":43.320045,"lon":5.415048,"is_reserved":false,"is_disabled":false,"rental_uris":{"android":"levelo://app?vid=f8829751-a794-4c41-bf4c-f6eab4c1c16d","ios":"levelo://app?vid=f8829751-a794-4c41-bf4c-f6eab4c1c16d"},"vehicle_type_id":"4","last_reported":1713024537,"current_range_meters":17200,"station_id":"ce4bhq92rcd13ifvqhkg","pricing_plan_id":"cebpf4jnsgd1na2vs0mg"},{"bike_id":"62d7b379-33e5-4cb0-a057-ba9b332aa784","system_id":"levelo_inurba_marseille","lat":43.336148,"lon":5.410349,"is_reserved":false,"is_disabled":false,"rental_uris":{"android":"levelo://app?vid=62d7b379-33e5-4cb0-a057-ba9b332aa784","ios":"levelo://app?vid=62d7b379-33e5-4cb0-a057-ba9b332aa784"},"vehicle_type_id":"4","last_reported":1713024537,"current_range_meters":14400,"station_id":"ce4bhqh2rcd13ifvqhmg","pricing_plan_id":"cebpf4jnsgd1na2vs0mg"},{"bike_id":"b4cee075-0dd5-4ae1-86b3-b640efdb72e7","system_id":"levelo_inurba_marseille","lat":43.292571,"lon":5.409107,"is_reserved":false,"is_disabled":false,"rental_uris":{"android":"levelo://app?vid=b4cee075-0dd5-4ae1-86b3-b640efdb72e7","ios":"levelo://app?vid=b4cee075-0dd5-4ae1-86b3-b640efdb72e7"},"vehicle_type_id":"4","last_reported":1713024537,"current_range_meters":11200,"station_id":"ce4bh192rcd13ifvqdc0","pricing_plan_id":"cebpf4jnsgd1na2vs0mg"},{"bike_id":"21f8a456-38b3-4439-8c5b-03f0c96465ae","system_id":"levelo_inurba_marseille","lat":43.292572,"lon":5.408927,"is_reserved":false,"is_disabled":false,"rental_uris":{"android":"levelo://app?vid=21f8a456-38b3-4439-8c5b-03f0c96465ae","ios":"levelo://app?vid=21f8a456-38b3-4439-8c5b-03f0c96465ae"},"vehicle_type_id":"4","last_reported":1713024537,"current_range_meters":0,"station_id":"ce4bh192rcd13ifvqdc0","pricing_plan_id":"cebpf4jnsgd1na2vs0mg"},{"bike_id":"ee49a9cb-fff8-42c8-bd6b-703126b5afb1","system_id":"levelo_inurba_marseille","lat":43.29252,"lon":5.40897,"is_reserved":false,"is_disabled":false,"rental_uris":{"android":"levelo://app?vid=ee49a9cb-fff8-42c8-bd6b-703126b5afb1","ios":"levelo://app?vid=ee49a9cb-fff8-42c8-bd6b-703126b5afb1"},"vehicle_type_id":"4","last_reported":1713024537,"current_range_meters":1600,"station_id":"ce4bh192rcd13ifvqdc0","pricing_plan_id":"cebpf4jnsgd1na2vs0mg"},{"bike_id":"057b2a99-65fa-4c21-9fd9-4df33c1f3981","system_id":"levelo_inurba_marseille","lat":43.292571,"lon":5.409107,"is_reserved":false,"is_disabled":false,"rental_uris":{"android":"levelo://app?vid=057b2a99-65fa-4c21-9fd9-4df33c1f3981","ios":"levelo://app?vid=057b2a99-65fa-4c21-9fd9-4df33c1f3981"},"vehicle_type_id":"4","last_reported":1713024537,"current_range_meters":23200,"station_id":"ce4bh192rcd13ifvqdc0","pricing_plan_id":"cebpf4jnsgd1na2vs0mg"},{"bike_id":"2b4c1f2f-17ee-446f-9b92-3f954e755f17","system_id":"levelo_inurba_marseille","lat":43.292569,"lon":5.409107,"is_reserved":false,"is_disabled":false,"rental_uris":{"android":"levelo://app?vid=2b4c1f2f-17ee-446f-9b92-3f954e755f17","ios":"levelo://app?vid=2b4c1f2f-17ee-446f-9b92-3f954e755f17"},"vehicle_type_id":"4","last_reported":1713024537,"current_range_meters":0,"station_id":"ce4bh192rcd13ifvqdc0","pricing_plan_id":"cebpf4jnsgd1na2vs0mg"},{"bike_id":"d1c3350a-99f3-481f-b6b2-950e0c8cdf86","system_id":"levelo_inurba_marseille","lat":43.2762,"lon":5.36116,"is_reserved":false,"is_disabled":false,"rental_uris":{"android":"levelo://app?vid=d1c3350a-99f3-481f-b6b2-950e0c8cdf86","ios":"levelo://app?vid=d1c3350a-99f3-481f-b6b2-950e0c8cdf86"},"vehicle_type_id":"4","last_reported":1713024537,"current_range_meters":0,"station_id":"ce4bgj92rcd13ifvqbe0","pricing_plan_id":"cebpf4jnsgd1na2vs0mg"},{"bike_id":"83b740a0-ef34-4704-91eb-1d101f1bb5b2","system_id":"levelo_inurba_marseille","lat":43.2762,"lon":5.36106,"is_reserved":false,"is_disabled":false,"rental_uris":{"android":"levelo://app?vid=83b740a0-ef34-4704-91eb-1d101f1bb5b2","ios":"levelo://app?vid=83b740a0-ef34-4704-91eb-1d101f1bb5b2"},"vehicle_type_id":"4","last_reported":1713024537,"current_range_meters":0,"station_id":"ce4bgj92rcd13ifvqbe0","pricing_plan_id":"cebpf4jnsgd1na2vs0mg"},{"bike_id":"fb926e58-3a46-4ba6-b2df-59fbe0dd4d13","system_id":"levelo_inurba_marseille","lat":43.2762,"lon":5.36103,"is_reserved":false,"is_disabled":false,"rental_uris":{"android":"levelo://app?vid=fb926e58-3a46-4ba6-b2df-59fbe0dd4d13","ios":"levelo://app?vid=fb926e58-3a46-4ba6-b2df-59fbe0dd4d13"},"vehicle_type_id":"4","last_reported":1713024537,"current_range_meters":0,"station_id":"ce4bgj92rcd13ifvqbe0","pricing_plan_id":"cebpf4jnsgd1na2vs0mg"},{"bike_id":"d60280a5-5723-4697-b576-cf2ce07682e2","system_id":"levelo_inurba_marseille","lat":43.325243,"lon":5.414326,"is_reserved":false,"is_disabled":false,"rental_uris":{"android":"levelo://app?vid=d60280a5-5723-4697-b576-cf2ce07682e2","ios":"levelo://app?vid=d60280a5-5723-4697-b576-cf2ce07682e2"},"vehicle_type_id":"4","last_reported":1713024537,"current_range_meters":31200,"station_id":"ce4bhq12rcd13ifvqhhg","pricing_plan_id":"cebpf4jnsgd1na2vs0mg"},{"bike_id":"e8594830-e221-4ec6-918c-3cccd36c8cb0","system_id":"levelo_inurba_marseille","lat":43.2761,"lon":5.36107,"is_reserved":false,"is_disabled":false,"rental_uris":{"android":"levelo://app?vid=e8594830-e221-4ec6-918c-3cccd36c8cb0","ios":"levelo://app?vid=e8594830-e221-4ec6-918c-3cccd36c8cb0"},"vehicle_type_id":"4","last_reported":1713024537,"current_range_meters":0,"station_id":"ce4bgj92rcd13ifvqbe0","pricing_plan_id":"cebpf4jnsgd1na2vs0mg"},{"bike_id":"c8b89828-a84a-4226-b3fd-a812db5b7365","system_id":"levelo_inurba_marseille","lat":43.275885,"lon":5.359899,"is_reserved":false,"is_disabled":false,"rental_uris":{"android":"levelo://app?vid=c8b89828-a84a-4226-b3fd-a812db5b7365","ios":"levelo://app?vid=c8b89828-a84a-4226-b3fd-a812db5b7365"},"vehicle_type_id":"4","last_reported":1713024537,"current_range_meters":400,"station_id":"ce4bgj92rcd13ifvqbe0","pricing_plan_id":"cebpf4jnsgd1na2vs0mg"},{"bike_id":"86775fb6-0bc2-4112-8a4a-f1ef0c4dfbab","system_id":"levelo_inurba_marseille","lat":43.280784,"lon":5.396622,"is_reserved":false,"is_disabled":false,"rental_uris":{"android":"levelo://app?vid=86775fb6-0bc2-4112-8a4a-f1ef0c4dfbab","ios":"levelo://app?vid=86775fb6-0bc2-4112-8a4a-f1ef0c4dfbab"},"vehicle_type_id":"4","last_reported":1713024537,"current_range_meters":13200,"station_id":"ce4bho12rcd13ifvqh2g","pricing_plan_id":"cebpf4jnsgd1na2vs0mg"},{"bike_id":"2f46ba6b-e0ce-44e1-83b7-058f10a33d75","system_id":"levelo_inurba_marseille","lat":43.303837,"lon":5.418724,"is_reserved":false,"is_disabled":false,"rental_uris":{"android":"levelo://app?vid=2f46ba6b-e0ce-44e1-83b7-058f10a33d75","ios":"levelo://app?vid=2f46ba6b-e0ce-44e1-83b7-058f10a33d75"},"vehicle_type_id":"4","last_reported":1713024537,"current_range_meters":0,"station_id":"ce4bhop2rcd13ifvqh7g","pricing_plan_id":"cebpf4jnsgd1na2vs0mg"},{"bike_id":"afab60d7-8977-4f1b-9165-8fbebffcd86b","system_id":"levelo_inurba_marseille","lat":43.302759,"lon":5.400793,"is_reserved":false,"is_disabled":false,"rental_uris":{"android":"levelo://app?vid=afab60d7-8977-4f1b-9165-8fbebffcd86b","ios":"levelo://app?vid=afab60d7-8977-4f1b-9165-8fbebffcd86b"},"vehicle_type_id":"4","last_reported":1713024537,"current_range_meters":0,"station_id":"ce4bgvh2rcd13ifvqcs0","pricing_plan_id":"cebpf4jnsgd1na2vs0mg"},{"bike_id":"28814476-f4fb-48c7-ae0a-7ecb6b7420bf","system_id":"levelo_inurba_marseille","lat":43.303837,"lon":5.418724,"is_reserved":false,"is_disabled":false,"rental_uris":{"android":"levelo://app?vid=28814476-f4fb-48c7-ae0a-7ecb6b7420bf","ios":"levelo://app?vid=28814476-f4fb-48c7-ae0a-7ecb6b7420bf"},"vehicle_type_id":"4","last_reported":1713024537,"current_range_meters":15200,"station_id":"ce4bhop2rcd13ifvqh7g","pricing_plan_id":"cebpf4jnsgd1na2vs0mg"},{"bike_id":"026b3e16-b1b7-4499-8ac3-09838f485f24","system_id":"levelo_inurba_marseille","lat":43.278401,"lon":5.392152,"is_reserved":false,"is_disabled":false,"rental_uris":{"android":"levelo://app?vid=026b3e16-b1b7-4499-8ac3-09838f485f24","ios":"levelo://app?vid=026b3e16-b1b7-4499-8ac3-09838f485f24"},"vehicle_type_id":"4","last_reported":1713024537,"current_range_meters":14800,"station_id":"ce4bhjp2rcd13ifvqga0","pricing_plan_id":"cebpf4jnsgd1na2vs0mg"},{"bike_id":"2e0698f1-c1fe-4124-a14f-6aa998627a28","system_id":"levelo_inurba_marseille","lat":43.278399,"lon":5.392139,"is_reserved":false,"is_disabled":false,"rental_uris":{"android":"levelo://app?vid=2e0698f1-c1fe-4124-a14f-6aa998627a28","ios":"levelo://app?vid=2e0698f1-c1fe-4124-a14f-6aa998627a28"},"vehicle_type_id":"4","last_reported":1713024537,"current_range_meters":20000,"station_id":"ce4bhjp2rcd13ifvqga0","pricing_plan_id":"cebpf4jnsgd1na2vs0mg"},{"bike_id":"3ebb8922-469d-4af1-bef9-69fb5e9c03dc","system_id":"levelo_inurba_marseille","lat":43.273831,"lon":5.362506,"is_reserved":false,"is_disabled":false,"rental_uris":{"android":"levelo://app?vid=3ebb8922-469d-4af1-bef9-69fb5e9c03dc","ios":"levelo://app?vid=3ebb8922-469d-4af1-bef9-69fb5e9c03dc"},"vehicle_type_id":"4","last_reported":1713024537,"current_range_meters":30000,"station_id":"ce4bhbh2rcd13ifvqeo0","pricing_plan_id":"cebpf4jnsgd1na2vs0mg"},{"bike_id":"4ce7f47e-4113-4842-9627-ff31d5835552","system_id":"levelo_inurba_marseille","lat":43.2738,"lon":5.36254,"is_reserved":false,"is_disabled":false,"rental_uris":{"android":"levelo://app?vid=4ce7f47e-4113-4842-9627-ff31d5835552","ios":"levelo://app?vid=4ce7f47e-4113-4842-9627-ff31d5835552"},"vehicle_type_id":"4","last_reported":1713024537,"current_range_meters":0,"station_id":"ce4bhbh2rcd13ifvqeo0","pricing_plan_id":"cebpf4jnsgd1na2vs0mg"},{"bike_id":"2f052aae-f945-4d88-9331-512c1663f1c6","system_id":"levelo_inurba_marseille","lat":43.273609,"lon":5.362708,"is_reserved":false,"is_disabled":false,"rental_uris":{"android":"levelo://app?vid=2f052aae-f945-4d88-9331-512c1663f1c6","ios":"levelo://app?vid=2f052aae-f945-4d88-9331-512c1663f1c6"},"vehicle_type_id":"4","last_reported":1713024537,"current_range_meters":6000,"station_id":"ce4bhbh2rcd13ifvqeo0","pricing_plan_id":"cebpf4jnsgd1na2vs0mg"},{"bike_id":"fe85d951-51bc-4477-b212-4723ad4cf55f","system_id":"levelo_inurba_marseille","lat":43.273775,"lon":5.362541,"is_reserved":false,"is_disabled":false,"rental_uris":{"android":"levelo://app?vid=fe85d951-51bc-4477-b212-4723ad4cf55f","ios":"levelo://app?vid=fe85d951-51bc-4477-b212-4723ad4cf55f"},"vehicle_type_id":"4","last_reported":1713024537,"current_range_meters":21200,"station_id":"ce4bhbh2rcd13ifvqeo0","pricing_plan_id":"cebpf4jnsgd1na2vs0mg"},{"bike_id":"cd811990-4c9d-4a69-8aeb-3e7907639971","system_id":"levelo_inurba_marseille","lat":43.27377,"lon":5.362529,"is_reserved":false,"is_disabled":false,"rental_uris":{"android":"levelo://app?vid=cd811990-4c9d-4a69-8aeb-3e7907639971","ios":"levelo://app?vid=cd811990-4c9d-4a69-8aeb-3e7907639971"},"vehicle_type_id":"4","last_reported":1713024537,"current_range_meters":0,"station_id":"","pricing_plan_id":"cebpf4jnsgd1na2vs0mg"},{"bike_id":"38f61271-72b3-4a08-b57c-d03aa2788d10","system_id":"levelo_inurba_marseille","lat":43.27376,"lon":5.36257,"is_reserved":false,"is_disabled":false,"rental_uris":{"android":"levelo://app?vid=38f61271-72b3-4a08-b57c-d03aa2788d10","ios":"levelo://app?vid=38f61271-72b3-4a08-b57c-d03aa2788d10"},"vehicle_type_id":"4","last_reported":1713024537,"current_range_meters":1200,"station_id":"ce4bhbh2rcd13ifvqeo0","pricing_plan_id":"cebpf4jnsgd1na2vs0mg"},{"bike_id":"55d700a0-2c9d-43ad-a3aa-0cb1f5364126","system_id":"levelo_inurba_marseille","lat":43.275625,"lon":5.384392,"is_reserved":false,"is_disabled":false,"rental_uris":{"android":"levelo://app?vid=55d700a0-2c9d-43ad-a3aa-0cb1f5364126","ios":"levelo://app?vid=55d700a0-2c9d-43ad-a3aa-0cb1f5364126"},"vehicle_type_id":"4","last_reported":1713024537,"current_range_meters":0,"station_id":"ce4bhh92rcd13ifvqfi0","pricing_plan_id":"cebpf4jnsgd1na2vs0mg"},{"bike_id":"1488a150-59f7-4d45-a554-80f498fe9764","system_id":"levelo_inurba_marseille","lat":43.273609,"lon":5.362708,"is_reserved":false,"is_disabled":false,"rental_uris":{"android":"levelo://app?vid=1488a150-59f7-4d45-a554-80f498fe9764","ios":"levelo://app?vid=1488a150-59f7-4d45-a554-80f498fe9764"},"vehicle_type_id":"4","last_reported":1713024537,"current_range_meters":24000,"station_id":"ce4bhbh2rcd13ifvqeo0","pricing_plan_id":"cebpf4jnsgd1na2vs0mg"},{"bike_id":"dc99cadb-83b6-4e55-82a8-aadf972c341f","system_id":"levelo_inurba_marseille","lat":43.273613,"lon":5.362705,"is_reserved":false,"is_disabled":false,"rental_uris":{"android":"levelo://app?vid=dc99cadb-83b6-4e55-82a8-aadf972c341f","ios":"levelo://app?vid=dc99cadb-83b6-4e55-82a8-aadf972c341f"},"vehicle_type_id":"4","last_reported":1713024537,"current_range_meters":0,"station_id":"ce4bhbh2rcd13ifvqeo0","pricing_plan_id":"cebpf4jnsgd1na2vs0mg"},{"bike_id":"5bc5e428-ae29-4c3f-86c9-90a1ffcc20a5","system_id":"levelo_inurba_marseille","lat":43.33612,"lon":5.410321,"is_reserved":false,"is_disabled":false,"rental_uris":{"android":"levelo://app?vid=5bc5e428-ae29-4c3f-86c9-90a1ffcc20a5","ios":"levelo://app?vid=5bc5e428-ae29-4c3f-86c9-90a1ffcc20a5"},"vehicle_type_id":"4","last_reported":1713024537,"current_range_meters":2800,"station_id":"ce4bhqh2rcd13ifvqhmg","pricing_plan_id":"cebpf4jnsgd1na2vs0mg"},{"bike_id":"d462454b-020d-4905-b54f-e62605693124","system_id":"levelo_inurba_marseille","lat":43.336134,"lon":5.410341,"is_reserved":false,"is_disabled":false,"rental_uris":{"android":"levelo://app?vid=d462454b-020d-4905-b54f-e62605693124","ios":"levelo://app?vid=d462454b-020d-4905-b54f-e62605693124"},"vehicle_type_id":"4","last_reported":1713024537,"current_range_meters":1600,"station_id":"ce4bhqh2rcd13ifvqhmg","pricing_plan_id":"cebpf4jnsgd1na2vs0mg"},{"bike_id":"e64e6cbf-ca29-4a3c-855e-c7e1e56f395b","system_id":"levelo_inurba_marseille","lat":43.276771,"lon":5.388799,"is_reserved":false,"is_disabled":false,"rental_uris":{"android":"levelo://app?vid=e64e6cbf-ca29-4a3c-855e-c7e1e56f395b","ios":"levelo://app?vid=e64e6cbf-ca29-4a3c-855e-c7e1e56f395b"},"vehicle_type_id":"4","last_reported":1713024537,"current_range_meters":0,"station_id":"ce4bhi12rcd13ifvqfo0","pricing_plan_id":"cebpf4jnsgd1na2vs0mg"},{"bike_id":"a5624908-c9cc-48cb-9512-79e5ab7f588b","system_id":"levelo_inurba_marseille","lat":43.279952,"lon":5.400085,"is_reserved":false,"is_disabled":false,"rental_uris":{"android":"levelo://app?vid=a5624908-c9cc-48cb-9512-79e5ab7f588b","ios":"levelo://app?vid=a5624908-c9cc-48cb-9512-79e5ab7f588b"},"vehicle_type_id":"4","last_reported":1713024537,"current_range_meters":0,"station_id":"ce4bho92rcd13ifvqh4g","pricing_plan_id":"cebpf4jnsgd1na2vs0mg"},{"bike_id":"291ab80d-22d6-4c2e-bdb6-0884b23fae97","system_id":"levelo_inurba_marseille","lat":43.279952,"lon":5.400085,"is_reserved":false,"is_disabled":false,"rental_uris":{"android":"levelo://app?vid=291ab80d-22d6-4c2e-bdb6-0884b23fae97","ios":"levelo://app?vid=291ab80d-22d6-4c2e-bdb6-0884b23fae97"},"vehicle_type_id":"4","last_reported":1713024537,"current_range_meters":21600,"station_id":"ce4bho92rcd13ifvqh4g","pricing_plan_id":"cebpf4jnsgd1na2vs0mg"},{"bike_id":"55985b6b-c68a-4557-8812-f755c53c8633","system_id":"levelo_inurba_marseille","lat":43.317121,"lon":5.423936,"is_reserved":false,"is_disabled":false,"rental_uris":{"android":"levelo://app?vid=55985b6b-c68a-4557-8812-f755c53c8633","ios":"levelo://app?vid=55985b6b-c68a-4557-8812-f755c53c8633"},"vehicle_type_id":"4","last_reported":1713024537,"current_range_meters":1200,"station_id":"ce4bhp92rcd13ifvqhbg","pricing_plan_id":"cebpf4jnsgd1na2vs0mg"},{"bike_id":"e2b30c8d-ed87-49ca-a844-c0cc4b2b3622","system_id":"levelo_inurba_marseille","lat":43.310785,"lon":5.424305,"is_reserved":false,"is_disabled":false,"rental_uris":{"android":"levelo://app?vid=e2b30c8d-ed87-49ca-a844-c0cc4b2b3622","ios":"levelo://app?vid=e2b30c8d-ed87-49ca-a844-c0cc4b2b3622"},"vehicle_type_id":"4","last_reported":1713024537,"current_range_meters":29200,"station_id":"ce4bhp92rcd13ifvqhag","pricing_plan_id":"cebpf4jnsgd1na2vs0mg"},{"bike_id":"31dd2182-f3e0-49d5-9ab7-f80cd032d7e3","system_id":"levelo_inurba_marseille","lat":43.340804,"lon":5.410219,"is_reserved":false,"is_disabled":false,"rental_uris":{"android":"levelo://app?vid=31dd2182-f3e0-49d5-9ab7-f80cd032d7e3","ios":"levelo://app?vid=31dd2182-f3e0-49d5-9ab7-f80cd032d7e3"},"vehicle_type_id":"4","last_reported":1713024537,"current_range_meters":29600,"station_id":"ce4bhqh2rcd13ifvqhlg","pricing_plan_id":"cebpf4jnsgd1na2vs0mg"},{"bike_id":"4a971514-88f8-4fed-9671-334daa9b6b22","system_id":"levelo_inurba_marseille","lat":43.274099,"lon":5.394019,"is_reserved":false,"is_disabled":false,"rental_uris":{"android":"levelo://app?vid=4a971514-88f8-4fed-9671-334daa9b6b22","ios":"levelo://app?vid=4a971514-88f8-4fed-9671-334daa9b6b22"},"vehicle_type_id":"4","last_reported":1713024537,"current_range_meters":5200,"station_id":"ce4bhdp2rcd13ifvqf20","pricing_plan_id":"cebpf4jnsgd1na2vs0mg"},{"bike_id":"d119831e-9d40-4db8-8376-03ba4ac6eed5","system_id":"levelo_inurba_marseille","lat":43.274103,"lon":5.394016,"is_reserved":false,"is_disabled":false,"rental_uris":{"android":"levelo://app?vid=d119831e-9d40-4db8-8376-03ba4ac6eed5","ios":"levelo://app?vid=d119831e-9d40-4db8-8376-03ba4ac6eed5"},"vehicle_type_id":"4","last_reported":1713024537,"current_range_meters":8400,"station_id":"ce4bhdp2rcd13ifvqf20","pricing_plan_id":"cebpf4jnsgd1na2vs0mg"},{"bike_id":"b04818e5-acab-45f1-8422-ecefaa031e16","system_id":"levelo_inurba_marseille","lat":43.27317,"lon":5.39098,"is_reserved":false,"is_disabled":false,"rental_uris":{"android":"levelo://app?vid=b04818e5-acab-45f1-8422-ecefaa031e16","ios":"levelo://app?vid=b04818e5-acab-45f1-8422-ecefaa031e16"},"vehicle_type_id":"4","last_reported":1713024537,"current_range_meters":0,"station_id":"ce4bhgp2rcd13ifvqfe0","pricing_plan_id":"cebpf4jnsgd1na2vs0mg"},