{"last_updated":1741518389,"ttl":60,"version":"2.2","data":{"bikes":[{"bike_id":"e8480bdf-b04b-452a-a436-a56a983cc43d","system_id":"levelo_inurba_marseille","lat":43.26542,"lon":5.39009,"is_reserved":false,"is_disabled":false,"rental_uris":{"android":"levelo://app?vid=e8480bdf-b04b-452a-a436-a56a983cc43d","ios":"levelo://app?vid=e8480bdf-b04b-452a-a436-a56a983cc43d"},"vehicle_type_id":"4","last_reported":1741518389,"current_range_meters":2800,"station_id":"ce4bhe12rcd13ifvqf30","pricing_plan_id":"cebpf4jnsgd1na2vs0mg"},{"bike_id":"98099f5b-2d89-4ebc-af70-310ad79dd9aa","system_id":"levelo_inurba_marseille","lat":43.24672,"lon":5.3815,"is_reserved":false,"is_disabled":false,"rental_uris":{"android":"levelo://app?vid=98099f5b-2d89-4ebc-af70-310ad79dd9aa","ios":"levelo://app?vid=98099f5b-2d89-4ebc-af70-310ad79dd9aa"},"vehicle_type_id":"4","last_reported":1741518389,"current_range_meters":2800,"station_id":"ce4bhih2rcd13ifvqfr0","pricing_plan_id":"cebpf4jnsgd1na2vs0mg"},{"bike_id":"90b8db64-bbd7-44bb-b7ee-15ff858ae528","system_id":"levelo_inurba_marseille","lat":43.27636,"lon":5.39912,"is_reserved":false,"is_disabled":false,"rental_uris":{"android":"levelo://app?vid=90b8db64-bbd7-44bb-b7ee-15ff858ae528","ios":"levelo://app?vid=90b8db64-bbd7-44bb-b7ee-15ff858ae528"},"vehicle_type_id":"4","last_reported":1741518389,"current_range_meters":2800,"station_id":"","pricing_plan_id":"cebpf4jnsgd1na2vs0mg"},{"bike_id":"b816d58f-7d15-4cb9-8125-70b2eff13121","system_id":"levelo_inurba_marseille","lat":43.29982,"lon":5.38504,"is_reserved":false,"is_disabled":false,"rental_uris":{"android":"levelo://app?vid=b816d58f-7d15-4cb9-8125-70b2eff13121","ios":"levelo://app?vid=b816d58f-7d15-4cb9-8125-70b2eff13121"},"vehicle_type_id":"4","last_reported":1741518389,"current_range_meters":2000,"station_id":"ce4bgj92rcd13ifvqbd0","pricing_plan_id":"cebpf4jnsgd1na2vs0mg"},{"bike_id":"b473be01-921d-44bf-83a6-b12e05222036","system_id":"levelo_inurba_marseille","lat":43.26551,"lon":5.372883,"is_reserved":false,"is_disabled":false,"rental_uris":{"android":"levelo://app?vid=b473be01-921d-44bf-83a6-b12e05222036","ios":"levelo://app?vid=b473be01-921d-44bf-83a6-b12e05222036"},"vehicle_type_id":"4","last_reported":1741518389,"current_range_meters":3200,"station_id":"ce4bhg12rcd13ifvqf70","pricing_plan_id":"cebpf4jnsgd1na2vs0mg"},{"bike_id":"45e74ffc-2cca-4755-99a2-a317bcba5976","system_id":"levelo_inurba_marseille","lat":43.25008,"lon":5.38903,"is_reserved":false,"is_disabled":false,"rental_uris":{"android":"levelo://app?vid=45e74ffc-2cca-4755-99a2-a317bcba5976","ios":"levelo://app?vid=45e74ffc-2cca-4755-99a2-a317bcba5976"},"vehicle_type_id":"4","last_reported":1741518389,"current_range_meters":3200,"station_id":"ce4bhgp2rcd13ifvqfd0","pricing_plan_id":"cebpf4jnsgd1na2vs0mg"},{"bike_id":"8b61b214-2471-42c9-bf59-f8e805762141","system_id":"levelo_inurba_marseille","lat":43.25578,"lon":5.38242,"is_reserved":false,"is_disabled":false,"rental_uris":{"android":"levelo://app?vid=8b61b214-2471-42c9-bf59-f8e805762141","ios":"levelo://app?vid=8b61b214-2471-42c9-bf59-f8e805762141"},"vehicle_type_id":"4","last_reported":1741518389,"current_range_meters":3600,"station_id":"ce4bhih2rcd13ifvqfs0","pricing_plan_id":"cebpf4jnsgd1na2vs0mg"},{"bike_id":"88fd924d-f26f-4b5b-b140-690bfa71191e","system_id":"levelo_inurba_marseille","lat":43.26195,"lon":5.37931,"is_reserved":false,"is_disabled":false,"rental_uris":{"android":"levelo://app?vid=88fd924d-f26f-4b5b-b140-690bfa71191e","ios":"levelo://app?vid=88fd924d-f26f-4b5b-b140-690bfa71191e"},"vehicle_type_id":"4","last_reported":1741518389,"current_range_meters":4000,"station_id":"ce4bhjp2rcd13ifvqg90","pricing_plan_id":"cebpf4jnsgd1na2vs0mg"},{"bike_id":"be83f593-03ea-40f9-bbc5-e7dd99f34054","system_id":"levelo_inurba_marseille","lat":43.311786,"lon":5.387102,"is_reserved":false,"is_disabled":false,"rental_uris":{"android":"levelo://app?vid=be83f593-03ea-40f9-bbc5-e7dd99f34054","ios":"levelo://app?vid=be83f593-03ea-40f9-bbc5-e7dd99f34054"},"vehicle_type_id":"4","last_reported":1741518389,"current_range_meters":4000,"station_id":"ce4bgv12rcd13ifvqcp0","pricing_plan_id":"cebpf4jnsgd1na2vs0mg"},{"bike_id":"d284dca7-c60e-4759-a5c3-f3cd01f730be","system_id":"levelo_inurba_marseille","lat":43.26531,"lon":5.38971,"is_reserved":false,"is_disabled":false,"rental_uris":{"android":"levelo://app?vid=d284dca7-c60e-4759-a5c3-f3cd01f730be","ios":"levelo://app?vid=d284dca7-c60e-4759-a5c3-f3cd01f730be"},"vehicle_type_id":"4","last_reported":1741518389,"current_range_meters":4400,"station_id":"ce4bhe12rcd13ifvqf30","pricing_plan_id":"cebpf4jnsgd1na2vs0mg"},{"bike_id":"15ac7d65-ca44-4b27-bfe7-fd716eecd4b1","system_id":"levelo_inurba_marseille","lat":43.2721,"lon":5.39143,"is_reserved":false,"is_disabled":false,"rental_uris":{"android":"levelo://app?vid=15ac7d65-ca44-4b27-bfe7-fd716eecd4b1","ios":"levelo://app?vid=15ac7d65-ca44-4b27-bfe7-fd716eecd4b1"},"vehicle_type_id":"4","last_reported":1741518389,"current_range_meters":4000,"station_id":"ce4bhhp2rcd13ifvqfm0","pricing_plan_id":"cebpf4jnsgd1na2vs0mg"},{"bike_id":"a85666a4-8fe7-4d6d-9254-683bdd61b61f","system_id":"levelo_inurba_marseille","lat":43.27387,"lon":5.41421,"is_reserved":false,"is_disabled":false,"rental_uris":{"android":"levelo://app?vid=a85666a4-8fe7-4d6d-9254-683bdd61b61f","ios":"levelo://app?vid=a85666a4-8fe7-4d6d-9254-683bdd61b61f"},"vehicle_type_id":"4","last_reported":1741518389,"current_range_meters":4800,"station_id":"","pricing_plan_id":"cebpf4jnsgd1na2vs0mg"},{"bike_id":"6d0356cd-03ed-4a8b-97c7-0e2dd8952c4d","system_id":"levelo_inurba_marseille","lat":43.31719,"lon":5.43703,"is_reserved":false,"is_disabled":false,"rental_uris":{"android":"levelo://app?vid=6d0356cd-03ed-4a8b-97c7-0e2dd8952c4d","ios":"levelo://app?vid=6d0356cd-03ed-4a8b-97c7-0e2dd8952c4d"},"vehicle_type_id":"4","last_reported":1741518389,"current_range_meters":4800,"station_id":"ce4bhp92rcd13ifvqhcg","pricing_plan_id":"cebpf4jnsgd1na2vs0mg"},{"bike_id":"013ecab6-e78f-40b0-92d2-c4534d013555","system_id":"levelo_inurba_marseille","lat":43.23191,"lon":5.35538,"is_reserved":false,"is_disabled":false,"rental_uris":{"android":"levelo://app?vid=013ecab6-e78f-40b0-92d2-c4534d013555","ios":"levelo://app?vid=013ecab6-e78f-40b0-92d2-c4534d013555"},"vehicle_type_id":"4","last_reported":1741518389,"current_range_meters":4800,"station_id":"ce4bhu92rcd13ifvqi70","pricing_plan_id":"cebpf4jnsgd1na2vs0mg"},{"bike_id":"496a066d-43d5-42fe-86ae-32a0a3a2d0ee","system_id":"levelo_inurba_marseille","lat":43.25575,"lon":5.382,"is_reserved":false,"is_disabled":false,"rental_uris":{"android":"levelo://app?vid=496a066d-43d5-42fe-86ae-32a0a3a2d0ee","ios":"levelo://app?vid=496a066d-43d5-42fe-86ae-32a0a3a2d0ee"},"vehicle_type_id":"4","last_reported":1741518389,"current_range_meters":4800,"station_id":"ce4bhih2rcd13ifvqfs0","pricing_plan_id":"cebpf4jnsgd1na2vs0mg"},{"bike_id":"0fee3cd1-4a74-4160-ad97-19f5dc8dd8d6","system_id":"levelo_inurba_marseille","lat":43.24546,"lon":5.38799,"is_reserved":false,"is_disabled":false,"rental_uris":{"android":"levelo://app?vid=0fee3cd1-4a74-4160-ad97-19f5dc8dd8d6","ios":"levelo://app?vid=0fee3cd1-4a74-4160-ad97-19f5dc8dd8d6"},"vehicle_type_id":"4","last_reported":1741518389,"current_range_meters":4800,"station_id":"","pricing_plan_id":"cebpf4jnsgd1na2vs0mg"},{"bike_id":"dec29720-34f1-4ed4-8695-f9a107b367e4","system_id":"levelo_inurba_marseille","lat":43.28702,"lon":5.37383,"is_reserved":false,"is_disabled":true,"rental_uris":{"android":"levelo://app?vid=dec29720-34f1-4ed4-8695-f9a107b367e4","ios":"levelo://app?vid=dec29720-34f1-4ed4-8695-f9a107b367e4"},"vehicle_type_id":"4","last_reported":1741518389,"current_range_meters":4800,"station_id":"ce4bh3p2rcd13ifvqdq0","pricing_plan_id":"cebpf4jnsgd1na2vs0mg"},{"bike_id":"39c88fcb-d822-4133-ba8c-27f3a5c4e23a","system_id":"levelo_inurba_marseille","lat":43.28167,"lon":5.42646,"is_reserved":false,"is_disabled":false,"rental_uris":{"android":"levelo://app?vid=39c88fcb-d822-4133-ba8c-27f3a5c4e23a","ios":"levelo://app?vid=39c88fcb-d822-4133-ba8c-27f3a5c4e23a"},"vehicle_type_id":"4","last_reported":1741518389,"current_range_meters":5600,"station_id":"ce4bhnh2rcd13ifvqgug","pricing_plan_id":"cebpf4jnsgd1na2vs0mg"},{"bike_id":"2fe3fa9d-c136-4274-aa2d-ddbc2f5c56d4","system_id":"levelo_inurba_marseille","lat":43.27594,"lon":5.39662,"is_reserved":false,"is_disabled":false,"rental_uris":{"android":"levelo://app?vid=2fe3fa9d-c136-4274-aa2d-ddbc2f5c56d4","ios":"levelo://app?vid=2fe3fa9d-c136-4274-aa2d-ddbc2f5c56d4"},"vehicle_type_id":"4","last_reported":1741518389,"current_range_meters":5600,"station_id":"","pricing_plan_id":"cebpf4jnsgd1na2vs0mg"},{"bike_id":"de9dd6b4-169b-45d2-bea4-254a4c81f43b","system_id":"levelo_inurba_marseille","lat":43.31756,"lon":5.40709,"is_reserved":false,"is_disabled":false,"rental_uris":{"android":"levelo://app?vid=de9dd6b4-169b-45d2-bea4-254a4c81f43b","ios":"levelo://app?vid=de9dd6b4-169b-45d2-bea4-254a4c81f43b"},"vehicle_type_id":"4","last_reported":1741518389,"current_range_meters":5600,"station_id":"","pricing_plan_id":"cebpf4jnsgd1na2vs0mg"},{"bike_id":"a62145a5-524f-42d6-833f-c73fb2488bb9","system_id":"levelo_inurba_marseille","lat":43.26504,"lon":5.39552,"is_reserved":false,"is_disabled":false,"rental_uris":{"android":"levelo://app?vid=a62145a5-524f-42d6-833f-c73fb2488bb9","ios":"levelo://app?vid=a62145a5-524f-42d6-833f-c73fb2488bb9"},"vehicle_type_id":"4","last_reported":1741518389,"current_range_meters":5600,"station_id":"ce4bhi12rcd13ifvqfq0","pricing_plan_id":"cebpf4jnsgd1na2vs0mg"},{"bike_id":"a3ea0991-4b1c-4b3b-b5f9-ab60777b4148","system_id":"levelo_inurba_marseille","lat":43.241769,"lon":5.397238,"is_reserved":false,"is_disabled":false,"rental_uris":{"android":"levelo://app?vid=a3ea0991-4b1c-4b3b-b5f9-ab60777b4148","ios":"levelo://app?vid=a3ea0991-4b1c-4b3b-b5f9-ab60777b4148"},"vehicle_type_id":"4","last_reported":1741518389,"current_range_meters":5600,"station_id":"ce4bhn12rcd13ifvqgpg","pricing_plan_id":"cebpf4jnsgd1na2vs0mg"},{"bike_id":"9effefb9-02e3-4c25-ab75-e3a5ac01515f","system_id":"levelo_inurba_marseille","lat":43.26548,"lon":5.3728,"is_reserved":false,"is_disabled":true,"rental_uris":{"android":"levelo://app?vid=9effefb9-02e3-4c25-ab75-e3a5ac01515f","ios":"levelo://app?vid=9effefb9-02e3-4c25-ab75-e3a5ac01515f"},"vehicle_type_id":"4","last_reported":1741518389,"current_range_meters":5600,"station_id":"ce4bhg12rcd13ifvqf70","pricing_plan_id":"cebpf4jnsgd1na2vs0mg"},{"bike_id":"903ca8fb-a01f-48af-9d7f-844151e9f785","system_id":"levelo_inurba_marseille","lat":43.27951,"lon":5.4106,"is_reserved":false,"is_disabled":true,"rental_uris":{"android":"levelo://app?vid=903ca8fb-a01f-48af-9d7f-844151e9f785","ios":"levelo://app?vid=903ca8fb-a01f-48af-9d7f-844151e9f785"},"vehicle_type_id":"4","last_reported":1741518389,"current_range_meters":5600,"station_id":"ce4bhnp2rcd13ifvqh0g","pricing_plan_id":"cebpf4jnsgd1na2vs0mg"},{"bike_id":"802ec9b6-cf45-4906-a6b8-3b7e5c09357c","system_id":"levelo_inurba_marseille","lat":43.3092,"lon":5.40106,"is_reserved":false,"is_disabled":false,"rental_uris":{"android":"levelo://app?vid=802ec9b6-cf45-4906-a6b8-3b7e5c09357c","ios":"levelo://app?vid=802ec9b6-cf45-4906-a6b8-3b7e5c09357c"},"vehicle_type_id":"4","last_reported":1741518389,"current_range_meters":5600,"station_id":"ce4bgvp2rcd13ifvqct0","pricing_plan_id":"cebpf4jnsgd1na2vs0mg"},{"bike_id":"cb0d4d15-0ce0-4061-8a04-93bcbe80bd0f","system_id":"levelo_inurba_marseille","lat":43.25938,"lon":5.40902,"is_reserved":false,"is_disabled":false,"rental_uris":{"android":"levelo://app?vid=cb0d4d15-0ce0-4061-8a04-93bcbe80bd0f","ios":"levelo://app?vid=cb0d4d15-0ce0-4061-8a04-93bcbe80bd0f"},"vehicle_type_id":"4","last_reported":1741518389,"current_range_meters":5600,"station_id":"ce4bhm92rcd13ifvqglg","pricing_plan_id":"cebpf4jnsgd1na2vs0mg"},{"bike_id":"53bd1732-d8ff-41a5-8f1b-42274afdde26","system_id":"levelo_inurba_marseille","lat":43.29363,"lon":5.42826,"is_reserved":false,"is_disabled":false,"rental_uris":{"android":"levelo://app?vid=53bd1732-d8ff-41a5-8f1b-42274afdde26","ios":"levelo://app?vid=53bd1732-d8ff-41a5-8f1b-42274afdde26"},"vehicle_type_id":"4","last_reported":1741518389,"current_range_meters":5600,"station_id":"","pricing_plan_id":"cebpf4jnsgd1na2vs0mg"},{"bike_id":"f4906724-26b5-4110-ba77-718f0f26dd92","system_id":"levelo_inurba_marseille","lat":43.31486,"lon":5.38561,"is_reserved":false,"is_disabled":false,"rental_uris":{"android":"levelo://app?vid=f4906724-26b5-4110-ba77-718f0f26dd92","ios":"levelo://app?vid=f4906724-26b5-4110-ba77-718f0f26dd92"},"vehicle_type_id":"4","last_reported":1741518389,"current_range_meters":6000,"station_id":"","pricing_plan_id":"cebpf4jnsgd1na2vs0mg"},{"bike_id":"e349ff65-0a44-4668-be39-331480a53e8c","system_id":"levelo_inurba_marseille","lat":43.29669,"lon":5.44537,"is_reserved":false,"is_disabled":false,"rental_uris":{"android":"levelo://app?vid=e349ff65-0a44-4668-be39-331480a53e8c","ios":"levelo://app?vid=e349ff65-0a44-4668-be39-331480a53e8c"},"vehicle_type_id":"4","last_reported":1741518389,"current_range_meters":6000,"station_id":"","pricing_plan_id":"cebpf4jnsgd1na2vs0mg"},{"bike_id":"8b76a81a-4c10-4e7b-ab15-0f6dad2b5137","system_id":"levelo_inurba_marseille","lat":43.26591,"lon":5.37304,"is_reserved":false,"is_disabled":false,"rental_uris":{"android":"levelo://app?vid=8b76a81a-4c10-4e7b-ab15-0f6dad2b5137","ios":"levelo://app?vid=8b76a81a-4c10-4e7b-ab15-0f6dad2b5137"},"vehicle_type_id":"4","last_reported":1741518389,"current_range_meters":6000,"station_id":"ce4bhg12rcd13ifvqf70","pricing_plan_id":"cebpf4jnsgd1na2vs0mg"},{"bike_id":"6609bee2-aa47-47bf-bc28-c870181ef722","system_id":"levelo_inurba_marseille","lat":43.29682,"lon":5.38549,"is_reserved":false,"is_disabled":false,"rental_uris":{"android":"levelo://app?vid=6609bee2-aa47-47bf-bc28-c870181ef722","ios":"levelo://app?vid=6609bee2-aa47-47bf-bc28-c870181ef722"},"vehicle_type_id":"4","last_reported":1741518389,"current_range_meters":6000,"station_id":"","pricing_plan_id":"cebpf4jnsgd1na2vs0mg"},{"bike_id":"0f547de3-c382-4c8d-a5a9-a1f7571fca3a","system_id":"levelo_inurba_marseille","lat":43.31177,"lon":5.387137,"is_reserved":false,"is_disabled":false,"rental_uris":{"android":"levelo://app?vid=0f547de3-c382-4c8d-a5a9-a1f7571fca3a","ios":"levelo://app?vid=0f547de3-c382-4c8d-a5a9-a1f7571fca3a"},"vehicle_type_id":"4","last_reported":1741518389,"current_range_meters":6400,"station_id":"ce4bgv12rcd13ifvqcp0","pricing_plan_id":"cebpf4jnsgd1na2vs0mg"},{"bike_id":"7d295ec4-9c0e-4850-9c53-dd65645b97b2","system_id":"levelo_inurba_marseille","lat":43.26075,"lon":5.39412,"is_reserved":false,"is_disabled":false,"rental_uris":{"android":"levelo://app?vid=7d295ec4-9c0e-4850-9c53-dd65645b97b2","ios":"levelo://app?vid=7d295ec4-9c0e-4850-9c53-dd65645b97b2"},"vehicle_type_id":"4","last_reported":1741518389,"current_range_meters":6400,"station_id":"ce4bhh92rcd13ifvqfj0","pricing_plan_id":"cebpf4jnsgd1na2vs0mg"},{"bike_id":"4f508b50-1e3d-40c5-be77-1e6495edbe07","system_id":"levelo_inurba_marseille","lat":43.25719,"lon":5.4111,"is_reserved":false,"is_disabled":false,"rental_uris":{"android":"levelo://app?vid=4f508b50-1e3d-40c5-be77-1e6495edbe07","ios":"levelo://app?vid=4f508b50-1e3d-40c5-be77-1e6495edbe07"},"vehicle_type_id":"4","last_reported":1741518389,"current_range_meters":6400,"station_id":"ce4bhkp2rcd13ifvqgd0","pricing_plan_id":"cebpf4jnsgd1na2vs0mg"},{"bike_id":"c40c13ce-fdbb-4f52-b2d8-1005d4c9277b","system_id":"levelo_inurba_marseille","lat":43.25392,"lon":5.41882,"is_reserved":false,"is_disabled":false,"rental_uris":{"android":"levelo://app?vid=c40c13ce-fdbb-4f52-b2d8-1005d4c9277b","ios":"levelo://app?vid=c40c13ce-fdbb-4f52-b2d8-1005d4c9277b"},"vehicle_type_id":"4","last_reported":1741518389,"current_range_meters":6400,"station_id":"","pricing_plan_id":"cebpf4jnsgd1na2vs0mg"},{"bike_id":"a01889f6-7082-4c91-9d70-b12d1c00664e","system_id":"levelo_inurba_marseille","lat":43.308,"lon":5.43523,"is_reserved":false,"is_disabled":false,"rental_uris":{"android":"levelo://app?vid=a01889f6-7082-4c91-9d70-b12d1c00664e","ios":"levelo://app?vid=a01889f6-7082-4c91-9d70-b12d1c00664e"},"vehicle_type_id":"4","last_reported":1741518389,"current_range_meters":6400,"station_id":"ce4bhph2rcd13ifvqheg","pricing_plan_id":"cebpf4jnsgd1na2vs0mg"},{"bike_id":"a6c74a05-39e7-4da6-8b71-1ba187fc5bae","system_id":"levelo_inurba_marseille","lat":43.3052,"lon":5.3656,"is_reserved":false,"is_disabled":true,"rental_uris":{"android":"levelo://app?vid=a6c74a05-39e7-4da6-8b71-1ba187fc5bae","ios":"levelo://app?vid=a6c74a05-39e7-4da6-8b71-1ba187fc5bae"},"vehicle_type_id":"4","last_reported":1741518389,"current_range_meters":6400,"station_id":"ce4bgs12rcd13ifvqcag","pricing_plan_id":"cebpf4jnsgd1na2vs0mg"},{"bike_id":"1d2604d7-8b6a-4450-a894-31ccf0cbe336","system_id":"levelo_inurba_marseille","lat":43.28619,"lon":5.35101,"is_reserved":false,"is_disabled":false,"rental_uris":{"android":"levelo://app?vid=1d2604d7-8b6a-4450-a894-31ccf0cbe336","ios":"levelo://app?vid=1d2604d7-8b6a-4450-a894-31ccf0cbe336"},"vehicle_type_id":"4","last_reported":1741518389,"current_range_meters":6400,"station_id":"ce4bhch2rcd13ifvqeug","pricing_plan_id":"cebpf4jnsgd1na2vs0mg"},{"bike_id":"1c0edaba-550e-4916-9ab6-b50abcaced38","system_id":"levelo_inurba_marseille","lat":43.28172,"lon":5.42657,"is_reserved":false,"is_disabled":false,"rental_uris":{"android":"levelo://app?vid=1c0edaba-550e-4916-9ab6-b50abcaced38","ios":"levelo://app?vid=1c0edaba-550e-4916-9ab6-b50abcaced38"},"vehicle_type_id":"4","last_reported":1741518389,"current_range_meters":6400,"station_id":"ce4bhnh2rcd13ifvqgug","pricing_plan_id":"cebpf4jnsgd1na2vs0mg"},{"bike_id":"814f0b7b-c270-4284-ad0a-fe0e736f1aaf","system_id":"levelo_inurba_marseille","lat":43.29635,"lon":5.37174,"is_reserved":false,"is_disabled":false,"rental_uris":{"android":"levelo://app?vid=814f0b7b-c270-4284-ad0a-fe0e736f1aaf","ios":"levelo://app?vid=814f0b7b-c270-4284-ad0a-fe0e736f1aaf"},"vehicle_type_id":"4","last_reported":1741518389,"current_range_meters":6800,"station_id":"ce4bgnh2rcd13ifvqc0g","pricing_plan_id":"cebpf4jnsgd1na2vs0mg"},{"bike_id":"c787a0ef-03a5-4d36-b53c-60238e9036da","system_id":"levelo_inurba_marseille","lat":43.23201,"lon":5.39983,"is_reserved":false,"is_disabled":false,"rental_uris":{"android":"levelo://app?vid=c787a0ef-03a5-4d36-b53c-60238e9036da","ios":"levelo://app?vid=c787a0ef-03a5-4d36-b53c-60238e9036da"},"vehicle_type_id":"4","last_reported":1741518389,"current_range_meters":6800,"station_id":"ce4bhn12rcd13ifvqgqg","pricing_plan_id":"cebpf4jnsgd1na2vs0mg"},{"bike_id":"1d4bb7b9-3ae6-4d31-8bdd-ee00b3232adf","system_id":"levelo_inurba_marseille","lat":43.25735,"lon":5.41109,"is_reserved":false,"is_disabled":false,"rental_uris":{"android":"levelo://app?vid=1d4bb7b9-3ae6-4d31-8bdd-ee00b3232adf","ios":"levelo://app?vid=1d4bb7b9-3ae6-4d31-8bdd-ee00b3232adf"},"vehicle_type_id":"4","last_reported":1741518389,"current_range_meters":6800,"station_id":"ce4bhkp2rcd13ifvqgd0","pricing_plan_id":"cebpf4jnsgd1na2vs0mg"},{"bike_id":"7e48344a-4db8-47b3-8baa-574165663505","system_id":"levelo_inurba_marseille","lat":43.24427,"lon":5.37032,"is_reserved":false,"is_disabled":false,"rental_uris":{"android":"levelo://app?vid=7e48344a-4db8-47b3-8baa-574165663505","ios":"levelo://app?vid=7e48344a-4db8-47b3-8baa-574165663505"},"vehicle_type_id":"4","last_reported":1741518389,"current_range_meters":6800,"station_id":"","pricing_plan_id":"cebpf4jnsgd1na2vs0mg"},{"bike_id":"b4ec2170-59cc-4751-981a-ecabaa90ce87","system_id":"levelo_inurba_marseille","lat":43.25116,"lon":5.40325,"is_reserved":false,"is_disabled":false,"rental_uris":{"android":"levelo://app?vid=b4ec2170-59cc-4751-981a-ecabaa90ce87","ios":"levelo://app?vid=b4ec2170-59cc-4751-981a-ecabaa90ce87"},"vehicle_type_id":"4","last_reported":1741518389,"current_range_meters":6800,"station_id":"ce4bhlh2rcd13ifvqgig","pricing_plan_id":"cebpf4jnsgd1na2vs0mg"},{"bike_id":"221b4b87-20b1-469d-a55a-424075a1f123","system_id":"levelo_inurba_marseille","lat":43.27902,"lon":5.38008,"is_reserved":false,"is_disabled":false,"rental_uris":{"android":"levelo://app?vid=221b4b87-20b1-469d-a55a-424075a1f123","ios":"levelo://app?vid=221b4b87-20b1-469d-a55a-424075a1f123"},"vehicle_type_id":"4","last_reported":1741518389,"current_range_meters":6800,"station_id":"ce4bhf92rcd13ifvqf50","pricing_plan_id":"cebpf4jnsgd1na2vs0mg"},{"bike_id":"d6a7b524-84a6-4df4-b740-c4cb1d9ecf44","system_id":"levelo_inurba_marseille","lat":43.29029,"lon":5.38126,"is_reserved":false,"is_disabled":true,"rental_uris":{"android":"levelo://app?vid=d6a7b524-84a6-4df4-b740-c4cb1d9ecf44","ios":"levelo://app?vid=d6a7b524-84a6-4df4-b740-c4cb1d9ecf44"},"vehicle_type_id":"4","last_reported":1741518389,"current_range_meters":7200,"station_id":"ce4bh4p2rcd13ifvqe1g","pricing_plan_id":"cebpf4jnsgd1na2vs0mg"},{"bike_id":"d399c68f-4683-4187-95d7-e32ffde3c66c","system_id":"levelo_inurba_marseille","lat":43.25095,"lon":5.39513,"is_reserved":false,"is_disabled":false,"rental_uris":{"android":"levelo://app?vid=d399c68f-4683-4187-95d7-e32ffde3c66c","ios":"levelo://app?vid=d399c68f-4683-4187-95d7-e32ffde3c66c"},"vehicle_type_id":"4","last_reported":1741518389,"current_range_meters":7200,"station_id":"ce4bhm12rcd13ifvqgkg","pricing_plan_id":"cebpf4jnsgd1na2vs0mg"},{"bike_id":"6278d2ee-3fe8-4bef-aea6-64166ac384f6","system_id":"levelo_inurba_marseille","lat":43.26771,"lon":5.38239,"is_reserved":false,"is_disabled":true,"rental_uris":{"android":"levelo://app?vid=6278d2ee-3fe8-4bef-aea6-64166ac384f6","ios":"levelo://app?vid=6278d2ee-3fe8-4bef-aea6-64166ac384f6"},"vehicle_type_id":"4","last_reported":1741518389,"current_range_meters":7200,"station_id":"","pricing_plan_id":"cebpf4jnsgd1na2vs0mg"},{"bike_id":"1bf35705-cf89-4c6b-8ea3-f937b4ebde32","system_id":"levelo_inurba_marseille","lat":43.29784,"lon":5.39341,"is_reserved":false,"is_disabled":false,"rental_uris":{"android":"levelo://app?vid=1bf35705-cf89-4c6b-8ea3-f937b4ebde32","ios":"levelo://app?vid=1bf35705-cf89-4c6b-8ea3-f937b4ebde32"},"vehicle_type_id":"4","last_reported":1741518389,"current_range_meters":7200,"station_id":"chh1huq6cuj3fo74tm60","pricing_plan_id":"cebpf4jnsgd1na2vs0mg"},{"bike_id":"1417f031-091d-43e9-9b0d-54761e0e3eb4","system_id":"levelo_inurba_marseille","lat":43.2656,"lon":5.37278,"is_reserved":false,"is_disabled":false,"rental_uris":{"android":"levelo://app?vid=1417f031-091d-43e9-9b0d-54761e0e3eb4","ios":"levelo://app?vid=1417f031-091d-43e9-9b0d-54761e0e3eb4"},"vehicle_type_id":"4","last_reported":1741518389,"current_range_meters":7200,"station_id":"ce4bhg12rcd13ifvqf70","pricing_plan_id":"cebpf4jnsgd1na2vs0mg"},{"bike_id":"50724cb0-f096-4563-be1c-93758466ecb4","system_id":"levelo_inurba_marseille","lat":43.31979,"lon":5.38103,"is_reserved":false,"is_disabled":false,"rental_uris":{"android":"levelo://app?vid=50724cb0-f096-4563-be1c-93758466ecb4","ios":"levelo://app?vid=50724cb0-f096-4563-be1c-93758466ecb4"},"vehicle_type_id":"4","last_reported":1741518389,"current_range_meters":8000,"station_id":"","pricing_plan_id":"cebpf4jnsgd1na2vs0mg"},{"bike_id":"b2c2514d-58df-4080-9acc-0a3325c87525","system_id":"levelo_inurba_marseille","lat":43.32374,"lon":5.36777,"is_reserved":false,"is_disabled":false,"rental_uris":{"android":"levelo://app?vid=b2c2514d-58df-4080-9acc-0a3325c87525","ios":"levelo://app?vid=b2c2514d-58df-4080-9acc-0a3325c87525"},"vehicle_type_id":"4","last_reported":1741518389,"current_range_meters":8000,"station_id":"ce4bhsh2rcd13ifvqi2g","pricing_plan_id":"cebpf4jnsgd1na2vs0mg"},{"bike_id":"fdf45df4-47d5-41e8-a6c7-03ee85585140","system_id":"levelo_inurba_marseille","lat":43.26778,"lon":5.39518,"is_reserved":false,"is_disabled":true,"rental_uris":{"android":"levelo://app?vid=fdf45df4-47d5-41e8-a6c7-03ee85585140","ios":"levelo://app?vid=fdf45df4-47d5-41e8-a6c7-03ee85585140"},"vehicle_type_id":"4","last_reported":1741518389,"current_range_meters":8000,"station_id":"","pricing_plan_id":"cebpf4jnsgd1na2vs0mg"},{"bike_id":"dd9a88d6-be9f-49f5-ab3a-4a9b434f536b","system_id":"levelo_inurba_marseille","lat":43.3088,"lon":5.40125,"is_reserved":false,"is_disabled":true,"rental_uris":{"android":"levelo://app?vid=dd9a88d6-be9f-49f5-ab3a-4a9b434f536b","ios":"levelo://app?vid=dd9a88d6-be9f-49f5-ab3a-4a9b434f536b"},"vehicle_type_id":"4","last_reported":1741518389,"current_range_meters":8000,"station_id":"ce4bgvp2rcd13ifvqct0","pricing_plan_id":"cebpf4jnsgd1na2vs0mg"},{"bike_id":"692c3fd1-e388-4c38-bc5f-023f56dd0104","system_id":"levelo_inurba_marseille","lat":43.25726,"lon":5.41105,"is_reserved":false,"is_disabled":false,"rental_uris":{"android":"levelo://app?vid=692c3fd1-e388-4c38-bc5f-023f56dd0104","ios":"levelo://app?vid=692c3fd1-e388-4c38-bc5f-023f56dd0104"},"vehicle_type_id":"4","last_reported":1741518389,"current_range_meters":8000,"station_id":"ce4bhkp2rcd13ifvqgd0","pricing_plan_id":"cebpf4jnsgd1na2vs0mg"},{"bike_id":"c96d4cf5-4caa-424b-aaed-f59002c4db95","system_id":"levelo_inurba_marseille","lat":43.31187,"lon":5.38707,"is_reserved":false,"is_disabled":false,"rental_uris":{"android":"levelo://app?vid=c96d4cf5-4caa-424b-aaed-f59002c4db95","ios":"levelo://app?vid=c96d4cf5-4caa-424b-aaed-f59002c4db95"},"vehicle_type_id":"4","last_reported":1741518389,"current_range_meters":8000,"station_id":"ce4bgv12rcd13ifvqcp0","pricing_plan_id":"cebpf4jnsgd1na2vs0mg"},{"bike_id":"2f0c724b-bb76-4a4c-8862-0d82bf790fbd","system_id":"levelo_inurba_marseille","lat":43.26584,"lon":5.39024,"is_reserved":false,"is_disabled":false,"rental_uris":{"android":"levelo://app?vid=2f0c724b-bb76-4a4c-8862-0d82bf790fbd","ios":"levelo://app?vid=2f0c724b-bb76-4a4c-8862-0d82bf790fbd"},"vehicle_type_id":"4","last_reported":1741518389,"current_range_meters":8000,"station_id":"ce4bhe12rcd13ifvqf30","pricing_plan_id":"cebpf4jnsgd1na2vs0mg"},{"bike_id":"b533f38f-df9a-4e01-86fb-08f4b9bfcdfb","system_id":"levelo_inurba_marseille","lat":43.26232,"lon":5.4213,"is_reserved":false,"is_disabled":false,"rental_uris":{"android":"levelo://app?vid=b533f38f-df9a-4e01-86fb-08f4b9bfcdfb","ios":"levelo://app?vid=b533f38f-df9a-4e01-86fb-08f4b9bfcdfb"},"vehicle_type_id":"4","last_reported":1741518389,"current_range_meters":8000,"station_id":"","pricing_plan_id":"cebpf4jnsgd1na2vs0mg"},{"bike_id":"dad63a22-3573-4eb3-a8b7-44c1b9eff39e","system_id":"levelo_inurba_marseille","lat":43.32637,"lon":5.41011,"is_reserved":false,"is_disabled":false,"rental_uris":{"android":"levelo://app?vid=dad63a22-3573-4eb3-a8b7-44c1b9eff39e","ios":"levelo://app?vid=dad63a22-3573-4eb3-a8b7-44c1b9eff39e"},"vehicle_type_id":"4","last_reported":1741518389,"current_range_meters":8000,"station_id":"ce4bhpp2rcd13ifvqhgg","pricing_plan_id":"cebpf4jnsgd1na2vs0mg"},{"bike_id":"2e3c60b3-f5fc-40b6-b347-86b0b4f3ee6e","system_id":"levelo_inurba_marseille","lat":43.231881,"lon":5.399836,"is_reserved":false,"is_disabled":false,"rental_uris":{"android":"levelo://app?vid=2e3c60b3-f5fc-40b6-b347-86b0b4f3ee6e","ios":"levelo://app?vid=2e3c60b3-f5fc-40b6-b347-86b0b4f3ee6e"},"vehicle_type_id":"4","last_reported":1741518389,"current_range_meters":8000,"station_id":"ce4bhn12rcd13ifvqgqg","pricing_plan_id":"cebpf4jnsgd1na2vs0mg"},{"bike_id":"c854b195-a8dd-4c0b-8985-9c3d86974ab3","system_id":"levelo_inurba_marseille","lat":43.32603,"lon":5.35675,"is_reserved":false,"is_disabled":false,"rental_uris":{"android":"levelo://app?vid=c854b195-a8dd-4c0b-8985-9c3d86974ab3","ios":"levelo://app?vid=c854b195-a8dd-4c0b-8985-9c3d86974ab3"},"vehicle_type_id":"4","last_reported":1741518389,"current_range_meters":8000,"station_id":"","pricing_plan_id":"cebpf4jnsgd1na2vs0mg"},{"bike_id":"7e02cfbd-631a-4ab3-ae10-1472e2c5bb1c","system_id":"levelo_inurba_marseille","lat":43.320389,"lon":5.415703,"is_reserved":false,"is_disabled":false,"rental_uris":{"android":"levelo://app?vid=7e02cfbd-631a-4ab3-ae10-1472e2c5bb1c","ios":"levelo://app?vid=7e02cfbd-631a-4ab3-ae10-1472e2c5bb1c"},"vehicle_type_id":"4","last_reported":1741518389,"current_range_meters":8000,"station_id":"ce4bhq92rcd13ifvqhkg","pricing_plan_id":"cebpf4jnsgd1na2vs0mg"},{"bike_id":"1b191fcc-0841-484d-9c77-5bd6a63177a0","system_id":"levelo_inurba_marseille","lat":43.31362,"lon":5.38497,"is_reserved":false,"is_disabled":false,"rental_uris":{"android":"levelo://app?vid=1b191fcc-0841-484d-9c77-5bd6a63177a0","ios":"levelo://app?vid=1b191fcc-0841-484d-9c77-5bd6a63177a0"},"vehicle_type_id":"4","last_reported":1741518389,"current_range_meters":8400,"station_id":"ce4bgt92rcd13ifvqcf0","pricing_plan_id":"cebpf4jnsgd1na2vs0mg"},{"bike_id":"a9c7da56-56f9-478f-b2ec-874e6a4d99e9","system_id":"levelo_inurba_marseille","lat":43.28003,"lon":5.4001,"is_reserved":false,"is_disabled":false,"rental_uris":{"android":"levelo://app?vid=a9c7da56-56f9-478f-b2ec-874e6a4d99e9","ios":"levelo://app?vid=a9c7da56-56f9-478f-b2ec-874e6a4d99e9"},"vehicle_type_id":"4","last_reported":1741518389,"current_range_meters":8400,"station_id":"ce4bho92rcd13ifvqh4g","pricing_plan_id":"cebpf4jnsgd1na2vs0mg"},{"bike_id":"b9f50795-762b-415e-beef-6809359ba11c","system_id":"levelo_inurba_marseille","lat":43.31715,"lon":5.37788,"is_reserved":false,"is_disabled":false,"rental_uris":{"android":"levelo://app?vid=b9f50795-762b-415e-beef-6809359ba11c","ios":"levelo://app?vid=b9f50795-762b-415e-beef-6809359ba11c"},"vehicle_type_id":"4","last_reported":1741518389,"current_range_meters":8400,"station_id":"ce4bgth2rcd13ifvqch0","pricing_plan_id":"cebpf4jnsgd1na2vs0mg"},{"bike_id":"667a4a7d-00b1-4f48-9998-039d946ae730","system_id":"levelo_inurba_marseille","lat":43.28005,"lon":5.40011,"is_reserved":false,"is_disabled":false,"rental_uris":{"android":"levelo://app?vid=667a4a7d-00b1-4f48-9998-039d946ae730","ios":"levelo://app?vid=667a4a7d-00b1-4f48-9998-039d946ae730"},"vehicle_type_id":"4","last_reported":1741518389,"current_range_meters":8400,"station_id":"ce4bho92rcd13ifvqh4g","pricing_plan_id":"cebpf4jnsgd1na2vs0mg"},{"bike_id":"e4bd2c36-555f-4bad-ae17-7623a44e9165","system_id":"levelo_inurba_marseille","lat":43.313476,"lon":5.383233,"is_reserved":false,"is_disabled":false,"rental_uris":{"android":"levelo://app?vid=e4bd2c36-555f-4bad-ae17-7623a44e9165","ios":"levelo://app?vid=e4bd2c36-555f-4bad-ae17-7623a44e9165"},"vehicle_type_id":"4","last_reported":1741518389,"current_range_meters":8400,"station_id":"","pricing_plan_id":"cebpf4jnsgd1na2vs0mg"},{"bike_id":"388ea826-f5fa-4632-a530-45d13cc0a769","system_id":"levelo_inurba_marseille","lat":43.23196,"lon":5.39992,"is_reserved":false,"is_disabled":false,"rental_uris":{"android":"levelo://app?vid=388ea826-f5fa-4632-a530-45d13cc0a769","ios":"levelo://app?vid=388ea826-f5fa-4632-a530-45d13cc0a769"},"vehicle_type_id":"4","last_reported":1741518389,"current_range_meters":8400,"station_id":"ce4bhn12rcd13ifvqgqg","pricing_plan_id":"cebpf4jnsgd1na2vs0mg"},{"bike_id":"e1b93478-9a2c-415f-bb57-ab2fd6bf9983","system_id":"levelo_inurba_marseille","lat":43.27661,"lon":5.38867,"is_reserved":false,"is_disabled":true,"rental_uris":{"android":"levelo://app?vid=e1b93478-9a2c-415f-bb57-ab2fd6bf9983","ios":"levelo://app?vid=e1b93478-9a2c-415f-bb57-ab2fd6bf9983"},"vehicle_type_id":"4","last_reported":1741518389,"current_range_meters":8400,"station_id":"ce4bhi12rcd13ifvqfo0","pricing_plan_id":"cebpf4jnsgd1na2vs0mg"},{"bike_id":"1b64b399-416d-4c69-9a76-4986b48c5800","system_id":"levelo_inurba_marseille","lat":43.317192,"lon":5.377656,"is_reserved":false,"is_disabled":false,"rental_uris":{"android":"levelo://app?vid=1b64b399-416d-4c69-9a76-4986b48c5800","ios":"levelo://app?vid=1b64b399-416d-4c69-9a76-4986b48c5800"},"vehicle_type_id":"4","last_reported":1741518389,"current_range_meters":8400,"station_id":"ce4bgth2rcd13ifvqch0","pricing_plan_id":"cebpf4jnsgd1na2vs0mg"},{"bike_id":"8eacff87-68fb-4181-ae93-fe09a817442a","system_id":"levelo_inurba_marseille","lat":43.2606,"lon":5.39425,"is_reserved":false,"is_disabled":false,"rental_uris":{"android":"levelo://app?vid=8eacff87-68fb-4181-ae93-fe09a817442a","ios":"levelo://app?vid=8eacff87-68fb-4181-ae93-fe09a817442a"},"vehicle_type_id":"4","last_reported":1741518389,"current_range_meters":8400,"station_id":"ce4bhh92rcd13ifvqfj0","pricing_plan_id":"cebpf4jnsgd1na2vs0mg"},{"bike_id":"ad284fdb-e6f9-4c5a-9e2c-c44130087410","system_id":"levelo_inurba_marseille","lat":43.23191,"lon":5.39979,"is_reserved":false,"is_disabled":false,"rental_uris":{"android":"levelo://app?vid=ad284fdb-e6f9-4c5a-9e2c-c44130087410","ios":"levelo://app?vid=ad284fdb-e6f9-4c5a-9e2c-c44130087410"},"vehicle_type_id":"4","last_reported":1741518389,"current_range_meters":8800,"station_id":"ce4bhn12rcd13ifvqgqg","pricing_plan_id":"cebpf4jnsgd1na2vs0mg"},{"bike_id":"8968ebf0-976e-4199-a05d-0b5eb90e8fa7","system_id":"levelo_inurba_marseille","lat":43.257194,"lon":5.411219,"is_reserved":false,"is_disabled":false,"rental_uris":{"android":"levelo://app?vid=8968ebf0-976e-4199-a05d-0b5eb90e8fa7","ios":"levelo://app?vid=8968ebf0-976e-4199-a05d-0b5eb90e8fa7"},"vehicle_type_id":"4","last_reported":1741518389,"current_range_meters":8800,"station_id":"ce4bhkp2rcd13ifvqgd0","pricing_plan_id":"cebpf4jnsgd1na2vs0mg"},{"bike_id":"a4e6a743-4ff5-437d-be8d-c71876e7375d","system_id":"levelo_inurba_marseille","lat":43.33729,"lon":5.3919,"is_reserved":false,"is_disabled":false,"rental_uris":{"android":"levelo://app?vid=a4e6a743-4ff5-437d-be8d-c71876e7375d","ios":"levelo://app?vid=a4e6a743-4ff5-437d-be8d-c71876e7375d"},"vehicle_type_id":"4","last_reported":1741518389,"current_range_meters":8800,"station_id":"ce4bhr92rcd13ifvqhsg","pricing_plan_id":"cebpf4jnsgd1na2vs0mg"},{"bike_id":"d729c7f4-89ec-407d-beb1-2e2d40d550c1","system_id":"levelo_inurba_marseille","lat":43.27196,"lon":5.40955,"is_reserved":false,"is_disabled":false,"rental_uris":{"android":"levelo://app?vid=d729c7f4-89ec-407d-beb1-2e2d40d550c1","ios":"levelo://app?vid=d729c7f4-89ec-407d-beb1-2e2d40d550c1"},"vehicle_type_id":"4","last_reported":1741518389,"current_range_meters":8800,"station_id":"ce4bhl12rcd13ifvqgf0","pricing_plan_id":"cebpf4jnsgd1na2vs0mg"},{"bike_id":"93b65028-e8a4-4c8f-876a-ae246ea8ac90","system_id":"levelo_inurba_marseille","lat":43.31365,"lon":5.38522,"is_reserved":false,"is_disabled":true,"rental_uris":{"android":"levelo://app?vid=93b65028-e8a4-4c8f-876a-ae246ea8ac90","ios":"levelo://app?vid=93b65028-e8a4-4c8f-876a-ae246ea8ac90"},"vehicle_type_id":"4","last_reported":1741518389,"current_range_meters":9200,"station_id":"ce4bgt92rcd13ifvqcf0","pricing_plan_id":"cebpf4jnsgd1na2vs0mg"},{"bike_id":"f7515e47-1b5c-4cc2-87fc-79ab0a524835","system_id":"levelo_inurba_marseille","lat":43.31902,"lon":5.38948,"is_reserved":false,"is_disabled":false,"rental_uris":{"android":"levelo://app?vid=f7515e47-1b5c-4cc2-87fc-79ab0a524835","ios":"levelo://app?vid=f7515e47-1b5c-4cc2-87fc-79ab0a524835"},"vehicle_type_id":"4","last_reported":1741518389,"current_range_meters":9200,"station_id":"","pricing_plan_id":"cebpf4jnsgd1na2vs0mg"},{"bike_id":"31078f29-744e-4f70-aa89-070122c91b31","system_id":"levelo_inurba_marseille","lat":43.34375,"lon":5.39959,"is_reserved":false,"is_disabled":false,"rental_uris":{"android":"levelo://app?vid=31078f29-744e-4f70-aa89-070122c91b31","ios":"levelo://app?vid=31078f29-744e-4f70-aa89-070122c91b31"},"vehicle_type_id":"4","last_reported":1741518389,"current_range_meters":9200,"station_id":"","pricing_plan_id":"cebpf4jnsgd1na2vs0mg"},{"bike_id":"2a3a8222-0824-4130-a051-e3506a3fb94c","system_id":"levelo_inurba_marseille","lat":43.24073,"lon":5.37751,"is_reserved":false,"is_disabled":false,"rental_uris":{"android":"levelo://app?vid=2a3a8222-0824-4130-a051-e3506a3fb94c","ios":"levelo://app?vid=2a3a8222-0824-4130-a051-e3506a3fb94c"},"vehicle_type_id":"4","last_reported":1741518389,"current_range_meters":9200,"station_id":"ce4bhnp2rcd13ifvqgvg","pricing_plan_id":"cebpf4jnsgd1na2vs0mg"},{"bike_id":"b93a9363-85d6-472c-9f43-0aa3e4e0603c","system_id":"levelo_inurba_marseille","lat":43.29284,"lon":5.40125,"is_reserved":false,"is_disabled":false,"rental_uris":{"android":"levelo://app?vid=b93a9363-85d6-472c-9f43-0aa3e4e0603c","ios":"levelo://app?vid=b93a9363-85d6-472c-9f43-0aa3e4e0603c"},"vehicle_type_id":"4","last_reported":1741518389,"current_range_meters":9200,"station_id":"ce4bh312rcd13ifvqdk0","pricing_plan_id":"cebpf4jnsgd1na2vs0mg"},{"bike_id":"30ca0a12-56c0-4feb-9059-10680035a6ae","system_id":"levelo_inurba_marseille","lat":43.287025,"lon":5.373995,"is_reserved":false,"is_disabled":true,"rental_uris":{"android":"levelo://app?vid=30ca0a12-56c0-4feb-9059-10680035a6ae","ios":"levelo://app?vid=30ca0a12-56c0-4feb-9059-10680035a6ae"},"vehicle_type_id":"4","last_reported":1741518389,"current_range_meters":9200,"station_id":"ce4bh3p2rcd13ifvqdq0","pricing_plan_id":"cebpf4jnsgd1na2vs0mg"},{"bike_id":"3e3ed28a-d70d-4e7b-8492-a13a8b5faa63","system_id":"levelo_inurba_marseille","lat":43.25863,"lon":5.39885,"is_reserved":false,"is_disabled":false,"rental_uris":{"android":"levelo://app?vid=3e3ed28a-d70d-4e7b-8492-a13a8b5faa63","ios":"levelo://app?vid=3e3ed28a-d70d-4e7b-8492-a13a8b5faa63"},"vehicle_type_id":"4","last_reported":1741518389,"current_range_meters":9200,"station_id":"ce4bhl92rcd13ifvqghg","pricing_plan_id":"cebpf4jnsgd1na2vs0mg"},{"bike_id":"19bbe8da-d7df-496e-a677-cbaab925cf5e","system_id":"levelo_inurba_marseille","lat":43.24906,"lon":5.42516,"is_reserved":false,"is_disabled":false,"rental_uris":{"android":"levelo://app?vid=19bbe8da-d7df-496e-a677-cbaab925cf5e","ios":"levelo://app?vid=19bbe8da-d7df-496e-a677-cbaab925cf5e"},"vehicle_type_id":"4","last_reported":1741518389,"current_range_meters":9200,"station_id":"","pricing_plan_id":"cebpf4jnsgd1na2vs0mg"},{"bike_id":"e5e118b0-32a8-4ef3-b6d1-b7487133ba19","system_id":"levelo_inurba_marseille","lat":43.28205,"lon":5.42618,"is_reserved":false,"is_disabled":false,"rental_uris":{"android":"levelo://app?vid=e5e118b0-32a8-4ef3-b6d1-b7487133ba19","ios":"levelo://app?vid=e5e118b0-32a8-4ef3-b6d1-b7487133ba19"},"vehicle_type_id":"4","last_reported":1741518389,"current_range_meters":9200,"station_id":"","pricing_plan_id":"cebpf4jnsgd1na2vs0mg"},{"bike_id":"565fac05-172c-4b9b-92f1-8fa35566d080","system_id":"levelo_inurba_marseille","lat":43.25729,"lon":5.41106,"is_reserved":false,"is_disabled":false,"rental_uris":{"android":"levelo://app?vid=565fac05-172c-4b9b-92f1-8fa35566d080","ios":"levelo://app?vid=565fac05-172c-4b9b-92f1-8fa35566d080"},"vehicle_type_id":"4","last_reported":1741518389,"current_range_meters":9200,"station_id":"ce4bhkp2rcd13ifvqgd0","pricing_plan_id":"cebpf4jnsgd1na2vs0mg"},{"bike_id":"c005a41e-a53a-49c3-ab86-ed6508363649","system_id":"levelo_inurba_marseille","lat":43.24552,"lon":5.39528,"is_reserved":false,"is_disabled":false,"rental_uris":{"android":"levelo://app?vid=c005a41e-a53a-49c3-ab86-ed6508363649","ios":"levelo://app?vid=c005a41e-a53a-49c3-ab86-ed6508363649"},"vehicle_type_id":"4","last_reported":1741518389,"current_range_meters":9200,"station_id":"ce4bhlp2rcd13ifvqgjg","pricing_plan_id":"cebpf4jnsgd1na2vs0mg"},{"bike_id":"d4d80517-15f5-40ba-adfb-dbbe2bf1cada","system_id":"levelo_inurba_marseille","lat":43.290329,"lon":5.436809,"is_reserved":false,"is_disabled":false,"rental_uris":{"android":"levelo://app?vid=d4d80517-15f5-40ba-adfb-dbbe2bf1cada","ios":"levelo://app?vid=d4d80517-15f5-40ba-adfb-dbbe2bf1cada"},"vehicle_type_id":"4","last_reported":1741518389,"current_range_meters":9200,"station_id":"","pricing_plan_id":"cebpf4jnsgd1na2vs0mg"},{"bike_id":"2ccee320-67e8-4dc3-b761-19553b6bcc0d","system_id":"levelo_inurba_marseille","lat":43.25687,"lon":5.41041,"is_reserved":false,"is_disabled":false,"rental_uris":{"android":"levelo://app?vid=2ccee320-67e8-4dc3-b761-19553b6bcc0d","ios":"levelo://app?vid=2ccee320-67e8-4dc3-b761-19553b6bcc0d"},"vehicle_type_id":"4","last_reported":1741518389,"current_range_meters":9200,"station_id":"","pricing_plan_id":"cebpf4jnsgd1na2vs0mg"},{"bike_id":"8810679a-e7c9-4297-97b3-dd7d0bfc4864","system_id":"levelo_inurba_marseille","lat":43.25019,"lon":5.38932,"is_reserved":false,"is_disabled":false,"rental_uris":{"android":"levelo://app?vid=8810679a-e7c9-4297-97b3-dd7d0bfc4864","ios":"levelo://app?vid=8810679a-e7c9-4297-97b3-dd7d0bfc4864"},"vehicle_type_id":"4","last_reported":1741518389,"current_range_meters":9200,"station_id":"ce4bhgp2rcd13ifvqfd0","pricing_plan_id":"cebpf4jnsgd1na2vs0mg"},{"bike_id":"0e698c9d-47bc-4045-944d-ecfd6b2414bc","system_id":"levelo_inurba_marseille","lat":43.31086,"lon":5.42427,"is_reserved":false,"is_disabled":false,"rental_uris":{"android":"levelo://app?vid=0e698c9d-47bc-4045-944d-ecfd6b2414bc","ios":"levelo://app?vid=0e698c9d-47bc-4045-944d-ecfd6b2414bc"},"vehicle_type_id":"4","last_reported":1741518389,"current_range_meters":9200,"station_id":"ce4bhp92rcd13ifvqhag","pricing_plan_id":"cebpf4jnsgd1na2vs0mg"},{"bike_id":"cd5acaa0-228e-4d82-982b-7e2b3b040929","system_id":"levelo_inurba_marseille","lat":43.23965,"lon":5.36641,"is_reserved":false,"is_disabled":false,"rental_uris":{"android":"levelo://app?vid=cd5acaa0-228e-4d82-982b-7e2b3b040929","ios":"levelo://app?vid=cd5acaa0-228e-4d82-982b-7e2b3b040929"},"vehicle_type_id":"4","last_reported":1741518389,"current_range_meters":9200,"station_id":"ce4bhi12rcd13ifvqfp0","pricing_plan_id":"cebpf4jnsgd1na2vs0mg"},{"bike_id":"716ad52e-6276-401a-9565-37b068cf8f1c","system_id":"levelo_inurba_marseille","lat":43.24807,"lon":5.37458,"is_reserved":false,"is_disabled":false,"rental_uris":{"android":"levelo://app?vid=716ad52e-6276-401a-9565-37b068cf8f1c","ios":"levelo://app?vid=716ad52e-6276-401a-9565-37b068cf8f1c"},"vehicle_type_id":"4","last_reported":1741518389,"current_range_meters":9600,"station_id":"ce4bhgh2rcd13ifvqfb0","pricing_plan_id":"cebpf4jnsgd1na2vs0mg"},{"bike_id":"14704438-ead4-4a94-95b6-837271a082f6","system_id":"levelo_inurba_marseille","lat":43.24628,"lon":5.38179,"is_reserved":false,"is_disabled":false,"rental_uris":{"android":"levelo://app?vid=14704438-ead4-4a94-95b6-837271a082f6","ios":"levelo://app?vid=14704438-ead4-4a94-95b6-837271a082f6"},"vehicle_type_id":"4","last_reported":1741518389,"current_range_meters":9600,"station_id":"ce4bhih2rcd13ifvqfr0","pricing_plan_id":"cebpf4jnsgd1na2vs0mg"},{"bike_id":"7b2f6b3b-3dfd-4e2d-be6b-0818decb7513","system_id":"levelo_inurba_marseille","lat":43.31671,"lon":5.40426,"is_reserved":false,"is_disabled":false,"rental_uris":{"android":"levelo://app?vid=7b2f6b3b-3dfd-4e2d-be6b-0818decb7513","ios":"levelo://app?vid=7b2f6b3b-3dfd-4e2d-be6b-0818decb7513"},"vehicle_type_id":"4","last_reported":1741518389,"current_range_meters":9600,"station_id":"ce4bh012rcd13ifvqd00","pricing_plan_id":"cebpf4jnsgd1na2vs0mg"},{"bike_id":"97687e68-be46-4713-8e56-6dcec5493f0a","system_id":"levelo_inurba_marseille","lat":43.24806,"lon":5.37459,"is_reserved":false,"is_disabled":false,"rental_uris":{"android":"levelo://app?vid=97687e68-be46-4713-8e56-6dcec5493f0a","ios":"levelo://app?vid=97687e68-be46-4713-8e56-6dcec5493f0a"},"vehicle_type_id":"4","last_reported":1741518389,"current_range_meters":9600,"station_id":"ce4bhgh2rcd13ifvqfb0","pricing_plan_id":"cebpf4jnsgd1na2vs0mg"},{"bike_id":"df0ec358-c413-4391-b9ca-08ef5bb5a2a7","system_id":"levelo_inurba_marseille","lat":43.26633,"lon":5.3901,"is_reserved":false,"is_disabled":false,"rental_uris":{"android":"levelo://app?vid=df0ec358-c413-4391-b9ca-08ef5bb5a2a7","ios":"levelo://app?vid=df0ec358-c413-4391-b9ca-08ef5bb5a2a7"},"vehicle_type_id":"4","last_reported":1741518389,"current_range_meters":9600,"station_id":"ce4bhe12rcd13ifvqf30","pricing_plan_id":"cebpf4jnsgd1na2vs0mg"},{"bike_id":"cb0d6e65-7335-46d7-bf43-5432cb892aeb","system_id":"levelo_inurba_marseille","lat":43.313589,"lon":5.385143,"is_reserved":false,"is_disabled":false,"rental_uris":{"android":"levelo://app?vid=cb0d6e65-7335-46d7-bf43-5432cb892aeb","ios":"levelo://app?vid=cb0d6e65-7335-46d7-bf43-5432cb892aeb"},"vehicle_type_id":"4","last_reported":1741518389,"current_range_meters":9600,"station_id":"ce4bgt92rcd13ifvqcf0","pricing_plan_id":"cebpf4jnsgd1na2vs0mg"},{"bike_id":"ac2efbb8-87f5-4e67-91b6-6982ed970754","system_id":"levelo_inurba_marseille","lat":43.25117,"lon":5.40311,"is_reserved":false,"is_disabled":false,"rental_uris":{"android":"levelo://app?vid=ac2efbb8-87f5-4e67-91b6-6982ed970754","ios":"levelo://app?vid=ac2efbb8-87f5-4e67-91b6-6982ed970754"},"vehicle_type_id":"4","last_reported":1741518389,"current_range_meters":9600,"station_id":"ce4bhlh2rcd13ifvqgig","pricing_plan_id":"cebpf4jnsgd1na2vs0mg"},{"bike_id":"fa8c6a5b-e91f-4274-b418-5c3522c430aa","system_id":"levelo_inurba_marseille","lat":43.27949,"lon":5.41042,"is_reserved":false,"is_disabled":false,"rental_uris":{"android":"levelo://app?vid=fa8c6a5b-e91f-4274-b418-5c3522c430aa","ios":"levelo://app?vid=fa8c6a5b-e91f-4274-b418-5c3522c430aa"},"vehicle_type_id":"4","last_reported":1741518389,"current_range_meters":9600,"station_id":"ce4bhnp2rcd13ifvqh0g","pricing_plan_id":"cebpf4jnsgd1na2vs0mg"},{"bike_id":"768a8b1b-0b22-4c90-8353-951ae83771e1","system_id":"levelo_inurba_marseille","lat":43.24666,"lon":5.38168,"is_reserved":false,"is_disabled":false,"rental_uris":{"android":"levelo://app?vid=768a8b1b-0b22-4c90-8353-951ae83771e1","ios":"levelo://app?vid=768a8b1b-0b22-4c90-8353-951ae83771e1"},"vehicle_type_id":"4","last_reported":1741518389,"current_range_meters":9600,"station_id":"ce4bhih2rcd13ifvqfr0","pricing_plan_id":"cebpf4jnsgd1na2vs0mg"},{"bike_id":"640f165f-5c37-420c-9f62-d1b99eac6179","system_id":"levelo_inurba_marseille","lat":43.23056,"lon":5.35499,"is_reserved":false,"is_disabled":false,"rental_uris":{"android":"levelo://app?vid=640f165f-5c37-420c-9f62-d1b99eac6179","ios":"levelo://app?vid=640f165f-5c37-420c-9f62-d1b99eac6179"},"vehicle_type_id":"4","last_reported":1741518389,"current_range_meters":10000,"station_id":"cpo3342slgdg3j2ifvpg","pricing_plan_id":"cebpf4jnsgd1na2vs0mg"},{"bike_id":"87d6e4ef-3df7-4bbb-ac4a-4299f7db2aa6","system_id":"levelo_inurba_marseille","lat":43.25716,"lon":5.41116,"is_reserved":false,"is_disabled":false,"rental_uris":{"android":"levelo://app?vid=87d6e4ef-3df7-4bbb-ac4a-4299f7db2aa6","ios":"levelo://app?vid=87d6e4ef-3df7-4bbb-ac4a-4299f7db2aa6"},"vehicle_type_id":"4","last_reported":1741518389,"current_range_meters":10000,"station_id":"ce4bhkp2rcd13ifvqgd0","pricing_plan_id":"cebpf4jnsgd1na2vs0mg"},{"bike_id":"d0db97d2-80d9-42a7-9cad-580d09018910","system_id":"levelo_inurba_marseille","lat":43.30428,"lon":5.39753,"is_reserved":false,"is_disabled":false,"rental_uris":{"android":"levelo://app?vid=d0db97d2-80d9-42a7-9cad-580d09018910","ios":"levelo://app?vid=d0db97d2-80d9-42a7-9cad-580d09018910"},"vehicle_type_id":"4","last_reported":1741518389,"current_range_meters":10000,"station_id":"ce4bh092rcd13ifvqd20","pricing_plan_id":"cebpf4jnsgd1na2vs0mg"},{"bike_id":"05156e07-47f0-4de0-bb69-b66700e92b0e","system_id":"levelo_inurba_marseille","lat":43.2441,"lon":5.37067,"is_reserved":false,"is_disabled":true,"rental_uris":{"android":"levelo://app?vid=05156e07-47f0-4de0-bb69-b66700e92b0e","ios":"levelo://app?vid=05156e07-47f0-4de0-bb69-b66700e92b0e"},"vehicle_type_id":"4","last_reported":1741518389,"current_range_meters":10000,"station_id":"ce4bhhh2rcd13ifvqfk0","pricing_plan_id":"cebpf4jnsgd1na2vs0mg"},{"bike_id":"2e9dac94-0a65-4b2e-8ff2-b3b2142ef958","system_id":"levelo_inurba_marseille","lat":43.29188,"lon":5.39314,"is_reserved":false,"is_disabled":false,"rental_uris":{"android":"levelo://app?vid=2e9dac94-0a65-4b2e-8ff2-b3b2142ef958","ios":"levelo://app?vid=2e9dac94-0a65-4b2e-8ff2-b3b2142ef958"},"vehicle_type_id":"4","last_reported":1741518389,"current_range_meters":10000,"station_id":"ce4bh192rcd13ifvqdd0","pricing_plan_id":"cebpf4jnsgd1na2vs0mg"},{"bike_id":"bbf62d9f-22e8-446b-b3ab-fed286c04dd7","system_id":"levelo_inurba_marseille","lat":43.30896,"lon":5.37201,"is_reserved":false,"is_disabled":false,"rental_uris":{"android":"levelo://app?vid=bbf62d9f-22e8-446b-b3ab-fed286c04dd7","ios":"levelo://app?vid=bbf62d9f-22e8-446b-b3ab-fed286c04dd7"},"vehicle_type_id":"4","last_reported":1741518389,"current_range_meters":10000,"station_id":"ce4bguh2rcd13ifvqckg","pricing_plan_id":"cebpf4jnsgd1na2vs0mg"},{"bike_id":"1ebaf94d-02fd-433e-9b27-0e7505de48c0","system_id":"levelo_inurba_marseille","lat":43.28475,"lon":5.38433,"is_reserved":false,"is_disabled":true,"rental_uris":{"android":"levelo://app?vid=1ebaf94d-02fd-433e-9b27-0e7505de48c0","ios":"levelo://app?vid=1ebaf94d-02fd-433e-9b27-0e7505de48c0"},"vehicle_type_id":"4","last_reported":1741518389,"current_range_meters":10800,"station_id":"ce4bh512rcd13ifvqe3g","pricing_plan_id":"cebpf4jnsgd1na2vs0mg"},{"bike_id":"11e092a1-f458-44b1-a8b1-1261276eaf97","system_id":"levelo_inurba_marseille","lat":43.25592,"lon":5.38245,"is_reserved":false,"is_disabled":false,"rental_uris":{"android":"levelo://app?vid=11e092a1-f458-44b1-a8b1-1261276eaf97","ios":"levelo://app?vid=11e092a1-f458-44b1-a8b1-1261276eaf97"},"vehicle_type_id":"4","last_reported":1741518389,"current_range_meters":10800,"station_id":"ce4bhih2rcd13ifvqfs0","pricing_plan_id":"cebpf4jnsgd1na2vs0mg"},{"bike_id":"f5d27d01-effc-4a0c-b4ac-2b42b750aca5","system_id":"levelo_inurba_marseille","lat":43.245489,"lon":5.39534,"is_reserved":false,"is_disabled":false,"rental_uris":{"android":"levelo://app?vid=f5d27d01-effc-4a0c-b4ac-2b42b750aca5","ios":"levelo://app?vid=f5d27d01-effc-4a0c-b4ac-2b42b750aca5"},"vehicle_type_id":"4","last_reported":1741518389,"current_range_meters":10800,"station_id":"ce4bhlp2rcd13ifvqgjg","pricing_plan_id":"cebpf4jnsgd1na2vs0mg"},{"bike_id":"4c5d8bb4-3d1e-4689-9d72-361d8d376cce","system_id":"levelo_inurba_marseille","lat":43.24806,"lon":5.37467,"is_reserved":false,"is_disabled":false,"rental_uris":{"android":"levelo://app?vid=4c5d8bb4-3d1e-4689-9d72-361d8d376cce","ios":"levelo://app?vid=4c5d8bb4-3d1e-4689-9d72-361d8d376cce"},"vehicle_type_id":"4","last_reported":1741518389,"current_range_meters":10800,"station_id":"ce4bhgh2rcd13ifvqfb0","pricing_plan_id":"cebpf4jnsgd1na2vs0mg"},{"bike_id":"ac13c927-ef96-480c-ac70-9f27e602a87a","system_id":"levelo_inurba_marseille","lat":43.25578,"lon":5.38231,"is_reserved":false,"is_disabled":false,"rental_uris":{"android":"levelo://app?vid=ac13c927-ef96-480c-ac70-9f27e602a87a","ios":"levelo://app?vid=ac13c927-ef96-480c-ac70-9f27e602a87a"},"vehicle_type_id":"4","last_reported":1741518389,"current_range_meters":11200,"station_id":"ce4bhih2rcd13ifvqfs0","pricing_plan_id":"cebpf4jnsgd1na2vs0mg"},{"bike_id":"b3b6de43-7ccc-473b-9e87-034a0d9f1009","system_id":"levelo_inurba_marseille","lat":43.29001,"lon":5.37555,"is_reserved":false,"is_disabled":true,"rental_uris":{"android":"levelo://app?vid=b3b6de43-7ccc-473b-9e87-034a0d9f1009","ios":"levelo://app?vid=b3b6de43-7ccc-473b-9e87-034a0d9f1009"},"vehicle_type_id":"4","last_reported":1741518389,"current_range_meters":11600,"station_id":"ce4bh692rcd13ifvqe90","pricing_plan_id":"cebpf4jnsgd1na2vs0mg"},{"bike_id":"34565812-0fff-4dbb-b10e-c8a1a59facae","system_id":"levelo_inurba_marseille","lat":43.317,"lon":5.43705,"is_reserved":false,"is_disabled":true,"rental_uris":{"android":"levelo://app?vid=34565812-0fff-4dbb-b10e-c8a1a59facae","ios":"levelo://app?vid=34565812-0fff-4dbb-b10e-c8a1a59facae"},"vehicle_type_id":"4","last_reported":1741518389,"current_range_meters":11600,"station_id":"ce4bhp92rcd13ifvqhcg","pricing_plan_id":"cebpf4jnsgd1na2vs0mg"},{"bike_id":"365263c5-5707-4d0b-99e3-506f6a4cceb7","system_id":"levelo_inurba_marseille","lat":43.24077,"lon":5.37777,"is_reserved":false,"is_disabled":false,"rental_uris":{"android":"levelo://app?vid=365263c5-5707-4d0b-99e3-506f6a4cceb7","ios":"levelo://app?vid=365263c5-5707-4d0b-99e3-506f6a4cceb7"},"vehicle_type_id":"4","last_reported":1741518389,"current_range_meters":12400,"station_id":"ce4bhnp2rcd13ifvqgvg","pricing_plan_id":"cebpf4jnsgd1na2vs0mg"},{"bike_id":"1c481fb0-d338-447e-9ac4-5d0e02692c73","system_id":"levelo_inurba_marseille","lat":43.25494,"lon":5.3765,"is_reserved":false,"is_disabled":false,"rental_uris":{"android":"levelo://app?vid=1c481fb0-d338-447e-9ac4-5d0e02692c73","ios":"levelo://app?vid=1c481fb0-d338-447e-9ac4-5d0e02692c73"},"vehicle_type_id":"4","last_reported":1741518389,"current_range_meters":12400,"station_id":"ce4bhh12rcd13ifvqff0","pricing_plan_id":"cebpf4jnsgd1na2vs0mg"},{"bike_id":"c8da1ad1-3769-4ec1-aea2-9ffb93433c80","system_id":"levelo_inurba_marseille","lat":43.29668,"lon":5.40609,"is_reserved":false,"is_disabled":false,"rental_uris":{"android":"levelo://app?vid=c8da1ad1-3769-4ec1-aea2-9ffb93433c80","ios":"levelo://app?vid=c8da1ad1-3769-4ec1-aea2-9ffb93433c80"},"vehicle_type_id":"4","last_reported":1741518389,"current_range_meters":12000,"station_id":"ce4bh0h2rcd13ifvqd60","pricing_plan_id":"cebpf4jnsgd1na2vs0mg"},{"bike_id":"6503f83c-089e-443d-9c4d-c5c9fa6b70ea","system_id":"levelo_inurba_marseille","lat":43.25712,"lon":5.41109,"is_reserved":false,"is_disabled":false,"rental_uris":{"android":"levelo://app?vid=6503f83c-089e-443d-9c4d-c5c9fa6b70ea","ios":"levelo://app?vid=6503f83c-089e-443d-9c4d-c5c9fa6b70ea"},"vehicle_type_id":"4","last_reported":1741518389,"current_range_meters":12800,"station_id":"ce4bhkp2rcd13ifvqgd0","pricing_plan_id":"cebpf4jnsgd1na2vs0mg"},{"bike_id":"de62b1e1-afb2-4f35-8381-ed30575d17cb","system_id":"levelo_inurba_marseille","lat":43.292584,"lon":5.401408,"is_reserved":false,"is_disabled":false,"rental_uris":{"android":"levelo://app?vid=de62b1e1-afb2-4f35-8381-ed30575d17cb","ios":"levelo://app?vid=de62b1e1-afb2-4f35-8381-ed30575d17cb"},"vehicle_type_id":"4","last_reported":1741518389,"current_range_meters":13600,"station_id":"ce4bh312rcd13ifvqdk0","pricing_plan_id":"cebpf4jnsgd1na2vs0mg"},{"bike_id":"64fdb816-a58d-4d00-b8b1-9f2d0690f5c1","system_id":"levelo_inurba_marseille","lat":43.24174,"lon":5.36401,"is_reserved":false,"is_disabled":true,"rental_uris":{"android":"levelo://app?vid=64fdb816-a58d-4d00-b8b1-9f2d0690f5c1","ios":"levelo://app?vid=64fdb816-a58d-4d00-b8b1-9f2d0690f5c1"},"vehicle_type_id":"4","last_reported":1741518389,"current_range_meters":13600,"station_id":"cpo36qri1sfpv3e86is0","pricing_plan_id":"cebpf4jnsgd1na2vs0mg"},{"bike_id":"67fc845a-4e54-4c1c-8b59-aae9c41867a4","system_id":"levelo_inurba_marseille","lat":43.270687,"lon":5.422793,"is_reserved":false,"is_disabled":false,"rental_uris":{"android":"levelo://app?vid=67fc845a-4e54-4c1c-8b59-aae9c41867a4","ios":"levelo://app?vid=67fc845a-4e54-4c1c-8b59-aae9c41867a4"},"vehicle_type_id":"4","last_reported":1741518389,"current_range_meters":13600,"station_id":"ce4bhk92rcd13ifvqgb0","pricing_plan_id":"cebpf4jnsgd1na2vs0mg"},{"bike_id":"e952093e-b61f-48ab-8b19-e6241362582d","system_id":"levelo_inurba_marseille","lat":43.308924,"lon":5.371903,"is_reserved":false,"is_disabled":false,"rental_uris":{"android":"levelo://app?vid=e952093e-b61f-48ab-8b19-e6241362582d","ios":"levelo://app?vid=e952093e-b61f-48ab-8b19-e6241362582d"},"vehicle_type_id":"4","last_reported":1741518389,"current_range_meters":13600,"station_id":"ce4bguh2rcd13ifvqckg","pricing_plan_id":"cebpf4jnsgd1na2vs0mg"},{"bike_id":"fe0ec737-5a80-48e8-adfe-00e47b1c2424","system_id":"levelo_inurba_marseille","lat":43.31186,"lon":5.38724,"is_reserved":false,"is_disabled":false,"rental_uris":{"android":"levelo://app?vid=fe0ec737-5a80-48e8-adfe-00e47b1c2424","ios":"levelo://app?vid=fe0ec737-5a80-48e8-adfe-00e47b1c2424"},"vehicle_type_id":"4","last_reported":1741518389,"current_range_meters":13600,"station_id":"ce4bgv12rcd13ifvqcp0","pricing_plan_id":"cebpf4jnsgd1na2vs0mg"},{"bike_id":"5ed2dd89-a937-49df-801e-4fd381bacc70","system_id":"levelo_inurba_marseille","lat":43.25126,"lon":5.40339,"is_reserved":false,"is_disabled":false,"rental_uris":{"android":"levelo://app?vid=5ed2dd89-a937-49df-801e-4fd381bacc70","ios":"levelo://app?vid=5ed2dd89-a937-49df-801e-4fd381bacc70"},"vehicle_type_id":"4","last_reported":1741518389,"current_range_meters":13600,"station_id":"ce4bhlh2rcd13ifvqgig","pricing_plan_id":"cebpf4jnsgd1na2vs0mg"},{"bike_id":"6332f21c-b735-409b-8f12-ffcec3dc9b39","system_id":"levelo_inurba_marseille","lat":43.23212,"lon":5.39982,"is_reserved":false,"is_disabled":false,"rental_uris":{"android":"levelo://app?vid=6332f21c-b735-409b-8f12-ffcec3dc9b39","ios":"levelo://app?vid=6332f21c-b735-409b-8f12-ffcec3dc9b39"},"vehicle_type_id":"4","last_reported":1741518389,"current_range_meters":13600,"station_id":"ce4bhn12rcd13ifvqgqg","pricing_plan_id":"cebpf4jnsgd1na2vs0mg"},{"bike_id":"95a9099a-60dc-480d-ab0b-ec9e3943d5e5","system_id":"levelo_inurba_marseille","lat":43.24632,"lon":5.38888,"is_reserved":false,"is_disabled":false,"rental_uris":{"android":"levelo://app?vid=95a9099a-60dc-480d-ab0b-ec9e3943d5e5","ios":"levelo://app?vid=95a9099a-60dc-480d-ab0b-ec9e3943d5e5"},"vehicle_type_id":"4","last_reported":1741518389,"current_range_meters":13600,"station_id":"ce4bhg12rcd13ifvqf60","pricing_plan_id":"cebpf4jnsgd1na2vs0mg"},{"bike_id":"b6956ce2-7a38-44ef-85a3-15ae9357ccc5","system_id":"levelo_inurba_marseille","lat":43.30161,"lon":5.39864,"is_reserved":false,"is_disabled":false,"rental_uris":{"android":"levelo://app?vid=b6956ce2-7a38-44ef-85a3-15ae9357ccc5","ios":"levelo://app?vid=b6956ce2-7a38-44ef-85a3-15ae9357ccc5"},"vehicle_type_id":"4","last_reported":1741518389,"current_range_meters":13600,"station_id":"ce4bh0h2rcd13ifvqd40","pricing_plan_id":"cebpf4jnsgd1na2vs0mg"},{"bike_id":"58f8d587-ad50-49c6-aeb5-0962396a3898","system_id":"levelo_inurba_marseille","lat":43.30891,"lon":5.37177,"is_reserved":false,"is_disabled":false,"rental_uris":{"android":"levelo://app?vid=58f8d587-ad50-49c6-aeb5-0962396a3898","ios":"levelo://app?vid=58f8d587-ad50-49c6-aeb5-0962396a3898"},"vehicle_type_id":"4","last_reported":1741518389,"current_range_meters":14000,"station_id":"ce4bguh2rcd13ifvqckg","pricing_plan_id":"cebpf4jnsgd1na2vs0mg"},{"bike_id":"b0af20e8-48ab-49c6-8144-34fd8638d568","system_id":"levelo_inurba_marseille","lat":43.32391,"lon":5.38863,"is_reserved":false,"is_disabled":false,"rental_uris":{"android":"levelo://app?vid=b0af20e8-48ab-49c6-8144-34fd8638d568","ios":"levelo://app?vid=b0af20e8-48ab-49c6-8144-34fd8638d568"},"vehicle_type_id":"4","last_reported":1741518389,"current_range_meters":14000,"station_id":"ce4bhqp2rcd13ifvqhog","pricing_plan_id":"cebpf4jnsgd1na2vs0mg"},{"bike_id":"2cf43896-175c-4484-b4e3-42a90a5cdb04","system_id":"levelo_inurba_marseille","lat":43.26949,"lon":5.3863,"is_reserved":false,"is_disabled":false,"rental_uris":{"android":"levelo://app?vid=2cf43896-175c-4484-b4e3-42a90a5cdb04","ios":"levelo://app?vid=2cf43896-175c-4484-b4e3-42a90a5cdb04"},"vehicle_type_id":"4","last_reported":1741518389,"current_range_meters":14000,"station_id":"ce4bhh92rcd13ifvqfh0","pricing_plan_id":"cebpf4jnsgd1na2vs0mg"},{"bike_id":"862a788e-4ad5-4c91-930d-dd5215bf95e5","system_id":"levelo_inurba_marseille","lat":43.312756,"lon":5.401711,"is_reserved":false,"is_disabled":false,"rental_uris":{"android":"levelo://app?vid=862a788e-4ad5-4c91-930d-dd5215bf95e5","ios":"levelo://app?vid=862a788e-4ad5-4c91-930d-dd5215bf95e5"},"vehicle_type_id":"4","last_reported":1741518389,"current_range_meters":14400,"station_id":"ce4bh092rcd13ifvqd30","pricing_plan_id":"cebpf4jnsgd1na2vs0mg"},{"bike_id":"7f08542c-3622-4bee-8852-d0974c0ec085","system_id":"levelo_inurba_marseille","lat":43.24149,"lon":5.36361,"is_reserved":false,"is_disabled":false,"rental_uris":{"android":"levelo://app?vid=7f08542c-3622-4bee-8852-d0974c0ec085","ios":"levelo://app?vid=7f08542c-3622-4bee-8852-d0974c0ec085"},"vehicle_type_id":"4","last_reported":1741518389,"current_range_meters":14400,"station_id":"cpo36qri1sfpv3e86is0","pricing_plan_id":"cebpf4jnsgd1na2vs0mg"},{"bike_id":"1d10998d-68aa-4416-b5c8-0e49ee00fbe4","system_id":"levelo_inurba_marseille","lat":43.28158,"lon":5.42647,"is_reserved":false,"is_disabled":false,"rental_uris":{"android":"levelo://app?vid=1d10998d-68aa-4416-b5c8-0e49ee00fbe4","ios":"levelo://app?vid=1d10998d-68aa-4416-b5c8-0e49ee00fbe4"},"vehicle_type_id":"4","last_reported":1741518389,"current_range_meters":14400,"station_id":"ce4bhnh2rcd13ifvqgug","pricing_plan_id":"cebpf4jnsgd1na2vs0mg"},{"bike_id":"cc8ccfcb-3658-4b9e-8ea9-b04a28ec7454","system_id":"levelo_inurba_marseille","lat":43.28168,"lon":5.42672,"is_reserved":false,"is_disabled":false,"rental_uris":{"android":"levelo://app?vid=cc8ccfcb-3658-4b9e-8ea9-b04a28ec7454","ios":"levelo://app?vid=cc8ccfcb-3658-4b9e-8ea9-b04a28ec7454"},"vehicle_type_id":"4","last_reported":1741518389,"current_range_meters":14400,"station_id":"ce4bhnh2rcd13ifvqgug","pricing_plan_id":"cebpf4jnsgd1na2vs0mg"},{"bike_id":"4287f701-0d14-4a3a-afd4-594625e1ca7e","system_id":"levelo_inurba_marseille","lat":43.29896,"lon":5.43661,"is_reserved":false,"is_disabled":false,"rental_uris":{"android":"levelo://app?vid=4287f701-0d14-4a3a-afd4-594625e1ca7e","ios":"levelo://app?vid=4287f701-0d14-4a3a-afd4-594625e1ca7e"},"vehicle_type_id":"4","last_reported":1741518389,"current_range_meters":14400,"station_id":"ce4bhpp2rcd13ifvqhfg","pricing_plan_id":"cebpf4jnsgd1na2vs0mg"},{"bike_id":"1ffe0839-d6b0-49e0-a58b-164465fcccd9","system_id":"levelo_inurba_marseille","lat":43.246501,"lon":5.388958,"is_reserved":false,"is_disabled":false,"rental_uris":{"android":"levelo://app?vid=1ffe0839-d6b0-49e0-a58b-164465fcccd9","ios":"levelo://app?vid=1ffe0839-d6b0-49e0-a58b-164465fcccd9"},"vehicle_type_id":"4","last_reported":1741518389,"current_range_meters":14400,"station_id":"ce4bhg12rcd13ifvqf60","pricing_plan_id":"cebpf4jnsgd1na2vs0mg"},{"bike_id":"4157396e-6ece-45b3-8db6-5f36be26c941","system_id":"levelo_inurba_marseille","lat":43.2656,"lon":5.38987,"is_reserved":false,"is_disabled":false,"rental_uris":{"android":"levelo://app?vid=4157396e-6ece-45b3-8db6-5f36be26c941","ios":"levelo://app?vid=4157396e-6ece-45b3-8db6-5f36be26c941"},"vehicle_type_id":"4","last_reported":1741518389,"current_range_meters":14400,"station_id":"ce4bhe12rcd13ifvqf30","pricing_plan_id":"cebpf4jnsgd1na2vs0mg"},{"bike_id":"1f72adc6-3d1a-4fad-a905-cb9dcd596e26","system_id":"levelo_inurba_marseille","lat":43.23856,"lon":5.4357,"is_reserved":false,"is_disabled":false,"rental_uris":{"android":"levelo://app?vid=1f72adc6-3d1a-4fad-a905-cb9dcd596e26","ios":"levelo://app?vid=1f72adc6-3d1a-4fad-a905-cb9dcd596e26"},"vehicle_type_id":"4","last_reported":1741518389,"current_range_meters":14400,"station_id":"","pricing_plan_id":"cebpf4jnsgd1na2vs0mg"},{"bike_id":"32711cb1-35b1-48bc-b979-758999ee6df9","system_id":"levelo_inurba_marseille","lat":43.30928,"lon":5.39057,"is_reserved":false,"is_disabled":false,"rental_uris":{"android":"levelo://app?vid=32711cb1-35b1-48bc-b979-758999ee6df9","ios":"levelo://app?vid=32711cb1-35b1-48bc-b979-758999ee6df9"},"vehicle_type_id":"4","last_reported":1741518389,"current_range_meters":14400,"station_id":"ce4bgup2rcd13ifvqco0","pricing_plan_id":"cebpf4jnsgd1na2vs0mg"},{"bike_id":"c6300302-0101-4c83-9cf4-176aa7079ea1","system_id":"levelo_inurba_marseille","lat":43.30886,"lon":5.39652,"is_reserved":false,"is_disabled":false,"rental_uris":{"android":"levelo://app?vid=c6300302-0101-4c83-9cf4-176aa7079ea1","ios":"levelo://app?vid=c6300302-0101-4c83-9cf4-176aa7079ea1"},"vehicle_type_id":"4","last_reported":1741518389,"current_range_meters":14800,"station_id":"ce4bh012rcd13ifvqcv0","pricing_plan_id":"cebpf4jnsgd1na2vs0mg"},{"bike_id":"3795c289-beea-44c3-a7ae-fd3e55b72f22","system_id":"levelo_inurba_marseille","lat":43.28617,"lon":5.35095,"is_reserved":false,"is_disabled":true,"rental_uris":{"android":"levelo://app?vid=3795c289-beea-44c3-a7ae-fd3e55b72f22","ios":"levelo://app?vid=3795c289-beea-44c3-a7ae-fd3e55b72f22"},"vehicle_type_id":"4","last_reported":1741518389,"current_range_meters":14800,"station_id":"ce4bhch2rcd13ifvqeug","pricing_plan_id":"cebpf4jnsgd1na2vs0mg"},{"bike_id":"18656ee1-bec4-47b9-821d-61902b6f5512","system_id":"levelo_inurba_marseille","lat":43.24547,"lon":5.39525,"is_reserved":false,"is_disabled":false,"rental_uris":{"android":"levelo://app?vid=18656ee1-bec4-47b9-821d-61902b6f5512","ios":"levelo://app?vid=18656ee1-bec4-47b9-821d-61902b6f5512"},"vehicle_type_id":"4","last_reported":1741518389,"current_range_meters":14800,"station_id":"ce4bhlp2rcd13ifvqgjg","pricing_plan_id":"cebpf4jnsgd1na2vs0mg"},{"bike_id":"5feb6fa1-6aef-4afb-8cf0-7112712f90e3","system_id":"levelo_inurba_marseille","lat":43.30535,"lon":5.36694,"is_reserved":false,"is_disabled":true,"rental_uris":{"android":"levelo://app?vid=5feb6fa1-6aef-4afb-8cf0-7112712f90e3","ios":"levelo://app?vid=5feb6fa1-6aef-4afb-8cf0-7112712f90e3"},"vehicle_type_id":"4","last_reported":1741518389,"current_range_meters":14800,"station_id":"ce4bgrp2rcd13ifvqc9g","pricing_plan_id":"cebpf4jnsgd1na2vs0mg"},{"bike_id":"ae6d9bec-5fbb-450c-8eaa-314b7537f20e","system_id":"levelo_inurba_marseille","lat":43.3121,"lon":5.36868,"is_reserved":false,"is_disabled":false,"rental_uris":{"android":"levelo://app?vid=ae6d9bec-5fbb-450c-8eaa-314b7537f20e","ios":"levelo://app?vid=ae6d9bec-5fbb-450c-8eaa-314b7537f20e"},"vehicle_type_id":"4","last_reported":1741518389,"current_range_meters":14800,"station_id":"ce4bgl92rcd13ifvqbq0","pricing_plan_id":"cebpf4jnsgd1na2vs0mg"},{"bike_id":"d65346f9-229f-469d-8330-e406541eb33f","system_id":"levelo_inurba_marseille","lat":43.28859,"lon":5.39306,"is_reserved":false,"is_disabled":false,"rental_uris":{"android":"levelo://app?vid=d65346f9-229f-469d-8330-e406541eb33f","ios":"levelo://app?vid=d65346f9-229f-469d-8330-e406541eb33f"},"vehicle_type_id":"4","last_reported":1741518389,"current_range_meters":14400,"station_id":"ce4bh2p2rcd13ifvqdi0","pricing_plan_id":"cebpf4jnsgd1na2vs0mg"},{"bike_id":"3ed0c8ba-c7f7-40d8-9403-a3f96d6af6b9","system_id":"levelo_inurba_marseille","lat":43.32362,"lon":5.36754,"is_reserved":false,"is_disabled":false,"rental_uris":{"android":"levelo://app?vid=3ed0c8ba-c7f7-40d8-9403-a3f96d6af6b9","ios":"levelo://app?vid=3ed0c8ba-c7f7-40d8-9403-a3f96d6af6b9"},"vehicle_type_id":"4","last_reported":1741518389,"current_range_meters":14800,"station_id":"ce4bhsh2rcd13ifvqi2g","pricing_plan_id":"cebpf4jnsgd1na2vs0mg"},{"bike_id":"3b9a653a-2fa2-4334-b7b8-6db4ab68b695","system_id":"levelo_inurba_marseille","lat":43.284418,"lon":5.39181,"is_reserved":false,"is_disabled":true,"rental_uris":{"android":"levelo://app?vid=3b9a653a-2fa2-4334-b7b8-6db4ab68b695","ios":"levelo://app?vid=3b9a653a-2fa2-4334-b7b8-6db4ab68b695"},"vehicle_type_id":"4","last_reported":1741518389,"current_range_meters":15200,"station_id":"ce4bhoh2rcd13ifvqh5g","pricing_plan_id":"cebpf4jnsgd1na2vs0mg"},{"bike_id":"91f0b97b-efcf-46d9-8bbf-c1ba93008778","system_id":"levelo_inurba_marseille","lat":43.27266,"lon":5.38989,"is_reserved":false,"is_disabled":true,"rental_uris":{"android":"levelo://app?vid=91f0b97b-efcf-46d9-8bbf-c1ba93008778","ios":"levelo://app?vid=91f0b97b-efcf-46d9-8bbf-c1ba93008778"},"vehicle_type_id":"4","last_reported":1741518389,"current_range_meters":15200,"station_id":"ce4bhgp2rcd13ifvqfe0","pricing_plan_id":"cebpf4jnsgd1na2vs0mg"},{"bike_id":"ba0554f9-3a9b-40b4-90ed-caede36daa80","system_id":"levelo_inurba_marseille","lat":43.311652,"lon":5.387228,"is_reserved":false,"is_disabled":false,"rental_uris":{"android":"levelo://app?vid=ba0554f9-3a9b-40b4-90ed-caede36daa80","ios":"levelo://app?vid=ba0554f9-3a9b-40b4-90ed-caede36daa80"},"vehicle_type_id":"4","last_reported":1741518389,"current_range_meters":15200,"station_id":"ce4bgv12rcd13ifvqcp0","pricing_plan_id":"cebpf4jnsgd1na2vs0mg"},{"bike_id":"bac871c7-059b-4dc7-a657-f620d0a4794f","system_id":"levelo_inurba_marseille","lat":43.29602,"lon":5.38096,"is_reserved":false,"is_disabled":true,"rental_uris":{"android":"levelo://app?vid=bac871c7-059b-4dc7-a657-f620d0a4794f","ios":"levelo://app?vid=bac871c7-059b-4dc7-a657-f620d0a4794f"},"vehicle_type_id":"4","last_reported":1741518389,"current_range_meters":15200,"station_id":"ce4bgl12rcd13ifvqbo0","pricing_plan_id":"cebpf4jnsgd1na2vs0mg"},{"bike_id":"4e988b79-546d-4039-b5f6-8f94585d4ef4","system_id":"levelo_inurba_marseille","lat":43.33495,"lon":5.36053,"is_reserved":false,"is_disabled":false,"rental_uris":{"android":"levelo://app?vid=4e988b79-546d-4039-b5f6-8f94585d4ef4","ios":"levelo://app?vid=4e988b79-546d-4039-b5f6-8f94585d4ef4"},"vehicle_type_id":"4","last_reported":1741518389,"current_range_meters":16000,"station_id":"","pricing_plan_id":"cebpf4jnsgd1na2vs0mg"},{"bike_id":"c59cfede-72d5-4c07-aa0e-b184c85be70a","system_id":"levelo_inurba_marseille","lat":43.25083,"lon":5.39532,"is_reserved":false,"is_disabled":false,"rental_uris":{"android":"levelo://app?vid=c59cfede-72d5-4c07-aa0e-b184c85be70a","ios":"levelo://app?vid=c59cfede-72d5-4c07-aa0e-b184c85be70a"},"vehicle_type_id":"4","last_reported":1741518389,"current_range_meters":16000,"station_id":"ce4bhm12rcd13ifvqgkg","pricing_plan_id":"cebpf4jnsgd1na2vs0mg"},{"bike_id":"ecf65569-6f58-4b4b-81b0-4a712ee8c3cf","system_id":"levelo_inurba_marseille","lat":43.26572,"lon":5.39013,"is_reserved":false,"is_disabled":false,"rental_uris":{"android":"levelo://app?vid=ecf65569-6f58-4b4b-81b0-4a712ee8c3cf","ios":"levelo://app?vid=ecf65569-6f58-4b4b-81b0-4a712ee8c3cf"},"vehicle_type_id":"4","last_reported":1741518389,"current_range_meters":16000,"station_id":"ce4bhe12rcd13ifvqf30","pricing_plan_id":"cebpf4jnsgd1na2vs0mg"},{"bike_id":"895910d5-c55d-48ae-a7d7-789ae9ebaa6d","system_id":"levelo_inurba_marseille","lat":43.28414,"lon":5.37519,"is_reserved":false,"is_disabled":true,"rental_uris":{"android":"levelo://app?vid=895910d5-c55d-48ae-a7d7-789ae9ebaa6d","ios":"levelo://app?vid=895910d5-c55d-48ae-a7d7-789ae9ebaa6d"},"vehicle_type_id":"4","last_reported":1741518389,"current_range_meters":16000,"station_id":"ce4bh412rcd13ifvqds0","pricing_plan_id":"cebpf4jnsgd1na2vs0mg"},{"bike_id":"8579e54f-565e-4025-a73c-88723bee831d","system_id":"levelo_inurba_marseille","lat":43.23189,"lon":5.39996,"is_reserved":false,"is_disabled":false,"rental_uris":{"android":"levelo://app?vid=8579e54f-565e-4025-a73c-88723bee831d","ios":"levelo://app?vid=8579e54f-565e-4025-a73c-88723bee831d"},"vehicle_type_id":"4","last_reported":1741518389,"current_range_meters":16000,"station_id":"ce4bhn12rcd13ifvqgqg","pricing_plan_id":"cebpf4jnsgd1na2vs0mg"},{"bike_id":"3e93b162-f299-477d-9ef9-e2acab4085b9","system_id":"levelo_inurba_marseille","lat":43.31166,"lon":5.38714,"is_reserved":false,"is_disabled":false,"rental_uris":{"android":"levelo://app?vid=3e93b162-f299-477d-9ef9-e2acab4085b9","ios":"levelo://app?vid=3e93b162-f299-477d-9ef9-e2acab4085b9"},"vehicle_type_id":"4","last_reported":1741518389,"current_range_meters":16000,"station_id":"ce4bgv12rcd13ifvqcp0","pricing_plan_id":"cebpf4jnsgd1na2vs0mg"},{"bike_id":"a2a96e25-6e4d-4f22-bccf-4d57539a8d60","system_id":"levelo_inurba_marseille","lat":43.31172,"lon":5.38718,"is_reserved":false,"is_disabled":false,"rental_uris":{"android":"levelo://app?vid=a2a96e25-6e4d-4f22-bccf-4d57539a8d60","ios":"levelo://app?vid=a2a96e25-6e4d-4f22-bccf-4d57539a8d60"},"vehicle_type_id":"4","last_reported":1741518389,"current_range_meters":16000,"station_id":"ce4bgv12rcd13ifvqcp0","pricing_plan_id":"cebpf4jnsgd1na2vs0mg"},{"bike_id":"77c28a66-797d-47cb-aff8-fea12bfd5bfb","system_id":"levelo_inurba_marseille","lat":43.31058,"lon":5.38351,"is_reserved":false,"is_disabled":false,"rental_uris":{"android":"levelo://app?vid=77c28a66-797d-47cb-aff8-fea12bfd5bfb","ios":"levelo://app?vid=77c28a66-797d-47cb-aff8-fea12bfd5bfb"},"vehicle_type_id":"4","last_reported":1741518389,"current_range_meters":16000,"station_id":"ce4bgv92rcd13ifvqcr0","pricing_plan_id":"cebpf4jnsgd1na2vs0mg"},{"bike_id":"a37d42aa-085d-4a56-8e08-eaf93bfe5e2b","system_id":"levelo_inurba_marseille","lat":43.31181,"lon":5.38674,"is_reserved":false,"is_disabled":true,"rental_uris":{"android":"levelo://app?vid=a37d42aa-085d-4a56-8e08-eaf93bfe5e2b","ios":"levelo://app?vid=a37d42aa-085d-4a56-8e08-eaf93bfe5e2b"},"vehicle_type_id":"4","last_reported":1741518389,"current_range_meters":16000,"station_id":"ce4bgv12rcd13ifvqcp0","pricing_plan_id":"cebpf4jnsgd1na2vs0mg"},{"bike_id":"f957b7c5-cf17-4e93-9ecf-3b65410cc4e5","system_id":"levelo_inurba_marseille","lat":43.31879,"lon":5.37879,"is_reserved":false,"is_disabled":false,"rental_uris":{"android":"levelo://app?vid=f957b7c5-cf17-4e93-9ecf-3b65410cc4e5","ios":"levelo://app?vid=f957b7c5-cf17-4e93-9ecf-3b65410cc4e5"},"vehicle_type_id":"4","last_reported":1741518389,"current_range_meters":16000,"station_id":"","pricing_plan_id":"cebpf4jnsgd1na2vs0mg"},{"bike_id":"8645bf35-f5b2-48f7-8496-8f0131101e85","system_id":"levelo_inurba_marseille","lat":43.2657,"lon":5.37254,"is_reserved":false,"is_disabled":false,"rental_uris":{"android":"levelo://app?vid=8645bf35-f5b2-48f7-8496-8f0131101e85","ios":"levelo://app?vid=8645bf35-f5b2-48f7-8496-8f0131101e85"},"vehicle_type_id":"4","last_reported":1741518389,"current_range_meters":16000,"station_id":"ce4bhg12rcd13ifvqf70","pricing_plan_id":"cebpf4jnsgd1na2vs0mg"},{"bike_id":"806244de-1b24-4f7e-b7ec-0fc356c61d47","system_id":"levelo_inurba_marseille","lat":43.27308,"lon":5.39078,"is_reserved":false,"is_disabled":false,"rental_uris":{"android":"levelo://app?vid=806244de-1b24-4f7e-b7ec-0fc356c61d47","ios":"levelo://app?vid=806244de-1b24-4f7e-b7ec-0fc356c61d47"},"vehicle_type_id":"4","last_reported":1741518389,"current_range_meters":16000,"station_id":"ce4bhgp2rcd13ifvqfe0","pricing_plan_id":"cebpf4jnsgd1na2vs0mg"},{"bike_id":"8bcde328-1977-4d3f-bc58-b1c0e7e6a019","system_id":"levelo_inurba_marseille","lat":43.24553,"lon":5.39534,"is_reserved":false,"is_disabled":false,"rental_uris":{"android":"levelo://app?vid=8bcde328-1977-4d3f-bc58-b1c0e7e6a019","ios":"levelo://app?vid=8bcde328-1977-4d3f-bc58-b1c0e7e6a019"},"vehicle_type_id":"4","last_reported":1741518389,"current_range_meters":16000,"station_id":"ce4bhlp2rcd13ifvqgjg","pricing_plan_id":"cebpf4jnsgd1na2vs0mg"},{"bike_id":"83fe625c-a403-4ad3-b440-2e9d65d3891e","system_id":"levelo_inurba_marseille","lat":43.2561,"lon":5.38235,"is_reserved":false,"is_disabled":false,"rental_uris":{"android":"levelo://app?vid=83fe625c-a403-4ad3-b440-2e9d65d3891e","ios":"levelo://app?vid=83fe625c-a403-4ad3-b440-2e9d65d3891e"},"vehicle_type_id":"4","last_reported":1741518389,"current_range_meters":16400,"station_id":"ce4bhih2rcd13ifvqfs0","pricing_plan_id":"cebpf4jnsgd1na2vs0mg"},{"bike_id":"f41dae2d-5c44-4fa6-b146-b894de7b8f66","system_id":"levelo_inurba_marseille","lat":43.31178,"lon":5.38714,"is_reserved":false,"is_disabled":false,"rental_uris":{"android":"levelo://app?vid=f41dae2d-5c44-4fa6-b146-b894de7b8f66","ios":"levelo://app?vid=f41dae2d-5c44-4fa6-b146-b894de7b8f66"},"vehicle_type_id":"4","last_reported":1741518389,"current_range_meters":16400,"station_id":"ce4bgv12rcd13ifvqcp0","pricing_plan_id":"cebpf4jnsgd1na2vs0mg"},{"bike_id":"81bc8ec7-203d-452b-a4e8-595b7bbc2677","system_id":"levelo_inurba_marseille","lat":43.289963,"lon":5.356111,"is_reserved":false,"is_disabled":true,"rental_uris":{"android":"levelo://app?vid=81bc8ec7-203d-452b-a4e8-595b7bbc2677","ios":"levelo://app?vid=81bc8ec7-203d-452b-a4e8-595b7bbc2677"},"vehicle_type_id":"4","last_reported":1741518389,"current_range_meters":16400,"station_id":"ce4bhb92rcd13ifvqen0","pricing_plan_id":"cebpf4jnsgd1na2vs0mg"},{"bike_id":"1e66a1e1-8fac-4bad-b246-9ff116855410","system_id":"levelo_inurba_marseille","lat":43.2811,"lon":5.44193,"is_reserved":false,"is_disabled":false,"rental_uris":{"android":"levelo://app?vid=1e66a1e1-8fac-4bad-b246-9ff116855410","ios":"levelo://app?vid=1e66a1e1-8fac-4bad-b246-9ff116855410"},"vehicle_type_id":"4","last_reported":1741518389,"current_range_meters":16400,"station_id":"","pricing_plan_id":"cebpf4jnsgd1na2vs0mg"},{"bike_id":"ebb2d58b-982f-41cd-b65c-668035c69ec1","system_id":"levelo_inurba_marseille","lat":43.30892,"lon":5.37186,"is_reserved":false,"is_disabled":false,"rental_uris":{"android":"levelo://app?vid=ebb2d58b-982f-41cd-b65c-668035c69ec1","ios":"levelo://app?vid=ebb2d58b-982f-41cd-b65c-668035c69ec1"},"vehicle_type_id":"4","last_reported":1741518389,"current_range_meters":16400,"station_id":"ce4bguh2rcd13ifvqckg","pricing_plan_id":"cebpf4jnsgd1na2vs0mg"},{"bike_id":"7dc51c44-6bee-4f7d-84bd-874c4cd4d9f8","system_id":"levelo_inurba_marseille","lat":43.3088,"lon":5.3964,"is_reserved":false,"is_disabled":false,"rental_uris":{"android":"levelo://app?vid=7dc51c44-6bee-4f7d-84bd-874c4cd4d9f8","ios":"levelo://app?vid=7dc51c44-6bee-4f7d-84bd-874c4cd4d9f8"},"vehicle_type_id":"4","last_reported":1741518389,"current_range_meters":16400,"station_id":"ce4bh012rcd13ifvqcv0","pricing_plan_id":"cebpf4jnsgd1na2vs0mg"},{"bike_id":"b649ddd1-ad3d-41b6-a73f-eae3f1863bcc","system_id":"levelo_inurba_marseille","lat":43.24805,"lon":5.37445,"is_reserved":false,"is_disabled":false,"rental_uris":{"android":"levelo://app?vid=b649ddd1-ad3d-41b6-a73f-eae3f1863bcc","ios":"levelo://app?vid=b649ddd1-ad3d-41b6-a73f-eae3f1863bcc"},"vehicle_type_id":"4","last_reported":1741518389,"current_range_meters":16400,"station_id":"ce4bhgh2rcd13ifvqfb0","pricing_plan_id":"cebpf4jnsgd1na2vs0mg"},{"bike_id":"a8bb64b8-2046-4306-aef5-456a1d6ae0f5","system_id":"levelo_inurba_marseille","lat":43.308009,"lon":5.435298,"is_reserved":false,"is_disabled":false,"rental_uris":{"android":"levelo://app?vid=a8bb64b8-2046-4306-aef5-456a1d6ae0f5","ios":"levelo://app?vid=a8bb64b8-2046-4306-aef5-456a1d6ae0f5"},"vehicle_type_id":"4","last_reported":1741518389,"current_range_meters":16400,"station_id":"ce4bhph2rcd13ifvqheg","pricing_plan_id":"cebpf4jnsgd1na2vs0mg"},{"bike_id":"35b6c8dd-c1b8-4970-bb1c-0f0396b333a1","system_id":"levelo_inurba_marseille","lat":43.25721,"lon":5.41044,"is_reserved":false,"is_disabled":false,"rental_uris":{"android":"levelo://app?vid=35b6c8dd-c1b8-4970-bb1c-0f0396b333a1","ios":"levelo://app?vid=35b6c8dd-c1b8-4970-bb1c-0f0396b333a1"},"vehicle_type_id":"4","last_reported":1741518389,"current_range_meters":16400,"station_id":"ce4bhkp2rcd13ifvqgd0","pricing_plan_id":"cebpf4jnsgd1na2vs0mg"},{"bike_id":"8b3f89cd-c271-4604-a272-a7e4cd38f36d","system_id":"levelo_inurba_marseille","lat":43.31374,"lon":5.38492,"is_reserved":false,"is_disabled":false,"rental_uris":{"android":"levelo://app?vid=8b3f89cd-c271-4604-a272-a7e4cd38f36d","ios":"levelo://app?vid=8b3f89cd-c271-4604-a272-a7e4cd38f36d"},"vehicle_type_id":"4","last_reported":1741518389,"current_range_meters":16800,"station_id":"ce4bgt92rcd13ifvqcf0","pricing_plan_id":"cebpf4jnsgd1na2vs0mg"},{"bike_id":"906c6e5a-4ec6-4885-afda-48adb50c51d3","system_id":"levelo_inurba_marseille","lat":43.24393,"lon":5.37055,"is_reserved":false,"is_disabled":false,"rental_uris":{"android":"levelo://app?vid=906c6e5a-4ec6-4885-afda-48adb50c51d3","ios":"levelo://app?vid=906c6e5a-4ec6-4885-afda-48adb50c51d3"},"vehicle_type_id":"4","last_reported":1741518389,"current_range_meters":16800,"station_id":"ce4bhhh2rcd13ifvqfk0","pricing_plan_id":"cebpf4jnsgd1na2vs0mg"},{"bike_id":"a6925f94-b4cf-4d0f-832d-d65a5048fffe","system_id":"levelo_inurba_marseille","lat":43.25118,"lon":5.40322,"is_reserved":false,"is_disabled":false,"rental_uris":{"android":"levelo://app?vid=a6925f94-b4cf-4d0f-832d-d65a5048fffe","ios":"levelo://app?vid=a6925f94-b4cf-4d0f-832d-d65a5048fffe"},"vehicle_type_id":"4","last_reported":1741518389,"current_range_meters":16800,"station_id":"ce4bhlh2rcd13ifvqgig","pricing_plan_id":"cebpf4jnsgd1na2vs0mg"},{"bike_id":"c3c5df68-446d-4849-ba19-e284124f6dcc","system_id":"levelo_inurba_marseille","lat":43.292883,"lon":5.409211,"is_reserved":false,"is_disabled":false,"rental_uris":{"android":"levelo://app?vid=c3c5df68-446d-4849-ba19-e284124f6dcc","ios":"levelo://app?vid=c3c5df68-446d-4849-ba19-e284124f6dcc"},"vehicle_type_id":"4","last_reported":1741518389,"current_range_meters":16800,"station_id":"ce4bh0h2rcd13ifvqd40","pricing_plan_id":"cebpf4jnsgd1na2vs0mg"},{"bike_id":"375b0e4e-46b2-4f14-9005-cd1590755e2d","system_id":"levelo_inurba_marseille","lat":43.29263,"lon":5.40902,"is_reserved":false,"is_disabled":false,"rental_uris":{"android":"levelo://app?vid=375b0e4e-46b2-4f14-9005-cd1590755e2d","ios":"levelo://app?vid=375b0e4e-46b2-4f14-9005-cd1590755e2d"},"vehicle_type_id":"4","last_reported":1741518389,"current_range_meters":16800,"station_id":"ce4bh192rcd13ifvqdc0","pricing_plan_id":"cebpf4jnsgd1na2vs0mg"},{"bike_id":"158e535f-825e-4468-93be-62b6e673c923","system_id":"levelo_inurba_marseille","lat":43.261888,"lon":5.420752,"is_reserved":false,"is_disabled":false,"rental_uris":{"android":"levelo://app?vid=158e535f-825e-4468-93be-62b6e673c923","ios":"levelo://app?vid=158e535f-825e-4468-93be-62b6e673c923"},"vehicle_type_id":"4","last_reported":1741518389,"current_range_meters":16800,"station_id":"","pricing_plan_id":"cebpf4jnsgd1na2vs0mg"},{"bike_id":"deb1a752-b748-4252-aba0-74f6bf022fd1","system_id":"levelo_inurba_marseille","lat":43.28621,"lon":5.35095,"is_reserved":false,"is_disabled":false,"rental_uris":{"android":"levelo://app?vid=deb1a752-b748-4252-aba0-74f6bf022fd1","ios":"levelo://app?vid=deb1a752-b748-4252-aba0-74f6bf022fd1"},"vehicle_type_id":"4","last_reported":1741518389,"current_range_meters":16800,"station_id":"ce4bhch2rcd13ifvqeug","pricing_plan_id":"cebpf4jnsgd1na2vs0mg"},{"bike_id":"83a4686a-5710-412c-83db-aa533aa220c0","system_id":"levelo_inurba_marseille","lat":43.30476,"lon":5.38201,"is_reserved":false,"is_disabled":false,"rental_uris":{"android":"levelo://app?vid=83a4686a-5710-412c-83db-aa533aa220c0","ios":"levelo://app?vid=83a4686a-5710-412c-83db-aa533aa220c0"},"vehicle_type_id":"4","last_reported":1741518389,"current_range_meters":17200,"station_id":"","pricing_plan_id":"cebpf4jnsgd1na2vs0mg"},{"bike_id":"4491a1e2-eb06-49d1-bf0c-ffab94d6b1ae","system_id":"levelo_inurba_marseille","lat":43.24174,"lon":5.39706,"is_reserved":false,"is_disabled":false,"rental_uris":{"android":"levelo://app?vid=4491a1e2-eb06-49d1-bf0c-ffab94d6b1ae","ios":"levelo://app?vid=4491a1e2-eb06-49d1-bf0c-ffab94d6b1ae"},"vehicle_type_id":"4","last_reported":1741518389,"current_range_meters":17200,"station_id":"ce4bhn12rcd13ifvqgpg","pricing_plan_id":"cebpf4jnsgd1na2vs0mg"},{"bike_id":"99ab2c04-5c05-4b92-be95-bc9a1019c98f","system_id":"levelo_inurba_marseille","lat":43.30209,"lon":5.39472,"is_reserved":false,"is_disabled":false,"rental_uris":{"android":"levelo://app?vid=99ab2c04-5c05-4b92-be95-bc9a1019c98f","ios":"levelo://app?vid=99ab2c04-5c05-4b92-be95-bc9a1019c98f"},"vehicle_type_id":"4","last_reported":1741518389,"current_range_meters":17200,"station_id":"ce4bh0p2rcd13ifvqd70","pricing_plan_id":"cebpf4jnsgd1na2vs0mg"},{"bike_id":"424a877a-56f1-4c95-8272-1a73fff37bfb","system_id":"levelo_inurba_marseille","lat":43.25096,"lon":5.40316,"is_reserved":false,"is_disabled":false,"rental_uris":{"android":"levelo://app?vid=424a877a-56f1-4c95-8272-1a73fff37bfb","ios":"levelo://app?vid=424a877a-56f1-4c95-8272-1a73fff37bfb"},"vehicle_type_id":"4","last_reported":1741518389,"current_range_meters":17200,"station_id":"ce4bhlh2rcd13ifvqgig","pricing_plan_id":"cebpf4jnsgd1na2vs0mg"},{"bike_id":"8db12307-83c5-4ab1-8e4e-b5f471f883f6","system_id":"levelo_inurba_marseille","lat":43.25082,"lon":5.39518,"is_reserved":false,"is_disabled":false,"rental_uris":{"android":"levelo://app?vid=8db12307-83c5-4ab1-8e4e-b5f471f883f6","ios":"levelo://app?vid=8db12307-83c5-4ab1-8e4e-b5f471f883f6"},"vehicle_type_id":"4","last_reported":1741518389,"current_range_meters":17200,"station_id":"ce4bhm12rcd13ifvqgkg","pricing_plan_id":"cebpf4jnsgd1na2vs0mg"},{"bike_id":"b6e1fe51-ddc8-4033-b5a5-0f918086f8eb","system_id":"levelo_inurba_marseille","lat":43.251176,"lon":5.403356,"is_reserved":false,"is_disabled":false,"rental_uris":{"android":"levelo://app?vid=b6e1fe51-ddc8-4033-b5a5-0f918086f8eb","ios":"levelo://app?vid=b6e1fe51-ddc8-4033-b5a5-0f918086f8eb"},"vehicle_type_id":"4","last_reported":1741518389,"current_range_meters":17200,"station_id":"ce4bhlh2rcd13ifvqgig","pricing_plan_id":"cebpf4jnsgd1na2vs0mg"},{"bike_id":"c1c80c13-20cb-44f5-aa30-5c8aedb294e8","system_id":"levelo_inurba_marseille","lat":43.32065,"lon":5.36729,"is_reserved":false,"is_disabled":false,"rental_uris":{"android":"levelo://app?vid=c1c80c13-20cb-44f5-aa30-5c8aedb294e8","ios":"levelo://app?vid=c1c80c13-20cb-44f5-aa30-5c8aedb294e8"},"vehicle_type_id":"4","last_reported":1741518389,"current_range_meters":17200,"station_id":"ce4bhrh2rcd13ifvqhug","pricing_plan_id":"cebpf4jnsgd1na2vs0mg"},{"bike_id":"e1464fd1-88dd-4217-9b48-8798f8d7a4bc","system_id":"levelo_inurba_marseille","lat":43.24346,"lon":5.37042,"is_reserved":false,"is_disabled":false,"rental_uris":{"android":"levelo://app?vid=e1464fd1-88dd-4217-9b48-8798f8d7a4bc","ios":"levelo://app?vid=e1464fd1-88dd-4217-9b48-8798f8d7a4bc"},"vehicle_type_id":"4","last_reported":1741518389,"current_range_meters":17200,"station_id":"","pricing_plan_id":"cebpf4jnsgd1na2vs0mg"},{"bike_id":"a5c5ade0-6f33-45a7-beaf-3545d30425b1","system_id":"levelo_inurba_marseille","lat":43.2407,"lon":5.37754,"is_reserved":false,"is_disabled":false,"rental_uris":{"android":"levelo://app?vid=a5c5ade0-6f33-45a7-beaf-3545d30425b1","ios":"levelo://app?vid=a5c5ade0-6f33-45a7-beaf-3545d30425b1"},"vehicle_type_id":"4","last_reported":1741518389,"current_range_meters":17200,"station_id":"ce4bhnp2rcd13ifvqgvg","pricing_plan_id":"cebpf4jnsgd1na2vs0mg"},{"bike_id":"10d00d12-be98-4561-8886-0b49bee63801","system_id":"levelo_inurba_marseille","lat":43.25829,"lon":5.39435,"is_reserved":false,"is_disabled":false,"rental_uris":{"android":"levelo://app?vid=10d00d12-be98-4561-8886-0b49bee63801","ios":"levelo://app?vid=10d00d12-be98-4561-8886-0b49bee63801"},"vehicle_type_id":"4","last_reported":1741518389,"current_range_meters":17200,"station_id":"ce4bhip2rcd13ifvqft0","pricing_plan_id":"cebpf4jnsgd1na2vs0mg"},{"bike_id":"6584fced-dd7e-4524-aeaf-acd09c6bbada","system_id":"levelo_inurba_marseille","lat":43.286177,"lon":5.37064,"is_reserved":false,"is_disabled":false,"rental_uris":{"android":"levelo://app?vid=6584fced-dd7e-4524-aeaf-acd09c6bbada","ios":"levelo://app?vid=6584fced-dd7e-4524-aeaf-acd09c6bbada"},"vehicle_type_id":"4","last_reported":1741518389,"current_range_meters":17200,"station_id":"ce4bht12rcd13ifvqi60","pricing_plan_id":"cebpf4jnsgd1na2vs0mg"},{"bike_id":"b380b403-2c6e-4cf9-ba4d-f4c8bf9d4300","system_id":"levelo_inurba_marseille","lat":43.29783,"lon":5.38109,"is_reserved":false,"is_disabled":false,"rental_uris":{"android":"levelo://app?vid=b380b403-2c6e-4cf9-ba4d-f4c8bf9d4300","ios":"levelo://app?vid=b380b403-2c6e-4cf9-ba4d-f4c8bf9d4300"},"vehicle_type_id":"4","last_reported":1741518389,"current_range_meters":17200,"station_id":"ce4bgip2rcd13ifvqbb0","pricing_plan_id":"cebpf4jnsgd1na2vs0mg"},{"bike_id":"0bc5bda3-3076-4625-9595-7f3b64f090d7","system_id":"levelo_inurba_marseille","lat":43.30798,"lon":5.43524,"is_reserved":false,"is_disabled":false,"rental_uris":{"android":"levelo://app?vid=0bc5bda3-3076-4625-9595-7f3b64f090d7","ios":"levelo://app?vid=0bc5bda3-3076-4625-9595-7f3b64f090d7"},"vehicle_type_id":"4","last_reported":1741518389,"current_range_meters":17600,"station_id":"ce4bhph2rcd13ifvqheg","pricing_plan_id":"cebpf4jnsgd1na2vs0mg"},{"bike_id":"9ba7aa05-ea75-4612-87dd-bd354c971bc2","system_id":"levelo_inurba_marseille","lat":43.30245,"lon":5.40036,"is_reserved":false,"is_disabled":false,"rental_uris":{"android":"levelo://app?vid=9ba7aa05-ea75-4612-87dd-bd354c971bc2","ios":"levelo://app?vid=9ba7aa05-ea75-4612-87dd-bd354c971bc2"},"vehicle_type_id":"4","last_reported":1741518389,"current_range_meters":17600,"station_id":"ce4bgvh2rcd13ifvqcs0","pricing_plan_id":"cebpf4jnsgd1na2vs0mg"},{"bike_id":"225e5f66-483f-46df-82e5-69cdcdcf155f","system_id":"levelo_inurba_marseille","lat":43.30869,"lon":5.3965,"is_reserved":false,"is_disabled":false,"rental_uris":{"android":"levelo://app?vid=225e5f66-483f-46df-82e5-69cdcdcf155f","ios":"levelo://app?vid=225e5f66-483f-46df-82e5-69cdcdcf155f"},"vehicle_type_id":"4","last_reported":1741518389,"current_range_meters":17600,"station_id":"ce4bh012rcd13ifvqcv0","pricing_plan_id":"cebpf4jnsgd1na2vs0mg"},{"bike_id":"71363b06-2edc-4b4a-96f6-e2691f9a1a61","system_id":"levelo_inurba_marseille","lat":43.313616,"lon":5.384932,"is_reserved":false,"is_disabled":false,"rental_uris":{"android":"levelo://app?vid=71363b06-2edc-4b4a-96f6-e2691f9a1a61","ios":"levelo://app?vid=71363b06-2edc-4b4a-96f6-e2691f9a1a61"},"vehicle_type_id":"4","last_reported":1741518389,"current_range_meters":17600,"station_id":"ce4bgt92rcd13ifvqcf0","pricing_plan_id":"cebpf4jnsgd1na2vs0mg"},{"bike_id":"65ebf940-f6f1-4ba2-8b75-2b2127dd3199","system_id":"levelo_inurba_marseille","lat":43.25015,"lon":5.38927,"is_reserved":false,"is_disabled":false,"rental_uris":{"android":"levelo://app?vid=65ebf940-f6f1-4ba2-8b75-2b2127dd3199","ios":"levelo://app?vid=65ebf940-f6f1-4ba2-8b75-2b2127dd3199"},"vehicle_type_id":"4","last_reported":1741518389,"current_range_meters":17600,"station_id":"ce4bhgp2rcd13ifvqfd0","pricing_plan_id":"cebpf4jnsgd1na2vs0mg"},{"bike_id":"f5e5357b-b502-47fb-8353-4c0a68cdcdcf","system_id":"levelo_inurba_marseille","lat":43.31401,"lon":5.38519,"is_reserved":false,"is_disabled":false,"rental_uris":{"android":"levelo://app?vid=f5e5357b-b502-47fb-8353-4c0a68cdcdcf","ios":"levelo://app?vid=f5e5357b-b502-47fb-8353-4c0a68cdcdcf"},"vehicle_type_id":"4","last_reported":1741518389,"current_range_meters":17600,"station_id":"ce4bgt92rcd13ifvqcf0","pricing_plan_id":"cebpf4jnsgd1na2vs0mg"},{"bike_id":"80771939-f406-42f7-81c5-33180fd8a338","system_id":"levelo_inurba_marseille","lat":43.23196,"lon":5.35551,"is_reserved":false,"is_disabled":false,"rental_uris":{"android":"levelo://app?vid=80771939-f406-42f7-81c5-33180fd8a338","ios":"levelo://app?vid=80771939-f406-42f7-81c5-33180fd8a338"},"vehicle_type_id":"4","last_reported":1741518389,"current_range_meters":17600,"station_id":"ce4bhu92rcd13ifvqi70","pricing_plan_id":"cebpf4jnsgd1na2vs0mg"},{"bike_id":"6c7acd0e-d950-476c-9eb3-046468b88ffd","system_id":"levelo_inurba_marseille","lat":43.24675,"lon":5.38155,"is_reserved":false,"is_disabled":false,"rental_uris":{"android":"levelo://app?vid=6c7acd0e-d950-476c-9eb3-046468b88ffd","ios":"levelo://app?vid=6c7acd0e-d950-476c-9eb3-046468b88ffd"},"vehicle_type_id":"4","last_reported":1741518389,"current_range_meters":17600,"station_id":"ce4bhih2rcd13ifvqfr0","pricing_plan_id":"cebpf4jnsgd1na2vs0mg"},{"bike_id":"d085bc4f-d51b-4cdc-b84d-c7911f48026d","system_id":"levelo_inurba_marseille","lat":43.3155,"lon":5.38042,"is_reserved":false,"is_disabled":false,"rental_uris":{"android":"levelo://app?vid=d085bc4f-d51b-4cdc-b84d-c7911f48026d","ios":"levelo://app?vid=d085bc4f-d51b-4cdc-b84d-c7911f48026d"},"vehicle_type_id":"4","last_reported":1741518389,"current_range_meters":17600,"station_id":"ce4bhsp2rcd13ifvqi50","pricing_plan_id":"cebpf4jnsgd1na2vs0mg"},{"bike_id":"6be572a1-d2d6-4e02-b1e6-7cec973dbd65","system_id":"levelo_inurba_marseille","lat":43.2951,"lon":5.37495,"is_reserved":false,"is_disabled":false,"rental_uris":{"android":"levelo://app?vid=6be572a1-d2d6-4e02-b1e6-7cec973dbd65","ios":"levelo://app?vid=6be572a1-d2d6-4e02-b1e6-7cec973dbd65"},"vehicle_type_id":"4","last_reported":1741518389,"current_range_meters":17200,"station_id":"ce4bgkp2rcd13ifvqbmg","pricing_plan_id":"cebpf4jnsgd1na2vs0mg"},{"bike_id":"979b0e12-19bd-4394-8b98-332e21f24fbc","system_id":"levelo_inurba_marseille","lat":43.25123,"lon":5.40367,"is_reserved":false,"is_disabled":false,"rental_uris":{"android":"levelo://app?vid=979b0e12-19bd-4394-8b98-332e21f24fbc","ios":"levelo://app?vid=979b0e12-19bd-4394-8b98-332e21f24fbc"},"vehicle_type_id":"4","last_reported":1741518389,"current_range_meters":17600,"station_id":"ce4bhlh2rcd13ifvqgig","pricing_plan_id":"cebpf4jnsgd1na2vs0mg"},{"bike_id":"14ff316d-69a0-4350-bd65-221c06b4c050","system_id":"levelo_inurba_marseille","lat":43.25727,"lon":5.41115,"is_reserved":false,"is_disabled":false,"rental_uris":{"android":"levelo://app?vid=14ff316d-69a0-4350-bd65-221c06b4c050","ios":"levelo://app?vid=14ff316d-69a0-4350-bd65-221c06b4c050"},"vehicle_type_id":"4","last_reported":1741518389,"current_range_meters":18000,"station_id":"ce4bhkp2rcd13ifvqgd0","pricing_plan_id":"cebpf4jnsgd1na2vs0mg"},{"bike_id":"293963cb-e477-45d9-a808-3a354f0d50bd","system_id":"levelo_inurba_marseille","lat":43.28405,"lon":5.34981,"is_reserved":false,"is_disabled":false,"rental_uris":{"android":"levelo://app?vid=293963cb-e477-45d9-a808-3a354f0d50bd","ios":"levelo://app?vid=293963cb-e477-45d9-a808-3a354f0d50bd"},"vehicle_type_id":"4","last_reported":1741518389,"current_range_meters":18000,"station_id":"ce4bhbh2rcd13ifvqepg","pricing_plan_id":"cebpf4jnsgd1na2vs0mg"},{"bike_id":"1574c69b-ea6d-4097-914a-46a44316e27b","system_id":"levelo_inurba_marseille","lat":43.30883,"lon":5.39648,"is_reserved":false,"is_disabled":false,"rental_uris":{"android":"levelo://app?vid=1574c69b-ea6d-4097-914a-46a44316e27b","ios":"levelo://app?vid=1574c69b-ea6d-4097-914a-46a44316e27b"},"vehicle_type_id":"4","last_reported":1741518389,"current_range_meters":18000,"station_id":"ce4bh012rcd13ifvqcv0","pricing_plan_id":"cebpf4jnsgd1na2vs0mg"},{"bike_id":"b54e92b9-a4a7-482c-9d57-67d95c7aea3a","system_id":"levelo_inurba_marseille","lat":43.30309,"lon":5.4043,"is_reserved":false,"is_disabled":false,"rental_uris":{"android":"levelo://app?vid=b54e92b9-a4a7-482c-9d57-67d95c7aea3a","ios":"levelo://app?vid=b54e92b9-a4a7-482c-9d57-67d95c7aea3a"},"vehicle_type_id":"4","last_reported":1741518389,"current_range_meters":18000,"station_id":"ce4bh012rcd13ifvqd10","pricing_plan_id":"cebpf4jnsgd1na2vs0mg"},{"bike_id":"be872404-b661-4361-aa36-79869406c8fd","system_id":"levelo_inurba_marseille","lat":43.29782,"lon":5.38112,"is_reserved":false,"is_disabled":false,"rental_uris":{"android":"levelo://app?vid=be872404-b661-4361-aa36-79869406c8fd","ios":"levelo://app?vid=be872404-b661-4361-aa36-79869406c8fd"},"vehicle_type_id":"4","last_reported":1741518389,"current_range_meters":18000,"station_id":"ce4bgip2rcd13ifvqbb0","pricing_plan_id":"cebpf4jnsgd1na2vs0mg"},{"bike_id":"863fe8dd-e693-4f8e-84ce-2fd09c5d38bc","system_id":"levelo_inurba_marseille","lat":43.25004,"lon":5.38946,"is_reserved":false,"is_disabled":false,"rental_uris":{"android":"levelo://app?vid=863fe8dd-e693-4f8e-84ce-2fd09c5d38bc","ios":"levelo://app?vid=863fe8dd-e693-4f8e-84ce-2fd09c5d38bc"},"vehicle_type_id":"4","last_reported":1741518389,"current_range_meters":18000,"station_id":"ce4bhgp2rcd13ifvqfd0","pricing_plan_id":"cebpf4jnsgd1na2vs0mg"},{"bike_id":"7b157b4a-63af-457f-8510-6335946cb32a","system_id":"levelo_inurba_marseille","lat":43.27548,"lon":5.38426,"is_reserved":false,"is_disabled":true,"rental_uris":{"android":"levelo://app?vid=7b157b4a-63af-457f-8510-6335946cb32a","ios":"levelo://app?vid=7b157b4a-63af-457f-8510-6335946cb32a"},"vehicle_type_id":"4","last_reported":1741518389,"current_range_meters":18000,"station_id":"ce4bhh92rcd13ifvqfi0","pricing_plan_id":"cebpf4jnsgd1na2vs0mg"},{"bike_id":"498f3936-f6c2-42cc-9d18-d8ba95761795","system_id":"levelo_inurba_marseille","lat":43.2846,"lon":5.35884,"is_reserved":false,"is_disabled":false,"rental_uris":{"android":"levelo://app?vid=498f3936-f6c2-42cc-9d18-d8ba95761795","ios":"levelo://app?vid=498f3936-f6c2-42cc-9d18-d8ba95761795"},"vehicle_type_id":"4","last_reported":1741518389,"current_range_meters":18000,"station_id":"ce4bhah2rcd13ifvqei0","pricing_plan_id":"cebpf4jnsgd1na2vs0mg"},{"bike_id":"5168a913-5224-4ddf-8293-e2c5484c5bf7","system_id":"levelo_inurba_marseille","lat":43.25578,"lon":5.38241,"is_reserved":false,"is_disabled":false,"rental_uris":{"android":"levelo://app?vid=5168a913-5224-4ddf-8293-e2c5484c5bf7","ios":"levelo://app?vid=5168a913-5224-4ddf-8293-e2c5484c5bf7"},"vehicle_type_id":"4","last_reported":1741518389,"current_range_meters":18000,"station_id":"ce4bhih2rcd13ifvqfs0","pricing_plan_id":"cebpf4jnsgd1na2vs0mg"},{"bike_id":"39a544a4-9cda-43e2-be22-212a764912e7","system_id":"levelo_inurba_marseille","lat":43.24085,"lon":5.37786,"is_reserved":false,"is_disabled":false,"rental_uris":{"android":"levelo://app?vid=39a544a4-9cda-43e2-be22-212a764912e7","ios":"levelo://app?vid=39a544a4-9cda-43e2-be22-212a764912e7"},"vehicle_type_id":"4","last_reported":1741518389,"current_range_meters":18000,"station_id":"ce4bhnp2rcd13ifvqgvg","pricing_plan_id":"cebpf4jnsgd1na2vs0mg"},{"bike_id":"a04ae955-e898-4a10-907b-90c2e7cad3f3","system_id":"levelo_inurba_marseille","lat":43.2573,"lon":5.41111,"is_reserved":false,"is_disabled":false,"rental_uris":{"android":"levelo://app?vid=a04ae955-e898-4a10-907b-90c2e7cad3f3","ios":"levelo://app?vid=a04ae955-e898-4a10-907b-90c2e7cad3f3"},"vehicle_type_id":"4","last_reported":1741518389,"current_range_meters":18000,"station_id":"ce4bhkp2rcd13ifvqgd0","pricing_plan_id":"cebpf4jnsgd1na2vs0mg"},{"bike_id":"caeb1ed2-b70b-481f-b341-ccaa84ec7ae8","system_id":"levelo_inurba_marseille","lat":43.24666,"lon":5.38167,"is_reserved":false,"is_disabled":false,"rental_uris":{"android":"levelo://app?vid=caeb1ed2-b70b-481f-b341-ccaa84ec7ae8","ios":"levelo://app?vid=caeb1ed2-b70b-481f-b341-ccaa84ec7ae8"},"vehicle_type_id":"4","last_reported":1741518389,"current_range_meters":18000,"station_id":"ce4bhih2rcd13ifvqfr0","pricing_plan_id":"cebpf4jnsgd1na2vs0mg"},{"bike_id":"65579f2d-9a67-4337-ae45-db2974909cf3","system_id":"levelo_inurba_marseille","lat":43.24631,"lon":5.38919,"is_reserved":false,"is_disabled":false,"rental_uris":{"android":"levelo://app?vid=65579f2d-9a67-4337-ae45-db2974909cf3","ios":"levelo://app?vid=65579f2d-9a67-4337-ae45-db2974909cf3"},"vehicle_type_id":"4","last_reported":1741518389,"current_range_meters":18800,"station_id":"ce4bhg12rcd13ifvqf60","pricing_plan_id":"cebpf4jnsgd1na2vs0mg"},{"bike_id":"8e85a7bb-e1ce-43e8-a1a7-c288df482312","system_id":"levelo_inurba_marseille","lat":43.24634,"lon":5.38871,"is_reserved":false,"is_disabled":false,"rental_uris":{"android":"levelo://app?vid=8e85a7bb-e1ce-43e8-a1a7-c288df482312","ios":"levelo://app?vid=8e85a7bb-e1ce-43e8-a1a7-c288df482312"},"vehicle_type_id":"4","last_reported":1741518389,"current_range_meters":18800,"station_id":"ce4bhg12rcd13ifvqf60","pricing_plan_id":"cebpf4jnsgd1na2vs0mg"},{"bike_id":"962b8100-db4e-4177-b392-9df2ed356517","system_id":"levelo_inurba_marseille","lat":43.31728,"lon":5.37763,"is_reserved":false,"is_disabled":false,"rental_uris":{"android":"levelo://app?vid=962b8100-db4e-4177-b392-9df2ed356517","ios":"levelo://app?vid=962b8100-db4e-4177-b392-9df2ed356517"},"vehicle_type_id":"4","last_reported":1741518389,"current_range_meters":18800,"station_id":"ce4bgth2rcd13ifvqch0","pricing_plan_id":"cebpf4jnsgd1na2vs0mg"},{"bike_id":"2bccbb1a-81b3-4c68-abdb-87f416293e85","system_id":"levelo_inurba_marseille","lat":43.31117,"lon":5.37749,"is_reserved":false,"is_disabled":false,"rental_uris":{"android":"levelo://app?vid=2bccbb1a-81b3-4c68-abdb-87f416293e85","ios":"levelo://app?vid=2bccbb1a-81b3-4c68-abdb-87f416293e85"},"vehicle_type_id":"4","last_reported":1741518389,"current_range_meters":18800,"station_id":"ce4bgt92rcd13ifvqcg0","pricing_plan_id":"cebpf4jnsgd1na2vs0mg"},{"bike_id":"f0a138ba-652a-455d-ba6d-1728bf20ff35","system_id":"levelo_inurba_marseille","lat":43.29261,"lon":5.40154,"is_reserved":false,"is_disabled":false,"rental_uris":{"android":"levelo://app?vid=f0a138ba-652a-455d-ba6d-1728bf20ff35","ios":"levelo://app?vid=f0a138ba-652a-455d-ba6d-1728bf20ff35"},"vehicle_type_id":"4","last_reported":1741518389,"current_range_meters":18800,"station_id":"ce4bh312rcd13ifvqdk0","pricing_plan_id":"cebpf4jnsgd1na2vs0mg"},{"bike_id":"4fdb4367-69f1-4a6d-9389-e26be0310107","system_id":"levelo_inurba_marseille","lat":43.30531,"lon":5.36687,"is_reserved":false,"is_disabled":false,"rental_uris":{"android":"levelo://app?vid=4fdb4367-69f1-4a6d-9389-e26be0310107","ios":"levelo://app?vid=4fdb4367-69f1-4a6d-9389-e26be0310107"},"vehicle_type_id":"4","last_reported":1741518389,"current_range_meters":18800,"station_id":"ce4bgrp2rcd13ifvqc9g","pricing_plan_id":"cebpf4jnsgd1na2vs0mg"},{"bike_id":"26efa438-47f1-437c-a262-70d3b8dce7fa","system_id":"levelo_inurba_marseille","lat":43.28426,"lon":5.34974,"is_reserved":false,"is_disabled":true,"rental_uris":{"android":"levelo://app?vid=26efa438-47f1-437c-a262-70d3b8dce7fa","ios":"levelo://app?vid=26efa438-47f1-437c-a262-70d3b8dce7fa"},"vehicle_type_id":"4","last_reported":1741518389,"current_range_meters":18800,"station_id":"ce4bhbh2rcd13ifvqepg","pricing_plan_id":"cebpf4jnsgd1na2vs0mg"},