{"last_updated":1730232626,"ttl":60,"version":"2.2","data":{"bikes":[{"bike_id":"e0594c9b-1912-4f09-958a-91f8a4561c29","system_id":"levelo_inurba_marseille","lat":43.24388,"lon":5.37061,"is_reserved":false,"is_disabled":false,"rental_uris":{"android":"levelo://app?vid=e0594c9b-1912-4f09-958a-91f8a4561c29","ios":"levelo://app?vid=e0594c9b-1912-4f09-958a-91f8a4561c29"},"vehicle_type_id":"4","last_reported":1730232626,"current_range_meters":20800,"station_id":"ce4bhhh2rcd13ifvqfk0","pricing_plan_id":"cebpf4jnsgd1na2vs0mg"},{"bike_id":"6daefb7d-890b-4927-bca4-1e9b57c2727d","system_id":"levelo_inurba_marseille","lat":43.27186,"lon":5.40993,"is_reserved":false,"is_disabled":false,"rental_uris":{"android":"levelo://app?vid=6daefb7d-890b-4927-bca4-1e9b57c2727d","ios":"levelo://app?vid=6daefb7d-890b-4927-bca4-1e9b57c2727d"},"vehicle_type_id":"4","last_reported":1730232626,"current_range_meters":6000,"station_id":"ce4bhl12rcd13ifvqgf0","pricing_plan_id":"cebpf4jnsgd1na2vs0mg"},{"bike_id":"e1d18b81-986d-4e87-b61a-22535be9c7fe","system_id":"levelo_inurba_marseille","lat":43.27077,"lon":5.42276,"is_reserved":false,"is_disabled":false,"rental_uris":{"android":"levelo://app?vid=e1d18b81-986d-4e87-b61a-22535be9c7fe","ios":"levelo://app?vid=e1d18b81-986d-4e87-b61a-22535be9c7fe"},"vehicle_type_id":"4","last_reported":1730232626,"current_range_meters":12800,"station_id":"ce4bhk92rcd13ifvqgb0","pricing_plan_id":"cebpf4jnsgd1na2vs0mg"},{"bike_id":"3b4fffce-b26d-49fd-ba69-7df7ed4b5279","system_id":"levelo_inurba_marseille","lat":43.27995,"lon":5.41659,"is_reserved":false,"is_disabled":false,"rental_uris":{"android":"levelo://app?vid=3b4fffce-b26d-49fd-ba69-7df7ed4b5279","ios":"levelo://app?vid=3b4fffce-b26d-49fd-ba69-7df7ed4b5279"},"vehicle_type_id":"4","last_reported":1730232626,"current_range_meters":26800,"station_id":"ce4bho12rcd13ifvqh1g","pricing_plan_id":"cebpf4jnsgd1na2vs0mg"},{"bike_id":"911836ee-de37-4be0-bb25-3aea3eb77951","system_id":"levelo_inurba_marseille","lat":43.29874,"lon":5.39728,"is_reserved":false,"is_disabled":false,"rental_uris":{"android":"levelo://app?vid=911836ee-de37-4be0-bb25-3aea3eb77951","ios":"levelo://app?vid=911836ee-de37-4be0-bb25-3aea3eb77951"},"vehicle_type_id":"4","last_reported":1730232626,"current_range_meters":6000,"station_id":"ce4bh0h2rcd13ifvqd50","pricing_plan_id":"cebpf4jnsgd1na2vs0mg"},{"bike_id":"e69003c5-61d9-410c-8600-03d60dc443c9","system_id":"levelo_inurba_marseille","lat":43.32489,"lon":5.36581,"is_reserved":false,"is_disabled":false,"rental_uris":{"android":"levelo://app?vid=e69003c5-61d9-410c-8600-03d60dc443c9","ios":"levelo://app?vid=e69003c5-61d9-410c-8600-03d60dc443c9"},"vehicle_type_id":"4","last_reported":1730232626,"current_range_meters":33600,"station_id":"ce4bhs12rcd13ifvqhvg","pricing_plan_id":"cebpf4jnsgd1na2vs0mg"},{"bike_id":"9cd28ed1-51d4-469f-80b1-db1aa7224fd9","system_id":"levelo_inurba_marseille","lat":43.31887,"lon":5.4074,"is_reserved":false,"is_disabled":false,"rental_uris":{"android":"levelo://app?vid=9cd28ed1-51d4-469f-80b1-db1aa7224fd9","ios":"levelo://app?vid=9cd28ed1-51d4-469f-80b1-db1aa7224fd9"},"vehicle_type_id":"4","last_reported":1730232626,"current_range_meters":33200,"station_id":"ce4bhq12rcd13ifvqhig","pricing_plan_id":"cebpf4jnsgd1na2vs0mg"},{"bike_id":"0c03c3d9-0d55-4b01-ba77-bab0d2fbde12","system_id":"levelo_inurba_marseille","lat":43.3237,"lon":5.38881,"is_reserved":false,"is_disabled":false,"rental_uris":{"android":"levelo://app?vid=0c03c3d9-0d55-4b01-ba77-bab0d2fbde12","ios":"levelo://app?vid=0c03c3d9-0d55-4b01-ba77-bab0d2fbde12"},"vehicle_type_id":"4","last_reported":1730232626,"current_range_meters":11600,"station_id":"ce4bhqp2rcd13ifvqhog","pricing_plan_id":"cebpf4jnsgd1na2vs0mg"},{"bike_id":"073dbcf2-5747-4fae-be57-146f4420dbaf","system_id":"levelo_inurba_marseille","lat":43.29418,"lon":5.38622,"is_reserved":false,"is_disabled":false,"rental_uris":{"android":"levelo://app?vid=073dbcf2-5747-4fae-be57-146f4420dbaf","ios":"levelo://app?vid=073dbcf2-5747-4fae-be57-146f4420dbaf"},"vehicle_type_id":"4","last_reported":1730232626,"current_range_meters":18800,"station_id":"ce4bh2h2rcd13ifvqdh0","pricing_plan_id":"cebpf4jnsgd1na2vs0mg"},{"bike_id":"66a04495-273a-47df-ac95-d7c1740f1ef3","system_id":"levelo_inurba_marseille","lat":43.278245,"lon":5.406905,"is_reserved":false,"is_disabled":false,"rental_uris":{"android":"levelo://app?vid=66a04495-273a-47df-ac95-d7c1740f1ef3","ios":"levelo://app?vid=66a04495-273a-47df-ac95-d7c1740f1ef3"},"vehicle_type_id":"4","last_reported":1730232626,"current_range_meters":26000,"station_id":"ce4bhnh2rcd13ifvqgtg","pricing_plan_id":"cebpf4jnsgd1na2vs0mg"},{"bike_id":"0174c7e8-4ee9-4204-bc3c-79421f65417d","system_id":"levelo_inurba_marseille","lat":43.26557,"lon":5.37291,"is_reserved":false,"is_disabled":false,"rental_uris":{"android":"levelo://app?vid=0174c7e8-4ee9-4204-bc3c-79421f65417d","ios":"levelo://app?vid=0174c7e8-4ee9-4204-bc3c-79421f65417d"},"vehicle_type_id":"4","last_reported":1730232626,"current_range_meters":38800,"station_id":"ce4bhg12rcd13ifvqf70","pricing_plan_id":"cebpf4jnsgd1na2vs0mg"},{"bike_id":"c35448b9-cc2f-40e5-b9a8-99e3d90dc779","system_id":"levelo_inurba_marseille","lat":43.28705,"lon":5.37385,"is_reserved":false,"is_disabled":false,"rental_uris":{"android":"levelo://app?vid=c35448b9-cc2f-40e5-b9a8-99e3d90dc779","ios":"levelo://app?vid=c35448b9-cc2f-40e5-b9a8-99e3d90dc779"},"vehicle_type_id":"4","last_reported":1730232626,"current_range_meters":13600,"station_id":"ce4bh3p2rcd13ifvqdq0","pricing_plan_id":"cebpf4jnsgd1na2vs0mg"},{"bike_id":"a42b6529-6d88-4e97-8e06-1a6f18f2c8a2","system_id":"levelo_inurba_marseille","lat":43.25122,"lon":5.40283,"is_reserved":false,"is_disabled":false,"rental_uris":{"android":"levelo://app?vid=a42b6529-6d88-4e97-8e06-1a6f18f2c8a2","ios":"levelo://app?vid=a42b6529-6d88-4e97-8e06-1a6f18f2c8a2"},"vehicle_type_id":"4","last_reported":1730232626,"current_range_meters":7200,"station_id":"ce4bhlh2rcd13ifvqgig","pricing_plan_id":"cebpf4jnsgd1na2vs0mg"},{"bike_id":"34c349c4-c8e0-46ba-aa9f-66ac07aea23e","system_id":"levelo_inurba_marseille","lat":43.33026,"lon":5.39043,"is_reserved":false,"is_disabled":false,"rental_uris":{"android":"levelo://app?vid=34c349c4-c8e0-46ba-aa9f-66ac07aea23e","ios":"levelo://app?vid=34c349c4-c8e0-46ba-aa9f-66ac07aea23e"},"vehicle_type_id":"4","last_reported":1730232626,"current_range_meters":38800,"station_id":"ce4bhr92rcd13ifvqhrg","pricing_plan_id":"cebpf4jnsgd1na2vs0mg"},{"bike_id":"6b17b8c2-e4c3-4a48-b5ea-96c0e708e870","system_id":"levelo_inurba_marseille","lat":43.31324,"lon":5.39688,"is_reserved":false,"is_disabled":false,"rental_uris":{"android":"levelo://app?vid=6b17b8c2-e4c3-4a48-b5ea-96c0e708e870","ios":"levelo://app?vid=6b17b8c2-e4c3-4a48-b5ea-96c0e708e870"},"vehicle_type_id":"4","last_reported":1730232626,"current_range_meters":17200,"station_id":"ce4bgvp2rcd13ifvqcu0","pricing_plan_id":"cebpf4jnsgd1na2vs0mg"},{"bike_id":"3713ca50-eced-45b1-bf48-4c2e0879cc91","system_id":"levelo_inurba_marseille","lat":43.24545,"lon":5.39528,"is_reserved":false,"is_disabled":false,"rental_uris":{"android":"levelo://app?vid=3713ca50-eced-45b1-bf48-4c2e0879cc91","ios":"levelo://app?vid=3713ca50-eced-45b1-bf48-4c2e0879cc91"},"vehicle_type_id":"4","last_reported":1730232626,"current_range_meters":16800,"station_id":"ce4bhlp2rcd13ifvqgjg","pricing_plan_id":"cebpf4jnsgd1na2vs0mg"},{"bike_id":"7e1dac73-d14a-4cac-9a8f-3d04b3161b4c","system_id":"levelo_inurba_marseille","lat":43.265582,"lon":5.373406,"is_reserved":false,"is_disabled":false,"rental_uris":{"android":"levelo://app?vid=7e1dac73-d14a-4cac-9a8f-3d04b3161b4c","ios":"levelo://app?vid=7e1dac73-d14a-4cac-9a8f-3d04b3161b4c"},"vehicle_type_id":"4","last_reported":1730232626,"current_range_meters":38800,"station_id":"ce4bhg12rcd13ifvqf70","pricing_plan_id":"cebpf4jnsgd1na2vs0mg"},{"bike_id":"b3c4d8ac-76e9-42ae-bbe0-dff1dc12c124","system_id":"levelo_inurba_marseille","lat":43.27997,"lon":5.400007,"is_reserved":false,"is_disabled":false,"rental_uris":{"android":"levelo://app?vid=b3c4d8ac-76e9-42ae-bbe0-dff1dc12c124","ios":"levelo://app?vid=b3c4d8ac-76e9-42ae-bbe0-dff1dc12c124"},"vehicle_type_id":"4","last_reported":1730232626,"current_range_meters":33200,"station_id":"ce4bho92rcd13ifvqh4g","pricing_plan_id":"cebpf4jnsgd1na2vs0mg"},{"bike_id":"caf349c8-ed3b-4304-909b-160d602b00a5","system_id":"levelo_inurba_marseille","lat":43.31709,"lon":5.37742,"is_reserved":false,"is_disabled":false,"rental_uris":{"android":"levelo://app?vid=caf349c8-ed3b-4304-909b-160d602b00a5","ios":"levelo://app?vid=caf349c8-ed3b-4304-909b-160d602b00a5"},"vehicle_type_id":"4","last_reported":1730232626,"current_range_meters":7200,"station_id":"ce4bgth2rcd13ifvqch0","pricing_plan_id":"cebpf4jnsgd1na2vs0mg"},{"bike_id":"b1a3b332-11d2-4ca1-b2cb-7f0a1f4a6a99","system_id":"levelo_inurba_marseille","lat":43.280945,"lon":5.401339,"is_reserved":false,"is_disabled":false,"rental_uris":{"android":"levelo://app?vid=b1a3b332-11d2-4ca1-b2cb-7f0a1f4a6a99","ios":"levelo://app?vid=b1a3b332-11d2-4ca1-b2cb-7f0a1f4a6a99"},"vehicle_type_id":"4","last_reported":1730232626,"current_range_meters":4800,"station_id":"ce4bho92rcd13ifvqh4g","pricing_plan_id":"cebpf4jnsgd1na2vs0mg"},{"bike_id":"b2c05f9f-585e-4b3d-8a48-b202ea6bf660","system_id":"levelo_inurba_marseille","lat":43.24172,"lon":5.36401,"is_reserved":false,"is_disabled":false,"rental_uris":{"android":"levelo://app?vid=b2c05f9f-585e-4b3d-8a48-b202ea6bf660","ios":"levelo://app?vid=b2c05f9f-585e-4b3d-8a48-b202ea6bf660"},"vehicle_type_id":"4","last_reported":1730232626,"current_range_meters":16400,"station_id":"cpo36qri1sfpv3e86is0","pricing_plan_id":"cebpf4jnsgd1na2vs0mg"},{"bike_id":"4d0afcde-ce47-4725-8e06-0cb2b47ac4d5","system_id":"levelo_inurba_marseille","lat":43.29161,"lon":5.409,"is_reserved":false,"is_disabled":false,"rental_uris":{"android":"levelo://app?vid=4d0afcde-ce47-4725-8e06-0cb2b47ac4d5","ios":"levelo://app?vid=4d0afcde-ce47-4725-8e06-0cb2b47ac4d5"},"vehicle_type_id":"4","last_reported":1730232626,"current_range_meters":9600,"station_id":"","pricing_plan_id":"cebpf4jnsgd1na2vs0mg"},{"bike_id":"788dd9c9-5292-4010-b3ad-5f9f84863532","system_id":"levelo_inurba_marseille","lat":43.29899,"lon":5.43671,"is_reserved":false,"is_disabled":false,"rental_uris":{"android":"levelo://app?vid=788dd9c9-5292-4010-b3ad-5f9f84863532","ios":"levelo://app?vid=788dd9c9-5292-4010-b3ad-5f9f84863532"},"vehicle_type_id":"4","last_reported":1730232626,"current_range_meters":9200,"station_id":"ce4bhpp2rcd13ifvqhfg","pricing_plan_id":"cebpf4jnsgd1na2vs0mg"},{"bike_id":"ff2a3d71-ffd5-4528-9de3-b9aa551060dc","system_id":"levelo_inurba_marseille","lat":43.29225,"lon":5.36054,"is_reserved":false,"is_disabled":false,"rental_uris":{"android":"levelo://app?vid=ff2a3d71-ffd5-4528-9de3-b9aa551060dc","ios":"levelo://app?vid=ff2a3d71-ffd5-4528-9de3-b9aa551060dc"},"vehicle_type_id":"4","last_reported":1730232626,"current_range_meters":38800,"station_id":"ce4bhbh2rcd13ifvqeqg","pricing_plan_id":"cebpf4jnsgd1na2vs0mg"},{"bike_id":"79753c44-2696-48d8-8503-a28f55e7f2ea","system_id":"levelo_inurba_marseille","lat":43.31332,"lon":5.39697,"is_reserved":false,"is_disabled":false,"rental_uris":{"android":"levelo://app?vid=79753c44-2696-48d8-8503-a28f55e7f2ea","ios":"levelo://app?vid=79753c44-2696-48d8-8503-a28f55e7f2ea"},"vehicle_type_id":"4","last_reported":1730232626,"current_range_meters":30800,"station_id":"ce4bgvp2rcd13ifvqcu0","pricing_plan_id":"cebpf4jnsgd1na2vs0mg"},{"bike_id":"209691fb-0077-46b7-911d-62fe9fe8ea46","system_id":"levelo_inurba_marseille","lat":43.2799,"lon":5.39999,"is_reserved":false,"is_disabled":false,"rental_uris":{"android":"levelo://app?vid=209691fb-0077-46b7-911d-62fe9fe8ea46","ios":"levelo://app?vid=209691fb-0077-46b7-911d-62fe9fe8ea46"},"vehicle_type_id":"4","last_reported":1730232626,"current_range_meters":26800,"station_id":"ce4bho92rcd13ifvqh4g","pricing_plan_id":"cebpf4jnsgd1na2vs0mg"},{"bike_id":"8cffab5a-26c8-46dc-9ec1-c9d337d8b03e","system_id":"levelo_inurba_marseille","lat":43.30795,"lon":5.43525,"is_reserved":false,"is_disabled":false,"rental_uris":{"android":"levelo://app?vid=8cffab5a-26c8-46dc-9ec1-c9d337d8b03e","ios":"levelo://app?vid=8cffab5a-26c8-46dc-9ec1-c9d337d8b03e"},"vehicle_type_id":"4","last_reported":1730232626,"current_range_meters":12400,"station_id":"ce4bhph2rcd13ifvqheg","pricing_plan_id":"cebpf4jnsgd1na2vs0mg"},{"bike_id":"04074040-bacb-4d8e-9554-b6d48202d7e9","system_id":"levelo_inurba_marseille","lat":43.27921,"lon":5.39577,"is_reserved":false,"is_disabled":false,"rental_uris":{"android":"levelo://app?vid=04074040-bacb-4d8e-9554-b6d48202d7e9","ios":"levelo://app?vid=04074040-bacb-4d8e-9554-b6d48202d7e9"},"vehicle_type_id":"4","last_reported":1730232626,"current_range_meters":38000,"station_id":"ce4bhf92rcd13ifvqf40","pricing_plan_id":"cebpf4jnsgd1na2vs0mg"},{"bike_id":"e9db3b7a-8c23-4ef5-a372-9ad490f0f78e","system_id":"levelo_inurba_marseille","lat":43.2953,"lon":5.3854,"is_reserved":false,"is_disabled":false,"rental_uris":{"android":"levelo://app?vid=e9db3b7a-8c23-4ef5-a372-9ad490f0f78e","ios":"levelo://app?vid=e9db3b7a-8c23-4ef5-a372-9ad490f0f78e"},"vehicle_type_id":"4","last_reported":1730232626,"current_range_meters":36800,"station_id":"ce4bgih2rcd13ifvqba0","pricing_plan_id":"cebpf4jnsgd1na2vs0mg"},{"bike_id":"12571c57-435c-4950-a511-6119e94d71c3","system_id":"levelo_inurba_marseille","lat":43.2927,"lon":5.38437,"is_reserved":false,"is_disabled":false,"rental_uris":{"android":"levelo://app?vid=12571c57-435c-4950-a511-6119e94d71c3","ios":"levelo://app?vid=12571c57-435c-4950-a511-6119e94d71c3"},"vehicle_type_id":"4","last_reported":1730232626,"current_range_meters":36400,"station_id":"ce4bh692rcd13ifvqea0","pricing_plan_id":"cebpf4jnsgd1na2vs0mg"},{"bike_id":"c5ab8f86-3c93-447c-b767-f885bdebd2ff","system_id":"levelo_inurba_marseille","lat":43.27073,"lon":5.42272,"is_reserved":false,"is_disabled":false,"rental_uris":{"android":"levelo://app?vid=c5ab8f86-3c93-447c-b767-f885bdebd2ff","ios":"levelo://app?vid=c5ab8f86-3c93-447c-b767-f885bdebd2ff"},"vehicle_type_id":"4","last_reported":1730232626,"current_range_meters":38800,"station_id":"ce4bhk92rcd13ifvqgb0","pricing_plan_id":"cebpf4jnsgd1na2vs0mg"},{"bike_id":"6bfb62a6-63c3-4bd5-8676-7b2f3dd6580d","system_id":"levelo_inurba_marseille","lat":43.28153,"lon":5.42645,"is_reserved":false,"is_disabled":false,"rental_uris":{"android":"levelo://app?vid=6bfb62a6-63c3-4bd5-8676-7b2f3dd6580d","ios":"levelo://app?vid=6bfb62a6-63c3-4bd5-8676-7b2f3dd6580d"},"vehicle_type_id":"4","last_reported":1730232626,"current_range_meters":17200,"station_id":"ce4bhnh2rcd13ifvqgug","pricing_plan_id":"cebpf4jnsgd1na2vs0mg"},{"bike_id":"70bb78fe-4bef-4d56-a833-affc0bdfc9f3","system_id":"levelo_inurba_marseille","lat":43.23193,"lon":5.35558,"is_reserved":false,"is_disabled":false,"rental_uris":{"android":"levelo://app?vid=70bb78fe-4bef-4d56-a833-affc0bdfc9f3","ios":"levelo://app?vid=70bb78fe-4bef-4d56-a833-affc0bdfc9f3"},"vehicle_type_id":"4","last_reported":1730232626,"current_range_meters":38800,"station_id":"ce4bhu92rcd13ifvqi70","pricing_plan_id":"cebpf4jnsgd1na2vs0mg"},{"bike_id":"03a341ca-efee-4975-9f6e-2f33d6508199","system_id":"levelo_inurba_marseille","lat":43.29276,"lon":5.40112,"is_reserved":false,"is_disabled":false,"rental_uris":{"android":"levelo://app?vid=03a341ca-efee-4975-9f6e-2f33d6508199","ios":"levelo://app?vid=03a341ca-efee-4975-9f6e-2f33d6508199"},"vehicle_type_id":"4","last_reported":1730232626,"current_range_meters":10800,"station_id":"ce4bh312rcd13ifvqdk0","pricing_plan_id":"cebpf4jnsgd1na2vs0mg"},{"bike_id":"2c45be5e-3582-4be8-bc0c-6f11b283dac4","system_id":"levelo_inurba_marseille","lat":43.27366,"lon":5.36256,"is_reserved":false,"is_disabled":false,"rental_uris":{"android":"levelo://app?vid=2c45be5e-3582-4be8-bc0c-6f11b283dac4","ios":"levelo://app?vid=2c45be5e-3582-4be8-bc0c-6f11b283dac4"},"vehicle_type_id":"4","last_reported":1730232626,"current_range_meters":38800,"station_id":"ce4bhbh2rcd13ifvqeo0","pricing_plan_id":"cebpf4jnsgd1na2vs0mg"},{"bike_id":"1a23e5a8-eaa2-49bf-921e-448b5e886ed3","system_id":"levelo_inurba_marseille","lat":43.28183,"lon":5.37889,"is_reserved":false,"is_disabled":false,"rental_uris":{"android":"levelo://app?vid=1a23e5a8-eaa2-49bf-921e-448b5e886ed3","ios":"levelo://app?vid=1a23e5a8-eaa2-49bf-921e-448b5e886ed3"},"vehicle_type_id":"4","last_reported":1730232626,"current_range_meters":24400,"station_id":"ce4bha12rcd13ifvqee0","pricing_plan_id":"cebpf4jnsgd1na2vs0mg"},{"bike_id":"5c244c3d-8fd7-4c95-b825-2f7fe2f15994","system_id":"levelo_inurba_marseille","lat":43.23188,"lon":5.35542,"is_reserved":false,"is_disabled":false,"rental_uris":{"android":"levelo://app?vid=5c244c3d-8fd7-4c95-b825-2f7fe2f15994","ios":"levelo://app?vid=5c244c3d-8fd7-4c95-b825-2f7fe2f15994"},"vehicle_type_id":"4","last_reported":1730232626,"current_range_meters":34000,"station_id":"ce4bhu92rcd13ifvqi70","pricing_plan_id":"cebpf4jnsgd1na2vs0mg"},{"bike_id":"38db86ba-0428-4c56-9ec5-3b88ab5c09c7","system_id":"levelo_inurba_marseille","lat":43.299195,"lon":5.37481,"is_reserved":false,"is_disabled":false,"rental_uris":{"android":"levelo://app?vid=38db86ba-0428-4c56-9ec5-3b88ab5c09c7","ios":"levelo://app?vid=38db86ba-0428-4c56-9ec5-3b88ab5c09c7"},"vehicle_type_id":"4","last_reported":1730232626,"current_range_meters":38000,"station_id":"ce4bgjh2rcd13ifvqbg0","pricing_plan_id":"cebpf4jnsgd1na2vs0mg"},{"bike_id":"a55cec75-7211-434d-8bb2-95f2a4066741","system_id":"levelo_inurba_marseille","lat":43.24814,"lon":5.37457,"is_reserved":false,"is_disabled":false,"rental_uris":{"android":"levelo://app?vid=a55cec75-7211-434d-8bb2-95f2a4066741","ios":"levelo://app?vid=a55cec75-7211-434d-8bb2-95f2a4066741"},"vehicle_type_id":"4","last_reported":1730232626,"current_range_meters":7200,"station_id":"ce4bhgh2rcd13ifvqfb0","pricing_plan_id":"cebpf4jnsgd1na2vs0mg"},{"bike_id":"f183a66f-424a-4b06-ad74-4a66e93817f3","system_id":"levelo_inurba_marseille","lat":43.28945,"lon":5.36637,"is_reserved":false,"is_disabled":false,"rental_uris":{"android":"levelo://app?vid=f183a66f-424a-4b06-ad74-4a66e93817f3","ios":"levelo://app?vid=f183a66f-424a-4b06-ad74-4a66e93817f3"},"vehicle_type_id":"4","last_reported":1730232626,"current_range_meters":38800,"station_id":"ce4bhap2rcd13ifvqek0","pricing_plan_id":"cebpf4jnsgd1na2vs0mg"},{"bike_id":"8fe952c7-d1f5-486e-a32b-0e7b70cce917","system_id":"levelo_inurba_marseille","lat":43.32368,"lon":5.3889,"is_reserved":false,"is_disabled":false,"rental_uris":{"android":"levelo://app?vid=8fe952c7-d1f5-486e-a32b-0e7b70cce917","ios":"levelo://app?vid=8fe952c7-d1f5-486e-a32b-0e7b70cce917"},"vehicle_type_id":"4","last_reported":1730232626,"current_range_meters":33200,"station_id":"ce4bhqp2rcd13ifvqhog","pricing_plan_id":"cebpf4jnsgd1na2vs0mg"},{"bike_id":"f5091baa-79f3-43a0-aebf-8e619aefa02a","system_id":"levelo_inurba_marseille","lat":43.24076,"lon":5.3776,"is_reserved":false,"is_disabled":false,"rental_uris":{"android":"levelo://app?vid=f5091baa-79f3-43a0-aebf-8e619aefa02a","ios":"levelo://app?vid=f5091baa-79f3-43a0-aebf-8e619aefa02a"},"vehicle_type_id":"4","last_reported":1730232626,"current_range_meters":22400,"station_id":"ce4bhnp2rcd13ifvqgvg","pricing_plan_id":"cebpf4jnsgd1na2vs0mg"},{"bike_id":"c6472a4b-15fb-475c-a800-9db188055ce2","system_id":"levelo_inurba_marseille","lat":43.25826,"lon":5.39423,"is_reserved":false,"is_disabled":false,"rental_uris":{"android":"levelo://app?vid=c6472a4b-15fb-475c-a800-9db188055ce2","ios":"levelo://app?vid=c6472a4b-15fb-475c-a800-9db188055ce2"},"vehicle_type_id":"4","last_reported":1730232626,"current_range_meters":17200,"station_id":"ce4bhip2rcd13ifvqft0","pricing_plan_id":"cebpf4jnsgd1na2vs0mg"},{"bike_id":"1c36e968-b9ec-4e4e-a73e-52f85b4ded24","system_id":"levelo_inurba_marseille","lat":43.27173,"lon":5.40998,"is_reserved":false,"is_disabled":false,"rental_uris":{"android":"levelo://app?vid=1c36e968-b9ec-4e4e-a73e-52f85b4ded24","ios":"levelo://app?vid=1c36e968-b9ec-4e4e-a73e-52f85b4ded24"},"vehicle_type_id":"4","last_reported":1730232626,"current_range_meters":13600,"station_id":"ce4bhl12rcd13ifvqgf0","pricing_plan_id":"cebpf4jnsgd1na2vs0mg"},{"bike_id":"1001b789-5a01-41df-8dd4-852d1e877df9","system_id":"levelo_inurba_marseille","lat":43.28004,"lon":5.40003,"is_reserved":false,"is_disabled":false,"rental_uris":{"android":"levelo://app?vid=1001b789-5a01-41df-8dd4-852d1e877df9","ios":"levelo://app?vid=1001b789-5a01-41df-8dd4-852d1e877df9"},"vehicle_type_id":"4","last_reported":1730232626,"current_range_meters":35200,"station_id":"ce4bho92rcd13ifvqh4g","pricing_plan_id":"cebpf4jnsgd1na2vs0mg"},{"bike_id":"e2742e87-6305-406e-b741-ae78e4265d4a","system_id":"levelo_inurba_marseille","lat":43.29977,"lon":5.38485,"is_reserved":false,"is_disabled":false,"rental_uris":{"android":"levelo://app?vid=e2742e87-6305-406e-b741-ae78e4265d4a","ios":"levelo://app?vid=e2742e87-6305-406e-b741-ae78e4265d4a"},"vehicle_type_id":"4","last_reported":1730232626,"current_range_meters":37600,"station_id":"ce4bgj92rcd13ifvqbd0","pricing_plan_id":"cebpf4jnsgd1na2vs0mg"},{"bike_id":"92adf987-4779-4b78-ad9c-8e29ab9175f3","system_id":"levelo_inurba_marseille","lat":43.23197,"lon":5.35554,"is_reserved":false,"is_disabled":false,"rental_uris":{"android":"levelo://app?vid=92adf987-4779-4b78-ad9c-8e29ab9175f3","ios":"levelo://app?vid=92adf987-4779-4b78-ad9c-8e29ab9175f3"},"vehicle_type_id":"4","last_reported":1730232626,"current_range_meters":17200,"station_id":"ce4bhu92rcd13ifvqi70","pricing_plan_id":"cebpf4jnsgd1na2vs0mg"},{"bike_id":"ba4cccac-d0c2-4d26-8c3c-f3aeb4df3107","system_id":"levelo_inurba_marseille","lat":43.28151,"lon":5.42641,"is_reserved":false,"is_disabled":false,"rental_uris":{"android":"levelo://app?vid=ba4cccac-d0c2-4d26-8c3c-f3aeb4df3107","ios":"levelo://app?vid=ba4cccac-d0c2-4d26-8c3c-f3aeb4df3107"},"vehicle_type_id":"4","last_reported":1730232626,"current_range_meters":4800,"station_id":"ce4bhnh2rcd13ifvqgug","pricing_plan_id":"cebpf4jnsgd1na2vs0mg"},{"bike_id":"c03f3456-93bb-418a-8ce0-ca351e254b4e","system_id":"levelo_inurba_marseille","lat":43.31757,"lon":5.39014,"is_reserved":false,"is_disabled":false,"rental_uris":{"android":"levelo://app?vid=c03f3456-93bb-418a-8ce0-ca351e254b4e","ios":"levelo://app?vid=c03f3456-93bb-418a-8ce0-ca351e254b4e"},"vehicle_type_id":"4","last_reported":1730232626,"current_range_meters":39200,"station_id":"ce4bhqp2rcd13ifvqhng","pricing_plan_id":"cebpf4jnsgd1na2vs0mg"},{"bike_id":"37cb0773-ba21-47be-9d4f-f925cfb4f6e7","system_id":"levelo_inurba_marseille","lat":43.29061,"lon":5.37727,"is_reserved":false,"is_disabled":false,"rental_uris":{"android":"levelo://app?vid=37cb0773-ba21-47be-9d4f-f925cfb4f6e7","ios":"levelo://app?vid=37cb0773-ba21-47be-9d4f-f925cfb4f6e7"},"vehicle_type_id":"4","last_reported":1730232626,"current_range_meters":31200,"station_id":"","pricing_plan_id":"cebpf4jnsgd1na2vs0mg"},{"bike_id":"09a43412-c2d4-4f58-9983-2f58ced22692","system_id":"levelo_inurba_marseille","lat":43.29523,"lon":5.39394,"is_reserved":false,"is_disabled":false,"rental_uris":{"android":"levelo://app?vid=09a43412-c2d4-4f58-9983-2f58ced22692","ios":"levelo://app?vid=09a43412-c2d4-4f58-9983-2f58ced22692"},"vehicle_type_id":"4","last_reported":1730232626,"current_range_meters":38800,"station_id":"ce4bh292rcd13ifvqdf0","pricing_plan_id":"cebpf4jnsgd1na2vs0mg"},{"bike_id":"deb4bb90-7a53-4b28-9745-98196973192c","system_id":"levelo_inurba_marseille","lat":43.28469,"lon":5.38414,"is_reserved":false,"is_disabled":false,"rental_uris":{"android":"levelo://app?vid=deb4bb90-7a53-4b28-9745-98196973192c","ios":"levelo://app?vid=deb4bb90-7a53-4b28-9745-98196973192c"},"vehicle_type_id":"4","last_reported":1730232626,"current_range_meters":6000,"station_id":"ce4bh512rcd13ifvqe3g","pricing_plan_id":"cebpf4jnsgd1na2vs0mg"},{"bike_id":"5311be4a-f2be-40f5-9047-b61a2b1ccbc3","system_id":"levelo_inurba_marseille","lat":43.29203,"lon":5.39313,"is_reserved":false,"is_disabled":false,"rental_uris":{"android":"levelo://app?vid=5311be4a-f2be-40f5-9047-b61a2b1ccbc3","ios":"levelo://app?vid=5311be4a-f2be-40f5-9047-b61a2b1ccbc3"},"vehicle_type_id":"4","last_reported":1730232626,"current_range_meters":38800,"station_id":"ce4bh192rcd13ifvqdd0","pricing_plan_id":"cebpf4jnsgd1na2vs0mg"},{"bike_id":"3eacef56-e200-4054-9b0c-156c6ef1c7f9","system_id":"levelo_inurba_marseille","lat":43.32405,"lon":5.36993,"is_reserved":false,"is_disabled":false,"rental_uris":{"android":"levelo://app?vid=3eacef56-e200-4054-9b0c-156c6ef1c7f9","ios":"levelo://app?vid=3eacef56-e200-4054-9b0c-156c6ef1c7f9"},"vehicle_type_id":"4","last_reported":1730232626,"current_range_meters":35200,"station_id":"","pricing_plan_id":"cebpf4jnsgd1na2vs0mg"},{"bike_id":"3928d2b2-5322-4bfc-935c-f02931565366","system_id":"levelo_inurba_marseille","lat":43.27997,"lon":5.41656,"is_reserved":false,"is_disabled":false,"rental_uris":{"android":"levelo://app?vid=3928d2b2-5322-4bfc-935c-f02931565366","ios":"levelo://app?vid=3928d2b2-5322-4bfc-935c-f02931565366"},"vehicle_type_id":"4","last_reported":1730232626,"current_range_meters":15200,"station_id":"ce4bho12rcd13ifvqh1g","pricing_plan_id":"cebpf4jnsgd1na2vs0mg"},{"bike_id":"669541bb-ec23-44c5-bb83-c3650de83fee","system_id":"levelo_inurba_marseille","lat":43.27998,"lon":5.41657,"is_reserved":false,"is_disabled":false,"rental_uris":{"android":"levelo://app?vid=669541bb-ec23-44c5-bb83-c3650de83fee","ios":"levelo://app?vid=669541bb-ec23-44c5-bb83-c3650de83fee"},"vehicle_type_id":"4","last_reported":1730232626,"current_range_meters":4000,"station_id":"ce4bho12rcd13ifvqh1g","pricing_plan_id":"cebpf4jnsgd1na2vs0mg"},{"bike_id":"e5112a06-14cc-481c-86b3-83cdcf026f3e","system_id":"levelo_inurba_marseille","lat":43.2954,"lon":5.38542,"is_reserved":false,"is_disabled":false,"rental_uris":{"android":"levelo://app?vid=e5112a06-14cc-481c-86b3-83cdcf026f3e","ios":"levelo://app?vid=e5112a06-14cc-481c-86b3-83cdcf026f3e"},"vehicle_type_id":"4","last_reported":1730232626,"current_range_meters":35600,"station_id":"ce4bgih2rcd13ifvqba0","pricing_plan_id":"cebpf4jnsgd1na2vs0mg"},{"bike_id":"e3bfaa78-9ac6-44ac-939d-83a965291944","system_id":"levelo_inurba_marseille","lat":43.29037,"lon":5.3862,"is_reserved":false,"is_disabled":false,"rental_uris":{"android":"levelo://app?vid=e3bfaa78-9ac6-44ac-939d-83a965291944","ios":"levelo://app?vid=e3bfaa78-9ac6-44ac-939d-83a965291944"},"vehicle_type_id":"4","last_reported":1730232626,"current_range_meters":25200,"station_id":"ce4bh4p2rcd13ifvqe0g","pricing_plan_id":"cebpf4jnsgd1na2vs0mg"},{"bike_id":"6f11b631-dc86-4a0d-a6ca-37f40aeaaf62","system_id":"levelo_inurba_marseille","lat":43.29253,"lon":5.38425,"is_reserved":false,"is_disabled":false,"rental_uris":{"android":"levelo://app?vid=6f11b631-dc86-4a0d-a6ca-37f40aeaaf62","ios":"levelo://app?vid=6f11b631-dc86-4a0d-a6ca-37f40aeaaf62"},"vehicle_type_id":"4","last_reported":1730232626,"current_range_meters":32800,"station_id":"ce4bh692rcd13ifvqea0","pricing_plan_id":"cebpf4jnsgd1na2vs0mg"},{"bike_id":"2b8094c9-b86b-40cd-828f-5b450e6cd053","system_id":"levelo_inurba_marseille","lat":43.29524,"lon":5.38535,"is_reserved":false,"is_disabled":false,"rental_uris":{"android":"levelo://app?vid=2b8094c9-b86b-40cd-828f-5b450e6cd053","ios":"levelo://app?vid=2b8094c9-b86b-40cd-828f-5b450e6cd053"},"vehicle_type_id":"4","last_reported":1730232626,"current_range_meters":38000,"station_id":"ce4bgih2rcd13ifvqba0","pricing_plan_id":"cebpf4jnsgd1na2vs0mg"},{"bike_id":"e92cc0d8-600c-46ae-b1df-056a200ba27c","system_id":"levelo_inurba_marseille","lat":43.3055,"lon":5.36706,"is_reserved":false,"is_disabled":false,"rental_uris":{"android":"levelo://app?vid=e92cc0d8-600c-46ae-b1df-056a200ba27c","ios":"levelo://app?vid=e92cc0d8-600c-46ae-b1df-056a200ba27c"},"vehicle_type_id":"4","last_reported":1730232626,"current_range_meters":18800,"station_id":"ce4bgrp2rcd13ifvqc9g","pricing_plan_id":"cebpf4jnsgd1na2vs0mg"},{"bike_id":"98068fff-0ea9-402a-83fe-c96429d47f95","system_id":"levelo_inurba_marseille","lat":43.30419,"lon":5.3888,"is_reserved":false,"is_disabled":false,"rental_uris":{"android":"levelo://app?vid=98068fff-0ea9-402a-83fe-c96429d47f95","ios":"levelo://app?vid=98068fff-0ea9-402a-83fe-c96429d47f95"},"vehicle_type_id":"4","last_reported":1730232626,"current_range_meters":13600,"station_id":"ce4bgk12rcd13ifvqbi0","pricing_plan_id":"cebpf4jnsgd1na2vs0mg"},{"bike_id":"99a3f4d5-9ad7-4614-a88f-03f2ed75ead3","system_id":"levelo_inurba_marseille","lat":43.31714,"lon":5.37729,"is_reserved":false,"is_disabled":false,"rental_uris":{"android":"levelo://app?vid=99a3f4d5-9ad7-4614-a88f-03f2ed75ead3","ios":"levelo://app?vid=99a3f4d5-9ad7-4614-a88f-03f2ed75ead3"},"vehicle_type_id":"4","last_reported":1730232626,"current_range_meters":4800,"station_id":"ce4bgth2rcd13ifvqch0","pricing_plan_id":"cebpf4jnsgd1na2vs0mg"},{"bike_id":"5867dd38-1697-41f0-976b-2886f1b58d27","system_id":"levelo_inurba_marseille","lat":43.28433,"lon":5.39186,"is_reserved":false,"is_disabled":false,"rental_uris":{"android":"levelo://app?vid=5867dd38-1697-41f0-976b-2886f1b58d27","ios":"levelo://app?vid=5867dd38-1697-41f0-976b-2886f1b58d27"},"vehicle_type_id":"4","last_reported":1730232626,"current_range_meters":38800,"station_id":"ce4bhoh2rcd13ifvqh5g","pricing_plan_id":"cebpf4jnsgd1na2vs0mg"},{"bike_id":"5cf78dd3-55c7-41df-8165-80cbac8db0f4","system_id":"levelo_inurba_marseille","lat":43.30214,"lon":5.39462,"is_reserved":false,"is_disabled":false,"rental_uris":{"android":"levelo://app?vid=5cf78dd3-55c7-41df-8165-80cbac8db0f4","ios":"levelo://app?vid=5cf78dd3-55c7-41df-8165-80cbac8db0f4"},"vehicle_type_id":"4","last_reported":1730232626,"current_range_meters":38800,"station_id":"ce4bh0p2rcd13ifvqd70","pricing_plan_id":"cebpf4jnsgd1na2vs0mg"},{"bike_id":"ecdb2318-3076-4663-ba48-6b57abbd5804","system_id":"levelo_inurba_marseille","lat":43.30132,"lon":5.39846,"is_reserved":false,"is_disabled":false,"rental_uris":{"android":"levelo://app?vid=ecdb2318-3076-4663-ba48-6b57abbd5804","ios":"levelo://app?vid=ecdb2318-3076-4663-ba48-6b57abbd5804"},"vehicle_type_id":"4","last_reported":1730232626,"current_range_meters":2000,"station_id":"ce4bh0h2rcd13ifvqd40","pricing_plan_id":"cebpf4jnsgd1na2vs0mg"},{"bike_id":"54454bef-56f4-4fd7-9cf7-c57a75a8c623","system_id":"levelo_inurba_marseille","lat":43.31701,"lon":5.37763,"is_reserved":false,"is_disabled":false,"rental_uris":{"android":"levelo://app?vid=54454bef-56f4-4fd7-9cf7-c57a75a8c623","ios":"levelo://app?vid=54454bef-56f4-4fd7-9cf7-c57a75a8c623"},"vehicle_type_id":"4","last_reported":1730232626,"current_range_meters":38800,"station_id":"ce4bgth2rcd13ifvqch0","pricing_plan_id":"cebpf4jnsgd1na2vs0mg"},{"bike_id":"4d3727ec-ef80-4d9c-9c2e-7d9929a6ad6d","system_id":"levelo_inurba_marseille","lat":43.29681,"lon":5.3729,"is_reserved":false,"is_disabled":false,"rental_uris":{"android":"levelo://app?vid=4d3727ec-ef80-4d9c-9c2e-7d9929a6ad6d","ios":"levelo://app?vid=4d3727ec-ef80-4d9c-9c2e-7d9929a6ad6d"},"vehicle_type_id":"4","last_reported":1730232626,"current_range_meters":23200,"station_id":"ce4bgk12rcd13ifvqbj0","pricing_plan_id":"cebpf4jnsgd1na2vs0mg"},{"bike_id":"767376b0-bd99-4041-9ae7-230d660d3961","system_id":"levelo_inurba_marseille","lat":43.29774,"lon":5.37091,"is_reserved":false,"is_disabled":false,"rental_uris":{"android":"levelo://app?vid=767376b0-bd99-4041-9ae7-230d660d3961","ios":"levelo://app?vid=767376b0-bd99-4041-9ae7-230d660d3961"},"vehicle_type_id":"4","last_reported":1730232626,"current_range_meters":25200,"station_id":"ce4bgop2rcd13ifvqc1g","pricing_plan_id":"cebpf4jnsgd1na2vs0mg"},{"bike_id":"6bd43a4e-4759-41c1-8ee2-4b7ce9b17a85","system_id":"levelo_inurba_marseille","lat":43.26959,"lon":5.38619,"is_reserved":false,"is_disabled":false,"rental_uris":{"android":"levelo://app?vid=6bd43a4e-4759-41c1-8ee2-4b7ce9b17a85","ios":"levelo://app?vid=6bd43a4e-4759-41c1-8ee2-4b7ce9b17a85"},"vehicle_type_id":"4","last_reported":1730232626,"current_range_meters":38800,"station_id":"ce4bhh92rcd13ifvqfh0","pricing_plan_id":"cebpf4jnsgd1na2vs0mg"},{"bike_id":"1b962f87-d4ca-4cf4-a9eb-16f23c386feb","system_id":"levelo_inurba_marseille","lat":43.2958,"lon":5.37502,"is_reserved":false,"is_disabled":false,"rental_uris":{"android":"levelo://app?vid=1b962f87-d4ca-4cf4-a9eb-16f23c386feb","ios":"levelo://app?vid=1b962f87-d4ca-4cf4-a9eb-16f23c386feb"},"vehicle_type_id":"4","last_reported":1730232626,"current_range_meters":16400,"station_id":"ce4bgh92rcd13ifvqb50","pricing_plan_id":"cebpf4jnsgd1na2vs0mg"},{"bike_id":"538c6c97-8738-4e40-afde-1ced2fc6b778","system_id":"levelo_inurba_marseille","lat":43.33728,"lon":5.39181,"is_reserved":false,"is_disabled":false,"rental_uris":{"android":"levelo://app?vid=538c6c97-8738-4e40-afde-1ced2fc6b778","ios":"levelo://app?vid=538c6c97-8738-4e40-afde-1ced2fc6b778"},"vehicle_type_id":"4","last_reported":1730232626,"current_range_meters":38800,"station_id":"ce4bhr92rcd13ifvqhsg","pricing_plan_id":"cebpf4jnsgd1na2vs0mg"},{"bike_id":"b17d831e-9fa3-4c76-993c-3485bc5641c6","system_id":"levelo_inurba_marseille","lat":43.30799,"lon":5.4352,"is_reserved":false,"is_disabled":false,"rental_uris":{"android":"levelo://app?vid=b17d831e-9fa3-4c76-993c-3485bc5641c6","ios":"levelo://app?vid=b17d831e-9fa3-4c76-993c-3485bc5641c6"},"vehicle_type_id":"4","last_reported":1730232626,"current_range_meters":3200,"station_id":"ce4bhph2rcd13ifvqheg","pricing_plan_id":"cebpf4jnsgd1na2vs0mg"},{"bike_id":"c497513d-9d1d-4320-a1e3-875a8b21d4c5","system_id":"levelo_inurba_marseille","lat":43.2718,"lon":5.40994,"is_reserved":false,"is_disabled":false,"rental_uris":{"android":"levelo://app?vid=c497513d-9d1d-4320-a1e3-875a8b21d4c5","ios":"levelo://app?vid=c497513d-9d1d-4320-a1e3-875a8b21d4c5"},"vehicle_type_id":"4","last_reported":1730232626,"current_range_meters":36400,"station_id":"ce4bhl12rcd13ifvqgf0","pricing_plan_id":"cebpf4jnsgd1na2vs0mg"},{"bike_id":"e0fe10b0-ce38-4f4b-aa95-0e43ac241740","system_id":"levelo_inurba_marseille","lat":43.32366,"lon":5.38886,"is_reserved":false,"is_disabled":false,"rental_uris":{"android":"levelo://app?vid=e0fe10b0-ce38-4f4b-aa95-0e43ac241740","ios":"levelo://app?vid=e0fe10b0-ce38-4f4b-aa95-0e43ac241740"},"vehicle_type_id":"4","last_reported":1730232626,"current_range_meters":34800,"station_id":"ce4bhqp2rcd13ifvqhog","pricing_plan_id":"cebpf4jnsgd1na2vs0mg"},{"bike_id":"b888f11d-4cca-4019-9c0c-d6d69a667f3e","system_id":"levelo_inurba_marseille","lat":43.27551,"lon":5.38416,"is_reserved":false,"is_disabled":false,"rental_uris":{"android":"levelo://app?vid=b888f11d-4cca-4019-9c0c-d6d69a667f3e","ios":"levelo://app?vid=b888f11d-4cca-4019-9c0c-d6d69a667f3e"},"vehicle_type_id":"4","last_reported":1730232626,"current_range_meters":38800,"station_id":"ce4bhh92rcd13ifvqfi0","pricing_plan_id":"cebpf4jnsgd1na2vs0mg"},{"bike_id":"e1b8f9fb-e491-40ed-a82e-b7180152c511","system_id":"levelo_inurba_marseille","lat":43.23959,"lon":5.36638,"is_reserved":false,"is_disabled":false,"rental_uris":{"android":"levelo://app?vid=e1b8f9fb-e491-40ed-a82e-b7180152c511","ios":"levelo://app?vid=e1b8f9fb-e491-40ed-a82e-b7180152c511"},"vehicle_type_id":"4","last_reported":1730232626,"current_range_meters":36400,"station_id":"ce4bhi12rcd13ifvqfp0","pricing_plan_id":"cebpf4jnsgd1na2vs0mg"},{"bike_id":"a306c469-7544-4489-af82-e9fb1e9b4215","system_id":"levelo_inurba_marseille","lat":43.23182,"lon":5.39984,"is_reserved":false,"is_disabled":false,"rental_uris":{"android":"levelo://app?vid=a306c469-7544-4489-af82-e9fb1e9b4215","ios":"levelo://app?vid=a306c469-7544-4489-af82-e9fb1e9b4215"},"vehicle_type_id":"4","last_reported":1730232626,"current_range_meters":25600,"station_id":"ce4bhn12rcd13ifvqgqg","pricing_plan_id":"cebpf4jnsgd1na2vs0mg"},{"bike_id":"6235ec86-7722-4b3a-9291-0eda7d1ab6d9","system_id":"levelo_inurba_marseille","lat":43.28157,"lon":5.42645,"is_reserved":false,"is_disabled":false,"rental_uris":{"android":"levelo://app?vid=6235ec86-7722-4b3a-9291-0eda7d1ab6d9","ios":"levelo://app?vid=6235ec86-7722-4b3a-9291-0eda7d1ab6d9"},"vehicle_type_id":"4","last_reported":1730232626,"current_range_meters":38800,"station_id":"ce4bhnh2rcd13ifvqgug","pricing_plan_id":"cebpf4jnsgd1na2vs0mg"},{"bike_id":"c8b0ddcb-9c74-47bf-bfe0-29fe3f9c6036","system_id":"levelo_inurba_marseille","lat":43.30593,"lon":5.3935,"is_reserved":false,"is_disabled":false,"rental_uris":{"android":"levelo://app?vid=c8b0ddcb-9c74-47bf-bfe0-29fe3f9c6036","ios":"levelo://app?vid=c8b0ddcb-9c74-47bf-bfe0-29fe3f9c6036"},"vehicle_type_id":"4","last_reported":1730232626,"current_range_meters":38800,"station_id":"ce4bh0p2rcd13ifvqd80","pricing_plan_id":"cebpf4jnsgd1na2vs0mg"},{"bike_id":"95ce8da4-47fe-462b-a370-38ca4912fb9f","system_id":"levelo_inurba_marseille","lat":43.30093,"lon":5.39074,"is_reserved":false,"is_disabled":false,"rental_uris":{"android":"levelo://app?vid=95ce8da4-47fe-462b-a370-38ca4912fb9f","ios":"levelo://app?vid=95ce8da4-47fe-462b-a370-38ca4912fb9f"},"vehicle_type_id":"4","last_reported":1730232626,"current_range_meters":38800,"station_id":"ce4bh192rcd13ifvqdb0","pricing_plan_id":"cebpf4jnsgd1na2vs0mg"},{"bike_id":"65ebd49a-94e0-4731-b170-9f1ac0fc0675","system_id":"levelo_inurba_marseille","lat":43.31533,"lon":5.38037,"is_reserved":false,"is_disabled":false,"rental_uris":{"android":"levelo://app?vid=65ebd49a-94e0-4731-b170-9f1ac0fc0675","ios":"levelo://app?vid=65ebd49a-94e0-4731-b170-9f1ac0fc0675"},"vehicle_type_id":"4","last_reported":1730232626,"current_range_meters":27200,"station_id":"ce4bhsp2rcd13ifvqi50","pricing_plan_id":"cebpf4jnsgd1na2vs0mg"},{"bike_id":"041ec194-3f5c-487a-9756-9961793b5622","system_id":"levelo_inurba_marseille","lat":43.28002,"lon":5.40012,"is_reserved":false,"is_disabled":false,"rental_uris":{"android":"levelo://app?vid=041ec194-3f5c-487a-9756-9961793b5622","ios":"levelo://app?vid=041ec194-3f5c-487a-9756-9961793b5622"},"vehicle_type_id":"4","last_reported":1730232626,"current_range_meters":20400,"station_id":"ce4bho92rcd13ifvqh4g","pricing_plan_id":"cebpf4jnsgd1na2vs0mg"},{"bike_id":"afc2f4ef-8043-4252-93a7-30513ff7a1ad","system_id":"levelo_inurba_marseille","lat":43.24183,"lon":5.39735,"is_reserved":false,"is_disabled":false,"rental_uris":{"android":"levelo://app?vid=afc2f4ef-8043-4252-93a7-30513ff7a1ad","ios":"levelo://app?vid=afc2f4ef-8043-4252-93a7-30513ff7a1ad"},"vehicle_type_id":"4","last_reported":1730232626,"current_range_meters":12000,"station_id":"ce4bhn12rcd13ifvqgpg","pricing_plan_id":"cebpf4jnsgd1na2vs0mg"},{"bike_id":"e3097137-b5d6-42d3-aac7-0b7a2cb63276","system_id":"levelo_inurba_marseille","lat":43.28004,"lon":5.4001,"is_reserved":false,"is_disabled":false,"rental_uris":{"android":"levelo://app?vid=e3097137-b5d6-42d3-aac7-0b7a2cb63276","ios":"levelo://app?vid=e3097137-b5d6-42d3-aac7-0b7a2cb63276"},"vehicle_type_id":"4","last_reported":1730232626,"current_range_meters":18000,"station_id":"ce4bho92rcd13ifvqh4g","pricing_plan_id":"cebpf4jnsgd1na2vs0mg"},{"bike_id":"89c5b7f2-f893-4671-96cb-1270981b81a6","system_id":"levelo_inurba_marseille","lat":43.27956,"lon":5.38695,"is_reserved":false,"is_disabled":false,"rental_uris":{"android":"levelo://app?vid=89c5b7f2-f893-4671-96cb-1270981b81a6","ios":"levelo://app?vid=89c5b7f2-f893-4671-96cb-1270981b81a6"},"vehicle_type_id":"4","last_reported":1730232626,"current_range_meters":38800,"station_id":"ce4bhg12rcd13ifvqf80","pricing_plan_id":"cebpf4jnsgd1na2vs0mg"},{"bike_id":"18f40d74-40ee-46b6-ba85-661e090dab89","system_id":"levelo_inurba_marseille","lat":43.28857,"lon":5.39321,"is_reserved":false,"is_disabled":false,"rental_uris":{"android":"levelo://app?vid=18f40d74-40ee-46b6-ba85-661e090dab89","ios":"levelo://app?vid=18f40d74-40ee-46b6-ba85-661e090dab89"},"vehicle_type_id":"4","last_reported":1730232626,"current_range_meters":38800,"station_id":"ce4bh2p2rcd13ifvqdi0","pricing_plan_id":"cebpf4jnsgd1na2vs0mg"},{"bike_id":"44f1e31b-92b3-4bda-bdae-387e1d6ee991","system_id":"levelo_inurba_marseille","lat":43.27431,"lon":5.39418,"is_reserved":false,"is_disabled":false,"rental_uris":{"android":"levelo://app?vid=44f1e31b-92b3-4bda-bdae-387e1d6ee991","ios":"levelo://app?vid=44f1e31b-92b3-4bda-bdae-387e1d6ee991"},"vehicle_type_id":"4","last_reported":1730232626,"current_range_meters":11600,"station_id":"ce4bhdp2rcd13ifvqf20","pricing_plan_id":"cebpf4jnsgd1na2vs0mg"},{"bike_id":"6cddfcd3-8c25-494e-b3bc-2b688952c40f","system_id":"levelo_inurba_marseille","lat":43.2942,"lon":5.38631,"is_reserved":false,"is_disabled":false,"rental_uris":{"android":"levelo://app?vid=6cddfcd3-8c25-494e-b3bc-2b688952c40f","ios":"levelo://app?vid=6cddfcd3-8c25-494e-b3bc-2b688952c40f"},"vehicle_type_id":"4","last_reported":1730232626,"current_range_meters":8400,"station_id":"ce4bh2h2rcd13ifvqdh0","pricing_plan_id":"cebpf4jnsgd1na2vs0mg"},{"bike_id":"20dfae4b-0d18-410b-9f7f-08675354fd6a","system_id":"levelo_inurba_marseille","lat":43.30423,"lon":5.38889,"is_reserved":false,"is_disabled":false,"rental_uris":{"android":"levelo://app?vid=20dfae4b-0d18-410b-9f7f-08675354fd6a","ios":"levelo://app?vid=20dfae4b-0d18-410b-9f7f-08675354fd6a"},"vehicle_type_id":"4","last_reported":1730232626,"current_range_meters":20400,"station_id":"ce4bgk12rcd13ifvqbi0","pricing_plan_id":"cebpf4jnsgd1na2vs0mg"},{"bike_id":"f58f03d1-9e6f-45be-983e-90f0e7108f6a","system_id":"levelo_inurba_marseille","lat":43.29533,"lon":5.38537,"is_reserved":false,"is_disabled":false,"rental_uris":{"android":"levelo://app?vid=f58f03d1-9e6f-45be-983e-90f0e7108f6a","ios":"levelo://app?vid=f58f03d1-9e6f-45be-983e-90f0e7108f6a"},"vehicle_type_id":"4","last_reported":1730232626,"current_range_meters":27600,"station_id":"ce4bgih2rcd13ifvqba0","pricing_plan_id":"cebpf4jnsgd1na2vs0mg"},{"bike_id":"9d46e0b2-b7a2-490a-aca2-06a1d5481623","system_id":"levelo_inurba_marseille","lat":43.28054,"lon":5.42082,"is_reserved":false,"is_disabled":false,"rental_uris":{"android":"levelo://app?vid=9d46e0b2-b7a2-490a-aca2-06a1d5481623","ios":"levelo://app?vid=9d46e0b2-b7a2-490a-aca2-06a1d5481623"},"vehicle_type_id":"4","last_reported":1730232626,"current_range_meters":16000,"station_id":"","pricing_plan_id":"cebpf4jnsgd1na2vs0mg"},{"bike_id":"fe2904da-4ac6-42de-b232-dbec16338c49","system_id":"levelo_inurba_marseille","lat":43.33688,"lon":5.35751,"is_reserved":false,"is_disabled":false,"rental_uris":{"android":"levelo://app?vid=fe2904da-4ac6-42de-b232-dbec16338c49","ios":"levelo://app?vid=fe2904da-4ac6-42de-b232-dbec16338c49"},"vehicle_type_id":"4","last_reported":1730232626,"current_range_meters":27600,"station_id":"","pricing_plan_id":"cebpf4jnsgd1na2vs0mg"},{"bike_id":"b262cfeb-626e-4bda-ad49-fd734da053d7","system_id":"levelo_inurba_marseille","lat":43.30213,"lon":5.39462,"is_reserved":false,"is_disabled":false,"rental_uris":{"android":"levelo://app?vid=b262cfeb-626e-4bda-ad49-fd734da053d7","ios":"levelo://app?vid=b262cfeb-626e-4bda-ad49-fd734da053d7"},"vehicle_type_id":"4","last_reported":1730232626,"current_range_meters":38800,"station_id":"ce4bh0p2rcd13ifvqd70","pricing_plan_id":"cebpf4jnsgd1na2vs0mg"},{"bike_id":"b271478d-d7c9-49f6-99e7-3ca088e29dc9","system_id":"levelo_inurba_marseille","lat":43.29282,"lon":5.40121,"is_reserved":false,"is_disabled":false,"rental_uris":{"android":"levelo://app?vid=b271478d-d7c9-49f6-99e7-3ca088e29dc9","ios":"levelo://app?vid=b271478d-d7c9-49f6-99e7-3ca088e29dc9"},"vehicle_type_id":"4","last_reported":1730232626,"current_range_meters":20000,"station_id":"ce4bh312rcd13ifvqdk0","pricing_plan_id":"cebpf4jnsgd1na2vs0mg"},{"bike_id":"9487f493-60cd-4262-bc0f-f3693a213b25","system_id":"levelo_inurba_marseille","lat":43.26927,"lon":5.38908,"is_reserved":false,"is_disabled":false,"rental_uris":{"android":"levelo://app?vid=9487f493-60cd-4262-bc0f-f3693a213b25","ios":"levelo://app?vid=9487f493-60cd-4262-bc0f-f3693a213b25"},"vehicle_type_id":"4","last_reported":1730232626,"current_range_meters":31200,"station_id":"ce4bhhh2rcd13ifvqfl0","pricing_plan_id":"cebpf4jnsgd1na2vs0mg"},{"bike_id":"8c21361d-0a09-4a9b-b3f9-d4801ad13bf9","system_id":"levelo_inurba_marseille","lat":43.29804,"lon":5.40394,"is_reserved":false,"is_disabled":false,"rental_uris":{"android":"levelo://app?vid=8c21361d-0a09-4a9b-b3f9-d4801ad13bf9","ios":"levelo://app?vid=8c21361d-0a09-4a9b-b3f9-d4801ad13bf9"},"vehicle_type_id":"4","last_reported":1730232626,"current_range_meters":32000,"station_id":"ce4bh112rcd13ifvqd90","pricing_plan_id":"cebpf4jnsgd1na2vs0mg"},{"bike_id":"00b19a82-801c-43c2-8f8c-4f9183f08801","system_id":"levelo_inurba_marseille","lat":43.30424,"lon":5.39736,"is_reserved":false,"is_disabled":false,"rental_uris":{"android":"levelo://app?vid=00b19a82-801c-43c2-8f8c-4f9183f08801","ios":"levelo://app?vid=00b19a82-801c-43c2-8f8c-4f9183f08801"},"vehicle_type_id":"4","last_reported":1730232626,"current_range_meters":6000,"station_id":"ce4bh092rcd13ifvqd20","pricing_plan_id":"cebpf4jnsgd1na2vs0mg"},{"bike_id":"56e7cf53-9329-4857-afd0-bf9c5007df45","system_id":"levelo_inurba_marseille","lat":43.25819,"lon":5.3942,"is_reserved":false,"is_disabled":false,"rental_uris":{"android":"levelo://app?vid=56e7cf53-9329-4857-afd0-bf9c5007df45","ios":"levelo://app?vid=56e7cf53-9329-4857-afd0-bf9c5007df45"},"vehicle_type_id":"4","last_reported":1730232626,"current_range_meters":28800,"station_id":"ce4bhip2rcd13ifvqft0","pricing_plan_id":"cebpf4jnsgd1na2vs0mg"},{"bike_id":"929fd36a-b9f6-4c7f-b391-f23b6a1f32b4","system_id":"levelo_inurba_marseille","lat":43.3125,"lon":5.37074,"is_reserved":false,"is_disabled":false,"rental_uris":{"android":"levelo://app?vid=929fd36a-b9f6-4c7f-b391-f23b6a1f32b4","ios":"levelo://app?vid=929fd36a-b9f6-4c7f-b391-f23b6a1f32b4"},"vehicle_type_id":"4","last_reported":1730232626,"current_range_meters":32400,"station_id":"","pricing_plan_id":"cebpf4jnsgd1na2vs0mg"},{"bike_id":"914fa55b-4bb6-465a-b3ab-1497e558dd0c","system_id":"levelo_inurba_marseille","lat":43.27627,"lon":5.36106,"is_reserved":false,"is_disabled":false,"rental_uris":{"android":"levelo://app?vid=914fa55b-4bb6-465a-b3ab-1497e558dd0c","ios":"levelo://app?vid=914fa55b-4bb6-465a-b3ab-1497e558dd0c"},"vehicle_type_id":"4","last_reported":1730232626,"current_range_meters":19200,"station_id":"ce4bgj92rcd13ifvqbe0","pricing_plan_id":"cebpf4jnsgd1na2vs0mg"},{"bike_id":"273eda43-a923-4aa8-a82f-1c7c3a464cf2","system_id":"levelo_inurba_marseille","lat":43.29408,"lon":5.38628,"is_reserved":false,"is_disabled":false,"rental_uris":{"android":"levelo://app?vid=273eda43-a923-4aa8-a82f-1c7c3a464cf2","ios":"levelo://app?vid=273eda43-a923-4aa8-a82f-1c7c3a464cf2"},"vehicle_type_id":"4","last_reported":1730232626,"current_range_meters":7200,"station_id":"ce4bh2h2rcd13ifvqdh0","pricing_plan_id":"cebpf4jnsgd1na2vs0mg"},{"bike_id":"959172c7-f464-4fd2-aa9b-fd2d5bbfa5b6","system_id":"levelo_inurba_marseille","lat":43.31122,"lon":5.37762,"is_reserved":false,"is_disabled":false,"rental_uris":{"android":"levelo://app?vid=959172c7-f464-4fd2-aa9b-fd2d5bbfa5b6","ios":"levelo://app?vid=959172c7-f464-4fd2-aa9b-fd2d5bbfa5b6"},"vehicle_type_id":"4","last_reported":1730232626,"current_range_meters":38400,"station_id":"ce4bgt92rcd13ifvqcg0","pricing_plan_id":"cebpf4jnsgd1na2vs0mg"},{"bike_id":"e3640254-b81f-4f0b-8b8e-905eac84ad9f","system_id":"levelo_inurba_marseille","lat":43.29259,"lon":5.38431,"is_reserved":false,"is_disabled":false,"rental_uris":{"android":"levelo://app?vid=e3640254-b81f-4f0b-8b8e-905eac84ad9f","ios":"levelo://app?vid=e3640254-b81f-4f0b-8b8e-905eac84ad9f"},"vehicle_type_id":"4","last_reported":1730232626,"current_range_meters":38800,"station_id":"ce4bh692rcd13ifvqea0","pricing_plan_id":"cebpf4jnsgd1na2vs0mg"},{"bike_id":"fe0d64c0-ec38-4c5f-97fd-73683173eb6e","system_id":"levelo_inurba_marseille","lat":43.28,"lon":5.40009,"is_reserved":false,"is_disabled":false,"rental_uris":{"android":"levelo://app?vid=fe0d64c0-ec38-4c5f-97fd-73683173eb6e","ios":"levelo://app?vid=fe0d64c0-ec38-4c5f-97fd-73683173eb6e"},"vehicle_type_id":"4","last_reported":1730232626,"current_range_meters":38400,"station_id":"ce4bho92rcd13ifvqh4g","pricing_plan_id":"cebpf4jnsgd1na2vs0mg"},{"bike_id":"a8e7d07b-6931-4533-bc70-51aecce152a4","system_id":"levelo_inurba_marseille","lat":43.2582,"lon":5.39436,"is_reserved":false,"is_disabled":false,"rental_uris":{"android":"levelo://app?vid=a8e7d07b-6931-4533-bc70-51aecce152a4","ios":"levelo://app?vid=a8e7d07b-6931-4533-bc70-51aecce152a4"},"vehicle_type_id":"4","last_reported":1730232626,"current_range_meters":30400,"station_id":"ce4bhip2rcd13ifvqft0","pricing_plan_id":"cebpf4jnsgd1na2vs0mg"},{"bike_id":"4867efb3-231f-46bd-bf5d-5e803cd72d3f","system_id":"levelo_inurba_marseille","lat":43.33725,"lon":5.39175,"is_reserved":false,"is_disabled":false,"rental_uris":{"android":"levelo://app?vid=4867efb3-231f-46bd-bf5d-5e803cd72d3f","ios":"levelo://app?vid=4867efb3-231f-46bd-bf5d-5e803cd72d3f"},"vehicle_type_id":"4","last_reported":1730232626,"current_range_meters":38800,"station_id":"ce4bhr92rcd13ifvqhsg","pricing_plan_id":"cebpf4jnsgd1na2vs0mg"},{"bike_id":"6c55372d-3929-4cf2-b4ea-30149f454df3","system_id":"levelo_inurba_marseille","lat":43.28001,"lon":5.3999,"is_reserved":false,"is_disabled":false,"rental_uris":{"android":"levelo://app?vid=6c55372d-3929-4cf2-b4ea-30149f454df3","ios":"levelo://app?vid=6c55372d-3929-4cf2-b4ea-30149f454df3"},"vehicle_type_id":"4","last_reported":1730232626,"current_range_meters":30400,"station_id":"ce4bho92rcd13ifvqh4g","pricing_plan_id":"cebpf4jnsgd1na2vs0mg"},{"bike_id":"2bf721a9-5068-4e7a-b0ac-2e9cf92d5b34","system_id":"levelo_inurba_marseille","lat":43.310704,"lon":5.3836,"is_reserved":false,"is_disabled":false,"rental_uris":{"android":"levelo://app?vid=2bf721a9-5068-4e7a-b0ac-2e9cf92d5b34","ios":"levelo://app?vid=2bf721a9-5068-4e7a-b0ac-2e9cf92d5b34"},"vehicle_type_id":"4","last_reported":1730232626,"current_range_meters":38800,"station_id":"ce4bgv92rcd13ifvqcr0","pricing_plan_id":"cebpf4jnsgd1na2vs0mg"},{"bike_id":"ffb0b1ae-5a7c-4775-bcce-95b890558e6d","system_id":"levelo_inurba_marseille","lat":43.29416,"lon":5.38624,"is_reserved":false,"is_disabled":false,"rental_uris":{"android":"levelo://app?vid=ffb0b1ae-5a7c-4775-bcce-95b890558e6d","ios":"levelo://app?vid=ffb0b1ae-5a7c-4775-bcce-95b890558e6d"},"vehicle_type_id":"4","last_reported":1730232626,"current_range_meters":38800,"station_id":"ce4bh2h2rcd13ifvqdh0","pricing_plan_id":"cebpf4jnsgd1na2vs0mg"},{"bike_id":"de26d2e3-435f-4444-a71a-85f92f4cf820","system_id":"levelo_inurba_marseille","lat":43.29528,"lon":5.3904,"is_reserved":false,"is_disabled":false,"rental_uris":{"android":"levelo://app?vid=de26d2e3-435f-4444-a71a-85f92f4cf820","ios":"levelo://app?vid=de26d2e3-435f-4444-a71a-85f92f4cf820"},"vehicle_type_id":"4","last_reported":1730232626,"current_range_meters":26000,"station_id":"ce4bh3p2rcd13ifvqdp0","pricing_plan_id":"cebpf4jnsgd1na2vs0mg"},{"bike_id":"fe831fe5-8016-4099-a869-a23caf4d36e2","system_id":"levelo_inurba_marseille","lat":43.28002,"lon":5.40018,"is_reserved":false,"is_disabled":false,"rental_uris":{"android":"levelo://app?vid=fe831fe5-8016-4099-a869-a23caf4d36e2","ios":"levelo://app?vid=fe831fe5-8016-4099-a869-a23caf4d36e2"},"vehicle_type_id":"4","last_reported":1730232626,"current_range_meters":16400,"station_id":"ce4bho92rcd13ifvqh4g","pricing_plan_id":"cebpf4jnsgd1na2vs0mg"},{"bike_id":"03486306-1054-4a4e-94ec-39bd77e6ae84","system_id":"levelo_inurba_marseille","lat":43.29415,"lon":5.38626,"is_reserved":false,"is_disabled":false,"rental_uris":{"android":"levelo://app?vid=03486306-1054-4a4e-94ec-39bd77e6ae84","ios":"levelo://app?vid=03486306-1054-4a4e-94ec-39bd77e6ae84"},"vehicle_type_id":"4","last_reported":1730232626,"current_range_meters":36400,"station_id":"ce4bh2h2rcd13ifvqdh0","pricing_plan_id":"cebpf4jnsgd1na2vs0mg"},{"bike_id":"3fa5607d-79b0-4afb-b0be-72e7bb981cad","system_id":"levelo_inurba_marseille","lat":43.307434,"lon":5.375843,"is_reserved":false,"is_disabled":false,"rental_uris":{"android":"levelo://app?vid=3fa5607d-79b0-4afb-b0be-72e7bb981cad","ios":"levelo://app?vid=3fa5607d-79b0-4afb-b0be-72e7bb981cad"},"vehicle_type_id":"4","last_reported":1730232626,"current_range_meters":17600,"station_id":"ce4bgv92rcd13ifvqcq0","pricing_plan_id":"cebpf4jnsgd1na2vs0mg"},{"bike_id":"54963f26-410c-425c-9ba8-646aa5b60f42","system_id":"levelo_inurba_marseille","lat":43.30422,"lon":5.41279,"is_reserved":false,"is_disabled":false,"rental_uris":{"android":"levelo://app?vid=54963f26-410c-425c-9ba8-646aa5b60f42","ios":"levelo://app?vid=54963f26-410c-425c-9ba8-646aa5b60f42"},"vehicle_type_id":"4","last_reported":1730232626,"current_range_meters":6400,"station_id":"ce4bhop2rcd13ifvqh8g","pricing_plan_id":"cebpf4jnsgd1na2vs0mg"},{"bike_id":"47f637b2-e75a-4a0d-aeb9-5f32f372401c","system_id":"levelo_inurba_marseille","lat":43.29033,"lon":5.38621,"is_reserved":false,"is_disabled":false,"rental_uris":{"android":"levelo://app?vid=47f637b2-e75a-4a0d-aeb9-5f32f372401c","ios":"levelo://app?vid=47f637b2-e75a-4a0d-aeb9-5f32f372401c"},"vehicle_type_id":"4","last_reported":1730232626,"current_range_meters":11600,"station_id":"ce4bh4p2rcd13ifvqe0g","pricing_plan_id":"cebpf4jnsgd1na2vs0mg"},{"bike_id":"0b8d31e3-1b05-4b9a-871c-3575a2f007c0","system_id":"levelo_inurba_marseille","lat":43.3172,"lon":5.43706,"is_reserved":false,"is_disabled":false,"rental_uris":{"android":"levelo://app?vid=0b8d31e3-1b05-4b9a-871c-3575a2f007c0","ios":"levelo://app?vid=0b8d31e3-1b05-4b9a-871c-3575a2f007c0"},"vehicle_type_id":"4","last_reported":1730232626,"current_range_meters":15200,"station_id":"ce4bhp92rcd13ifvqhcg","pricing_plan_id":"cebpf4jnsgd1na2vs0mg"},{"bike_id":"93332178-9b61-4a5f-a9d8-7aeffe3c6ab7","system_id":"levelo_inurba_marseille","lat":43.30219,"lon":5.39475,"is_reserved":false,"is_disabled":false,"rental_uris":{"android":"levelo://app?vid=93332178-9b61-4a5f-a9d8-7aeffe3c6ab7","ios":"levelo://app?vid=93332178-9b61-4a5f-a9d8-7aeffe3c6ab7"},"vehicle_type_id":"4","last_reported":1730232626,"current_range_meters":38800,"station_id":"ce4bh0p2rcd13ifvqd70","pricing_plan_id":"cebpf4jnsgd1na2vs0mg"},{"bike_id":"f547fca8-aa5f-43c5-8951-d00cad1c45c2","system_id":"levelo_inurba_marseille","lat":43.25105,"lon":5.40322,"is_reserved":false,"is_disabled":false,"rental_uris":{"android":"levelo://app?vid=f547fca8-aa5f-43c5-8951-d00cad1c45c2","ios":"levelo://app?vid=f547fca8-aa5f-43c5-8951-d00cad1c45c2"},"vehicle_type_id":"4","last_reported":1730232626,"current_range_meters":36800,"station_id":"ce4bhlh2rcd13ifvqgig","pricing_plan_id":"cebpf4jnsgd1na2vs0mg"},{"bike_id":"a1f83bf3-eed6-45ed-a98a-d29a1a4fe512","system_id":"levelo_inurba_marseille","lat":43.29928,"lon":5.41311,"is_reserved":false,"is_disabled":false,"rental_uris":{"android":"levelo://app?vid=a1f83bf3-eed6-45ed-a98a-d29a1a4fe512","ios":"levelo://app?vid=a1f83bf3-eed6-45ed-a98a-d29a1a4fe512"},"vehicle_type_id":"4","last_reported":1730232626,"current_range_meters":27200,"station_id":"ce4bhp12rcd13ifvqh9g","pricing_plan_id":"cebpf4jnsgd1na2vs0mg"},{"bike_id":"6a837c5a-938f-4a78-a0ab-620af17ca80b","system_id":"levelo_inurba_marseille","lat":43.31113,"lon":5.37763,"is_reserved":false,"is_disabled":false,"rental_uris":{"android":"levelo://app?vid=6a837c5a-938f-4a78-a0ab-620af17ca80b","ios":"levelo://app?vid=6a837c5a-938f-4a78-a0ab-620af17ca80b"},"vehicle_type_id":"4","last_reported":1730232626,"current_range_meters":11600,"station_id":"ce4bgt92rcd13ifvqcg0","pricing_plan_id":"cebpf4jnsgd1na2vs0mg"},{"bike_id":"932b15ed-b26b-41f1-8cc3-a5bf471924bb","system_id":"levelo_inurba_marseille","lat":43.28663,"lon":5.38669,"is_reserved":false,"is_disabled":false,"rental_uris":{"android":"levelo://app?vid=932b15ed-b26b-41f1-8cc3-a5bf471924bb","ios":"levelo://app?vid=932b15ed-b26b-41f1-8cc3-a5bf471924bb"},"vehicle_type_id":"4","last_reported":1730232626,"current_range_meters":22000,"station_id":"ce4bh492rcd13ifvqdug","pricing_plan_id":"cebpf4jnsgd1na2vs0mg"},{"bike_id":"b1c67828-9aad-4850-8399-2bbe8cd09f0b","system_id":"levelo_inurba_marseille","lat":43.273696,"lon":5.362526,"is_reserved":false,"is_disabled":false,"rental_uris":{"android":"levelo://app?vid=b1c67828-9aad-4850-8399-2bbe8cd09f0b","ios":"levelo://app?vid=b1c67828-9aad-4850-8399-2bbe8cd09f0b"},"vehicle_type_id":"4","last_reported":1730232626,"current_range_meters":38800,"station_id":"ce4bhbh2rcd13ifvqeo0","pricing_plan_id":"cebpf4jnsgd1na2vs0mg"},{"bike_id":"766801a5-7dbd-464a-bc56-398e14b9cf78","system_id":"levelo_inurba_marseille","lat":43.29805,"lon":5.37136,"is_reserved":false,"is_disabled":false,"rental_uris":{"android":"levelo://app?vid=766801a5-7dbd-464a-bc56-398e14b9cf78","ios":"levelo://app?vid=766801a5-7dbd-464a-bc56-398e14b9cf78"},"vehicle_type_id":"4","last_reported":1730232626,"current_range_meters":9200,"station_id":"","pricing_plan_id":"cebpf4jnsgd1na2vs0mg"},{"bike_id":"afc8a59e-718c-432c-b226-d6be0903e5fb","system_id":"levelo_inurba_marseille","lat":43.24395,"lon":5.37063,"is_reserved":false,"is_disabled":false,"rental_uris":{"android":"levelo://app?vid=afc8a59e-718c-432c-b226-d6be0903e5fb","ios":"levelo://app?vid=afc8a59e-718c-432c-b226-d6be0903e5fb"},"vehicle_type_id":"4","last_reported":1730232626,"current_range_meters":36800,"station_id":"ce4bhhh2rcd13ifvqfk0","pricing_plan_id":"cebpf4jnsgd1na2vs0mg"},{"bike_id":"05a3978c-ae8f-4c2d-81da-9a71e84d639d","system_id":"levelo_inurba_marseille","lat":43.29415,"lon":5.38626,"is_reserved":false,"is_disabled":false,"rental_uris":{"android":"levelo://app?vid=05a3978c-ae8f-4c2d-81da-9a71e84d639d","ios":"levelo://app?vid=05a3978c-ae8f-4c2d-81da-9a71e84d639d"},"vehicle_type_id":"4","last_reported":1730232626,"current_range_meters":38800,"station_id":"ce4bh2h2rcd13ifvqdh0","pricing_plan_id":"cebpf4jnsgd1na2vs0mg"},{"bike_id":"11251c6c-600b-4fea-b096-d4aec94ae7b7","system_id":"levelo_inurba_marseille","lat":43.30934,"lon":5.40141,"is_reserved":false,"is_disabled":false,"rental_uris":{"android":"levelo://app?vid=11251c6c-600b-4fea-b096-d4aec94ae7b7","ios":"levelo://app?vid=11251c6c-600b-4fea-b096-d4aec94ae7b7"},"vehicle_type_id":"4","last_reported":1730232626,"current_range_meters":37600,"station_id":"ce4bgvp2rcd13ifvqct0","pricing_plan_id":"cebpf4jnsgd1na2vs0mg"},{"bike_id":"f70c948d-188a-4845-9596-725c49994275","system_id":"levelo_inurba_marseille","lat":43.2985,"lon":5.36282,"is_reserved":false,"is_disabled":false,"rental_uris":{"android":"levelo://app?vid=f70c948d-188a-4845-9596-725c49994275","ios":"levelo://app?vid=f70c948d-188a-4845-9596-725c49994275"},"vehicle_type_id":"4","last_reported":1730232626,"current_range_meters":25200,"station_id":"ce4bgpp2rcd13ifvqc3g","pricing_plan_id":"cebpf4jnsgd1na2vs0mg"},{"bike_id":"77dc0b08-ea4e-4b2d-b82f-fcf9cdff2fbe","system_id":"levelo_inurba_marseille","lat":43.286806,"lon":5.363605,"is_reserved":false,"is_disabled":false,"rental_uris":{"android":"levelo://app?vid=77dc0b08-ea4e-4b2d-b82f-fcf9cdff2fbe","ios":"levelo://app?vid=77dc0b08-ea4e-4b2d-b82f-fcf9cdff2fbe"},"vehicle_type_id":"4","last_reported":1730232626,"current_range_meters":30400,"station_id":"ce4bhah2rcd13ifvqej0","pricing_plan_id":"cebpf4jnsgd1na2vs0mg"},{"bike_id":"84a34f64-d710-4f7b-8f16-f367a9f930e0","system_id":"levelo_inurba_marseille","lat":43.26071,"lon":5.39396,"is_reserved":false,"is_disabled":false,"rental_uris":{"android":"levelo://app?vid=84a34f64-d710-4f7b-8f16-f367a9f930e0","ios":"levelo://app?vid=84a34f64-d710-4f7b-8f16-f367a9f930e0"},"vehicle_type_id":"4","last_reported":1730232626,"current_range_meters":28800,"station_id":"ce4bhh92rcd13ifvqfj0","pricing_plan_id":"cebpf4jnsgd1na2vs0mg"},{"bike_id":"b4a6dcc4-536f-49ec-8d3f-a0b26f2d8dc8","system_id":"levelo_inurba_marseille","lat":43.30426,"lon":5.41281,"is_reserved":false,"is_disabled":false,"rental_uris":{"android":"levelo://app?vid=b4a6dcc4-536f-49ec-8d3f-a0b26f2d8dc8","ios":"levelo://app?vid=b4a6dcc4-536f-49ec-8d3f-a0b26f2d8dc8"},"vehicle_type_id":"4","last_reported":1730232626,"current_range_meters":8000,"station_id":"ce4bhop2rcd13ifvqh8g","pricing_plan_id":"cebpf4jnsgd1na2vs0mg"},{"bike_id":"f6b82250-9f54-4c60-95f2-ba08b1967d7c","system_id":"levelo_inurba_marseille","lat":43.29584,"lon":5.36741,"is_reserved":false,"is_disabled":false,"rental_uris":{"android":"levelo://app?vid=f6b82250-9f54-4c60-95f2-ba08b1967d7c","ios":"levelo://app?vid=f6b82250-9f54-4c60-95f2-ba08b1967d7c"},"vehicle_type_id":"4","last_reported":1730232626,"current_range_meters":27200,"station_id":"ce4bgph2rcd13ifvqc2g","pricing_plan_id":"cebpf4jnsgd1na2vs0mg"},{"bike_id":"85ba444f-8392-4835-8e25-376c9f67cf65","system_id":"levelo_inurba_marseille","lat":43.28663,"lon":5.38661,"is_reserved":false,"is_disabled":false,"rental_uris":{"android":"levelo://app?vid=85ba444f-8392-4835-8e25-376c9f67cf65","ios":"levelo://app?vid=85ba444f-8392-4835-8e25-376c9f67cf65"},"vehicle_type_id":"4","last_reported":1730232626,"current_range_meters":38800,"station_id":"ce4bh492rcd13ifvqdug","pricing_plan_id":"cebpf4jnsgd1na2vs0mg"},{"bike_id":"b3aee190-30d4-43a7-b0cd-f0b8cd9e9c75","system_id":"levelo_inurba_marseille","lat":43.29265,"lon":5.38436,"is_reserved":false,"is_disabled":false,"rental_uris":{"android":"levelo://app?vid=b3aee190-30d4-43a7-b0cd-f0b8cd9e9c75","ios":"levelo://app?vid=b3aee190-30d4-43a7-b0cd-f0b8cd9e9c75"},"vehicle_type_id":"4","last_reported":1730232626,"current_range_meters":8800,"station_id":"ce4bh692rcd13ifvqea0","pricing_plan_id":"cebpf4jnsgd1na2vs0mg"},{"bike_id":"97829264-56ed-47d9-9385-389546635c0f","system_id":"levelo_inurba_marseille","lat":43.29173,"lon":5.37146,"is_reserved":false,"is_disabled":false,"rental_uris":{"android":"levelo://app?vid=97829264-56ed-47d9-9385-389546635c0f","ios":"levelo://app?vid=97829264-56ed-47d9-9385-389546635c0f"},"vehicle_type_id":"4","last_reported":1730232626,"current_range_meters":32400,"station_id":"ce4bha92rcd13ifvqeh0","pricing_plan_id":"cebpf4jnsgd1na2vs0mg"},{"bike_id":"0ae25afa-0d4e-47c9-8ed0-c17f1d6c3113","system_id":"levelo_inurba_marseille","lat":43.29521,"lon":5.39044,"is_reserved":false,"is_disabled":false,"rental_uris":{"android":"levelo://app?vid=0ae25afa-0d4e-47c9-8ed0-c17f1d6c3113","ios":"levelo://app?vid=0ae25afa-0d4e-47c9-8ed0-c17f1d6c3113"},"vehicle_type_id":"4","last_reported":1730232626,"current_range_meters":37600,"station_id":"ce4bh3p2rcd13ifvqdp0","pricing_plan_id":"cebpf4jnsgd1na2vs0mg"},{"bike_id":"2372c5d2-97af-446e-b56b-a226889e1485","system_id":"levelo_inurba_marseille","lat":43.324722,"lon":5.365485,"is_reserved":false,"is_disabled":false,"rental_uris":{"android":"levelo://app?vid=2372c5d2-97af-446e-b56b-a226889e1485","ios":"levelo://app?vid=2372c5d2-97af-446e-b56b-a226889e1485"},"vehicle_type_id":"4","last_reported":1730232626,"current_range_meters":28000,"station_id":"ce4bhs12rcd13ifvqhvg","pricing_plan_id":"cebpf4jnsgd1na2vs0mg"},{"bike_id":"6430d677-31dd-43e6-b675-b09e5dc3fc26","system_id":"levelo_inurba_marseille","lat":43.2926,"lon":5.38429,"is_reserved":false,"is_disabled":false,"rental_uris":{"android":"levelo://app?vid=6430d677-31dd-43e6-b675-b09e5dc3fc26","ios":"levelo://app?vid=6430d677-31dd-43e6-b675-b09e5dc3fc26"},"vehicle_type_id":"4","last_reported":1730232626,"current_range_meters":38800,"station_id":"ce4bh692rcd13ifvqea0","pricing_plan_id":"cebpf4jnsgd1na2vs0mg"},{"bike_id":"f0b90e8d-5a51-4c94-9d64-b125714c6e82","system_id":"levelo_inurba_marseille","lat":43.29671,"lon":5.37222,"is_reserved":false,"is_disabled":false,"rental_uris":{"android":"levelo://app?vid=f0b90e8d-5a51-4c94-9d64-b125714c6e82","ios":"levelo://app?vid=f0b90e8d-5a51-4c94-9d64-b125714c6e82"},"vehicle_type_id":"4","last_reported":1730232626,"current_range_meters":33600,"station_id":"","pricing_plan_id":"cebpf4jnsgd1na2vs0mg"},{"bike_id":"a06aaa3a-469c-4c08-9a71-0d7e5c362262","system_id":"levelo_inurba_marseille","lat":43.33723,"lon":5.39184,"is_reserved":false,"is_disabled":false,"rental_uris":{"android":"levelo://app?vid=a06aaa3a-469c-4c08-9a71-0d7e5c362262","ios":"levelo://app?vid=a06aaa3a-469c-4c08-9a71-0d7e5c362262"},"vehicle_type_id":"4","last_reported":1730232626,"current_range_meters":30400,"station_id":"ce4bhr92rcd13ifvqhsg","pricing_plan_id":"cebpf4jnsgd1na2vs0mg"},{"bike_id":"3409211f-1df8-4a1f-a7c4-8380d54b3360","system_id":"levelo_inurba_marseille","lat":43.30311,"lon":5.36907,"is_reserved":false,"is_disabled":false,"rental_uris":{"android":"levelo://app?vid=3409211f-1df8-4a1f-a7c4-8380d54b3360","ios":"levelo://app?vid=3409211f-1df8-4a1f-a7c4-8380d54b3360"},"vehicle_type_id":"4","last_reported":1730232626,"current_range_meters":4800,"station_id":"ce4bgqh2rcd13ifvqc5g","pricing_plan_id":"cebpf4jnsgd1na2vs0mg"},{"bike_id":"87348c75-a113-4aad-a48e-6fe2a5d0e249","system_id":"levelo_inurba_marseille","lat":43.31687,"lon":5.40471,"is_reserved":false,"is_disabled":false,"rental_uris":{"android":"levelo://app?vid=87348c75-a113-4aad-a48e-6fe2a5d0e249","ios":"levelo://app?vid=87348c75-a113-4aad-a48e-6fe2a5d0e249"},"vehicle_type_id":"4","last_reported":1730232626,"current_range_meters":23200,"station_id":"ce4bh012rcd13ifvqd00","pricing_plan_id":"cebpf4jnsgd1na2vs0mg"},{"bike_id":"1d1594d6-46b0-4025-89ff-d9977b3ba4c5","system_id":"levelo_inurba_marseille","lat":43.27559,"lon":5.38408,"is_reserved":false,"is_disabled":false,"rental_uris":{"android":"levelo://app?vid=1d1594d6-46b0-4025-89ff-d9977b3ba4c5","ios":"levelo://app?vid=1d1594d6-46b0-4025-89ff-d9977b3ba4c5"},"vehicle_type_id":"4","last_reported":1730232626,"current_range_meters":12400,"station_id":"ce4bhh92rcd13ifvqfi0","pricing_plan_id":"cebpf4jnsgd1na2vs0mg"},{"bike_id":"217818eb-c145-4637-a824-ab927ac12c8e","system_id":"levelo_inurba_marseille","lat":43.30463,"lon":5.37906,"is_reserved":false,"is_disabled":false,"rental_uris":{"android":"levelo://app?vid=217818eb-c145-4637-a824-ab927ac12c8e","ios":"levelo://app?vid=217818eb-c145-4637-a824-ab927ac12c8e"},"vehicle_type_id":"4","last_reported":1730232626,"current_range_meters":4800,"station_id":"ce4bgup2rcd13ifvqcn0","pricing_plan_id":"cebpf4jnsgd1na2vs0mg"},{"bike_id":"e6011b99-38ff-409a-9dfc-e5eaed959b39","system_id":"levelo_inurba_marseille","lat":43.290292,"lon":5.386528,"is_reserved":false,"is_disabled":false,"rental_uris":{"android":"levelo://app?vid=e6011b99-38ff-409a-9dfc-e5eaed959b39","ios":"levelo://app?vid=e6011b99-38ff-409a-9dfc-e5eaed959b39"},"vehicle_type_id":"4","last_reported":1730232626,"current_range_meters":22000,"station_id":"ce4bh4p2rcd13ifvqe0g","pricing_plan_id":"cebpf4jnsgd1na2vs0mg"},{"bike_id":"d5592f6b-60ab-4e5d-bb7e-76e6f3581ca3","system_id":"levelo_inurba_marseille","lat":43.29266,"lon":5.3844,"is_reserved":false,"is_disabled":false,"rental_uris":{"android":"levelo://app?vid=d5592f6b-60ab-4e5d-bb7e-76e6f3581ca3","ios":"levelo://app?vid=d5592f6b-60ab-4e5d-bb7e-76e6f3581ca3"},"vehicle_type_id":"4","last_reported":1730232626,"current_range_meters":33600,"station_id":"ce4bh692rcd13ifvqea0","pricing_plan_id":"cebpf4jnsgd1na2vs0mg"},{"bike_id":"852e79de-2c06-4ce0-ab48-da376e9b5308","system_id":"levelo_inurba_marseille","lat":43.30219,"lon":5.39469,"is_reserved":false,"is_disabled":false,"rental_uris":{"android":"levelo://app?vid=852e79de-2c06-4ce0-ab48-da376e9b5308","ios":"levelo://app?vid=852e79de-2c06-4ce0-ab48-da376e9b5308"},"vehicle_type_id":"4","last_reported":1730232626,"current_range_meters":39200,"station_id":"ce4bh0p2rcd13ifvqd70","pricing_plan_id":"cebpf4jnsgd1na2vs0mg"},{"bike_id":"13c85d59-c7cb-409d-b7e2-9aa757f7035f","system_id":"levelo_inurba_marseille","lat":43.32658,"lon":5.40995,"is_reserved":false,"is_disabled":false,"rental_uris":{"android":"levelo://app?vid=13c85d59-c7cb-409d-b7e2-9aa757f7035f","ios":"levelo://app?vid=13c85d59-c7cb-409d-b7e2-9aa757f7035f"},"vehicle_type_id":"4","last_reported":1730232626,"current_range_meters":9200,"station_id":"ce4bhpp2rcd13ifvqhgg","pricing_plan_id":"cebpf4jnsgd1na2vs0mg"},{"bike_id":"99d2b6c3-4379-4a9a-933b-2d5a9480f4f1","system_id":"levelo_inurba_marseille","lat":43.31539,"lon":5.38036,"is_reserved":false,"is_disabled":false,"rental_uris":{"android":"levelo://app?vid=99d2b6c3-4379-4a9a-933b-2d5a9480f4f1","ios":"levelo://app?vid=99d2b6c3-4379-4a9a-933b-2d5a9480f4f1"},"vehicle_type_id":"4","last_reported":1730232626,"current_range_meters":38800,"station_id":"ce4bhsp2rcd13ifvqi50","pricing_plan_id":"cebpf4jnsgd1na2vs0mg"},{"bike_id":"47832e39-2d4e-4b96-b109-6ccdf85ac365","system_id":"levelo_inurba_marseille","lat":43.31701,"lon":5.37727,"is_reserved":false,"is_disabled":false,"rental_uris":{"android":"levelo://app?vid=47832e39-2d4e-4b96-b109-6ccdf85ac365","ios":"levelo://app?vid=47832e39-2d4e-4b96-b109-6ccdf85ac365"},"vehicle_type_id":"4","last_reported":1730232626,"current_range_meters":24000,"station_id":"ce4bgth2rcd13ifvqch0","pricing_plan_id":"cebpf4jnsgd1na2vs0mg"},{"bike_id":"5ea475d8-fbf3-460f-872c-01c8b0273f69","system_id":"levelo_inurba_marseille","lat":43.23052,"lon":5.3549,"is_reserved":false,"is_disabled":false,"rental_uris":{"android":"levelo://app?vid=5ea475d8-fbf3-460f-872c-01c8b0273f69","ios":"levelo://app?vid=5ea475d8-fbf3-460f-872c-01c8b0273f69"},"vehicle_type_id":"4","last_reported":1730232626,"current_range_meters":12000,"station_id":"cpo3342slgdg3j2ifvpg","pricing_plan_id":"cebpf4jnsgd1na2vs0mg"},{"bike_id":"2be9bc22-5c5c-4737-9da1-744ca95ac8b4","system_id":"levelo_inurba_marseille","lat":43.32659,"lon":5.40997,"is_reserved":false,"is_disabled":false,"rental_uris":{"android":"levelo://app?vid=2be9bc22-5c5c-4737-9da1-744ca95ac8b4","ios":"levelo://app?vid=2be9bc22-5c5c-4737-9da1-744ca95ac8b4"},"vehicle_type_id":"4","last_reported":1730232626,"current_range_meters":8400,"station_id":"ce4bhpp2rcd13ifvqhgg","pricing_plan_id":"cebpf4jnsgd1na2vs0mg"},{"bike_id":"dd0972d2-2bf5-4c36-9c89-550a52989c38","system_id":"levelo_inurba_marseille","lat":43.2407,"lon":5.37756,"is_reserved":false,"is_disabled":false,"rental_uris":{"android":"levelo://app?vid=dd0972d2-2bf5-4c36-9c89-550a52989c38","ios":"levelo://app?vid=dd0972d2-2bf5-4c36-9c89-550a52989c38"},"vehicle_type_id":"4","last_reported":1730232626,"current_range_meters":10000,"station_id":"ce4bhnp2rcd13ifvqgvg","pricing_plan_id":"cebpf4jnsgd1na2vs0mg"},{"bike_id":"5c77d39d-11aa-429c-98b6-75adc29345da","system_id":"levelo_inurba_marseille","lat":43.28412,"lon":5.37495,"is_reserved":false,"is_disabled":false,"rental_uris":{"android":"levelo://app?vid=5c77d39d-11aa-429c-98b6-75adc29345da","ios":"levelo://app?vid=5c77d39d-11aa-429c-98b6-75adc29345da"},"vehicle_type_id":"4","last_reported":1730232626,"current_range_meters":39200,"station_id":"ce4bh412rcd13ifvqds0","pricing_plan_id":"cebpf4jnsgd1na2vs0mg"},{"bike_id":"5aecf52a-143c-4328-8118-c219e78a16dc","system_id":"levelo_inurba_marseille","lat":43.24804,"lon":5.37454,"is_reserved":false,"is_disabled":false,"rental_uris":{"android":"levelo://app?vid=5aecf52a-143c-4328-8118-c219e78a16dc","ios":"levelo://app?vid=5aecf52a-143c-4328-8118-c219e78a16dc"},"vehicle_type_id":"4","last_reported":1730232626,"current_range_meters":35200,"station_id":"ce4bhgh2rcd13ifvqfb0","pricing_plan_id":"cebpf4jnsgd1na2vs0mg"},{"bike_id":"90cc47b6-ddbe-42d9-8d1d-c159e73feafd","system_id":"levelo_inurba_marseille","lat":43.29175,"lon":5.37151,"is_reserved":false,"is_disabled":false,"rental_uris":{"android":"levelo://app?vid=90cc47b6-ddbe-42d9-8d1d-c159e73feafd","ios":"levelo://app?vid=90cc47b6-ddbe-42d9-8d1d-c159e73feafd"},"vehicle_type_id":"4","last_reported":1730232626,"current_range_meters":21600,"station_id":"ce4bha92rcd13ifvqeh0","pricing_plan_id":"cebpf4jnsgd1na2vs0mg"},{"bike_id":"843bf457-956f-4404-85fa-ddcfd83ca154","system_id":"levelo_inurba_marseille","lat":43.29514,"lon":5.39036,"is_reserved":false,"is_disabled":false,"rental_uris":{"android":"levelo://app?vid=843bf457-956f-4404-85fa-ddcfd83ca154","ios":"levelo://app?vid=843bf457-956f-4404-85fa-ddcfd83ca154"},"vehicle_type_id":"4","last_reported":1730232626,"current_range_meters":26800,"station_id":"ce4bh3p2rcd13ifvqdp0","pricing_plan_id":"cebpf4jnsgd1na2vs0mg"},{"bike_id":"431d51cb-c45c-4d9d-9469-2595bc03325d","system_id":"levelo_inurba_marseille","lat":43.28718,"lon":5.379311,"is_reserved":false,"is_disabled":false,"rental_uris":{"android":"levelo://app?vid=431d51cb-c45c-4d9d-9469-2595bc03325d","ios":"levelo://app?vid=431d51cb-c45c-4d9d-9469-2595bc03325d"},"vehicle_type_id":"4","last_reported":1730232626,"current_range_meters":7200,"station_id":"ce4bgv12rcd13ifvqcp0","pricing_plan_id":"cebpf4jnsgd1na2vs0mg"},{"bike_id":"64804dd7-47cd-436a-abea-f63ea9493b3c","system_id":"levelo_inurba_marseille","lat":43.30219,"lon":5.39473,"is_reserved":false,"is_disabled":false,"rental_uris":{"android":"levelo://app?vid=64804dd7-47cd-436a-abea-f63ea9493b3c","ios":"levelo://app?vid=64804dd7-47cd-436a-abea-f63ea9493b3c"},"vehicle_type_id":"4","last_reported":1730232626,"current_range_meters":38800,"station_id":"ce4bh0p2rcd13ifvqd70","pricing_plan_id":"cebpf4jnsgd1na2vs0mg"},{"bike_id":"ecb4c068-57b1-430d-84ba-96342f63d9fd","system_id":"levelo_inurba_marseille","lat":43.27618,"lon":5.36117,"is_reserved":false,"is_disabled":false,"rental_uris":{"android":"levelo://app?vid=ecb4c068-57b1-430d-84ba-96342f63d9fd","ios":"levelo://app?vid=ecb4c068-57b1-430d-84ba-96342f63d9fd"},"vehicle_type_id":"4","last_reported":1730232626,"current_range_meters":38800,"station_id":"ce4bgj92rcd13ifvqbe0","pricing_plan_id":"cebpf4jnsgd1na2vs0mg"},{"bike_id":"6cc7cc54-bab9-45fb-9bd2-2361c4956b08","system_id":"levelo_inurba_marseille","lat":43.29024,"lon":5.38626,"is_reserved":false,"is_disabled":false,"rental_uris":{"android":"levelo://app?vid=6cc7cc54-bab9-45fb-9bd2-2361c4956b08","ios":"levelo://app?vid=6cc7cc54-bab9-45fb-9bd2-2361c4956b08"},"vehicle_type_id":"4","last_reported":1730232626,"current_range_meters":11600,"station_id":"ce4bh4p2rcd13ifvqe0g","pricing_plan_id":"cebpf4jnsgd1na2vs0mg"},{"bike_id":"28af1b8f-4d76-4463-aa72-b0d4b3ed8936","system_id":"levelo_inurba_marseille","lat":43.28,"lon":5.40022,"is_reserved":false,"is_disabled":false,"rental_uris":{"android":"levelo://app?vid=28af1b8f-4d76-4463-aa72-b0d4b3ed8936","ios":"levelo://app?vid=28af1b8f-4d76-4463-aa72-b0d4b3ed8936"},"vehicle_type_id":"4","last_reported":1730232626,"current_range_meters":26800,"station_id":"ce4bho92rcd13ifvqh4g","pricing_plan_id":"cebpf4jnsgd1na2vs0mg"},{"bike_id":"977b269d-22d8-4b1e-88e8-a2a02784183e","system_id":"levelo_inurba_marseille","lat":43.28002,"lon":5.40008,"is_reserved":false,"is_disabled":false,"rental_uris":{"android":"levelo://app?vid=977b269d-22d8-4b1e-88e8-a2a02784183e","ios":"levelo://app?vid=977b269d-22d8-4b1e-88e8-a2a02784183e"},"vehicle_type_id":"4","last_reported":1730232626,"current_range_meters":27200,"station_id":"ce4bho92rcd13ifvqh4g","pricing_plan_id":"cebpf4jnsgd1na2vs0mg"},{"bike_id":"8d6ee0a5-a130-4d51-9d86-482e1de1a708","system_id":"levelo_inurba_marseille","lat":43.29521,"lon":5.39036,"is_reserved":false,"is_disabled":false,"rental_uris":{"android":"levelo://app?vid=8d6ee0a5-a130-4d51-9d86-482e1de1a708","ios":"levelo://app?vid=8d6ee0a5-a130-4d51-9d86-482e1de1a708"},"vehicle_type_id":"4","last_reported":1730232626,"current_range_meters":33600,"station_id":"ce4bh3p2rcd13ifvqdp0","pricing_plan_id":"cebpf4jnsgd1na2vs0mg"},{"bike_id":"55acca0f-e468-4790-9279-9a520809013d","system_id":"levelo_inurba_marseille","lat":43.2861,"lon":5.37066,"is_reserved":false,"is_disabled":false,"rental_uris":{"android":"levelo://app?vid=55acca0f-e468-4790-9279-9a520809013d","ios":"levelo://app?vid=55acca0f-e468-4790-9279-9a520809013d"},"vehicle_type_id":"4","last_reported":1730232626,"current_range_meters":38800,"station_id":"ce4bht12rcd13ifvqi60","pricing_plan_id":"cebpf4jnsgd1na2vs0mg"},{"bike_id":"d4c87a5e-8e0d-4458-bf88-20b8bfaca958","system_id":"levelo_inurba_marseille","lat":43.29776,"lon":5.37122,"is_reserved":false,"is_disabled":false,"rental_uris":{"android":"levelo://app?vid=d4c87a5e-8e0d-4458-bf88-20b8bfaca958","ios":"levelo://app?vid=d4c87a5e-8e0d-4458-bf88-20b8bfaca958"},"vehicle_type_id":"4","last_reported":1730232626,"current_range_meters":38800,"station_id":"ce4bgop2rcd13ifvqc1g","pricing_plan_id":"cebpf4jnsgd1na2vs0mg"},{"bike_id":"79be5c94-5023-46ac-8327-42c3d37177f0","system_id":"levelo_inurba_marseille","lat":43.29414,"lon":5.38631,"is_reserved":false,"is_disabled":false,"rental_uris":{"android":"levelo://app?vid=79be5c94-5023-46ac-8327-42c3d37177f0","ios":"levelo://app?vid=79be5c94-5023-46ac-8327-42c3d37177f0"},"vehicle_type_id":"4","last_reported":1730232626,"current_range_meters":38000,"station_id":"ce4bh2h2rcd13ifvqdh0","pricing_plan_id":"cebpf4jnsgd1na2vs0mg"},{"bike_id":"d9d37fee-d572-4131-914e-98690801d460","system_id":"levelo_inurba_marseille","lat":43.32424,"lon":5.4037,"is_reserved":false,"is_disabled":false,"rental_uris":{"android":"levelo://app?vid=d9d37fee-d572-4131-914e-98690801d460","ios":"levelo://app?vid=d9d37fee-d572-4131-914e-98690801d460"},"vehicle_type_id":"4","last_reported":1730232626,"current_range_meters":4000,"station_id":"ce4bhnh2rcd13ifvqgtg","pricing_plan_id":"cebpf4jnsgd1na2vs0mg"},{"bike_id":"907901ee-14e0-40b8-9ee3-9d6a6651a55b","system_id":"levelo_inurba_marseille","lat":43.29419,"lon":5.38621,"is_reserved":false,"is_disabled":false,"rental_uris":{"android":"levelo://app?vid=907901ee-14e0-40b8-9ee3-9d6a6651a55b","ios":"levelo://app?vid=907901ee-14e0-40b8-9ee3-9d6a6651a55b"},"vehicle_type_id":"4","last_reported":1730232626,"current_range_meters":35200,"station_id":"ce4bh2h2rcd13ifvqdh0","pricing_plan_id":"cebpf4jnsgd1na2vs0mg"},{"bike_id":"160c3125-d109-49e3-a687-ede78b99dea2","system_id":"levelo_inurba_marseille","lat":43.23191,"lon":5.35536,"is_reserved":false,"is_disabled":false,"rental_uris":{"android":"levelo://app?vid=160c3125-d109-49e3-a687-ede78b99dea2","ios":"levelo://app?vid=160c3125-d109-49e3-a687-ede78b99dea2"},"vehicle_type_id":"4","last_reported":1730232626,"current_range_meters":14800,"station_id":"ce4bhu92rcd13ifvqi70","pricing_plan_id":"cebpf4jnsgd1na2vs0mg"},{"bike_id":"8328c8fc-a79f-412a-9d79-4300f3ae2de3","system_id":"levelo_inurba_marseille","lat":43.29286,"lon":5.38445,"is_reserved":false,"is_disabled":false,"rental_uris":{"android":"levelo://app?vid=8328c8fc-a79f-412a-9d79-4300f3ae2de3","ios":"levelo://app?vid=8328c8fc-a79f-412a-9d79-4300f3ae2de3"},"vehicle_type_id":"4","last_reported":1730232626,"current_range_meters":38800,"station_id":"ce4bh692rcd13ifvqea0","pricing_plan_id":"cebpf4jnsgd1na2vs0mg"},{"bike_id":"7a3f60d6-5589-44b2-bea7-8a929e9b6b4e","system_id":"levelo_inurba_marseille","lat":43.29899,"lon":5.43667,"is_reserved":false,"is_disabled":false,"rental_uris":{"android":"levelo://app?vid=7a3f60d6-5589-44b2-bea7-8a929e9b6b4e","ios":"levelo://app?vid=7a3f60d6-5589-44b2-bea7-8a929e9b6b4e"},"vehicle_type_id":"4","last_reported":1730232626,"current_range_meters":16400,"station_id":"ce4bhpp2rcd13ifvqhfg","pricing_plan_id":"cebpf4jnsgd1na2vs0mg"},{"bike_id":"79bf9c97-a5ea-4f15-9e63-9d99560507ff","system_id":"levelo_inurba_marseille","lat":43.29797,"lon":5.393448,"is_reserved":false,"is_disabled":false,"rental_uris":{"android":"levelo://app?vid=79bf9c97-a5ea-4f15-9e63-9d99560507ff","ios":"levelo://app?vid=79bf9c97-a5ea-4f15-9e63-9d99560507ff"},"vehicle_type_id":"4","last_reported":1730232626,"current_range_meters":24400,"station_id":"chh1huq6cuj3fo74tm60","pricing_plan_id":"cebpf4jnsgd1na2vs0mg"},{"bike_id":"58d379de-16a8-4741-9eba-595efbb72180","system_id":"levelo_inurba_marseille","lat":43.28142,"lon":5.42678,"is_reserved":false,"is_disabled":false,"rental_uris":{"android":"levelo://app?vid=58d379de-16a8-4741-9eba-595efbb72180","ios":"levelo://app?vid=58d379de-16a8-4741-9eba-595efbb72180"},"vehicle_type_id":"4","last_reported":1730232626,"current_range_meters":30000,"station_id":"ce4bhnh2rcd13ifvqgug","pricing_plan_id":"cebpf4jnsgd1na2vs0mg"},{"bike_id":"e1b80a4a-308c-4c50-ad7c-33a0860ebd6d","system_id":"levelo_inurba_marseille","lat":43.29573,"lon":5.39972,"is_reserved":false,"is_disabled":false,"rental_uris":{"android":"levelo://app?vid=e1b80a4a-308c-4c50-ad7c-33a0860ebd6d","ios":"levelo://app?vid=e1b80a4a-308c-4c50-ad7c-33a0860ebd6d"},"vehicle_type_id":"4","last_reported":1730232626,"current_range_meters":33200,"station_id":"ce4bh312rcd13ifvqdj0","pricing_plan_id":"cebpf4jnsgd1na2vs0mg"},{"bike_id":"436067c3-32c1-46bc-894e-d7be2d545a26","system_id":"levelo_inurba_marseille","lat":43.3266,"lon":5.40992,"is_reserved":false,"is_disabled":false,"rental_uris":{"android":"levelo://app?vid=436067c3-32c1-46bc-894e-d7be2d545a26","ios":"levelo://app?vid=436067c3-32c1-46bc-894e-d7be2d545a26"},"vehicle_type_id":"4","last_reported":1730232626,"current_range_meters":22000,"station_id":"ce4bhpp2rcd13ifvqhgg","pricing_plan_id":"cebpf4jnsgd1na2vs0mg"},{"bike_id":"e6f775ed-7e4f-4942-9f94-dca2cf0052d4","system_id":"levelo_inurba_marseille","lat":43.29257,"lon":5.38442,"is_reserved":false,"is_disabled":false,"rental_uris":{"android":"levelo://app?vid=e6f775ed-7e4f-4942-9f94-dca2cf0052d4","ios":"levelo://app?vid=e6f775ed-7e4f-4942-9f94-dca2cf0052d4"},"vehicle_type_id":"4","last_reported":1730232626,"current_range_meters":14400,"station_id":"ce4bh692rcd13ifvqea0","pricing_plan_id":"cebpf4jnsgd1na2vs0mg"},{"bike_id":"f2c1121c-5c92-4221-a002-33aa3e39f748","system_id":"levelo_inurba_marseille","lat":43.33607,"lon":5.41025,"is_reserved":false,"is_disabled":false,"rental_uris":{"android":"levelo://app?vid=f2c1121c-5c92-4221-a002-33aa3e39f748","ios":"levelo://app?vid=f2c1121c-5c92-4221-a002-33aa3e39f748"},"vehicle_type_id":"4","last_reported":1730232626,"current_range_meters":16400,"station_id":"ce4bhqh2rcd13ifvqhmg","pricing_plan_id":"cebpf4jnsgd1na2vs0mg"},{"bike_id":"5e4f6765-da37-49fc-ac06-3ff1e28be050","system_id":"levelo_inurba_marseille","lat":43.30093,"lon":5.39071,"is_reserved":false,"is_disabled":false,"rental_uris":{"android":"levelo://app?vid=5e4f6765-da37-49fc-ac06-3ff1e28be050","ios":"levelo://app?vid=5e4f6765-da37-49fc-ac06-3ff1e28be050"},"vehicle_type_id":"4","last_reported":1730232626,"current_range_meters":38800,"station_id":"ce4bh192rcd13ifvqdb0","pricing_plan_id":"cebpf4jnsgd1na2vs0mg"},{"bike_id":"5b7bc3e4-2119-44e2-a91e-5c31a83897b9","system_id":"levelo_inurba_marseille","lat":43.269466,"lon":5.386295,"is_reserved":false,"is_disabled":false,"rental_uris":{"android":"levelo://app?vid=5b7bc3e4-2119-44e2-a91e-5c31a83897b9","ios":"levelo://app?vid=5b7bc3e4-2119-44e2-a91e-5c31a83897b9"},"vehicle_type_id":"4","last_reported":1730232626,"current_range_meters":38800,"station_id":"ce4bhh92rcd13ifvqfh0","pricing_plan_id":"cebpf4jnsgd1na2vs0mg"},{"bike_id":"7496bb22-68c5-428c-82ba-7d8eb730f158","system_id":"levelo_inurba_marseille","lat":43.27303,"lon":5.39084,"is_reserved":false,"is_disabled":false,"rental_uris":{"android":"levelo://app?vid=7496bb22-68c5-428c-82ba-7d8eb730f158","ios":"levelo://app?vid=7496bb22-68c5-428c-82ba-7d8eb730f158"},"vehicle_type_id":"4","last_reported":1730232626,"current_range_meters":14400,"station_id":"ce4bhgp2rcd13ifvqfe0","pricing_plan_id":"cebpf4jnsgd1na2vs0mg"},{"bike_id":"f793c0ab-64cd-4f7d-816d-e95d724f8dcb","system_id":"levelo_inurba_marseille","lat":43.31331,"lon":5.39699,"is_reserved":false,"is_disabled":false,"rental_uris":{"android":"levelo://app?vid=f793c0ab-64cd-4f7d-816d-e95d724f8dcb","ios":"levelo://app?vid=f793c0ab-64cd-4f7d-816d-e95d724f8dcb"},"vehicle_type_id":"4","last_reported":1730232626,"current_range_meters":27600,"station_id":"ce4bgvp2rcd13ifvqcu0","pricing_plan_id":"cebpf4jnsgd1na2vs0mg"},{"bike_id":"2bc253a6-b529-475e-b719-77af0dc4716f","system_id":"levelo_inurba_marseille","lat":43.27917,"lon":5.39583,"is_reserved":false,"is_disabled":false,"rental_uris":{"android":"levelo://app?vid=2bc253a6-b529-475e-b719-77af0dc4716f","ios":"levelo://app?vid=2bc253a6-b529-475e-b719-77af0dc4716f"},"vehicle_type_id":"4","last_reported":1730232626,"current_range_meters":30800,"station_id":"ce4bhf92rcd13ifvqf40","pricing_plan_id":"cebpf4jnsgd1na2vs0mg"},{"bike_id":"7fe808d7-7107-4052-8697-164dcac0d476","system_id":"levelo_inurba_marseille","lat":43.29426,"lon":5.38606,"is_reserved":false,"is_disabled":false,"rental_uris":{"android":"levelo://app?vid=7fe808d7-7107-4052-8697-164dcac0d476","ios":"levelo://app?vid=7fe808d7-7107-4052-8697-164dcac0d476"},"vehicle_type_id":"4","last_reported":1730232626,"current_range_meters":38000,"station_id":"ce4bh2h2rcd13ifvqdh0","pricing_plan_id":"cebpf4jnsgd1na2vs0mg"},{"bike_id":"88cf53e4-1940-4cb9-bdda-0ade2df88dcd","system_id":"levelo_inurba_marseille","lat":43.27997,"lon":5.40007,"is_reserved":false,"is_disabled":false,"rental_uris":{"android":"levelo://app?vid=88cf53e4-1940-4cb9-bdda-0ade2df88dcd","ios":"levelo://app?vid=88cf53e4-1940-4cb9-bdda-0ade2df88dcd"},"vehicle_type_id":"4","last_reported":1730232626,"current_range_meters":11200,"station_id":"ce4bho92rcd13ifvqh4g","pricing_plan_id":"cebpf4jnsgd1na2vs0mg"},{"bike_id":"25ca5979-254a-4a9f-bddf-c23d0c5a7979","system_id":"levelo_inurba_marseille","lat":43.29268,"lon":5.38441,"is_reserved":false,"is_disabled":false,"rental_uris":{"android":"levelo://app?vid=25ca5979-254a-4a9f-bddf-c23d0c5a7979","ios":"levelo://app?vid=25ca5979-254a-4a9f-bddf-c23d0c5a7979"},"vehicle_type_id":"4","last_reported":1730232626,"current_range_meters":29600,"station_id":"ce4bh692rcd13ifvqea0","pricing_plan_id":"cebpf4jnsgd1na2vs0mg"},{"bike_id":"5475bf45-97c0-4698-85d7-ca322f4667bd","system_id":"levelo_inurba_marseille","lat":43.2903,"lon":5.3863,"is_reserved":false,"is_disabled":false,"rental_uris":{"android":"levelo://app?vid=5475bf45-97c0-4698-85d7-ca322f4667bd","ios":"levelo://app?vid=5475bf45-97c0-4698-85d7-ca322f4667bd"},"vehicle_type_id":"4","last_reported":1730232626,"current_range_meters":30800,"station_id":"ce4bh4p2rcd13ifvqe0g","pricing_plan_id":"cebpf4jnsgd1na2vs0mg"},{"bike_id":"e621245d-2fc9-40b8-b411-45bbf88d48dd","system_id":"levelo_inurba_marseille","lat":43.27998,"lon":5.40024,"is_reserved":false,"is_disabled":false,"rental_uris":{"android":"levelo://app?vid=e621245d-2fc9-40b8-b411-45bbf88d48dd","ios":"levelo://app?vid=e621245d-2fc9-40b8-b411-45bbf88d48dd"},"vehicle_type_id":"4","last_reported":1730232626,"current_range_meters":10000,"station_id":"ce4bho92rcd13ifvqh4g","pricing_plan_id":"cebpf4jnsgd1na2vs0mg"},{"bike_id":"75168341-d123-4cb7-a372-884806b41aa2","system_id":"levelo_inurba_marseille","lat":43.2953,"lon":5.38544,"is_reserved":false,"is_disabled":false,"rental_uris":{"android":"levelo://app?vid=75168341-d123-4cb7-a372-884806b41aa2","ios":"levelo://app?vid=75168341-d123-4cb7-a372-884806b41aa2"},"vehicle_type_id":"4","last_reported":1730232626,"current_range_meters":26800,"station_id":"ce4bgih2rcd13ifvqba0","pricing_plan_id":"cebpf4jnsgd1na2vs0mg"},{"bike_id":"90548d4f-22d7-475c-b454-9da3a667ec4e","system_id":"levelo_inurba_marseille","lat":43.300781,"lon":5.39075,"is_reserved":false,"is_disabled":false,"rental_uris":{"android":"levelo://app?vid=90548d4f-22d7-475c-b454-9da3a667ec4e","ios":"levelo://app?vid=90548d4f-22d7-475c-b454-9da3a667ec4e"},"vehicle_type_id":"4","last_reported":1730232626,"current_range_meters":27600,"station_id":"ce4bh192rcd13ifvqdb0","pricing_plan_id":"cebpf4jnsgd1na2vs0mg"},{"bike_id":"98720dd9-6d26-4f1f-a1ac-af978555cfd3","system_id":"levelo_inurba_marseille","lat":43.23965,"lon":5.36644,"is_reserved":false,"is_disabled":false,"rental_uris":{"android":"levelo://app?vid=98720dd9-6d26-4f1f-a1ac-af978555cfd3","ios":"levelo://app?vid=98720dd9-6d26-4f1f-a1ac-af978555cfd3"},"vehicle_type_id":"4","last_reported":1730232626,"current_range_meters":6000,"station_id":"ce4bhi12rcd13ifvqfp0","pricing_plan_id":"cebpf4jnsgd1na2vs0mg"},{"bike_id":"22df8697-ca80-42c4-a813-332b1f481e01","system_id":"levelo_inurba_marseille","lat":43.28704,"lon":5.37372,"is_reserved":false,"is_disabled":false,"rental_uris":{"android":"levelo://app?vid=22df8697-ca80-42c4-a813-332b1f481e01","ios":"levelo://app?vid=22df8697-ca80-42c4-a813-332b1f481e01"},"vehicle_type_id":"4","last_reported":1730232626,"current_range_meters":12400,"station_id":"ce4bh3p2rcd13ifvqdq0","pricing_plan_id":"cebpf4jnsgd1na2vs0mg"},{"bike_id":"f89a00b8-5b90-4bd3-84a7-5d0772f21531","system_id":"levelo_inurba_marseille","lat":43.31168,"lon":5.38707,"is_reserved":false,"is_disabled":false,"rental_uris":{"android":"levelo://app?vid=f89a00b8-5b90-4bd3-84a7-5d0772f21531","ios":"levelo://app?vid=f89a00b8-5b90-4bd3-84a7-5d0772f21531"},"vehicle_type_id":"4","last_reported":1730232626,"current_range_meters":38000,"station_id":"ce4bgv12rcd13ifvqcp0","pricing_plan_id":"cebpf4jnsgd1na2vs0mg"},{"bike_id":"3ad229b2-210f-4b0b-95af-f3c6c9e6b25f","system_id":"levelo_inurba_marseille","lat":43.3035,"lon":5.41875,"is_reserved":false,"is_disabled":false,"rental_uris":{"android":"levelo://app?vid=3ad229b2-210f-4b0b-95af-f3c6c9e6b25f","ios":"levelo://app?vid=3ad229b2-210f-4b0b-95af-f3c6c9e6b25f"},"vehicle_type_id":"4","last_reported":1730232626,"current_range_meters":24000,"station_id":"ce4bhop2rcd13ifvqh7g","pricing_plan_id":"cebpf4jnsgd1na2vs0mg"},{"bike_id":"b6781193-98d6-43ce-b93e-daef61a6ed5b","system_id":"levelo_inurba_marseille","lat":43.31074,"lon":5.38349,"is_reserved":false,"is_disabled":false,"rental_uris":{"android":"levelo://app?vid=b6781193-98d6-43ce-b93e-daef61a6ed5b","ios":"levelo://app?vid=b6781193-98d6-43ce-b93e-daef61a6ed5b"},"vehicle_type_id":"4","last_reported":1730232626,"current_range_meters":38800,"station_id":"ce4bgv92rcd13ifvqcr0","pricing_plan_id":"cebpf4jnsgd1na2vs0mg"},{"bike_id":"52cd4322-da47-43f1-b749-147e77e1a70f","system_id":"levelo_inurba_marseille","lat":43.2407,"lon":5.37759,"is_reserved":false,"is_disabled":false,"rental_uris":{"android":"levelo://app?vid=52cd4322-da47-43f1-b749-147e77e1a70f","ios":"levelo://app?vid=52cd4322-da47-43f1-b749-147e77e1a70f"},"vehicle_type_id":"4","last_reported":1730232626,"current_range_meters":3200,"station_id":"ce4bhnp2rcd13ifvqgvg","pricing_plan_id":"cebpf4jnsgd1na2vs0mg"},{"bike_id":"4d80f1ff-c4a7-47eb-a5dc-c11c71a17dc6","system_id":"levelo_inurba_marseille","lat":43.27376,"lon":5.36257,"is_reserved":false,"is_disabled":false,"rental_uris":{"android":"levelo://app?vid=4d80f1ff-c4a7-47eb-a5dc-c11c71a17dc6","ios":"levelo://app?vid=4d80f1ff-c4a7-47eb-a5dc-c11c71a17dc6"},"vehicle_type_id":"4","last_reported":1730232626,"current_range_meters":16400,"station_id":"ce4bhbh2rcd13ifvqeo0","pricing_plan_id":"cebpf4jnsgd1na2vs0mg"},{"bike_id":"b93c1657-5bb5-4cdd-a2f6-bbc5a1c4bb43","system_id":"levelo_inurba_marseille","lat":43.29424,"lon":5.38628,"is_reserved":false,"is_disabled":false,"rental_uris":{"android":"levelo://app?vid=b93c1657-5bb5-4cdd-a2f6-bbc5a1c4bb43","ios":"levelo://app?vid=b93c1657-5bb5-4cdd-a2f6-bbc5a1c4bb43"},"vehicle_type_id":"4","last_reported":1730232626,"current_range_meters":19200,"station_id":"ce4bh2h2rcd13ifvqdh0","pricing_plan_id":"cebpf4jnsgd1na2vs0mg"},{"bike_id":"598742e5-754e-4183-a86d-7571dada0eb2","system_id":"levelo_inurba_marseille","lat":43.28411,"lon":5.375187,"is_reserved":false,"is_disabled":false,"rental_uris":{"android":"levelo://app?vid=598742e5-754e-4183-a86d-7571dada0eb2","ios":"levelo://app?vid=598742e5-754e-4183-a86d-7571dada0eb2"},"vehicle_type_id":"4","last_reported":1730232626,"current_range_meters":25600,"station_id":"ce4bh412rcd13ifvqds0","pricing_plan_id":"cebpf4jnsgd1na2vs0mg"},{"bike_id":"ac6f2e5d-1d01-4602-926d-d4c71dc1ff1c","system_id":"levelo_inurba_marseille","lat":43.31168,"lon":5.38704,"is_reserved":false,"is_disabled":false,"rental_uris":{"android":"levelo://app?vid=ac6f2e5d-1d01-4602-926d-d4c71dc1ff1c","ios":"levelo://app?vid=ac6f2e5d-1d01-4602-926d-d4c71dc1ff1c"},"vehicle_type_id":"4","last_reported":1730232626,"current_range_meters":39200,"station_id":"ce4bgv12rcd13ifvqcp0","pricing_plan_id":"cebpf4jnsgd1na2vs0mg"},{"bike_id":"51c0afa0-ed76-45a8-b6c8-d5f47615923f","system_id":"levelo_inurba_marseille","lat":43.29027,"lon":5.38638,"is_reserved":false,"is_disabled":false,"rental_uris":{"android":"levelo://app?vid=51c0afa0-ed76-45a8-b6c8-d5f47615923f","ios":"levelo://app?vid=51c0afa0-ed76-45a8-b6c8-d5f47615923f"},"vehicle_type_id":"4","last_reported":1730232626,"current_range_meters":14400,"station_id":"ce4bh4p2rcd13ifvqe0g","pricing_plan_id":"cebpf4jnsgd1na2vs0mg"},{"bike_id":"42c5b94d-a6e1-4c0e-b3fa-74ef5f2ef0d2","system_id":"levelo_inurba_marseille","lat":43.23962,"lon":5.36629,"is_reserved":false,"is_disabled":false,"rental_uris":{"android":"levelo://app?vid=42c5b94d-a6e1-4c0e-b3fa-74ef5f2ef0d2","ios":"levelo://app?vid=42c5b94d-a6e1-4c0e-b3fa-74ef5f2ef0d2"},"vehicle_type_id":"4","last_reported":1730232626,"current_range_meters":20800,"station_id":"ce4bhi12rcd13ifvqfp0","pricing_plan_id":"cebpf4jnsgd1na2vs0mg"},{"bike_id":"051a948e-1e96-4aa1-bd12-c0aa5c02a026","system_id":"levelo_inurba_marseille","lat":43.24073,"lon":5.37761,"is_reserved":false,"is_disabled":false,"rental_uris":{"android":"levelo://app?vid=051a948e-1e96-4aa1-bd12-c0aa5c02a026","ios":"levelo://app?vid=051a948e-1e96-4aa1-bd12-c0aa5c02a026"},"vehicle_type_id":"4","last_reported":1730232626,"current_range_meters":20000,"station_id":"ce4bhnp2rcd13ifvqgvg","pricing_plan_id":"cebpf4jnsgd1na2vs0mg"},{"bike_id":"c74f24e5-c481-4881-8bd1-3accb0bc43ae","system_id":"levelo_inurba_marseille","lat":43.27994,"lon":5.40006,"is_reserved":false,"is_disabled":false,"rental_uris":{"android":"levelo://app?vid=c74f24e5-c481-4881-8bd1-3accb0bc43ae","ios":"levelo://app?vid=c74f24e5-c481-4881-8bd1-3accb0bc43ae"},"vehicle_type_id":"4","last_reported":1730232626,"current_range_meters":16000,"station_id":"ce4bho92rcd13ifvqh4g","pricing_plan_id":"cebpf4jnsgd1na2vs0mg"},{"bike_id":"37d5414f-964e-4d48-b9ec-929c246343f5","system_id":"levelo_inurba_marseille","lat":43.305948,"lon":5.393597,"is_reserved":false,"is_disabled":false,"rental_uris":{"android":"levelo://app?vid=37d5414f-964e-4d48-b9ec-929c246343f5","ios":"levelo://app?vid=37d5414f-964e-4d48-b9ec-929c246343f5"},"vehicle_type_id":"4","last_reported":1730232626,"current_range_meters":5600,"station_id":"ce4bh0p2rcd13ifvqd80","pricing_plan_id":"cebpf4jnsgd1na2vs0mg"},{"bike_id":"84abc430-6c95-4a9b-a8eb-5724baa04fa9","system_id":"levelo_inurba_marseille","lat":43.28608,"lon":5.37069,"is_reserved":false,"is_disabled":false,"rental_uris":{"android":"levelo://app?vid=84abc430-6c95-4a9b-a8eb-5724baa04fa9","ios":"levelo://app?vid=84abc430-6c95-4a9b-a8eb-5724baa04fa9"},"vehicle_type_id":"4","last_reported":1730232626,"current_range_meters":38800,"station_id":"ce4bht12rcd13ifvqi60","pricing_plan_id":"cebpf4jnsgd1na2vs0mg"},{"bike_id":"0cebe45a-7302-469a-b861-6fd094a95414","system_id":"levelo_inurba_marseille","lat":43.23198,"lon":5.3556,"is_reserved":false,"is_disabled":false,"rental_uris":{"android":"levelo://app?vid=0cebe45a-7302-469a-b861-6fd094a95414","ios":"levelo://app?vid=0cebe45a-7302-469a-b861-6fd094a95414"},"vehicle_type_id":"4","last_reported":1730232626,"current_range_meters":7200,"station_id":"ce4bhu92rcd13ifvqi70","pricing_plan_id":"cebpf4jnsgd1na2vs0mg"},{"bike_id":"56b943a0-e48e-453f-bdb7-d8b91f470ac7","system_id":"levelo_inurba_marseille","lat":43.30528,"lon":5.38199,"is_reserved":false,"is_disabled":false,"rental_uris":{"android":"levelo://app?vid=56b943a0-e48e-453f-bdb7-d8b91f470ac7","ios":"levelo://app?vid=56b943a0-e48e-453f-bdb7-d8b91f470ac7"},"vehicle_type_id":"4","last_reported":1730232626,"current_range_meters":8800,"station_id":"","pricing_plan_id":"cebpf4jnsgd1na2vs0mg"},{"bike_id":"930346ff-11ca-4320-8764-4b8eeac15a9b","system_id":"levelo_inurba_marseille","lat":43.29976,"lon":5.38485,"is_reserved":false,"is_disabled":false,"rental_uris":{"android":"levelo://app?vid=930346ff-11ca-4320-8764-4b8eeac15a9b","ios":"levelo://app?vid=930346ff-11ca-4320-8764-4b8eeac15a9b"},"vehicle_type_id":"4","last_reported":1730232626,"current_range_meters":38800,"station_id":"ce4bgj92rcd13ifvqbd0","pricing_plan_id":"cebpf4jnsgd1na2vs0mg"},{"bike_id":"769025b3-b1ab-4a56-8310-7807acc06298","system_id":"levelo_inurba_marseille","lat":43.28696,"lon":5.37371,"is_reserved":false,"is_disabled":false,"rental_uris":{"android":"levelo://app?vid=769025b3-b1ab-4a56-8310-7807acc06298","ios":"levelo://app?vid=769025b3-b1ab-4a56-8310-7807acc06298"},"vehicle_type_id":"4","last_reported":1730232626,"current_range_meters":39200,"station_id":"ce4bh3p2rcd13ifvqdq0","pricing_plan_id":"cebpf4jnsgd1na2vs0mg"},{"bike_id":"a827a4cb-668c-45c5-a981-4cbd4493d727","system_id":"levelo_inurba_marseille","lat":43.29802,"lon":5.40401,"is_reserved":false,"is_disabled":false,"rental_uris":{"android":"levelo://app?vid=a827a4cb-668c-45c5-a981-4cbd4493d727","ios":"levelo://app?vid=a827a4cb-668c-45c5-a981-4cbd4493d727"},"vehicle_type_id":"4","last_reported":1730232626,"current_range_meters":19600,"station_id":"ce4bh112rcd13ifvqd90","pricing_plan_id":"cebpf4jnsgd1na2vs0mg"},{"bike_id":"53296d2e-844b-420c-aad5-e330761c764f","system_id":"levelo_inurba_marseille","lat":43.30891,"lon":5.37183,"is_reserved":false,"is_disabled":false,"rental_uris":{"android":"levelo://app?vid=53296d2e-844b-420c-aad5-e330761c764f","ios":"levelo://app?vid=53296d2e-844b-420c-aad5-e330761c764f"},"vehicle_type_id":"4","last_reported":1730232626,"current_range_meters":24000,"station_id":"ce4bguh2rcd13ifvqckg","pricing_plan_id":"cebpf4jnsgd1na2vs0mg"},{"bike_id":"7fd0c8f1-1000-4a18-9e5f-72d15ecadddc","system_id":"levelo_inurba_marseille","lat":43.31358,"lon":5.38492,"is_reserved":false,"is_disabled":false,"rental_uris":{"android":"levelo://app?vid=7fd0c8f1-1000-4a18-9e5f-72d15ecadddc","ios":"levelo://app?vid=7fd0c8f1-1000-4a18-9e5f-72d15ecadddc"},"vehicle_type_id":"4","last_reported":1730232626,"current_range_meters":26000,"station_id":"ce4bgt92rcd13ifvqcf0","pricing_plan_id":"cebpf4jnsgd1na2vs0mg"},{"bike_id":"0670a397-ad0f-48c4-af86-903f9b7dd963","system_id":"levelo_inurba_marseille","lat":43.28154,"lon":5.42648,"is_reserved":false,"is_disabled":false,"rental_uris":{"android":"levelo://app?vid=0670a397-ad0f-48c4-af86-903f9b7dd963","ios":"levelo://app?vid=0670a397-ad0f-48c4-af86-903f9b7dd963"},"vehicle_type_id":"4","last_reported":1730232626,"current_range_meters":25200,"station_id":"ce4bhnh2rcd13ifvqgug","pricing_plan_id":"cebpf4jnsgd1na2vs0mg"},{"bike_id":"e3c1417a-7310-44c2-ad26-be6f20483f85","system_id":"levelo_inurba_marseille","lat":43.27999,"lon":5.40013,"is_reserved":false,"is_disabled":false,"rental_uris":{"android":"levelo://app?vid=e3c1417a-7310-44c2-ad26-be6f20483f85","ios":"levelo://app?vid=e3c1417a-7310-44c2-ad26-be6f20483f85"},"vehicle_type_id":"4","last_reported":1730232626,"current_range_meters":36800,"station_id":"ce4bho92rcd13ifvqh4g","pricing_plan_id":"cebpf4jnsgd1na2vs0mg"},{"bike_id":"ff4f0573-caab-48a0-b5d5-8006324a9226","system_id":"levelo_inurba_marseille","lat":43.2926,"lon":5.3844,"is_reserved":false,"is_disabled":false,"rental_uris":{"android":"levelo://app?vid=ff4f0573-caab-48a0-b5d5-8006324a9226","ios":"levelo://app?vid=ff4f0573-caab-48a0-b5d5-8006324a9226"},"vehicle_type_id":"4","last_reported":1730232626,"current_range_meters":30800,"station_id":"ce4bh692rcd13ifvqea0","pricing_plan_id":"cebpf4jnsgd1na2vs0mg"},{"bike_id":"0e6dacd7-5ca3-4661-85d2-9761241bc616","system_id":"levelo_inurba_marseille","lat":43.27957,"lon":5.41038,"is_reserved":false,"is_disabled":false,"rental_uris":{"android":"levelo://app?vid=0e6dacd7-5ca3-4661-85d2-9761241bc616","ios":"levelo://app?vid=0e6dacd7-5ca3-4661-85d2-9761241bc616"},"vehicle_type_id":"4","last_reported":1730232626,"current_range_meters":22000,"station_id":"ce4bhnp2rcd13ifvqh0g","pricing_plan_id":"cebpf4jnsgd1na2vs0mg"},{"bike_id":"4f8fddcc-1122-464f-acbd-b51d0a0606f5","system_id":"levelo_inurba_marseille","lat":43.31543,"lon":5.38022,"is_reserved":false,"is_disabled":false,"rental_uris":{"android":"levelo://app?vid=4f8fddcc-1122-464f-acbd-b51d0a0606f5","ios":"levelo://app?vid=4f8fddcc-1122-464f-acbd-b51d0a0606f5"},"vehicle_type_id":"4","last_reported":1730232626,"current_range_meters":8400,"station_id":"ce4bhsp2rcd13ifvqi50","pricing_plan_id":"cebpf4jnsgd1na2vs0mg"},{"bike_id":"aaa2d18f-8f92-4a1c-8e87-c6d035c5098d","system_id":"levelo_inurba_marseille","lat":43.30428,"lon":5.41287,"is_reserved":false,"is_disabled":false,"rental_uris":{"android":"levelo://app?vid=aaa2d18f-8f92-4a1c-8e87-c6d035c5098d","ios":"levelo://app?vid=aaa2d18f-8f92-4a1c-8e87-c6d035c5098d"},"vehicle_type_id":"4","last_reported":1730232626,"current_range_meters":35600,"station_id":"ce4bhop2rcd13ifvqh8g","pricing_plan_id":"cebpf4jnsgd1na2vs0mg"},