{"last_updated":1742271116,"ttl":60,"version":"2.2","data":{"bikes":[{"bike_id":"f6edfc07-2f5a-4465-b6c6-9a6562c14b56","system_id":"levelo_inurba_marseille","lat":43.29977,"lon":5.39769,"is_reserved":false,"is_disabled":false,"rental_uris":{"android":"levelo://app?vid=f6edfc07-2f5a-4465-b6c6-9a6562c14b56","ios":"levelo://app?vid=f6edfc07-2f5a-4465-b6c6-9a6562c14b56"},"vehicle_type_id":"4","last_reported":1742271116,"current_range_meters":2800,"station_id":"","pricing_plan_id":"cebpf4jnsgd1na2vs0mg"},{"bike_id":"b1bb1329-d82a-4220-9791-08f3062a9231","system_id":"levelo_inurba_marseille","lat":43.28186,"lon":5.4453,"is_reserved":false,"is_disabled":false,"rental_uris":{"android":"levelo://app?vid=b1bb1329-d82a-4220-9791-08f3062a9231","ios":"levelo://app?vid=b1bb1329-d82a-4220-9791-08f3062a9231"},"vehicle_type_id":"4","last_reported":1742271116,"current_range_meters":2800,"station_id":"","pricing_plan_id":"cebpf4jnsgd1na2vs0mg"},{"bike_id":"d87d01b0-53bb-405d-a34e-24df13294a43","system_id":"levelo_inurba_marseille","lat":43.291939,"lon":5.39303,"is_reserved":false,"is_disabled":true,"rental_uris":{"android":"levelo://app?vid=d87d01b0-53bb-405d-a34e-24df13294a43","ios":"levelo://app?vid=d87d01b0-53bb-405d-a34e-24df13294a43"},"vehicle_type_id":"4","last_reported":1742271116,"current_range_meters":2800,"station_id":"ce4bh192rcd13ifvqdd0","pricing_plan_id":"cebpf4jnsgd1na2vs0mg"},{"bike_id":"045f973d-1925-435a-8292-d5911ec233bd","system_id":"levelo_inurba_marseille","lat":43.27698,"lon":5.38907,"is_reserved":false,"is_disabled":true,"rental_uris":{"android":"levelo://app?vid=045f973d-1925-435a-8292-d5911ec233bd","ios":"levelo://app?vid=045f973d-1925-435a-8292-d5911ec233bd"},"vehicle_type_id":"4","last_reported":1742271116,"current_range_meters":2800,"station_id":"ce4bhi12rcd13ifvqfo0","pricing_plan_id":"cebpf4jnsgd1na2vs0mg"},{"bike_id":"5e7401c2-c372-430f-8491-0557cf6a4ff2","system_id":"levelo_inurba_marseille","lat":43.24544,"lon":5.37359,"is_reserved":false,"is_disabled":true,"rental_uris":{"android":"levelo://app?vid=5e7401c2-c372-430f-8491-0557cf6a4ff2","ios":"levelo://app?vid=5e7401c2-c372-430f-8491-0557cf6a4ff2"},"vehicle_type_id":"4","last_reported":1742271116,"current_range_meters":3200,"station_id":"","pricing_plan_id":"cebpf4jnsgd1na2vs0mg"},{"bike_id":"e2d1967e-5a56-406d-b78f-650a67b35429","system_id":"levelo_inurba_marseille","lat":43.25076,"lon":5.39516,"is_reserved":false,"is_disabled":false,"rental_uris":{"android":"levelo://app?vid=e2d1967e-5a56-406d-b78f-650a67b35429","ios":"levelo://app?vid=e2d1967e-5a56-406d-b78f-650a67b35429"},"vehicle_type_id":"4","last_reported":1742271116,"current_range_meters":3200,"station_id":"ce4bhm12rcd13ifvqgkg","pricing_plan_id":"cebpf4jnsgd1na2vs0mg"},{"bike_id":"d404ae25-435d-4ee4-8bac-93d54310911e","system_id":"levelo_inurba_marseille","lat":43.31378,"lon":5.38489,"is_reserved":false,"is_disabled":true,"rental_uris":{"android":"levelo://app?vid=d404ae25-435d-4ee4-8bac-93d54310911e","ios":"levelo://app?vid=d404ae25-435d-4ee4-8bac-93d54310911e"},"vehicle_type_id":"4","last_reported":1742271116,"current_range_meters":3200,"station_id":"ce4bgt92rcd13ifvqcf0","pricing_plan_id":"cebpf4jnsgd1na2vs0mg"},{"bike_id":"2cad790d-8767-4dde-a366-83aeeac91662","system_id":"levelo_inurba_marseille","lat":43.24165,"lon":5.39748,"is_reserved":false,"is_disabled":false,"rental_uris":{"android":"levelo://app?vid=2cad790d-8767-4dde-a366-83aeeac91662","ios":"levelo://app?vid=2cad790d-8767-4dde-a366-83aeeac91662"},"vehicle_type_id":"4","last_reported":1742271116,"current_range_meters":3200,"station_id":"ce4bhn12rcd13ifvqgpg","pricing_plan_id":"cebpf4jnsgd1na2vs0mg"},{"bike_id":"a156d38d-c587-49b6-879d-43f4f5296b6d","system_id":"levelo_inurba_marseille","lat":43.26544,"lon":5.38993,"is_reserved":false,"is_disabled":true,"rental_uris":{"android":"levelo://app?vid=a156d38d-c587-49b6-879d-43f4f5296b6d","ios":"levelo://app?vid=a156d38d-c587-49b6-879d-43f4f5296b6d"},"vehicle_type_id":"4","last_reported":1742271116,"current_range_meters":3200,"station_id":"ce4bhe12rcd13ifvqf30","pricing_plan_id":"cebpf4jnsgd1na2vs0mg"},{"bike_id":"c8e597d7-7d19-411f-be09-6321bf57a961","system_id":"levelo_inurba_marseille","lat":43.32283,"lon":5.38273,"is_reserved":false,"is_disabled":false,"rental_uris":{"android":"levelo://app?vid=c8e597d7-7d19-411f-be09-6321bf57a961","ios":"levelo://app?vid=c8e597d7-7d19-411f-be09-6321bf57a961"},"vehicle_type_id":"4","last_reported":1742271116,"current_range_meters":3600,"station_id":"ce4bhr12rcd13ifvqhqg","pricing_plan_id":"cebpf4jnsgd1na2vs0mg"},{"bike_id":"f31da457-6e9b-4ad6-be1d-5ffba7cbc733","system_id":"levelo_inurba_marseille","lat":43.25,"lon":5.389386,"is_reserved":false,"is_disabled":false,"rental_uris":{"android":"levelo://app?vid=f31da457-6e9b-4ad6-be1d-5ffba7cbc733","ios":"levelo://app?vid=f31da457-6e9b-4ad6-be1d-5ffba7cbc733"},"vehicle_type_id":"4","last_reported":1742271116,"current_range_meters":3600,"station_id":"ce4bhgp2rcd13ifvqfd0","pricing_plan_id":"cebpf4jnsgd1na2vs0mg"},{"bike_id":"2db41d65-2c09-4782-9a2e-b558284c305a","system_id":"levelo_inurba_marseille","lat":43.23183,"lon":5.3997,"is_reserved":false,"is_disabled":false,"rental_uris":{"android":"levelo://app?vid=2db41d65-2c09-4782-9a2e-b558284c305a","ios":"levelo://app?vid=2db41d65-2c09-4782-9a2e-b558284c305a"},"vehicle_type_id":"4","last_reported":1742271116,"current_range_meters":3600,"station_id":"ce4bhn12rcd13ifvqgqg","pricing_plan_id":"cebpf4jnsgd1na2vs0mg"},{"bike_id":"705a4307-d3ab-486c-b52c-3d0b3026f036","system_id":"levelo_inurba_marseille","lat":43.286178,"lon":5.351014,"is_reserved":false,"is_disabled":false,"rental_uris":{"android":"levelo://app?vid=705a4307-d3ab-486c-b52c-3d0b3026f036","ios":"levelo://app?vid=705a4307-d3ab-486c-b52c-3d0b3026f036"},"vehicle_type_id":"4","last_reported":1742271116,"current_range_meters":4000,"station_id":"ce4bhh12rcd13ifvqff0","pricing_plan_id":"cebpf4jnsgd1na2vs0mg"},{"bike_id":"d1bc17a4-bd69-45a5-aa07-670f8af05e0c","system_id":"levelo_inurba_marseille","lat":43.26194,"lon":5.40478,"is_reserved":false,"is_disabled":false,"rental_uris":{"android":"levelo://app?vid=d1bc17a4-bd69-45a5-aa07-670f8af05e0c","ios":"levelo://app?vid=d1bc17a4-bd69-45a5-aa07-670f8af05e0c"},"vehicle_type_id":"4","last_reported":1742271116,"current_range_meters":4400,"station_id":"ce4bhmh2rcd13ifvqgmg","pricing_plan_id":"cebpf4jnsgd1na2vs0mg"},{"bike_id":"427f8971-810b-41c5-adaa-7bb62f1efb21","system_id":"levelo_inurba_marseille","lat":43.24639,"lon":5.38897,"is_reserved":false,"is_disabled":false,"rental_uris":{"android":"levelo://app?vid=427f8971-810b-41c5-adaa-7bb62f1efb21","ios":"levelo://app?vid=427f8971-810b-41c5-adaa-7bb62f1efb21"},"vehicle_type_id":"4","last_reported":1742271116,"current_range_meters":4400,"station_id":"ce4bhg12rcd13ifvqf60","pricing_plan_id":"cebpf4jnsgd1na2vs0mg"},{"bike_id":"abd48a52-c8cc-4abb-a801-8dce64155a4a","system_id":"levelo_inurba_marseille","lat":43.24991,"lon":5.38959,"is_reserved":false,"is_disabled":false,"rental_uris":{"android":"levelo://app?vid=abd48a52-c8cc-4abb-a801-8dce64155a4a","ios":"levelo://app?vid=abd48a52-c8cc-4abb-a801-8dce64155a4a"},"vehicle_type_id":"4","last_reported":1742271116,"current_range_meters":4800,"station_id":"ce4bhgp2rcd13ifvqfd0","pricing_plan_id":"cebpf4jnsgd1na2vs0mg"},{"bike_id":"14cd229a-e82f-4d5d-bc54-5bd7b491925a","system_id":"levelo_inurba_marseille","lat":43.23187,"lon":5.39978,"is_reserved":false,"is_disabled":false,"rental_uris":{"android":"levelo://app?vid=14cd229a-e82f-4d5d-bc54-5bd7b491925a","ios":"levelo://app?vid=14cd229a-e82f-4d5d-bc54-5bd7b491925a"},"vehicle_type_id":"4","last_reported":1742271116,"current_range_meters":4800,"station_id":"ce4bhn12rcd13ifvqgqg","pricing_plan_id":"cebpf4jnsgd1na2vs0mg"},{"bike_id":"e39f083d-4542-4f7b-9173-1e8fe9e09597","system_id":"levelo_inurba_marseille","lat":43.27469,"lon":5.42494,"is_reserved":false,"is_disabled":true,"rental_uris":{"android":"levelo://app?vid=e39f083d-4542-4f7b-9173-1e8fe9e09597","ios":"levelo://app?vid=e39f083d-4542-4f7b-9173-1e8fe9e09597"},"vehicle_type_id":"4","last_reported":1742271116,"current_range_meters":4800,"station_id":"ce4bhn92rcd13ifvqgrg","pricing_plan_id":"cebpf4jnsgd1na2vs0mg"},{"bike_id":"3321b332-d0a2-4d1d-8681-1afa7f086e3f","system_id":"levelo_inurba_marseille","lat":43.26183,"lon":5.37926,"is_reserved":false,"is_disabled":false,"rental_uris":{"android":"levelo://app?vid=3321b332-d0a2-4d1d-8681-1afa7f086e3f","ios":"levelo://app?vid=3321b332-d0a2-4d1d-8681-1afa7f086e3f"},"vehicle_type_id":"4","last_reported":1742271116,"current_range_meters":5600,"station_id":"ce4bhjp2rcd13ifvqg90","pricing_plan_id":"cebpf4jnsgd1na2vs0mg"},{"bike_id":"259b2a62-eee3-46d4-9ba2-779b7755c371","system_id":"levelo_inurba_marseille","lat":43.26208,"lon":5.37465,"is_reserved":false,"is_disabled":true,"rental_uris":{"android":"levelo://app?vid=259b2a62-eee3-46d4-9ba2-779b7755c371","ios":"levelo://app?vid=259b2a62-eee3-46d4-9ba2-779b7755c371"},"vehicle_type_id":"4","last_reported":1742271116,"current_range_meters":5600,"station_id":"ce4bhgp2rcd13ifvqfc0","pricing_plan_id":"cebpf4jnsgd1na2vs0mg"},{"bike_id":"ef9b20c2-24a5-462d-8f71-a0b89cbc915f","system_id":"levelo_inurba_marseille","lat":43.26017,"lon":5.41751,"is_reserved":false,"is_disabled":false,"rental_uris":{"android":"levelo://app?vid=ef9b20c2-24a5-462d-8f71-a0b89cbc915f","ios":"levelo://app?vid=ef9b20c2-24a5-462d-8f71-a0b89cbc915f"},"vehicle_type_id":"4","last_reported":1742271116,"current_range_meters":5600,"station_id":"","pricing_plan_id":"cebpf4jnsgd1na2vs0mg"},{"bike_id":"cd6bd228-ec34-418f-8538-14abbf44a6a3","system_id":"levelo_inurba_marseille","lat":43.320011,"lon":5.374452,"is_reserved":false,"is_disabled":false,"rental_uris":{"android":"levelo://app?vid=cd6bd228-ec34-418f-8538-14abbf44a6a3","ios":"levelo://app?vid=cd6bd228-ec34-418f-8538-14abbf44a6a3"},"vehicle_type_id":"4","last_reported":1742271116,"current_range_meters":5600,"station_id":"","pricing_plan_id":"cebpf4jnsgd1na2vs0mg"},{"bike_id":"a561f3af-dc1c-4af4-b9a4-ead55b35e495","system_id":"levelo_inurba_marseille","lat":43.23178,"lon":5.35563,"is_reserved":false,"is_disabled":false,"rental_uris":{"android":"levelo://app?vid=a561f3af-dc1c-4af4-b9a4-ead55b35e495","ios":"levelo://app?vid=a561f3af-dc1c-4af4-b9a4-ead55b35e495"},"vehicle_type_id":"4","last_reported":1742271116,"current_range_meters":5600,"station_id":"ce4bhu92rcd13ifvqi70","pricing_plan_id":"cebpf4jnsgd1na2vs0mg"},{"bike_id":"4a82e9fa-897e-4db9-9848-eca7bdecdfdc","system_id":"levelo_inurba_marseille","lat":43.27906,"lon":5.38225,"is_reserved":false,"is_disabled":false,"rental_uris":{"android":"levelo://app?vid=4a82e9fa-897e-4db9-9848-eca7bdecdfdc","ios":"levelo://app?vid=4a82e9fa-897e-4db9-9848-eca7bdecdfdc"},"vehicle_type_id":"4","last_reported":1742271116,"current_range_meters":5600,"station_id":"","pricing_plan_id":"cebpf4jnsgd1na2vs0mg"},{"bike_id":"39a279e7-f4d5-4437-90a8-72a9c6ddb649","system_id":"levelo_inurba_marseille","lat":43.27989,"lon":5.416554,"is_reserved":false,"is_disabled":false,"rental_uris":{"android":"levelo://app?vid=39a279e7-f4d5-4437-90a8-72a9c6ddb649","ios":"levelo://app?vid=39a279e7-f4d5-4437-90a8-72a9c6ddb649"},"vehicle_type_id":"4","last_reported":1742271116,"current_range_meters":5600,"station_id":"ce4bho12rcd13ifvqh1g","pricing_plan_id":"cebpf4jnsgd1na2vs0mg"},{"bike_id":"6b8ffa9f-0e09-4bfb-a7c9-f730a8d18a65","system_id":"levelo_inurba_marseille","lat":43.24339,"lon":5.37112,"is_reserved":false,"is_disabled":false,"rental_uris":{"android":"levelo://app?vid=6b8ffa9f-0e09-4bfb-a7c9-f730a8d18a65","ios":"levelo://app?vid=6b8ffa9f-0e09-4bfb-a7c9-f730a8d18a65"},"vehicle_type_id":"4","last_reported":1742271116,"current_range_meters":5600,"station_id":"","pricing_plan_id":"cebpf4jnsgd1na2vs0mg"},{"bike_id":"4d1a8aeb-f96d-43ff-911b-66984650da28","system_id":"levelo_inurba_marseille","lat":43.27461,"lon":5.42496,"is_reserved":false,"is_disabled":true,"rental_uris":{"android":"levelo://app?vid=4d1a8aeb-f96d-43ff-911b-66984650da28","ios":"levelo://app?vid=4d1a8aeb-f96d-43ff-911b-66984650da28"},"vehicle_type_id":"4","last_reported":1742271116,"current_range_meters":5600,"station_id":"ce4bhn92rcd13ifvqgrg","pricing_plan_id":"cebpf4jnsgd1na2vs0mg"},{"bike_id":"74620aff-b1f0-4b60-8841-bc8a0a2edc3e","system_id":"levelo_inurba_marseille","lat":43.231974,"lon":5.355542,"is_reserved":false,"is_disabled":false,"rental_uris":{"android":"levelo://app?vid=74620aff-b1f0-4b60-8841-bc8a0a2edc3e","ios":"levelo://app?vid=74620aff-b1f0-4b60-8841-bc8a0a2edc3e"},"vehicle_type_id":"4","last_reported":1742271116,"current_range_meters":6000,"station_id":"ce4bhu92rcd13ifvqi70","pricing_plan_id":"cebpf4jnsgd1na2vs0mg"},{"bike_id":"2b7011fc-7dee-42c2-86d6-7293fa23c29b","system_id":"levelo_inurba_marseille","lat":43.286136,"lon":5.35108,"is_reserved":false,"is_disabled":true,"rental_uris":{"android":"levelo://app?vid=2b7011fc-7dee-42c2-86d6-7293fa23c29b","ios":"levelo://app?vid=2b7011fc-7dee-42c2-86d6-7293fa23c29b"},"vehicle_type_id":"4","last_reported":1742271116,"current_range_meters":6000,"station_id":"","pricing_plan_id":"cebpf4jnsgd1na2vs0mg"},{"bike_id":"025e9355-6751-49f3-81bf-35f103f283fc","system_id":"levelo_inurba_marseille","lat":43.27888,"lon":5.38027,"is_reserved":false,"is_disabled":false,"rental_uris":{"android":"levelo://app?vid=025e9355-6751-49f3-81bf-35f103f283fc","ios":"levelo://app?vid=025e9355-6751-49f3-81bf-35f103f283fc"},"vehicle_type_id":"4","last_reported":1742271116,"current_range_meters":6400,"station_id":"ce4bhf92rcd13ifvqf50","pricing_plan_id":"cebpf4jnsgd1na2vs0mg"},{"bike_id":"2fe6b5d4-c6f7-40d2-9a0b-4798d57f392b","system_id":"levelo_inurba_marseille","lat":43.23059,"lon":5.35504,"is_reserved":false,"is_disabled":false,"rental_uris":{"android":"levelo://app?vid=2fe6b5d4-c6f7-40d2-9a0b-4798d57f392b","ios":"levelo://app?vid=2fe6b5d4-c6f7-40d2-9a0b-4798d57f392b"},"vehicle_type_id":"4","last_reported":1742271116,"current_range_meters":6400,"station_id":"cpo3342slgdg3j2ifvpg","pricing_plan_id":"cebpf4jnsgd1na2vs0mg"},{"bike_id":"9dcb622a-e621-4cef-b659-02a845217b91","system_id":"levelo_inurba_marseille","lat":43.32365,"lon":5.38888,"is_reserved":false,"is_disabled":false,"rental_uris":{"android":"levelo://app?vid=9dcb622a-e621-4cef-b659-02a845217b91","ios":"levelo://app?vid=9dcb622a-e621-4cef-b659-02a845217b91"},"vehicle_type_id":"4","last_reported":1742271116,"current_range_meters":6400,"station_id":"ce4bhqp2rcd13ifvqhog","pricing_plan_id":"cebpf4jnsgd1na2vs0mg"},{"bike_id":"807d1c46-1543-4f63-8003-0d789a8aaaa9","system_id":"levelo_inurba_marseille","lat":43.27965,"lon":5.41044,"is_reserved":false,"is_disabled":false,"rental_uris":{"android":"levelo://app?vid=807d1c46-1543-4f63-8003-0d789a8aaaa9","ios":"levelo://app?vid=807d1c46-1543-4f63-8003-0d789a8aaaa9"},"vehicle_type_id":"4","last_reported":1742271116,"current_range_meters":6400,"station_id":"ce4bhnp2rcd13ifvqh0g","pricing_plan_id":"cebpf4jnsgd1na2vs0mg"},{"bike_id":"021238b5-2b9d-46d2-b80c-a5e816fdc135","system_id":"levelo_inurba_marseille","lat":43.29508,"lon":5.4249,"is_reserved":false,"is_disabled":false,"rental_uris":{"android":"levelo://app?vid=021238b5-2b9d-46d2-b80c-a5e816fdc135","ios":"levelo://app?vid=021238b5-2b9d-46d2-b80c-a5e816fdc135"},"vehicle_type_id":"4","last_reported":1742271116,"current_range_meters":6400,"station_id":"","pricing_plan_id":"cebpf4jnsgd1na2vs0mg"},{"bike_id":"8fde4101-f431-43cd-961d-a5ec7c656054","system_id":"levelo_inurba_marseille","lat":43.30872,"lon":5.39651,"is_reserved":false,"is_disabled":false,"rental_uris":{"android":"levelo://app?vid=8fde4101-f431-43cd-961d-a5ec7c656054","ios":"levelo://app?vid=8fde4101-f431-43cd-961d-a5ec7c656054"},"vehicle_type_id":"4","last_reported":1742271116,"current_range_meters":6400,"station_id":"ce4bh012rcd13ifvqcv0","pricing_plan_id":"cebpf4jnsgd1na2vs0mg"},{"bike_id":"88531a84-c602-42aa-9e4f-8f2ca29ef55c","system_id":"levelo_inurba_marseille","lat":43.25086,"lon":5.39526,"is_reserved":false,"is_disabled":false,"rental_uris":{"android":"levelo://app?vid=88531a84-c602-42aa-9e4f-8f2ca29ef55c","ios":"levelo://app?vid=88531a84-c602-42aa-9e4f-8f2ca29ef55c"},"vehicle_type_id":"4","last_reported":1742271116,"current_range_meters":6400,"station_id":"ce4bhm12rcd13ifvqgkg","pricing_plan_id":"cebpf4jnsgd1na2vs0mg"},{"bike_id":"9ee8265a-0fdc-4849-933f-8351e6c3b1de","system_id":"levelo_inurba_marseille","lat":43.23183,"lon":5.39991,"is_reserved":false,"is_disabled":false,"rental_uris":{"android":"levelo://app?vid=9ee8265a-0fdc-4849-933f-8351e6c3b1de","ios":"levelo://app?vid=9ee8265a-0fdc-4849-933f-8351e6c3b1de"},"vehicle_type_id":"4","last_reported":1742271116,"current_range_meters":6400,"station_id":"ce4bhn12rcd13ifvqgqg","pricing_plan_id":"cebpf4jnsgd1na2vs0mg"},{"bike_id":"eeaec213-09af-4e70-897d-f73dba08ce16","system_id":"levelo_inurba_marseille","lat":43.30113,"lon":5.39883,"is_reserved":false,"is_disabled":false,"rental_uris":{"android":"levelo://app?vid=eeaec213-09af-4e70-897d-f73dba08ce16","ios":"levelo://app?vid=eeaec213-09af-4e70-897d-f73dba08ce16"},"vehicle_type_id":"4","last_reported":1742271116,"current_range_meters":6400,"station_id":"ce4bh0h2rcd13ifvqd40","pricing_plan_id":"cebpf4jnsgd1na2vs0mg"},{"bike_id":"1c4dedbd-cff6-43e6-b2ba-da51a68b7542","system_id":"levelo_inurba_marseille","lat":43.27822,"lon":5.39207,"is_reserved":false,"is_disabled":false,"rental_uris":{"android":"levelo://app?vid=1c4dedbd-cff6-43e6-b2ba-da51a68b7542","ios":"levelo://app?vid=1c4dedbd-cff6-43e6-b2ba-da51a68b7542"},"vehicle_type_id":"4","last_reported":1742271116,"current_range_meters":6400,"station_id":"ce4bhjp2rcd13ifvqga0","pricing_plan_id":"cebpf4jnsgd1na2vs0mg"},{"bike_id":"0a018086-283c-4259-a1ff-a9304b066761","system_id":"levelo_inurba_marseille","lat":43.250096,"lon":5.389219,"is_reserved":false,"is_disabled":false,"rental_uris":{"android":"levelo://app?vid=0a018086-283c-4259-a1ff-a9304b066761","ios":"levelo://app?vid=0a018086-283c-4259-a1ff-a9304b066761"},"vehicle_type_id":"4","last_reported":1742271116,"current_range_meters":6400,"station_id":"ce4bhgp2rcd13ifvqfd0","pricing_plan_id":"cebpf4jnsgd1na2vs0mg"},{"bike_id":"600352a7-4eb2-4149-a296-2e5df0ee4f01","system_id":"levelo_inurba_marseille","lat":43.30579,"lon":5.40115,"is_reserved":false,"is_disabled":false,"rental_uris":{"android":"levelo://app?vid=600352a7-4eb2-4149-a296-2e5df0ee4f01","ios":"levelo://app?vid=600352a7-4eb2-4149-a296-2e5df0ee4f01"},"vehicle_type_id":"4","last_reported":1742271116,"current_range_meters":6800,"station_id":"","pricing_plan_id":"cebpf4jnsgd1na2vs0mg"},{"bike_id":"4d46e037-8954-462a-b34f-64963174e243","system_id":"levelo_inurba_marseille","lat":43.279326,"lon":5.411389,"is_reserved":false,"is_disabled":false,"rental_uris":{"android":"levelo://app?vid=4d46e037-8954-462a-b34f-64963174e243","ios":"levelo://app?vid=4d46e037-8954-462a-b34f-64963174e243"},"vehicle_type_id":"4","last_reported":1742271116,"current_range_meters":6800,"station_id":"","pricing_plan_id":"cebpf4jnsgd1na2vs0mg"},{"bike_id":"4c24f8a2-fcb8-48f4-9cb1-53d858f2edb5","system_id":"levelo_inurba_marseille","lat":43.304829,"lon":5.379001,"is_reserved":false,"is_disabled":false,"rental_uris":{"android":"levelo://app?vid=4c24f8a2-fcb8-48f4-9cb1-53d858f2edb5","ios":"levelo://app?vid=4c24f8a2-fcb8-48f4-9cb1-53d858f2edb5"},"vehicle_type_id":"4","last_reported":1742271116,"current_range_meters":6800,"station_id":"ce4bgup2rcd13ifvqcn0","pricing_plan_id":"cebpf4jnsgd1na2vs0mg"},{"bike_id":"e30db461-2896-49e3-9534-e748842ec47f","system_id":"levelo_inurba_marseille","lat":43.27845,"lon":5.39199,"is_reserved":false,"is_disabled":false,"rental_uris":{"android":"levelo://app?vid=e30db461-2896-49e3-9534-e748842ec47f","ios":"levelo://app?vid=e30db461-2896-49e3-9534-e748842ec47f"},"vehicle_type_id":"4","last_reported":1742271116,"current_range_meters":6800,"station_id":"ce4bhjp2rcd13ifvqga0","pricing_plan_id":"cebpf4jnsgd1na2vs0mg"},{"bike_id":"ee6fabc2-7f33-4574-877a-5df1fea178f3","system_id":"levelo_inurba_marseille","lat":43.27834,"lon":5.39221,"is_reserved":false,"is_disabled":false,"rental_uris":{"android":"levelo://app?vid=ee6fabc2-7f33-4574-877a-5df1fea178f3","ios":"levelo://app?vid=ee6fabc2-7f33-4574-877a-5df1fea178f3"},"vehicle_type_id":"4","last_reported":1742271116,"current_range_meters":6800,"station_id":"ce4bhjp2rcd13ifvqga0","pricing_plan_id":"cebpf4jnsgd1na2vs0mg"},{"bike_id":"1eef6fe9-8462-4804-b1c7-1b92116f17de","system_id":"levelo_inurba_marseille","lat":43.31766,"lon":5.39016,"is_reserved":false,"is_disabled":false,"rental_uris":{"android":"levelo://app?vid=1eef6fe9-8462-4804-b1c7-1b92116f17de","ios":"levelo://app?vid=1eef6fe9-8462-4804-b1c7-1b92116f17de"},"vehicle_type_id":"4","last_reported":1742271116,"current_range_meters":6800,"station_id":"ce4bhqp2rcd13ifvqhng","pricing_plan_id":"cebpf4jnsgd1na2vs0mg"},{"bike_id":"46def44c-7a7a-4892-982e-267cfa9da20c","system_id":"levelo_inurba_marseille","lat":43.258687,"lon":5.398984,"is_reserved":false,"is_disabled":false,"rental_uris":{"android":"levelo://app?vid=46def44c-7a7a-4892-982e-267cfa9da20c","ios":"levelo://app?vid=46def44c-7a7a-4892-982e-267cfa9da20c"},"vehicle_type_id":"4","last_reported":1742271116,"current_range_meters":6800,"station_id":"ce4bhl92rcd13ifvqghg","pricing_plan_id":"cebpf4jnsgd1na2vs0mg"},{"bike_id":"43ac644e-f900-485f-a519-d690d528fa1f","system_id":"levelo_inurba_marseille","lat":43.278123,"lon":5.407153,"is_reserved":false,"is_disabled":false,"rental_uris":{"android":"levelo://app?vid=43ac644e-f900-485f-a519-d690d528fa1f","ios":"levelo://app?vid=43ac644e-f900-485f-a519-d690d528fa1f"},"vehicle_type_id":"4","last_reported":1742271116,"current_range_meters":7200,"station_id":"ce4bhnh2rcd13ifvqgtg","pricing_plan_id":"cebpf4jnsgd1na2vs0mg"},{"bike_id":"0d126537-def7-47c3-bba6-892f83e3c00f","system_id":"levelo_inurba_marseille","lat":43.250075,"lon":5.389284,"is_reserved":false,"is_disabled":false,"rental_uris":{"android":"levelo://app?vid=0d126537-def7-47c3-bba6-892f83e3c00f","ios":"levelo://app?vid=0d126537-def7-47c3-bba6-892f83e3c00f"},"vehicle_type_id":"4","last_reported":1742271116,"current_range_meters":7200,"station_id":"ce4bhgp2rcd13ifvqfd0","pricing_plan_id":"cebpf4jnsgd1na2vs0mg"},{"bike_id":"73ba6054-b256-49f9-a881-8617a962027d","system_id":"levelo_inurba_marseille","lat":43.23054,"lon":5.35502,"is_reserved":false,"is_disabled":false,"rental_uris":{"android":"levelo://app?vid=73ba6054-b256-49f9-a881-8617a962027d","ios":"levelo://app?vid=73ba6054-b256-49f9-a881-8617a962027d"},"vehicle_type_id":"4","last_reported":1742271116,"current_range_meters":7200,"station_id":"cpo3342slgdg3j2ifvpg","pricing_plan_id":"cebpf4jnsgd1na2vs0mg"},{"bike_id":"ba22b769-c7e4-474a-a7e5-3ff558251ffd","system_id":"levelo_inurba_marseille","lat":43.255837,"lon":5.38236,"is_reserved":false,"is_disabled":false,"rental_uris":{"android":"levelo://app?vid=ba22b769-c7e4-474a-a7e5-3ff558251ffd","ios":"levelo://app?vid=ba22b769-c7e4-474a-a7e5-3ff558251ffd"},"vehicle_type_id":"4","last_reported":1742271116,"current_range_meters":7200,"station_id":"ce4bhih2rcd13ifvqfs0","pricing_plan_id":"cebpf4jnsgd1na2vs0mg"},{"bike_id":"770921ee-4b96-4139-a67e-f6b611853c14","system_id":"levelo_inurba_marseille","lat":43.23151,"lon":5.43722,"is_reserved":false,"is_disabled":false,"rental_uris":{"android":"levelo://app?vid=770921ee-4b96-4139-a67e-f6b611853c14","ios":"levelo://app?vid=770921ee-4b96-4139-a67e-f6b611853c14"},"vehicle_type_id":"4","last_reported":1742271116,"current_range_meters":7200,"station_id":"ce4bhmp2rcd13ifvqgog","pricing_plan_id":"cebpf4jnsgd1na2vs0mg"},{"bike_id":"d1676c12-45d0-460a-ab7d-e6bd42a8628c","system_id":"levelo_inurba_marseille","lat":43.259381,"lon":5.409028,"is_reserved":false,"is_disabled":false,"rental_uris":{"android":"levelo://app?vid=d1676c12-45d0-460a-ab7d-e6bd42a8628c","ios":"levelo://app?vid=d1676c12-45d0-460a-ab7d-e6bd42a8628c"},"vehicle_type_id":"4","last_reported":1742271116,"current_range_meters":7200,"station_id":"ce4bhm92rcd13ifvqglg","pricing_plan_id":"cebpf4jnsgd1na2vs0mg"},{"bike_id":"834d0112-c70c-4f37-b41c-35d51309eea6","system_id":"levelo_inurba_marseille","lat":43.30534,"lon":5.39392,"is_reserved":false,"is_disabled":false,"rental_uris":{"android":"levelo://app?vid=834d0112-c70c-4f37-b41c-35d51309eea6","ios":"levelo://app?vid=834d0112-c70c-4f37-b41c-35d51309eea6"},"vehicle_type_id":"4","last_reported":1742271116,"current_range_meters":7200,"station_id":"ce4bh0p2rcd13ifvqd80","pricing_plan_id":"cebpf4jnsgd1na2vs0mg"},{"bike_id":"e95151cd-abc4-4dae-8ab5-1de4cba734f5","system_id":"levelo_inurba_marseille","lat":43.24128,"lon":5.39734,"is_reserved":false,"is_disabled":false,"rental_uris":{"android":"levelo://app?vid=e95151cd-abc4-4dae-8ab5-1de4cba734f5","ios":"levelo://app?vid=e95151cd-abc4-4dae-8ab5-1de4cba734f5"},"vehicle_type_id":"4","last_reported":1742271116,"current_range_meters":7200,"station_id":"ce4bhn12rcd13ifvqgpg","pricing_plan_id":"cebpf4jnsgd1na2vs0mg"},{"bike_id":"b0d4f5f0-79ce-4a3f-92ac-2959ecb2dee0","system_id":"levelo_inurba_marseille","lat":43.33006,"lon":5.39049,"is_reserved":false,"is_disabled":false,"rental_uris":{"android":"levelo://app?vid=b0d4f5f0-79ce-4a3f-92ac-2959ecb2dee0","ios":"levelo://app?vid=b0d4f5f0-79ce-4a3f-92ac-2959ecb2dee0"},"vehicle_type_id":"4","last_reported":1742271116,"current_range_meters":7200,"station_id":"ce4bhr92rcd13ifvqhrg","pricing_plan_id":"cebpf4jnsgd1na2vs0mg"},{"bike_id":"fa5f15ab-8994-45e1-84de-31aa4c8b3ced","system_id":"levelo_inurba_marseille","lat":43.23192,"lon":5.35549,"is_reserved":false,"is_disabled":false,"rental_uris":{"android":"levelo://app?vid=fa5f15ab-8994-45e1-84de-31aa4c8b3ced","ios":"levelo://app?vid=fa5f15ab-8994-45e1-84de-31aa4c8b3ced"},"vehicle_type_id":"4","last_reported":1742271116,"current_range_meters":7200,"station_id":"ce4bhu92rcd13ifvqi70","pricing_plan_id":"cebpf4jnsgd1na2vs0mg"},{"bike_id":"80b8a29c-133d-45f7-a2fc-a7257c3a04f4","system_id":"levelo_inurba_marseille","lat":43.310729,"lon":5.383508,"is_reserved":false,"is_disabled":false,"rental_uris":{"android":"levelo://app?vid=80b8a29c-133d-45f7-a2fc-a7257c3a04f4","ios":"levelo://app?vid=80b8a29c-133d-45f7-a2fc-a7257c3a04f4"},"vehicle_type_id":"4","last_reported":1742271116,"current_range_meters":7200,"station_id":"ce4bgv92rcd13ifvqcr0","pricing_plan_id":"cebpf4jnsgd1na2vs0mg"},{"bike_id":"43242342-73bc-4a76-a912-16362c9b752f","system_id":"levelo_inurba_marseille","lat":43.240697,"lon":5.377589,"is_reserved":false,"is_disabled":false,"rental_uris":{"android":"levelo://app?vid=43242342-73bc-4a76-a912-16362c9b752f","ios":"levelo://app?vid=43242342-73bc-4a76-a912-16362c9b752f"},"vehicle_type_id":"4","last_reported":1742271116,"current_range_meters":7200,"station_id":"ce4bhnp2rcd13ifvqgvg","pricing_plan_id":"cebpf4jnsgd1na2vs0mg"},{"bike_id":"9eb72188-76e8-4883-9d04-0ce4c4a124e8","system_id":"levelo_inurba_marseille","lat":43.25098,"lon":5.40342,"is_reserved":false,"is_disabled":false,"rental_uris":{"android":"levelo://app?vid=9eb72188-76e8-4883-9d04-0ce4c4a124e8","ios":"levelo://app?vid=9eb72188-76e8-4883-9d04-0ce4c4a124e8"},"vehicle_type_id":"4","last_reported":1742271116,"current_range_meters":7200,"station_id":"ce4bhlh2rcd13ifvqgig","pricing_plan_id":"cebpf4jnsgd1na2vs0mg"},{"bike_id":"dd117a7c-a536-40a1-91af-43693b0b8fe5","system_id":"levelo_inurba_marseille","lat":43.259348,"lon":5.408948,"is_reserved":false,"is_disabled":false,"rental_uris":{"android":"levelo://app?vid=dd117a7c-a536-40a1-91af-43693b0b8fe5","ios":"levelo://app?vid=dd117a7c-a536-40a1-91af-43693b0b8fe5"},"vehicle_type_id":"4","last_reported":1742271116,"current_range_meters":7200,"station_id":"ce4bhm92rcd13ifvqglg","pricing_plan_id":"cebpf4jnsgd1na2vs0mg"},{"bike_id":"bd95e462-c605-4bd6-b0a6-7ecc3176c361","system_id":"levelo_inurba_marseille","lat":43.27174,"lon":5.40999,"is_reserved":false,"is_disabled":false,"rental_uris":{"android":"levelo://app?vid=bd95e462-c605-4bd6-b0a6-7ecc3176c361","ios":"levelo://app?vid=bd95e462-c605-4bd6-b0a6-7ecc3176c361"},"vehicle_type_id":"4","last_reported":1742271116,"current_range_meters":7200,"station_id":"ce4bhl12rcd13ifvqgf0","pricing_plan_id":"cebpf4jnsgd1na2vs0mg"},{"bike_id":"5e31fbed-d4b7-49e5-97ef-d23adbdbc443","system_id":"levelo_inurba_marseille","lat":43.257174,"lon":5.411127,"is_reserved":false,"is_disabled":false,"rental_uris":{"android":"levelo://app?vid=5e31fbed-d4b7-49e5-97ef-d23adbdbc443","ios":"levelo://app?vid=5e31fbed-d4b7-49e5-97ef-d23adbdbc443"},"vehicle_type_id":"4","last_reported":1742271116,"current_range_meters":7200,"station_id":"ce4bhkp2rcd13ifvqgd0","pricing_plan_id":"cebpf4jnsgd1na2vs0mg"},{"bike_id":"d155b6d7-4f04-4869-a663-a1baa5b8f97e","system_id":"levelo_inurba_marseille","lat":43.231941,"lon":5.35554,"is_reserved":false,"is_disabled":false,"rental_uris":{"android":"levelo://app?vid=d155b6d7-4f04-4869-a663-a1baa5b8f97e","ios":"levelo://app?vid=d155b6d7-4f04-4869-a663-a1baa5b8f97e"},"vehicle_type_id":"4","last_reported":1742271116,"current_range_meters":8000,"station_id":"ce4bhu92rcd13ifvqi70","pricing_plan_id":"cebpf4jnsgd1na2vs0mg"},{"bike_id":"ce4f518f-36ef-4b94-b18a-9bf3313e3b57","system_id":"levelo_inurba_marseille","lat":43.25503,"lon":5.37647,"is_reserved":false,"is_disabled":false,"rental_uris":{"android":"levelo://app?vid=ce4f518f-36ef-4b94-b18a-9bf3313e3b57","ios":"levelo://app?vid=ce4f518f-36ef-4b94-b18a-9bf3313e3b57"},"vehicle_type_id":"4","last_reported":1742271116,"current_range_meters":8000,"station_id":"ce4bhh12rcd13ifvqff0","pricing_plan_id":"cebpf4jnsgd1na2vs0mg"},{"bike_id":"22f4e4f1-c5d4-4114-8ea8-ce918cb1c40f","system_id":"levelo_inurba_marseille","lat":43.290315,"lon":5.375537,"is_reserved":false,"is_disabled":true,"rental_uris":{"android":"levelo://app?vid=22f4e4f1-c5d4-4114-8ea8-ce918cb1c40f","ios":"levelo://app?vid=22f4e4f1-c5d4-4114-8ea8-ce918cb1c40f"},"vehicle_type_id":"4","last_reported":1742271116,"current_range_meters":8000,"station_id":"ce4bh692rcd13ifvqe90","pricing_plan_id":"cebpf4jnsgd1na2vs0mg"},{"bike_id":"b54a649d-2707-4569-87ee-d2c230e19409","system_id":"levelo_inurba_marseille","lat":43.27426,"lon":5.40917,"is_reserved":false,"is_disabled":false,"rental_uris":{"android":"levelo://app?vid=b54a649d-2707-4569-87ee-d2c230e19409","ios":"levelo://app?vid=b54a649d-2707-4569-87ee-d2c230e19409"},"vehicle_type_id":"4","last_reported":1742271116,"current_range_meters":8000,"station_id":"","pricing_plan_id":"cebpf4jnsgd1na2vs0mg"},{"bike_id":"4fd0d6b1-80a9-4a00-a0f5-a410ce25c312","system_id":"levelo_inurba_marseille","lat":43.31038,"lon":5.42432,"is_reserved":false,"is_disabled":false,"rental_uris":{"android":"levelo://app?vid=4fd0d6b1-80a9-4a00-a0f5-a410ce25c312","ios":"levelo://app?vid=4fd0d6b1-80a9-4a00-a0f5-a410ce25c312"},"vehicle_type_id":"4","last_reported":1742271116,"current_range_meters":8000,"station_id":"ce4bhp92rcd13ifvqhag","pricing_plan_id":"cebpf4jnsgd1na2vs0mg"},{"bike_id":"a721223e-025d-42c9-b095-5c32c709b862","system_id":"levelo_inurba_marseille","lat":43.270718,"lon":5.422802,"is_reserved":false,"is_disabled":false,"rental_uris":{"android":"levelo://app?vid=a721223e-025d-42c9-b095-5c32c709b862","ios":"levelo://app?vid=a721223e-025d-42c9-b095-5c32c709b862"},"vehicle_type_id":"4","last_reported":1742271116,"current_range_meters":8000,"station_id":"ce4bhk92rcd13ifvqgb0","pricing_plan_id":"cebpf4jnsgd1na2vs0mg"},{"bike_id":"9e2fcf04-35eb-4c39-98a4-f9f808ee3610","system_id":"levelo_inurba_marseille","lat":43.27859,"lon":5.39221,"is_reserved":false,"is_disabled":false,"rental_uris":{"android":"levelo://app?vid=9e2fcf04-35eb-4c39-98a4-f9f808ee3610","ios":"levelo://app?vid=9e2fcf04-35eb-4c39-98a4-f9f808ee3610"},"vehicle_type_id":"4","last_reported":1742271116,"current_range_meters":8000,"station_id":"ce4bhjp2rcd13ifvqga0","pricing_plan_id":"cebpf4jnsgd1na2vs0mg"},{"bike_id":"4d35af38-e078-4d87-8ec4-ceb367e0ff1d","system_id":"levelo_inurba_marseille","lat":43.25857,"lon":5.39917,"is_reserved":false,"is_disabled":false,"rental_uris":{"android":"levelo://app?vid=4d35af38-e078-4d87-8ec4-ceb367e0ff1d","ios":"levelo://app?vid=4d35af38-e078-4d87-8ec4-ceb367e0ff1d"},"vehicle_type_id":"4","last_reported":1742271116,"current_range_meters":8000,"station_id":"ce4bhl92rcd13ifvqghg","pricing_plan_id":"cebpf4jnsgd1na2vs0mg"},{"bike_id":"607496c0-5a33-47b9-ad9d-59952d6063d6","system_id":"levelo_inurba_marseille","lat":43.31068,"lon":5.38367,"is_reserved":false,"is_disabled":false,"rental_uris":{"android":"levelo://app?vid=607496c0-5a33-47b9-ad9d-59952d6063d6","ios":"levelo://app?vid=607496c0-5a33-47b9-ad9d-59952d6063d6"},"vehicle_type_id":"4","last_reported":1742271116,"current_range_meters":8000,"station_id":"ce4bgv92rcd13ifvqcr0","pricing_plan_id":"cebpf4jnsgd1na2vs0mg"},{"bike_id":"97791ea3-ecf1-48d4-aecf-49a51ee48c55","system_id":"levelo_inurba_marseille","lat":43.28106,"lon":5.37835,"is_reserved":false,"is_disabled":false,"rental_uris":{"android":"levelo://app?vid=97791ea3-ecf1-48d4-aecf-49a51ee48c55","ios":"levelo://app?vid=97791ea3-ecf1-48d4-aecf-49a51ee48c55"},"vehicle_type_id":"4","last_reported":1742271116,"current_range_meters":8400,"station_id":"ce4bha12rcd13ifvqee0","pricing_plan_id":"cebpf4jnsgd1na2vs0mg"},{"bike_id":"b1b41327-66f3-4983-ac80-93a6af2a034d","system_id":"levelo_inurba_marseille","lat":43.23039,"lon":5.35523,"is_reserved":false,"is_disabled":false,"rental_uris":{"android":"levelo://app?vid=b1b41327-66f3-4983-ac80-93a6af2a034d","ios":"levelo://app?vid=b1b41327-66f3-4983-ac80-93a6af2a034d"},"vehicle_type_id":"4","last_reported":1742271116,"current_range_meters":8400,"station_id":"cpo3342slgdg3j2ifvpg","pricing_plan_id":"cebpf4jnsgd1na2vs0mg"},{"bike_id":"6d8e8090-a4c7-4966-a3f4-a833922b9e5a","system_id":"levelo_inurba_marseille","lat":43.23193,"lon":5.35556,"is_reserved":false,"is_disabled":false,"rental_uris":{"android":"levelo://app?vid=6d8e8090-a4c7-4966-a3f4-a833922b9e5a","ios":"levelo://app?vid=6d8e8090-a4c7-4966-a3f4-a833922b9e5a"},"vehicle_type_id":"4","last_reported":1742271116,"current_range_meters":8400,"station_id":"ce4bhu92rcd13ifvqi70","pricing_plan_id":"cebpf4jnsgd1na2vs0mg"},{"bike_id":"0228a793-7f9a-40bc-a8c8-e449ae4bc9a7","system_id":"levelo_inurba_marseille","lat":43.25584,"lon":5.38238,"is_reserved":false,"is_disabled":false,"rental_uris":{"android":"levelo://app?vid=0228a793-7f9a-40bc-a8c8-e449ae4bc9a7","ios":"levelo://app?vid=0228a793-7f9a-40bc-a8c8-e449ae4bc9a7"},"vehicle_type_id":"4","last_reported":1742271116,"current_range_meters":8400,"station_id":"ce4bhih2rcd13ifvqfs0","pricing_plan_id":"cebpf4jnsgd1na2vs0mg"},{"bike_id":"0d3accb9-853e-4df0-b9d8-4607b8048f46","system_id":"levelo_inurba_marseille","lat":43.24165,"lon":5.36395,"is_reserved":false,"is_disabled":false,"rental_uris":{"android":"levelo://app?vid=0d3accb9-853e-4df0-b9d8-4607b8048f46","ios":"levelo://app?vid=0d3accb9-853e-4df0-b9d8-4607b8048f46"},"vehicle_type_id":"4","last_reported":1742271116,"current_range_meters":8400,"station_id":"cpo36qri1sfpv3e86is0","pricing_plan_id":"cebpf4jnsgd1na2vs0mg"},{"bike_id":"737a1d64-a21d-4452-b1f9-a22f87a8d6bd","system_id":"levelo_inurba_marseille","lat":43.23054,"lon":5.35494,"is_reserved":false,"is_disabled":false,"rental_uris":{"android":"levelo://app?vid=737a1d64-a21d-4452-b1f9-a22f87a8d6bd","ios":"levelo://app?vid=737a1d64-a21d-4452-b1f9-a22f87a8d6bd"},"vehicle_type_id":"4","last_reported":1742271116,"current_range_meters":8400,"station_id":"cpo3342slgdg3j2ifvpg","pricing_plan_id":"cebpf4jnsgd1na2vs0mg"},{"bike_id":"836e6160-43fb-4e74-bca4-6228c501760e","system_id":"levelo_inurba_marseille","lat":43.255062,"lon":5.376665,"is_reserved":false,"is_disabled":false,"rental_uris":{"android":"levelo://app?vid=836e6160-43fb-4e74-bca4-6228c501760e","ios":"levelo://app?vid=836e6160-43fb-4e74-bca4-6228c501760e"},"vehicle_type_id":"4","last_reported":1742271116,"current_range_meters":8400,"station_id":"ce4bhh12rcd13ifvqff0","pricing_plan_id":"cebpf4jnsgd1na2vs0mg"},{"bike_id":"9e82f403-1e83-4a16-98be-55563b640cc1","system_id":"levelo_inurba_marseille","lat":43.26042,"lon":5.376,"is_reserved":false,"is_disabled":false,"rental_uris":{"android":"levelo://app?vid=9e82f403-1e83-4a16-98be-55563b640cc1","ios":"levelo://app?vid=9e82f403-1e83-4a16-98be-55563b640cc1"},"vehicle_type_id":"4","last_reported":1742271116,"current_range_meters":8400,"station_id":"ce4bhgh2rcd13ifvqfa0","pricing_plan_id":"cebpf4jnsgd1na2vs0mg"},{"bike_id":"2665cc4b-07ed-4ae6-a66f-2b09983c709d","system_id":"levelo_inurba_marseille","lat":43.33761,"lon":5.37489,"is_reserved":false,"is_disabled":false,"rental_uris":{"android":"levelo://app?vid=2665cc4b-07ed-4ae6-a66f-2b09983c709d","ios":"levelo://app?vid=2665cc4b-07ed-4ae6-a66f-2b09983c709d"},"vehicle_type_id":"4","last_reported":1742271116,"current_range_meters":8800,"station_id":"","pricing_plan_id":"cebpf4jnsgd1na2vs0mg"},{"bike_id":"c0b734de-c541-459a-a16b-35427d518794","system_id":"levelo_inurba_marseille","lat":43.33019,"lon":5.39032,"is_reserved":false,"is_disabled":false,"rental_uris":{"android":"levelo://app?vid=c0b734de-c541-459a-a16b-35427d518794","ios":"levelo://app?vid=c0b734de-c541-459a-a16b-35427d518794"},"vehicle_type_id":"4","last_reported":1742271116,"current_range_meters":8800,"station_id":"ce4bhr92rcd13ifvqhrg","pricing_plan_id":"cebpf4jnsgd1na2vs0mg"},{"bike_id":"7896949c-a3e6-494e-9d07-6e98e1301a91","system_id":"levelo_inurba_marseille","lat":43.27178,"lon":5.40989,"is_reserved":false,"is_disabled":false,"rental_uris":{"android":"levelo://app?vid=7896949c-a3e6-494e-9d07-6e98e1301a91","ios":"levelo://app?vid=7896949c-a3e6-494e-9d07-6e98e1301a91"},"vehicle_type_id":"4","last_reported":1742271116,"current_range_meters":8800,"station_id":"ce4bhl12rcd13ifvqgf0","pricing_plan_id":"cebpf4jnsgd1na2vs0mg"},{"bike_id":"8fe7e33b-57fc-439c-ba02-015988635c80","system_id":"levelo_inurba_marseille","lat":43.27029,"lon":5.42282,"is_reserved":false,"is_disabled":true,"rental_uris":{"android":"levelo://app?vid=8fe7e33b-57fc-439c-ba02-015988635c80","ios":"levelo://app?vid=8fe7e33b-57fc-439c-ba02-015988635c80"},"vehicle_type_id":"4","last_reported":1742271116,"current_range_meters":8800,"station_id":"ce4bhk92rcd13ifvqgb0","pricing_plan_id":"cebpf4jnsgd1na2vs0mg"},{"bike_id":"f8ff1f0a-d757-4c37-82f8-9f24d4a4ee7d","system_id":"levelo_inurba_marseille","lat":43.23178,"lon":5.3998,"is_reserved":false,"is_disabled":false,"rental_uris":{"android":"levelo://app?vid=f8ff1f0a-d757-4c37-82f8-9f24d4a4ee7d","ios":"levelo://app?vid=f8ff1f0a-d757-4c37-82f8-9f24d4a4ee7d"},"vehicle_type_id":"4","last_reported":1742271116,"current_range_meters":8800,"station_id":"ce4bhn12rcd13ifvqgqg","pricing_plan_id":"cebpf4jnsgd1na2vs0mg"},{"bike_id":"bf53558a-323c-40e3-9c37-ac64ba388e1c","system_id":"levelo_inurba_marseille","lat":43.23961,"lon":5.36627,"is_reserved":false,"is_disabled":false,"rental_uris":{"android":"levelo://app?vid=bf53558a-323c-40e3-9c37-ac64ba388e1c","ios":"levelo://app?vid=bf53558a-323c-40e3-9c37-ac64ba388e1c"},"vehicle_type_id":"4","last_reported":1742271116,"current_range_meters":8800,"station_id":"ce4bhi12rcd13ifvqfp0","pricing_plan_id":"cebpf4jnsgd1na2vs0mg"},{"bike_id":"53ab00e4-31d4-4dc9-89ac-04c49d2b883d","system_id":"levelo_inurba_marseille","lat":43.25714,"lon":5.41116,"is_reserved":false,"is_disabled":false,"rental_uris":{"android":"levelo://app?vid=53ab00e4-31d4-4dc9-89ac-04c49d2b883d","ios":"levelo://app?vid=53ab00e4-31d4-4dc9-89ac-04c49d2b883d"},"vehicle_type_id":"4","last_reported":1742271116,"current_range_meters":9200,"station_id":"ce4bhkp2rcd13ifvqgd0","pricing_plan_id":"cebpf4jnsgd1na2vs0mg"},{"bike_id":"25349df8-9a91-45e5-9802-681f8d4d74fb","system_id":"levelo_inurba_marseille","lat":43.306489,"lon":5.400899,"is_reserved":false,"is_disabled":false,"rental_uris":{"android":"levelo://app?vid=25349df8-9a91-45e5-9802-681f8d4d74fb","ios":"levelo://app?vid=25349df8-9a91-45e5-9802-681f8d4d74fb"},"vehicle_type_id":"4","last_reported":1742271116,"current_range_meters":9200,"station_id":"ce4bh112rcd13ifvqda0","pricing_plan_id":"cebpf4jnsgd1na2vs0mg"},{"bike_id":"06e6eede-4ecb-4319-9d79-1a567e57af49","system_id":"levelo_inurba_marseille","lat":43.26028,"lon":5.4174,"is_reserved":false,"is_disabled":false,"rental_uris":{"android":"levelo://app?vid=06e6eede-4ecb-4319-9d79-1a567e57af49","ios":"levelo://app?vid=06e6eede-4ecb-4319-9d79-1a567e57af49"},"vehicle_type_id":"4","last_reported":1742271116,"current_range_meters":9200,"station_id":"","pricing_plan_id":"cebpf4jnsgd1na2vs0mg"},{"bike_id":"ad444683-b04a-47a8-8bc7-20777d82fe90","system_id":"levelo_inurba_marseille","lat":43.28665,"lon":5.36341,"is_reserved":false,"is_disabled":false,"rental_uris":{"android":"levelo://app?vid=ad444683-b04a-47a8-8bc7-20777d82fe90","ios":"levelo://app?vid=ad444683-b04a-47a8-8bc7-20777d82fe90"},"vehicle_type_id":"4","last_reported":1742271116,"current_range_meters":9200,"station_id":"ce4bhah2rcd13ifvqej0","pricing_plan_id":"cebpf4jnsgd1na2vs0mg"},{"bike_id":"621d1759-73a7-43df-8571-31397a28a675","system_id":"levelo_inurba_marseille","lat":43.25112,"lon":5.40326,"is_reserved":false,"is_disabled":false,"rental_uris":{"android":"levelo://app?vid=621d1759-73a7-43df-8571-31397a28a675","ios":"levelo://app?vid=621d1759-73a7-43df-8571-31397a28a675"},"vehicle_type_id":"4","last_reported":1742271116,"current_range_meters":9200,"station_id":"ce4bhlh2rcd13ifvqgig","pricing_plan_id":"cebpf4jnsgd1na2vs0mg"},{"bike_id":"c8dc70ca-dc5c-4405-96fa-2e181e5ae653","system_id":"levelo_inurba_marseille","lat":43.295096,"lon":5.394136,"is_reserved":false,"is_disabled":false,"rental_uris":{"android":"levelo://app?vid=c8dc70ca-dc5c-4405-96fa-2e181e5ae653","ios":"levelo://app?vid=c8dc70ca-dc5c-4405-96fa-2e181e5ae653"},"vehicle_type_id":"4","last_reported":1742271116,"current_range_meters":9200,"station_id":"ce4bh292rcd13ifvqdf0","pricing_plan_id":"cebpf4jnsgd1na2vs0mg"},{"bike_id":"b5040432-f6a7-4dbd-93a1-a6c14c284b7b","system_id":"levelo_inurba_marseille","lat":43.258692,"lon":5.399025,"is_reserved":false,"is_disabled":false,"rental_uris":{"android":"levelo://app?vid=b5040432-f6a7-4dbd-93a1-a6c14c284b7b","ios":"levelo://app?vid=b5040432-f6a7-4dbd-93a1-a6c14c284b7b"},"vehicle_type_id":"4","last_reported":1742271116,"current_range_meters":9200,"station_id":"ce4bhl92rcd13ifvqghg","pricing_plan_id":"cebpf4jnsgd1na2vs0mg"},{"bike_id":"7a8a8ccb-b5ee-4bab-9535-af226cc12302","system_id":"levelo_inurba_marseille","lat":43.29075,"lon":5.42348,"is_reserved":false,"is_disabled":false,"rental_uris":{"android":"levelo://app?vid=7a8a8ccb-b5ee-4bab-9535-af226cc12302","ios":"levelo://app?vid=7a8a8ccb-b5ee-4bab-9535-af226cc12302"},"vehicle_type_id":"4","last_reported":1742271116,"current_range_meters":9200,"station_id":"","pricing_plan_id":"cebpf4jnsgd1na2vs0mg"},{"bike_id":"ba17eb78-f062-4f77-b8b0-1a4a31d62a9e","system_id":"levelo_inurba_marseille","lat":43.257176,"lon":5.411085,"is_reserved":false,"is_disabled":true,"rental_uris":{"android":"levelo://app?vid=ba17eb78-f062-4f77-b8b0-1a4a31d62a9e","ios":"levelo://app?vid=ba17eb78-f062-4f77-b8b0-1a4a31d62a9e"},"vehicle_type_id":"4","last_reported":1742271116,"current_range_meters":9200,"station_id":"ce4bhkp2rcd13ifvqgd0","pricing_plan_id":"cebpf4jnsgd1na2vs0mg"},{"bike_id":"0780259e-9216-46eb-bc8e-99d2e229a9ea","system_id":"levelo_inurba_marseille","lat":43.26022,"lon":5.41744,"is_reserved":false,"is_disabled":false,"rental_uris":{"android":"levelo://app?vid=0780259e-9216-46eb-bc8e-99d2e229a9ea","ios":"levelo://app?vid=0780259e-9216-46eb-bc8e-99d2e229a9ea"},"vehicle_type_id":"4","last_reported":1742271116,"current_range_meters":9600,"station_id":"","pricing_plan_id":"cebpf4jnsgd1na2vs0mg"},{"bike_id":"cc127605-97f5-449d-ad23-12b6f80c9639","system_id":"levelo_inurba_marseille","lat":43.293009,"lon":5.374383,"is_reserved":false,"is_disabled":true,"rental_uris":{"android":"levelo://app?vid=cc127605-97f5-449d-ad23-12b6f80c9639","ios":"levelo://app?vid=cc127605-97f5-449d-ad23-12b6f80c9639"},"vehicle_type_id":"4","last_reported":1742271116,"current_range_meters":9600,"station_id":"ce4bgi12rcd13ifvqb70","pricing_plan_id":"cebpf4jnsgd1na2vs0mg"},{"bike_id":"c6f0a2f3-d142-4b3e-bc0a-4b621d29452c","system_id":"levelo_inurba_marseille","lat":43.251204,"lon":5.403191,"is_reserved":false,"is_disabled":false,"rental_uris":{"android":"levelo://app?vid=c6f0a2f3-d142-4b3e-bc0a-4b621d29452c","ios":"levelo://app?vid=c6f0a2f3-d142-4b3e-bc0a-4b621d29452c"},"vehicle_type_id":"4","last_reported":1742271116,"current_range_meters":9600,"station_id":"ce4bhlh2rcd13ifvqgig","pricing_plan_id":"cebpf4jnsgd1na2vs0mg"},{"bike_id":"dfa54116-4122-4592-a286-1fbb2ac6e9a8","system_id":"levelo_inurba_marseille","lat":43.2835,"lon":5.38104,"is_reserved":false,"is_disabled":false,"rental_uris":{"android":"levelo://app?vid=dfa54116-4122-4592-a286-1fbb2ac6e9a8","ios":"levelo://app?vid=dfa54116-4122-4592-a286-1fbb2ac6e9a8"},"vehicle_type_id":"4","last_reported":1742271116,"current_range_meters":9600,"station_id":"ce4bh412rcd13ifvqdr0","pricing_plan_id":"cebpf4jnsgd1na2vs0mg"},{"bike_id":"649e7ca6-39bf-43ac-b834-3ea183d0fa70","system_id":"levelo_inurba_marseille","lat":43.306103,"lon":5.37232,"is_reserved":false,"is_disabled":false,"rental_uris":{"android":"levelo://app?vid=649e7ca6-39bf-43ac-b834-3ea183d0fa70","ios":"levelo://app?vid=649e7ca6-39bf-43ac-b834-3ea183d0fa70"},"vehicle_type_id":"4","last_reported":1742271116,"current_range_meters":9600,"station_id":"ce4bgqh2rcd13ifvqc4g","pricing_plan_id":"cebpf4jnsgd1na2vs0mg"},{"bike_id":"42e35520-f310-4cc9-afe0-cc69621e6853","system_id":"levelo_inurba_marseille","lat":43.32353,"lon":5.38901,"is_reserved":false,"is_disabled":false,"rental_uris":{"android":"levelo://app?vid=42e35520-f310-4cc9-afe0-cc69621e6853","ios":"levelo://app?vid=42e35520-f310-4cc9-afe0-cc69621e6853"},"vehicle_type_id":"4","last_reported":1742271116,"current_range_meters":9600,"station_id":"ce4bhqp2rcd13ifvqhog","pricing_plan_id":"cebpf4jnsgd1na2vs0mg"},{"bike_id":"e9b52e70-e9fd-498a-9c89-05314149732a","system_id":"levelo_inurba_marseille","lat":43.26808,"lon":5.4026,"is_reserved":false,"is_disabled":false,"rental_uris":{"android":"levelo://app?vid=e9b52e70-e9fd-498a-9c89-05314149732a","ios":"levelo://app?vid=e9b52e70-e9fd-498a-9c89-05314149732a"},"vehicle_type_id":"4","last_reported":1742271116,"current_range_meters":9600,"station_id":"ce501612rcd8frsf0b60","pricing_plan_id":"cebpf4jnsgd1na2vs0mg"},{"bike_id":"09be20b3-ccfa-43d5-8616-036d82fe33a0","system_id":"levelo_inurba_marseille","lat":43.24998,"lon":5.38937,"is_reserved":false,"is_disabled":false,"rental_uris":{"android":"levelo://app?vid=09be20b3-ccfa-43d5-8616-036d82fe33a0","ios":"levelo://app?vid=09be20b3-ccfa-43d5-8616-036d82fe33a0"},"vehicle_type_id":"4","last_reported":1742271116,"current_range_meters":10000,"station_id":"ce4bhgp2rcd13ifvqfd0","pricing_plan_id":"cebpf4jnsgd1na2vs0mg"},{"bike_id":"68efa26f-19bd-4d41-bebe-c8935b4d7da9","system_id":"levelo_inurba_marseille","lat":43.330423,"lon":5.390325,"is_reserved":false,"is_disabled":false,"rental_uris":{"android":"levelo://app?vid=68efa26f-19bd-4d41-bebe-c8935b4d7da9","ios":"levelo://app?vid=68efa26f-19bd-4d41-bebe-c8935b4d7da9"},"vehicle_type_id":"4","last_reported":1742271116,"current_range_meters":10000,"station_id":"ce4bhr92rcd13ifvqhrg","pricing_plan_id":"cebpf4jnsgd1na2vs0mg"},{"bike_id":"ac767398-3a37-4b25-a151-49e4b1e3ef78","system_id":"levelo_inurba_marseille","lat":43.2506,"lon":5.39533,"is_reserved":false,"is_disabled":false,"rental_uris":{"android":"levelo://app?vid=ac767398-3a37-4b25-a151-49e4b1e3ef78","ios":"levelo://app?vid=ac767398-3a37-4b25-a151-49e4b1e3ef78"},"vehicle_type_id":"4","last_reported":1742271116,"current_range_meters":10000,"station_id":"ce4bhm12rcd13ifvqgkg","pricing_plan_id":"cebpf4jnsgd1na2vs0mg"},{"bike_id":"0b60e72b-d8b1-4266-9b63-b94b87c1ad4b","system_id":"levelo_inurba_marseille","lat":43.23193,"lon":5.39978,"is_reserved":false,"is_disabled":false,"rental_uris":{"android":"levelo://app?vid=0b60e72b-d8b1-4266-9b63-b94b87c1ad4b","ios":"levelo://app?vid=0b60e72b-d8b1-4266-9b63-b94b87c1ad4b"},"vehicle_type_id":"4","last_reported":1742271116,"current_range_meters":10800,"station_id":"ce4bhn12rcd13ifvqgqg","pricing_plan_id":"cebpf4jnsgd1na2vs0mg"},{"bike_id":"39d2df96-c36f-4593-8a68-432fe8c8d072","system_id":"levelo_inurba_marseille","lat":43.29883,"lon":5.43663,"is_reserved":false,"is_disabled":false,"rental_uris":{"android":"levelo://app?vid=39d2df96-c36f-4593-8a68-432fe8c8d072","ios":"levelo://app?vid=39d2df96-c36f-4593-8a68-432fe8c8d072"},"vehicle_type_id":"4","last_reported":1742271116,"current_range_meters":10800,"station_id":"ce4bhpp2rcd13ifvqhfg","pricing_plan_id":"cebpf4jnsgd1na2vs0mg"},{"bike_id":"93729673-f50f-4d8c-a0cc-919267756e0e","system_id":"levelo_inurba_marseille","lat":43.27847,"lon":5.392,"is_reserved":false,"is_disabled":false,"rental_uris":{"android":"levelo://app?vid=93729673-f50f-4d8c-a0cc-919267756e0e","ios":"levelo://app?vid=93729673-f50f-4d8c-a0cc-919267756e0e"},"vehicle_type_id":"4","last_reported":1742271116,"current_range_meters":10800,"station_id":"ce4bhjp2rcd13ifvqga0","pricing_plan_id":"cebpf4jnsgd1na2vs0mg"},{"bike_id":"acac4095-5f28-44df-964c-66b20e52a1c4","system_id":"levelo_inurba_marseille","lat":43.30294,"lon":5.39203,"is_reserved":false,"is_disabled":false,"rental_uris":{"android":"levelo://app?vid=acac4095-5f28-44df-964c-66b20e52a1c4","ios":"levelo://app?vid=acac4095-5f28-44df-964c-66b20e52a1c4"},"vehicle_type_id":"4","last_reported":1742271116,"current_range_meters":10800,"station_id":"ce4bgkh2rcd13ifvqbk0","pricing_plan_id":"cebpf4jnsgd1na2vs0mg"},{"bike_id":"d0ecd06f-b344-485c-8550-9fa5bf448f53","system_id":"levelo_inurba_marseille","lat":43.25828,"lon":5.39435,"is_reserved":false,"is_disabled":false,"rental_uris":{"android":"levelo://app?vid=d0ecd06f-b344-485c-8550-9fa5bf448f53","ios":"levelo://app?vid=d0ecd06f-b344-485c-8550-9fa5bf448f53"},"vehicle_type_id":"4","last_reported":1742271116,"current_range_meters":10800,"station_id":"ce4bhip2rcd13ifvqft0","pricing_plan_id":"cebpf4jnsgd1na2vs0mg"},{"bike_id":"83388855-f72c-48b6-b9e8-bdfa5845ebe6","system_id":"levelo_inurba_marseille","lat":43.330103,"lon":5.390347,"is_reserved":false,"is_disabled":false,"rental_uris":{"android":"levelo://app?vid=83388855-f72c-48b6-b9e8-bdfa5845ebe6","ios":"levelo://app?vid=83388855-f72c-48b6-b9e8-bdfa5845ebe6"},"vehicle_type_id":"4","last_reported":1742271116,"current_range_meters":10800,"station_id":"ce4bhr92rcd13ifvqhrg","pricing_plan_id":"cebpf4jnsgd1na2vs0mg"},{"bike_id":"738d5a2a-1fe0-49dd-a3a3-3b9ad8ed3acf","system_id":"levelo_inurba_marseille","lat":43.29407,"lon":5.38588,"is_reserved":false,"is_disabled":true,"rental_uris":{"android":"levelo://app?vid=738d5a2a-1fe0-49dd-a3a3-3b9ad8ed3acf","ios":"levelo://app?vid=738d5a2a-1fe0-49dd-a3a3-3b9ad8ed3acf"},"vehicle_type_id":"4","last_reported":1742271116,"current_range_meters":10800,"station_id":"ce4bh2h2rcd13ifvqdh0","pricing_plan_id":"cebpf4jnsgd1na2vs0mg"},{"bike_id":"1cbb2b7c-06e0-4693-b46f-8e81a06eef8b","system_id":"levelo_inurba_marseille","lat":43.2884,"lon":5.35852,"is_reserved":false,"is_disabled":false,"rental_uris":{"android":"levelo://app?vid=1cbb2b7c-06e0-4693-b46f-8e81a06eef8b","ios":"levelo://app?vid=1cbb2b7c-06e0-4693-b46f-8e81a06eef8b"},"vehicle_type_id":"4","last_reported":1742271116,"current_range_meters":10800,"station_id":"ce4bhb12rcd13ifvqem0","pricing_plan_id":"cebpf4jnsgd1na2vs0mg"},{"bike_id":"76e24a7d-b6aa-46a7-b84a-cdc6d90b9b5a","system_id":"levelo_inurba_marseille","lat":43.32354,"lon":5.38883,"is_reserved":false,"is_disabled":false,"rental_uris":{"android":"levelo://app?vid=76e24a7d-b6aa-46a7-b84a-cdc6d90b9b5a","ios":"levelo://app?vid=76e24a7d-b6aa-46a7-b84a-cdc6d90b9b5a"},"vehicle_type_id":"4","last_reported":1742271116,"current_range_meters":10800,"station_id":"ce4bhqp2rcd13ifvqhog","pricing_plan_id":"cebpf4jnsgd1na2vs0mg"},{"bike_id":"14671431-e028-4e32-bec8-d483edad99c9","system_id":"levelo_inurba_marseille","lat":43.29223,"lon":5.36069,"is_reserved":false,"is_disabled":false,"rental_uris":{"android":"levelo://app?vid=14671431-e028-4e32-bec8-d483edad99c9","ios":"levelo://app?vid=14671431-e028-4e32-bec8-d483edad99c9"},"vehicle_type_id":"4","last_reported":1742271116,"current_range_meters":10800,"station_id":"ce4bhbh2rcd13ifvqeqg","pricing_plan_id":"cebpf4jnsgd1na2vs0mg"},{"bike_id":"8ac28d78-5edd-4b74-a78b-469ba0ce1454","system_id":"levelo_inurba_marseille","lat":43.27063,"lon":5.42275,"is_reserved":false,"is_disabled":false,"rental_uris":{"android":"levelo://app?vid=8ac28d78-5edd-4b74-a78b-469ba0ce1454","ios":"levelo://app?vid=8ac28d78-5edd-4b74-a78b-469ba0ce1454"},"vehicle_type_id":"4","last_reported":1742271116,"current_range_meters":10800,"station_id":"ce4bhk92rcd13ifvqgb0","pricing_plan_id":"cebpf4jnsgd1na2vs0mg"},{"bike_id":"4e950670-b096-4049-8c8c-3012830ea5a4","system_id":"levelo_inurba_marseille","lat":43.24387,"lon":5.37054,"is_reserved":false,"is_disabled":false,"rental_uris":{"android":"levelo://app?vid=4e950670-b096-4049-8c8c-3012830ea5a4","ios":"levelo://app?vid=4e950670-b096-4049-8c8c-3012830ea5a4"},"vehicle_type_id":"4","last_reported":1742271116,"current_range_meters":10800,"station_id":"ce4bhhh2rcd13ifvqfk0","pricing_plan_id":"cebpf4jnsgd1na2vs0mg"},{"bike_id":"e32d64c9-c96d-4fd2-8642-33f78856c9a5","system_id":"levelo_inurba_marseille","lat":43.28664,"lon":5.36341,"is_reserved":false,"is_disabled":false,"rental_uris":{"android":"levelo://app?vid=e32d64c9-c96d-4fd2-8642-33f78856c9a5","ios":"levelo://app?vid=e32d64c9-c96d-4fd2-8642-33f78856c9a5"},"vehicle_type_id":"4","last_reported":1742271116,"current_range_meters":10800,"station_id":"ce4bhah2rcd13ifvqej0","pricing_plan_id":"cebpf4jnsgd1na2vs0mg"},{"bike_id":"edfff627-4ced-4f9a-802b-56e39f5c1b96","system_id":"levelo_inurba_marseille","lat":43.2866,"lon":5.36358,"is_reserved":false,"is_disabled":false,"rental_uris":{"android":"levelo://app?vid=edfff627-4ced-4f9a-802b-56e39f5c1b96","ios":"levelo://app?vid=edfff627-4ced-4f9a-802b-56e39f5c1b96"},"vehicle_type_id":"4","last_reported":1742271116,"current_range_meters":11600,"station_id":"ce4bhah2rcd13ifvqej0","pricing_plan_id":"cebpf4jnsgd1na2vs0mg"},{"bike_id":"79475b52-95c4-4d5d-85e0-542cb50dc79c","system_id":"levelo_inurba_marseille","lat":43.28707,"lon":5.39979,"is_reserved":false,"is_disabled":false,"rental_uris":{"android":"levelo://app?vid=79475b52-95c4-4d5d-85e0-542cb50dc79c","ios":"levelo://app?vid=79475b52-95c4-4d5d-85e0-542cb50dc79c"},"vehicle_type_id":"4","last_reported":1742271116,"current_range_meters":11200,"station_id":"ce4bho92rcd13ifvqh3g","pricing_plan_id":"cebpf4jnsgd1na2vs0mg"},{"bike_id":"36fa2308-08a5-4b57-935f-18221edd3c2f","system_id":"levelo_inurba_marseille","lat":43.31121,"lon":5.377633,"is_reserved":false,"is_disabled":false,"rental_uris":{"android":"levelo://app?vid=36fa2308-08a5-4b57-935f-18221edd3c2f","ios":"levelo://app?vid=36fa2308-08a5-4b57-935f-18221edd3c2f"},"vehicle_type_id":"4","last_reported":1742271116,"current_range_meters":11200,"station_id":"ce4bgt92rcd13ifvqcg0","pricing_plan_id":"cebpf4jnsgd1na2vs0mg"},{"bike_id":"cb151f2f-c8d4-493c-8040-3bc4d320acac","system_id":"levelo_inurba_marseille","lat":43.30821,"lon":5.38151,"is_reserved":false,"is_disabled":true,"rental_uris":{"android":"levelo://app?vid=cb151f2f-c8d4-493c-8040-3bc4d320acac","ios":"levelo://app?vid=cb151f2f-c8d4-493c-8040-3bc4d320acac"},"vehicle_type_id":"4","last_reported":1742271116,"current_range_meters":11200,"station_id":"ce4bgt12rcd13ifvqce0","pricing_plan_id":"cebpf4jnsgd1na2vs0mg"},{"bike_id":"96e89a39-929a-49fe-8d6c-e47bf8ca7a6f","system_id":"levelo_inurba_marseille","lat":43.23049,"lon":5.35499,"is_reserved":false,"is_disabled":false,"rental_uris":{"android":"levelo://app?vid=96e89a39-929a-49fe-8d6c-e47bf8ca7a6f","ios":"levelo://app?vid=96e89a39-929a-49fe-8d6c-e47bf8ca7a6f"},"vehicle_type_id":"4","last_reported":1742271116,"current_range_meters":11200,"station_id":"cpo3342slgdg3j2ifvpg","pricing_plan_id":"cebpf4jnsgd1na2vs0mg"},{"bike_id":"89a9a07a-5569-426e-baa6-da72a98a25be","system_id":"levelo_inurba_marseille","lat":43.323677,"lon":5.388793,"is_reserved":false,"is_disabled":false,"rental_uris":{"android":"levelo://app?vid=89a9a07a-5569-426e-baa6-da72a98a25be","ios":"levelo://app?vid=89a9a07a-5569-426e-baa6-da72a98a25be"},"vehicle_type_id":"4","last_reported":1742271116,"current_range_meters":11200,"station_id":"ce4bhqp2rcd13ifvqhog","pricing_plan_id":"cebpf4jnsgd1na2vs0mg"},{"bike_id":"d750e5b5-ad8a-4d6d-bc53-55a7985ce36e","system_id":"levelo_inurba_marseille","lat":43.28077,"lon":5.43961,"is_reserved":false,"is_disabled":false,"rental_uris":{"android":"levelo://app?vid=d750e5b5-ad8a-4d6d-bc53-55a7985ce36e","ios":"levelo://app?vid=d750e5b5-ad8a-4d6d-bc53-55a7985ce36e"},"vehicle_type_id":"4","last_reported":1742271116,"current_range_meters":11200,"station_id":"","pricing_plan_id":"cebpf4jnsgd1na2vs0mg"},{"bike_id":"69e81812-1e66-46bc-a002-4e728dd66493","system_id":"levelo_inurba_marseille","lat":43.28316,"lon":5.38112,"is_reserved":false,"is_disabled":false,"rental_uris":{"android":"levelo://app?vid=69e81812-1e66-46bc-a002-4e728dd66493","ios":"levelo://app?vid=69e81812-1e66-46bc-a002-4e728dd66493"},"vehicle_type_id":"4","last_reported":1742271116,"current_range_meters":11600,"station_id":"ce4bh412rcd13ifvqdr0","pricing_plan_id":"cebpf4jnsgd1na2vs0mg"},{"bike_id":"4f13e81e-3cc3-4fb5-9db5-9d18ac099db6","system_id":"levelo_inurba_marseille","lat":43.2442,"lon":5.37076,"is_reserved":false,"is_disabled":false,"rental_uris":{"android":"levelo://app?vid=4f13e81e-3cc3-4fb5-9db5-9d18ac099db6","ios":"levelo://app?vid=4f13e81e-3cc3-4fb5-9db5-9d18ac099db6"},"vehicle_type_id":"4","last_reported":1742271116,"current_range_meters":11600,"station_id":"ce4bhhh2rcd13ifvqfk0","pricing_plan_id":"cebpf4jnsgd1na2vs0mg"},{"bike_id":"503ea444-21df-470f-9afd-8b708f765d15","system_id":"levelo_inurba_marseille","lat":43.31273,"lon":5.40176,"is_reserved":false,"is_disabled":false,"rental_uris":{"android":"levelo://app?vid=503ea444-21df-470f-9afd-8b708f765d15","ios":"levelo://app?vid=503ea444-21df-470f-9afd-8b708f765d15"},"vehicle_type_id":"4","last_reported":1742271116,"current_range_meters":11600,"station_id":"ce4bh092rcd13ifvqd30","pricing_plan_id":"cebpf4jnsgd1na2vs0mg"},{"bike_id":"b2e3d496-c547-48d6-9d79-b7fb6408db4e","system_id":"levelo_inurba_marseille","lat":43.283503,"lon":5.381067,"is_reserved":false,"is_disabled":false,"rental_uris":{"android":"levelo://app?vid=b2e3d496-c547-48d6-9d79-b7fb6408db4e","ios":"levelo://app?vid=b2e3d496-c547-48d6-9d79-b7fb6408db4e"},"vehicle_type_id":"4","last_reported":1742271116,"current_range_meters":12000,"station_id":"ce4bh412rcd13ifvqdr0","pricing_plan_id":"cebpf4jnsgd1na2vs0mg"},{"bike_id":"519efbbc-7577-4063-8eac-658ef30e98a3","system_id":"levelo_inurba_marseille","lat":43.24994,"lon":5.3894,"is_reserved":false,"is_disabled":false,"rental_uris":{"android":"levelo://app?vid=519efbbc-7577-4063-8eac-658ef30e98a3","ios":"levelo://app?vid=519efbbc-7577-4063-8eac-658ef30e98a3"},"vehicle_type_id":"4","last_reported":1742271116,"current_range_meters":12000,"station_id":"ce4bhgp2rcd13ifvqfd0","pricing_plan_id":"cebpf4jnsgd1na2vs0mg"},{"bike_id":"e73d0753-9aa9-46b1-8170-3b016fdb8f9a","system_id":"levelo_inurba_marseille","lat":43.330268,"lon":5.390441,"is_reserved":false,"is_disabled":false,"rental_uris":{"android":"levelo://app?vid=e73d0753-9aa9-46b1-8170-3b016fdb8f9a","ios":"levelo://app?vid=e73d0753-9aa9-46b1-8170-3b016fdb8f9a"},"vehicle_type_id":"4","last_reported":1742271116,"current_range_meters":12000,"station_id":"ce4bhr92rcd13ifvqhrg","pricing_plan_id":"cebpf4jnsgd1na2vs0mg"},{"bike_id":"b611c071-f0bb-41a2-aa25-420b921bc079","system_id":"levelo_inurba_marseille","lat":43.23071,"lon":5.35494,"is_reserved":false,"is_disabled":false,"rental_uris":{"android":"levelo://app?vid=b611c071-f0bb-41a2-aa25-420b921bc079","ios":"levelo://app?vid=b611c071-f0bb-41a2-aa25-420b921bc079"},"vehicle_type_id":"4","last_reported":1742271116,"current_range_meters":12000,"station_id":"cpo3342slgdg3j2ifvpg","pricing_plan_id":"cebpf4jnsgd1na2vs0mg"},{"bike_id":"5b9abdf1-3bd3-4da9-8cf3-0850e045aa24","system_id":"levelo_inurba_marseille","lat":43.23064,"lon":5.35506,"is_reserved":false,"is_disabled":false,"rental_uris":{"android":"levelo://app?vid=5b9abdf1-3bd3-4da9-8cf3-0850e045aa24","ios":"levelo://app?vid=5b9abdf1-3bd3-4da9-8cf3-0850e045aa24"},"vehicle_type_id":"4","last_reported":1742271116,"current_range_meters":12000,"station_id":"cpo3342slgdg3j2ifvpg","pricing_plan_id":"cebpf4jnsgd1na2vs0mg"},{"bike_id":"bae53788-0465-4ea6-ac11-f5aefb09d19a","system_id":"levelo_inurba_marseille","lat":43.27375,"lon":5.36273,"is_reserved":false,"is_disabled":false,"rental_uris":{"android":"levelo://app?vid=bae53788-0465-4ea6-ac11-f5aefb09d19a","ios":"levelo://app?vid=bae53788-0465-4ea6-ac11-f5aefb09d19a"},"vehicle_type_id":"4","last_reported":1742271116,"current_range_meters":12400,"station_id":"ce4bhbh2rcd13ifvqeo0","pricing_plan_id":"cebpf4jnsgd1na2vs0mg"},{"bike_id":"ad912979-caff-4639-917f-3d8ad67aa3d6","system_id":"levelo_inurba_marseille","lat":43.30885,"lon":5.39655,"is_reserved":false,"is_disabled":false,"rental_uris":{"android":"levelo://app?vid=ad912979-caff-4639-917f-3d8ad67aa3d6","ios":"levelo://app?vid=ad912979-caff-4639-917f-3d8ad67aa3d6"},"vehicle_type_id":"4","last_reported":1742271116,"current_range_meters":12400,"station_id":"ce4bh012rcd13ifvqcv0","pricing_plan_id":"cebpf4jnsgd1na2vs0mg"},{"bike_id":"522f99cb-f105-4bf1-8b05-dccec75ba908","system_id":"levelo_inurba_marseille","lat":43.302756,"lon":5.37683,"is_reserved":false,"is_disabled":true,"rental_uris":{"android":"levelo://app?vid=522f99cb-f105-4bf1-8b05-dccec75ba908","ios":"levelo://app?vid=522f99cb-f105-4bf1-8b05-dccec75ba908"},"vehicle_type_id":"4","last_reported":1742271116,"current_range_meters":12400,"station_id":"","pricing_plan_id":"cebpf4jnsgd1na2vs0mg"},{"bike_id":"49ea8e69-55c5-4442-932a-be3093fc34a4","system_id":"levelo_inurba_marseille","lat":43.30239,"lon":5.40062,"is_reserved":false,"is_disabled":false,"rental_uris":{"android":"levelo://app?vid=49ea8e69-55c5-4442-932a-be3093fc34a4","ios":"levelo://app?vid=49ea8e69-55c5-4442-932a-be3093fc34a4"},"vehicle_type_id":"4","last_reported":1742271116,"current_range_meters":12400,"station_id":"ce4bgvh2rcd13ifvqcs0","pricing_plan_id":"cebpf4jnsgd1na2vs0mg"},{"bike_id":"1792d8d9-94e9-4be8-a943-d43bd76d9d82","system_id":"levelo_inurba_marseille","lat":43.29876,"lon":5.38903,"is_reserved":false,"is_disabled":true,"rental_uris":{"android":"levelo://app?vid=1792d8d9-94e9-4be8-a943-d43bd76d9d82","ios":"levelo://app?vid=1792d8d9-94e9-4be8-a943-d43bd76d9d82"},"vehicle_type_id":"4","last_reported":1742271116,"current_range_meters":12400,"station_id":"ce4bh392rcd13ifvqdl0","pricing_plan_id":"cebpf4jnsgd1na2vs0mg"},{"bike_id":"79bcedff-1023-4ca2-9e56-9eb557466606","system_id":"levelo_inurba_marseille","lat":43.28622,"lon":5.35094,"is_reserved":false,"is_disabled":false,"rental_uris":{"android":"levelo://app?vid=79bcedff-1023-4ca2-9e56-9eb557466606","ios":"levelo://app?vid=79bcedff-1023-4ca2-9e56-9eb557466606"},"vehicle_type_id":"4","last_reported":1742271116,"current_range_meters":12400,"station_id":"ce4bhch2rcd13ifvqeug","pricing_plan_id":"cebpf4jnsgd1na2vs0mg"},{"bike_id":"52f71405-f6a3-4dcb-9351-93f3d88614de","system_id":"levelo_inurba_marseille","lat":43.28286,"lon":5.35084,"is_reserved":false,"is_disabled":true,"rental_uris":{"android":"levelo://app?vid=52f71405-f6a3-4dcb-9351-93f3d88614de","ios":"levelo://app?vid=52f71405-f6a3-4dcb-9351-93f3d88614de"},"vehicle_type_id":"4","last_reported":1742271116,"current_range_meters":12400,"station_id":"ce4bhbp2rcd13ifvqerg","pricing_plan_id":"cebpf4jnsgd1na2vs0mg"},{"bike_id":"2a996232-3ff7-4452-a56b-d5a9bd19f0f6","system_id":"levelo_inurba_marseille","lat":43.265711,"lon":5.390029,"is_reserved":false,"is_disabled":false,"rental_uris":{"android":"levelo://app?vid=2a996232-3ff7-4452-a56b-d5a9bd19f0f6","ios":"levelo://app?vid=2a996232-3ff7-4452-a56b-d5a9bd19f0f6"},"vehicle_type_id":"4","last_reported":1742271116,"current_range_meters":12400,"station_id":"ce4bhe12rcd13ifvqf30","pricing_plan_id":"cebpf4jnsgd1na2vs0mg"},{"bike_id":"ce774e89-e025-4591-b6af-fbdc1caf5fcf","system_id":"levelo_inurba_marseille","lat":43.31063,"lon":5.38358,"is_reserved":false,"is_disabled":false,"rental_uris":{"android":"levelo://app?vid=ce774e89-e025-4591-b6af-fbdc1caf5fcf","ios":"levelo://app?vid=ce774e89-e025-4591-b6af-fbdc1caf5fcf"},"vehicle_type_id":"4","last_reported":1742271116,"current_range_meters":12400,"station_id":"ce4bgv92rcd13ifvqcr0","pricing_plan_id":"cebpf4jnsgd1na2vs0mg"},{"bike_id":"69c60920-4190-479f-8615-c3f960573ed4","system_id":"levelo_inurba_marseille","lat":43.320291,"lon":5.38079,"is_reserved":false,"is_disabled":false,"rental_uris":{"android":"levelo://app?vid=69c60920-4190-479f-8615-c3f960573ed4","ios":"levelo://app?vid=69c60920-4190-479f-8615-c3f960573ed4"},"vehicle_type_id":"4","last_reported":1742271116,"current_range_meters":12400,"station_id":"","pricing_plan_id":"cebpf4jnsgd1na2vs0mg"},{"bike_id":"00a16840-0878-453f-8d81-40c5c75cf10a","system_id":"levelo_inurba_marseille","lat":43.25089,"lon":5.395134,"is_reserved":false,"is_disabled":false,"rental_uris":{"android":"levelo://app?vid=00a16840-0878-453f-8d81-40c5c75cf10a","ios":"levelo://app?vid=00a16840-0878-453f-8d81-40c5c75cf10a"},"vehicle_type_id":"4","last_reported":1742271116,"current_range_meters":12800,"station_id":"ce4bhm12rcd13ifvqgkg","pricing_plan_id":"cebpf4jnsgd1na2vs0mg"},{"bike_id":"d00028dc-9b0d-47df-ad9d-778d21fb21b2","system_id":"levelo_inurba_marseille","lat":43.23191,"lon":5.35546,"is_reserved":false,"is_disabled":false,"rental_uris":{"android":"levelo://app?vid=d00028dc-9b0d-47df-ad9d-778d21fb21b2","ios":"levelo://app?vid=d00028dc-9b0d-47df-ad9d-778d21fb21b2"},"vehicle_type_id":"4","last_reported":1742271116,"current_range_meters":12800,"station_id":"ce4bhu92rcd13ifvqi70","pricing_plan_id":"cebpf4jnsgd1na2vs0mg"},{"bike_id":"1815d1cb-df39-4556-a77f-7dca1f1c06cf","system_id":"levelo_inurba_marseille","lat":43.255785,"lon":5.382381,"is_reserved":false,"is_disabled":false,"rental_uris":{"android":"levelo://app?vid=1815d1cb-df39-4556-a77f-7dca1f1c06cf","ios":"levelo://app?vid=1815d1cb-df39-4556-a77f-7dca1f1c06cf"},"vehicle_type_id":"4","last_reported":1742271116,"current_range_meters":12800,"station_id":"ce4bhih2rcd13ifvqfs0","pricing_plan_id":"cebpf4jnsgd1na2vs0mg"},{"bike_id":"0115ca1f-4c74-4f2c-87dd-beb67b595748","system_id":"levelo_inurba_marseille","lat":43.25715,"lon":5.41113,"is_reserved":false,"is_disabled":false,"rental_uris":{"android":"levelo://app?vid=0115ca1f-4c74-4f2c-87dd-beb67b595748","ios":"levelo://app?vid=0115ca1f-4c74-4f2c-87dd-beb67b595748"},"vehicle_type_id":"4","last_reported":1742271116,"current_range_meters":12800,"station_id":"ce4bhkp2rcd13ifvqgd0","pricing_plan_id":"cebpf4jnsgd1na2vs0mg"},{"bike_id":"cac5a37e-d96e-40f4-a8ee-8b3f2f9585be","system_id":"levelo_inurba_marseille","lat":43.28408,"lon":5.37516,"is_reserved":false,"is_disabled":false,"rental_uris":{"android":"levelo://app?vid=cac5a37e-d96e-40f4-a8ee-8b3f2f9585be","ios":"levelo://app?vid=cac5a37e-d96e-40f4-a8ee-8b3f2f9585be"},"vehicle_type_id":"4","last_reported":1742271116,"current_range_meters":12800,"station_id":"ce4bh412rcd13ifvqds0","pricing_plan_id":"cebpf4jnsgd1na2vs0mg"},{"bike_id":"c56d01fa-72e7-4c41-b43d-f87e4c0b4774","system_id":"levelo_inurba_marseille","lat":43.26171,"lon":5.40447,"is_reserved":false,"is_disabled":false,"rental_uris":{"android":"levelo://app?vid=c56d01fa-72e7-4c41-b43d-f87e4c0b4774","ios":"levelo://app?vid=c56d01fa-72e7-4c41-b43d-f87e4c0b4774"},"vehicle_type_id":"4","last_reported":1742271116,"current_range_meters":13600,"station_id":"ce4bhmh2rcd13ifvqgmg","pricing_plan_id":"cebpf4jnsgd1na2vs0mg"},{"bike_id":"8fbbb25a-5f89-4d8e-8a28-beb387620081","system_id":"levelo_inurba_marseille","lat":43.29896,"lon":5.3973,"is_reserved":false,"is_disabled":false,"rental_uris":{"android":"levelo://app?vid=8fbbb25a-5f89-4d8e-8a28-beb387620081","ios":"levelo://app?vid=8fbbb25a-5f89-4d8e-8a28-beb387620081"},"vehicle_type_id":"4","last_reported":1742271116,"current_range_meters":12800,"station_id":"ce4bh0h2rcd13ifvqd50","pricing_plan_id":"cebpf4jnsgd1na2vs0mg"},{"bike_id":"2e2061a1-5f41-4b16-8432-f15a0f775ae4","system_id":"levelo_inurba_marseille","lat":43.278199,"lon":5.40713,"is_reserved":false,"is_disabled":false,"rental_uris":{"android":"levelo://app?vid=2e2061a1-5f41-4b16-8432-f15a0f775ae4","ios":"levelo://app?vid=2e2061a1-5f41-4b16-8432-f15a0f775ae4"},"vehicle_type_id":"4","last_reported":1742271116,"current_range_meters":13600,"station_id":"ce4bhnh2rcd13ifvqgtg","pricing_plan_id":"cebpf4jnsgd1na2vs0mg"},{"bike_id":"0b23e3a4-76cd-4c4b-a20c-6c16ebff5dc2","system_id":"levelo_inurba_marseille","lat":43.28337,"lon":5.38121,"is_reserved":false,"is_disabled":false,"rental_uris":{"android":"levelo://app?vid=0b23e3a4-76cd-4c4b-a20c-6c16ebff5dc2","ios":"levelo://app?vid=0b23e3a4-76cd-4c4b-a20c-6c16ebff5dc2"},"vehicle_type_id":"4","last_reported":1742271116,"current_range_meters":13600,"station_id":"ce4bh412rcd13ifvqdr0","pricing_plan_id":"cebpf4jnsgd1na2vs0mg"},{"bike_id":"8e5a7bf6-ece1-4255-a012-c2d84a797fb5","system_id":"levelo_inurba_marseille","lat":43.29034,"lon":5.38112,"is_reserved":false,"is_disabled":true,"rental_uris":{"android":"levelo://app?vid=8e5a7bf6-ece1-4255-a012-c2d84a797fb5","ios":"levelo://app?vid=8e5a7bf6-ece1-4255-a012-c2d84a797fb5"},"vehicle_type_id":"4","last_reported":1742271116,"current_range_meters":13600,"station_id":"ce4bh4p2rcd13ifvqe1g","pricing_plan_id":"cebpf4jnsgd1na2vs0mg"},{"bike_id":"d9ba8c89-85c9-431f-80ea-43836b1e7c51","system_id":"levelo_inurba_marseille","lat":43.255777,"lon":5.382384,"is_reserved":false,"is_disabled":false,"rental_uris":{"android":"levelo://app?vid=d9ba8c89-85c9-431f-80ea-43836b1e7c51","ios":"levelo://app?vid=d9ba8c89-85c9-431f-80ea-43836b1e7c51"},"vehicle_type_id":"4","last_reported":1742271116,"current_range_meters":13600,"station_id":"ce4bhih2rcd13ifvqfs0","pricing_plan_id":"cebpf4jnsgd1na2vs0mg"},{"bike_id":"ca1c0a28-8faf-435f-9d8b-370c3a07ff34","system_id":"levelo_inurba_marseille","lat":43.24163,"lon":5.36397,"is_reserved":false,"is_disabled":false,"rental_uris":{"android":"levelo://app?vid=ca1c0a28-8faf-435f-9d8b-370c3a07ff34","ios":"levelo://app?vid=ca1c0a28-8faf-435f-9d8b-370c3a07ff34"},"vehicle_type_id":"4","last_reported":1742271116,"current_range_meters":13600,"station_id":"cpo36qri1sfpv3e86is0","pricing_plan_id":"cebpf4jnsgd1na2vs0mg"},{"bike_id":"ceb28801-3637-4268-a6b5-1a1cbbe47f56","system_id":"levelo_inurba_marseille","lat":43.29181,"lon":5.40881,"is_reserved":false,"is_disabled":false,"rental_uris":{"android":"levelo://app?vid=ceb28801-3637-4268-a6b5-1a1cbbe47f56","ios":"levelo://app?vid=ceb28801-3637-4268-a6b5-1a1cbbe47f56"},"vehicle_type_id":"4","last_reported":1742271116,"current_range_meters":13600,"station_id":"","pricing_plan_id":"cebpf4jnsgd1na2vs0mg"},{"bike_id":"ffbd3848-dcdb-4e34-ade3-7a94d9cd2780","system_id":"levelo_inurba_marseille","lat":43.26966,"lon":5.40256,"is_reserved":false,"is_disabled":false,"rental_uris":{"android":"levelo://app?vid=ffbd3848-dcdb-4e34-ade3-7a94d9cd2780","ios":"levelo://app?vid=ffbd3848-dcdb-4e34-ade3-7a94d9cd2780"},"vehicle_type_id":"4","last_reported":1742271116,"current_range_meters":13600,"station_id":"cjm6bp8fraef2m0cb0m0","pricing_plan_id":"cebpf4jnsgd1na2vs0mg"},{"bike_id":"358f5aab-7b63-4826-bc44-0ce9d0afdb17","system_id":"levelo_inurba_marseille","lat":43.26794,"lon":5.40214,"is_reserved":false,"is_disabled":false,"rental_uris":{"android":"levelo://app?vid=358f5aab-7b63-4826-bc44-0ce9d0afdb17","ios":"levelo://app?vid=358f5aab-7b63-4826-bc44-0ce9d0afdb17"},"vehicle_type_id":"4","last_reported":1742271116,"current_range_meters":13600,"station_id":"ce501612rcd8frsf0b60","pricing_plan_id":"cebpf4jnsgd1na2vs0mg"},{"bike_id":"90cb5d36-c218-4ec9-b5e8-18030c9fbd25","system_id":"levelo_inurba_marseille","lat":43.280965,"lon":5.378565,"is_reserved":false,"is_disabled":false,"rental_uris":{"android":"levelo://app?vid=90cb5d36-c218-4ec9-b5e8-18030c9fbd25","ios":"levelo://app?vid=90cb5d36-c218-4ec9-b5e8-18030c9fbd25"},"vehicle_type_id":"4","last_reported":1742271116,"current_range_meters":14000,"station_id":"ce4bha12rcd13ifvqee0","pricing_plan_id":"cebpf4jnsgd1na2vs0mg"},{"bike_id":"416131ac-dc4d-4eb0-916f-73a702a6ff95","system_id":"levelo_inurba_marseille","lat":43.31709,"lon":5.42421,"is_reserved":false,"is_disabled":false,"rental_uris":{"android":"levelo://app?vid=416131ac-dc4d-4eb0-916f-73a702a6ff95","ios":"levelo://app?vid=416131ac-dc4d-4eb0-916f-73a702a6ff95"},"vehicle_type_id":"4","last_reported":1742271116,"current_range_meters":14000,"station_id":"ce4bhp92rcd13ifvqhbg","pricing_plan_id":"cebpf4jnsgd1na2vs0mg"},{"bike_id":"ae5607e8-7e53-43b8-bdfb-f4fb95825493","system_id":"levelo_inurba_marseille","lat":43.26913,"lon":5.38454,"is_reserved":false,"is_disabled":false,"rental_uris":{"android":"levelo://app?vid=ae5607e8-7e53-43b8-bdfb-f4fb95825493","ios":"levelo://app?vid=ae5607e8-7e53-43b8-bdfb-f4fb95825493"},"vehicle_type_id":"4","last_reported":1742271116,"current_range_meters":14000,"station_id":"","pricing_plan_id":"cebpf4jnsgd1na2vs0mg"},{"bike_id":"175919c0-deb0-4e48-9a06-eea90edc3e69","system_id":"levelo_inurba_marseille","lat":43.23188,"lon":5.35556,"is_reserved":false,"is_disabled":false,"rental_uris":{"android":"levelo://app?vid=175919c0-deb0-4e48-9a06-eea90edc3e69","ios":"levelo://app?vid=175919c0-deb0-4e48-9a06-eea90edc3e69"},"vehicle_type_id":"4","last_reported":1742271116,"current_range_meters":14000,"station_id":"ce4bhu92rcd13ifvqi70","pricing_plan_id":"cebpf4jnsgd1na2vs0mg"},{"bike_id":"ab11fa9b-759f-447f-a4f1-b143e2360775","system_id":"levelo_inurba_marseille","lat":43.31349,"lon":5.39167,"is_reserved":false,"is_disabled":false,"rental_uris":{"android":"levelo://app?vid=ab11fa9b-759f-447f-a4f1-b143e2360775","ios":"levelo://app?vid=ab11fa9b-759f-447f-a4f1-b143e2360775"},"vehicle_type_id":"4","last_reported":1742271116,"current_range_meters":14000,"station_id":"","pricing_plan_id":"cebpf4jnsgd1na2vs0mg"},{"bike_id":"89cb3140-d211-4c4d-97ca-7e01c3c4da90","system_id":"levelo_inurba_marseille","lat":43.2319,"lon":5.35583,"is_reserved":false,"is_disabled":false,"rental_uris":{"android":"levelo://app?vid=89cb3140-d211-4c4d-97ca-7e01c3c4da90","ios":"levelo://app?vid=89cb3140-d211-4c4d-97ca-7e01c3c4da90"},"vehicle_type_id":"4","last_reported":1742271116,"current_range_meters":14000,"station_id":"ce4bhu92rcd13ifvqi70","pricing_plan_id":"cebpf4jnsgd1na2vs0mg"},{"bike_id":"976d1b02-d71e-49d5-8a53-ed7c6fd5dc81","system_id":"levelo_inurba_marseille","lat":43.281079,"lon":5.378289,"is_reserved":false,"is_disabled":false,"rental_uris":{"android":"levelo://app?vid=976d1b02-d71e-49d5-8a53-ed7c6fd5dc81","ios":"levelo://app?vid=976d1b02-d71e-49d5-8a53-ed7c6fd5dc81"},"vehicle_type_id":"4","last_reported":1742271116,"current_range_meters":14000,"station_id":"ce4bha12rcd13ifvqee0","pricing_plan_id":"cebpf4jnsgd1na2vs0mg"},{"bike_id":"5fad7cfb-4a9e-4083-a305-53e7b2fa77f0","system_id":"levelo_inurba_marseille","lat":43.281063,"lon":5.378347,"is_reserved":false,"is_disabled":false,"rental_uris":{"android":"levelo://app?vid=5fad7cfb-4a9e-4083-a305-53e7b2fa77f0","ios":"levelo://app?vid=5fad7cfb-4a9e-4083-a305-53e7b2fa77f0"},"vehicle_type_id":"4","last_reported":1742271116,"current_range_meters":14400,"station_id":"ce4bha12rcd13ifvqee0","pricing_plan_id":"cebpf4jnsgd1na2vs0mg"},{"bike_id":"b3e77073-222d-4f08-97e1-729a2c44c2e2","system_id":"levelo_inurba_marseille","lat":43.24155,"lon":5.36399,"is_reserved":false,"is_disabled":false,"rental_uris":{"android":"levelo://app?vid=b3e77073-222d-4f08-97e1-729a2c44c2e2","ios":"levelo://app?vid=b3e77073-222d-4f08-97e1-729a2c44c2e2"},"vehicle_type_id":"4","last_reported":1742271116,"current_range_meters":14400,"station_id":"cpo36qri1sfpv3e86is0","pricing_plan_id":"cebpf4jnsgd1na2vs0mg"},{"bike_id":"fbc1d39d-8a74-485c-b223-434b00da1b4d","system_id":"levelo_inurba_marseille","lat":43.28558,"lon":5.38974,"is_reserved":false,"is_disabled":false,"rental_uris":{"android":"levelo://app?vid=fbc1d39d-8a74-485c-b223-434b00da1b4d","ios":"levelo://app?vid=fbc1d39d-8a74-485c-b223-434b00da1b4d"},"vehicle_type_id":"4","last_reported":1742271116,"current_range_meters":14400,"station_id":"","pricing_plan_id":"cebpf4jnsgd1na2vs0mg"},{"bike_id":"37a37498-476e-45d8-89f8-11c6020bfc9d","system_id":"levelo_inurba_marseille","lat":43.3088,"lon":5.39654,"is_reserved":false,"is_disabled":false,"rental_uris":{"android":"levelo://app?vid=37a37498-476e-45d8-89f8-11c6020bfc9d","ios":"levelo://app?vid=37a37498-476e-45d8-89f8-11c6020bfc9d"},"vehicle_type_id":"4","last_reported":1742271116,"current_range_meters":14400,"station_id":"ce4bh012rcd13ifvqcv0","pricing_plan_id":"cebpf4jnsgd1na2vs0mg"},{"bike_id":"0e5e2eae-194e-48af-b00d-85746429d2a4","system_id":"levelo_inurba_marseille","lat":43.28442,"lon":5.39169,"is_reserved":false,"is_disabled":false,"rental_uris":{"android":"levelo://app?vid=0e5e2eae-194e-48af-b00d-85746429d2a4","ios":"levelo://app?vid=0e5e2eae-194e-48af-b00d-85746429d2a4"},"vehicle_type_id":"4","last_reported":1742271116,"current_range_meters":14400,"station_id":"ce4bhoh2rcd13ifvqh5g","pricing_plan_id":"cebpf4jnsgd1na2vs0mg"},{"bike_id":"a0f40267-bfd4-4569-bc6e-8bd2ccaaa48a","system_id":"levelo_inurba_marseille","lat":43.284601,"lon":5.358879,"is_reserved":false,"is_disabled":false,"rental_uris":{"android":"levelo://app?vid=a0f40267-bfd4-4569-bc6e-8bd2ccaaa48a","ios":"levelo://app?vid=a0f40267-bfd4-4569-bc6e-8bd2ccaaa48a"},"vehicle_type_id":"4","last_reported":1742271116,"current_range_meters":14800,"station_id":"ce4bhah2rcd13ifvqei0","pricing_plan_id":"cebpf4jnsgd1na2vs0mg"},{"bike_id":"efbf13ea-8cdf-4a21-a399-0d1d6ea79b91","system_id":"levelo_inurba_marseille","lat":43.295165,"lon":5.394033,"is_reserved":false,"is_disabled":false,"rental_uris":{"android":"levelo://app?vid=efbf13ea-8cdf-4a21-a399-0d1d6ea79b91","ios":"levelo://app?vid=efbf13ea-8cdf-4a21-a399-0d1d6ea79b91"},"vehicle_type_id":"4","last_reported":1742271116,"current_range_meters":14800,"station_id":"ce4bh292rcd13ifvqdf0","pricing_plan_id":"cebpf4jnsgd1na2vs0mg"},{"bike_id":"f756af3a-bb86-47ef-868b-a23db24477df","system_id":"levelo_inurba_marseille","lat":43.23198,"lon":5.39967,"is_reserved":false,"is_disabled":false,"rental_uris":{"android":"levelo://app?vid=f756af3a-bb86-47ef-868b-a23db24477df","ios":"levelo://app?vid=f756af3a-bb86-47ef-868b-a23db24477df"},"vehicle_type_id":"4","last_reported":1742271116,"current_range_meters":14800,"station_id":"ce4bhn12rcd13ifvqgqg","pricing_plan_id":"cebpf4jnsgd1na2vs0mg"},{"bike_id":"4d1e08b1-62d4-45bd-99bd-03b376e11758","system_id":"levelo_inurba_marseille","lat":43.33019,"lon":5.39037,"is_reserved":false,"is_disabled":false,"rental_uris":{"android":"levelo://app?vid=4d1e08b1-62d4-45bd-99bd-03b376e11758","ios":"levelo://app?vid=4d1e08b1-62d4-45bd-99bd-03b376e11758"},"vehicle_type_id":"4","last_reported":1742271116,"current_range_meters":15200,"station_id":"ce4bhr92rcd13ifvqhrg","pricing_plan_id":"cebpf4jnsgd1na2vs0mg"},{"bike_id":"b7105cca-14fa-4c99-84e8-bf3944939eba","system_id":"levelo_inurba_marseille","lat":43.31325,"lon":5.39692,"is_reserved":false,"is_disabled":false,"rental_uris":{"android":"levelo://app?vid=b7105cca-14fa-4c99-84e8-bf3944939eba","ios":"levelo://app?vid=b7105cca-14fa-4c99-84e8-bf3944939eba"},"vehicle_type_id":"4","last_reported":1742271116,"current_range_meters":15200,"station_id":"ce4bgvp2rcd13ifvqcu0","pricing_plan_id":"cebpf4jnsgd1na2vs0mg"},{"bike_id":"8769ec2c-589d-41c1-985f-1d28ac7574aa","system_id":"levelo_inurba_marseille","lat":43.23143,"lon":5.43723,"is_reserved":false,"is_disabled":false,"rental_uris":{"android":"levelo://app?vid=8769ec2c-589d-41c1-985f-1d28ac7574aa","ios":"levelo://app?vid=8769ec2c-589d-41c1-985f-1d28ac7574aa"},"vehicle_type_id":"4","last_reported":1742271116,"current_range_meters":15200,"station_id":"ce4bhmp2rcd13ifvqgog","pricing_plan_id":"cebpf4jnsgd1na2vs0mg"},{"bike_id":"50880c33-fb65-4637-84ac-20bb27eda8b5","system_id":"levelo_inurba_marseille","lat":43.23194,"lon":5.35567,"is_reserved":false,"is_disabled":false,"rental_uris":{"android":"levelo://app?vid=50880c33-fb65-4637-84ac-20bb27eda8b5","ios":"levelo://app?vid=50880c33-fb65-4637-84ac-20bb27eda8b5"},"vehicle_type_id":"4","last_reported":1742271116,"current_range_meters":15200,"station_id":"ce4bhu92rcd13ifvqi70","pricing_plan_id":"cebpf4jnsgd1na2vs0mg"},{"bike_id":"4222e43a-4c2f-42f6-94ae-08e0bc47ef86","system_id":"levelo_inurba_marseille","lat":43.301823,"lon":5.366121,"is_reserved":false,"is_disabled":false,"rental_uris":{"android":"levelo://app?vid=4222e43a-4c2f-42f6-94ae-08e0bc47ef86","ios":"levelo://app?vid=4222e43a-4c2f-42f6-94ae-08e0bc47ef86"},"vehicle_type_id":"4","last_reported":1742271116,"current_range_meters":14800,"station_id":"ce4bgi92rcd13ifvqb90","pricing_plan_id":"cebpf4jnsgd1na2vs0mg"},{"bike_id":"46fb0b1b-1955-4ab4-b766-1924deb90ec6","system_id":"levelo_inurba_marseille","lat":43.240814,"lon":5.377359,"is_reserved":false,"is_disabled":false,"rental_uris":{"android":"levelo://app?vid=46fb0b1b-1955-4ab4-b766-1924deb90ec6","ios":"levelo://app?vid=46fb0b1b-1955-4ab4-b766-1924deb90ec6"},"vehicle_type_id":"4","last_reported":1742271116,"current_range_meters":15200,"station_id":"ce4bhnp2rcd13ifvqgvg","pricing_plan_id":"cebpf4jnsgd1na2vs0mg"},{"bike_id":"c1a91f07-32c1-46bb-a3b9-9ea9dc2d6959","system_id":"levelo_inurba_marseille","lat":43.28713,"lon":5.37393,"is_reserved":false,"is_disabled":false,"rental_uris":{"android":"levelo://app?vid=c1a91f07-32c1-46bb-a3b9-9ea9dc2d6959","ios":"levelo://app?vid=c1a91f07-32c1-46bb-a3b9-9ea9dc2d6959"},"vehicle_type_id":"4","last_reported":1742271116,"current_range_meters":15200,"station_id":"ce4bh3p2rcd13ifvqdq0","pricing_plan_id":"cebpf4jnsgd1na2vs0mg"},{"bike_id":"7dce552b-b1c6-4b09-8149-cae7ba937df2","system_id":"levelo_inurba_marseille","lat":43.292941,"lon":5.409023,"is_reserved":false,"is_disabled":false,"rental_uris":{"android":"levelo://app?vid=7dce552b-b1c6-4b09-8149-cae7ba937df2","ios":"levelo://app?vid=7dce552b-b1c6-4b09-8149-cae7ba937df2"},"vehicle_type_id":"4","last_reported":1742271116,"current_range_meters":16000,"station_id":"ce4bh192rcd13ifvqdc0","pricing_plan_id":"cebpf4jnsgd1na2vs0mg"},{"bike_id":"148e2355-b083-4eed-9398-3fff0c67db3b","system_id":"levelo_inurba_marseille","lat":43.27813,"lon":5.40712,"is_reserved":false,"is_disabled":false,"rental_uris":{"android":"levelo://app?vid=148e2355-b083-4eed-9398-3fff0c67db3b","ios":"levelo://app?vid=148e2355-b083-4eed-9398-3fff0c67db3b"},"vehicle_type_id":"4","last_reported":1742271116,"current_range_meters":16000,"station_id":"ce4bhnh2rcd13ifvqgtg","pricing_plan_id":"cebpf4jnsgd1na2vs0mg"},{"bike_id":"89c71be1-4e0c-4e4c-b380-146488b4338b","system_id":"levelo_inurba_marseille","lat":43.23053,"lon":5.35494,"is_reserved":false,"is_disabled":false,"rental_uris":{"android":"levelo://app?vid=89c71be1-4e0c-4e4c-b380-146488b4338b","ios":"levelo://app?vid=89c71be1-4e0c-4e4c-b380-146488b4338b"},"vehicle_type_id":"4","last_reported":1742271116,"current_range_meters":16000,"station_id":"cpo3342slgdg3j2ifvpg","pricing_plan_id":"cebpf4jnsgd1na2vs0mg"},{"bike_id":"d79ae72f-c854-430e-8859-f8cc05c8dcc2","system_id":"levelo_inurba_marseille","lat":43.28268,"lon":5.3507,"is_reserved":false,"is_disabled":false,"rental_uris":{"android":"levelo://app?vid=d79ae72f-c854-430e-8859-f8cc05c8dcc2","ios":"levelo://app?vid=d79ae72f-c854-430e-8859-f8cc05c8dcc2"},"vehicle_type_id":"4","last_reported":1742271116,"current_range_meters":16000,"station_id":"ce4bhbp2rcd13ifvqerg","pricing_plan_id":"cebpf4jnsgd1na2vs0mg"},{"bike_id":"baf89664-afe7-403c-a15d-4f956a39db8b","system_id":"levelo_inurba_marseille","lat":43.243883,"lon":5.370489,"is_reserved":false,"is_disabled":false,"rental_uris":{"android":"levelo://app?vid=baf89664-afe7-403c-a15d-4f956a39db8b","ios":"levelo://app?vid=baf89664-afe7-403c-a15d-4f956a39db8b"},"vehicle_type_id":"4","last_reported":1742271116,"current_range_meters":16000,"station_id":"ce4bhhh2rcd13ifvqfk0","pricing_plan_id":"cebpf4jnsgd1na2vs0mg"},{"bike_id":"612c7dec-768e-40ad-b127-631266c53f85","system_id":"levelo_inurba_marseille","lat":43.25864,"lon":5.39911,"is_reserved":false,"is_disabled":false,"rental_uris":{"android":"levelo://app?vid=612c7dec-768e-40ad-b127-631266c53f85","ios":"levelo://app?vid=612c7dec-768e-40ad-b127-631266c53f85"},"vehicle_type_id":"4","last_reported":1742271116,"current_range_meters":16000,"station_id":"ce4bhl92rcd13ifvqghg","pricing_plan_id":"cebpf4jnsgd1na2vs0mg"},{"bike_id":"df875675-2fbc-4d55-90b5-998924317d2e","system_id":"levelo_inurba_marseille","lat":43.315342,"lon":5.380297,"is_reserved":false,"is_disabled":false,"rental_uris":{"android":"levelo://app?vid=df875675-2fbc-4d55-90b5-998924317d2e","ios":"levelo://app?vid=df875675-2fbc-4d55-90b5-998924317d2e"},"vehicle_type_id":"4","last_reported":1742271116,"current_range_meters":16400,"station_id":"ce4bhsp2rcd13ifvqi50","pricing_plan_id":"cebpf4jnsgd1na2vs0mg"},{"bike_id":"97012ab7-a8e3-4d9a-9947-3f3701707313","system_id":"levelo_inurba_marseille","lat":43.25813,"lon":5.39438,"is_reserved":false,"is_disabled":false,"rental_uris":{"android":"levelo://app?vid=97012ab7-a8e3-4d9a-9947-3f3701707313","ios":"levelo://app?vid=97012ab7-a8e3-4d9a-9947-3f3701707313"},"vehicle_type_id":"4","last_reported":1742271116,"current_range_meters":16400,"station_id":"ce4bhip2rcd13ifvqft0","pricing_plan_id":"cebpf4jnsgd1na2vs0mg"},{"bike_id":"e7f562c7-c446-4a60-8f0d-9634259dd0da","system_id":"levelo_inurba_marseille","lat":43.28398,"lon":5.37531,"is_reserved":false,"is_disabled":false,"rental_uris":{"android":"levelo://app?vid=e7f562c7-c446-4a60-8f0d-9634259dd0da","ios":"levelo://app?vid=e7f562c7-c446-4a60-8f0d-9634259dd0da"},"vehicle_type_id":"4","last_reported":1742271116,"current_range_meters":16400,"station_id":"ce4bh412rcd13ifvqds0","pricing_plan_id":"cebpf4jnsgd1na2vs0mg"},{"bike_id":"328c9321-bdee-40c0-b153-ab441d6322d6","system_id":"levelo_inurba_marseille","lat":43.323672,"lon":5.367533,"is_reserved":false,"is_disabled":false,"rental_uris":{"android":"levelo://app?vid=328c9321-bdee-40c0-b153-ab441d6322d6","ios":"levelo://app?vid=328c9321-bdee-40c0-b153-ab441d6322d6"},"vehicle_type_id":"4","last_reported":1742271116,"current_range_meters":16400,"station_id":"ce4bhsh2rcd13ifvqi2g","pricing_plan_id":"cebpf4jnsgd1na2vs0mg"},{"bike_id":"36039125-2a17-48d0-b828-86cfdcb61646","system_id":"levelo_inurba_marseille","lat":43.30389,"lon":5.41294,"is_reserved":false,"is_disabled":true,"rental_uris":{"android":"levelo://app?vid=36039125-2a17-48d0-b828-86cfdcb61646","ios":"levelo://app?vid=36039125-2a17-48d0-b828-86cfdcb61646"},"vehicle_type_id":"4","last_reported":1742271116,"current_range_meters":16400,"station_id":"ce4bhop2rcd13ifvqh8g","pricing_plan_id":"cebpf4jnsgd1na2vs0mg"},{"bike_id":"622d751f-b3ec-4b6e-b993-11196d96c9d9","system_id":"levelo_inurba_marseille","lat":43.2843,"lon":5.39181,"is_reserved":false,"is_disabled":false,"rental_uris":{"android":"levelo://app?vid=622d751f-b3ec-4b6e-b993-11196d96c9d9","ios":"levelo://app?vid=622d751f-b3ec-4b6e-b993-11196d96c9d9"},"vehicle_type_id":"4","last_reported":1742271116,"current_range_meters":16400,"station_id":"ce4bhoh2rcd13ifvqh5g","pricing_plan_id":"cebpf4jnsgd1na2vs0mg"},{"bike_id":"fbe5248a-99c9-47ac-a734-21990a4411d0","system_id":"levelo_inurba_marseille","lat":43.26559,"lon":5.37302,"is_reserved":false,"is_disabled":false,"rental_uris":{"android":"levelo://app?vid=fbe5248a-99c9-47ac-a734-21990a4411d0","ios":"levelo://app?vid=fbe5248a-99c9-47ac-a734-21990a4411d0"},"vehicle_type_id":"4","last_reported":1742271116,"current_range_meters":16400,"station_id":"ce4bhg12rcd13ifvqf70","pricing_plan_id":"cebpf4jnsgd1na2vs0mg"},{"bike_id":"68129516-5314-4265-a986-faf312b9c454","system_id":"levelo_inurba_marseille","lat":43.32367,"lon":5.38888,"is_reserved":false,"is_disabled":false,"rental_uris":{"android":"levelo://app?vid=68129516-5314-4265-a986-faf312b9c454","ios":"levelo://app?vid=68129516-5314-4265-a986-faf312b9c454"},"vehicle_type_id":"4","last_reported":1742271116,"current_range_meters":16400,"station_id":"ce4bhqp2rcd13ifvqhog","pricing_plan_id":"cebpf4jnsgd1na2vs0mg"},{"bike_id":"477920a2-a9ea-4347-897e-bfe7f232379b","system_id":"levelo_inurba_marseille","lat":43.2794,"lon":5.41042,"is_reserved":false,"is_disabled":false,"rental_uris":{"android":"levelo://app?vid=477920a2-a9ea-4347-897e-bfe7f232379b","ios":"levelo://app?vid=477920a2-a9ea-4347-897e-bfe7f232379b"},"vehicle_type_id":"4","last_reported":1742271116,"current_range_meters":16400,"station_id":"ce4bhnp2rcd13ifvqh0g","pricing_plan_id":"cebpf4jnsgd1na2vs0mg"},{"bike_id":"3fe24d98-479f-4b6a-bce5-6bccb789372a","system_id":"levelo_inurba_marseille","lat":43.3297,"lon":5.39108,"is_reserved":false,"is_disabled":false,"rental_uris":{"android":"levelo://app?vid=3fe24d98-479f-4b6a-bce5-6bccb789372a","ios":"levelo://app?vid=3fe24d98-479f-4b6a-bce5-6bccb789372a"},"vehicle_type_id":"4","last_reported":1742271116,"current_range_meters":16400,"station_id":"ce4bhr92rcd13ifvqhrg","pricing_plan_id":"cebpf4jnsgd1na2vs0mg"},{"bike_id":"84adb65e-e975-45f0-b3bf-70c08aa92fa9","system_id":"levelo_inurba_marseille","lat":43.30467,"lon":5.37911,"is_reserved":false,"is_disabled":false,"rental_uris":{"android":"levelo://app?vid=84adb65e-e975-45f0-b3bf-70c08aa92fa9","ios":"levelo://app?vid=84adb65e-e975-45f0-b3bf-70c08aa92fa9"},"vehicle_type_id":"4","last_reported":1742271116,"current_range_meters":16000,"station_id":"ce4bgup2rcd13ifvqcn0","pricing_plan_id":"cebpf4jnsgd1na2vs0mg"},{"bike_id":"bbdc28ef-d095-47f7-b9a9-1bba4d6f6010","system_id":"levelo_inurba_marseille","lat":43.30098,"lon":5.39892,"is_reserved":false,"is_disabled":false,"rental_uris":{"android":"levelo://app?vid=bbdc28ef-d095-47f7-b9a9-1bba4d6f6010","ios":"levelo://app?vid=bbdc28ef-d095-47f7-b9a9-1bba4d6f6010"},"vehicle_type_id":"4","last_reported":1742271116,"current_range_meters":16400,"station_id":"ce4bh0h2rcd13ifvqd40","pricing_plan_id":"cebpf4jnsgd1na2vs0mg"},{"bike_id":"e60c1153-ceb4-4f72-92cd-2dc1051b5e4c","system_id":"levelo_inurba_marseille","lat":43.26066,"lon":5.39392,"is_reserved":false,"is_disabled":true,"rental_uris":{"android":"levelo://app?vid=e60c1153-ceb4-4f72-92cd-2dc1051b5e4c","ios":"levelo://app?vid=e60c1153-ceb4-4f72-92cd-2dc1051b5e4c"},"vehicle_type_id":"4","last_reported":1742271116,"current_range_meters":16800,"station_id":"ce4bhh92rcd13ifvqfj0","pricing_plan_id":"cebpf4jnsgd1na2vs0mg"},{"bike_id":"13fb664e-7c11-4d31-bdde-3fe738c9c1a7","system_id":"levelo_inurba_marseille","lat":43.30874,"lon":5.39659,"is_reserved":false,"is_disabled":false,"rental_uris":{"android":"levelo://app?vid=13fb664e-7c11-4d31-bdde-3fe738c9c1a7","ios":"levelo://app?vid=13fb664e-7c11-4d31-bdde-3fe738c9c1a7"},"vehicle_type_id":"4","last_reported":1742271116,"current_range_meters":16800,"station_id":"ce4bh012rcd13ifvqcv0","pricing_plan_id":"cebpf4jnsgd1na2vs0mg"},{"bike_id":"d6083815-2ecf-4115-b16d-7d0888079fed","system_id":"levelo_inurba_marseille","lat":43.26043,"lon":5.394,"is_reserved":false,"is_disabled":false,"rental_uris":{"android":"levelo://app?vid=d6083815-2ecf-4115-b16d-7d0888079fed","ios":"levelo://app?vid=d6083815-2ecf-4115-b16d-7d0888079fed"},"vehicle_type_id":"4","last_reported":1742271116,"current_range_meters":16800,"station_id":"ce4bhh92rcd13ifvqfj0","pricing_plan_id":"cebpf4jnsgd1na2vs0mg"},{"bike_id":"3455258b-4135-46b9-9a26-10bf95160e40","system_id":"levelo_inurba_marseille","lat":43.23196,"lon":5.35539,"is_reserved":false,"is_disabled":false,"rental_uris":{"android":"levelo://app?vid=3455258b-4135-46b9-9a26-10bf95160e40","ios":"levelo://app?vid=3455258b-4135-46b9-9a26-10bf95160e40"},"vehicle_type_id":"4","last_reported":1742271116,"current_range_meters":16800,"station_id":"ce4bhu92rcd13ifvqi70","pricing_plan_id":"cebpf4jnsgd1na2vs0mg"},{"bike_id":"86941221-beff-473b-b2db-a58ac5cebf67","system_id":"levelo_inurba_marseille","lat":43.281053,"lon":5.378468,"is_reserved":false,"is_disabled":false,"rental_uris":{"android":"levelo://app?vid=86941221-beff-473b-b2db-a58ac5cebf67","ios":"levelo://app?vid=86941221-beff-473b-b2db-a58ac5cebf67"},"vehicle_type_id":"4","last_reported":1742271116,"current_range_meters":16800,"station_id":"ce4bha12rcd13ifvqee0","pricing_plan_id":"cebpf4jnsgd1na2vs0mg"},{"bike_id":"aa1061c0-091c-43b7-97b1-f85e62971e3a","system_id":"levelo_inurba_marseille","lat":43.25068,"lon":5.39513,"is_reserved":false,"is_disabled":false,"rental_uris":{"android":"levelo://app?vid=aa1061c0-091c-43b7-97b1-f85e62971e3a","ios":"levelo://app?vid=aa1061c0-091c-43b7-97b1-f85e62971e3a"},"vehicle_type_id":"4","last_reported":1742271116,"current_range_meters":16800,"station_id":"ce4bhm12rcd13ifvqgkg","pricing_plan_id":"cebpf4jnsgd1na2vs0mg"},{"bike_id":"5452ac66-ea0f-41d4-a082-ef979e1462d1","system_id":"levelo_inurba_marseille","lat":43.31526,"lon":5.38038,"is_reserved":false,"is_disabled":false,"rental_uris":{"android":"levelo://app?vid=5452ac66-ea0f-41d4-a082-ef979e1462d1","ios":"levelo://app?vid=5452ac66-ea0f-41d4-a082-ef979e1462d1"},"vehicle_type_id":"4","last_reported":1742271116,"current_range_meters":16800,"station_id":"ce4bhsp2rcd13ifvqi50","pricing_plan_id":"cebpf4jnsgd1na2vs0mg"},{"bike_id":"df3ec9d0-0ac1-48f7-8743-4452701c1c08","system_id":"levelo_inurba_marseille","lat":43.25127,"lon":5.40326,"is_reserved":false,"is_disabled":false,"rental_uris":{"android":"levelo://app?vid=df3ec9d0-0ac1-48f7-8743-4452701c1c08","ios":"levelo://app?vid=df3ec9d0-0ac1-48f7-8743-4452701c1c08"},"vehicle_type_id":"4","last_reported":1742271116,"current_range_meters":17200,"station_id":"ce4bhlh2rcd13ifvqgig","pricing_plan_id":"cebpf4jnsgd1na2vs0mg"},{"bike_id":"3fae82ea-ed67-42b2-be5b-5f1c45dbdb69","system_id":"levelo_inurba_marseille","lat":43.24998,"lon":5.38926,"is_reserved":false,"is_disabled":false,"rental_uris":{"android":"levelo://app?vid=3fae82ea-ed67-42b2-be5b-5f1c45dbdb69","ios":"levelo://app?vid=3fae82ea-ed67-42b2-be5b-5f1c45dbdb69"},"vehicle_type_id":"4","last_reported":1742271116,"current_range_meters":17200,"station_id":"ce4bhgp2rcd13ifvqfd0","pricing_plan_id":"cebpf4jnsgd1na2vs0mg"},{"bike_id":"88f25cd0-c2b6-4245-9c37-6218ac95caf4","system_id":"levelo_inurba_marseille","lat":43.246576,"lon":5.388986,"is_reserved":false,"is_disabled":false,"rental_uris":{"android":"levelo://app?vid=88f25cd0-c2b6-4245-9c37-6218ac95caf4","ios":"levelo://app?vid=88f25cd0-c2b6-4245-9c37-6218ac95caf4"},"vehicle_type_id":"4","last_reported":1742271116,"current_range_meters":17200,"station_id":"ce4bhg12rcd13ifvqf60","pricing_plan_id":"cebpf4jnsgd1na2vs0mg"},{"bike_id":"cae3c066-0010-4960-b277-680c15425f75","system_id":"levelo_inurba_marseille","lat":43.25558,"lon":5.38237,"is_reserved":false,"is_disabled":false,"rental_uris":{"android":"levelo://app?vid=cae3c066-0010-4960-b277-680c15425f75","ios":"levelo://app?vid=cae3c066-0010-4960-b277-680c15425f75"},"vehicle_type_id":"4","last_reported":1742271116,"current_range_meters":17200,"station_id":"ce4bhih2rcd13ifvqfs0","pricing_plan_id":"cebpf4jnsgd1na2vs0mg"},{"bike_id":"33cb5edd-c6d6-414d-88b4-bf28ff78a536","system_id":"levelo_inurba_marseille","lat":43.287289,"lon":5.360729,"is_reserved":false,"is_disabled":false,"rental_uris":{"android":"levelo://app?vid=33cb5edd-c6d6-414d-88b4-bf28ff78a536","ios":"levelo://app?vid=33cb5edd-c6d6-414d-88b4-bf28ff78a536"},"vehicle_type_id":"4","last_reported":1742271116,"current_range_meters":17200,"station_id":"cki0cbj6b192h4jlfktg","pricing_plan_id":"cebpf4jnsgd1na2vs0mg"},{"bike_id":"fcd04c01-e8dd-45a4-b34a-9e5b532916af","system_id":"levelo_inurba_marseille","lat":43.30875,"lon":5.39636,"is_reserved":false,"is_disabled":false,"rental_uris":{"android":"levelo://app?vid=fcd04c01-e8dd-45a4-b34a-9e5b532916af","ios":"levelo://app?vid=fcd04c01-e8dd-45a4-b34a-9e5b532916af"},"vehicle_type_id":"4","last_reported":1742271116,"current_range_meters":17600,"station_id":"ce4bh012rcd13ifvqcv0","pricing_plan_id":"cebpf4jnsgd1na2vs0mg"},{"bike_id":"bd0c2d57-a674-44aa-8efc-189e2aab84da","system_id":"levelo_inurba_marseille","lat":43.239686,"lon":5.366246,"is_reserved":false,"is_disabled":false,"rental_uris":{"android":"levelo://app?vid=bd0c2d57-a674-44aa-8efc-189e2aab84da","ios":"levelo://app?vid=bd0c2d57-a674-44aa-8efc-189e2aab84da"},"vehicle_type_id":"4","last_reported":1742271116,"current_range_meters":17600,"station_id":"ce4bhi12rcd13ifvqfp0","pricing_plan_id":"cebpf4jnsgd1na2vs0mg"},{"bike_id":"f52a9808-de99-4214-b6d8-d8a401436e34","system_id":"levelo_inurba_marseille","lat":43.31276,"lon":5.39075,"is_reserved":false,"is_disabled":false,"rental_uris":{"android":"levelo://app?vid=f52a9808-de99-4214-b6d8-d8a401436e34","ios":"levelo://app?vid=f52a9808-de99-4214-b6d8-d8a401436e34"},"vehicle_type_id":"4","last_reported":1742271116,"current_range_meters":17600,"station_id":"","pricing_plan_id":"cebpf4jnsgd1na2vs0mg"},{"bike_id":"0e1fd515-1638-43cc-a9c4-f03ea9694fd4","system_id":"levelo_inurba_marseille","lat":43.27914,"lon":5.39581,"is_reserved":false,"is_disabled":false,"rental_uris":{"android":"levelo://app?vid=0e1fd515-1638-43cc-a9c4-f03ea9694fd4","ios":"levelo://app?vid=0e1fd515-1638-43cc-a9c4-f03ea9694fd4"},"vehicle_type_id":"4","last_reported":1742271116,"current_range_meters":17600,"station_id":"ce4bhf92rcd13ifvqf40","pricing_plan_id":"cebpf4jnsgd1na2vs0mg"},{"bike_id":"88cafc48-638e-455b-80b4-5ffc9dacacea","system_id":"levelo_inurba_marseille","lat":43.25126,"lon":5.40314,"is_reserved":false,"is_disabled":false,"rental_uris":{"android":"levelo://app?vid=88cafc48-638e-455b-80b4-5ffc9dacacea","ios":"levelo://app?vid=88cafc48-638e-455b-80b4-5ffc9dacacea"},"vehicle_type_id":"4","last_reported":1742271116,"current_range_meters":17600,"station_id":"ce4bhlh2rcd13ifvqgig","pricing_plan_id":"cebpf4jnsgd1na2vs0mg"},{"bike_id":"00a6f1e3-c183-48ab-a0ef-063254ab1cea","system_id":"levelo_inurba_marseille","lat":43.28071,"lon":5.39666,"is_reserved":false,"is_disabled":false,"rental_uris":{"android":"levelo://app?vid=00a6f1e3-c183-48ab-a0ef-063254ab1cea","ios":"levelo://app?vid=00a6f1e3-c183-48ab-a0ef-063254ab1cea"},"vehicle_type_id":"4","last_reported":1742271116,"current_range_meters":17600,"station_id":"ce4bho12rcd13ifvqh2g","pricing_plan_id":"cebpf4jnsgd1na2vs0mg"},{"bike_id":"2b679f54-d493-4b03-8ac2-bc94d46bab02","system_id":"levelo_inurba_marseille","lat":43.284233,"lon":5.349944,"is_reserved":false,"is_disabled":true,"rental_uris":{"android":"levelo://app?vid=2b679f54-d493-4b03-8ac2-bc94d46bab02","ios":"levelo://app?vid=2b679f54-d493-4b03-8ac2-bc94d46bab02"},"vehicle_type_id":"4","last_reported":1742271116,"current_range_meters":17600,"station_id":"ce4bhbh2rcd13ifvqepg","pricing_plan_id":"cebpf4jnsgd1na2vs0mg"},{"bike_id":"2e6052f4-7080-42ae-aaa6-a6a80af5b494","system_id":"levelo_inurba_marseille","lat":43.2884,"lon":5.35848,"is_reserved":false,"is_disabled":false,"rental_uris":{"android":"levelo://app?vid=2e6052f4-7080-42ae-aaa6-a6a80af5b494","ios":"levelo://app?vid=2e6052f4-7080-42ae-aaa6-a6a80af5b494"},"vehicle_type_id":"4","last_reported":1742271116,"current_range_meters":17600,"station_id":"ce4bhb12rcd13ifvqem0","pricing_plan_id":"cebpf4jnsgd1na2vs0mg"},{"bike_id":"6aa2c326-3d28-4b31-b575-42f3dc1b2bf6","system_id":"levelo_inurba_marseille","lat":43.28722,"lon":5.36085,"is_reserved":false,"is_disabled":false,"rental_uris":{"android":"levelo://app?vid=6aa2c326-3d28-4b31-b575-42f3dc1b2bf6","ios":"levelo://app?vid=6aa2c326-3d28-4b31-b575-42f3dc1b2bf6"},"vehicle_type_id":"4","last_reported":1742271116,"current_range_meters":18000,"station_id":"cki0cbj6b192h4jlfktg","pricing_plan_id":"cebpf4jnsgd1na2vs0mg"},{"bike_id":"eaa16f1d-1abb-46a5-88a7-4d9cc8058b7a","system_id":"levelo_inurba_marseille","lat":43.25003,"lon":5.38922,"is_reserved":false,"is_disabled":false,"rental_uris":{"android":"levelo://app?vid=eaa16f1d-1abb-46a5-88a7-4d9cc8058b7a","ios":"levelo://app?vid=eaa16f1d-1abb-46a5-88a7-4d9cc8058b7a"},