{"last_updated":1769562057,"ttl":60,"version":"2.2","data":{"bikes":[{"bike_id":"cd32b736-566b-4d35-8940-26c8819f750b","system_id":"levelo_inurba_marseille","lat":43.25021,"lon":5.38928,"is_reserved":false,"is_disabled":false,"rental_uris":{"android":"levelo://app?vid=cd32b736-566b-4d35-8940-26c8819f750b","ios":"levelo://app?vid=cd32b736-566b-4d35-8940-26c8819f750b"},"vehicle_type_id":"4","last_reported":1769562058,"current_range_meters":2800,"station_id":"ce4bhgp2rcd13ifvqfd0","pricing_plan_id":"cebpf4jnsgd1na2vs0mg"},{"bike_id":"cfad9169-02f1-4663-b28a-6933ecf7e07c","system_id":"levelo_inurba_marseille","lat":43.2558,"lon":5.3821,"is_reserved":false,"is_disabled":false,"rental_uris":{"android":"levelo://app?vid=cfad9169-02f1-4663-b28a-6933ecf7e07c","ios":"levelo://app?vid=cfad9169-02f1-4663-b28a-6933ecf7e07c"},"vehicle_type_id":"4","last_reported":1769562058,"current_range_meters":2800,"station_id":"ce4bhih2rcd13ifvqfs0","pricing_plan_id":"cebpf4jnsgd1na2vs0mg"},{"bike_id":"56076317-b66a-45ba-b3b6-c261c650aa84","system_id":"levelo_inurba_marseille","lat":43.29642,"lon":5.3778,"is_reserved":false,"is_disabled":false,"rental_uris":{"android":"levelo://app?vid=56076317-b66a-45ba-b3b6-c261c650aa84","ios":"levelo://app?vid=56076317-b66a-45ba-b3b6-c261c650aa84"},"vehicle_type_id":"4","last_reported":1769562058,"current_range_meters":2800,"station_id":"","pricing_plan_id":"cebpf4jnsgd1na2vs0mg"},{"bike_id":"aaf68de7-a8ba-4f2c-b543-643a8694a695","system_id":"levelo_inurba_marseille","lat":43.24827,"lon":5.37465,"is_reserved":false,"is_disabled":false,"rental_uris":{"android":"levelo://app?vid=aaf68de7-a8ba-4f2c-b543-643a8694a695","ios":"levelo://app?vid=aaf68de7-a8ba-4f2c-b543-643a8694a695"},"vehicle_type_id":"4","last_reported":1769562058,"current_range_meters":2800,"station_id":"ce4bhgh2rcd13ifvqfb0","pricing_plan_id":"cebpf4jnsgd1na2vs0mg"},{"bike_id":"780f37c1-f90d-49a0-a2ac-cb1a69ad708a","system_id":"levelo_inurba_marseille","lat":43.25922,"lon":5.40901,"is_reserved":false,"is_disabled":false,"rental_uris":{"android":"levelo://app?vid=780f37c1-f90d-49a0-a2ac-cb1a69ad708a","ios":"levelo://app?vid=780f37c1-f90d-49a0-a2ac-cb1a69ad708a"},"vehicle_type_id":"4","last_reported":1769562058,"current_range_meters":2800,"station_id":"ce4bhm92rcd13ifvqglg","pricing_plan_id":"cebpf4jnsgd1na2vs0mg"},{"bike_id":"ddf0627f-8ae1-4070-900d-7896689996f7","system_id":"levelo_inurba_marseille","lat":43.2501,"lon":5.38917,"is_reserved":false,"is_disabled":false,"rental_uris":{"android":"levelo://app?vid=ddf0627f-8ae1-4070-900d-7896689996f7","ios":"levelo://app?vid=ddf0627f-8ae1-4070-900d-7896689996f7"},"vehicle_type_id":"4","last_reported":1769562058,"current_range_meters":2800,"station_id":"ce4bhgp2rcd13ifvqfd0","pricing_plan_id":"cebpf4jnsgd1na2vs0mg"},{"bike_id":"0bd3fd33-ca42-4b1b-b0cd-6ec4b1ecd569","system_id":"levelo_inurba_marseille","lat":43.32597,"lon":5.37813,"is_reserved":false,"is_disabled":false,"rental_uris":{"android":"levelo://app?vid=0bd3fd33-ca42-4b1b-b0cd-6ec4b1ecd569","ios":"levelo://app?vid=0bd3fd33-ca42-4b1b-b0cd-6ec4b1ecd569"},"vehicle_type_id":"4","last_reported":1769562058,"current_range_meters":2800,"station_id":"","pricing_plan_id":"cebpf4jnsgd1na2vs0mg"},{"bike_id":"4c5e84a3-878b-4e80-a848-d4891b4199bc","system_id":"levelo_inurba_marseille","lat":43.32365,"lon":5.36792,"is_reserved":false,"is_disabled":false,"rental_uris":{"android":"levelo://app?vid=4c5e84a3-878b-4e80-a848-d4891b4199bc","ios":"levelo://app?vid=4c5e84a3-878b-4e80-a848-d4891b4199bc"},"vehicle_type_id":"4","last_reported":1769562058,"current_range_meters":2800,"station_id":"ce4bhsh2rcd13ifvqi2g","pricing_plan_id":"cebpf4jnsgd1na2vs0mg"},{"bike_id":"32cefc29-005f-4ba4-875f-a00f03204d66","system_id":"levelo_inurba_marseille","lat":43.28027,"lon":5.41647,"is_reserved":false,"is_disabled":false,"rental_uris":{"android":"levelo://app?vid=32cefc29-005f-4ba4-875f-a00f03204d66","ios":"levelo://app?vid=32cefc29-005f-4ba4-875f-a00f03204d66"},"vehicle_type_id":"4","last_reported":1769562058,"current_range_meters":2800,"station_id":"ce4bho12rcd13ifvqh1g","pricing_plan_id":"cebpf4jnsgd1na2vs0mg"},{"bike_id":"88ffd3a2-1506-480b-abc1-f9282e869380","system_id":"levelo_inurba_marseille","lat":43.25094,"lon":5.39517,"is_reserved":false,"is_disabled":false,"rental_uris":{"android":"levelo://app?vid=88ffd3a2-1506-480b-abc1-f9282e869380","ios":"levelo://app?vid=88ffd3a2-1506-480b-abc1-f9282e869380"},"vehicle_type_id":"4","last_reported":1769562058,"current_range_meters":2800,"station_id":"ce4bhm12rcd13ifvqgkg","pricing_plan_id":"cebpf4jnsgd1na2vs0mg"},{"bike_id":"376d69a1-6c6a-4847-9e8d-b0a51343ba06","system_id":"levelo_inurba_marseille","lat":43.29616,"lon":5.37961,"is_reserved":false,"is_disabled":false,"rental_uris":{"android":"levelo://app?vid=376d69a1-6c6a-4847-9e8d-b0a51343ba06","ios":"levelo://app?vid=376d69a1-6c6a-4847-9e8d-b0a51343ba06"},"vehicle_type_id":"4","last_reported":1769562058,"current_range_meters":2800,"station_id":"","pricing_plan_id":"cebpf4jnsgd1na2vs0mg"},{"bike_id":"34e8b9e4-4b8f-4716-833f-496709e54c3c","system_id":"levelo_inurba_marseille","lat":43.312706,"lon":5.401679,"is_reserved":false,"is_disabled":false,"rental_uris":{"android":"levelo://app?vid=34e8b9e4-4b8f-4716-833f-496709e54c3c","ios":"levelo://app?vid=34e8b9e4-4b8f-4716-833f-496709e54c3c"},"vehicle_type_id":"4","last_reported":1769562058,"current_range_meters":3200,"station_id":"ce4bh092rcd13ifvqd30","pricing_plan_id":"cebpf4jnsgd1na2vs0mg"},{"bike_id":"f845e441-1ca1-4fde-889e-45a681c017c7","system_id":"levelo_inurba_marseille","lat":43.24547,"lon":5.39531,"is_reserved":false,"is_disabled":false,"rental_uris":{"android":"levelo://app?vid=f845e441-1ca1-4fde-889e-45a681c017c7","ios":"levelo://app?vid=f845e441-1ca1-4fde-889e-45a681c017c7"},"vehicle_type_id":"4","last_reported":1769562058,"current_range_meters":3200,"station_id":"ce4bhlp2rcd13ifvqgjg","pricing_plan_id":"cebpf4jnsgd1na2vs0mg"},{"bike_id":"57b1c7f1-5a72-489d-b314-69a87f30e1ce","system_id":"levelo_inurba_marseille","lat":43.30425,"lon":5.41311,"is_reserved":false,"is_disabled":false,"rental_uris":{"android":"levelo://app?vid=57b1c7f1-5a72-489d-b314-69a87f30e1ce","ios":"levelo://app?vid=57b1c7f1-5a72-489d-b314-69a87f30e1ce"},"vehicle_type_id":"4","last_reported":1769562058,"current_range_meters":3200,"station_id":"ce4bhop2rcd13ifvqh8g","pricing_plan_id":"cebpf4jnsgd1na2vs0mg"},{"bike_id":"c9c2dc9f-4c9a-4324-a7a9-161b3f854066","system_id":"levelo_inurba_marseille","lat":43.24812,"lon":5.37465,"is_reserved":false,"is_disabled":false,"rental_uris":{"android":"levelo://app?vid=c9c2dc9f-4c9a-4324-a7a9-161b3f854066","ios":"levelo://app?vid=c9c2dc9f-4c9a-4324-a7a9-161b3f854066"},"vehicle_type_id":"4","last_reported":1769562058,"current_range_meters":3200,"station_id":"ce4bhgh2rcd13ifvqfb0","pricing_plan_id":"cebpf4jnsgd1na2vs0mg"},{"bike_id":"4982447f-e072-41ab-8515-f50997651ddc","system_id":"levelo_inurba_marseille","lat":43.23057,"lon":5.35485,"is_reserved":false,"is_disabled":false,"rental_uris":{"android":"levelo://app?vid=4982447f-e072-41ab-8515-f50997651ddc","ios":"levelo://app?vid=4982447f-e072-41ab-8515-f50997651ddc"},"vehicle_type_id":"4","last_reported":1769562058,"current_range_meters":3200,"station_id":"cpo3342slgdg3j2ifvpg","pricing_plan_id":"cebpf4jnsgd1na2vs0mg"},{"bike_id":"1b26e38f-d77a-41b0-93f4-12776fa12921","system_id":"levelo_inurba_marseille","lat":43.231455,"lon":5.437231,"is_reserved":false,"is_disabled":false,"rental_uris":{"android":"levelo://app?vid=1b26e38f-d77a-41b0-93f4-12776fa12921","ios":"levelo://app?vid=1b26e38f-d77a-41b0-93f4-12776fa12921"},"vehicle_type_id":"4","last_reported":1769562058,"current_range_meters":3200,"station_id":"ce4bhmp2rcd13ifvqgog","pricing_plan_id":"cebpf4jnsgd1na2vs0mg"},{"bike_id":"4f438dad-01fc-4a34-afef-9521fac04b4f","system_id":"levelo_inurba_marseille","lat":43.32336,"lon":5.36728,"is_reserved":false,"is_disabled":false,"rental_uris":{"android":"levelo://app?vid=4f438dad-01fc-4a34-afef-9521fac04b4f","ios":"levelo://app?vid=4f438dad-01fc-4a34-afef-9521fac04b4f"},"vehicle_type_id":"4","last_reported":1769562058,"current_range_meters":3200,"station_id":"ce4bhsh2rcd13ifvqi2g","pricing_plan_id":"cebpf4jnsgd1na2vs0mg"},{"bike_id":"a82cd298-4f85-419e-8ffc-45a44121e1e4","system_id":"levelo_inurba_marseille","lat":43.23182,"lon":5.39988,"is_reserved":false,"is_disabled":false,"rental_uris":{"android":"levelo://app?vid=a82cd298-4f85-419e-8ffc-45a44121e1e4","ios":"levelo://app?vid=a82cd298-4f85-419e-8ffc-45a44121e1e4"},"vehicle_type_id":"4","last_reported":1769562058,"current_range_meters":3200,"station_id":"ce4bhn12rcd13ifvqgqg","pricing_plan_id":"cebpf4jnsgd1na2vs0mg"},{"bike_id":"628d1d29-948b-4815-bc3f-a0ef2ac1c781","system_id":"levelo_inurba_marseille","lat":43.24158,"lon":5.364,"is_reserved":false,"is_disabled":false,"rental_uris":{"android":"levelo://app?vid=628d1d29-948b-4815-bc3f-a0ef2ac1c781","ios":"levelo://app?vid=628d1d29-948b-4815-bc3f-a0ef2ac1c781"},"vehicle_type_id":"4","last_reported":1769562058,"current_range_meters":3200,"station_id":"cpo36qri1sfpv3e86is0","pricing_plan_id":"cebpf4jnsgd1na2vs0mg"},{"bike_id":"5073c588-fd69-4546-b19e-c25ee2532fa0","system_id":"levelo_inurba_marseille","lat":43.32446,"lon":5.36569,"is_reserved":false,"is_disabled":false,"rental_uris":{"android":"levelo://app?vid=5073c588-fd69-4546-b19e-c25ee2532fa0","ios":"levelo://app?vid=5073c588-fd69-4546-b19e-c25ee2532fa0"},"vehicle_type_id":"4","last_reported":1769562058,"current_range_meters":3200,"station_id":"ce4bhs12rcd13ifvqhvg","pricing_plan_id":"cebpf4jnsgd1na2vs0mg"},{"bike_id":"c8bb2a08-170b-4c3f-9a7c-8d580e9bd3cc","system_id":"levelo_inurba_marseille","lat":43.244737,"lon":5.425288,"is_reserved":false,"is_disabled":false,"rental_uris":{"android":"levelo://app?vid=c8bb2a08-170b-4c3f-9a7c-8d580e9bd3cc","ios":"levelo://app?vid=c8bb2a08-170b-4c3f-9a7c-8d580e9bd3cc"},"vehicle_type_id":"4","last_reported":1769562058,"current_range_meters":3200,"station_id":"st_d4a3vfp97mjs738cd8kg","pricing_plan_id":"cebpf4jnsgd1na2vs0mg"},{"bike_id":"61f9b512-dfe2-4c6f-b9eb-0a539aacc6ab","system_id":"levelo_inurba_marseille","lat":43.299047,"lon":5.436726,"is_reserved":false,"is_disabled":false,"rental_uris":{"android":"levelo://app?vid=61f9b512-dfe2-4c6f-b9eb-0a539aacc6ab","ios":"levelo://app?vid=61f9b512-dfe2-4c6f-b9eb-0a539aacc6ab"},"vehicle_type_id":"4","last_reported":1769562058,"current_range_meters":3200,"station_id":"ce4bhpp2rcd13ifvqhfg","pricing_plan_id":"cebpf4jnsgd1na2vs0mg"},{"bike_id":"41c0beb3-4b70-47ff-875e-a543545cf8c9","system_id":"levelo_inurba_marseille","lat":43.241831,"lon":5.397214,"is_reserved":false,"is_disabled":false,"rental_uris":{"android":"levelo://app?vid=41c0beb3-4b70-47ff-875e-a543545cf8c9","ios":"levelo://app?vid=41c0beb3-4b70-47ff-875e-a543545cf8c9"},"vehicle_type_id":"4","last_reported":1769562058,"current_range_meters":3200,"station_id":"ce4bhn12rcd13ifvqgpg","pricing_plan_id":"cebpf4jnsgd1na2vs0mg"},{"bike_id":"5c18bca9-46cd-42a4-bd07-ba7493ce75f5","system_id":"levelo_inurba_marseille","lat":43.246389,"lon":5.431476,"is_reserved":false,"is_disabled":false,"rental_uris":{"android":"levelo://app?vid=5c18bca9-46cd-42a4-bd07-ba7493ce75f5","ios":"levelo://app?vid=5c18bca9-46cd-42a4-bd07-ba7493ce75f5"},"vehicle_type_id":"4","last_reported":1769562058,"current_range_meters":3200,"station_id":"st_d2m6c4gdas8pm72e190g","pricing_plan_id":"cebpf4jnsgd1na2vs0mg"},{"bike_id":"964fbebd-3c83-4241-9364-20748ed47a32","system_id":"levelo_inurba_marseille","lat":43.26217,"lon":5.40464,"is_reserved":false,"is_disabled":false,"rental_uris":{"android":"levelo://app?vid=964fbebd-3c83-4241-9364-20748ed47a32","ios":"levelo://app?vid=964fbebd-3c83-4241-9364-20748ed47a32"},"vehicle_type_id":"4","last_reported":1769562058,"current_range_meters":3200,"station_id":"ce4bhmh2rcd13ifvqgmg","pricing_plan_id":"cebpf4jnsgd1na2vs0mg"},{"bike_id":"ea7ff46f-6c46-44ac-a7b9-2d726e676df5","system_id":"levelo_inurba_marseille","lat":43.29639,"lon":5.40598,"is_reserved":false,"is_disabled":false,"rental_uris":{"android":"levelo://app?vid=ea7ff46f-6c46-44ac-a7b9-2d726e676df5","ios":"levelo://app?vid=ea7ff46f-6c46-44ac-a7b9-2d726e676df5"},"vehicle_type_id":"4","last_reported":1769562058,"current_range_meters":3600,"station_id":"ce4bh0h2rcd13ifvqd60","pricing_plan_id":"cebpf4jnsgd1na2vs0mg"},{"bike_id":"4deecbda-291f-4451-b300-3a8c7357a3ba","system_id":"levelo_inurba_marseille","lat":43.28454,"lon":5.35899,"is_reserved":false,"is_disabled":false,"rental_uris":{"android":"levelo://app?vid=4deecbda-291f-4451-b300-3a8c7357a3ba","ios":"levelo://app?vid=4deecbda-291f-4451-b300-3a8c7357a3ba"},"vehicle_type_id":"4","last_reported":1769562058,"current_range_meters":3600,"station_id":"ce4bhah2rcd13ifvqei0","pricing_plan_id":"cebpf4jnsgd1na2vs0mg"},{"bike_id":"80ab5f64-b772-4b29-9967-a7df2204ed6f","system_id":"levelo_inurba_marseille","lat":43.28851,"lon":5.42544,"is_reserved":false,"is_disabled":false,"rental_uris":{"android":"levelo://app?vid=80ab5f64-b772-4b29-9967-a7df2204ed6f","ios":"levelo://app?vid=80ab5f64-b772-4b29-9967-a7df2204ed6f"},"vehicle_type_id":"4","last_reported":1769562058,"current_range_meters":3600,"station_id":"st_d3b462108ojc7389ooeg","pricing_plan_id":"cebpf4jnsgd1na2vs0mg"},{"bike_id":"20aa12dc-f764-4df4-9849-0e6572012126","system_id":"levelo_inurba_marseille","lat":43.26374,"lon":5.41062,"is_reserved":false,"is_disabled":false,"rental_uris":{"android":"levelo://app?vid=20aa12dc-f764-4df4-9849-0e6572012126","ios":"levelo://app?vid=20aa12dc-f764-4df4-9849-0e6572012126"},"vehicle_type_id":"4","last_reported":1769562058,"current_range_meters":4000,"station_id":"st_d4e5ca6na9uc73bfl5fg","pricing_plan_id":"cebpf4jnsgd1na2vs0mg"},{"bike_id":"fad92c36-bc8c-4896-a406-e5054c5b1a3e","system_id":"levelo_inurba_marseille","lat":43.26545,"lon":5.3906,"is_reserved":false,"is_disabled":false,"rental_uris":{"android":"levelo://app?vid=fad92c36-bc8c-4896-a406-e5054c5b1a3e","ios":"levelo://app?vid=fad92c36-bc8c-4896-a406-e5054c5b1a3e"},"vehicle_type_id":"4","last_reported":1769562058,"current_range_meters":4000,"station_id":"ce4bhe12rcd13ifvqf30","pricing_plan_id":"cebpf4jnsgd1na2vs0mg"},{"bike_id":"b778e9ae-9e5d-422f-9aa0-c2aebe5892bf","system_id":"levelo_inurba_marseille","lat":43.323553,"lon":5.367351,"is_reserved":false,"is_disabled":false,"rental_uris":{"android":"levelo://app?vid=b778e9ae-9e5d-422f-9aa0-c2aebe5892bf","ios":"levelo://app?vid=b778e9ae-9e5d-422f-9aa0-c2aebe5892bf"},"vehicle_type_id":"4","last_reported":1769562058,"current_range_meters":4000,"station_id":"ce4bhsh2rcd13ifvqi2g","pricing_plan_id":"cebpf4jnsgd1na2vs0mg"},{"bike_id":"054e163b-1e47-4a0a-a038-a7939885860e","system_id":"levelo_inurba_marseille","lat":43.32346,"lon":5.3674,"is_reserved":false,"is_disabled":false,"rental_uris":{"android":"levelo://app?vid=054e163b-1e47-4a0a-a038-a7939885860e","ios":"levelo://app?vid=054e163b-1e47-4a0a-a038-a7939885860e"},"vehicle_type_id":"4","last_reported":1769562058,"current_range_meters":4000,"station_id":"ce4bhsh2rcd13ifvqi2g","pricing_plan_id":"cebpf4jnsgd1na2vs0mg"},{"bike_id":"21d934dc-0e1b-470d-b8b6-fc2e3be585fd","system_id":"levelo_inurba_marseille","lat":43.31533,"lon":5.3804,"is_reserved":false,"is_disabled":false,"rental_uris":{"android":"levelo://app?vid=21d934dc-0e1b-470d-b8b6-fc2e3be585fd","ios":"levelo://app?vid=21d934dc-0e1b-470d-b8b6-fc2e3be585fd"},"vehicle_type_id":"4","last_reported":1769562058,"current_range_meters":4000,"station_id":"ce4bhsp2rcd13ifvqi50","pricing_plan_id":"cebpf4jnsgd1na2vs0mg"},{"bike_id":"31a997f0-3edb-4cf6-899a-5b69a6521068","system_id":"levelo_inurba_marseille","lat":43.25336,"lon":5.42156,"is_reserved":false,"is_disabled":false,"rental_uris":{"android":"levelo://app?vid=31a997f0-3edb-4cf6-899a-5b69a6521068","ios":"levelo://app?vid=31a997f0-3edb-4cf6-899a-5b69a6521068"},"vehicle_type_id":"4","last_reported":1769562058,"current_range_meters":4000,"station_id":"st_d2m65c5bi1j21697t3ng","pricing_plan_id":"cebpf4jnsgd1na2vs0mg"},{"bike_id":"2e7dad9e-9695-44d6-bc96-ef3eee5dfbfa","system_id":"levelo_inurba_marseille","lat":43.313586,"lon":5.36695,"is_reserved":false,"is_disabled":false,"rental_uris":{"android":"levelo://app?vid=2e7dad9e-9695-44d6-bc96-ef3eee5dfbfa","ios":"levelo://app?vid=2e7dad9e-9695-44d6-bc96-ef3eee5dfbfa"},"vehicle_type_id":"4","last_reported":1769562058,"current_range_meters":4000,"station_id":"ce4bgr92rcd13ifvqc6g","pricing_plan_id":"cebpf4jnsgd1na2vs0mg"},{"bike_id":"15ffb544-9cf9-4c83-98f5-22f43ecc1d4c","system_id":"levelo_inurba_marseille","lat":43.308181,"lon":5.404721,"is_reserved":false,"is_disabled":false,"rental_uris":{"android":"levelo://app?vid=15ffb544-9cf9-4c83-98f5-22f43ecc1d4c","ios":"levelo://app?vid=15ffb544-9cf9-4c83-98f5-22f43ecc1d4c"},"vehicle_type_id":"4","last_reported":1769562058,"current_range_meters":4000,"station_id":"","pricing_plan_id":"cebpf4jnsgd1na2vs0mg"},{"bike_id":"fb8934f6-9dab-439c-acce-05fcdc10c589","system_id":"levelo_inurba_marseille","lat":43.2497,"lon":5.40482,"is_reserved":false,"is_disabled":false,"rental_uris":{"android":"levelo://app?vid=fb8934f6-9dab-439c-acce-05fcdc10c589","ios":"levelo://app?vid=fb8934f6-9dab-439c-acce-05fcdc10c589"},"vehicle_type_id":"4","last_reported":1769562058,"current_range_meters":4000,"station_id":"st_d2ngiaodas8pm72gd1h0","pricing_plan_id":"cebpf4jnsgd1na2vs0mg"},{"bike_id":"10ed2664-109e-43f4-9dbd-256742a1695f","system_id":"levelo_inurba_marseille","lat":43.30176,"lon":5.3662,"is_reserved":false,"is_disabled":false,"rental_uris":{"android":"levelo://app?vid=10ed2664-109e-43f4-9dbd-256742a1695f","ios":"levelo://app?vid=10ed2664-109e-43f4-9dbd-256742a1695f"},"vehicle_type_id":"4","last_reported":1769562058,"current_range_meters":4000,"station_id":"ce4bgrh2rcd13ifvqc8g","pricing_plan_id":"cebpf4jnsgd1na2vs0mg"},{"bike_id":"c1d76fe7-8229-49b0-8dae-038c2bf0b5b7","system_id":"levelo_inurba_marseille","lat":43.30906,"lon":5.40338,"is_reserved":false,"is_disabled":false,"rental_uris":{"android":"levelo://app?vid=c1d76fe7-8229-49b0-8dae-038c2bf0b5b7","ios":"levelo://app?vid=c1d76fe7-8229-49b0-8dae-038c2bf0b5b7"},"vehicle_type_id":"4","last_reported":1769562058,"current_range_meters":4400,"station_id":"","pricing_plan_id":"cebpf4jnsgd1na2vs0mg"},{"bike_id":"c0661c52-37c2-4e1a-b1cc-0fc81af3c2d4","system_id":"levelo_inurba_marseille","lat":43.29593,"lon":5.36729,"is_reserved":false,"is_disabled":false,"rental_uris":{"android":"levelo://app?vid=c0661c52-37c2-4e1a-b1cc-0fc81af3c2d4","ios":"levelo://app?vid=c0661c52-37c2-4e1a-b1cc-0fc81af3c2d4"},"vehicle_type_id":"4","last_reported":1769562058,"current_range_meters":4400,"station_id":"ce4bgph2rcd13ifvqc2g","pricing_plan_id":"cebpf4jnsgd1na2vs0mg"},{"bike_id":"8dc1c371-7a8b-4d40-96de-5f21b3f68e5e","system_id":"levelo_inurba_marseille","lat":43.29935,"lon":5.37448,"is_reserved":false,"is_disabled":false,"rental_uris":{"android":"levelo://app?vid=8dc1c371-7a8b-4d40-96de-5f21b3f68e5e","ios":"levelo://app?vid=8dc1c371-7a8b-4d40-96de-5f21b3f68e5e"},"vehicle_type_id":"4","last_reported":1769562058,"current_range_meters":4400,"station_id":"ce4bgjh2rcd13ifvqbg0","pricing_plan_id":"cebpf4jnsgd1na2vs0mg"},{"bike_id":"86ae450c-deaa-48cb-8992-fbab8764cfa4","system_id":"levelo_inurba_marseille","lat":43.29056,"lon":5.37566,"is_reserved":false,"is_disabled":false,"rental_uris":{"android":"levelo://app?vid=86ae450c-deaa-48cb-8992-fbab8764cfa4","ios":"levelo://app?vid=86ae450c-deaa-48cb-8992-fbab8764cfa4"},"vehicle_type_id":"4","last_reported":1769562058,"current_range_meters":4400,"station_id":"ce4bh692rcd13ifvqe90","pricing_plan_id":"cebpf4jnsgd1na2vs0mg"},{"bike_id":"1e6ae573-7b0d-4ca7-8d21-23950df7df4a","system_id":"levelo_inurba_marseille","lat":43.335564,"lon":5.374545,"is_reserved":false,"is_disabled":false,"rental_uris":{"android":"levelo://app?vid=1e6ae573-7b0d-4ca7-8d21-23950df7df4a","ios":"levelo://app?vid=1e6ae573-7b0d-4ca7-8d21-23950df7df4a"},"vehicle_type_id":"4","last_reported":1769562058,"current_range_meters":4400,"station_id":"st_d46tts09ee8s73dlu43g","pricing_plan_id":"cebpf4jnsgd1na2vs0mg"},{"bike_id":"28376858-459f-4e0b-9741-79e1f5d4450a","system_id":"levelo_inurba_marseille","lat":43.26682,"lon":5.38272,"is_reserved":false,"is_disabled":false,"rental_uris":{"android":"levelo://app?vid=28376858-459f-4e0b-9741-79e1f5d4450a","ios":"levelo://app?vid=28376858-459f-4e0b-9741-79e1f5d4450a"},"vehicle_type_id":"4","last_reported":1769562058,"current_range_meters":4400,"station_id":"ce4bhg92rcd13ifvqf90","pricing_plan_id":"cebpf4jnsgd1na2vs0mg"},{"bike_id":"c3616682-88ec-472f-b28b-1fbb837fa9d1","system_id":"levelo_inurba_marseille","lat":43.241752,"lon":5.363989,"is_reserved":false,"is_disabled":false,"rental_uris":{"android":"levelo://app?vid=c3616682-88ec-472f-b28b-1fbb837fa9d1","ios":"levelo://app?vid=c3616682-88ec-472f-b28b-1fbb837fa9d1"},"vehicle_type_id":"4","last_reported":1769562058,"current_range_meters":4400,"station_id":"cpo36qri1sfpv3e86is0","pricing_plan_id":"cebpf4jnsgd1na2vs0mg"},{"bike_id":"cec4a77a-f4a0-4990-a703-2d81506ed66f","system_id":"levelo_inurba_marseille","lat":43.25329,"lon":5.42173,"is_reserved":false,"is_disabled":false,"rental_uris":{"android":"levelo://app?vid=cec4a77a-f4a0-4990-a703-2d81506ed66f","ios":"levelo://app?vid=cec4a77a-f4a0-4990-a703-2d81506ed66f"},"vehicle_type_id":"4","last_reported":1769562058,"current_range_meters":4400,"station_id":"st_d2m65c5bi1j21697t3ng","pricing_plan_id":"cebpf4jnsgd1na2vs0mg"},{"bike_id":"6ac15107-8d5a-4bc5-aef3-ea3f593e80d3","system_id":"levelo_inurba_marseille","lat":43.312291,"lon":5.368399,"is_reserved":false,"is_disabled":false,"rental_uris":{"android":"levelo://app?vid=6ac15107-8d5a-4bc5-aef3-ea3f593e80d3","ios":"levelo://app?vid=6ac15107-8d5a-4bc5-aef3-ea3f593e80d3"},"vehicle_type_id":"4","last_reported":1769562058,"current_range_meters":4800,"station_id":"ce4bgl92rcd13ifvqbq0","pricing_plan_id":"cebpf4jnsgd1na2vs0mg"},{"bike_id":"e1b65952-cf23-4d4c-bb61-476f12fae8d2","system_id":"levelo_inurba_marseille","lat":43.23186,"lon":5.35564,"is_reserved":false,"is_disabled":false,"rental_uris":{"android":"levelo://app?vid=e1b65952-cf23-4d4c-bb61-476f12fae8d2","ios":"levelo://app?vid=e1b65952-cf23-4d4c-bb61-476f12fae8d2"},"vehicle_type_id":"4","last_reported":1769562058,"current_range_meters":4800,"station_id":"ce4bhu92rcd13ifvqi70","pricing_plan_id":"cebpf4jnsgd1na2vs0mg"},{"bike_id":"67adc721-2cb9-4caa-9609-4c153adea1ac","system_id":"levelo_inurba_marseille","lat":43.28347,"lon":5.38112,"is_reserved":false,"is_disabled":false,"rental_uris":{"android":"levelo://app?vid=67adc721-2cb9-4caa-9609-4c153adea1ac","ios":"levelo://app?vid=67adc721-2cb9-4caa-9609-4c153adea1ac"},"vehicle_type_id":"4","last_reported":1769562058,"current_range_meters":4800,"station_id":"ce4bh412rcd13ifvqdr0","pricing_plan_id":"cebpf4jnsgd1na2vs0mg"},{"bike_id":"39bceb37-1133-47a7-8f28-61021ec883b3","system_id":"levelo_inurba_marseille","lat":43.26546,"lon":5.37354,"is_reserved":false,"is_disabled":false,"rental_uris":{"android":"levelo://app?vid=39bceb37-1133-47a7-8f28-61021ec883b3","ios":"levelo://app?vid=39bceb37-1133-47a7-8f28-61021ec883b3"},"vehicle_type_id":"4","last_reported":1769562058,"current_range_meters":4800,"station_id":"ce4bhg12rcd13ifvqf70","pricing_plan_id":"cebpf4jnsgd1na2vs0mg"},{"bike_id":"04ddf445-c90e-4eb2-b7e0-2646a674cd14","system_id":"levelo_inurba_marseille","lat":43.24806,"lon":5.37457,"is_reserved":false,"is_disabled":false,"rental_uris":{"android":"levelo://app?vid=04ddf445-c90e-4eb2-b7e0-2646a674cd14","ios":"levelo://app?vid=04ddf445-c90e-4eb2-b7e0-2646a674cd14"},"vehicle_type_id":"4","last_reported":1769562058,"current_range_meters":4800,"station_id":"ce4bhgh2rcd13ifvqfb0","pricing_plan_id":"cebpf4jnsgd1na2vs0mg"},{"bike_id":"8631421d-21a9-439a-82c3-3764ee3e564c","system_id":"levelo_inurba_marseille","lat":43.27179,"lon":5.41008,"is_reserved":false,"is_disabled":false,"rental_uris":{"android":"levelo://app?vid=8631421d-21a9-439a-82c3-3764ee3e564c","ios":"levelo://app?vid=8631421d-21a9-439a-82c3-3764ee3e564c"},"vehicle_type_id":"4","last_reported":1769562058,"current_range_meters":4800,"station_id":"ce4bhl12rcd13ifvqgf0","pricing_plan_id":"cebpf4jnsgd1na2vs0mg"},{"bike_id":"2abdbc45-a66e-4faf-971c-b57d8f806d8d","system_id":"levelo_inurba_marseille","lat":43.28481,"lon":5.4838,"is_reserved":false,"is_disabled":false,"rental_uris":{"android":"levelo://app?vid=2abdbc45-a66e-4faf-971c-b57d8f806d8d","ios":"levelo://app?vid=2abdbc45-a66e-4faf-971c-b57d8f806d8d"},"vehicle_type_id":"4","last_reported":1769562058,"current_range_meters":4800,"station_id":"st_d3svhcjqgbts73a3dn0g","pricing_plan_id":"cebpf4jnsgd1na2vs0mg"},{"bike_id":"3502fe63-e82b-42dd-b76c-251185f6362e","system_id":"levelo_inurba_marseille","lat":43.290022,"lon":5.356166,"is_reserved":false,"is_disabled":false,"rental_uris":{"android":"levelo://app?vid=3502fe63-e82b-42dd-b76c-251185f6362e","ios":"levelo://app?vid=3502fe63-e82b-42dd-b76c-251185f6362e"},"vehicle_type_id":"4","last_reported":1769562058,"current_range_meters":4800,"station_id":"ce4bhb92rcd13ifvqen0","pricing_plan_id":"cebpf4jnsgd1na2vs0mg"},{"bike_id":"8640d133-3bb4-4148-a53e-bf5752f7d191","system_id":"levelo_inurba_marseille","lat":43.24167,"lon":5.36394,"is_reserved":false,"is_disabled":false,"rental_uris":{"android":"levelo://app?vid=8640d133-3bb4-4148-a53e-bf5752f7d191","ios":"levelo://app?vid=8640d133-3bb4-4148-a53e-bf5752f7d191"},"vehicle_type_id":"4","last_reported":1769562058,"current_range_meters":5600,"station_id":"cpo36qri1sfpv3e86is0","pricing_plan_id":"cebpf4jnsgd1na2vs0mg"},{"bike_id":"de0a745b-ff98-4422-bea1-113796d1108a","system_id":"levelo_inurba_marseille","lat":43.246805,"lon":5.381447,"is_reserved":false,"is_disabled":false,"rental_uris":{"android":"levelo://app?vid=de0a745b-ff98-4422-bea1-113796d1108a","ios":"levelo://app?vid=de0a745b-ff98-4422-bea1-113796d1108a"},"vehicle_type_id":"4","last_reported":1769562058,"current_range_meters":5600,"station_id":"ce4bhih2rcd13ifvqfr0","pricing_plan_id":"cebpf4jnsgd1na2vs0mg"},{"bike_id":"97d1eda0-a9af-4c4a-9c8b-3b1301d74ec8","system_id":"levelo_inurba_marseille","lat":43.22997,"lon":5.35401,"is_reserved":false,"is_disabled":false,"rental_uris":{"android":"levelo://app?vid=97d1eda0-a9af-4c4a-9c8b-3b1301d74ec8","ios":"levelo://app?vid=97d1eda0-a9af-4c4a-9c8b-3b1301d74ec8"},"vehicle_type_id":"4","last_reported":1769562058,"current_range_meters":5600,"station_id":"cpo3532slgdg3j2ikp40","pricing_plan_id":"cebpf4jnsgd1na2vs0mg"},{"bike_id":"cb5f05c1-65a5-4a39-a2f9-567e319b2220","system_id":"levelo_inurba_marseille","lat":43.30543,"lon":5.36545,"is_reserved":false,"is_disabled":false,"rental_uris":{"android":"levelo://app?vid=cb5f05c1-65a5-4a39-a2f9-567e319b2220","ios":"levelo://app?vid=cb5f05c1-65a5-4a39-a2f9-567e319b2220"},"vehicle_type_id":"4","last_reported":1769562058,"current_range_meters":5600,"station_id":"ce4bgs12rcd13ifvqcag","pricing_plan_id":"cebpf4jnsgd1na2vs0mg"},{"bike_id":"c91f91f3-98b3-4fcf-bd93-581840c2823a","system_id":"levelo_inurba_marseille","lat":43.28457,"lon":5.39144,"is_reserved":false,"is_disabled":false,"rental_uris":{"android":"levelo://app?vid=c91f91f3-98b3-4fcf-bd93-581840c2823a","ios":"levelo://app?vid=c91f91f3-98b3-4fcf-bd93-581840c2823a"},"vehicle_type_id":"4","last_reported":1769562058,"current_range_meters":5600,"station_id":"ce4bhoh2rcd13ifvqh5g","pricing_plan_id":"cebpf4jnsgd1na2vs0mg"},{"bike_id":"4ae41ba3-a1e3-40be-9ea3-b6ff0399ba40","system_id":"levelo_inurba_marseille","lat":43.24083,"lon":5.37766,"is_reserved":false,"is_disabled":false,"rental_uris":{"android":"levelo://app?vid=4ae41ba3-a1e3-40be-9ea3-b6ff0399ba40","ios":"levelo://app?vid=4ae41ba3-a1e3-40be-9ea3-b6ff0399ba40"},"vehicle_type_id":"4","last_reported":1769562058,"current_range_meters":5600,"station_id":"ce4bhnp2rcd13ifvqgvg","pricing_plan_id":"cebpf4jnsgd1na2vs0mg"},{"bike_id":"c095bb2b-3a4d-47a9-b66a-166d46d57fd0","system_id":"levelo_inurba_marseille","lat":43.30945,"lon":5.39019,"is_reserved":false,"is_disabled":false,"rental_uris":{"android":"levelo://app?vid=c095bb2b-3a4d-47a9-b66a-166d46d57fd0","ios":"levelo://app?vid=c095bb2b-3a4d-47a9-b66a-166d46d57fd0"},"vehicle_type_id":"4","last_reported":1769562058,"current_range_meters":5600,"station_id":"ce4bgup2rcd13ifvqco0","pricing_plan_id":"cebpf4jnsgd1na2vs0mg"},{"bike_id":"a25d6579-8a29-4988-93ae-ba28f041dda1","system_id":"levelo_inurba_marseille","lat":43.29009,"lon":5.38142,"is_reserved":false,"is_disabled":false,"rental_uris":{"android":"levelo://app?vid=a25d6579-8a29-4988-93ae-ba28f041dda1","ios":"levelo://app?vid=a25d6579-8a29-4988-93ae-ba28f041dda1"},"vehicle_type_id":"4","last_reported":1769562058,"current_range_meters":5600,"station_id":"ce4bh4p2rcd13ifvqe1g","pricing_plan_id":"cebpf4jnsgd1na2vs0mg"},{"bike_id":"393e8843-79b1-4160-ba67-99b8fb174133","system_id":"levelo_inurba_marseille","lat":43.246385,"lon":5.431468,"is_reserved":false,"is_disabled":false,"rental_uris":{"android":"levelo://app?vid=393e8843-79b1-4160-ba67-99b8fb174133","ios":"levelo://app?vid=393e8843-79b1-4160-ba67-99b8fb174133"},"vehicle_type_id":"4","last_reported":1769562058,"current_range_meters":5600,"station_id":"st_d2m6c4gdas8pm72e190g","pricing_plan_id":"cebpf4jnsgd1na2vs0mg"},{"bike_id":"68eb60a7-03e1-4f7b-9cb2-82f0dfd54bc8","system_id":"levelo_inurba_marseille","lat":43.27954,"lon":5.38682,"is_reserved":false,"is_disabled":false,"rental_uris":{"android":"levelo://app?vid=68eb60a7-03e1-4f7b-9cb2-82f0dfd54bc8","ios":"levelo://app?vid=68eb60a7-03e1-4f7b-9cb2-82f0dfd54bc8"},"vehicle_type_id":"4","last_reported":1769562058,"current_range_meters":6000,"station_id":"ce4bhg12rcd13ifvqf80","pricing_plan_id":"cebpf4jnsgd1na2vs0mg"},{"bike_id":"d8fe5977-167d-4d79-bb8d-a90abddb5736","system_id":"levelo_inurba_marseille","lat":43.24796,"lon":5.37451,"is_reserved":false,"is_disabled":false,"rental_uris":{"android":"levelo://app?vid=d8fe5977-167d-4d79-bb8d-a90abddb5736","ios":"levelo://app?vid=d8fe5977-167d-4d79-bb8d-a90abddb5736"},"vehicle_type_id":"4","last_reported":1769562058,"current_range_meters":6000,"station_id":"ce4bhgh2rcd13ifvqfb0","pricing_plan_id":"cebpf4jnsgd1na2vs0mg"},{"bike_id":"85026117-c550-455d-8a08-7af3c98aaf36","system_id":"levelo_inurba_marseille","lat":43.231931,"lon":5.355536,"is_reserved":false,"is_disabled":false,"rental_uris":{"android":"levelo://app?vid=85026117-c550-455d-8a08-7af3c98aaf36","ios":"levelo://app?vid=85026117-c550-455d-8a08-7af3c98aaf36"},"vehicle_type_id":"4","last_reported":1769562058,"current_range_meters":6000,"station_id":"ce4bhu92rcd13ifvqi70","pricing_plan_id":"cebpf4jnsgd1na2vs0mg"},{"bike_id":"785c7c69-4bc2-4985-896b-5522c3e5e963","system_id":"levelo_inurba_marseille","lat":43.29025,"lon":5.38639,"is_reserved":false,"is_disabled":false,"rental_uris":{"android":"levelo://app?vid=785c7c69-4bc2-4985-896b-5522c3e5e963","ios":"levelo://app?vid=785c7c69-4bc2-4985-896b-5522c3e5e963"},"vehicle_type_id":"4","last_reported":1769562058,"current_range_meters":6000,"station_id":"ce4bh4p2rcd13ifvqe0g","pricing_plan_id":"cebpf4jnsgd1na2vs0mg"},{"bike_id":"dd17e14d-0564-4393-a6fd-cb7a120675c0","system_id":"levelo_inurba_marseille","lat":43.24461,"lon":5.42537,"is_reserved":false,"is_disabled":false,"rental_uris":{"android":"levelo://app?vid=dd17e14d-0564-4393-a6fd-cb7a120675c0","ios":"levelo://app?vid=dd17e14d-0564-4393-a6fd-cb7a120675c0"},"vehicle_type_id":"4","last_reported":1769562058,"current_range_meters":6000,"station_id":"st_d4a3vfp97mjs738cd8kg","pricing_plan_id":"cebpf4jnsgd1na2vs0mg"},{"bike_id":"80bfe7d7-dc03-49e7-b0e2-738768656a80","system_id":"levelo_inurba_marseille","lat":43.33143,"lon":5.37692,"is_reserved":false,"is_disabled":false,"rental_uris":{"android":"levelo://app?vid=80bfe7d7-dc03-49e7-b0e2-738768656a80","ios":"levelo://app?vid=80bfe7d7-dc03-49e7-b0e2-738768656a80"},"vehicle_type_id":"4","last_reported":1769562058,"current_range_meters":6000,"station_id":"st_d46cu089ee8s73dldbu0","pricing_plan_id":"cebpf4jnsgd1na2vs0mg"},{"bike_id":"f81acb76-6ec9-47a3-88be-40ad0c0bc3a4","system_id":"levelo_inurba_marseille","lat":43.2893,"lon":5.38379,"is_reserved":false,"is_disabled":false,"rental_uris":{"android":"levelo://app?vid=f81acb76-6ec9-47a3-88be-40ad0c0bc3a4","ios":"levelo://app?vid=f81acb76-6ec9-47a3-88be-40ad0c0bc3a4"},"vehicle_type_id":"4","last_reported":1769562058,"current_range_meters":6000,"station_id":"ce4bh612rcd13ifvqe6g","pricing_plan_id":"cebpf4jnsgd1na2vs0mg"},{"bike_id":"aa8f34bd-fc95-49cd-b8d5-0a9a63411821","system_id":"levelo_inurba_marseille","lat":43.27952,"lon":5.38689,"is_reserved":false,"is_disabled":false,"rental_uris":{"android":"levelo://app?vid=aa8f34bd-fc95-49cd-b8d5-0a9a63411821","ios":"levelo://app?vid=aa8f34bd-fc95-49cd-b8d5-0a9a63411821"},"vehicle_type_id":"4","last_reported":1769562058,"current_range_meters":6000,"station_id":"","pricing_plan_id":"cebpf4jnsgd1na2vs0mg"},{"bike_id":"6d06c21c-b3a0-4a4c-b24e-191f22182658","system_id":"levelo_inurba_marseille","lat":43.24638,"lon":5.43145,"is_reserved":false,"is_disabled":false,"rental_uris":{"android":"levelo://app?vid=6d06c21c-b3a0-4a4c-b24e-191f22182658","ios":"levelo://app?vid=6d06c21c-b3a0-4a4c-b24e-191f22182658"},"vehicle_type_id":"4","last_reported":1769562058,"current_range_meters":6000,"station_id":"st_d2m6c4gdas8pm72e190g","pricing_plan_id":"cebpf4jnsgd1na2vs0mg"},{"bike_id":"1bd44af8-a399-4717-b391-e0e7ede0d4bc","system_id":"levelo_inurba_marseille","lat":43.28882,"lon":5.4252,"is_reserved":false,"is_disabled":false,"rental_uris":{"android":"levelo://app?vid=1bd44af8-a399-4717-b391-e0e7ede0d4bc","ios":"levelo://app?vid=1bd44af8-a399-4717-b391-e0e7ede0d4bc"},"vehicle_type_id":"4","last_reported":1769562058,"current_range_meters":6000,"station_id":"st_d3b462108ojc7389ooeg","pricing_plan_id":"cebpf4jnsgd1na2vs0mg"},{"bike_id":"5dd5ba8e-7633-431d-bd88-a61b8dc43eb8","system_id":"levelo_inurba_marseille","lat":43.266749,"lon":5.382654,"is_reserved":false,"is_disabled":false,"rental_uris":{"android":"levelo://app?vid=5dd5ba8e-7633-431d-bd88-a61b8dc43eb8","ios":"levelo://app?vid=5dd5ba8e-7633-431d-bd88-a61b8dc43eb8"},"vehicle_type_id":"4","last_reported":1769562058,"current_range_meters":6000,"station_id":"ce4bhg92rcd13ifvqf90","pricing_plan_id":"cebpf4jnsgd1na2vs0mg"},{"bike_id":"6403e3cb-b3e3-41e8-bf9f-1d4a6c92aa6b","system_id":"levelo_inurba_marseille","lat":43.29596,"lon":5.39258,"is_reserved":false,"is_disabled":false,"rental_uris":{"android":"levelo://app?vid=6403e3cb-b3e3-41e8-bf9f-1d4a6c92aa6b","ios":"levelo://app?vid=6403e3cb-b3e3-41e8-bf9f-1d4a6c92aa6b"},"vehicle_type_id":"4","last_reported":1769562058,"current_range_meters":6000,"station_id":"","pricing_plan_id":"cebpf4jnsgd1na2vs0mg"},{"bike_id":"d48cb725-0cda-4b3c-925c-5178792aff67","system_id":"levelo_inurba_marseille","lat":43.27551,"lon":5.43424,"is_reserved":false,"is_disabled":false,"rental_uris":{"android":"levelo://app?vid=d48cb725-0cda-4b3c-925c-5178792aff67","ios":"levelo://app?vid=d48cb725-0cda-4b3c-925c-5178792aff67"},"vehicle_type_id":"4","last_reported":1769562058,"current_range_meters":6000,"station_id":"","pricing_plan_id":"cebpf4jnsgd1na2vs0mg"},{"bike_id":"3bff5cec-8847-4371-9dcf-08e0ac5a358c","system_id":"levelo_inurba_marseille","lat":43.249968,"lon":5.389283,"is_reserved":false,"is_disabled":false,"rental_uris":{"android":"levelo://app?vid=3bff5cec-8847-4371-9dcf-08e0ac5a358c","ios":"levelo://app?vid=3bff5cec-8847-4371-9dcf-08e0ac5a358c"},"vehicle_type_id":"4","last_reported":1769562058,"current_range_meters":6000,"station_id":"ce4bhgp2rcd13ifvqfd0","pricing_plan_id":"cebpf4jnsgd1na2vs0mg"},{"bike_id":"91b17bad-8088-43ad-8719-6174e3db191c","system_id":"levelo_inurba_marseille","lat":43.28433,"lon":5.3755,"is_reserved":false,"is_disabled":false,"rental_uris":{"android":"levelo://app?vid=91b17bad-8088-43ad-8719-6174e3db191c","ios":"levelo://app?vid=91b17bad-8088-43ad-8719-6174e3db191c"},"vehicle_type_id":"4","last_reported":1769562058,"current_range_meters":6400,"station_id":"ce4bh412rcd13ifvqds0","pricing_plan_id":"cebpf4jnsgd1na2vs0mg"},{"bike_id":"613783a7-3375-47a3-8806-3460e4a447cb","system_id":"levelo_inurba_marseille","lat":43.27521,"lon":5.38416,"is_reserved":false,"is_disabled":false,"rental_uris":{"android":"levelo://app?vid=613783a7-3375-47a3-8806-3460e4a447cb","ios":"levelo://app?vid=613783a7-3375-47a3-8806-3460e4a447cb"},"vehicle_type_id":"4","last_reported":1769562058,"current_range_meters":6400,"station_id":"ce4bhh92rcd13ifvqfi0","pricing_plan_id":"cebpf4jnsgd1na2vs0mg"},{"bike_id":"b8d0e74a-b077-4f72-8c50-1742cb8a3532","system_id":"levelo_inurba_marseille","lat":43.31382,"lon":5.38529,"is_reserved":false,"is_disabled":false,"rental_uris":{"android":"levelo://app?vid=b8d0e74a-b077-4f72-8c50-1742cb8a3532","ios":"levelo://app?vid=b8d0e74a-b077-4f72-8c50-1742cb8a3532"},"vehicle_type_id":"4","last_reported":1769562058,"current_range_meters":6400,"station_id":"ce4bgt92rcd13ifvqcf0","pricing_plan_id":"cebpf4jnsgd1na2vs0mg"},{"bike_id":"829c6048-5039-45d2-82e1-b4fc0008beec","system_id":"levelo_inurba_marseille","lat":43.31259,"lon":5.40171,"is_reserved":false,"is_disabled":false,"rental_uris":{"android":"levelo://app?vid=829c6048-5039-45d2-82e1-b4fc0008beec","ios":"levelo://app?vid=829c6048-5039-45d2-82e1-b4fc0008beec"},"vehicle_type_id":"4","last_reported":1769562058,"current_range_meters":6400,"station_id":"ce4bh092rcd13ifvqd30","pricing_plan_id":"cebpf4jnsgd1na2vs0mg"},{"bike_id":"6f675b93-8c4a-4412-9c47-6a896314111b","system_id":"levelo_inurba_marseille","lat":43.28605,"lon":5.35115,"is_reserved":false,"is_disabled":false,"rental_uris":{"android":"levelo://app?vid=6f675b93-8c4a-4412-9c47-6a896314111b","ios":"levelo://app?vid=6f675b93-8c4a-4412-9c47-6a896314111b"},"vehicle_type_id":"4","last_reported":1769562058,"current_range_meters":6400,"station_id":"ce4bhch2rcd13ifvqeug","pricing_plan_id":"cebpf4jnsgd1na2vs0mg"},{"bike_id":"22d5e9c9-eead-4e62-b481-d37a79966c48","system_id":"levelo_inurba_marseille","lat":43.30755,"lon":5.37655,"is_reserved":false,"is_disabled":false,"rental_uris":{"android":"levelo://app?vid=22d5e9c9-eead-4e62-b481-d37a79966c48","ios":"levelo://app?vid=22d5e9c9-eead-4e62-b481-d37a79966c48"},"vehicle_type_id":"4","last_reported":1769562058,"current_range_meters":6400,"station_id":"ce4bgv92rcd13ifvqcq0","pricing_plan_id":"cebpf4jnsgd1na2vs0mg"},{"bike_id":"4650190a-933d-482e-9095-ddf2c95584eb","system_id":"levelo_inurba_marseille","lat":43.231457,"lon":5.437344,"is_reserved":false,"is_disabled":false,"rental_uris":{"android":"levelo://app?vid=4650190a-933d-482e-9095-ddf2c95584eb","ios":"levelo://app?vid=4650190a-933d-482e-9095-ddf2c95584eb"},"vehicle_type_id":"4","last_reported":1769562058,"current_range_meters":6400,"station_id":"ce4bhmp2rcd13ifvqgog","pricing_plan_id":"cebpf4jnsgd1na2vs0mg"},{"bike_id":"4bd3789c-42d4-4b0e-83db-82e92e24096c","system_id":"levelo_inurba_marseille","lat":43.2923,"lon":5.40171,"is_reserved":false,"is_disabled":false,"rental_uris":{"android":"levelo://app?vid=4bd3789c-42d4-4b0e-83db-82e92e24096c","ios":"levelo://app?vid=4bd3789c-42d4-4b0e-83db-82e92e24096c"},"vehicle_type_id":"4","last_reported":1769562058,"current_range_meters":6400,"station_id":"","pricing_plan_id":"cebpf4jnsgd1na2vs0mg"},{"bike_id":"a2440d1b-a3a8-413d-afc2-b2eb2991ca06","system_id":"levelo_inurba_marseille","lat":43.331605,"lon":5.376854,"is_reserved":false,"is_disabled":false,"rental_uris":{"android":"levelo://app?vid=a2440d1b-a3a8-413d-afc2-b2eb2991ca06","ios":"levelo://app?vid=a2440d1b-a3a8-413d-afc2-b2eb2991ca06"},"vehicle_type_id":"4","last_reported":1769562058,"current_range_meters":6400,"station_id":"st_d46cu089ee8s73dldbu0","pricing_plan_id":"cebpf4jnsgd1na2vs0mg"},{"bike_id":"e87551f7-d06a-4b80-aa7a-e3b2490a54b4","system_id":"levelo_inurba_marseille","lat":43.25581,"lon":5.38239,"is_reserved":false,"is_disabled":false,"rental_uris":{"android":"levelo://app?vid=e87551f7-d06a-4b80-aa7a-e3b2490a54b4","ios":"levelo://app?vid=e87551f7-d06a-4b80-aa7a-e3b2490a54b4"},"vehicle_type_id":"4","last_reported":1769562058,"current_range_meters":6400,"station_id":"ce4bhih2rcd13ifvqfs0","pricing_plan_id":"cebpf4jnsgd1na2vs0mg"},{"bike_id":"86ab6ff6-5d09-46d9-8fb7-9ea6cfb6987e","system_id":"levelo_inurba_marseille","lat":43.284727,"lon":5.384309,"is_reserved":false,"is_disabled":false,"rental_uris":{"android":"levelo://app?vid=86ab6ff6-5d09-46d9-8fb7-9ea6cfb6987e","ios":"levelo://app?vid=86ab6ff6-5d09-46d9-8fb7-9ea6cfb6987e"},"vehicle_type_id":"4","last_reported":1769562058,"current_range_meters":6400,"station_id":"ce4bh512rcd13ifvqe3g","pricing_plan_id":"cebpf4jnsgd1na2vs0mg"},{"bike_id":"0203e770-d373-420b-85b8-65d0c6c770c2","system_id":"levelo_inurba_marseille","lat":43.28399,"lon":5.37516,"is_reserved":false,"is_disabled":false,"rental_uris":{"android":"levelo://app?vid=0203e770-d373-420b-85b8-65d0c6c770c2","ios":"levelo://app?vid=0203e770-d373-420b-85b8-65d0c6c770c2"},"vehicle_type_id":"4","last_reported":1769562058,"current_range_meters":6400,"station_id":"ce4bh412rcd13ifvqds0","pricing_plan_id":"cebpf4jnsgd1na2vs0mg"},{"bike_id":"cacc4686-a7d7-417b-a0d3-8e325af530c5","system_id":"levelo_inurba_marseille","lat":43.290323,"lon":5.386466,"is_reserved":false,"is_disabled":false,"rental_uris":{"android":"levelo://app?vid=cacc4686-a7d7-417b-a0d3-8e325af530c5","ios":"levelo://app?vid=cacc4686-a7d7-417b-a0d3-8e325af530c5"},"vehicle_type_id":"4","last_reported":1769562058,"current_range_meters":6400,"station_id":"ce4bh4p2rcd13ifvqe0g","pricing_plan_id":"cebpf4jnsgd1na2vs0mg"},{"bike_id":"2c75aff8-afe6-472e-bd9b-40a06a402c25","system_id":"levelo_inurba_marseille","lat":43.29257,"lon":5.409,"is_reserved":false,"is_disabled":false,"rental_uris":{"android":"levelo://app?vid=2c75aff8-afe6-472e-bd9b-40a06a402c25","ios":"levelo://app?vid=2c75aff8-afe6-472e-bd9b-40a06a402c25"},"vehicle_type_id":"4","last_reported":1769562058,"current_range_meters":6400,"station_id":"ce4bh192rcd13ifvqdc0","pricing_plan_id":"cebpf4jnsgd1na2vs0mg"},{"bike_id":"34d50b3c-5ce8-4f73-8561-7d8c5e669e11","system_id":"levelo_inurba_marseille","lat":43.30549,"lon":5.366938,"is_reserved":false,"is_disabled":false,"rental_uris":{"android":"levelo://app?vid=34d50b3c-5ce8-4f73-8561-7d8c5e669e11","ios":"levelo://app?vid=34d50b3c-5ce8-4f73-8561-7d8c5e669e11"},"vehicle_type_id":"4","last_reported":1769562058,"current_range_meters":6400,"station_id":"ce4bgrp2rcd13ifvqc9g","pricing_plan_id":"cebpf4jnsgd1na2vs0mg"},{"bike_id":"eb0bf08a-b6cc-4ac8-8e1f-c82dd2a6df2f","system_id":"levelo_inurba_marseille","lat":43.32349,"lon":5.36742,"is_reserved":false,"is_disabled":false,"rental_uris":{"android":"levelo://app?vid=eb0bf08a-b6cc-4ac8-8e1f-c82dd2a6df2f","ios":"levelo://app?vid=eb0bf08a-b6cc-4ac8-8e1f-c82dd2a6df2f"},"vehicle_type_id":"4","last_reported":1769562058,"current_range_meters":6400,"station_id":"ce4bhsh2rcd13ifvqi2g","pricing_plan_id":"cebpf4jnsgd1na2vs0mg"},{"bike_id":"449affbd-aaf8-41d6-bed7-0d41a00c111d","system_id":"levelo_inurba_marseille","lat":43.33266,"lon":5.36626,"is_reserved":false,"is_disabled":false,"rental_uris":{"android":"levelo://app?vid=449affbd-aaf8-41d6-bed7-0d41a00c111d","ios":"levelo://app?vid=449affbd-aaf8-41d6-bed7-0d41a00c111d"},"vehicle_type_id":"4","last_reported":1769562058,"current_range_meters":6400,"station_id":"","pricing_plan_id":"cebpf4jnsgd1na2vs0mg"},{"bike_id":"914cff6c-955b-4687-b2a7-caa24536f853","system_id":"levelo_inurba_marseille","lat":43.30953,"lon":5.39031,"is_reserved":false,"is_disabled":true,"rental_uris":{"android":"levelo://app?vid=914cff6c-955b-4687-b2a7-caa24536f853","ios":"levelo://app?vid=914cff6c-955b-4687-b2a7-caa24536f853"},"vehicle_type_id":"4","last_reported":1769562058,"current_range_meters":6400,"station_id":"ce4bgup2rcd13ifvqco0","pricing_plan_id":"cebpf4jnsgd1na2vs0mg"},{"bike_id":"e2f92d4a-6014-4ea4-a0c0-6263826c3613","system_id":"levelo_inurba_marseille","lat":43.26931,"lon":5.38922,"is_reserved":false,"is_disabled":false,"rental_uris":{"android":"levelo://app?vid=e2f92d4a-6014-4ea4-a0c0-6263826c3613","ios":"levelo://app?vid=e2f92d4a-6014-4ea4-a0c0-6263826c3613"},"vehicle_type_id":"4","last_reported":1769562058,"current_range_meters":6400,"station_id":"ce4bhhh2rcd13ifvqfl0","pricing_plan_id":"cebpf4jnsgd1na2vs0mg"},{"bike_id":"25eaa446-e859-4ae0-969e-813719c1eb78","system_id":"levelo_inurba_marseille","lat":43.23205,"lon":5.39981,"is_reserved":false,"is_disabled":false,"rental_uris":{"android":"levelo://app?vid=25eaa446-e859-4ae0-969e-813719c1eb78","ios":"levelo://app?vid=25eaa446-e859-4ae0-969e-813719c1eb78"},"vehicle_type_id":"4","last_reported":1769562058,"current_range_meters":6400,"station_id":"ce4bhn12rcd13ifvqgqg","pricing_plan_id":"cebpf4jnsgd1na2vs0mg"},{"bike_id":"6b4c2cb5-5f9e-4113-aa57-12bc075351c0","system_id":"levelo_inurba_marseille","lat":43.299323,"lon":5.365301,"is_reserved":false,"is_disabled":false,"rental_uris":{"android":"levelo://app?vid=6b4c2cb5-5f9e-4113-aa57-12bc075351c0","ios":"levelo://app?vid=6b4c2cb5-5f9e-4113-aa57-12bc075351c0"},"vehicle_type_id":"4","last_reported":1769562058,"current_range_meters":6800,"station_id":"ce4bgm92rcd13ifvqbr0","pricing_plan_id":"cebpf4jnsgd1na2vs0mg"},{"bike_id":"875f91c4-5f67-4236-be02-ac63b07c8434","system_id":"levelo_inurba_marseille","lat":43.31072,"lon":5.38736,"is_reserved":false,"is_disabled":false,"rental_uris":{"android":"levelo://app?vid=875f91c4-5f67-4236-be02-ac63b07c8434","ios":"levelo://app?vid=875f91c4-5f67-4236-be02-ac63b07c8434"},"vehicle_type_id":"4","last_reported":1769562058,"current_range_meters":6800,"station_id":"","pricing_plan_id":"cebpf4jnsgd1na2vs0mg"},{"bike_id":"00dfcad3-8e11-4382-a88b-9b861c96f8a0","system_id":"levelo_inurba_marseille","lat":43.23784,"lon":5.3663,"is_reserved":false,"is_disabled":false,"rental_uris":{"android":"levelo://app?vid=00dfcad3-8e11-4382-a88b-9b861c96f8a0","ios":"levelo://app?vid=00dfcad3-8e11-4382-a88b-9b861c96f8a0"},"vehicle_type_id":"4","last_reported":1769562058,"current_range_meters":6800,"station_id":"st_d3nk18o9ro0c73en2l3g","pricing_plan_id":"cebpf4jnsgd1na2vs0mg"},{"bike_id":"66d53e2f-2a0c-4a26-af49-177c6a70a302","system_id":"levelo_inurba_marseille","lat":43.2543,"lon":5.39573,"is_reserved":false,"is_disabled":false,"rental_uris":{"android":"levelo://app?vid=66d53e2f-2a0c-4a26-af49-177c6a70a302","ios":"levelo://app?vid=66d53e2f-2a0c-4a26-af49-177c6a70a302"},"vehicle_type_id":"4","last_reported":1769562058,"current_range_meters":6800,"station_id":"","pricing_plan_id":"cebpf4jnsgd1na2vs0mg"},{"bike_id":"db5a8d9b-1501-4619-9180-f11f5d197c99","system_id":"levelo_inurba_marseille","lat":43.2592,"lon":5.40901,"is_reserved":false,"is_disabled":false,"rental_uris":{"android":"levelo://app?vid=db5a8d9b-1501-4619-9180-f11f5d197c99","ios":"levelo://app?vid=db5a8d9b-1501-4619-9180-f11f5d197c99"},"vehicle_type_id":"4","last_reported":1769562058,"current_range_meters":6800,"station_id":"ce4bhm92rcd13ifvqglg","pricing_plan_id":"cebpf4jnsgd1na2vs0mg"},{"bike_id":"a3fee5ab-2852-4a46-a8b7-b50a83c7086a","system_id":"levelo_inurba_marseille","lat":43.26572,"lon":5.40326,"is_reserved":false,"is_disabled":false,"rental_uris":{"android":"levelo://app?vid=a3fee5ab-2852-4a46-a8b7-b50a83c7086a","ios":"levelo://app?vid=a3fee5ab-2852-4a46-a8b7-b50a83c7086a"},"vehicle_type_id":"4","last_reported":1769562058,"current_range_meters":6800,"station_id":"ce4bhmp2rcd13ifvqgng","pricing_plan_id":"cebpf4jnsgd1na2vs0mg"},{"bike_id":"89c29c4f-0bcf-4532-b459-dfc8b156b71a","system_id":"levelo_inurba_marseille","lat":43.25674,"lon":5.41761,"is_reserved":false,"is_disabled":false,"rental_uris":{"android":"levelo://app?vid=89c29c4f-0bcf-4532-b459-dfc8b156b71a","ios":"levelo://app?vid=89c29c4f-0bcf-4532-b459-dfc8b156b71a"},"vehicle_type_id":"4","last_reported":1769562058,"current_range_meters":6800,"station_id":"","pricing_plan_id":"cebpf4jnsgd1na2vs0mg"},{"bike_id":"32e2d764-065b-45a8-80b2-1379d8e2ed5a","system_id":"levelo_inurba_marseille","lat":43.23154,"lon":5.43712,"is_reserved":false,"is_disabled":false,"rental_uris":{"android":"levelo://app?vid=32e2d764-065b-45a8-80b2-1379d8e2ed5a","ios":"levelo://app?vid=32e2d764-065b-45a8-80b2-1379d8e2ed5a"},"vehicle_type_id":"4","last_reported":1769562058,"current_range_meters":6800,"station_id":"ce4bhmp2rcd13ifvqgog","pricing_plan_id":"cebpf4jnsgd1na2vs0mg"},{"bike_id":"5e3c74ca-7e6d-42d3-9203-ff9b02fabff3","system_id":"levelo_inurba_marseille","lat":43.29889,"lon":5.36568,"is_reserved":false,"is_disabled":false,"rental_uris":{"android":"levelo://app?vid=5e3c74ca-7e6d-42d3-9203-ff9b02fabff3","ios":"levelo://app?vid=5e3c74ca-7e6d-42d3-9203-ff9b02fabff3"},"vehicle_type_id":"4","last_reported":1769562058,"current_range_meters":6800,"station_id":"ce4bgm92rcd13ifvqbr0","pricing_plan_id":"cebpf4jnsgd1na2vs0mg"},{"bike_id":"c82e45b5-bebb-4de2-9566-137fbc3cf4a5","system_id":"levelo_inurba_marseille","lat":43.23795,"lon":5.36613,"is_reserved":false,"is_disabled":false,"rental_uris":{"android":"levelo://app?vid=c82e45b5-bebb-4de2-9566-137fbc3cf4a5","ios":"levelo://app?vid=c82e45b5-bebb-4de2-9566-137fbc3cf4a5"},"vehicle_type_id":"4","last_reported":1769562058,"current_range_meters":6800,"station_id":"st_d3nk18o9ro0c73en2l3g","pricing_plan_id":"cebpf4jnsgd1na2vs0mg"},{"bike_id":"d1c43644-7810-4148-a97a-875d3c52e1cb","system_id":"levelo_inurba_marseille","lat":43.22559,"lon":5.41627,"is_reserved":false,"is_disabled":false,"rental_uris":{"android":"levelo://app?vid=d1c43644-7810-4148-a97a-875d3c52e1cb","ios":"levelo://app?vid=d1c43644-7810-4148-a97a-875d3c52e1cb"},"vehicle_type_id":"4","last_reported":1769562058,"current_range_meters":6800,"station_id":"st_d2o4gvlbi1j2169b742g","pricing_plan_id":"cebpf4jnsgd1na2vs0mg"},{"bike_id":"73fc0ed2-33b8-469f-9d74-8809de49ae7e","system_id":"levelo_inurba_marseille","lat":43.26068,"lon":5.39414,"is_reserved":false,"is_disabled":false,"rental_uris":{"android":"levelo://app?vid=73fc0ed2-33b8-469f-9d74-8809de49ae7e","ios":"levelo://app?vid=73fc0ed2-33b8-469f-9d74-8809de49ae7e"},"vehicle_type_id":"4","last_reported":1769562058,"current_range_meters":6800,"station_id":"ce4bhh92rcd13ifvqfj0","pricing_plan_id":"cebpf4jnsgd1na2vs0mg"},{"bike_id":"afd92fd0-2da5-4746-b0bc-55b9b0af3bfd","system_id":"levelo_inurba_marseille","lat":43.301,"lon":5.39077,"is_reserved":false,"is_disabled":false,"rental_uris":{"android":"levelo://app?vid=afd92fd0-2da5-4746-b0bc-55b9b0af3bfd","ios":"levelo://app?vid=afd92fd0-2da5-4746-b0bc-55b9b0af3bfd"},"vehicle_type_id":"4","last_reported":1769562058,"current_range_meters":6800,"station_id":"ce4bh192rcd13ifvqdb0","pricing_plan_id":"cebpf4jnsgd1na2vs0mg"},{"bike_id":"71fea5dc-d0de-4a78-a167-9b14189de85c","system_id":"levelo_inurba_marseille","lat":43.28478,"lon":5.35015,"is_reserved":false,"is_disabled":false,"rental_uris":{"android":"levelo://app?vid=71fea5dc-d0de-4a78-a167-9b14189de85c","ios":"levelo://app?vid=71fea5dc-d0de-4a78-a167-9b14189de85c"},"vehicle_type_id":"4","last_reported":1769562058,"current_range_meters":6800,"station_id":"","pricing_plan_id":"cebpf4jnsgd1na2vs0mg"},{"bike_id":"932f24ce-afa3-48f4-a501-0bac81547b63","system_id":"levelo_inurba_marseille","lat":43.28255,"lon":5.35069,"is_reserved":false,"is_disabled":false,"rental_uris":{"android":"levelo://app?vid=932f24ce-afa3-48f4-a501-0bac81547b63","ios":"levelo://app?vid=932f24ce-afa3-48f4-a501-0bac81547b63"},"vehicle_type_id":"4","last_reported":1769562058,"current_range_meters":6800,"station_id":"ce4bhbp2rcd13ifvqerg","pricing_plan_id":"cebpf4jnsgd1na2vs0mg"},{"bike_id":"2a29d217-fe6c-4d71-8171-bbfb86d828ae","system_id":"levelo_inurba_marseille","lat":43.23145,"lon":5.43698,"is_reserved":false,"is_disabled":false,"rental_uris":{"android":"levelo://app?vid=2a29d217-fe6c-4d71-8171-bbfb86d828ae","ios":"levelo://app?vid=2a29d217-fe6c-4d71-8171-bbfb86d828ae"},"vehicle_type_id":"4","last_reported":1769562058,"current_range_meters":6800,"station_id":"ce4bhmp2rcd13ifvqgog","pricing_plan_id":"cebpf4jnsgd1na2vs0mg"},{"bike_id":"e1d814f1-8a4b-47bd-b805-780af94a9b38","system_id":"levelo_inurba_marseille","lat":43.30635,"lon":5.43177,"is_reserved":false,"is_disabled":false,"rental_uris":{"android":"levelo://app?vid=e1d814f1-8a4b-47bd-b805-780af94a9b38","ios":"levelo://app?vid=e1d814f1-8a4b-47bd-b805-780af94a9b38"},"vehicle_type_id":"4","last_reported":1769562058,"current_range_meters":6800,"station_id":"","pricing_plan_id":"cebpf4jnsgd1na2vs0mg"},{"bike_id":"fcafcdfb-17c4-45e9-9e61-5cf1e3584f8e","system_id":"levelo_inurba_marseille","lat":43.25822,"lon":5.39434,"is_reserved":false,"is_disabled":false,"rental_uris":{"android":"levelo://app?vid=fcafcdfb-17c4-45e9-9e61-5cf1e3584f8e","ios":"levelo://app?vid=fcafcdfb-17c4-45e9-9e61-5cf1e3584f8e"},"vehicle_type_id":"4","last_reported":1769562058,"current_range_meters":6800,"station_id":"ce4bhip2rcd13ifvqft0","pricing_plan_id":"cebpf4jnsgd1na2vs0mg"},{"bike_id":"b17b5124-beec-4a5a-bebf-2b8f718a1349","system_id":"levelo_inurba_marseille","lat":43.23193,"lon":5.35556,"is_reserved":false,"is_disabled":false,"rental_uris":{"android":"levelo://app?vid=b17b5124-beec-4a5a-bebf-2b8f718a1349","ios":"levelo://app?vid=b17b5124-beec-4a5a-bebf-2b8f718a1349"},"vehicle_type_id":"4","last_reported":1769562058,"current_range_meters":6800,"station_id":"ce4bhu92rcd13ifvqi70","pricing_plan_id":"cebpf4jnsgd1na2vs0mg"},{"bike_id":"0ea3d740-957a-41cd-8123-81078ac58473","system_id":"levelo_inurba_marseille","lat":43.28425,"lon":5.34987,"is_reserved":false,"is_disabled":false,"rental_uris":{"android":"levelo://app?vid=0ea3d740-957a-41cd-8123-81078ac58473","ios":"levelo://app?vid=0ea3d740-957a-41cd-8123-81078ac58473"},"vehicle_type_id":"4","last_reported":1769562058,"current_range_meters":6800,"station_id":"ce4bhbh2rcd13ifvqepg","pricing_plan_id":"cebpf4jnsgd1na2vs0mg"},{"bike_id":"ee41fb04-53e7-48bc-8e26-1815eaf93dad","system_id":"levelo_inurba_marseille","lat":43.31168,"lon":5.38728,"is_reserved":false,"is_disabled":false,"rental_uris":{"android":"levelo://app?vid=ee41fb04-53e7-48bc-8e26-1815eaf93dad","ios":"levelo://app?vid=ee41fb04-53e7-48bc-8e26-1815eaf93dad"},"vehicle_type_id":"4","last_reported":1769562058,"current_range_meters":7200,"station_id":"ce4bgv12rcd13ifvqcp0","pricing_plan_id":"cebpf4jnsgd1na2vs0mg"},{"bike_id":"49b3b60c-8eda-49d9-b06f-fe200490fbba","system_id":"levelo_inurba_marseille","lat":43.3127,"lon":5.40169,"is_reserved":false,"is_disabled":false,"rental_uris":{"android":"levelo://app?vid=49b3b60c-8eda-49d9-b06f-fe200490fbba","ios":"levelo://app?vid=49b3b60c-8eda-49d9-b06f-fe200490fbba"},"vehicle_type_id":"4","last_reported":1769562058,"current_range_meters":7200,"station_id":"ce4bh092rcd13ifvqd30","pricing_plan_id":"cebpf4jnsgd1na2vs0mg"},{"bike_id":"08f2d201-5407-499e-bdd3-8c2833a13fc2","system_id":"levelo_inurba_marseille","lat":43.30214,"lon":5.39476,"is_reserved":false,"is_disabled":false,"rental_uris":{"android":"levelo://app?vid=08f2d201-5407-499e-bdd3-8c2833a13fc2","ios":"levelo://app?vid=08f2d201-5407-499e-bdd3-8c2833a13fc2"},"vehicle_type_id":"4","last_reported":1769562058,"current_range_meters":7200,"station_id":"ce4bh0p2rcd13ifvqd70","pricing_plan_id":"cebpf4jnsgd1na2vs0mg"},{"bike_id":"b7368e81-ae0b-4a3c-871f-8aca9b722b23","system_id":"levelo_inurba_marseille","lat":43.29251,"lon":5.409,"is_reserved":false,"is_disabled":false,"rental_uris":{"android":"levelo://app?vid=b7368e81-ae0b-4a3c-871f-8aca9b722b23","ios":"levelo://app?vid=b7368e81-ae0b-4a3c-871f-8aca9b722b23"},"vehicle_type_id":"4","last_reported":1769562058,"current_range_meters":7200,"station_id":"ce4bh192rcd13ifvqdc0","pricing_plan_id":"cebpf4jnsgd1na2vs0mg"},{"bike_id":"665f09a0-86f3-41fb-ba25-528fda59e6d0","system_id":"levelo_inurba_marseille","lat":43.28597,"lon":5.39908,"is_reserved":false,"is_disabled":false,"rental_uris":{"android":"levelo://app?vid=665f09a0-86f3-41fb-ba25-528fda59e6d0","ios":"levelo://app?vid=665f09a0-86f3-41fb-ba25-528fda59e6d0"},"vehicle_type_id":"4","last_reported":1769562058,"current_range_meters":7200,"station_id":"st_d4a7ka997mjs738ck50g","pricing_plan_id":"cebpf4jnsgd1na2vs0mg"},{"bike_id":"60be3aa0-4d6c-4509-a452-f86f9a49d14c","system_id":"levelo_inurba_marseille","lat":43.29788,"lon":5.39377,"is_reserved":false,"is_disabled":false,"rental_uris":{"android":"levelo://app?vid=60be3aa0-4d6c-4509-a452-f86f9a49d14c","ios":"levelo://app?vid=60be3aa0-4d6c-4509-a452-f86f9a49d14c"},"vehicle_type_id":"4","last_reported":1769562058,"current_range_meters":7200,"station_id":"chh1huq6cuj3fo74tm60","pricing_plan_id":"cebpf4jnsgd1na2vs0mg"},{"bike_id":"dbf2d5fa-0067-4d78-8d50-7328128e1b0e","system_id":"levelo_inurba_marseille","lat":43.25821,"lon":5.3945,"is_reserved":false,"is_disabled":false,"rental_uris":{"android":"levelo://app?vid=dbf2d5fa-0067-4d78-8d50-7328128e1b0e","ios":"levelo://app?vid=dbf2d5fa-0067-4d78-8d50-7328128e1b0e"},"vehicle_type_id":"4","last_reported":1769562058,"current_range_meters":7200,"station_id":"ce4bhip2rcd13ifvqft0","pricing_plan_id":"cebpf4jnsgd1na2vs0mg"},{"bike_id":"6c94e80c-39f0-4962-a8f5-d29e97283865","system_id":"levelo_inurba_marseille","lat":43.30899,"lon":5.37202,"is_reserved":false,"is_disabled":false,"rental_uris":{"android":"levelo://app?vid=6c94e80c-39f0-4962-a8f5-d29e97283865","ios":"levelo://app?vid=6c94e80c-39f0-4962-a8f5-d29e97283865"},"vehicle_type_id":"4","last_reported":1769562058,"current_range_meters":7200,"station_id":"ce4bguh2rcd13ifvqckg","pricing_plan_id":"cebpf4jnsgd1na2vs0mg"},{"bike_id":"d815de99-dc62-4dc1-9b11-2df23d3fe849","system_id":"levelo_inurba_marseille","lat":43.24086,"lon":5.37733,"is_reserved":false,"is_disabled":true,"rental_uris":{"android":"levelo://app?vid=d815de99-dc62-4dc1-9b11-2df23d3fe849","ios":"levelo://app?vid=d815de99-dc62-4dc1-9b11-2df23d3fe849"},"vehicle_type_id":"4","last_reported":1769562058,"current_range_meters":7200,"station_id":"ce4bhnp2rcd13ifvqgvg","pricing_plan_id":"cebpf4jnsgd1na2vs0mg"},{"bike_id":"55fc4481-fb28-48c3-861a-dcb0bdadbf4b","system_id":"levelo_inurba_marseille","lat":43.25913,"lon":5.40877,"is_reserved":false,"is_disabled":false,"rental_uris":{"android":"levelo://app?vid=55fc4481-fb28-48c3-861a-dcb0bdadbf4b","ios":"levelo://app?vid=55fc4481-fb28-48c3-861a-dcb0bdadbf4b"},"vehicle_type_id":"4","last_reported":1769562058,"current_range_meters":7200,"station_id":"ce4bhm92rcd13ifvqglg","pricing_plan_id":"cebpf4jnsgd1na2vs0mg"},{"bike_id":"44d0616f-fc20-438d-9b08-1efcaa3d0a1f","system_id":"levelo_inurba_marseille","lat":43.30469,"lon":5.36536,"is_reserved":false,"is_disabled":false,"rental_uris":{"android":"levelo://app?vid=44d0616f-fc20-438d-9b08-1efcaa3d0a1f","ios":"levelo://app?vid=44d0616f-fc20-438d-9b08-1efcaa3d0a1f"},"vehicle_type_id":"4","last_reported":1769562058,"current_range_meters":7200,"station_id":"ce4bgs12rcd13ifvqcag","pricing_plan_id":"cebpf4jnsgd1na2vs0mg"},{"bike_id":"e97d0a7c-09a0-4de9-8b12-4f01b9fc223b","system_id":"levelo_inurba_marseille","lat":43.29739,"lon":5.38025,"is_reserved":false,"is_disabled":false,"rental_uris":{"android":"levelo://app?vid=e97d0a7c-09a0-4de9-8b12-4f01b9fc223b","ios":"levelo://app?vid=e97d0a7c-09a0-4de9-8b12-4f01b9fc223b"},"vehicle_type_id":"4","last_reported":1769562058,"current_range_meters":8000,"station_id":"","pricing_plan_id":"cebpf4jnsgd1na2vs0mg"},{"bike_id":"48ac7849-98f4-4e69-b9f0-0586eb7d8ef9","system_id":"levelo_inurba_marseille","lat":43.29811,"lon":5.44067,"is_reserved":false,"is_disabled":false,"rental_uris":{"android":"levelo://app?vid=48ac7849-98f4-4e69-b9f0-0586eb7d8ef9","ios":"levelo://app?vid=48ac7849-98f4-4e69-b9f0-0586eb7d8ef9"},"vehicle_type_id":"4","last_reported":1769562058,"current_range_meters":8000,"station_id":"st_d3jp68qikq2c7381ktn0","pricing_plan_id":"cebpf4jnsgd1na2vs0mg"},{"bike_id":"48f2548f-38ea-4648-81ab-19c12b52d664","system_id":"levelo_inurba_marseille","lat":43.240818,"lon":5.377585,"is_reserved":false,"is_disabled":false,"rental_uris":{"android":"levelo://app?vid=48f2548f-38ea-4648-81ab-19c12b52d664","ios":"levelo://app?vid=48f2548f-38ea-4648-81ab-19c12b52d664"},"vehicle_type_id":"4","last_reported":1769562058,"current_range_meters":8000,"station_id":"ce4bhnp2rcd13ifvqgvg","pricing_plan_id":"cebpf4jnsgd1na2vs0mg"},{"bike_id":"f6e405d3-8a9d-4261-8d95-49e5d5fcb5c0","system_id":"levelo_inurba_marseille","lat":43.32486,"lon":5.36559,"is_reserved":false,"is_disabled":false,"rental_uris":{"android":"levelo://app?vid=f6e405d3-8a9d-4261-8d95-49e5d5fcb5c0","ios":"levelo://app?vid=f6e405d3-8a9d-4261-8d95-49e5d5fcb5c0"},"vehicle_type_id":"4","last_reported":1769562058,"current_range_meters":8000,"station_id":"ce4bhs12rcd13ifvqhvg","pricing_plan_id":"cebpf4jnsgd1na2vs0mg"},{"bike_id":"f829841e-8c84-4b79-b50e-a86188feb2b5","system_id":"levelo_inurba_marseille","lat":43.31527,"lon":5.38062,"is_reserved":false,"is_disabled":false,"rental_uris":{"android":"levelo://app?vid=f829841e-8c84-4b79-b50e-a86188feb2b5","ios":"levelo://app?vid=f829841e-8c84-4b79-b50e-a86188feb2b5"},"vehicle_type_id":"4","last_reported":1769562058,"current_range_meters":8000,"station_id":"ce4bhsp2rcd13ifvqi50","pricing_plan_id":"cebpf4jnsgd1na2vs0mg"},{"bike_id":"3a3f580b-c7a7-49c4-966b-8c2f5e987e43","system_id":"levelo_inurba_marseille","lat":43.28108,"lon":5.37851,"is_reserved":false,"is_disabled":false,"rental_uris":{"android":"levelo://app?vid=3a3f580b-c7a7-49c4-966b-8c2f5e987e43","ios":"levelo://app?vid=3a3f580b-c7a7-49c4-966b-8c2f5e987e43"},"vehicle_type_id":"4","last_reported":1769562058,"current_range_meters":8000,"station_id":"ce4bha12rcd13ifvqee0","pricing_plan_id":"cebpf4jnsgd1na2vs0mg"},{"bike_id":"273d40a6-2ab9-4759-8d6f-85cf4efa9282","system_id":"levelo_inurba_marseille","lat":43.26951,"lon":5.40273,"is_reserved":false,"is_disabled":false,"rental_uris":{"android":"levelo://app?vid=273d40a6-2ab9-4759-8d6f-85cf4efa9282","ios":"levelo://app?vid=273d40a6-2ab9-4759-8d6f-85cf4efa9282"},"vehicle_type_id":"4","last_reported":1769562058,"current_range_meters":8000,"station_id":"cjm6bp8fraef2m0cb0m0","pricing_plan_id":"cebpf4jnsgd1na2vs0mg"},{"bike_id":"bd6ac193-2cd0-45a9-9b54-fbb52ad3b5af","system_id":"levelo_inurba_marseille","lat":43.286142,"lon":5.398809,"is_reserved":false,"is_disabled":true,"rental_uris":{"android":"levelo://app?vid=bd6ac193-2cd0-45a9-9b54-fbb52ad3b5af","ios":"levelo://app?vid=bd6ac193-2cd0-45a9-9b54-fbb52ad3b5af"},"vehicle_type_id":"4","last_reported":1769562058,"current_range_meters":8000,"station_id":"st_d4a7ka997mjs738ck50g","pricing_plan_id":"cebpf4jnsgd1na2vs0mg"},{"bike_id":"48fc7424-9f8b-452e-b985-2922c5d3a016","system_id":"levelo_inurba_marseille","lat":43.23146,"lon":5.437282,"is_reserved":false,"is_disabled":false,"rental_uris":{"android":"levelo://app?vid=48fc7424-9f8b-452e-b985-2922c5d3a016","ios":"levelo://app?vid=48fc7424-9f8b-452e-b985-2922c5d3a016"},"vehicle_type_id":"4","last_reported":1769562058,"current_range_meters":8000,"station_id":"ce4bhmp2rcd13ifvqgog","pricing_plan_id":"cebpf4jnsgd1na2vs0mg"},{"bike_id":"cb8cde94-651e-4099-b2de-f4490841b080","system_id":"levelo_inurba_marseille","lat":43.2417,"lon":5.36387,"is_reserved":false,"is_disabled":false,"rental_uris":{"android":"levelo://app?vid=cb8cde94-651e-4099-b2de-f4490841b080","ios":"levelo://app?vid=cb8cde94-651e-4099-b2de-f4490841b080"},"vehicle_type_id":"4","last_reported":1769562058,"current_range_meters":8000,"station_id":"cpo36qri1sfpv3e86is0","pricing_plan_id":"cebpf4jnsgd1na2vs0mg"},{"bike_id":"8f80517a-73c8-49a4-adb5-99a0c9b94fcb","system_id":"levelo_inurba_marseille","lat":43.25564,"lon":5.38238,"is_reserved":false,"is_disabled":false,"rental_uris":{"android":"levelo://app?vid=8f80517a-73c8-49a4-adb5-99a0c9b94fcb","ios":"levelo://app?vid=8f80517a-73c8-49a4-adb5-99a0c9b94fcb"},"vehicle_type_id":"4","last_reported":1769562058,"current_range_meters":8000,"station_id":"ce4bhih2rcd13ifvqfs0","pricing_plan_id":"cebpf4jnsgd1na2vs0mg"},{"bike_id":"21a45043-871c-46ae-87ef-b2b78283045a","system_id":"levelo_inurba_marseille","lat":43.27994,"lon":5.41663,"is_reserved":false,"is_disabled":false,"rental_uris":{"android":"levelo://app?vid=21a45043-871c-46ae-87ef-b2b78283045a","ios":"levelo://app?vid=21a45043-871c-46ae-87ef-b2b78283045a"},"vehicle_type_id":"4","last_reported":1769562058,"current_range_meters":8000,"station_id":"ce4bho12rcd13ifvqh1g","pricing_plan_id":"cebpf4jnsgd1na2vs0mg"},{"bike_id":"e93193ad-4e10-4fde-b0f5-3507ab09bfe1","system_id":"levelo_inurba_marseille","lat":43.33158,"lon":5.37682,"is_reserved":false,"is_disabled":false,"rental_uris":{"android":"levelo://app?vid=e93193ad-4e10-4fde-b0f5-3507ab09bfe1","ios":"levelo://app?vid=e93193ad-4e10-4fde-b0f5-3507ab09bfe1"},"vehicle_type_id":"4","last_reported":1769562058,"current_range_meters":8000,"station_id":"st_d46cu089ee8s73dldbu0","pricing_plan_id":"cebpf4jnsgd1na2vs0mg"},{"bike_id":"d77cb211-9c8d-4f08-962c-633cacaa4f89","system_id":"levelo_inurba_marseille","lat":43.306483,"lon":5.400727,"is_reserved":false,"is_disabled":false,"rental_uris":{"android":"levelo://app?vid=d77cb211-9c8d-4f08-962c-633cacaa4f89","ios":"levelo://app?vid=d77cb211-9c8d-4f08-962c-633cacaa4f89"},"vehicle_type_id":"4","last_reported":1769562058,"current_range_meters":8000,"station_id":"ce4bh112rcd13ifvqda0","pricing_plan_id":"cebpf4jnsgd1na2vs0mg"},{"bike_id":"251c6636-c3b2-4340-96b5-5a9ec4418378","system_id":"levelo_inurba_marseille","lat":43.23159,"lon":5.43722,"is_reserved":false,"is_disabled":false,"rental_uris":{"android":"levelo://app?vid=251c6636-c3b2-4340-96b5-5a9ec4418378","ios":"levelo://app?vid=251c6636-c3b2-4340-96b5-5a9ec4418378"},"vehicle_type_id":"4","last_reported":1769562058,"current_range_meters":8000,"station_id":"ce4bhmp2rcd13ifvqgog","pricing_plan_id":"cebpf4jnsgd1na2vs0mg"},{"bike_id":"b7ba63ef-8d28-4c2f-985f-557a01349fd8","system_id":"levelo_inurba_marseille","lat":43.27175,"lon":5.40989,"is_reserved":false,"is_disabled":false,"rental_uris":{"android":"levelo://app?vid=b7ba63ef-8d28-4c2f-985f-557a01349fd8","ios":"levelo://app?vid=b7ba63ef-8d28-4c2f-985f-557a01349fd8"},"vehicle_type_id":"4","last_reported":1769562058,"current_range_meters":8000,"station_id":"ce4bhl12rcd13ifvqgf0","pricing_plan_id":"cebpf4jnsgd1na2vs0mg"},{"bike_id":"9a8ad0af-897e-45a4-9788-4bc766c7219b","system_id":"levelo_inurba_marseille","lat":43.27598,"lon":5.3611,"is_reserved":false,"is_disabled":false,"rental_uris":{"android":"levelo://app?vid=9a8ad0af-897e-45a4-9788-4bc766c7219b","ios":"levelo://app?vid=9a8ad0af-897e-45a4-9788-4bc766c7219b"},"vehicle_type_id":"4","last_reported":1769562058,"current_range_meters":8400,"station_id":"ce4bgj92rcd13ifvqbe0","pricing_plan_id":"cebpf4jnsgd1na2vs0mg"},{"bike_id":"09129dd2-2612-420f-b68f-00707b63a8e2","system_id":"levelo_inurba_marseille","lat":43.28347,"lon":5.38111,"is_reserved":false,"is_disabled":false,"rental_uris":{"android":"levelo://app?vid=09129dd2-2612-420f-b68f-00707b63a8e2","ios":"levelo://app?vid=09129dd2-2612-420f-b68f-00707b63a8e2"},"vehicle_type_id":"4","last_reported":1769562058,"current_range_meters":8400,"station_id":"ce4bh412rcd13ifvqdr0","pricing_plan_id":"cebpf4jnsgd1na2vs0mg"},{"bike_id":"bc6c800a-6928-4bf7-8745-f31ca6747acf","system_id":"levelo_inurba_marseille","lat":43.32344,"lon":5.36721,"is_reserved":false,"is_disabled":false,"rental_uris":{"android":"levelo://app?vid=bc6c800a-6928-4bf7-8745-f31ca6747acf","ios":"levelo://app?vid=bc6c800a-6928-4bf7-8745-f31ca6747acf"},"vehicle_type_id":"4","last_reported":1769562058,"current_range_meters":8400,"station_id":"ce4bhsh2rcd13ifvqi2g","pricing_plan_id":"cebpf4jnsgd1na2vs0mg"},{"bike_id":"d68d3a47-3dd3-413e-831e-45376bb38a95","system_id":"levelo_inurba_marseille","lat":43.29,"lon":5.35616,"is_reserved":false,"is_disabled":false,"rental_uris":{"android":"levelo://app?vid=d68d3a47-3dd3-413e-831e-45376bb38a95","ios":"levelo://app?vid=d68d3a47-3dd3-413e-831e-45376bb38a95"},"vehicle_type_id":"4","last_reported":1769562058,"current_range_meters":8400,"station_id":"ce4bhb92rcd13ifvqen0","pricing_plan_id":"cebpf4jnsgd1na2vs0mg"},{"bike_id":"a6ed8749-4e69-4a48-9719-260b8bf97001","system_id":"levelo_inurba_marseille","lat":43.29557,"lon":5.3997,"is_reserved":false,"is_disabled":false,"rental_uris":{"android":"levelo://app?vid=a6ed8749-4e69-4a48-9719-260b8bf97001","ios":"levelo://app?vid=a6ed8749-4e69-4a48-9719-260b8bf97001"},"vehicle_type_id":"4","last_reported":1769562058,"current_range_meters":8400,"station_id":"ce4bh312rcd13ifvqdj0","pricing_plan_id":"cebpf4jnsgd1na2vs0mg"},{"bike_id":"4c3ee580-76cd-41db-ab53-f7d8d1ee494a","system_id":"levelo_inurba_marseille","lat":43.30121,"lon":5.431,"is_reserved":false,"is_disabled":false,"rental_uris":{"android":"levelo://app?vid=4c3ee580-76cd-41db-ab53-f7d8d1ee494a","ios":"levelo://app?vid=4c3ee580-76cd-41db-ab53-f7d8d1ee494a"},"vehicle_type_id":"4","last_reported":1769562058,"current_range_meters":8400,"station_id":"st_d3js3co5814s73ftftug","pricing_plan_id":"cebpf4jnsgd1na2vs0mg"},{"bike_id":"f401d2b0-dab9-491f-a072-c16620d50f40","system_id":"levelo_inurba_marseille","lat":43.255778,"lon":5.38242,"is_reserved":false,"is_disabled":false,"rental_uris":{"android":"levelo://app?vid=f401d2b0-dab9-491f-a072-c16620d50f40","ios":"levelo://app?vid=f401d2b0-dab9-491f-a072-c16620d50f40"},"vehicle_type_id":"4","last_reported":1769562058,"current_range_meters":8400,"station_id":"ce4bhih2rcd13ifvqfs0","pricing_plan_id":"cebpf4jnsgd1na2vs0mg"},{"bike_id":"74c28a43-d7ab-4581-a3ab-07d6c3ed4f0c","system_id":"levelo_inurba_marseille","lat":43.265895,"lon":5.375055,"is_reserved":false,"is_disabled":false,"rental_uris":{"android":"levelo://app?vid=74c28a43-d7ab-4581-a3ab-07d6c3ed4f0c","ios":"levelo://app?vid=74c28a43-d7ab-4581-a3ab-07d6c3ed4f0c"},"vehicle_type_id":"4","last_reported":1769562058,"current_range_meters":8400,"station_id":"","pricing_plan_id":"cebpf4jnsgd1na2vs0mg"},{"bike_id":"8adf422e-1d31-4a04-96dd-dc48c4174bee","system_id":"levelo_inurba_marseille","lat":43.25527,"lon":5.37648,"is_reserved":false,"is_disabled":false,"rental_uris":{"android":"levelo://app?vid=8adf422e-1d31-4a04-96dd-dc48c4174bee","ios":"levelo://app?vid=8adf422e-1d31-4a04-96dd-dc48c4174bee"},"vehicle_type_id":"4","last_reported":1769562058,"current_range_meters":8400,"station_id":"ce4bhh12rcd13ifvqff0","pricing_plan_id":"cebpf4jnsgd1na2vs0mg"},{"bike_id":"8095c660-c743-4e3e-8e7e-ac595ed8e144","system_id":"levelo_inurba_marseille","lat":43.29712,"lon":5.37689,"is_reserved":false,"is_disabled":false,"rental_uris":{"android":"levelo://app?vid=8095c660-c743-4e3e-8e7e-ac595ed8e144","ios":"levelo://app?vid=8095c660-c743-4e3e-8e7e-ac595ed8e144"},"vehicle_type_id":"4","last_reported":1769562058,"current_range_meters":8400,"station_id":"ce4bgkh2rcd13ifvqbl0","pricing_plan_id":"cebpf4jnsgd1na2vs0mg"},{"bike_id":"799847f3-00d6-4dac-8773-c8f7acf031bb","system_id":"levelo_inurba_marseille","lat":43.31484,"lon":5.37183,"is_reserved":false,"is_disabled":false,"rental_uris":{"android":"levelo://app?vid=799847f3-00d6-4dac-8773-c8f7acf031bb","ios":"levelo://app?vid=799847f3-00d6-4dac-8773-c8f7acf031bb"},"vehicle_type_id":"4","last_reported":1769562058,"current_range_meters":8400,"station_id":"","pricing_plan_id":"cebpf4jnsgd1na2vs0mg"},{"bike_id":"d46471ec-377c-410e-b3fb-8093e216c936","system_id":"levelo_inurba_marseille","lat":43.33158,"lon":5.37681,"is_reserved":false,"is_disabled":false,"rental_uris":{"android":"levelo://app?vid=d46471ec-377c-410e-b3fb-8093e216c936","ios":"levelo://app?vid=d46471ec-377c-410e-b3fb-8093e216c936"},"vehicle_type_id":"4","last_reported":1769562058,"current_range_meters":8400,"station_id":"st_d46cu089ee8s73dldbu0","pricing_plan_id":"cebpf4jnsgd1na2vs0mg"},{"bike_id":"b4192ae0-1ad4-4adb-84b8-4b0cf4d3f307","system_id":"levelo_inurba_marseille","lat":43.28883,"lon":5.42525,"is_reserved":false,"is_disabled":false,"rental_uris":{"android":"levelo://app?vid=b4192ae0-1ad4-4adb-84b8-4b0cf4d3f307","ios":"levelo://app?vid=b4192ae0-1ad4-4adb-84b8-4b0cf4d3f307"},"vehicle_type_id":"4","last_reported":1769562058,"current_range_meters":8400,"station_id":"st_d3b462108ojc7389ooeg","pricing_plan_id":"cebpf4jnsgd1na2vs0mg"},{"bike_id":"9fd72da4-67fe-4f28-a93f-5818f963e85b","system_id":"levelo_inurba_marseille","lat":43.25081,"lon":5.39513,"is_reserved":false,"is_disabled":false,"rental_uris":{"android":"levelo://app?vid=9fd72da4-67fe-4f28-a93f-5818f963e85b","ios":"levelo://app?vid=9fd72da4-67fe-4f28-a93f-5818f963e85b"},"vehicle_type_id":"4","last_reported":1769562058,"current_range_meters":8800,"station_id":"ce4bhm12rcd13ifvqgkg","pricing_plan_id":"cebpf4jnsgd1na2vs0mg"},{"bike_id":"1b163ae6-5762-4e84-84ab-2a675ff1e959","system_id":"levelo_inurba_marseille","lat":43.31479,"lon":5.37304,"is_reserved":false,"is_disabled":false,"rental_uris":{"android":"levelo://app?vid=1b163ae6-5762-4e84-84ab-2a675ff1e959","ios":"levelo://app?vid=1b163ae6-5762-4e84-84ab-2a675ff1e959"},"vehicle_type_id":"4","last_reported":1769562058,"current_range_meters":8800,"station_id":"ce4bgt12rcd13ifvqcd0","pricing_plan_id":"cebpf4jnsgd1na2vs0mg"},{"bike_id":"0db07c39-2b1e-4996-880c-f2284f53d2a9","system_id":"levelo_inurba_marseille","lat":43.297385,"lon":5.376607,"is_reserved":false,"is_disabled":true,"rental_uris":{"android":"levelo://app?vid=0db07c39-2b1e-4996-880c-f2284f53d2a9","ios":"levelo://app?vid=0db07c39-2b1e-4996-880c-f2284f53d2a9"},"vehicle_type_id":"4","last_reported":1769562058,"current_range_meters":8800,"station_id":"ce4bgkh2rcd13ifvqbl0","pricing_plan_id":"cebpf4jnsgd1na2vs0mg"},{"bike_id":"093c02d3-ac86-44c3-92ca-1078c45c09d4","system_id":"levelo_inurba_marseille","lat":43.27807,"lon":5.40713,"is_reserved":false,"is_disabled":false,"rental_uris":{"android":"levelo://app?vid=093c02d3-ac86-44c3-92ca-1078c45c09d4","ios":"levelo://app?vid=093c02d3-ac86-44c3-92ca-1078c45c09d4"},"vehicle_type_id":"4","last_reported":1769562058,"current_range_meters":8800,"station_id":"ce4bhnh2rcd13ifvqgtg","pricing_plan_id":"cebpf4jnsgd1na2vs0mg"},{"bike_id":"64041536-b016-4080-ba5c-af15e6b6442e","system_id":"levelo_inurba_marseille","lat":43.25321,"lon":5.42169,"is_reserved":false,"is_disabled":false,"rental_uris":{"android":"levelo://app?vid=64041536-b016-4080-ba5c-af15e6b6442e","ios":"levelo://app?vid=64041536-b016-4080-ba5c-af15e6b6442e"},"vehicle_type_id":"4","last_reported":1769562058,"current_range_meters":8800,"station_id":"st_d2m65c5bi1j21697t3ng","pricing_plan_id":"cebpf4jnsgd1na2vs0mg"},{"bike_id":"9a9d6dd8-33fe-4922-8e3a-a809d2e9dce9","system_id":"levelo_inurba_marseille","lat":43.30864,"lon":5.39629,"is_reserved":false,"is_disabled":false,"rental_uris":{"android":"levelo://app?vid=9a9d6dd8-33fe-4922-8e3a-a809d2e9dce9","ios":"levelo://app?vid=9a9d6dd8-33fe-4922-8e3a-a809d2e9dce9"},"vehicle_type_id":"4","last_reported":1769562058,"current_range_meters":8800,"station_id":"ce4bh012rcd13ifvqcv0","pricing_plan_id":"cebpf4jnsgd1na2vs0mg"},{"bike_id":"cad49416-24fb-43c4-8ded-455a825083ac","system_id":"levelo_inurba_marseille","lat":43.270633,"lon":5.383143,"is_reserved":false,"is_disabled":false,"rental_uris":{"android":"levelo://app?vid=cad49416-24fb-43c4-8ded-455a825083ac","ios":"levelo://app?vid=cad49416-24fb-43c4-8ded-455a825083ac"},"vehicle_type_id":"4","last_reported":1769562058,"current_range_meters":8800,"station_id":"st_d3n2fo6cfp8s73cte1j0","pricing_plan_id":"cebpf4jnsgd1na2vs0mg"},{"bike_id":"e6a5661d-144e-4a59-aee1-bebd9c95c655","system_id":"levelo_inurba_marseille","lat":43.25023,"lon":5.38899,"is_reserved":false,"is_disabled":false,"rental_uris":{"android":"levelo://app?vid=e6a5661d-144e-4a59-aee1-bebd9c95c655","ios":"levelo://app?vid=e6a5661d-144e-4a59-aee1-bebd9c95c655"},"vehicle_type_id":"4","last_reported":1769562058,"current_range_meters":8800,"station_id":"ce4bhgp2rcd13ifvqfd0","pricing_plan_id":"cebpf4jnsgd1na2vs0mg"},{"bike_id":"d77d9fb3-170d-4b3c-a5e1-953c07884b1f","system_id":"levelo_inurba_marseille","lat":43.27912,"lon":5.39584,"is_reserved":false,"is_disabled":false,"rental_uris":{"android":"levelo://app?vid=d77d9fb3-170d-4b3c-a5e1-953c07884b1f","ios":"levelo://app?vid=d77d9fb3-170d-4b3c-a5e1-953c07884b1f"},"vehicle_type_id":"4","last_reported":1769562058,"current_range_meters":8800,"station_id":"ce4bhf92rcd13ifvqf40","pricing_plan_id":"cebpf4jnsgd1na2vs0mg"},{"bike_id":"762080ff-9460-4403-b5cb-9005c9f445ba","system_id":"levelo_inurba_marseille","lat":43.248144,"lon":5.374524,"is_reserved":false,"is_disabled":false,"rental_uris":{"android":"levelo://app?vid=762080ff-9460-4403-b5cb-9005c9f445ba","ios":"levelo://app?vid=762080ff-9460-4403-b5cb-9005c9f445ba"},"vehicle_type_id":"4","last_reported":1769562058,"current_range_meters":8800,"station_id":"ce4bhgh2rcd13ifvqfb0","pricing_plan_id":"cebpf4jnsgd1na2vs0mg"},{"bike_id":"61aa552d-3cbe-40f0-be7a-149354466a30","system_id":"levelo_inurba_marseille","lat":43.33536,"lon":5.37464,"is_reserved":false,"is_disabled":false,"rental_uris":{"android":"levelo://app?vid=61aa552d-3cbe-40f0-be7a-149354466a30","ios":"levelo://app?vid=61aa552d-3cbe-40f0-be7a-149354466a30"},"vehicle_type_id":"4","last_reported":1769562058,"current_range_meters":8800,"station_id":"","pricing_plan_id":"cebpf4jnsgd1na2vs0mg"},{"bike_id":"e797e4a4-dfef-4c46-bca3-52babfee6cda","system_id":"levelo_inurba_marseille","lat":43.24493,"lon":5.42551,"is_reserved":false,"is_disabled":false,"rental_uris":{"android":"levelo://app?vid=e797e4a4-dfef-4c46-bca3-52babfee6cda","ios":"levelo://app?vid=e797e4a4-dfef-4c46-bca3-52babfee6cda"},"vehicle_type_id":"4","last_reported":1769562058,"current_range_meters":8800,"station_id":"st_d4a3vfp97mjs738cd8kg","pricing_plan_id":"cebpf4jnsgd1na2vs0mg"},{"bike_id":"fe18431d-53df-4614-883d-fffa52f224b1","system_id":"levelo_inurba_marseille","lat":43.33195,"lon":5.40226,"is_reserved":false,"is_disabled":false,"rental_uris":{"android":"levelo://app?vid=fe18431d-53df-4614-883d-fffa52f224b1","ios":"levelo://app?vid=fe18431d-53df-4614-883d-fffa52f224b1"},"vehicle_type_id":"4","last_reported":1769562058,"current_range_meters":9200,"station_id":"","pricing_plan_id":"cebpf4jnsgd1na2vs0mg"},{"bike_id":"c83397dc-af34-4aa3-b04b-bfdefb9be244","system_id":"levelo_inurba_marseille","lat":43.30125,"lon":5.43122,"is_reserved":false,"is_disabled":false,"rental_uris":{"android":"levelo://app?vid=c83397dc-af34-4aa3-b04b-bfdefb9be244","ios":"levelo://app?vid=c83397dc-af34-4aa3-b04b-bfdefb9be244"},"vehicle_type_id":"4","last_reported":1769562058,"current_range_meters":9200,"station_id":"st_d3js3co5814s73ftftug","pricing_plan_id":"cebpf4jnsgd1na2vs0mg"},{"bike_id":"bb41f49a-66dc-429a-8df9-1daba190f036","system_id":"levelo_inurba_marseille","lat":43.284353,"lon":5.349827,"is_reserved":false,"is_disabled":false,"rental_uris":{"android":"levelo://app?vid=bb41f49a-66dc-429a-8df9-1daba190f036","ios":"levelo://app?vid=bb41f49a-66dc-429a-8df9-1daba190f036"},"vehicle_type_id":"4","last_reported":1769562058,"current_range_meters":9200,"station_id":"ce4bhbh2rcd13ifvqepg","pricing_plan_id":"cebpf4jnsgd1na2vs0mg"},{"bike_id":"6e8ca7e0-b9d2-4dd8-a49c-594aebdeffb7","system_id":"levelo_inurba_marseille","lat":43.24667,"lon":5.38159,"is_reserved":false,"is_disabled":false,"rental_uris":{"android":"levelo://app?vid=6e8ca7e0-b9d2-4dd8-a49c-594aebdeffb7","ios":"levelo://app?vid=6e8ca7e0-b9d2-4dd8-a49c-594aebdeffb7"},"vehicle_type_id":"4","last_reported":1769562058,"current_range_meters":9200,"station_id":"ce4bhih2rcd13ifvqfr0","pricing_plan_id":"cebpf4jnsgd1na2vs0mg"},{"bike_id":"690311ac-da8d-43f3-b9e5-4e7d467ee486","system_id":"levelo_inurba_marseille","lat":43.32311,"lon":5.36735,"is_reserved":false,"is_disabled":false,"rental_uris":{"android":"levelo://app?vid=690311ac-da8d-43f3-b9e5-4e7d467ee486","ios":"levelo://app?vid=690311ac-da8d-43f3-b9e5-4e7d467ee486"},"vehicle_type_id":"4","last_reported":1769562058,"current_range_meters":9200,"station_id":"ce4bhsh2rcd13ifvqi2g","pricing_plan_id":"cebpf4jnsgd1na2vs0mg"},{"bike_id":"30150b76-2488-4c97-a970-b59ef2ae12b9","system_id":"levelo_inurba_marseille","lat":43.28732,"lon":5.36087,"is_reserved":false,"is_disabled":false,"rental_uris":{"android":"levelo://app?vid=30150b76-2488-4c97-a970-b59ef2ae12b9","ios":"levelo://app?vid=30150b76-2488-4c97-a970-b59ef2ae12b9"},"vehicle_type_id":"4","last_reported":1769562058,"current_range_meters":9200,"station_id":"cki0cbj6b192h4jlfktg","pricing_plan_id":"cebpf4jnsgd1na2vs0mg"},{"bike_id":"02036545-e9e0-4ebe-9553-6ea94a3cac62","system_id":"levelo_inurba_marseille","lat":43.23239,"lon":5.3548,"is_reserved":false,"is_disabled":false,"rental_uris":{"android":"levelo://app?vid=02036545-e9e0-4ebe-9553-6ea94a3cac62","ios":"levelo://app?vid=02036545-e9e0-4ebe-9553-6ea94a3cac62"},"vehicle_type_id":"4","last_reported":1769562058,"current_range_meters":9200,"station_id":"","pricing_plan_id":"cebpf4jnsgd1na2vs0mg"},{"bike_id":"8e883c12-270c-4c5a-a721-036a9806a728","system_id":"levelo_inurba_marseille","lat":43.29551,"lon":5.3752,"is_reserved":false,"is_disabled":false,"rental_uris":{"android":"levelo://app?vid=8e883c12-270c-4c5a-a721-036a9806a728","ios":"levelo://app?vid=8e883c12-270c-4c5a-a721-036a9806a728"},"vehicle_type_id":"4","last_reported":1769562058,"current_range_meters":9200,"station_id":"ce4bgh92rcd13ifvqb50","pricing_plan_id":"cebpf4jnsgd1na2vs0mg"},{"bike_id":"c4022380-aeb3-4eb7-aebb-d6d5d62ffff3","system_id":"levelo_inurba_marseille","lat":43.24624,"lon":5.43158,"is_reserved":false,"is_disabled":false,"rental_uris":{"android":"levelo://app?vid=c4022380-aeb3-4eb7-aebb-d6d5d62ffff3","ios":"levelo://app?vid=c4022380-aeb3-4eb7-aebb-d6d5d62ffff3"},"vehicle_type_id":"4","last_reported":1769562058,"current_range_meters":9200,"station_id":"st_d2m6c4gdas8pm72e190g","pricing_plan_id":"cebpf4jnsgd1na2vs0mg"},{"bike_id":"35df44bc-9fa4-4e5b-b183-060ff9e5f984","system_id":"levelo_inurba_marseille","lat":43.337682,"lon":5.374371,"is_reserved":false,"is_disabled":false,"rental_uris":{"android":"levelo://app?vid=35df44bc-9fa4-4e5b-b183-060ff9e5f984","ios":"levelo://app?vid=35df44bc-9fa4-4e5b-b183-060ff9e5f984"},"vehicle_type_id":"4","last_reported":1769562058,"current_range_meters":9200,"station_id":"","pricing_plan_id":"cebpf4jnsgd1na2vs0mg"},{"bike_id":"1ceb9424-08d1-40dc-9c51-717648313c60","system_id":"levelo_inurba_marseille","lat":43.28418,"lon":5.37527,"is_reserved":false,"is_disabled":false,"rental_uris":{"android":"levelo://app?vid=1ceb9424-08d1-40dc-9c51-717648313c60","ios":"levelo://app?vid=1ceb9424-08d1-40dc-9c51-717648313c60"},"vehicle_type_id":"4","last_reported":1769562058,"current_range_meters":9200,"station_id":"ce4bh412rcd13ifvqds0","pricing_plan_id":"cebpf4jnsgd1na2vs0mg"},{"bike_id":"2f009252-5cac-49b2-9dc5-1adbfea4044c","system_id":"levelo_inurba_marseille","lat":43.2619,"lon":5.37445,"is_reserved":false,"is_disabled":false,"rental_uris":{"android":"levelo://app?vid=2f009252-5cac-49b2-9dc5-1adbfea4044c","ios":"levelo://app?vid=2f009252-5cac-49b2-9dc5-1adbfea4044c"},"vehicle_type_id":"4","last_reported":1769562058,"current_range_meters":9200,"station_id":"ce4bhgp2rcd13ifvqfc0","pricing_plan_id":"cebpf4jnsgd1na2vs0mg"},{"bike_id":"7c66275e-093d-4836-ad33-ee219cef4661","system_id":"levelo_inurba_marseille","lat":43.2973,"lon":5.3772,"is_reserved":false,"is_disabled":false,"rental_uris":{"android":"levelo://app?vid=7c66275e-093d-4836-ad33-ee219cef4661","ios":"levelo://app?vid=7c66275e-093d-4836-ad33-ee219cef4661"},"vehicle_type_id":"4","last_reported":1769562058,"current_range_meters":9600,"station_id":"ce4bgkh2rcd13ifvqbl0","pricing_plan_id":"cebpf4jnsgd1na2vs0mg"},{"bike_id":"f50bea40-ed6e-4092-a267-15c6a4bc8998","system_id":"levelo_inurba_marseille","lat":43.33546,"lon":5.37471,"is_reserved":false,"is_disabled":false,"rental_uris":{"android":"levelo://app?vid=f50bea40-ed6e-4092-a267-15c6a4bc8998","ios":"levelo://app?vid=f50bea40-ed6e-4092-a267-15c6a4bc8998"},"vehicle_type_id":"4","last_reported":1769562058,"current_range_meters":9600,"station_id":"st_d46tts09ee8s73dlu43g","pricing_plan_id":"cebpf4jnsgd1na2vs0mg"},{"bike_id":"29e160fb-6bbc-4e26-a048-54523ab80f88","system_id":"levelo_inurba_marseille","lat":43.28634,"lon":5.35099,"is_reserved":false,"is_disabled":false,"rental_uris":{"android":"levelo://app?vid=29e160fb-6bbc-4e26-a048-54523ab80f88","ios":"levelo://app?vid=29e160fb-6bbc-4e26-a048-54523ab80f88"},"vehicle_type_id":"4","last_reported":1769562058,"current_range_meters":9600,"station_id":"ce4bhch2rcd13ifvqeug","pricing_plan_id":"cebpf4jnsgd1na2vs0mg"},{"bike_id":"3255c3b2-2452-488a-8e43-3a5076fdc8d6","system_id":"levelo_inurba_marseille","lat":43.30327,"lon":5.36911,"is_reserved":false,"is_disabled":false,"rental_uris":{"android":"levelo://app?vid=3255c3b2-2452-488a-8e43-3a5076fdc8d6","ios":"levelo://app?vid=3255c3b2-2452-488a-8e43-3a5076fdc8d6"},"vehicle_type_id":"4","last_reported":1769562058,"current_range_meters":9600,"station_id":"ce4bgqh2rcd13ifvqc5g","pricing_plan_id":"cebpf4jnsgd1na2vs0mg"},{"bike_id":"d9f56a61-1a13-4a92-b34c-7b199d4cd125","system_id":"levelo_inurba_marseille","lat":43.27965,"lon":5.41044,"is_reserved":false,"is_disabled":true,"rental_uris":{"android":"levelo://app?vid=d9f56a61-1a13-4a92-b34c-7b199d4cd125","ios":"levelo://app?vid=d9f56a61-1a13-4a92-b34c-7b199d4cd125"},"vehicle_type_id":"4","last_reported":1769562058,"current_range_meters":9600,"station_id":"ce4bhnp2rcd13ifvqh0g","pricing_plan_id":"cebpf4jnsgd1na2vs0mg"},{"bike_id":"702a6134-87bc-43b2-8973-19abf8e2773d","system_id":"levelo_inurba_marseille","lat":43.30602,"lon":5.37238,"is_reserved":false,"is_disabled":false,"rental_uris":{"android":"levelo://app?vid=702a6134-87bc-43b2-8973-19abf8e2773d","ios":"levelo://app?vid=702a6134-87bc-43b2-8973-19abf8e2773d"},"vehicle_type_id":"4","last_reported":1769562058,"current_range_meters":9600,"station_id":"ce4bgqh2rcd13ifvqc4g","pricing_plan_id":"cebpf4jnsgd1na2vs0mg"},{"bike_id":"9bab199a-73b8-4034-a092-23e2918cf8c3","system_id":"levelo_inurba_marseille","lat":43.23055,"lon":5.35501,"is_reserved":false,"is_disabled":false,"rental_uris":{"android":"levelo://app?vid=9bab199a-73b8-4034-a092-23e2918cf8c3","ios":"levelo://app?vid=9bab199a-73b8-4034-a092-23e2918cf8c3"},"vehicle_type_id":"4","last_reported":1769562058,"current_range_meters":9600,"station_id":"cpo3342slgdg3j2ifvpg","pricing_plan_id":"cebpf4jnsgd1na2vs0mg"},{"bike_id":"49eecfcc-88fe-49c9-b7fd-d5db37cde1c9","system_id":"levelo_inurba_marseille","lat":43.279935,"lon":5.400292,"is_reserved":false,"is_disabled":false,"rental_uris":{"android":"levelo://app?vid=49eecfcc-88fe-49c9-b7fd-d5db37cde1c9","ios":"levelo://app?vid=49eecfcc-88fe-49c9-b7fd-d5db37cde1c9"},"vehicle_type_id":"4","last_reported":1769562058,"current_range_meters":9600,"station_id":"ce4bho92rcd13ifvqh4g","pricing_plan_id":"cebpf4jnsgd1na2vs0mg"},{"bike_id":"fdf0e3cb-451a-4607-9da8-67997357bed1","system_id":"levelo_inurba_marseille","lat":43.307362,"lon":5.424284,"is_reserved":false,"is_disabled":false,"rental_uris":{"android":"levelo://app?vid=fdf0e3cb-451a-4607-9da8-67997357bed1","ios":"levelo://app?vid=fdf0e3cb-451a-4607-9da8-67997357bed1"},"vehicle_type_id":"4","last_reported":1769562058,"current_range_meters":9600,"station_id":"st_cvj6ca6bvosntc0bfgr0","pricing_plan_id":"cebpf4jnsgd1na2vs0mg"},{"bike_id":"8744d504-45b5-48cc-8c64-2c430697ff4a","system_id":"levelo_inurba_marseille","lat":43.32998,"lon":5.37702,"is_reserved":false,"is_disabled":false,"rental_uris":{"android":"levelo://app?vid=8744d504-45b5-48cc-8c64-2c430697ff4a","ios":"levelo://app?vid=8744d504-45b5-48cc-8c64-2c430697ff4a"},"vehicle_type_id":"4","last_reported":1769562058,"current_range_meters":9600,"station_id":"st_d46cu089ee8s73dldbu0","pricing_plan_id":"cebpf4jnsgd1na2vs0mg"},{"bike_id":"340a902a-bb73-4f33-bad0-4d1064bcd831","system_id":"levelo_inurba_marseille","lat":43.22565,"lon":5.41633,"is_reserved":false,"is_disabled":false,"rental_uris":{"android":"levelo://app?vid=340a902a-bb73-4f33-bad0-4d1064bcd831","ios":"levelo://app?vid=340a902a-bb73-4f33-bad0-4d1064bcd831"},"vehicle_type_id":"4","last_reported":1769562058,"current_range_meters":10000,"station_id":"st_d2o4gvlbi1j2169b742g","pricing_plan_id":"cebpf4jnsgd1na2vs0mg"},{"bike_id":"a22e52b3-9771-4020-843c-005afa94f2fd","system_id":"levelo_inurba_marseille","lat":43.241719,"lon":5.364031,"is_reserved":false,"is_disabled":false,"rental_uris":{"android":"levelo://app?vid=a22e52b3-9771-4020-843c-005afa94f2fd","ios":"levelo://app?vid=a22e52b3-9771-4020-843c-005afa94f2fd"},"vehicle_type_id":"4","last_reported":1769562058,"current_range_meters":10000,"station_id":"cpo36qri1sfpv3e86is0","pricing_plan_id":"cebpf4jnsgd1na2vs0mg"},{"bike_id":"2164daca-0d16-41bf-8f07-322618b15656","system_id":"levelo_inurba_marseille","lat":43.30065,"lon":5.3768,"is_reserved":false,"is_disabled":false,"rental_uris":{"android":"levelo://app?vid=2164daca-0d16-41bf-8f07-322618b15656","ios":"levelo://app?vid=2164daca-0d16-41bf-8f07-322618b15656"},"vehicle_type_id":"4","last_reported":1769562058,"current_range_meters":10000,"station_id":"","pricing_plan_id":"cebpf4jnsgd1na2vs0mg"},{"bike_id":"72724336-6e68-40b9-93ca-8d6901680b91","system_id":"levelo_inurba_marseille","lat":43.25001,"lon":5.38921,"is_reserved":false,"is_disabled":false,"rental_uris":{"android":"levelo://app?vid=72724336-6e68-40b9-93ca-8d6901680b91","ios":"levelo://app?vid=72724336-6e68-40b9-93ca-8d6901680b91"},"vehicle_type_id":"4","last_reported":1769562058,"current_range_meters":10000,"station_id":"ce4bhgp2rcd13ifvqfd0","pricing_plan_id":"cebpf4jnsgd1na2vs0mg"},{"bike_id":"932d0616-a8b9-46e7-8d5d-b05f5b4e9de4","system_id":"levelo_inurba_marseille","lat":43.29935,"lon":5.36546,"is_reserved":false,"is_disabled":false,"rental_uris":{"android":"levelo://app?vid=932d0616-a8b9-46e7-8d5d-b05f5b4e9de4","ios":"levelo://app?vid=932d0616-a8b9-46e7-8d5d-b05f5b4e9de4"},"vehicle_type_id":"4","last_reported":1769562058,"current_range_meters":10000,"station_id":"ce4bgm92rcd13ifvqbr0","pricing_plan_id":"cebpf4jnsgd1na2vs0mg"},{"bike_id":"ecc928ee-efbe-4d33-a930-6f44c2b2dbdd","system_id":"levelo_inurba_marseille","lat":43.27431,"lon":5.39408,"is_reserved":false,"is_disabled":false,"rental_uris":{"android":"levelo://app?vid=ecc928ee-efbe-4d33-a930-6f44c2b2dbdd","ios":"levelo://app?vid=ecc928ee-efbe-4d33-a930-6f44c2b2dbdd"},"vehicle_type_id":"4","last_reported":1769562058,"current_range_meters":10000,"station_id":"ce4bhdp2rcd13ifvqf20","pricing_plan_id":"cebpf4jnsgd1na2vs0mg"},{"bike_id":"f4010f14-43bd-4bb9-8ef6-4162503a9d27","system_id":"levelo_inurba_marseille","lat":43.23059,"lon":5.35483,"is_reserved":false,"is_disabled":false,"rental_uris":{"android":"levelo://app?vid=f4010f14-43bd-4bb9-8ef6-4162503a9d27","ios":"levelo://app?vid=f4010f14-43bd-4bb9-8ef6-4162503a9d27"},"vehicle_type_id":"4","last_reported":1769562058,"current_range_meters":10000,"station_id":"cpo3342slgdg3j2ifvpg","pricing_plan_id":"cebpf4jnsgd1na2vs0mg"},{"bike_id":"7e796c86-8735-43a2-9e22-debba0672193","system_id":"levelo_inurba_marseille","lat":43.288605,"lon":5.425107,"is_reserved":false,"is_disabled":false,"rental_uris":{"android":"levelo://app?vid=7e796c86-8735-43a2-9e22-debba0672193","ios":"levelo://app?vid=7e796c86-8735-43a2-9e22-debba0672193"},"vehicle_type_id":"4","last_reported":1769562058,"current_range_meters":10000,"station_id":"st_d3b462108ojc7389ooeg","pricing_plan_id":"cebpf4jnsgd1na2vs0mg"},{"bike_id":"24c66737-2ca8-4631-aeb1-11a34c14ed02","system_id":"levelo_inurba_marseille","lat":43.28961,"lon":5.37866,"is_reserved":false,"is_disabled":false,"rental_uris":{"android":"levelo://app?vid=24c66737-2ca8-4631-aeb1-11a34c14ed02","ios":"levelo://app?vid=24c66737-2ca8-4631-aeb1-11a34c14ed02"},"vehicle_type_id":"4","last_reported":1769562058,"current_range_meters":10000,"station_id":"ce4bh9p2rcd13ifvqed0","pricing_plan_id":"cebpf4jnsgd1na2vs0mg"},{"bike_id":"156b67c3-5ecd-4d92-ab63-e05676bdd635","system_id":"levelo_inurba_marseille","lat":43.28864,"lon":5.42516,"is_reserved":false,"is_disabled":false,"rental_uris":{"android":"levelo://app?vid=156b67c3-5ecd-4d92-ab63-e05676bdd635","ios":"levelo://app?vid=156b67c3-5ecd-4d92-ab63-e05676bdd635"},"vehicle_type_id":"4","last_reported":1769562058,"current_range_meters":10000,"station_id":"st_d3b462108ojc7389ooeg","pricing_plan_id":"cebpf4jnsgd1na2vs0mg"},{"bike_id":"fbf5484f-d559-4bb0-86c0-10b60a01417f","system_id":"levelo_inurba_marseille","lat":43.27316,"lon":5.39065,"is_reserved":false,"is_disabled":false,"rental_uris":{"android":"levelo://app?vid=fbf5484f-d559-4bb0-86c0-10b60a01417f","ios":"levelo://app?vid=fbf5484f-d559-4bb0-86c0-10b60a01417f"},"vehicle_type_id":"4","last_reported":1769562058,"current_range_meters":10800,"station_id":"ce4bhgp2rcd13ifvqfe0","pricing_plan_id":"cebpf4jnsgd1na2vs0mg"},{"bike_id":"b2cad87d-f8b2-4a7f-805c-c970d2908076","system_id":"levelo_inurba_marseille","lat":43.29597,"lon":5.381,"is_reserved":false,"is_disabled":false,"rental_uris":{"android":"levelo://app?vid=b2cad87d-f8b2-4a7f-805c-c970d2908076","ios":"levelo://app?vid=b2cad87d-f8b2-4a7f-805c-c970d2908076"},"vehicle_type_id":"4","last_reported":1769562058,"current_range_meters":10800,"station_id":"ce4bgl12rcd13ifvqbo0","pricing_plan_id":"cebpf4jnsgd1na2vs0mg"},{"bike_id":"d28bfbda-00e4-48e8-9794-41a22a74bee0","system_id":"levelo_inurba_marseille","lat":43.23149,"lon":5.43723,"is_reserved":false,"is_disabled":false,"rental_uris":{"android":"levelo://app?vid=d28bfbda-00e4-48e8-9794-41a22a74bee0","ios":"levelo://app?vid=d28bfbda-00e4-48e8-9794-41a22a74bee0"},"vehicle_type_id":"4","last_reported":1769562058,"current_range_meters":10800,"station_id":"ce4bhmp2rcd13ifvqgog","pricing_plan_id":"cebpf4jnsgd1na2vs0mg"},{"bike_id":"a7526130-ac6d-44df-9555-aaeac6699c6b","system_id":"levelo_inurba_marseille","lat":43.28171,"lon":5.42643,"is_reserved":false,"is_disabled":false,"rental_uris":{"android":"levelo://app?vid=a7526130-ac6d-44df-9555-aaeac6699c6b","ios":"levelo://app?vid=a7526130-ac6d-44df-9555-aaeac6699c6b"},"vehicle_type_id":"4","last_reported":1769562058,"current_range_meters":10800,"station_id":"ce4bhnh2rcd13ifvqgug","pricing_plan_id":"cebpf4jnsgd1na2vs0mg"},{"bike_id":"f53d70dd-a375-4cd7-88a1-3be59e6f45de","system_id":"levelo_inurba_marseille","lat":43.26051,"lon":5.393813,"is_reserved":false,"is_disabled":false,"rental_uris":{"android":"levelo://app?vid=f53d70dd-a375-4cd7-88a1-3be59e6f45de","ios":"levelo://app?vid=f53d70dd-a375-4cd7-88a1-3be59e6f45de"},"vehicle_type_id":"4","last_reported":1769562058,"current_range_meters":10800,"station_id":"ce4bhh92rcd13ifvqfj0","pricing_plan_id":"cebpf4jnsgd1na2vs0mg"},{"bike_id":"c8a433cf-99ed-47b0-806d-af3c4b9864e0","system_id":"levelo_inurba_marseille","lat":43.26213,"lon":5.37441,"is_reserved":false,"is_disabled":false,"rental_uris":{"android":"levelo://app?vid=c8a433cf-99ed-47b0-806d-af3c4b9864e0","ios":"levelo://app?vid=c8a433cf-99ed-47b0-806d-af3c4b9864e0"},"vehicle_type_id":"4","last_reported":1769562058,"current_range_meters":10800,"station_id":"ce4bhgp2rcd13ifvqfc0","pricing_plan_id":"cebpf4jnsgd1na2vs0mg"},{"bike_id":"e80f5411-b4a9-4e65-a2a2-1c3f38d0d2ea","system_id":"levelo_inurba_marseille","lat":43.29672,"lon":5.37706,"is_reserved":false,"is_disabled":false,"rental_uris":{"android":"levelo://app?vid=e80f5411-b4a9-4e65-a2a2-1c3f38d0d2ea","ios":"levelo://app?vid=e80f5411-b4a9-4e65-a2a2-1c3f38d0d2ea"},"vehicle_type_id":"4","last_reported":1769562058,"current_range_meters":10800,"station_id":"ce4bgkh2rcd13ifvqbl0","pricing_plan_id":"cebpf4jnsgd1na2vs0mg"},{"bike_id":"8344b82b-7c19-45a4-9b64-9688db7dff2e","system_id":"levelo_inurba_marseille","lat":43.27817,"lon":5.4071,"is_reserved":false,"is_disabled":false,"rental_uris":{"android":"levelo://app?vid=8344b82b-7c19-45a4-9b64-9688db7dff2e","ios":"levelo://app?vid=8344b82b-7c19-45a4-9b64-9688db7dff2e"},"vehicle_type_id":"4","last_reported":1769562058,"current_range_meters":10800,"station_id":"ce4bhnh2rcd13ifvqgtg","pricing_plan_id":"cebpf4jnsgd1na2vs0mg"},{"bike_id":"ff3d6f2e-5715-4f4c-a34a-c7896f11c918","system_id":"levelo_inurba_marseille","lat":43.3127,"lon":5.37795,"is_reserved":false,"is_disabled":false,"rental_uris":{"android":"levelo://app?vid=ff3d6f2e-5715-4f4c-a34a-c7896f11c918","ios":"levelo://app?vid=ff3d6f2e-5715-4f4c-a34a-c7896f11c918"},"vehicle_type_id":"4","last_reported":1769562058,"current_range_meters":10800,"station_id":"","pricing_plan_id":"cebpf4jnsgd1na2vs0mg"},{"bike_id":"004a375b-6701-45ba-bdb9-468094e5baae","system_id":"levelo_inurba_marseille","lat":43.29198,"lon":5.3931,"is_reserved":false,"is_disabled":false,"rental_uris":{"android":"levelo://app?vid=004a375b-6701-45ba-bdb9-468094e5baae","ios":"levelo://app?vid=004a375b-6701-45ba-bdb9-468094e5baae"},"vehicle_type_id":"4","last_reported":1769562058,"current_range_meters":10800,"station_id":"ce4bh192rcd13ifvqdd0","pricing_plan_id":"cebpf4jnsgd1na2vs0mg"},{"bike_id":"4e6f5fa4-4ad6-4266-947d-ea0b24b318d0","system_id":"levelo_inurba_marseille","lat":43.28232,"lon":5.39047,"is_reserved":false,"is_disabled":false,"rental_uris":{"android":"levelo://app?vid=4e6f5fa4-4ad6-4266-947d-ea0b24b318d0","ios":"levelo://app?vid=4e6f5fa4-4ad6-4266-947d-ea0b24b318d0"},"vehicle_type_id":"4","last_reported":1769562058,"current_range_meters":10800,"station_id":"ce4bhn92rcd13ifvqgsg","pricing_plan_id":"cebpf4jnsgd1na2vs0mg"},{"bike_id":"66b128a2-2d46-467c-9380-c0f60c13e459","system_id":"levelo_inurba_marseille","lat":43.3018,"lon":5.37358,"is_reserved":false,"is_disabled":false,"rental_uris":{"android":"levelo://app?vid=66b128a2-2d46-467c-9380-c0f60c13e459","ios":"levelo://app?vid=66b128a2-2d46-467c-9380-c0f60c13e459"},"vehicle_type_id":"4","last_reported":1769562058,"current_range_meters":10800,"station_id":"","pricing_plan_id":"cebpf4jnsgd1na2vs0mg"},{"bike_id":"24d3ab3e-5da5-40d7-bbf2-f4086d4478d2","system_id":"levelo_inurba_marseille","lat":43.299449,"lon":5.365321,"is_reserved":false,"is_disabled":false,"rental_uris":{"android":"levelo://app?vid=24d3ab3e-5da5-40d7-bbf2-f4086d4478d2","ios":"levelo://app?vid=24d3ab3e-5da5-40d7-bbf2-f4086d4478d2"},"vehicle_type_id":"4","last_reported":1769562058,"current_range_meters":10800,"station_id":"ce4bgm92rcd13ifvqbr0","pricing_plan_id":"cebpf4jnsgd1na2vs0mg"},{"bike_id":"a0c0f91f-2d90-4b50-94e3-458964e3fffc","system_id":"levelo_inurba_marseille","lat":43.31485,"lon":5.37282,"is_reserved":false,"is_disabled":false,"rental_uris":{"android":"levelo://app?vid=a0c0f91f-2d90-4b50-94e3-458964e3fffc","ios":"levelo://app?vid=a0c0f91f-2d90-4b50-94e3-458964e3fffc"},"vehicle_type_id":"4","last_reported":1769562058,"current_range_meters":11200,"station_id":"ce4bgt12rcd13ifvqcd0","pricing_plan_id":"cebpf4jnsgd1na2vs0mg"},{"bike_id":"77bb8ed3-a8ed-4b80-a22a-a9435b2d6c1a","system_id":"levelo_inurba_marseille","lat":43.23958,"lon":5.36624,"is_reserved":false,"is_disabled":false,"rental_uris":{"android":"levelo://app?vid=77bb8ed3-a8ed-4b80-a22a-a9435b2d6c1a","ios":"levelo://app?vid=77bb8ed3-a8ed-4b80-a22a-a9435b2d6c1a"},"vehicle_type_id":"4","last_reported":1769562058,"current_range_meters":11200,"station_id":"ce4bhi12rcd13ifvqfp0","pricing_plan_id":"cebpf4jnsgd1na2vs0mg"},{"bike_id":"e769bf95-f50e-4b2f-9bc1-ecdc205de4c6","system_id":"levelo_inurba_marseille","lat":43.25687,"lon":5.38687,"is_reserved":false,"is_disabled":false,"rental_uris":{"android":"levelo://app?vid=e769bf95-f50e-4b2f-9bc1-ecdc205de4c6","ios":"levelo://app?vid=e769bf95-f50e-4b2f-9bc1-ecdc205de4c6"},"vehicle_type_id":"4","last_reported":1769562058,"current_range_meters":11200,"station_id":"","pricing_plan_id":"cebpf4jnsgd1na2vs0mg"},{"bike_id":"09561847-1366-4990-9a9d-7e40d3323ac4","system_id":"levelo_inurba_marseille","lat":43.23168,"lon":5.43728,"is_reserved":false,"is_disabled":false,"rental_uris":{"android":"levelo://app?vid=09561847-1366-4990-9a9d-7e40d3323ac4","ios":"levelo://app?vid=09561847-1366-4990-9a9d-7e40d3323ac4"},"vehicle_type_id":"4","last_reported":1769562058,"current_range_meters":11200,"station_id":"ce4bhmp2rcd13ifvqgog","pricing_plan_id":"cebpf4jnsgd1na2vs0mg"},{"bike_id":"28a4588d-058e-44bc-8360-0a0e5ce3c85b","system_id":"levelo_inurba_marseille","lat":43.32445,"lon":5.36574,"is_reserved":false,"is_disabled":false,"rental_uris":{"android":"levelo://app?vid=28a4588d-058e-44bc-8360-0a0e5ce3c85b","ios":"levelo://app?vid=28a4588d-058e-44bc-8360-0a0e5ce3c85b"},