{"last_updated":1752513123,"ttl":60,"version":"2.2","data":{"bikes":[{"bike_id":"feb1ed1d-b0db-45cc-9e1b-7311a8d72058","system_id":"levelo_inurba_marseille","lat":43.33747,"lon":5.37463,"is_reserved":false,"is_disabled":false,"rental_uris":{"android":"levelo://app?vid=feb1ed1d-b0db-45cc-9e1b-7311a8d72058","ios":"levelo://app?vid=feb1ed1d-b0db-45cc-9e1b-7311a8d72058"},"vehicle_type_id":"1","last_reported":1752513124,"current_range_meters":36800,"station_id":"","pricing_plan_id":"cebpf4jnsgd1na2vs0mg"},{"bike_id":"46a7ea63-a037-45a8-8b8a-deb1c28b0155","system_id":"levelo_inurba_marseille","lat":43.29023,"lon":5.38644,"is_reserved":false,"is_disabled":false,"rental_uris":{"android":"levelo://app?vid=46a7ea63-a037-45a8-8b8a-deb1c28b0155","ios":"levelo://app?vid=46a7ea63-a037-45a8-8b8a-deb1c28b0155"},"vehicle_type_id":"4","last_reported":1752513124,"current_range_meters":2800,"station_id":"ce4bh4p2rcd13ifvqe0g","pricing_plan_id":"cebpf4jnsgd1na2vs0mg"},{"bike_id":"0f598797-1146-4d4c-8605-bf5c495d95f2","system_id":"levelo_inurba_marseille","lat":43.269416,"lon":5.402572,"is_reserved":false,"is_disabled":false,"rental_uris":{"android":"levelo://app?vid=0f598797-1146-4d4c-8605-bf5c495d95f2","ios":"levelo://app?vid=0f598797-1146-4d4c-8605-bf5c495d95f2"},"vehicle_type_id":"4","last_reported":1752513124,"current_range_meters":2800,"station_id":"","pricing_plan_id":"cebpf4jnsgd1na2vs0mg"},{"bike_id":"770f56d0-7954-46b1-9b58-146165a1a60d","system_id":"levelo_inurba_marseille","lat":43.30941,"lon":5.40165,"is_reserved":false,"is_disabled":false,"rental_uris":{"android":"levelo://app?vid=770f56d0-7954-46b1-9b58-146165a1a60d","ios":"levelo://app?vid=770f56d0-7954-46b1-9b58-146165a1a60d"},"vehicle_type_id":"4","last_reported":1752513124,"current_range_meters":3600,"station_id":"ce4bgvp2rcd13ifvqct0","pricing_plan_id":"cebpf4jnsgd1na2vs0mg"},{"bike_id":"575caf62-0a30-4846-9a1d-5fc501d27900","system_id":"levelo_inurba_marseille","lat":43.292663,"lon":5.384565,"is_reserved":false,"is_disabled":false,"rental_uris":{"android":"levelo://app?vid=575caf62-0a30-4846-9a1d-5fc501d27900","ios":"levelo://app?vid=575caf62-0a30-4846-9a1d-5fc501d27900"},"vehicle_type_id":"4","last_reported":1752513124,"current_range_meters":4000,"station_id":"ce4bh692rcd13ifvqea0","pricing_plan_id":"cebpf4jnsgd1na2vs0mg"},{"bike_id":"1b5c4197-645d-468c-9182-4994028831eb","system_id":"levelo_inurba_marseille","lat":43.284332,"lon":5.391977,"is_reserved":false,"is_disabled":false,"rental_uris":{"android":"levelo://app?vid=1b5c4197-645d-468c-9182-4994028831eb","ios":"levelo://app?vid=1b5c4197-645d-468c-9182-4994028831eb"},"vehicle_type_id":"4","last_reported":1752513124,"current_range_meters":4000,"station_id":"","pricing_plan_id":"cebpf4jnsgd1na2vs0mg"},{"bike_id":"98c68c2f-fa6b-4863-829b-c896fd87e19c","system_id":"levelo_inurba_marseille","lat":43.27957,"lon":5.387277,"is_reserved":false,"is_disabled":false,"rental_uris":{"android":"levelo://app?vid=98c68c2f-fa6b-4863-829b-c896fd87e19c","ios":"levelo://app?vid=98c68c2f-fa6b-4863-829b-c896fd87e19c"},"vehicle_type_id":"4","last_reported":1752513124,"current_range_meters":4000,"station_id":"ce4bhg12rcd13ifvqf80","pricing_plan_id":"cebpf4jnsgd1na2vs0mg"},{"bike_id":"f3d0df1b-b0c3-4671-94f3-fac6c7d89257","system_id":"levelo_inurba_marseille","lat":43.30082,"lon":5.39084,"is_reserved":false,"is_disabled":false,"rental_uris":{"android":"levelo://app?vid=f3d0df1b-b0c3-4671-94f3-fac6c7d89257","ios":"levelo://app?vid=f3d0df1b-b0c3-4671-94f3-fac6c7d89257"},"vehicle_type_id":"4","last_reported":1752513124,"current_range_meters":3600,"station_id":"ce4bh192rcd13ifvqdb0","pricing_plan_id":"cebpf4jnsgd1na2vs0mg"},{"bike_id":"a97dd9e8-fccd-49ce-bb42-51b9577d5275","system_id":"levelo_inurba_marseille","lat":43.29975,"lon":5.38491,"is_reserved":false,"is_disabled":false,"rental_uris":{"android":"levelo://app?vid=a97dd9e8-fccd-49ce-bb42-51b9577d5275","ios":"levelo://app?vid=a97dd9e8-fccd-49ce-bb42-51b9577d5275"},"vehicle_type_id":"4","last_reported":1752513124,"current_range_meters":4000,"station_id":"ce4bgj92rcd13ifvqbd0","pricing_plan_id":"cebpf4jnsgd1na2vs0mg"},{"bike_id":"529089ab-47af-4b59-9bc5-74e0bc7b3b27","system_id":"levelo_inurba_marseille","lat":43.25112,"lon":5.40318,"is_reserved":false,"is_disabled":false,"rental_uris":{"android":"levelo://app?vid=529089ab-47af-4b59-9bc5-74e0bc7b3b27","ios":"levelo://app?vid=529089ab-47af-4b59-9bc5-74e0bc7b3b27"},"vehicle_type_id":"4","last_reported":1752513124,"current_range_meters":4400,"station_id":"ce4bhlh2rcd13ifvqgig","pricing_plan_id":"cebpf4jnsgd1na2vs0mg"},{"bike_id":"101e4b86-6a6d-44a9-a9e9-b2194fa0249f","system_id":"levelo_inurba_marseille","lat":43.31164,"lon":5.38738,"is_reserved":false,"is_disabled":false,"rental_uris":{"android":"levelo://app?vid=101e4b86-6a6d-44a9-a9e9-b2194fa0249f","ios":"levelo://app?vid=101e4b86-6a6d-44a9-a9e9-b2194fa0249f"},"vehicle_type_id":"4","last_reported":1752513124,"current_range_meters":4400,"station_id":"ce4bgv12rcd13ifvqcp0","pricing_plan_id":"cebpf4jnsgd1na2vs0mg"},{"bike_id":"470d1e9d-8c05-40b8-a6b2-039f183b9f6a","system_id":"levelo_inurba_marseille","lat":43.23192,"lon":5.35558,"is_reserved":false,"is_disabled":true,"rental_uris":{"android":"levelo://app?vid=470d1e9d-8c05-40b8-a6b2-039f183b9f6a","ios":"levelo://app?vid=470d1e9d-8c05-40b8-a6b2-039f183b9f6a"},"vehicle_type_id":"4","last_reported":1752513124,"current_range_meters":4400,"station_id":"ce4bhu92rcd13ifvqi70","pricing_plan_id":"cebpf4jnsgd1na2vs0mg"},{"bike_id":"d6cd1cde-1ee1-4edd-9393-39e8eb2d7205","system_id":"levelo_inurba_marseille","lat":43.29031,"lon":5.38626,"is_reserved":false,"is_disabled":false,"rental_uris":{"android":"levelo://app?vid=d6cd1cde-1ee1-4edd-9393-39e8eb2d7205","ios":"levelo://app?vid=d6cd1cde-1ee1-4edd-9393-39e8eb2d7205"},"vehicle_type_id":"4","last_reported":1752513124,"current_range_meters":4400,"station_id":"ce4bh4p2rcd13ifvqe0g","pricing_plan_id":"cebpf4jnsgd1na2vs0mg"},{"bike_id":"2c0c5e0d-5370-436e-bfdb-938e73655d60","system_id":"levelo_inurba_marseille","lat":43.30958,"lon":5.39031,"is_reserved":false,"is_disabled":false,"rental_uris":{"android":"levelo://app?vid=2c0c5e0d-5370-436e-bfdb-938e73655d60","ios":"levelo://app?vid=2c0c5e0d-5370-436e-bfdb-938e73655d60"},"vehicle_type_id":"4","last_reported":1752513124,"current_range_meters":4800,"station_id":"ce4bgup2rcd13ifvqco0","pricing_plan_id":"cebpf4jnsgd1na2vs0mg"},{"bike_id":"9efb8360-8563-45b9-96b2-a06e314abdb2","system_id":"levelo_inurba_marseille","lat":43.21209,"lon":5.35064,"is_reserved":false,"is_disabled":false,"rental_uris":{"android":"levelo://app?vid=9efb8360-8563-45b9-96b2-a06e314abdb2","ios":"levelo://app?vid=9efb8360-8563-45b9-96b2-a06e314abdb2"},"vehicle_type_id":"4","last_reported":1752513124,"current_range_meters":4800,"station_id":"st_cvj6sg6p6f1abm77japg","pricing_plan_id":"cebpf4jnsgd1na2vs0mg"},{"bike_id":"44dd919c-32df-4fe9-8b1c-c9988fb68d5b","system_id":"levelo_inurba_marseille","lat":43.26942,"lon":5.40279,"is_reserved":false,"is_disabled":true,"rental_uris":{"android":"levelo://app?vid=44dd919c-32df-4fe9-8b1c-c9988fb68d5b","ios":"levelo://app?vid=44dd919c-32df-4fe9-8b1c-c9988fb68d5b"},"vehicle_type_id":"4","last_reported":1752513124,"current_range_meters":5600,"station_id":"cjm6bp8fraef2m0cb0m0","pricing_plan_id":"cebpf4jnsgd1na2vs0mg"},{"bike_id":"f5a5c290-12bb-4646-ab18-b385121f9284","system_id":"levelo_inurba_marseille","lat":43.30808,"lon":5.3815,"is_reserved":false,"is_disabled":true,"rental_uris":{"android":"levelo://app?vid=f5a5c290-12bb-4646-ab18-b385121f9284","ios":"levelo://app?vid=f5a5c290-12bb-4646-ab18-b385121f9284"},"vehicle_type_id":"4","last_reported":1752513124,"current_range_meters":5600,"station_id":"ce4bgt12rcd13ifvqce0","pricing_plan_id":"cebpf4jnsgd1na2vs0mg"},{"bike_id":"943f0470-8120-43cc-b25f-78d27c95c2de","system_id":"levelo_inurba_marseille","lat":43.29255,"lon":5.38434,"is_reserved":false,"is_disabled":false,"rental_uris":{"android":"levelo://app?vid=943f0470-8120-43cc-b25f-78d27c95c2de","ios":"levelo://app?vid=943f0470-8120-43cc-b25f-78d27c95c2de"},"vehicle_type_id":"4","last_reported":1752513124,"current_range_meters":5600,"station_id":"ce4bh692rcd13ifvqea0","pricing_plan_id":"cebpf4jnsgd1na2vs0mg"},{"bike_id":"5c56f5e0-c648-4f49-be6b-5fdc1a89d4de","system_id":"levelo_inurba_marseille","lat":43.29036,"lon":5.37573,"is_reserved":false,"is_disabled":false,"rental_uris":{"android":"levelo://app?vid=5c56f5e0-c648-4f49-be6b-5fdc1a89d4de","ios":"levelo://app?vid=5c56f5e0-c648-4f49-be6b-5fdc1a89d4de"},"vehicle_type_id":"4","last_reported":1752513124,"current_range_meters":5600,"station_id":"ce4bh692rcd13ifvqe90","pricing_plan_id":"cebpf4jnsgd1na2vs0mg"},{"bike_id":"f82d4fb4-7f69-49db-b5fa-b35a2856ae7e","system_id":"levelo_inurba_marseille","lat":43.273781,"lon":5.362603,"is_reserved":false,"is_disabled":false,"rental_uris":{"android":"levelo://app?vid=f82d4fb4-7f69-49db-b5fa-b35a2856ae7e","ios":"levelo://app?vid=f82d4fb4-7f69-49db-b5fa-b35a2856ae7e"},"vehicle_type_id":"4","last_reported":1752513124,"current_range_meters":6000,"station_id":"ce4bhbh2rcd13ifvqeo0","pricing_plan_id":"cebpf4jnsgd1na2vs0mg"},{"bike_id":"8827f076-dec7-4e8f-bdb1-b03e2811adf6","system_id":"levelo_inurba_marseille","lat":43.29635,"lon":5.36021,"is_reserved":false,"is_disabled":false,"rental_uris":{"android":"levelo://app?vid=8827f076-dec7-4e8f-bdb1-b03e2811adf6","ios":"levelo://app?vid=8827f076-dec7-4e8f-bdb1-b03e2811adf6"},"vehicle_type_id":"4","last_reported":1752513124,"current_range_meters":6000,"station_id":"","pricing_plan_id":"cebpf4jnsgd1na2vs0mg"},{"bike_id":"80d3c492-d75e-442f-a5fa-37a8ca123fcd","system_id":"levelo_inurba_marseille","lat":43.27567,"lon":5.38419,"is_reserved":false,"is_disabled":false,"rental_uris":{"android":"levelo://app?vid=80d3c492-d75e-442f-a5fa-37a8ca123fcd","ios":"levelo://app?vid=80d3c492-d75e-442f-a5fa-37a8ca123fcd"},"vehicle_type_id":"4","last_reported":1752513124,"current_range_meters":6400,"station_id":"ce4bhh92rcd13ifvqfi0","pricing_plan_id":"cebpf4jnsgd1na2vs0mg"},{"bike_id":"999b9d30-855b-489d-9de1-6a44f83d6385","system_id":"levelo_inurba_marseille","lat":43.21185,"lon":5.35068,"is_reserved":false,"is_disabled":false,"rental_uris":{"android":"levelo://app?vid=999b9d30-855b-489d-9de1-6a44f83d6385","ios":"levelo://app?vid=999b9d30-855b-489d-9de1-6a44f83d6385"},"vehicle_type_id":"4","last_reported":1752513124,"current_range_meters":6400,"station_id":"st_cvj6sg6p6f1abm77japg","pricing_plan_id":"cebpf4jnsgd1na2vs0mg"},{"bike_id":"d0b0b1c5-e377-47e4-80d1-0f1a73ae73ee","system_id":"levelo_inurba_marseille","lat":43.28496,"lon":5.38556,"is_reserved":false,"is_disabled":false,"rental_uris":{"android":"levelo://app?vid=d0b0b1c5-e377-47e4-80d1-0f1a73ae73ee","ios":"levelo://app?vid=d0b0b1c5-e377-47e4-80d1-0f1a73ae73ee"},"vehicle_type_id":"4","last_reported":1752513124,"current_range_meters":6400,"station_id":"ce4bh8p2rcd13ifvqeb0","pricing_plan_id":"cebpf4jnsgd1na2vs0mg"},{"bike_id":"b714c211-7e06-4f12-acdc-799ba9da8d61","system_id":"levelo_inurba_marseille","lat":43.21756,"lon":5.34593,"is_reserved":false,"is_disabled":false,"rental_uris":{"android":"levelo://app?vid=b714c211-7e06-4f12-acdc-799ba9da8d61","ios":"levelo://app?vid=b714c211-7e06-4f12-acdc-799ba9da8d61"},"vehicle_type_id":"4","last_reported":1752513124,"current_range_meters":6800,"station_id":"st_cvj6r9ubvosntc0bgbag","pricing_plan_id":"cebpf4jnsgd1na2vs0mg"},{"bike_id":"8de51ad0-ad51-48ea-828a-69b0c8f0b24f","system_id":"levelo_inurba_marseille","lat":43.2439,"lon":5.37061,"is_reserved":false,"is_disabled":false,"rental_uris":{"android":"levelo://app?vid=8de51ad0-ad51-48ea-828a-69b0c8f0b24f","ios":"levelo://app?vid=8de51ad0-ad51-48ea-828a-69b0c8f0b24f"},"vehicle_type_id":"4","last_reported":1752513124,"current_range_meters":7200,"station_id":"ce4bhhh2rcd13ifvqfk0","pricing_plan_id":"cebpf4jnsgd1na2vs0mg"},{"bike_id":"f23760ff-ab61-4853-aa67-28aac93822c1","system_id":"levelo_inurba_marseille","lat":43.337444,"lon":5.374475,"is_reserved":false,"is_disabled":false,"rental_uris":{"android":"levelo://app?vid=f23760ff-ab61-4853-aa67-28aac93822c1","ios":"levelo://app?vid=f23760ff-ab61-4853-aa67-28aac93822c1"},"vehicle_type_id":"4","last_reported":1752513124,"current_range_meters":7200,"station_id":"","pricing_plan_id":"cebpf4jnsgd1na2vs0mg"},{"bike_id":"26ca5d4b-fe6e-4a3b-838b-cf55ae154c3f","system_id":"levelo_inurba_marseille","lat":43.29312,"lon":5.37181,"is_reserved":false,"is_disabled":false,"rental_uris":{"android":"levelo://app?vid=26ca5d4b-fe6e-4a3b-838b-cf55ae154c3f","ios":"levelo://app?vid=26ca5d4b-fe6e-4a3b-838b-cf55ae154c3f"},"vehicle_type_id":"4","last_reported":1752513124,"current_range_meters":7200,"station_id":"ce4bgh92rcd13ifvqb40","pricing_plan_id":"cebpf4jnsgd1na2vs0mg"},{"bike_id":"127951c8-3e05-4415-ae69-4a0d2022976f","system_id":"levelo_inurba_marseille","lat":43.295197,"lon":5.374984,"is_reserved":false,"is_disabled":false,"rental_uris":{"android":"levelo://app?vid=127951c8-3e05-4415-ae69-4a0d2022976f","ios":"levelo://app?vid=127951c8-3e05-4415-ae69-4a0d2022976f"},"vehicle_type_id":"4","last_reported":1752513124,"current_range_meters":7200,"station_id":"ce4bgkp2rcd13ifvqbmg","pricing_plan_id":"cebpf4jnsgd1na2vs0mg"},{"bike_id":"f65d1173-e7b9-4699-be5d-abe005099d1d","system_id":"levelo_inurba_marseille","lat":43.225006,"lon":5.347797,"is_reserved":false,"is_disabled":false,"rental_uris":{"android":"levelo://app?vid=f65d1173-e7b9-4699-be5d-abe005099d1d","ios":"levelo://app?vid=f65d1173-e7b9-4699-be5d-abe005099d1d"},"vehicle_type_id":"4","last_reported":1752513124,"current_range_meters":8000,"station_id":"","pricing_plan_id":"cebpf4jnsgd1na2vs0mg"},{"bike_id":"06acad4e-0822-4e68-b2dd-1e863adbb1fc","system_id":"levelo_inurba_marseille","lat":43.2693,"lon":5.38925,"is_reserved":false,"is_disabled":false,"rental_uris":{"android":"levelo://app?vid=06acad4e-0822-4e68-b2dd-1e863adbb1fc","ios":"levelo://app?vid=06acad4e-0822-4e68-b2dd-1e863adbb1fc"},"vehicle_type_id":"4","last_reported":1752513124,"current_range_meters":8000,"station_id":"ce4bhhh2rcd13ifvqfl0","pricing_plan_id":"cebpf4jnsgd1na2vs0mg"},{"bike_id":"3b6166ba-bef3-4dba-8677-efb3c821c24a","system_id":"levelo_inurba_marseille","lat":43.29972,"lon":5.37171,"is_reserved":false,"is_disabled":false,"rental_uris":{"android":"levelo://app?vid=3b6166ba-bef3-4dba-8677-efb3c821c24a","ios":"levelo://app?vid=3b6166ba-bef3-4dba-8677-efb3c821c24a"},"vehicle_type_id":"4","last_reported":1752513124,"current_range_meters":8400,"station_id":"ce4bgr92rcd13ifvqc7g","pricing_plan_id":"cebpf4jnsgd1na2vs0mg"},{"bike_id":"63ed06f9-598c-4241-a02d-43fcb612ff7e","system_id":"levelo_inurba_marseille","lat":43.21749,"lon":5.34603,"is_reserved":false,"is_disabled":false,"rental_uris":{"android":"levelo://app?vid=63ed06f9-598c-4241-a02d-43fcb612ff7e","ios":"levelo://app?vid=63ed06f9-598c-4241-a02d-43fcb612ff7e"},"vehicle_type_id":"4","last_reported":1752513124,"current_range_meters":8400,"station_id":"st_cvj6r9ubvosntc0bgbag","pricing_plan_id":"cebpf4jnsgd1na2vs0mg"},{"bike_id":"d809df2a-91c3-49ca-9dab-adcf749d4e83","system_id":"levelo_inurba_marseille","lat":43.32369,"lon":5.3888,"is_reserved":false,"is_disabled":false,"rental_uris":{"android":"levelo://app?vid=d809df2a-91c3-49ca-9dab-adcf749d4e83","ios":"levelo://app?vid=d809df2a-91c3-49ca-9dab-adcf749d4e83"},"vehicle_type_id":"4","last_reported":1752513124,"current_range_meters":8400,"station_id":"ce4bhqp2rcd13ifvqhog","pricing_plan_id":"cebpf4jnsgd1na2vs0mg"},{"bike_id":"f83e6228-37b5-4ab9-a78c-794558f66a49","system_id":"levelo_inurba_marseille","lat":43.290983,"lon":5.379803,"is_reserved":false,"is_disabled":false,"rental_uris":{"android":"levelo://app?vid=f83e6228-37b5-4ab9-a78c-794558f66a49","ios":"levelo://app?vid=f83e6228-37b5-4ab9-a78c-794558f66a49"},"vehicle_type_id":"4","last_reported":1752513124,"current_range_meters":8800,"station_id":"","pricing_plan_id":"cebpf4jnsgd1na2vs0mg"},{"bike_id":"2a7d70fd-0b94-45d2-9fb1-a2a1badc2765","system_id":"levelo_inurba_marseille","lat":43.29261,"lon":5.38433,"is_reserved":false,"is_disabled":false,"rental_uris":{"android":"levelo://app?vid=2a7d70fd-0b94-45d2-9fb1-a2a1badc2765","ios":"levelo://app?vid=2a7d70fd-0b94-45d2-9fb1-a2a1badc2765"},"vehicle_type_id":"4","last_reported":1752513124,"current_range_meters":8800,"station_id":"ce4bh692rcd13ifvqea0","pricing_plan_id":"cebpf4jnsgd1na2vs0mg"},{"bike_id":"da146df5-9478-4938-9ac8-469757ff6c46","system_id":"levelo_inurba_marseille","lat":43.22941,"lon":5.3538,"is_reserved":false,"is_disabled":false,"rental_uris":{"android":"levelo://app?vid=da146df5-9478-4938-9ac8-469757ff6c46","ios":"levelo://app?vid=da146df5-9478-4938-9ac8-469757ff6c46"},"vehicle_type_id":"4","last_reported":1752513124,"current_range_meters":9200,"station_id":"cpo3532slgdg3j2ikp40","pricing_plan_id":"cebpf4jnsgd1na2vs0mg"},{"bike_id":"0a986562-ca8b-4ff3-8abf-bcfd0163bf3a","system_id":"levelo_inurba_marseille","lat":43.27069,"lon":5.42281,"is_reserved":false,"is_disabled":false,"rental_uris":{"android":"levelo://app?vid=0a986562-ca8b-4ff3-8abf-bcfd0163bf3a","ios":"levelo://app?vid=0a986562-ca8b-4ff3-8abf-bcfd0163bf3a"},"vehicle_type_id":"4","last_reported":1752513124,"current_range_meters":8800,"station_id":"ce4bhk92rcd13ifvqgb0","pricing_plan_id":"cebpf4jnsgd1na2vs0mg"},{"bike_id":"062db53a-8abc-4785-a844-848715a21521","system_id":"levelo_inurba_marseille","lat":43.243881,"lon":5.370618,"is_reserved":false,"is_disabled":false,"rental_uris":{"android":"levelo://app?vid=062db53a-8abc-4785-a844-848715a21521","ios":"levelo://app?vid=062db53a-8abc-4785-a844-848715a21521"},"vehicle_type_id":"4","last_reported":1752513124,"current_range_meters":10000,"station_id":"ce4bhhh2rcd13ifvqfk0","pricing_plan_id":"cebpf4jnsgd1na2vs0mg"},{"bike_id":"07b80ba8-94f7-4006-b883-d44157aa02a8","system_id":"levelo_inurba_marseille","lat":43.21202,"lon":5.35054,"is_reserved":false,"is_disabled":false,"rental_uris":{"android":"levelo://app?vid=07b80ba8-94f7-4006-b883-d44157aa02a8","ios":"levelo://app?vid=07b80ba8-94f7-4006-b883-d44157aa02a8"},"vehicle_type_id":"4","last_reported":1752513124,"current_range_meters":9600,"station_id":"st_cvj6sg6p6f1abm77japg","pricing_plan_id":"cebpf4jnsgd1na2vs0mg"},{"bike_id":"b665fdb0-647f-48fe-931a-ba87f28608c9","system_id":"levelo_inurba_marseille","lat":43.29204,"lon":5.39313,"is_reserved":false,"is_disabled":false,"rental_uris":{"android":"levelo://app?vid=b665fdb0-647f-48fe-931a-ba87f28608c9","ios":"levelo://app?vid=b665fdb0-647f-48fe-931a-ba87f28608c9"},"vehicle_type_id":"4","last_reported":1752513124,"current_range_meters":9200,"station_id":"ce4bh192rcd13ifvqdd0","pricing_plan_id":"cebpf4jnsgd1na2vs0mg"},{"bike_id":"e3b686d1-f0b1-4887-9c05-4bc370c43021","system_id":"levelo_inurba_marseille","lat":43.27208,"lon":5.40989,"is_reserved":false,"is_disabled":true,"rental_uris":{"android":"levelo://app?vid=e3b686d1-f0b1-4887-9c05-4bc370c43021","ios":"levelo://app?vid=e3b686d1-f0b1-4887-9c05-4bc370c43021"},"vehicle_type_id":"4","last_reported":1752513124,"current_range_meters":9600,"station_id":"ce4bhl12rcd13ifvqgf0","pricing_plan_id":"cebpf4jnsgd1na2vs0mg"},{"bike_id":"a2dc1f38-80e0-4f71-b10a-45cbbb725e88","system_id":"levelo_inurba_marseille","lat":43.30035,"lon":5.38949,"is_reserved":false,"is_disabled":false,"rental_uris":{"android":"levelo://app?vid=a2dc1f38-80e0-4f71-b10a-45cbbb725e88","ios":"levelo://app?vid=a2dc1f38-80e0-4f71-b10a-45cbbb725e88"},"vehicle_type_id":"4","last_reported":1752513124,"current_range_meters":9600,"station_id":"","pricing_plan_id":"cebpf4jnsgd1na2vs0mg"},{"bike_id":"58375fde-ca97-4dab-be52-59caf98323d3","system_id":"levelo_inurba_marseille","lat":43.26575,"lon":5.37264,"is_reserved":false,"is_disabled":true,"rental_uris":{"android":"levelo://app?vid=58375fde-ca97-4dab-be52-59caf98323d3","ios":"levelo://app?vid=58375fde-ca97-4dab-be52-59caf98323d3"},"vehicle_type_id":"4","last_reported":1752513124,"current_range_meters":10000,"station_id":"ce4bhg12rcd13ifvqf70","pricing_plan_id":"cebpf4jnsgd1na2vs0mg"},{"bike_id":"7d8c67ad-3e66-42f9-8c6e-098cca666cf3","system_id":"levelo_inurba_marseille","lat":43.323599,"lon":5.367517,"is_reserved":false,"is_disabled":false,"rental_uris":{"android":"levelo://app?vid=7d8c67ad-3e66-42f9-8c6e-098cca666cf3","ios":"levelo://app?vid=7d8c67ad-3e66-42f9-8c6e-098cca666cf3"},"vehicle_type_id":"4","last_reported":1752513124,"current_range_meters":10000,"station_id":"ce4bhsh2rcd13ifvqi2g","pricing_plan_id":"cebpf4jnsgd1na2vs0mg"},{"bike_id":"30f97ce1-30f7-40b6-9413-01e5759f91fd","system_id":"levelo_inurba_marseille","lat":43.27979,"lon":5.38749,"is_reserved":false,"is_disabled":false,"rental_uris":{"android":"levelo://app?vid=30f97ce1-30f7-40b6-9413-01e5759f91fd","ios":"levelo://app?vid=30f97ce1-30f7-40b6-9413-01e5759f91fd"},"vehicle_type_id":"4","last_reported":1752513124,"current_range_meters":10000,"station_id":"ce4bhg12rcd13ifvqf80","pricing_plan_id":"cebpf4jnsgd1na2vs0mg"},{"bike_id":"afb0d93b-25e9-435a-aa9b-c3ceb83d7a45","system_id":"levelo_inurba_marseille","lat":43.27612,"lon":5.36109,"is_reserved":false,"is_disabled":false,"rental_uris":{"android":"levelo://app?vid=afb0d93b-25e9-435a-aa9b-c3ceb83d7a45","ios":"levelo://app?vid=afb0d93b-25e9-435a-aa9b-c3ceb83d7a45"},"vehicle_type_id":"4","last_reported":1752513124,"current_range_meters":10800,"station_id":"ce4bgj92rcd13ifvqbe0","pricing_plan_id":"cebpf4jnsgd1na2vs0mg"},{"bike_id":"52f9be3a-993e-4983-bad6-e48a6df81354","system_id":"levelo_inurba_marseille","lat":43.27815,"lon":5.40709,"is_reserved":false,"is_disabled":false,"rental_uris":{"android":"levelo://app?vid=52f9be3a-993e-4983-bad6-e48a6df81354","ios":"levelo://app?vid=52f9be3a-993e-4983-bad6-e48a6df81354"},"vehicle_type_id":"4","last_reported":1752513124,"current_range_meters":10800,"station_id":"ce4bhnh2rcd13ifvqgtg","pricing_plan_id":"cebpf4jnsgd1na2vs0mg"},{"bike_id":"1a9a75da-d31f-45b6-a9d7-29449db5ad4c","system_id":"levelo_inurba_marseille","lat":43.28707,"lon":5.37929,"is_reserved":false,"is_disabled":true,"rental_uris":{"android":"levelo://app?vid=1a9a75da-d31f-45b6-a9d7-29449db5ad4c","ios":"levelo://app?vid=1a9a75da-d31f-45b6-a9d7-29449db5ad4c"},"vehicle_type_id":"4","last_reported":1752513124,"current_range_meters":10800,"station_id":"ce4bh9p2rcd13ifvqec0","pricing_plan_id":"cebpf4jnsgd1na2vs0mg"},{"bike_id":"efeebfb1-5b26-4b31-a566-27d1651f6fe5","system_id":"levelo_inurba_marseille","lat":43.29854,"lon":5.38292,"is_reserved":false,"is_disabled":false,"rental_uris":{"android":"levelo://app?vid=efeebfb1-5b26-4b31-a566-27d1651f6fe5","ios":"levelo://app?vid=efeebfb1-5b26-4b31-a566-27d1651f6fe5"},"vehicle_type_id":"4","last_reported":1752513124,"current_range_meters":10800,"station_id":"","pricing_plan_id":"cebpf4jnsgd1na2vs0mg"},{"bike_id":"d960247e-fcb0-4551-a66f-dd83895a31f6","system_id":"levelo_inurba_marseille","lat":43.32289,"lon":5.38266,"is_reserved":false,"is_disabled":true,"rental_uris":{"android":"levelo://app?vid=d960247e-fcb0-4551-a66f-dd83895a31f6","ios":"levelo://app?vid=d960247e-fcb0-4551-a66f-dd83895a31f6"},"vehicle_type_id":"4","last_reported":1752513124,"current_range_meters":10800,"station_id":"ce4bhr12rcd13ifvqhqg","pricing_plan_id":"cebpf4jnsgd1na2vs0mg"},{"bike_id":"9d31d9a3-9360-47cc-9360-3d8ed75b64a4","system_id":"levelo_inurba_marseille","lat":43.3292,"lon":5.36708,"is_reserved":false,"is_disabled":false,"rental_uris":{"android":"levelo://app?vid=9d31d9a3-9360-47cc-9360-3d8ed75b64a4","ios":"levelo://app?vid=9d31d9a3-9360-47cc-9360-3d8ed75b64a4"},"vehicle_type_id":"4","last_reported":1752513124,"current_range_meters":10800,"station_id":"","pricing_plan_id":"cebpf4jnsgd1na2vs0mg"},{"bike_id":"1700fcd6-30ad-4b74-a158-50e5dcb60b9b","system_id":"levelo_inurba_marseille","lat":43.29031,"lon":5.36568,"is_reserved":false,"is_disabled":true,"rental_uris":{"android":"levelo://app?vid=1700fcd6-30ad-4b74-a158-50e5dcb60b9b","ios":"levelo://app?vid=1700fcd6-30ad-4b74-a158-50e5dcb60b9b"},"vehicle_type_id":"4","last_reported":1752513124,"current_range_meters":10800,"station_id":"ce4bhap2rcd13ifvqek0","pricing_plan_id":"cebpf4jnsgd1na2vs0mg"},{"bike_id":"f50f2192-57d0-4477-826b-0539d304eb3a","system_id":"levelo_inurba_marseille","lat":43.29966,"lon":5.385,"is_reserved":false,"is_disabled":false,"rental_uris":{"android":"levelo://app?vid=f50f2192-57d0-4477-826b-0539d304eb3a","ios":"levelo://app?vid=f50f2192-57d0-4477-826b-0539d304eb3a"},"vehicle_type_id":"4","last_reported":1752513124,"current_range_meters":10800,"station_id":"ce4bgj92rcd13ifvqbd0","pricing_plan_id":"cebpf4jnsgd1na2vs0mg"},{"bike_id":"88b54780-d1d3-4552-aee6-99ef85359da6","system_id":"levelo_inurba_marseille","lat":43.28097,"lon":5.37835,"is_reserved":false,"is_disabled":false,"rental_uris":{"android":"levelo://app?vid=88b54780-d1d3-4552-aee6-99ef85359da6","ios":"levelo://app?vid=88b54780-d1d3-4552-aee6-99ef85359da6"},"vehicle_type_id":"4","last_reported":1752513124,"current_range_meters":10800,"station_id":"ce4bha12rcd13ifvqee0","pricing_plan_id":"cebpf4jnsgd1na2vs0mg"},{"bike_id":"a2d2b4f0-7bc6-4faa-8300-7599f5af9fc4","system_id":"levelo_inurba_marseille","lat":43.29064,"lon":5.37162,"is_reserved":false,"is_disabled":false,"rental_uris":{"android":"levelo://app?vid=a2d2b4f0-7bc6-4faa-8300-7599f5af9fc4","ios":"levelo://app?vid=a2d2b4f0-7bc6-4faa-8300-7599f5af9fc4"},"vehicle_type_id":"4","last_reported":1752513124,"current_range_meters":10800,"station_id":"ce4bh5p2rcd13ifvqe4g","pricing_plan_id":"cebpf4jnsgd1na2vs0mg"},{"bike_id":"d916aace-830c-451e-a376-c1312f1fc6af","system_id":"levelo_inurba_marseille","lat":43.225,"lon":5.3478,"is_reserved":false,"is_disabled":false,"rental_uris":{"android":"levelo://app?vid=d916aace-830c-451e-a376-c1312f1fc6af","ios":"levelo://app?vid=d916aace-830c-451e-a376-c1312f1fc6af"},"vehicle_type_id":"4","last_reported":1752513124,"current_range_meters":10800,"station_id":"","pricing_plan_id":"cebpf4jnsgd1na2vs0mg"},{"bike_id":"183abb6a-8659-4963-b677-ebabcd5c1850","system_id":"levelo_inurba_marseille","lat":43.28934,"lon":5.36642,"is_reserved":false,"is_disabled":false,"rental_uris":{"android":"levelo://app?vid=183abb6a-8659-4963-b677-ebabcd5c1850","ios":"levelo://app?vid=183abb6a-8659-4963-b677-ebabcd5c1850"},"vehicle_type_id":"4","last_reported":1752513124,"current_range_meters":10000,"station_id":"ce4bhap2rcd13ifvqek0","pricing_plan_id":"cebpf4jnsgd1na2vs0mg"},{"bike_id":"b2464811-ed1c-444d-b5b2-f0f5cb56794f","system_id":"levelo_inurba_marseille","lat":43.287076,"lon":5.352047,"is_reserved":false,"is_disabled":false,"rental_uris":{"android":"levelo://app?vid=b2464811-ed1c-444d-b5b2-f0f5cb56794f","ios":"levelo://app?vid=b2464811-ed1c-444d-b5b2-f0f5cb56794f"},"vehicle_type_id":"4","last_reported":1752513124,"current_range_meters":11200,"station_id":"","pricing_plan_id":"cebpf4jnsgd1na2vs0mg"},{"bike_id":"c14947c2-7b5b-4c03-b04b-d7f22fccfd67","system_id":"levelo_inurba_marseille","lat":43.21202,"lon":5.35057,"is_reserved":false,"is_disabled":false,"rental_uris":{"android":"levelo://app?vid=c14947c2-7b5b-4c03-b04b-d7f22fccfd67","ios":"levelo://app?vid=c14947c2-7b5b-4c03-b04b-d7f22fccfd67"},"vehicle_type_id":"4","last_reported":1752513124,"current_range_meters":11200,"station_id":"st_cvj6sg6p6f1abm77japg","pricing_plan_id":"cebpf4jnsgd1na2vs0mg"},{"bike_id":"f38d100a-6857-40cf-b1ba-6e615903691f","system_id":"levelo_inurba_marseille","lat":43.29743,"lon":5.38018,"is_reserved":false,"is_disabled":false,"rental_uris":{"android":"levelo://app?vid=f38d100a-6857-40cf-b1ba-6e615903691f","ios":"levelo://app?vid=f38d100a-6857-40cf-b1ba-6e615903691f"},"vehicle_type_id":"4","last_reported":1752513124,"current_range_meters":11200,"station_id":"","pricing_plan_id":"cebpf4jnsgd1na2vs0mg"},{"bike_id":"19312f7e-eca5-4172-b746-8a043925a619","system_id":"levelo_inurba_marseille","lat":43.29534,"lon":5.38538,"is_reserved":false,"is_disabled":false,"rental_uris":{"android":"levelo://app?vid=19312f7e-eca5-4172-b746-8a043925a619","ios":"levelo://app?vid=19312f7e-eca5-4172-b746-8a043925a619"},"vehicle_type_id":"4","last_reported":1752513124,"current_range_meters":11200,"station_id":"ce4bgih2rcd13ifvqba0","pricing_plan_id":"cebpf4jnsgd1na2vs0mg"},{"bike_id":"83ee38f6-ef22-4988-ae44-5e928e2d302b","system_id":"levelo_inurba_marseille","lat":43.29522,"lon":5.394,"is_reserved":false,"is_disabled":false,"rental_uris":{"android":"levelo://app?vid=83ee38f6-ef22-4988-ae44-5e928e2d302b","ios":"levelo://app?vid=83ee38f6-ef22-4988-ae44-5e928e2d302b"},"vehicle_type_id":"4","last_reported":1752513124,"current_range_meters":11200,"station_id":"ce4bh292rcd13ifvqdf0","pricing_plan_id":"cebpf4jnsgd1na2vs0mg"},{"bike_id":"f2dbbcf5-4a99-44c0-87ac-22f691e8367b","system_id":"levelo_inurba_marseille","lat":43.2407,"lon":5.37756,"is_reserved":false,"is_disabled":false,"rental_uris":{"android":"levelo://app?vid=f2dbbcf5-4a99-44c0-87ac-22f691e8367b","ios":"levelo://app?vid=f2dbbcf5-4a99-44c0-87ac-22f691e8367b"},"vehicle_type_id":"4","last_reported":1752513124,"current_range_meters":11200,"station_id":"ce4bhnp2rcd13ifvqgvg","pricing_plan_id":"cebpf4jnsgd1na2vs0mg"},{"bike_id":"8d453208-915c-42a7-90af-d8248fdb1da5","system_id":"levelo_inurba_marseille","lat":43.2816,"lon":5.42639,"is_reserved":false,"is_disabled":false,"rental_uris":{"android":"levelo://app?vid=8d453208-915c-42a7-90af-d8248fdb1da5","ios":"levelo://app?vid=8d453208-915c-42a7-90af-d8248fdb1da5"},"vehicle_type_id":"4","last_reported":1752513124,"current_range_meters":11600,"station_id":"ce4bhnh2rcd13ifvqgug","pricing_plan_id":"cebpf4jnsgd1na2vs0mg"},{"bike_id":"b00cd8c0-a944-4ebb-bdc5-2451dbff5f3f","system_id":"levelo_inurba_marseille","lat":43.271034,"lon":5.389427,"is_reserved":false,"is_disabled":false,"rental_uris":{"android":"levelo://app?vid=b00cd8c0-a944-4ebb-bdc5-2451dbff5f3f","ios":"levelo://app?vid=b00cd8c0-a944-4ebb-bdc5-2451dbff5f3f"},"vehicle_type_id":"4","last_reported":1752513124,"current_range_meters":11600,"station_id":"","pricing_plan_id":"cebpf4jnsgd1na2vs0mg"},{"bike_id":"e52a0a0f-9372-4622-adb3-4c3e9a501e61","system_id":"levelo_inurba_marseille","lat":43.28614,"lon":5.37059,"is_reserved":false,"is_disabled":false,"rental_uris":{"android":"levelo://app?vid=e52a0a0f-9372-4622-adb3-4c3e9a501e61","ios":"levelo://app?vid=e52a0a0f-9372-4622-adb3-4c3e9a501e61"},"vehicle_type_id":"4","last_reported":1752513124,"current_range_meters":11200,"station_id":"ce4bht12rcd13ifvqi60","pricing_plan_id":"cebpf4jnsgd1na2vs0mg"},{"bike_id":"05f30485-dc90-4763-9dd4-c12f63ae43a2","system_id":"levelo_inurba_marseille","lat":43.30312,"lon":5.36897,"is_reserved":false,"is_disabled":true,"rental_uris":{"android":"levelo://app?vid=05f30485-dc90-4763-9dd4-c12f63ae43a2","ios":"levelo://app?vid=05f30485-dc90-4763-9dd4-c12f63ae43a2"},"vehicle_type_id":"4","last_reported":1752513124,"current_range_meters":12000,"station_id":"ce4bgqh2rcd13ifvqc5g","pricing_plan_id":"cebpf4jnsgd1na2vs0mg"},{"bike_id":"96e8fede-5da7-4c3c-88cd-02807c898154","system_id":"levelo_inurba_marseille","lat":43.32496,"lon":5.36584,"is_reserved":false,"is_disabled":false,"rental_uris":{"android":"levelo://app?vid=96e8fede-5da7-4c3c-88cd-02807c898154","ios":"levelo://app?vid=96e8fede-5da7-4c3c-88cd-02807c898154"},"vehicle_type_id":"4","last_reported":1752513124,"current_range_meters":12000,"station_id":"ce4bhs12rcd13ifvqhvg","pricing_plan_id":"cebpf4jnsgd1na2vs0mg"},{"bike_id":"4f51184d-a24d-4337-a1d2-2e181ce6eb3c","system_id":"levelo_inurba_marseille","lat":43.295317,"lon":5.385382,"is_reserved":false,"is_disabled":false,"rental_uris":{"android":"levelo://app?vid=4f51184d-a24d-4337-a1d2-2e181ce6eb3c","ios":"levelo://app?vid=4f51184d-a24d-4337-a1d2-2e181ce6eb3c"},"vehicle_type_id":"4","last_reported":1752513124,"current_range_meters":12000,"station_id":"ce4bgih2rcd13ifvqba0","pricing_plan_id":"cebpf4jnsgd1na2vs0mg"},{"bike_id":"bf4fa1ad-4089-45a2-a2a2-212ed0c3f0a5","system_id":"levelo_inurba_marseille","lat":43.26958,"lon":5.38632,"is_reserved":false,"is_disabled":false,"rental_uris":{"android":"levelo://app?vid=bf4fa1ad-4089-45a2-a2a2-212ed0c3f0a5","ios":"levelo://app?vid=bf4fa1ad-4089-45a2-a2a2-212ed0c3f0a5"},"vehicle_type_id":"4","last_reported":1752513124,"current_range_meters":12000,"station_id":"ce4bhh92rcd13ifvqfh0","pricing_plan_id":"cebpf4jnsgd1na2vs0mg"},{"bike_id":"6e94238f-06d3-4450-afdc-a0c1bdc86992","system_id":"levelo_inurba_marseille","lat":43.25819,"lon":5.39432,"is_reserved":false,"is_disabled":false,"rental_uris":{"android":"levelo://app?vid=6e94238f-06d3-4450-afdc-a0c1bdc86992","ios":"levelo://app?vid=6e94238f-06d3-4450-afdc-a0c1bdc86992"},"vehicle_type_id":"4","last_reported":1752513124,"current_range_meters":11600,"station_id":"ce4bhip2rcd13ifvqft0","pricing_plan_id":"cebpf4jnsgd1na2vs0mg"},{"bike_id":"651dce3a-2249-46d7-a220-d413497d4b2a","system_id":"levelo_inurba_marseille","lat":43.2466,"lon":5.38879,"is_reserved":false,"is_disabled":false,"rental_uris":{"android":"levelo://app?vid=651dce3a-2249-46d7-a220-d413497d4b2a","ios":"levelo://app?vid=651dce3a-2249-46d7-a220-d413497d4b2a"},"vehicle_type_id":"4","last_reported":1752513124,"current_range_meters":12000,"station_id":"ce4bhg12rcd13ifvqf60","pricing_plan_id":"cebpf4jnsgd1na2vs0mg"},{"bike_id":"87794cb9-3f81-4d50-8426-60e529b823b8","system_id":"levelo_inurba_marseille","lat":43.29027,"lon":5.38653,"is_reserved":false,"is_disabled":false,"rental_uris":{"android":"levelo://app?vid=87794cb9-3f81-4d50-8426-60e529b823b8","ios":"levelo://app?vid=87794cb9-3f81-4d50-8426-60e529b823b8"},"vehicle_type_id":"4","last_reported":1752513124,"current_range_meters":12000,"station_id":"ce4bh4p2rcd13ifvqe0g","pricing_plan_id":"cebpf4jnsgd1na2vs0mg"},{"bike_id":"6522c1b7-30ae-402c-995c-b097a1538b69","system_id":"levelo_inurba_marseille","lat":43.29711,"lon":5.36607,"is_reserved":false,"is_disabled":false,"rental_uris":{"android":"levelo://app?vid=6522c1b7-30ae-402c-995c-b097a1538b69","ios":"levelo://app?vid=6522c1b7-30ae-402c-995c-b097a1538b69"},"vehicle_type_id":"4","last_reported":1752513124,"current_range_meters":12400,"station_id":"ce4bgn12rcd13ifvqbt0","pricing_plan_id":"cebpf4jnsgd1na2vs0mg"},{"bike_id":"e91ced2f-2041-4b38-8446-0d5d97adec95","system_id":"levelo_inurba_marseille","lat":43.255779,"lon":5.382402,"is_reserved":false,"is_disabled":true,"rental_uris":{"android":"levelo://app?vid=e91ced2f-2041-4b38-8446-0d5d97adec95","ios":"levelo://app?vid=e91ced2f-2041-4b38-8446-0d5d97adec95"},"vehicle_type_id":"4","last_reported":1752513124,"current_range_meters":12400,"station_id":"ce4bhih2rcd13ifvqfs0","pricing_plan_id":"cebpf4jnsgd1na2vs0mg"},{"bike_id":"ee2c69ff-0b13-4e7b-9b30-004777b1f07c","system_id":"levelo_inurba_marseille","lat":43.28701,"lon":5.39994,"is_reserved":false,"is_disabled":false,"rental_uris":{"android":"levelo://app?vid=ee2c69ff-0b13-4e7b-9b30-004777b1f07c","ios":"levelo://app?vid=ee2c69ff-0b13-4e7b-9b30-004777b1f07c"},"vehicle_type_id":"4","last_reported":1752513124,"current_range_meters":12400,"station_id":"ce4bho92rcd13ifvqh3g","pricing_plan_id":"cebpf4jnsgd1na2vs0mg"},{"bike_id":"8a01e88a-8371-4085-9838-47ae11897cd3","system_id":"levelo_inurba_marseille","lat":43.28166,"lon":5.42641,"is_reserved":false,"is_disabled":true,"rental_uris":{"android":"levelo://app?vid=8a01e88a-8371-4085-9838-47ae11897cd3","ios":"levelo://app?vid=8a01e88a-8371-4085-9838-47ae11897cd3"},"vehicle_type_id":"4","last_reported":1752513124,"current_range_meters":12400,"station_id":"ce4bhnh2rcd13ifvqgug","pricing_plan_id":"cebpf4jnsgd1na2vs0mg"},{"bike_id":"c8c4de1a-846f-4f5b-aace-9fb14bf7ad52","system_id":"levelo_inurba_marseille","lat":43.21191,"lon":5.35071,"is_reserved":false,"is_disabled":false,"rental_uris":{"android":"levelo://app?vid=c8c4de1a-846f-4f5b-aace-9fb14bf7ad52","ios":"levelo://app?vid=c8c4de1a-846f-4f5b-aace-9fb14bf7ad52"},"vehicle_type_id":"4","last_reported":1752513124,"current_range_meters":12400,"station_id":"st_cvj6sg6p6f1abm77japg","pricing_plan_id":"cebpf4jnsgd1na2vs0mg"},{"bike_id":"088e6b1d-8a81-47e0-9ad0-36233ed399c0","system_id":"levelo_inurba_marseille","lat":43.27925,"lon":5.39576,"is_reserved":false,"is_disabled":true,"rental_uris":{"android":"levelo://app?vid=088e6b1d-8a81-47e0-9ad0-36233ed399c0","ios":"levelo://app?vid=088e6b1d-8a81-47e0-9ad0-36233ed399c0"},"vehicle_type_id":"4","last_reported":1752513124,"current_range_meters":12400,"station_id":"ce4bhf92rcd13ifvqf40","pricing_plan_id":"cebpf4jnsgd1na2vs0mg"},{"bike_id":"dbc51ca4-6199-4aa4-9de9-cf0adfd584c2","system_id":"levelo_inurba_marseille","lat":43.2176,"lon":5.34589,"is_reserved":false,"is_disabled":false,"rental_uris":{"android":"levelo://app?vid=dbc51ca4-6199-4aa4-9de9-cf0adfd584c2","ios":"levelo://app?vid=dbc51ca4-6199-4aa4-9de9-cf0adfd584c2"},"vehicle_type_id":"4","last_reported":1752513124,"current_range_meters":12800,"station_id":"st_cvj6r9ubvosntc0bgbag","pricing_plan_id":"cebpf4jnsgd1na2vs0mg"},{"bike_id":"ffa5ccb4-905c-4e50-802b-1c1f9b2cbe03","system_id":"levelo_inurba_marseille","lat":43.2121,"lon":5.35066,"is_reserved":false,"is_disabled":false,"rental_uris":{"android":"levelo://app?vid=ffa5ccb4-905c-4e50-802b-1c1f9b2cbe03","ios":"levelo://app?vid=ffa5ccb4-905c-4e50-802b-1c1f9b2cbe03"},"vehicle_type_id":"4","last_reported":1752513124,"current_range_meters":12800,"station_id":"","pricing_plan_id":"cebpf4jnsgd1na2vs0mg"},{"bike_id":"9b1afee0-5d71-42b1-bfb3-0f11fa1e097d","system_id":"levelo_inurba_marseille","lat":43.292534,"lon":5.376396,"is_reserved":false,"is_disabled":false,"rental_uris":{"android":"levelo://app?vid=9b1afee0-5d71-42b1-bfb3-0f11fa1e097d","ios":"levelo://app?vid=9b1afee0-5d71-42b1-bfb3-0f11fa1e097d"},"vehicle_type_id":"4","last_reported":1752513124,"current_range_meters":12800,"station_id":"","pricing_plan_id":"cebpf4jnsgd1na2vs0mg"},{"bike_id":"a4d07f45-19f9-4df9-9728-be6623530a64","system_id":"levelo_inurba_marseille","lat":43.2371,"lon":5.38847,"is_reserved":false,"is_disabled":false,"rental_uris":{"android":"levelo://app?vid=a4d07f45-19f9-4df9-9728-be6623530a64","ios":"levelo://app?vid=a4d07f45-19f9-4df9-9728-be6623530a64"},"vehicle_type_id":"4","last_reported":1752513124,"current_range_meters":12800,"station_id":"","pricing_plan_id":"cebpf4jnsgd1na2vs0mg"},{"bike_id":"01d08a3f-61b8-426f-a7af-3c8ebdc9fc5f","system_id":"levelo_inurba_marseille","lat":43.29307,"lon":5.37162,"is_reserved":false,"is_disabled":false,"rental_uris":{"android":"levelo://app?vid=01d08a3f-61b8-426f-a7af-3c8ebdc9fc5f","ios":"levelo://app?vid=01d08a3f-61b8-426f-a7af-3c8ebdc9fc5f"},"vehicle_type_id":"4","last_reported":1752513124,"current_range_meters":12800,"station_id":"ce4bgh92rcd13ifvqb40","pricing_plan_id":"cebpf4jnsgd1na2vs0mg"},{"bike_id":"69051ebe-c0df-4bf4-9eac-8ef7fb9f27df","system_id":"levelo_inurba_marseille","lat":43.25728,"lon":5.41106,"is_reserved":false,"is_disabled":false,"rental_uris":{"android":"levelo://app?vid=69051ebe-c0df-4bf4-9eac-8ef7fb9f27df","ios":"levelo://app?vid=69051ebe-c0df-4bf4-9eac-8ef7fb9f27df"},"vehicle_type_id":"4","last_reported":1752513124,"current_range_meters":12800,"station_id":"ce4bhkp2rcd13ifvqgd0","pricing_plan_id":"cebpf4jnsgd1na2vs0mg"},{"bike_id":"4a19e4ee-cbbe-4fd8-9e6c-310afa6ee6c9","system_id":"levelo_inurba_marseille","lat":43.23202,"lon":5.3999,"is_reserved":false,"is_disabled":true,"rental_uris":{"android":"levelo://app?vid=4a19e4ee-cbbe-4fd8-9e6c-310afa6ee6c9","ios":"levelo://app?vid=4a19e4ee-cbbe-4fd8-9e6c-310afa6ee6c9"},"vehicle_type_id":"4","last_reported":1752513124,"current_range_meters":13600,"station_id":"ce4bhn12rcd13ifvqgqg","pricing_plan_id":"cebpf4jnsgd1na2vs0mg"},{"bike_id":"f5a47db5-6fb2-46bd-a2de-efa4ad13bf60","system_id":"levelo_inurba_marseille","lat":43.21194,"lon":5.35065,"is_reserved":false,"is_disabled":false,"rental_uris":{"android":"levelo://app?vid=f5a47db5-6fb2-46bd-a2de-efa4ad13bf60","ios":"levelo://app?vid=f5a47db5-6fb2-46bd-a2de-efa4ad13bf60"},"vehicle_type_id":"4","last_reported":1752513124,"current_range_meters":13600,"station_id":"st_cvj6sg6p6f1abm77japg","pricing_plan_id":"cebpf4jnsgd1na2vs0mg"},{"bike_id":"e621ebbb-dc33-4e76-8e92-d3fd339da2a3","system_id":"levelo_inurba_marseille","lat":43.273749,"lon":5.362567,"is_reserved":false,"is_disabled":false,"rental_uris":{"android":"levelo://app?vid=e621ebbb-dc33-4e76-8e92-d3fd339da2a3","ios":"levelo://app?vid=e621ebbb-dc33-4e76-8e92-d3fd339da2a3"},"vehicle_type_id":"4","last_reported":1752513124,"current_range_meters":13600,"station_id":"ce4bhbh2rcd13ifvqeo0","pricing_plan_id":"cebpf4jnsgd1na2vs0mg"},{"bike_id":"ed892106-7211-488a-b10f-d9b7c9badcdb","system_id":"levelo_inurba_marseille","lat":43.27712,"lon":5.35669,"is_reserved":false,"is_disabled":false,"rental_uris":{"android":"levelo://app?vid=ed892106-7211-488a-b10f-d9b7c9badcdb","ios":"levelo://app?vid=ed892106-7211-488a-b10f-d9b7c9badcdb"},"vehicle_type_id":"4","last_reported":1752513124,"current_range_meters":13600,"station_id":"","pricing_plan_id":"cebpf4jnsgd1na2vs0mg"},{"bike_id":"1aedaa42-1f03-48cc-8e38-d983e72f730b","system_id":"levelo_inurba_marseille","lat":43.27095,"lon":5.42255,"is_reserved":false,"is_disabled":false,"rental_uris":{"android":"levelo://app?vid=1aedaa42-1f03-48cc-8e38-d983e72f730b","ios":"levelo://app?vid=1aedaa42-1f03-48cc-8e38-d983e72f730b"},"vehicle_type_id":"4","last_reported":1752513124,"current_range_meters":13600,"station_id":"ce4bhk92rcd13ifvqgb0","pricing_plan_id":"cebpf4jnsgd1na2vs0mg"},{"bike_id":"697d5fc4-b988-4a4e-8323-c1ce5ed61a61","system_id":"levelo_inurba_marseille","lat":43.21204,"lon":5.3507,"is_reserved":false,"is_disabled":false,"rental_uris":{"android":"levelo://app?vid=697d5fc4-b988-4a4e-8323-c1ce5ed61a61","ios":"levelo://app?vid=697d5fc4-b988-4a4e-8323-c1ce5ed61a61"},"vehicle_type_id":"4","last_reported":1752513124,"current_range_meters":14000,"station_id":"st_cvj6sg6p6f1abm77japg","pricing_plan_id":"cebpf4jnsgd1na2vs0mg"},{"bike_id":"12d48e4d-a291-49bb-ab45-967804b53d7b","system_id":"levelo_inurba_marseille","lat":43.27605,"lon":5.36101,"is_reserved":false,"is_disabled":true,"rental_uris":{"android":"levelo://app?vid=12d48e4d-a291-49bb-ab45-967804b53d7b","ios":"levelo://app?vid=12d48e4d-a291-49bb-ab45-967804b53d7b"},"vehicle_type_id":"4","last_reported":1752513124,"current_range_meters":14000,"station_id":"ce4bgj92rcd13ifvqbe0","pricing_plan_id":"cebpf4jnsgd1na2vs0mg"},{"bike_id":"75505af5-e3ce-48e1-b23e-eb6c27b76d3b","system_id":"levelo_inurba_marseille","lat":43.32658,"lon":5.41,"is_reserved":false,"is_disabled":false,"rental_uris":{"android":"levelo://app?vid=75505af5-e3ce-48e1-b23e-eb6c27b76d3b","ios":"levelo://app?vid=75505af5-e3ce-48e1-b23e-eb6c27b76d3b"},"vehicle_type_id":"4","last_reported":1752513124,"current_range_meters":14000,"station_id":"ce4bhpp2rcd13ifvqhgg","pricing_plan_id":"cebpf4jnsgd1na2vs0mg"},{"bike_id":"9d4443fb-f7b2-4b4e-b382-f0cef3ef1118","system_id":"levelo_inurba_marseille","lat":43.30136,"lon":5.39847,"is_reserved":false,"is_disabled":false,"rental_uris":{"android":"levelo://app?vid=9d4443fb-f7b2-4b4e-b382-f0cef3ef1118","ios":"levelo://app?vid=9d4443fb-f7b2-4b4e-b382-f0cef3ef1118"},"vehicle_type_id":"4","last_reported":1752513124,"current_range_meters":14000,"station_id":"ce4bh0h2rcd13ifvqd40","pricing_plan_id":"cebpf4jnsgd1na2vs0mg"},{"bike_id":"08dbf31c-b540-4ca6-b57d-3481ea73d97b","system_id":"levelo_inurba_marseille","lat":43.22505,"lon":5.34783,"is_reserved":false,"is_disabled":false,"rental_uris":{"android":"levelo://app?vid=08dbf31c-b540-4ca6-b57d-3481ea73d97b","ios":"levelo://app?vid=08dbf31c-b540-4ca6-b57d-3481ea73d97b"},"vehicle_type_id":"4","last_reported":1752513124,"current_range_meters":14000,"station_id":"st_cvj5dfep6f1abm77gieg","pricing_plan_id":"cebpf4jnsgd1na2vs0mg"},{"bike_id":"48db7c43-f50c-4ddf-9e56-bc20f552eb95","system_id":"levelo_inurba_marseille","lat":43.29976,"lon":5.37174,"is_reserved":false,"is_disabled":false,"rental_uris":{"android":"levelo://app?vid=48db7c43-f50c-4ddf-9e56-bc20f552eb95","ios":"levelo://app?vid=48db7c43-f50c-4ddf-9e56-bc20f552eb95"},"vehicle_type_id":"4","last_reported":1752513124,"current_range_meters":14000,"station_id":"ce4bgr92rcd13ifvqc7g","pricing_plan_id":"cebpf4jnsgd1na2vs0mg"},{"bike_id":"56d5d06b-2654-483b-855f-7cccd7f948a8","system_id":"levelo_inurba_marseille","lat":43.2757,"lon":5.38414,"is_reserved":false,"is_disabled":false,"rental_uris":{"android":"levelo://app?vid=56d5d06b-2654-483b-855f-7cccd7f948a8","ios":"levelo://app?vid=56d5d06b-2654-483b-855f-7cccd7f948a8"},"vehicle_type_id":"4","last_reported":1752513124,"current_range_meters":13600,"station_id":"ce4bhh92rcd13ifvqfi0","pricing_plan_id":"cebpf4jnsgd1na2vs0mg"},{"bike_id":"a000506a-75cd-4dc4-97a0-215f84d40dca","system_id":"levelo_inurba_marseille","lat":43.29556,"lon":5.42281,"is_reserved":false,"is_disabled":false,"rental_uris":{"android":"levelo://app?vid=a000506a-75cd-4dc4-97a0-215f84d40dca","ios":"levelo://app?vid=a000506a-75cd-4dc4-97a0-215f84d40dca"},"vehicle_type_id":"4","last_reported":1752513124,"current_range_meters":14000,"station_id":"ce4bhph2rcd13ifvqhdg","pricing_plan_id":"cebpf4jnsgd1na2vs0mg"},{"bike_id":"974a8c9e-9e0c-4fb0-9089-f03c1ea978b7","system_id":"levelo_inurba_marseille","lat":43.256,"lon":5.38219,"is_reserved":false,"is_disabled":false,"rental_uris":{"android":"levelo://app?vid=974a8c9e-9e0c-4fb0-9089-f03c1ea978b7","ios":"levelo://app?vid=974a8c9e-9e0c-4fb0-9089-f03c1ea978b7"},"vehicle_type_id":"4","last_reported":1752513124,"current_range_meters":14000,"station_id":"ce4bhih2rcd13ifvqfs0","pricing_plan_id":"cebpf4jnsgd1na2vs0mg"},{"bike_id":"492a35a5-aa85-4b48-9133-f320d4fa82e1","system_id":"levelo_inurba_marseille","lat":43.28603,"lon":5.37051,"is_reserved":false,"is_disabled":false,"rental_uris":{"android":"levelo://app?vid=492a35a5-aa85-4b48-9133-f320d4fa82e1","ios":"levelo://app?vid=492a35a5-aa85-4b48-9133-f320d4fa82e1"},"vehicle_type_id":"4","last_reported":1752513124,"current_range_meters":14000,"station_id":"ce4bht12rcd13ifvqi60","pricing_plan_id":"cebpf4jnsgd1na2vs0mg"},{"bike_id":"e1442ff3-c767-4bb3-901d-e5f60873ad13","system_id":"levelo_inurba_marseille","lat":43.231875,"lon":5.399951,"is_reserved":false,"is_disabled":false,"rental_uris":{"android":"levelo://app?vid=e1442ff3-c767-4bb3-901d-e5f60873ad13","ios":"levelo://app?vid=e1442ff3-c767-4bb3-901d-e5f60873ad13"},"vehicle_type_id":"4","last_reported":1752513124,"current_range_meters":14400,"station_id":"ce4bhn12rcd13ifvqgqg","pricing_plan_id":"cebpf4jnsgd1na2vs0mg"},{"bike_id":"6ac174d4-75c5-4a9c-9699-97cd631c6e65","system_id":"levelo_inurba_marseille","lat":43.25466,"lon":5.39931,"is_reserved":false,"is_disabled":false,"rental_uris":{"android":"levelo://app?vid=6ac174d4-75c5-4a9c-9699-97cd631c6e65","ios":"levelo://app?vid=6ac174d4-75c5-4a9c-9699-97cd631c6e65"},"vehicle_type_id":"4","last_reported":1752513124,"current_range_meters":14400,"station_id":"","pricing_plan_id":"cebpf4jnsgd1na2vs0mg"},{"bike_id":"3aeb38b0-0dee-449a-9141-094a1dcae1f6","system_id":"levelo_inurba_marseille","lat":43.2501,"lon":5.38912,"is_reserved":false,"is_disabled":false,"rental_uris":{"android":"levelo://app?vid=3aeb38b0-0dee-449a-9141-094a1dcae1f6","ios":"levelo://app?vid=3aeb38b0-0dee-449a-9141-094a1dcae1f6"},"vehicle_type_id":"4","last_reported":1752513124,"current_range_meters":14400,"station_id":"ce4bhgp2rcd13ifvqfd0","pricing_plan_id":"cebpf4jnsgd1na2vs0mg"},{"bike_id":"23a0fc67-4c39-4b74-8a86-2903d79b1606","system_id":"levelo_inurba_marseille","lat":43.23187,"lon":5.3555,"is_reserved":false,"is_disabled":false,"rental_uris":{"android":"levelo://app?vid=23a0fc67-4c39-4b74-8a86-2903d79b1606","ios":"levelo://app?vid=23a0fc67-4c39-4b74-8a86-2903d79b1606"},"vehicle_type_id":"4","last_reported":1752513124,"current_range_meters":14400,"station_id":"ce4bhu92rcd13ifvqi70","pricing_plan_id":"cebpf4jnsgd1na2vs0mg"},{"bike_id":"49ce3922-da29-4957-8b24-af01d84e7165","system_id":"levelo_inurba_marseille","lat":43.26197,"lon":5.37449,"is_reserved":false,"is_disabled":false,"rental_uris":{"android":"levelo://app?vid=49ce3922-da29-4957-8b24-af01d84e7165","ios":"levelo://app?vid=49ce3922-da29-4957-8b24-af01d84e7165"},"vehicle_type_id":"4","last_reported":1752513124,"current_range_meters":14400,"station_id":"ce4bhgp2rcd13ifvqfc0","pricing_plan_id":"cebpf4jnsgd1na2vs0mg"},{"bike_id":"febef645-91d1-4c03-baa9-ab84c44cc48c","system_id":"levelo_inurba_marseille","lat":43.29529,"lon":5.39399,"is_reserved":false,"is_disabled":false,"rental_uris":{"android":"levelo://app?vid=febef645-91d1-4c03-baa9-ab84c44cc48c","ios":"levelo://app?vid=febef645-91d1-4c03-baa9-ab84c44cc48c"},"vehicle_type_id":"4","last_reported":1752513124,"current_range_meters":14400,"station_id":"ce4bh292rcd13ifvqdf0","pricing_plan_id":"cebpf4jnsgd1na2vs0mg"},{"bike_id":"ed74f810-226b-4edb-a7d8-2c9a86d071a4","system_id":"levelo_inurba_marseille","lat":43.2119,"lon":5.35055,"is_reserved":false,"is_disabled":false,"rental_uris":{"android":"levelo://app?vid=ed74f810-226b-4edb-a7d8-2c9a86d071a4","ios":"levelo://app?vid=ed74f810-226b-4edb-a7d8-2c9a86d071a4"},"vehicle_type_id":"4","last_reported":1752513124,"current_range_meters":14800,"station_id":"st_cvj6sg6p6f1abm77japg","pricing_plan_id":"cebpf4jnsgd1na2vs0mg"},{"bike_id":"dcecdf37-1aef-4f20-9d03-95dfce84a970","system_id":"levelo_inurba_marseille","lat":43.29157,"lon":5.37155,"is_reserved":false,"is_disabled":false,"rental_uris":{"android":"levelo://app?vid=dcecdf37-1aef-4f20-9d03-95dfce84a970","ios":"levelo://app?vid=dcecdf37-1aef-4f20-9d03-95dfce84a970"},"vehicle_type_id":"4","last_reported":1752513124,"current_range_meters":14800,"station_id":"ce4bha92rcd13ifvqeh0","pricing_plan_id":"cebpf4jnsgd1na2vs0mg"},{"bike_id":"0dc542cb-9ce4-43d1-a3f1-afedab6447f8","system_id":"levelo_inurba_marseille","lat":43.25,"lon":5.38928,"is_reserved":false,"is_disabled":false,"rental_uris":{"android":"levelo://app?vid=0dc542cb-9ce4-43d1-a3f1-afedab6447f8","ios":"levelo://app?vid=0dc542cb-9ce4-43d1-a3f1-afedab6447f8"},"vehicle_type_id":"4","last_reported":1752513124,"current_range_meters":15200,"station_id":"ce4bhgp2rcd13ifvqfd0","pricing_plan_id":"cebpf4jnsgd1na2vs0mg"},{"bike_id":"f9a8beb4-2629-4a21-b5a8-85a7348028cb","system_id":"levelo_inurba_marseille","lat":43.24811,"lon":5.37457,"is_reserved":false,"is_disabled":false,"rental_uris":{"android":"levelo://app?vid=f9a8beb4-2629-4a21-b5a8-85a7348028cb","ios":"levelo://app?vid=f9a8beb4-2629-4a21-b5a8-85a7348028cb"},"vehicle_type_id":"4","last_reported":1752513124,"current_range_meters":15200,"station_id":"ce4bhgh2rcd13ifvqfb0","pricing_plan_id":"cebpf4jnsgd1na2vs0mg"},{"bike_id":"2c5a0a8d-b80f-43a1-91ae-93c8cb7cac46","system_id":"levelo_inurba_marseille","lat":43.290249,"lon":5.381227,"is_reserved":false,"is_disabled":false,"rental_uris":{"android":"levelo://app?vid=2c5a0a8d-b80f-43a1-91ae-93c8cb7cac46","ios":"levelo://app?vid=2c5a0a8d-b80f-43a1-91ae-93c8cb7cac46"},"vehicle_type_id":"4","last_reported":1752513124,"current_range_meters":15200,"station_id":"","pricing_plan_id":"cebpf4jnsgd1na2vs0mg"},{"bike_id":"c8a737ac-524a-479f-b8b0-6c1659ba4737","system_id":"levelo_inurba_marseille","lat":43.2901,"lon":5.35626,"is_reserved":false,"is_disabled":false,"rental_uris":{"android":"levelo://app?vid=c8a737ac-524a-479f-b8b0-6c1659ba4737","ios":"levelo://app?vid=c8a737ac-524a-479f-b8b0-6c1659ba4737"},"vehicle_type_id":"4","last_reported":1752513124,"current_range_meters":15200,"station_id":"ce4bhb92rcd13ifvqen0","pricing_plan_id":"cebpf4jnsgd1na2vs0mg"},{"bike_id":"b6771d12-4d0b-4004-8d85-15a22b02cf35","system_id":"levelo_inurba_marseille","lat":43.2558,"lon":5.38227,"is_reserved":false,"is_disabled":false,"rental_uris":{"android":"levelo://app?vid=b6771d12-4d0b-4004-8d85-15a22b02cf35","ios":"levelo://app?vid=b6771d12-4d0b-4004-8d85-15a22b02cf35"},"vehicle_type_id":"4","last_reported":1752513124,"current_range_meters":15200,"station_id":"ce4bhih2rcd13ifvqfs0","pricing_plan_id":"cebpf4jnsgd1na2vs0mg"},{"bike_id":"62c2a42f-6d72-42cd-9bd7-760a20f37939","system_id":"levelo_inurba_marseille","lat":43.29324,"lon":5.37172,"is_reserved":false,"is_disabled":false,"rental_uris":{"android":"levelo://app?vid=62c2a42f-6d72-42cd-9bd7-760a20f37939","ios":"levelo://app?vid=62c2a42f-6d72-42cd-9bd7-760a20f37939"},"vehicle_type_id":"4","last_reported":1752513124,"current_range_meters":15200,"station_id":"ce4bgh92rcd13ifvqb40","pricing_plan_id":"cebpf4jnsgd1na2vs0mg"},{"bike_id":"a756b3ae-a7c5-435e-a57a-554818d64559","system_id":"levelo_inurba_marseille","lat":43.28102,"lon":5.37852,"is_reserved":false,"is_disabled":false,"rental_uris":{"android":"levelo://app?vid=a756b3ae-a7c5-435e-a57a-554818d64559","ios":"levelo://app?vid=a756b3ae-a7c5-435e-a57a-554818d64559"},"vehicle_type_id":"4","last_reported":1752513124,"current_range_meters":14800,"station_id":"ce4bha12rcd13ifvqee0","pricing_plan_id":"cebpf4jnsgd1na2vs0mg"},{"bike_id":"c4394d8c-8102-4300-bdb5-758262918af2","system_id":"levelo_inurba_marseille","lat":43.3092,"lon":5.4015,"is_reserved":false,"is_disabled":true,"rental_uris":{"android":"levelo://app?vid=c4394d8c-8102-4300-bdb5-758262918af2","ios":"levelo://app?vid=c4394d8c-8102-4300-bdb5-758262918af2"},"vehicle_type_id":"4","last_reported":1752513124,"current_range_meters":16000,"station_id":"ce4bgvp2rcd13ifvqct0","pricing_plan_id":"cebpf4jnsgd1na2vs0mg"},{"bike_id":"5fa858c5-b668-473d-980c-66352519635e","system_id":"levelo_inurba_marseille","lat":43.24109,"lon":5.37738,"is_reserved":false,"is_disabled":false,"rental_uris":{"android":"levelo://app?vid=5fa858c5-b668-473d-980c-66352519635e","ios":"levelo://app?vid=5fa858c5-b668-473d-980c-66352519635e"},"vehicle_type_id":"4","last_reported":1752513124,"current_range_meters":16000,"station_id":"ce4bhnp2rcd13ifvqgvg","pricing_plan_id":"cebpf4jnsgd1na2vs0mg"},{"bike_id":"aff6b8fb-11a6-407f-8b3e-ab74a50f66cb","system_id":"levelo_inurba_marseille","lat":43.23067,"lon":5.35492,"is_reserved":false,"is_disabled":false,"rental_uris":{"android":"levelo://app?vid=aff6b8fb-11a6-407f-8b3e-ab74a50f66cb","ios":"levelo://app?vid=aff6b8fb-11a6-407f-8b3e-ab74a50f66cb"},"vehicle_type_id":"4","last_reported":1752513124,"current_range_meters":16000,"station_id":"cpo3342slgdg3j2ifvpg","pricing_plan_id":"cebpf4jnsgd1na2vs0mg"},{"bike_id":"4b2d88b8-dbfa-40e1-8716-49ea609c9473","system_id":"levelo_inurba_marseille","lat":43.24818,"lon":5.37452,"is_reserved":false,"is_disabled":false,"rental_uris":{"android":"levelo://app?vid=4b2d88b8-dbfa-40e1-8716-49ea609c9473","ios":"levelo://app?vid=4b2d88b8-dbfa-40e1-8716-49ea609c9473"},"vehicle_type_id":"4","last_reported":1752513124,"current_range_meters":16000,"station_id":"ce4bhgh2rcd13ifvqfb0","pricing_plan_id":"cebpf4jnsgd1na2vs0mg"},{"bike_id":"ba67749e-accb-474c-af6a-a7387b1157b9","system_id":"levelo_inurba_marseille","lat":43.24074,"lon":5.37765,"is_reserved":false,"is_disabled":false,"rental_uris":{"android":"levelo://app?vid=ba67749e-accb-474c-af6a-a7387b1157b9","ios":"levelo://app?vid=ba67749e-accb-474c-af6a-a7387b1157b9"},"vehicle_type_id":"4","last_reported":1752513124,"current_range_meters":16000,"station_id":"ce4bhnp2rcd13ifvqgvg","pricing_plan_id":"cebpf4jnsgd1na2vs0mg"},{"bike_id":"96404d04-512d-4e45-b57c-350a79134d38","system_id":"levelo_inurba_marseille","lat":43.21199,"lon":5.35062,"is_reserved":false,"is_disabled":false,"rental_uris":{"android":"levelo://app?vid=96404d04-512d-4e45-b57c-350a79134d38","ios":"levelo://app?vid=96404d04-512d-4e45-b57c-350a79134d38"},"vehicle_type_id":"4","last_reported":1752513124,"current_range_meters":16000,"station_id":"st_cvj6sg6p6f1abm77japg","pricing_plan_id":"cebpf4jnsgd1na2vs0mg"},{"bike_id":"f08d8245-fe1b-4d52-a635-5fbadde43159","system_id":"levelo_inurba_marseille","lat":43.32296,"lon":5.38266,"is_reserved":false,"is_disabled":false,"rental_uris":{"android":"levelo://app?vid=f08d8245-fe1b-4d52-a635-5fbadde43159","ios":"levelo://app?vid=f08d8245-fe1b-4d52-a635-5fbadde43159"},"vehicle_type_id":"4","last_reported":1752513124,"current_range_meters":15200,"station_id":"ce4bhr12rcd13ifvqhqg","pricing_plan_id":"cebpf4jnsgd1na2vs0mg"},{"bike_id":"521e9635-9d9a-4840-bf7a-36b328a35c84","system_id":"levelo_inurba_marseille","lat":43.29711,"lon":5.36607,"is_reserved":false,"is_disabled":false,"rental_uris":{"android":"levelo://app?vid=521e9635-9d9a-4840-bf7a-36b328a35c84","ios":"levelo://app?vid=521e9635-9d9a-4840-bf7a-36b328a35c84"},"vehicle_type_id":"4","last_reported":1752513124,"current_range_meters":16000,"station_id":"ce4bgn12rcd13ifvqbt0","pricing_plan_id":"cebpf4jnsgd1na2vs0mg"},{"bike_id":"fc63a067-9cf2-4c58-bfdd-3270ab1898f2","system_id":"levelo_inurba_marseille","lat":43.229328,"lon":5.353768,"is_reserved":false,"is_disabled":false,"rental_uris":{"android":"levelo://app?vid=fc63a067-9cf2-4c58-bfdd-3270ab1898f2","ios":"levelo://app?vid=fc63a067-9cf2-4c58-bfdd-3270ab1898f2"},"vehicle_type_id":"4","last_reported":1752513124,"current_range_meters":16400,"station_id":"cpo3532slgdg3j2ikp40","pricing_plan_id":"cebpf4jnsgd1na2vs0mg"},{"bike_id":"9c92e8c3-eae0-433f-83be-82b223df05d7","system_id":"levelo_inurba_marseille","lat":43.28493,"lon":5.38536,"is_reserved":false,"is_disabled":false,"rental_uris":{"android":"levelo://app?vid=9c92e8c3-eae0-433f-83be-82b223df05d7","ios":"levelo://app?vid=9c92e8c3-eae0-433f-83be-82b223df05d7"},"vehicle_type_id":"4","last_reported":1752513124,"current_range_meters":16400,"station_id":"ce4bh8p2rcd13ifvqeb0","pricing_plan_id":"cebpf4jnsgd1na2vs0mg"},{"bike_id":"44e10618-e1b8-4569-bc24-980853c4bf04","system_id":"levelo_inurba_marseille","lat":43.22933,"lon":5.35379,"is_reserved":false,"is_disabled":true,"rental_uris":{"android":"levelo://app?vid=44e10618-e1b8-4569-bc24-980853c4bf04","ios":"levelo://app?vid=44e10618-e1b8-4569-bc24-980853c4bf04"},"vehicle_type_id":"4","last_reported":1752513124,"current_range_meters":16400,"station_id":"cpo3532slgdg3j2ikp40","pricing_plan_id":"cebpf4jnsgd1na2vs0mg"},{"bike_id":"b90f0526-6638-4fe1-9c31-1a4804f090b7","system_id":"levelo_inurba_marseille","lat":43.27994,"lon":5.38708,"is_reserved":false,"is_disabled":true,"rental_uris":{"android":"levelo://app?vid=b90f0526-6638-4fe1-9c31-1a4804f090b7","ios":"levelo://app?vid=b90f0526-6638-4fe1-9c31-1a4804f090b7"},"vehicle_type_id":"4","last_reported":1752513124,"current_range_meters":16000,"station_id":"ce4bhg12rcd13ifvqf80","pricing_plan_id":"cebpf4jnsgd1na2vs0mg"},{"bike_id":"d0f90c24-dd03-411b-9731-55305f76b7c8","system_id":"levelo_inurba_marseille","lat":43.21185,"lon":5.35074,"is_reserved":false,"is_disabled":false,"rental_uris":{"android":"levelo://app?vid=d0f90c24-dd03-411b-9731-55305f76b7c8","ios":"levelo://app?vid=d0f90c24-dd03-411b-9731-55305f76b7c8"},"vehicle_type_id":"4","last_reported":1752513124,"current_range_meters":16400,"station_id":"st_cvj6sg6p6f1abm77japg","pricing_plan_id":"cebpf4jnsgd1na2vs0mg"},{"bike_id":"23bd6792-7a07-47c2-925b-fc5bf8eb0083","system_id":"levelo_inurba_marseille","lat":43.24821,"lon":5.37443,"is_reserved":false,"is_disabled":false,"rental_uris":{"android":"levelo://app?vid=23bd6792-7a07-47c2-925b-fc5bf8eb0083","ios":"levelo://app?vid=23bd6792-7a07-47c2-925b-fc5bf8eb0083"},"vehicle_type_id":"4","last_reported":1752513124,"current_range_meters":16400,"station_id":"ce4bhgh2rcd13ifvqfb0","pricing_plan_id":"cebpf4jnsgd1na2vs0mg"},{"bike_id":"3e9e8c3d-5f1f-4564-a4c4-86972c2dd72f","system_id":"levelo_inurba_marseille","lat":43.27634,"lon":5.36102,"is_reserved":false,"is_disabled":false,"rental_uris":{"android":"levelo://app?vid=3e9e8c3d-5f1f-4564-a4c4-86972c2dd72f","ios":"levelo://app?vid=3e9e8c3d-5f1f-4564-a4c4-86972c2dd72f"},"vehicle_type_id":"4","last_reported":1752513124,"current_range_meters":16400,"station_id":"ce4bgj92rcd13ifvqbe0","pricing_plan_id":"cebpf4jnsgd1na2vs0mg"},{"bike_id":"70dcc206-4dc0-4cb0-8050-3c672a0219c0","system_id":"levelo_inurba_marseille","lat":43.3036,"lon":5.42487,"is_reserved":false,"is_disabled":false,"rental_uris":{"android":"levelo://app?vid=70dcc206-4dc0-4cb0-8050-3c672a0219c0","ios":"levelo://app?vid=70dcc206-4dc0-4cb0-8050-3c672a0219c0"},"vehicle_type_id":"4","last_reported":1752513124,"current_range_meters":16400,"station_id":"ce4bhoh2rcd13ifvqh6g","pricing_plan_id":"cebpf4jnsgd1na2vs0mg"},{"bike_id":"e0b88937-0cb8-4374-8110-357b6a1974b9","system_id":"levelo_inurba_marseille","lat":43.24085,"lon":5.37744,"is_reserved":false,"is_disabled":false,"rental_uris":{"android":"levelo://app?vid=e0b88937-0cb8-4374-8110-357b6a1974b9","ios":"levelo://app?vid=e0b88937-0cb8-4374-8110-357b6a1974b9"},"vehicle_type_id":"4","last_reported":1752513124,"current_range_meters":16400,"station_id":"ce4bhnp2rcd13ifvqgvg","pricing_plan_id":"cebpf4jnsgd1na2vs0mg"},{"bike_id":"edb1306a-3e7f-4b1f-a66f-3b31cf28f000","system_id":"levelo_inurba_marseille","lat":43.2738,"lon":5.36227,"is_reserved":false,"is_disabled":false,"rental_uris":{"android":"levelo://app?vid=edb1306a-3e7f-4b1f-a66f-3b31cf28f000","ios":"levelo://app?vid=edb1306a-3e7f-4b1f-a66f-3b31cf28f000"},"vehicle_type_id":"4","last_reported":1752513124,"current_range_meters":16400,"station_id":"ce4bhbh2rcd13ifvqeo0","pricing_plan_id":"cebpf4jnsgd1na2vs0mg"},{"bike_id":"3e2f704a-f6ab-43ee-96b1-f5b453df024a","system_id":"levelo_inurba_marseille","lat":43.28269,"lon":5.35066,"is_reserved":false,"is_disabled":false,"rental_uris":{"android":"levelo://app?vid=3e2f704a-f6ab-43ee-96b1-f5b453df024a","ios":"levelo://app?vid=3e2f704a-f6ab-43ee-96b1-f5b453df024a"},"vehicle_type_id":"4","last_reported":1752513124,"current_range_meters":16000,"station_id":"ce4bhbp2rcd13ifvqerg","pricing_plan_id":"cebpf4jnsgd1na2vs0mg"},{"bike_id":"403880bc-8bea-46f6-8a81-b7f6860118ac","system_id":"levelo_inurba_marseille","lat":43.29232,"lon":5.38446,"is_reserved":false,"is_disabled":true,"rental_uris":{"android":"levelo://app?vid=403880bc-8bea-46f6-8a81-b7f6860118ac","ios":"levelo://app?vid=403880bc-8bea-46f6-8a81-b7f6860118ac"},"vehicle_type_id":"4","last_reported":1752513124,"current_range_meters":16400,"station_id":"ce4bh692rcd13ifvqea0","pricing_plan_id":"cebpf4jnsgd1na2vs0mg"},{"bike_id":"703633e7-07cb-44fb-a926-f73ebc3811da","system_id":"levelo_inurba_marseille","lat":43.287081,"lon":5.37386,"is_reserved":false,"is_disabled":false,"rental_uris":{"android":"levelo://app?vid=703633e7-07cb-44fb-a926-f73ebc3811da","ios":"levelo://app?vid=703633e7-07cb-44fb-a926-f73ebc3811da"},"vehicle_type_id":"4","last_reported":1752513124,"current_range_meters":16800,"station_id":"ce4bh3p2rcd13ifvqdq0","pricing_plan_id":"cebpf4jnsgd1na2vs0mg"},{"bike_id":"6edd1d4a-7c30-47b0-b186-7237c8c57ead","system_id":"levelo_inurba_marseille","lat":43.29535,"lon":5.38543,"is_reserved":false,"is_disabled":false,"rental_uris":{"android":"levelo://app?vid=6edd1d4a-7c30-47b0-b186-7237c8c57ead","ios":"levelo://app?vid=6edd1d4a-7c30-47b0-b186-7237c8c57ead"},"vehicle_type_id":"4","last_reported":1752513124,"current_range_meters":16800,"station_id":"ce4bgih2rcd13ifvqba0","pricing_plan_id":"cebpf4jnsgd1na2vs0mg"},{"bike_id":"9034cd32-6cea-4ae6-a7d7-cceecd32b7fd","system_id":"levelo_inurba_marseille","lat":43.29964,"lon":5.38499,"is_reserved":false,"is_disabled":false,"rental_uris":{"android":"levelo://app?vid=9034cd32-6cea-4ae6-a7d7-cceecd32b7fd","ios":"levelo://app?vid=9034cd32-6cea-4ae6-a7d7-cceecd32b7fd"},"vehicle_type_id":"4","last_reported":1752513124,"current_range_meters":16800,"station_id":"ce4bgj92rcd13ifvqbd0","pricing_plan_id":"cebpf4jnsgd1na2vs0mg"},{"bike_id":"38014cf0-bc2e-4af9-803f-dd82d570b627","system_id":"levelo_inurba_marseille","lat":43.29539,"lon":5.38544,"is_reserved":false,"is_disabled":false,"rental_uris":{"android":"levelo://app?vid=38014cf0-bc2e-4af9-803f-dd82d570b627","ios":"levelo://app?vid=38014cf0-bc2e-4af9-803f-dd82d570b627"},"vehicle_type_id":"4","last_reported":1752513124,"current_range_meters":16800,"station_id":"ce4bgih2rcd13ifvqba0","pricing_plan_id":"cebpf4jnsgd1na2vs0mg"},{"bike_id":"748dcd09-5bac-4b9e-8288-5664e9a42389","system_id":"levelo_inurba_marseille","lat":43.28614,"lon":5.37049,"is_reserved":false,"is_disabled":false,"rental_uris":{"android":"levelo://app?vid=748dcd09-5bac-4b9e-8288-5664e9a42389","ios":"levelo://app?vid=748dcd09-5bac-4b9e-8288-5664e9a42389"},"vehicle_type_id":"4","last_reported":1752513124,"current_range_meters":16800,"station_id":"ce4bht12rcd13ifvqi60","pricing_plan_id":"cebpf4jnsgd1na2vs0mg"},{"bike_id":"b3fc7ae6-0e56-4b4b-b69c-8c81c571c546","system_id":"levelo_inurba_marseille","lat":43.292623,"lon":5.376359,"is_reserved":false,"is_disabled":false,"rental_uris":{"android":"levelo://app?vid=b3fc7ae6-0e56-4b4b-b69c-8c81c571c546","ios":"levelo://app?vid=b3fc7ae6-0e56-4b4b-b69c-8c81c571c546"},"vehicle_type_id":"4","last_reported":1752513124,"current_range_meters":16800,"station_id":"ce4bgi12rcd13ifvqb80","pricing_plan_id":"cebpf4jnsgd1na2vs0mg"},{"bike_id":"6c6d4d9a-6141-481c-9c1a-8e61054bdc43","system_id":"levelo_inurba_marseille","lat":43.24789,"lon":5.41855,"is_reserved":false,"is_disabled":false,"rental_uris":{"android":"levelo://app?vid=6c6d4d9a-6141-481c-9c1a-8e61054bdc43","ios":"levelo://app?vid=6c6d4d9a-6141-481c-9c1a-8e61054bdc43"},"vehicle_type_id":"4","last_reported":1752513124,"current_range_meters":16800,"station_id":"","pricing_plan_id":"cebpf4jnsgd1na2vs0mg"},{"bike_id":"f10941ce-d19a-4475-b0ba-1c38d332727e","system_id":"levelo_inurba_marseille","lat":43.321346,"lon":5.38733,"is_reserved":false,"is_disabled":false,"rental_uris":{"android":"levelo://app?vid=f10941ce-d19a-4475-b0ba-1c38d332727e","ios":"levelo://app?vid=f10941ce-d19a-4475-b0ba-1c38d332727e"},"vehicle_type_id":"4","last_reported":1752513124,"current_range_meters":16800,"station_id":"","pricing_plan_id":"cebpf4jnsgd1na2vs0mg"},{"bike_id":"aed0031e-2203-4a00-aceb-23dedfc4523f","system_id":"levelo_inurba_marseille","lat":43.26244,"lon":5.37389,"is_reserved":false,"is_disabled":false,"rental_uris":{"android":"levelo://app?vid=aed0031e-2203-4a00-aceb-23dedfc4523f","ios":"levelo://app?vid=aed0031e-2203-4a00-aceb-23dedfc4523f"},"vehicle_type_id":"4","last_reported":1752513124,"current_range_meters":16800,"station_id":"ce4bhgp2rcd13ifvqfc0","pricing_plan_id":"cebpf4jnsgd1na2vs0mg"},{"bike_id":"5c604cee-8163-4508-b1f3-ec8c5d644770","system_id":"levelo_inurba_marseille","lat":43.231925,"lon":5.355599,"is_reserved":false,"is_disabled":false,"rental_uris":{"android":"levelo://app?vid=5c604cee-8163-4508-b1f3-ec8c5d644770","ios":"levelo://app?vid=5c604cee-8163-4508-b1f3-ec8c5d644770"},"vehicle_type_id":"4","last_reported":1752513124,"current_range_meters":16800,"station_id":"ce4bhu92rcd13ifvqi70","pricing_plan_id":"cebpf4jnsgd1na2vs0mg"},{"bike_id":"48a72147-d63a-4fad-9403-9184689656c8","system_id":"levelo_inurba_marseille","lat":43.24395,"lon":5.37057,"is_reserved":false,"is_disabled":true,"rental_uris":{"android":"levelo://app?vid=48a72147-d63a-4fad-9403-9184689656c8","ios":"levelo://app?vid=48a72147-d63a-4fad-9403-9184689656c8"},"vehicle_type_id":"4","last_reported":1752513124,"current_range_meters":16800,"station_id":"ce4bhhh2rcd13ifvqfk0","pricing_plan_id":"cebpf4jnsgd1na2vs0mg"},{"bike_id":"ebe207db-3b73-41df-8062-12660a537ec2","system_id":"levelo_inurba_marseille","lat":43.30616,"lon":5.3722,"is_reserved":false,"is_disabled":false,"rental_uris":{"android":"levelo://app?vid=ebe207db-3b73-41df-8062-12660a537ec2","ios":"levelo://app?vid=ebe207db-3b73-41df-8062-12660a537ec2"},"vehicle_type_id":"4","last_reported":1752513124,"current_range_meters":16800,"station_id":"ce4bgqh2rcd13ifvqc4g","pricing_plan_id":"cebpf4jnsgd1na2vs0mg"},{"bike_id":"7a997004-de11-4205-981f-9f83648e5c93","system_id":"levelo_inurba_marseille","lat":43.32536,"lon":5.41439,"is_reserved":false,"is_disabled":false,"rental_uris":{"android":"levelo://app?vid=7a997004-de11-4205-981f-9f83648e5c93","ios":"levelo://app?vid=7a997004-de11-4205-981f-9f83648e5c93"},"vehicle_type_id":"4","last_reported":1752513124,"current_range_meters":16400,"station_id":"ce4bhq12rcd13ifvqhhg","pricing_plan_id":"cebpf4jnsgd1na2vs0mg"},{"bike_id":"e64c674b-2182-4d91-8d3d-a189a17d4342","system_id":"levelo_inurba_marseille","lat":43.23201,"lon":5.39975,"is_reserved":false,"is_disabled":false,"rental_uris":{"android":"levelo://app?vid=e64c674b-2182-4d91-8d3d-a189a17d4342","ios":"levelo://app?vid=e64c674b-2182-4d91-8d3d-a189a17d4342"},"vehicle_type_id":"4","last_reported":1752513124,"current_range_meters":17200,"station_id":"ce4bhn12rcd13ifvqgqg","pricing_plan_id":"cebpf4jnsgd1na2vs0mg"},{"bike_id":"def3d27f-26a3-4eb1-a992-b40bce4396e0","system_id":"levelo_inurba_marseille","lat":43.21731,"lon":5.34609,"is_reserved":false,"is_disabled":false,"rental_uris":{"android":"levelo://app?vid=def3d27f-26a3-4eb1-a992-b40bce4396e0","ios":"levelo://app?vid=def3d27f-26a3-4eb1-a992-b40bce4396e0"},"vehicle_type_id":"4","last_reported":1752513124,"current_range_meters":17200,"station_id":"st_cvj6r9ubvosntc0bgbag","pricing_plan_id":"cebpf4jnsgd1na2vs0mg"},{"bike_id":"96ed74ba-f19a-4585-9e69-166e23403ece","system_id":"levelo_inurba_marseille","lat":43.254894,"lon":5.376529,"is_reserved":false,"is_disabled":false,"rental_uris":{"android":"levelo://app?vid=96ed74ba-f19a-4585-9e69-166e23403ece","ios":"levelo://app?vid=96ed74ba-f19a-4585-9e69-166e23403ece"},"vehicle_type_id":"4","last_reported":1752513124,"current_range_meters":17200,"station_id":"ce4bhh12rcd13ifvqff0","pricing_plan_id":"cebpf4jnsgd1na2vs0mg"},{"bike_id":"5cc45ddf-9a9c-4df7-9020-36a75a07be65","system_id":"levelo_inurba_marseille","lat":43.229143,"lon":5.353747,"is_reserved":false,"is_disabled":false,"rental_uris":{"android":"levelo://app?vid=5cc45ddf-9a9c-4df7-9020-36a75a07be65","ios":"levelo://app?vid=5cc45ddf-9a9c-4df7-9020-36a75a07be65"},"vehicle_type_id":"4","last_reported":1752513124,"current_range_meters":17200,"station_id":"cpo3532slgdg3j2ikp40","pricing_plan_id":"cebpf4jnsgd1na2vs0mg"},{"bike_id":"cad33bd1-20cc-417e-836f-06c340fcfaeb","system_id":"levelo_inurba_marseille","lat":43.28454,"lon":5.35891,"is_reserved":false,"is_disabled":false,"rental_uris":{"android":"levelo://app?vid=cad33bd1-20cc-417e-836f-06c340fcfaeb","ios":"levelo://app?vid=cad33bd1-20cc-417e-836f-06c340fcfaeb"},"vehicle_type_id":"4","last_reported":1752513124,"current_range_meters":17200,"station_id":"ce4bhah2rcd13ifvqei0","pricing_plan_id":"cebpf4jnsgd1na2vs0mg"},{"bike_id":"2f9043b4-5875-4794-a682-a6a782090c68","system_id":"levelo_inurba_marseille","lat":43.23196,"lon":5.35556,"is_reserved":false,"is_disabled":false,"rental_uris":{"android":"levelo://app?vid=2f9043b4-5875-4794-a682-a6a782090c68","ios":"levelo://app?vid=2f9043b4-5875-4794-a682-a6a782090c68"},"vehicle_type_id":"4","last_reported":1752513124,"current_range_meters":17200,"station_id":"ce4bhu92rcd13ifvqi70","pricing_plan_id":"cebpf4jnsgd1na2vs0mg"},{"bike_id":"c3eb31c9-e106-4cd2-bb91-f2d0ee3e7a6f","system_id":"levelo_inurba_marseille","lat":43.24037,"lon":5.36231,"is_reserved":false,"is_disabled":false,"rental_uris":{"android":"levelo://app?vid=c3eb31c9-e106-4cd2-bb91-f2d0ee3e7a6f","ios":"levelo://app?vid=c3eb31c9-e106-4cd2-bb91-f2d0ee3e7a6f"},"vehicle_type_id":"4","last_reported":1752513124,"current_range_meters":17200,"station_id":"","pricing_plan_id":"cebpf4jnsgd1na2vs0mg"},{"bike_id":"6a7e7232-3b9f-430e-8ed6-f054cc13d071","system_id":"levelo_inurba_marseille","lat":43.22932,"lon":5.35376,"is_reserved":false,"is_disabled":false,"rental_uris":{"android":"levelo://app?vid=6a7e7232-3b9f-430e-8ed6-f054cc13d071","ios":"levelo://app?vid=6a7e7232-3b9f-430e-8ed6-f054cc13d071"},"vehicle_type_id":"4","last_reported":1752513124,"current_range_meters":17200,"station_id":"cpo3532slgdg3j2ikp40","pricing_plan_id":"cebpf4jnsgd1na2vs0mg"},{"bike_id":"3136c85f-67b9-4a05-be1d-e9d6c1ac4138","system_id":"levelo_inurba_marseille","lat":43.282457,"lon":5.385823,"is_reserved":false,"is_disabled":false,"rental_uris":{"android":"levelo://app?vid=3136c85f-67b9-4a05-be1d-e9d6c1ac4138","ios":"levelo://app?vid=3136c85f-67b9-4a05-be1d-e9d6c1ac4138"},"vehicle_type_id":"4","last_reported":1752513124,"current_range_meters":17600,"station_id":"","pricing_plan_id":"cebpf4jnsgd1na2vs0mg"},{"bike_id":"01beb3f2-c54f-4f68-af15-b28ae7c75196","system_id":"levelo_inurba_marseille","lat":43.30151,"lon":5.39887,"is_reserved":false,"is_disabled":true,"rental_uris":{"android":"levelo://app?vid=01beb3f2-c54f-4f68-af15-b28ae7c75196","ios":"levelo://app?vid=01beb3f2-c54f-4f68-af15-b28ae7c75196"},"vehicle_type_id":"4","last_reported":1752513124,"current_range_meters":17600,"station_id":"ce4bh0h2rcd13ifvqd40","pricing_plan_id":"cebpf4jnsgd1na2vs0mg"},{"bike_id":"9ec7ded0-07a0-4052-88cd-c68cfaa8fdd7","system_id":"levelo_inurba_marseille","lat":43.21774,"lon":5.34569,"is_reserved":false,"is_disabled":false,"rental_uris":{"android":"levelo://app?vid=9ec7ded0-07a0-4052-88cd-c68cfaa8fdd7","ios":"levelo://app?vid=9ec7ded0-07a0-4052-88cd-c68cfaa8fdd7"},"vehicle_type_id":"4","last_reported":1752513124,"current_range_meters":17600,"station_id":"st_cvj6r9ubvosntc0bgbag","pricing_plan_id":"cebpf4jnsgd1na2vs0mg"},{"bike_id":"5b79497d-499a-4c6a-bcb6-275adb49dba6","system_id":"levelo_inurba_marseille","lat":43.29324,"lon":5.37171,"is_reserved":false,"is_disabled":false,"rental_uris":{"android":"levelo://app?vid=5b79497d-499a-4c6a-bcb6-275adb49dba6","ios":"levelo://app?vid=5b79497d-499a-4c6a-bcb6-275adb49dba6"},"vehicle_type_id":"4","last_reported":1752513124,"current_range_meters":17600,"station_id":"ce4bgh92rcd13ifvqb40","pricing_plan_id":"cebpf4jnsgd1na2vs0mg"},{"bike_id":"35ec537b-0115-4834-aecd-d85652f26788","system_id":"levelo_inurba_marseille","lat":43.286048,"lon":5.370539,"is_reserved":false,"is_disabled":false,"rental_uris":{"android":"levelo://app?vid=35ec537b-0115-4834-aecd-d85652f26788","ios":"levelo://app?vid=35ec537b-0115-4834-aecd-d85652f26788"},"vehicle_type_id":"4","last_reported":1752513124,"current_range_meters":17600,"station_id":"ce4bht12rcd13ifvqi60","pricing_plan_id":"cebpf4jnsgd1na2vs0mg"},{"bike_id":"5ca4030b-b9a4-4363-8de4-bdb2e07ab9d9","system_id":"levelo_inurba_marseille","lat":43.265996,"lon":5.394733,"is_reserved":false,"is_disabled":false,"rental_uris":{"android":"levelo://app?vid=5ca4030b-b9a4-4363-8de4-bdb2e07ab9d9","ios":"levelo://app?vid=5ca4030b-b9a4-4363-8de4-bdb2e07ab9d9"},"vehicle_type_id":"4","last_reported":1752513124,"current_range_meters":17600,"station_id":"ce4bhlh2rcd13ifvqgig","pricing_plan_id":"cebpf4jnsgd1na2vs0mg"},{"bike_id":"24b30211-a2ac-4c4d-bed0-fb19fad5a2f4","system_id":"levelo_inurba_marseille","lat":43.29051,"lon":5.38672,"is_reserved":false,"is_disabled":false,"rental_uris":{"android":"levelo://app?vid=24b30211-a2ac-4c4d-bed0-fb19fad5a2f4","ios":"levelo://app?vid=24b30211-a2ac-4c4d-bed0-fb19fad5a2f4"},"vehicle_type_id":"4","last_reported":1752513124,"current_range_meters":18000,"station_id":"ce4bh4p2rcd13ifvqe0g","pricing_plan_id":"cebpf4jnsgd1na2vs0mg"},{"bike_id":"48f704eb-24ae-4729-a219-1cf6419077a1","system_id":"levelo_inurba_marseille","lat":43.29678,"lon":5.37305,"is_reserved":false,"is_disabled":false,"rental_uris":{"android":"levelo://app?vid=48f704eb-24ae-4729-a219-1cf6419077a1","ios":"levelo://app?vid=48f704eb-24ae-4729-a219-1cf6419077a1"},"vehicle_type_id":"4","last_reported":1752513124,"current_range_meters":18000,"station_id":"ce4bgk12rcd13ifvqbj0","pricing_plan_id":"cebpf4jnsgd1na2vs0mg"},{"bike_id":"2caeff50-7e7e-45d8-8384-31b4758be230","system_id":"levelo_inurba_marseille","lat":43.29714,"lon":5.36596,"is_reserved":false,"is_disabled":false,"rental_uris":{"android":"levelo://app?vid=2caeff50-7e7e-45d8-8384-31b4758be230","ios":"levelo://app?vid=2caeff50-7e7e-45d8-8384-31b4758be230"},"vehicle_type_id":"4","last_reported":1752513124,"current_range_meters":18000,"station_id":"ce4bgn12rcd13ifvqbt0","pricing_plan_id":"cebpf4jnsgd1na2vs0mg"},{"bike_id":"dbb6bfcf-6c6a-4b86-b0d5-2f4c7ff92d5c","system_id":"levelo_inurba_marseille","lat":43.2828,"lon":5.35073,"is_reserved":false,"is_disabled":false,"rental_uris":{"android":"levelo://app?vid=dbb6bfcf-6c6a-4b86-b0d5-2f4c7ff92d5c","ios":"levelo://app?vid=dbb6bfcf-6c6a-4b86-b0d5-2f4c7ff92d5c"},"vehicle_type_id":"4","last_reported":1752513124,"current_range_meters":18000,"station_id":"ce4bhbp2rcd13ifvqerg","pricing_plan_id":"cebpf4jnsgd1na2vs0mg"},{"bike_id":"8577aaca-7915-49c3-b3eb-bc84fe946baf","system_id":"levelo_inurba_marseille","lat":43.27575,"lon":5.41677,"is_reserved":false,"is_disabled":false,"rental_uris":{"android":"levelo://app?vid=8577aaca-7915-49c3-b3eb-bc84fe946baf","ios":"levelo://app?vid=8577aaca-7915-49c3-b3eb-bc84fe946baf"},"vehicle_type_id":"4","last_reported":1752513124,"current_range_meters":18000,"station_id":"","pricing_plan_id":"cebpf4jnsgd1na2vs0mg"},{"bike_id":"489e603b-6303-4c5a-a3da-d47c39cd6b15","system_id":"levelo_inurba_marseille","lat":43.21764,"lon":5.34577,"is_reserved":false,"is_disabled":false,"rental_uris":{"android":"levelo://app?vid=489e603b-6303-4c5a-a3da-d47c39cd6b15","ios":"levelo://app?vid=489e603b-6303-4c5a-a3da-d47c39cd6b15"},"vehicle_type_id":"4","last_reported":1752513124,"current_range_meters":18000,"station_id":"st_cvj6r9ubvosntc0bgbag","pricing_plan_id":"cebpf4jnsgd1na2vs0mg"},{"bike_id":"f2052e77-2392-4735-a8f6-84f745fd6486","system_id":"levelo_inurba_marseille","lat":43.2738,"lon":5.3624,"is_reserved":false,"is_disabled":false,"rental_uris":{"android":"levelo://app?vid=f2052e77-2392-4735-a8f6-84f745fd6486","ios":"levelo://app?vid=f2052e77-2392-4735-a8f6-84f745fd6486"},"vehicle_type_id":"4","last_reported":1752513124,"current_range_meters":18000,"station_id":"ce4bhbh2rcd13ifvqeo0","pricing_plan_id":"cebpf4jnsgd1na2vs0mg"},{"bike_id":"949cac28-1e79-45e2-a946-5e224b739cae","system_id":"levelo_inurba_marseille","lat":43.24195,"lon":5.3637,"is_reserved":false,"is_disabled":false,"rental_uris":{"android":"levelo://app?vid=949cac28-1e79-45e2-a946-5e224b739cae","ios":"levelo://app?vid=949cac28-1e79-45e2-a946-5e224b739cae"},"vehicle_type_id":"4","last_reported":1752513124,"current_range_meters":18000,"station_id":"cpo36qri1sfpv3e86is0","pricing_plan_id":"cebpf4jnsgd1na2vs0mg"},{"bike_id":"cd700f17-9c20-4b8c-b060-5a541f4a78ef","system_id":"levelo_inurba_marseille","lat":43.24168,"lon":5.36395,"is_reserved":false,"is_disabled":false,"rental_uris":{"android":"levelo://app?vid=cd700f17-9c20-4b8c-b060-5a541f4a78ef","ios":"levelo://app?vid=cd700f17-9c20-4b8c-b060-5a541f4a78ef"},"vehicle_type_id":"4","last_reported":1752513124,"current_range_meters":18000,"station_id":"cpo36qri1sfpv3e86is0","pricing_plan_id":"cebpf4jnsgd1na2vs0mg"},{"bike_id":"bc01775b-e496-4423-90ac-0cb22b6b4b16","system_id":"levelo_inurba_marseille","lat":43.27378,"lon":5.36239,"is_reserved":false,"is_disabled":false,"rental_uris":{"android":"levelo://app?vid=bc01775b-e496-4423-90ac-0cb22b6b4b16","ios":"levelo://app?vid=bc01775b-e496-4423-90ac-0cb22b6b4b16"},"vehicle_type_id":"4","last_reported":1752513124,"current_range_meters":18000,"station_id":"ce4bhbh2rcd13ifvqeo0","pricing_plan_id":"cebpf4jnsgd1na2vs0mg"},{"bike_id":"4148a887-6559-4a99-b587-5325022fc743","system_id":"levelo_inurba_marseille","lat":43.313826,"lon":5.385615,"is_reserved":false,"is_disabled":false,"rental_uris":{"android":"levelo://app?vid=4148a887-6559-4a99-b587-5325022fc743","ios":"levelo://app?vid=4148a887-6559-4a99-b587-5325022fc743"},"vehicle_type_id":"4","last_reported":1752513124,"current_range_meters":18000,"station_id":"ce4bgt92rcd13ifvqcf0","pricing_plan_id":"cebpf4jnsgd1na2vs0mg"},{"bike_id":"43120b77-362f-4d12-a05e-f7519a97d6ce","system_id":"levelo_inurba_marseille","lat":43.24814,"lon":5.37456,"is_reserved":false,"is_disabled":false,"rental_uris":{"android":"levelo://app?vid=43120b77-362f-4d12-a05e-f7519a97d6ce","ios":"levelo://app?vid=43120b77-362f-4d12-a05e-f7519a97d6ce"},"vehicle_type_id":"4","last_reported":1752513124,"current_range_meters":18000,"station_id":"ce4bhgh2rcd13ifvqfb0","pricing_plan_id":"cebpf4jnsgd1na2vs0mg"},{"bike_id":"f9ffbb8e-e3da-4f67-ac8d-dd71d14a5b5b","system_id":"levelo_inurba_marseille","lat":43.232,"lon":5.3996,"is_reserved":false,"is_disabled":false,"rental_uris":{"android":"levelo://app?vid=f9ffbb8e-e3da-4f67-ac8d-dd71d14a5b5b","ios":"levelo://app?vid=f9ffbb8e-e3da-4f67-ac8d-dd71d14a5b5b"},"vehicle_type_id":"4","last_reported":1752513124,"current_range_meters":18000,"station_id":"ce4bhn12rcd13ifvqgqg","pricing_plan_id":"cebpf4jnsgd1na2vs0mg"},{"bike_id":"6b6619c5-6cd2-4092-aacb-23aa7b5e47c6","system_id":"levelo_inurba_marseille","lat":43.24168,"lon":5.364008,"is_reserved":false,"is_disabled":false,"rental_uris":{"android":"levelo://app?vid=6b6619c5-6cd2-4092-aacb-23aa7b5e47c6","ios":"levelo://app?vid=6b6619c5-6cd2-4092-aacb-23aa7b5e47c6"},"vehicle_type_id":"4","last_reported":1752513124,"current_range_meters":18000,"station_id":"cpo36qri1sfpv3e86is0","pricing_plan_id":"cebpf4jnsgd1na2vs0mg"},{"bike_id":"d7159adf-94a3-498c-948b-458c9b026277","system_id":"levelo_inurba_marseille","lat":43.225036,"lon":5.347845,"is_reserved":false,"is_disabled":false,"rental_uris":{"android":"levelo://app?vid=d7159adf-94a3-498c-948b-458c9b026277","ios":"levelo://app?vid=d7159adf-94a3-498c-948b-458c9b026277"},"vehicle_type_id":"4","last_reported":1752513124,"current_range_meters":18000,"station_id":"","pricing_plan_id":"cebpf4jnsgd1na2vs0mg"},{"bike_id":"5f9d5a37-2da9-4f56-92f1-b9435ec06b03","system_id":"levelo_inurba_marseille","lat":43.29252,"lon":5.38452,"is_reserved":false,"is_disabled":false,"rental_uris":{"android":"levelo://app?vid=5f9d5a37-2da9-4f56-92f1-b9435ec06b03","ios":"levelo://app?vid=5f9d5a37-2da9-4f56-92f1-b9435ec06b03"},"vehicle_type_id":"4","last_reported":1752513124,"current_range_meters":18000,"station_id":"ce4bh692rcd13ifvqea0","pricing_plan_id":"cebpf4jnsgd1na2vs0mg"},{"bike_id":"903197e4-3da2-471b-9537-d88bae7e31c4","system_id":"levelo_inurba_marseille","lat":43.26514,"lon":5.39543,"is_reserved":false,"is_disabled":true,"rental_uris":{"android":"levelo://app?vid=903197e4-3da2-471b-9537-d88bae7e31c4","ios":"levelo://app?vid=903197e4-3da2-471b-9537-d88bae7e31c4"},"vehicle_type_id":"4","last_reported":1752513124,"current_range_meters":18800,"station_id":"ce4bhi12rcd13ifvqfq0","pricing_plan_id":"cebpf4jnsgd1na2vs0mg"},{"bike_id":"c256f7b7-3339-4718-979f-7325b00a4f62","system_id":"levelo_inurba_marseille","lat":43.31742,"lon":5.42378,"is_reserved":false,"is_disabled":false,"rental_uris":{"android":"levelo://app?vid=c256f7b7-3339-4718-979f-7325b00a4f62","ios":"levelo://app?vid=c256f7b7-3339-4718-979f-7325b00a4f62"},"vehicle_type_id":"4","last_reported":1752513124,"current_range_meters":18000,"station_id":"ce4bhp92rcd13ifvqhbg","pricing_plan_id":"cebpf4jnsgd1na2vs0mg"},{"bike_id":"7a085a0d-15ab-4c92-b39d-394857765e56","system_id":"levelo_inurba_marseille","lat":43.27968,"lon":5.38752,"is_reserved":false,"is_disabled":false,"rental_uris":{"android":"levelo://app?vid=7a085a0d-15ab-4c92-b39d-394857765e56","ios":"levelo://app?vid=7a085a0d-15ab-4c92-b39d-394857765e56"},"vehicle_type_id":"4","last_reported":1752513124,"current_range_meters":18800,"station_id":"ce4bhg12rcd13ifvqf80","pricing_plan_id":"cebpf4jnsgd1na2vs0mg"},{"bike_id":"26a3b709-8f2c-43ff-85df-8e9e33187ec8","system_id":"levelo_inurba_marseille","lat":43.31542,"lon":5.38026,"is_reserved":false,"is_disabled":false,"rental_uris":{"android":"levelo://app?vid=26a3b709-8f2c-43ff-85df-8e9e33187ec8","ios":"levelo://app?vid=26a3b709-8f2c-43ff-85df-8e9e33187ec8"},"vehicle_type_id":"4","last_reported":1752513124,"current_range_meters":18800,"station_id":"ce4bhsp2rcd13ifvqi50","pricing_plan_id":"cebpf4jnsgd1na2vs0mg"},{"bike_id":"7bce7a34-5113-458d-9330-3d00164f4612","system_id":"levelo_inurba_marseille","lat":43.211897,"lon":5.350739,"is_reserved":false,"is_disabled":false,"rental_uris":{"android":"levelo://app?vid=7bce7a34-5113-458d-9330-3d00164f4612","ios":"levelo://app?vid=7bce7a34-5113-458d-9330-3d00164f4612"},"vehicle_type_id":"4","last_reported":1752513124,"current_range_meters":18800,"station_id":"st_cvj6sg6p6f1abm77japg","pricing_plan_id":"cebpf4jnsgd1na2vs0mg"},{"bike_id":"ecdba6df-9345-4ab2-9964-4734eb69d988","system_id":"levelo_inurba_marseille","lat":43.29092,"lon":5.38136,"is_reserved":false,"is_disabled":false,"rental_uris":{"android":"levelo://app?vid=ecdba6df-9345-4ab2-9964-4734eb69d988","ios":"levelo://app?vid=ecdba6df-9345-4ab2-9964-4734eb69d988"},"vehicle_type_id":"4","last_reported":1752513124,"current_range_meters":18800,"station_id":"ce4bh512rcd13ifvqe2g","pricing_plan_id":"cebpf4jnsgd1na2vs0mg"},{"bike_id":"57e2a7da-8b32-4c9e-8d9e-93d74a2ee729","system_id":"levelo_inurba_marseille","lat":43.292634,"lon":5.384339,"is_reserved":false,"is_disabled":false,"rental_uris":{"android":"levelo://app?vid=57e2a7da-8b32-4c9e-8d9e-93d74a2ee729","ios":"levelo://app?vid=57e2a7da-8b32-4c9e-8d9e-93d74a2ee729"},"vehicle_type_id":"4","last_reported":1752513124,"current_range_meters":18800,"station_id":"","pricing_plan_id":"cebpf4jnsgd1na2vs0mg"},{"bike_id":"f27027a6-2a25-4193-9f89-90e958769b0a","system_id":"levelo_inurba_marseille","lat":43.27625,"lon":5.36115,"is_reserved":false,"is_disabled":false,"rental_uris":{"android":"levelo://app?vid=f27027a6-2a25-4193-9f89-90e958769b0a","ios":"levelo://app?vid=f27027a6-2a25-4193-9f89-90e958769b0a"},"vehicle_type_id":"4","last_reported":1752513124,"current_range_meters":18800,"station_id":"ce4bgj92rcd13ifvqbe0","pricing_plan_id":"cebpf4jnsgd1na2vs0mg"},{"bike_id":"d4f531f2-0345-43e4-ba4b-bdb5c62e6212","system_id":"levelo_inurba_marseille","lat":43.29897,"lon":5.43669,"is_reserved":false,"is_disabled":false,"rental_uris":{"android":"levelo://app?vid=d4f531f2-0345-43e4-ba4b-bdb5c62e6212","ios":"levelo://app?vid=d4f531f2-0345-43e4-ba4b-bdb5c62e6212"},"vehicle_type_id":"4","last_reported":1752513124,"current_range_meters":18800,"station_id":"ce4bhpp2rcd13ifvqhfg","pricing_plan_id":"cebpf4jnsgd1na2vs0mg"},{"bike_id":"1aaa7e29-8268-4a68-b982-06e4cb580b86","system_id":"levelo_inurba_marseille","lat":43.33596,"lon":5.40994,"is_reserved":false,"is_disabled":false,"rental_uris":{"android":"levelo://app?vid=1aaa7e29-8268-4a68-b982-06e4cb580b86","ios":"levelo://app?vid=1aaa7e29-8268-4a68-b982-06e4cb580b86"},"vehicle_type_id":"4","last_reported":1752513124,"current_range_meters":18800,"station_id":"ce4bhqh2rcd13ifvqhmg","pricing_plan_id":"cebpf4jnsgd1na2vs0mg"},{"bike_id":"fe38fcda-be18-4a6d-9386-5071ca1609b6","system_id":"levelo_inurba_marseille","lat":43.23195,"lon":5.35557,"is_reserved":false,"is_disabled":true,"rental_uris":{"android":"levelo://app?vid=fe38fcda-be18-4a6d-9386-5071ca1609b6","ios":"levelo://app?vid=fe38fcda-be18-4a6d-9386-5071ca1609b6"},"vehicle_type_id":"4","last_reported":1752513124,"current_range_meters":18800,"station_id":"ce4bhu92rcd13ifvqi70","pricing_plan_id":"cebpf4jnsgd1na2vs0mg"},{"bike_id":"09a93a64-fbb1-49a9-be1f-f86a34310e71","system_id":"levelo_inurba_marseille","lat":43.21249,"lon":5.35021,"is_reserved":false,"is_disabled":false,"rental_uris":{"android":"levelo://app?vid=09a93a64-fbb1-49a9-be1f-f86a34310e71","ios":"levelo://app?vid=09a93a64-fbb1-49a9-be1f-f86a34310e71"},"vehicle_type_id":"4","last_reported":1752513124,"current_range_meters":18800,"station_id":"","pricing_plan_id":"cebpf4jnsgd1na2vs0mg"},{"bike_id":"9b3c3223-8111-48a9-9029-1956b7fdc2a0","system_id":"levelo_inurba_marseille","lat":43.28659,"lon":5.36339,"is_reserved":false,"is_disabled":false,"rental_uris":{"android":"levelo://app?vid=9b3c3223-8111-48a9-9029-1956b7fdc2a0","ios":"levelo://app?vid=9b3c3223-8111-48a9-9029-1956b7fdc2a0"},"vehicle_type_id":"4","last_reported":1752513124,"current_range_meters":19200,"station_id":"ce4bhah2rcd13ifvqej0","pricing_plan_id":"cebpf4jnsgd1na2vs0mg"},{"bike_id":"f4069cf2-8a47-479d-ae93-1f81f0ea6fa8","system_id":"levelo_inurba_marseille","lat":43.24077,"lon":5.37765,"is_reserved":false,"is_disabled":false,"rental_uris":{"android":"levelo://app?vid=f4069cf2-8a47-479d-ae93-1f81f0ea6fa8","ios":"levelo://app?vid=f4069cf2-8a47-479d-ae93-1f81f0ea6fa8"},"vehicle_type_id":"4","last_reported":1752513124,"current_range_meters":19200,"station_id":"ce4bhnp2rcd13ifvqgvg","pricing_plan_id":"cebpf4jnsgd1na2vs0mg"},{"bike_id":"90d8578f-7619-4279-84b6-4ed88aa377e2","system_id":"levelo_inurba_marseille","lat":43.211898,"lon":5.350676,"is_reserved":false,"is_disabled":false,"rental_uris":{"android":"levelo://app?vid=90d8578f-7619-4279-84b6-4ed88aa377e2","ios":"levelo://app?vid=90d8578f-7619-4279-84b6-4ed88aa377e2"},"vehicle_type_id":"4","last_reported":1752513124,"current_range_meters":19200,"station_id":"st_cvj6sg6p6f1abm77japg","pricing_plan_id":"cebpf4jnsgd1na2vs0mg"},{"bike_id":"c1946289-213b-4192-8b60-1dfde35c36f3","system_id":"levelo_inurba_marseille","lat":43.22945,"lon":5.35374,"is_reserved":false,"is_disabled":false,"rental_uris":{"android":"levelo://app?vid=c1946289-213b-4192-8b60-1dfde35c36f3","ios":"levelo://app?vid=c1946289-213b-4192-8b60-1dfde35c36f3"},"vehicle_type_id":"4","last_reported":1752513124,"current_range_meters":19200,"station_id":"cpo3532slgdg3j2ikp40","pricing_plan_id":"cebpf4jnsgd1na2vs0mg"},{"bike_id":"b9c91357-c4bf-43a7-b374-877fe1bc181f","system_id":"levelo_inurba_marseille","lat":43.25513,"lon":5.37641,"is_reserved":false,"is_disabled":false,"rental_uris":{"android":"levelo://app?vid=b9c91357-c4bf-43a7-b374-877fe1bc181f","ios":"levelo://app?vid=b9c91357-c4bf-43a7-b374-877fe1bc181f"},"vehicle_type_id":"4","last_reported":1752513124,"current_range_meters":19200,"station_id":"ce4bhh12rcd13ifvqff0","pricing_plan_id":"cebpf4jnsgd1na2vs0mg"},{"bike_id":"dc7bb6ec-3108-4516-822e-9978ede4e8f3","system_id":"levelo_inurba_marseille","lat":43.29316,"lon":5.37175,"is_reserved":false,"is_disabled":false,"rental_uris":{"android":"levelo://app?vid=dc7bb6ec-3108-4516-822e-9978ede4e8f3","ios":"levelo://app?vid=dc7bb6ec-3108-4516-822e-9978ede4e8f3"},"vehicle_type_id":"4","last_reported":1752513124,"current_range_meters":19200,"station_id":"ce4bgh92rcd13ifvqb40","pricing_plan_id":"cebpf4jnsgd1na2vs0mg"},{"bike_id":"c26b5803-1934-443f-a178-b5a6c19165be","system_id":"levelo_inurba_marseille","lat":43.29905,"lon":5.38128,"is_reserved":false,"is_disabled":true,"rental_uris":{"android":"levelo://app?vid=c26b5803-1934-443f-a178-b5a6c19165be","ios":"levelo://app?vid=c26b5803-1934-443f-a178-b5a6c19165be"},"vehicle_type_id":"4","last_reported":1752513124,"current_range_meters":19200,"station_id":"ce4bgj12rcd13ifvqbc0","pricing_plan_id":"cebpf4jnsgd1na2vs0mg"},{"bike_id":"5e39bf5c-8a06-42d5-a288-53841dd85e68","system_id":"levelo_inurba_marseille","lat":43.29218,"lon":5.36294,"is_reserved":false,"is_disabled":false,"rental_uris":{"android":"levelo://app?vid=5e39bf5c-8a06-42d5-a288-53841dd85e68","ios":"levelo://app?vid=5e39bf5c-8a06-42d5-a288-53841dd85e68"},"vehicle_type_id":"4","last_reported":1752513124,"current_range_meters":19200,"station_id":"ce4bhbh2rcd13ifvqeqg","pricing_plan_id":"cebpf4jnsgd1na2vs0mg"},{"bike_id":"3f0629fc-331b-4e62-9832-c403a93c21f2","system_id":"levelo_inurba_marseille","lat":43.296844,"lon":5.372507,"is_reserved":false,"is_disabled":false,"rental_uris":{"android":"levelo://app?vid=3f0629fc-331b-4e62-9832-c403a93c21f2","ios":"levelo://app?vid=3f0629fc-331b-4e62-9832-c403a93c21f2"},"vehicle_type_id":"4","last_reported":1752513124,"current_range_meters":19200,"station_id":"ce4bgk12rcd13ifvqbj0","pricing_plan_id":"cebpf4jnsgd1na2vs0mg"},{"bike_id":"259fca29-79ed-47f9-8e69-4a94be92fb10","system_id":"levelo_inurba_marseille","lat":43.30201,"lon":5.39468,"is_reserved":false,"is_disabled":false,"rental_uris":{"android":"levelo://app?vid=259fca29-79ed-47f9-8e69-4a94be92fb10","ios":"levelo://app?vid=259fca29-79ed-47f9-8e69-4a94be92fb10"},"vehicle_type_id":"4","last_reported":1752513124,"current_range_meters":18800,"station_id":"ce4bh0p2rcd13ifvqd70","pricing_plan_id":"cebpf4jnsgd1na2vs0mg"},{"bike_id":"ed3a226b-4ec7-465a-b998-9c1369112c1f","system_id":"levelo_inurba_marseille","lat":43.23175,"lon":5.43697,"is_reserved":false,"is_disabled":false,"rental_uris":{"android":"levelo://app?vid=ed3a226b-4ec7-465a-b998-9c1369112c1f","ios":"levelo://app?vid=ed3a226b-4ec7-465a-b998-9c1369112c1f"},"vehicle_type_id":"4","last_reported":1752513124,"current_range_meters":19200,"station_id":"ce4bhmp2rcd13ifvqgog","pricing_plan_id":"cebpf4jnsgd1na2vs0mg"},{"bike_id":"de3c7479-ad03-448f-a78e-88898eddd51a","system_id":"levelo_inurba_marseille","lat":43.32958,"lon":5.39737,"is_reserved":false,"is_disabled":false,"rental_uris":{"android":"levelo://app?vid=de3c7479-ad03-448f-a78e-88898eddd51a","ios":"levelo://app?vid=de3c7479-ad03-448f-a78e-88898eddd51a"},"vehicle_type_id":"4","last_reported":1752513124,"current_range_meters":19600,"station_id":"","pricing_plan_id":"cebpf4jnsgd1na2vs0mg"},{"bike_id":"1778ac56-076a-43df-aebd-b768a06a0165","system_id":"levelo_inurba_marseille","lat":43.29316,"lon":5.37179,"is_reserved":false,"is_disabled":false,"rental_uris":{"android":"levelo://app?vid=1778ac56-076a-43df-aebd-b768a06a0165","ios":"levelo://app?vid=1778ac56-076a-43df-aebd-b768a06a0165"},"vehicle_type_id":"4","last_reported":1752513124,"current_range_meters":19600,"station_id":"ce4bgh92rcd13ifvqb40","pricing_plan_id":"cebpf4jnsgd1na2vs0mg"},{"bike_id":"7344a727-b91f-481e-b08a-0f3465e83901","system_id":"levelo_inurba_marseille","lat":43.27734,"lon":5.41647,"is_reserved":false,"is_disabled":false,"rental_uris":{"android":"levelo://app?vid=7344a727-b91f-481e-b08a-0f3465e83901","ios":"levelo://app?vid=7344a727-b91f-481e-b08a-0f3465e83901"},"vehicle_type_id":"4","last_reported":1752513124,"current_range_meters":19600,"station_id":"","pricing_plan_id":"cebpf4jnsgd1na2vs0mg"},{"bike_id":"70e99ac6-c5f8-4a24-b517-2afb9240895c","system_id":"levelo_inurba_marseille","lat":43.2418,"lon":5.39713,"is_reserved":false,"is_disabled":false,"rental_uris":{"android":"levelo://app?vid=70e99ac6-c5f8-4a24-b517-2afb9240895c","ios":"levelo://app?vid=70e99ac6-c5f8-4a24-b517-2afb9240895c"},"vehicle_type_id":"4","last_reported":1752513124,"current_range_meters":19600,"station_id":"ce4bhn12rcd13ifvqgpg","pricing_plan_id":"cebpf4jnsgd1na2vs0mg"},{"bike_id":"dce5a329-8f31-445b-be5c-261647a1dded","system_id":"levelo_inurba_marseille","lat":43.2996,"lon":5.41327,"is_reserved":false,"is_disabled":false,"rental_uris":{"android":"levelo://app?vid=dce5a329-8f31-445b-be5c-261647a1dded","ios":"levelo://app?vid=dce5a329-8f31-445b-be5c-261647a1dded"},"vehicle_type_id":"4","last_reported":1752513124,"current_range_meters":19600,"station_id":"ce4bhp12rcd13ifvqh9g","pricing_plan_id":"cebpf4jnsgd1na2vs0mg"},{"bike_id":"542a8382-21c8-4c91-94ba-c94cba0fe543","system_id":"levelo_inurba_marseille","lat":43.29539,"lon":5.38543,"is_reserved":false,"is_disabled":false,"rental_uris":{"android":"levelo://app?vid=542a8382-21c8-4c91-94ba-c94cba0fe543","ios":"levelo://app?vid=542a8382-21c8-4c91-94ba-c94cba0fe543"},"vehicle_type_id":"4","last_reported":1752513124,"current_range_meters":19600,"station_id":"ce4bgih2rcd13ifvqba0","pricing_plan_id":"cebpf4jnsgd1na2vs0mg"},{"bike_id":"af2f790f-0e38-4f02-86bc-b807f3ed4a88","system_id":"levelo_inurba_marseille","lat":43.289431,"lon":5.363904,"is_reserved":false,"is_disabled":false,"rental_uris":{"android":"levelo://app?vid=af2f790f-0e38-4f02-86bc-b807f3ed4a88","ios":"levelo://app?vid=af2f790f-0e38-4f02-86bc-b807f3ed4a88"},"vehicle_type_id":"4","last_reported":1752513124,"current_range_meters":20000,"station_id":"ce4bhc92rcd13ifvqetg","pricing_plan_id":"cebpf4jnsgd1na2vs0mg"},{"bike_id":"0d59d516-5bd5-444b-9c9f-3425b328b901","system_id":"levelo_inurba_marseille","lat":43.323577,"lon":5.367548,"is_reserved":false,"is_disabled":false,"rental_uris":{"android":"levelo://app?vid=0d59d516-5bd5-444b-9c9f-3425b328b901","ios":"levelo://app?vid=0d59d516-5bd5-444b-9c9f-3425b328b901"},"vehicle_type_id":"4","last_reported":1752513124,"current_range_meters":20000,"station_id":"ce4bhsh2rcd13ifvqi2g","pricing_plan_id":"cebpf4jnsgd1na2vs0mg"},{"bike_id":"a547e60b-3399-4001-a982-06e54d69ee29","system_id":"levelo_inurba_marseille","lat":43.32472,"lon":5.36584,"is_reserved":false,"is_disabled":false,"rental_uris":{"android":"levelo://app?vid=a547e60b-3399-4001-a982-06e54d69ee29","ios":"levelo://app?vid=a547e60b-3399-4001-a982-06e54d69ee29"},"vehicle_type_id":"4","last_reported":1752513124,"current_range_meters":20000,"station_id":"ce4bhs12rcd13ifvqhvg","pricing_plan_id":"cebpf4jnsgd1na2vs0mg"},{"bike_id":"e54f54d9-1773-4ee8-bafc-df52ce84f9d5","system_id":"levelo_inurba_marseille","lat":43.29687,"lon":5.36647,"is_reserved":false,"is_disabled":false,"rental_uris":{"android":"levelo://app?vid=e54f54d9-1773-4ee8-bafc-df52ce84f9d5","ios":"levelo://app?vid=e54f54d9-1773-4ee8-bafc-df52ce84f9d5"},"vehicle_type_id":"4","last_reported":1752513124,"current_range_meters":20000,"station_id":"","pricing_plan_id":"cebpf4jnsgd1na2vs0mg"},{"bike_id":"e4f14ef2-fa2f-43fb-b89f-84f4f84580a2","system_id":"levelo_inurba_marseille","lat":43.27814,"lon":5.40715,"is_reserved":false,"is_disabled":false,"rental_uris":{"android":"levelo://app?vid=e4f14ef2-fa2f-43fb-b89f-84f4f84580a2","ios":"levelo://app?vid=e4f14ef2-fa2f-43fb-b89f-84f4f84580a2"},"vehicle_type_id":"4","last_reported":1752513124,"current_range_meters":19600,"station_id":"ce4bhnh2rcd13ifvqgtg","pricing_plan_id":"cebpf4jnsgd1na2vs0mg"},{"bike_id":"edfe6ed1-73c7-41ab-9084-1d612d3b5e32","system_id":"levelo_inurba_marseille","lat":43.21755,"lon":5.34596,"is_reserved":false,"is_disabled":false,"rental_uris":{"android":"levelo://app?vid=edfe6ed1-73c7-41ab-9084-1d612d3b5e32","ios":"levelo://app?vid=edfe6ed1-73c7-41ab-9084-1d612d3b5e32"},"vehicle_type_id":"4","last_reported":1752513124,"current_range_meters":20000,"station_id":"","pricing_plan_id":"cebpf4jnsgd1na2vs0mg"},{"bike_id":"00b505ae-8342-4a65-8123-9a67c0c20357","system_id":"levelo_inurba_marseille","lat":43.295214,"lon":5.375047,"is_reserved":false,"is_disabled":false,"rental_uris":{"android":"levelo://app?vid=00b505ae-8342-4a65-8123-9a67c0c20357","ios":"levelo://app?vid=00b505ae-8342-4a65-8123-9a67c0c20357"},"vehicle_type_id":"4","last_reported":1752513124,"current_range_meters":20000,"station_id":"ce4bgkp2rcd13ifvqbmg","pricing_plan_id":"cebpf4jnsgd1na2vs0mg"},{"bike_id":"6b829aa1-61e9-4bac-96cd-217aff064b13","system_id":"levelo_inurba_marseille","lat":43.30207,"lon":5.39469,"is_reserved":false,"is_disabled":false,"rental_uris":{"android":"levelo://app?vid=6b829aa1-61e9-4bac-96cd-217aff064b13","ios":"levelo://app?vid=6b829aa1-61e9-4bac-96cd-217aff064b13"},"vehicle_type_id":"4","last_reported":1752513124,"current_range_meters":19600,"station_id":"ce4bh0p2rcd13ifvqd70","pricing_plan_id":"cebpf4jnsgd1na2vs0mg"},{"bike_id":"913f4588-751b-49da-9f19-cc7c902c7e22","system_id":"levelo_inurba_marseille","lat":43.30376,"lon":5.42491,"is_reserved":false,"is_disabled":false,"rental_uris":{"android":"levelo://app?vid=913f4588-751b-49da-9f19-cc7c902c7e22","ios":"levelo://app?vid=913f4588-751b-49da-9f19-cc7c902c7e22"},"vehicle_type_id":"4","last_reported":1752513124,"current_range_meters":20000,"station_id":"ce4bhoh2rcd13ifvqh6g","pricing_plan_id":"cebpf4jnsgd1na2vs0mg"},{"bike_id":"202e7e2e-075f-420c-b3a2-8fce4649d1bc","system_id":"levelo_inurba_marseille","lat":43.28339,"lon":5.38108,"is_reserved":false,"is_disabled":true,"rental_uris":{"android":"levelo://app?vid=202e7e2e-075f-420c-b3a2-8fce4649d1bc","ios":"levelo://app?vid=202e7e2e-075f-420c-b3a2-8fce4649d1bc"},"vehicle_type_id":"4","last_reported":1752513124,"current_range_meters":20000,"station_id":"ce4bh412rcd13ifvqdr0","pricing_plan_id":"cebpf4jnsgd1na2vs0mg"},{"bike_id":"45c562c1-22f0-4242-85df-8c07fa2de94f","system_id":"levelo_inurba_marseille","lat":43.26932,"lon":5.38908,"is_reserved":false,"is_disabled":false,"rental_uris":{"android":"levelo://app?vid=45c562c1-22f0-4242-85df-8c07fa2de94f","ios":"levelo://app?vid=45c562c1-22f0-4242-85df-8c07fa2de94f"},"vehicle_type_id":"4","last_reported":1752513124,"current_range_meters":20000,"station_id":"ce4bhhh2rcd13ifvqfl0","pricing_plan_id":"cebpf4jnsgd1na2vs0mg"},{"bike_id":"553697d0-2c29-488e-9b00-46e604fe98c9","system_id":"levelo_inurba_marseille","lat":43.2737,"lon":5.36241,"is_reserved":false,"is_disabled":false,"rental_uris":{"android":"levelo://app?vid=553697d0-2c29-488e-9b00-46e604fe98c9","ios":"levelo://app?vid=553697d0-2c29-488e-9b00-46e604fe98c9"},"vehicle_type_id":"4","last_reported":1752513124,"current_range_meters":20000,"station_id":"ce4bhbh2rcd13ifvqeo0","pricing_plan_id":"cebpf4jnsgd1na2vs0mg"},