{"last_updated":1781454479,"ttl":60,"version":"2.2","data":{"bikes":[{"bike_id":"ec12d144-24c8-4071-abf6-197e520eae96","system_id":"levelo_inurba_marseille","lat":43.337444,"lon":5.374475,"is_reserved":false,"is_disabled":false,"rental_uris":{"android":"levelo://app?vid=ec12d144-24c8-4071-abf6-197e520eae96","ios":"levelo://app?vid=ec12d144-24c8-4071-abf6-197e520eae96"},"vehicle_type_id":"4","last_reported":1781454480,"current_range_meters":0,"station_id":"","pricing_plan_id":"cebpf4jnsgd1na2vs0mg"},{"bike_id":"1a371792-92c3-4813-8cbc-c1f395c5be2c","system_id":"levelo_inurba_marseille","lat":43.26704,"lon":5.38259,"is_reserved":false,"is_disabled":false,"rental_uris":{"android":"levelo://app?vid=1a371792-92c3-4813-8cbc-c1f395c5be2c","ios":"levelo://app?vid=1a371792-92c3-4813-8cbc-c1f395c5be2c"},"vehicle_type_id":"4","last_reported":1781454480,"current_range_meters":800,"station_id":"ce4bhg92rcd13ifvqf90","pricing_plan_id":"cebpf4jnsgd1na2vs0mg"},{"bike_id":"cd4a0af1-7baf-456e-8d45-621fd58e3f90","system_id":"levelo_inurba_marseille","lat":43.301395,"lon":5.387835,"is_reserved":false,"is_disabled":false,"rental_uris":{"android":"levelo://app?vid=cd4a0af1-7baf-456e-8d45-621fd58e3f90","ios":"levelo://app?vid=cd4a0af1-7baf-456e-8d45-621fd58e3f90"},"vehicle_type_id":"4","last_reported":1781454480,"current_range_meters":2800,"station_id":"ce4bghh2rcd13ifvqb60","pricing_plan_id":"cebpf4jnsgd1na2vs0mg"},{"bike_id":"6216e971-d99d-4e09-bc68-2b6a22b618d5","system_id":"levelo_inurba_marseille","lat":43.34212,"lon":5.36079,"is_reserved":false,"is_disabled":false,"rental_uris":{"android":"levelo://app?vid=6216e971-d99d-4e09-bc68-2b6a22b618d5","ios":"levelo://app?vid=6216e971-d99d-4e09-bc68-2b6a22b618d5"},"vehicle_type_id":"4","last_reported":1781454480,"current_range_meters":2800,"station_id":"","pricing_plan_id":"cebpf4jnsgd1na2vs0mg"},{"bike_id":"50958dce-4e1d-4404-87e6-7173aa67c6e9","system_id":"levelo_inurba_marseille","lat":43.26399,"lon":5.41126,"is_reserved":false,"is_disabled":true,"rental_uris":{"android":"levelo://app?vid=50958dce-4e1d-4404-87e6-7173aa67c6e9","ios":"levelo://app?vid=50958dce-4e1d-4404-87e6-7173aa67c6e9"},"vehicle_type_id":"4","last_reported":1781454480,"current_range_meters":2800,"station_id":"st_d4e5ca6na9uc73bfl5fg","pricing_plan_id":"cebpf4jnsgd1na2vs0mg"},{"bike_id":"9dffe908-8296-4b19-9cb4-fa5c978e3761","system_id":"levelo_inurba_marseille","lat":43.29985,"lon":5.3849,"is_reserved":false,"is_disabled":false,"rental_uris":{"android":"levelo://app?vid=9dffe908-8296-4b19-9cb4-fa5c978e3761","ios":"levelo://app?vid=9dffe908-8296-4b19-9cb4-fa5c978e3761"},"vehicle_type_id":"4","last_reported":1781454480,"current_range_meters":2800,"station_id":"ce4bgj92rcd13ifvqbd0","pricing_plan_id":"cebpf4jnsgd1na2vs0mg"},{"bike_id":"c45afb6f-8f64-462e-ae5f-8aeff55a30cd","system_id":"levelo_inurba_marseille","lat":43.28673,"lon":5.3867,"is_reserved":false,"is_disabled":false,"rental_uris":{"android":"levelo://app?vid=c45afb6f-8f64-462e-ae5f-8aeff55a30cd","ios":"levelo://app?vid=c45afb6f-8f64-462e-ae5f-8aeff55a30cd"},"vehicle_type_id":"4","last_reported":1781454480,"current_range_meters":2800,"station_id":"ce4bh492rcd13ifvqdug","pricing_plan_id":"cebpf4jnsgd1na2vs0mg"},{"bike_id":"371fd213-4a34-453d-881d-dd9962cb90c2","system_id":"levelo_inurba_marseille","lat":43.25092,"lon":5.39523,"is_reserved":false,"is_disabled":false,"rental_uris":{"android":"levelo://app?vid=371fd213-4a34-453d-881d-dd9962cb90c2","ios":"levelo://app?vid=371fd213-4a34-453d-881d-dd9962cb90c2"},"vehicle_type_id":"4","last_reported":1781454480,"current_range_meters":2800,"station_id":"ce4bhm12rcd13ifvqgkg","pricing_plan_id":"cebpf4jnsgd1na2vs0mg"},{"bike_id":"d2673cd9-6c70-4d80-832c-9de4211b4cad","system_id":"levelo_inurba_marseille","lat":43.2738,"lon":5.36255,"is_reserved":false,"is_disabled":true,"rental_uris":{"android":"levelo://app?vid=d2673cd9-6c70-4d80-832c-9de4211b4cad","ios":"levelo://app?vid=d2673cd9-6c70-4d80-832c-9de4211b4cad"},"vehicle_type_id":"4","last_reported":1781454480,"current_range_meters":2800,"station_id":"ce4bhbh2rcd13ifvqeo0","pricing_plan_id":"cebpf4jnsgd1na2vs0mg"},{"bike_id":"12326527-aa04-43ed-8122-fab62005bcac","system_id":"levelo_inurba_marseille","lat":43.27377,"lon":5.36259,"is_reserved":false,"is_disabled":true,"rental_uris":{"android":"levelo://app?vid=12326527-aa04-43ed-8122-fab62005bcac","ios":"levelo://app?vid=12326527-aa04-43ed-8122-fab62005bcac"},"vehicle_type_id":"4","last_reported":1781454480,"current_range_meters":2800,"station_id":"ce4bhbh2rcd13ifvqeo0","pricing_plan_id":"cebpf4jnsgd1na2vs0mg"},{"bike_id":"20b0f04c-b882-40c0-b849-52f7f91d6240","system_id":"levelo_inurba_marseille","lat":43.27489,"lon":5.41849,"is_reserved":false,"is_disabled":false,"rental_uris":{"android":"levelo://app?vid=20b0f04c-b882-40c0-b849-52f7f91d6240","ios":"levelo://app?vid=20b0f04c-b882-40c0-b849-52f7f91d6240"},"vehicle_type_id":"4","last_reported":1781454480,"current_range_meters":2800,"station_id":"","pricing_plan_id":"cebpf4jnsgd1na2vs0mg"},{"bike_id":"dc3e3e35-560a-41ac-8b92-c31e5b3f3434","system_id":"levelo_inurba_marseille","lat":43.267,"lon":5.39251,"is_reserved":false,"is_disabled":false,"rental_uris":{"android":"levelo://app?vid=dc3e3e35-560a-41ac-8b92-c31e5b3f3434","ios":"levelo://app?vid=dc3e3e35-560a-41ac-8b92-c31e5b3f3434"},"vehicle_type_id":"4","last_reported":1781454480,"current_range_meters":2800,"station_id":"","pricing_plan_id":"cebpf4jnsgd1na2vs0mg"},{"bike_id":"3c748741-8a21-42cd-b85e-63ba1c99a69e","system_id":"levelo_inurba_marseille","lat":43.27179,"lon":5.40997,"is_reserved":false,"is_disabled":false,"rental_uris":{"android":"levelo://app?vid=3c748741-8a21-42cd-b85e-63ba1c99a69e","ios":"levelo://app?vid=3c748741-8a21-42cd-b85e-63ba1c99a69e"},"vehicle_type_id":"4","last_reported":1781454480,"current_range_meters":2800,"station_id":"ce4bhl12rcd13ifvqgf0","pricing_plan_id":"cebpf4jnsgd1na2vs0mg"},{"bike_id":"1f61770c-e1d0-4cc0-9abd-61f5e677ae94","system_id":"levelo_inurba_marseille","lat":43.29204,"lon":5.39321,"is_reserved":false,"is_disabled":false,"rental_uris":{"android":"levelo://app?vid=1f61770c-e1d0-4cc0-9abd-61f5e677ae94","ios":"levelo://app?vid=1f61770c-e1d0-4cc0-9abd-61f5e677ae94"},"vehicle_type_id":"4","last_reported":1781454480,"current_range_meters":2800,"station_id":"ce4bh192rcd13ifvqdd0","pricing_plan_id":"cebpf4jnsgd1na2vs0mg"},{"bike_id":"eb74ab34-07be-45f0-b114-31f924cf1087","system_id":"levelo_inurba_marseille","lat":43.29228,"lon":5.36075,"is_reserved":false,"is_disabled":false,"rental_uris":{"android":"levelo://app?vid=eb74ab34-07be-45f0-b114-31f924cf1087","ios":"levelo://app?vid=eb74ab34-07be-45f0-b114-31f924cf1087"},"vehicle_type_id":"4","last_reported":1781454480,"current_range_meters":2800,"station_id":"ce4bhbh2rcd13ifvqeqg","pricing_plan_id":"cebpf4jnsgd1na2vs0mg"},{"bike_id":"4b910ed8-62e8-40cd-93dc-35308cfde7be","system_id":"levelo_inurba_marseille","lat":43.26709,"lon":5.38273,"is_reserved":false,"is_disabled":true,"rental_uris":{"android":"levelo://app?vid=4b910ed8-62e8-40cd-93dc-35308cfde7be","ios":"levelo://app?vid=4b910ed8-62e8-40cd-93dc-35308cfde7be"},"vehicle_type_id":"4","last_reported":1781454480,"current_range_meters":2800,"station_id":"ce4bhg92rcd13ifvqf90","pricing_plan_id":"cebpf4jnsgd1na2vs0mg"},{"bike_id":"c5f26649-f952-41c2-8bb1-cc75c6c50dfd","system_id":"levelo_inurba_marseille","lat":43.28461,"lon":5.38408,"is_reserved":false,"is_disabled":false,"rental_uris":{"android":"levelo://app?vid=c5f26649-f952-41c2-8bb1-cc75c6c50dfd","ios":"levelo://app?vid=c5f26649-f952-41c2-8bb1-cc75c6c50dfd"},"vehicle_type_id":"4","last_reported":1781454480,"current_range_meters":2800,"station_id":"ce4bh512rcd13ifvqe3g","pricing_plan_id":"cebpf4jnsgd1na2vs0mg"},{"bike_id":"a50af965-b87b-4f91-9b9a-3e26dc71f7c1","system_id":"levelo_inurba_marseille","lat":43.29061,"lon":5.43943,"is_reserved":false,"is_disabled":false,"rental_uris":{"android":"levelo://app?vid=a50af965-b87b-4f91-9b9a-3e26dc71f7c1","ios":"levelo://app?vid=a50af965-b87b-4f91-9b9a-3e26dc71f7c1"},"vehicle_type_id":"4","last_reported":1781454480,"current_range_meters":2800,"station_id":"","pricing_plan_id":"cebpf4jnsgd1na2vs0mg"},{"bike_id":"fddab5a9-f5f6-49cd-a92d-b8f55abf1467","system_id":"levelo_inurba_marseille","lat":43.279989,"lon":5.400143,"is_reserved":false,"is_disabled":false,"rental_uris":{"android":"levelo://app?vid=fddab5a9-f5f6-49cd-a92d-b8f55abf1467","ios":"levelo://app?vid=fddab5a9-f5f6-49cd-a92d-b8f55abf1467"},"vehicle_type_id":"4","last_reported":1781454480,"current_range_meters":2800,"station_id":"ce4bho92rcd13ifvqh4g","pricing_plan_id":"cebpf4jnsgd1na2vs0mg"},{"bike_id":"1ee09c36-c3d7-429d-900c-73e2f1643a9e","system_id":"levelo_inurba_marseille","lat":43.27621,"lon":5.36121,"is_reserved":false,"is_disabled":true,"rental_uris":{"android":"levelo://app?vid=1ee09c36-c3d7-429d-900c-73e2f1643a9e","ios":"levelo://app?vid=1ee09c36-c3d7-429d-900c-73e2f1643a9e"},"vehicle_type_id":"4","last_reported":1781454480,"current_range_meters":2800,"station_id":"ce4bgj92rcd13ifvqbe0","pricing_plan_id":"cebpf4jnsgd1na2vs0mg"},{"bike_id":"b412d7bc-ae21-4644-ab79-cfb83d143eca","system_id":"levelo_inurba_marseille","lat":43.30606,"lon":5.39356,"is_reserved":false,"is_disabled":false,"rental_uris":{"android":"levelo://app?vid=b412d7bc-ae21-4644-ab79-cfb83d143eca","ios":"levelo://app?vid=b412d7bc-ae21-4644-ab79-cfb83d143eca"},"vehicle_type_id":"4","last_reported":1781454480,"current_range_meters":3200,"station_id":"ce4bh0p2rcd13ifvqd80","pricing_plan_id":"cebpf4jnsgd1na2vs0mg"},{"bike_id":"b0e789b7-bbc7-46a2-a865-e29b95d97ba3","system_id":"levelo_inurba_marseille","lat":43.29714,"lon":5.37645,"is_reserved":false,"is_disabled":false,"rental_uris":{"android":"levelo://app?vid=b0e789b7-bbc7-46a2-a865-e29b95d97ba3","ios":"levelo://app?vid=b0e789b7-bbc7-46a2-a865-e29b95d97ba3"},"vehicle_type_id":"4","last_reported":1781454480,"current_range_meters":3200,"station_id":"ce4bgkh2rcd13ifvqbl0","pricing_plan_id":"cebpf4jnsgd1na2vs0mg"},{"bike_id":"fca4716d-363f-4061-9268-5fdf2b190705","system_id":"levelo_inurba_marseille","lat":43.281035,"lon":5.367145,"is_reserved":false,"is_disabled":true,"rental_uris":{"android":"levelo://app?vid=fca4716d-363f-4061-9268-5fdf2b190705","ios":"levelo://app?vid=fca4716d-363f-4061-9268-5fdf2b190705"},"vehicle_type_id":"4","last_reported":1781454480,"current_range_meters":3200,"station_id":"ce4bhgp2rcd13ifvqfc0","pricing_plan_id":"cebpf4jnsgd1na2vs0mg"},{"bike_id":"5b5ea2fb-3ba8-4c10-841c-ca34891a615c","system_id":"levelo_inurba_marseille","lat":43.29344,"lon":5.36409,"is_reserved":false,"is_disabled":false,"rental_uris":{"android":"levelo://app?vid=5b5ea2fb-3ba8-4c10-841c-ca34891a615c","ios":"levelo://app?vid=5b5ea2fb-3ba8-4c10-841c-ca34891a615c"},"vehicle_type_id":"4","last_reported":1781454480,"current_range_meters":3200,"station_id":"","pricing_plan_id":"cebpf4jnsgd1na2vs0mg"},{"bike_id":"bb981420-2839-4dcf-a0c5-ef641a431c90","system_id":"levelo_inurba_marseille","lat":43.28467,"lon":5.38549,"is_reserved":false,"is_disabled":false,"rental_uris":{"android":"levelo://app?vid=bb981420-2839-4dcf-a0c5-ef641a431c90","ios":"levelo://app?vid=bb981420-2839-4dcf-a0c5-ef641a431c90"},"vehicle_type_id":"4","last_reported":1781454480,"current_range_meters":3200,"station_id":"ce4bh8p2rcd13ifvqeb0","pricing_plan_id":"cebpf4jnsgd1na2vs0mg"},{"bike_id":"f96f38f7-e3b0-45fd-aedc-4fa5e0a8d1a1","system_id":"levelo_inurba_marseille","lat":43.29302,"lon":5.37441,"is_reserved":false,"is_disabled":false,"rental_uris":{"android":"levelo://app?vid=f96f38f7-e3b0-45fd-aedc-4fa5e0a8d1a1","ios":"levelo://app?vid=f96f38f7-e3b0-45fd-aedc-4fa5e0a8d1a1"},"vehicle_type_id":"4","last_reported":1781454480,"current_range_meters":3200,"station_id":"ce4bgi12rcd13ifvqb70","pricing_plan_id":"cebpf4jnsgd1na2vs0mg"},{"bike_id":"c0e94167-49d1-4b1a-ac88-24f7dbe40b1c","system_id":"levelo_inurba_marseille","lat":43.28628,"lon":5.37087,"is_reserved":false,"is_disabled":false,"rental_uris":{"android":"levelo://app?vid=c0e94167-49d1-4b1a-ac88-24f7dbe40b1c","ios":"levelo://app?vid=c0e94167-49d1-4b1a-ac88-24f7dbe40b1c"},"vehicle_type_id":"4","last_reported":1781454480,"current_range_meters":3200,"station_id":"ce4bht12rcd13ifvqi60","pricing_plan_id":"cebpf4jnsgd1na2vs0mg"},{"bike_id":"6fb07b35-b88f-45ae-9e9e-ceed1b219374","system_id":"levelo_inurba_marseille","lat":43.32433,"lon":5.36597,"is_reserved":false,"is_disabled":true,"rental_uris":{"android":"levelo://app?vid=6fb07b35-b88f-45ae-9e9e-ceed1b219374","ios":"levelo://app?vid=6fb07b35-b88f-45ae-9e9e-ceed1b219374"},"vehicle_type_id":"4","last_reported":1781454480,"current_range_meters":3200,"station_id":"","pricing_plan_id":"cebpf4jnsgd1na2vs0mg"},{"bike_id":"bd7d1559-a5af-40bc-8385-1e7e19ed8376","system_id":"levelo_inurba_marseille","lat":43.27072,"lon":5.42282,"is_reserved":false,"is_disabled":false,"rental_uris":{"android":"levelo://app?vid=bd7d1559-a5af-40bc-8385-1e7e19ed8376","ios":"levelo://app?vid=bd7d1559-a5af-40bc-8385-1e7e19ed8376"},"vehicle_type_id":"4","last_reported":1781454480,"current_range_meters":3200,"station_id":"ce4bhk92rcd13ifvqgb0","pricing_plan_id":"cebpf4jnsgd1na2vs0mg"},{"bike_id":"61acdcff-76d7-4bb2-a256-e2ec611550e8","system_id":"levelo_inurba_marseille","lat":43.2655,"lon":5.39039,"is_reserved":false,"is_disabled":true,"rental_uris":{"android":"levelo://app?vid=61acdcff-76d7-4bb2-a256-e2ec611550e8","ios":"levelo://app?vid=61acdcff-76d7-4bb2-a256-e2ec611550e8"},"vehicle_type_id":"4","last_reported":1781454480,"current_range_meters":3200,"station_id":"ce4bhe12rcd13ifvqf30","pricing_plan_id":"cebpf4jnsgd1na2vs0mg"},{"bike_id":"47d2cf84-220e-4d7e-9af4-b892f87bed5b","system_id":"levelo_inurba_marseille","lat":43.30534,"lon":5.36722,"is_reserved":false,"is_disabled":false,"rental_uris":{"android":"levelo://app?vid=47d2cf84-220e-4d7e-9af4-b892f87bed5b","ios":"levelo://app?vid=47d2cf84-220e-4d7e-9af4-b892f87bed5b"},"vehicle_type_id":"4","last_reported":1781454480,"current_range_meters":3200,"station_id":"ce4bgrp2rcd13ifvqc9g","pricing_plan_id":"cebpf4jnsgd1na2vs0mg"},{"bike_id":"77a3e5cd-10a1-4b18-bd77-e146c62f220c","system_id":"levelo_inurba_marseille","lat":43.28088,"lon":5.37865,"is_reserved":false,"is_disabled":false,"rental_uris":{"android":"levelo://app?vid=77a3e5cd-10a1-4b18-bd77-e146c62f220c","ios":"levelo://app?vid=77a3e5cd-10a1-4b18-bd77-e146c62f220c"},"vehicle_type_id":"4","last_reported":1781454480,"current_range_meters":3200,"station_id":"ce4bha12rcd13ifvqee0","pricing_plan_id":"cebpf4jnsgd1na2vs0mg"},{"bike_id":"da49f8bf-ac47-4f75-a9fc-b5a0f8173bc6","system_id":"levelo_inurba_marseille","lat":43.28459,"lon":5.35932,"is_reserved":false,"is_disabled":true,"rental_uris":{"android":"levelo://app?vid=da49f8bf-ac47-4f75-a9fc-b5a0f8173bc6","ios":"levelo://app?vid=da49f8bf-ac47-4f75-a9fc-b5a0f8173bc6"},"vehicle_type_id":"4","last_reported":1781454480,"current_range_meters":3600,"station_id":"","pricing_plan_id":"cebpf4jnsgd1na2vs0mg"},{"bike_id":"8f809aba-fb91-4274-9669-f9211fc8e411","system_id":"levelo_inurba_marseille","lat":43.23308,"lon":5.39977,"is_reserved":false,"is_disabled":false,"rental_uris":{"android":"levelo://app?vid=8f809aba-fb91-4274-9669-f9211fc8e411","ios":"levelo://app?vid=8f809aba-fb91-4274-9669-f9211fc8e411"},"vehicle_type_id":"4","last_reported":1781454480,"current_range_meters":3600,"station_id":"","pricing_plan_id":"cebpf4jnsgd1na2vs0mg"},{"bike_id":"459952f5-55f8-43e7-b3ad-b9d83a8b249e","system_id":"levelo_inurba_marseille","lat":43.24617,"lon":5.41696,"is_reserved":false,"is_disabled":false,"rental_uris":{"android":"levelo://app?vid=459952f5-55f8-43e7-b3ad-b9d83a8b249e","ios":"levelo://app?vid=459952f5-55f8-43e7-b3ad-b9d83a8b249e"},"vehicle_type_id":"4","last_reported":1781454480,"current_range_meters":3600,"station_id":"","pricing_plan_id":"cebpf4jnsgd1na2vs0mg"},{"bike_id":"4d0ffb6b-94b5-4ad2-8cb0-8b15d5e96942","system_id":"levelo_inurba_marseille","lat":43.26216,"lon":5.3746,"is_reserved":false,"is_disabled":false,"rental_uris":{"android":"levelo://app?vid=4d0ffb6b-94b5-4ad2-8cb0-8b15d5e96942","ios":"levelo://app?vid=4d0ffb6b-94b5-4ad2-8cb0-8b15d5e96942"},"vehicle_type_id":"4","last_reported":1781454480,"current_range_meters":3600,"station_id":"ce4bhgp2rcd13ifvqfc0","pricing_plan_id":"cebpf4jnsgd1na2vs0mg"},{"bike_id":"dc4be6db-45e1-4f9d-907c-d4108203f92e","system_id":"levelo_inurba_marseille","lat":43.30596,"lon":5.393578,"is_reserved":false,"is_disabled":false,"rental_uris":{"android":"levelo://app?vid=dc4be6db-45e1-4f9d-907c-d4108203f92e","ios":"levelo://app?vid=dc4be6db-45e1-4f9d-907c-d4108203f92e"},"vehicle_type_id":"4","last_reported":1781454480,"current_range_meters":3600,"station_id":"ce4bh0p2rcd13ifvqd80","pricing_plan_id":"cebpf4jnsgd1na2vs0mg"},{"bike_id":"97f17bb7-03bd-438a-9652-50f9e14d3355","system_id":"levelo_inurba_marseille","lat":43.30141,"lon":5.43094,"is_reserved":false,"is_disabled":false,"rental_uris":{"android":"levelo://app?vid=97f17bb7-03bd-438a-9652-50f9e14d3355","ios":"levelo://app?vid=97f17bb7-03bd-438a-9652-50f9e14d3355"},"vehicle_type_id":"4","last_reported":1781454480,"current_range_meters":3600,"station_id":"st_d3js3co5814s73ftftug","pricing_plan_id":"cebpf4jnsgd1na2vs0mg"},{"bike_id":"e3fa7265-9939-4d46-8589-64280576bc80","system_id":"levelo_inurba_marseille","lat":43.29008,"lon":5.35617,"is_reserved":false,"is_disabled":false,"rental_uris":{"android":"levelo://app?vid=e3fa7265-9939-4d46-8589-64280576bc80","ios":"levelo://app?vid=e3fa7265-9939-4d46-8589-64280576bc80"},"vehicle_type_id":"4","last_reported":1781454480,"current_range_meters":3600,"station_id":"ce4bhb92rcd13ifvqen0","pricing_plan_id":"cebpf4jnsgd1na2vs0mg"},{"bike_id":"cf11dd40-b113-45d9-8d41-8d04b849c2c4","system_id":"levelo_inurba_marseille","lat":43.2911,"lon":5.42776,"is_reserved":false,"is_disabled":false,"rental_uris":{"android":"levelo://app?vid=cf11dd40-b113-45d9-8d41-8d04b849c2c4","ios":"levelo://app?vid=cf11dd40-b113-45d9-8d41-8d04b849c2c4"},"vehicle_type_id":"4","last_reported":1781454480,"current_range_meters":3600,"station_id":"","pricing_plan_id":"cebpf4jnsgd1na2vs0mg"},{"bike_id":"b0dccffd-9e25-498c-97c0-86a3f3dd1e10","system_id":"levelo_inurba_marseille","lat":43.24856,"lon":5.37972,"is_reserved":false,"is_disabled":false,"rental_uris":{"android":"levelo://app?vid=b0dccffd-9e25-498c-97c0-86a3f3dd1e10","ios":"levelo://app?vid=b0dccffd-9e25-498c-97c0-86a3f3dd1e10"},"vehicle_type_id":"4","last_reported":1781454480,"current_range_meters":3600,"station_id":"","pricing_plan_id":"cebpf4jnsgd1na2vs0mg"},{"bike_id":"41d61f3a-572c-4240-9f59-8b5b646be959","system_id":"levelo_inurba_marseille","lat":43.31918,"lon":5.36796,"is_reserved":false,"is_disabled":false,"rental_uris":{"android":"levelo://app?vid=41d61f3a-572c-4240-9f59-8b5b646be959","ios":"levelo://app?vid=41d61f3a-572c-4240-9f59-8b5b646be959"},"vehicle_type_id":"4","last_reported":1781454480,"current_range_meters":3600,"station_id":"st_d6o2h0d0559c73evc1b0","pricing_plan_id":"cebpf4jnsgd1na2vs0mg"},{"bike_id":"dcf48b07-8368-4dae-8787-ea1df8097233","system_id":"levelo_inurba_marseille","lat":43.30083,"lon":5.390841,"is_reserved":false,"is_disabled":false,"rental_uris":{"android":"levelo://app?vid=dcf48b07-8368-4dae-8787-ea1df8097233","ios":"levelo://app?vid=dcf48b07-8368-4dae-8787-ea1df8097233"},"vehicle_type_id":"4","last_reported":1781454480,"current_range_meters":3600,"station_id":"ce4bh192rcd13ifvqdb0","pricing_plan_id":"cebpf4jnsgd1na2vs0mg"},{"bike_id":"b4608193-48f3-4fd3-a8e8-74b417103148","system_id":"levelo_inurba_marseille","lat":43.27064,"lon":5.38306,"is_reserved":false,"is_disabled":false,"rental_uris":{"android":"levelo://app?vid=b4608193-48f3-4fd3-a8e8-74b417103148","ios":"levelo://app?vid=b4608193-48f3-4fd3-a8e8-74b417103148"},"vehicle_type_id":"4","last_reported":1781454480,"current_range_meters":3600,"station_id":"st_d3n2fo6cfp8s73cte1j0","pricing_plan_id":"cebpf4jnsgd1na2vs0mg"},{"bike_id":"4c0aaefd-2b66-45a7-8e6f-bab47a273073","system_id":"levelo_inurba_marseille","lat":43.32479,"lon":5.42554,"is_reserved":false,"is_disabled":false,"rental_uris":{"android":"levelo://app?vid=4c0aaefd-2b66-45a7-8e6f-bab47a273073","ios":"levelo://app?vid=4c0aaefd-2b66-45a7-8e6f-bab47a273073"},"vehicle_type_id":"4","last_reported":1781454480,"current_range_meters":3600,"station_id":"","pricing_plan_id":"cebpf4jnsgd1na2vs0mg"},{"bike_id":"5df2c074-089d-4706-8f7a-6aa797ef517d","system_id":"levelo_inurba_marseille","lat":43.30099,"lon":5.39097,"is_reserved":false,"is_disabled":false,"rental_uris":{"android":"levelo://app?vid=5df2c074-089d-4706-8f7a-6aa797ef517d","ios":"levelo://app?vid=5df2c074-089d-4706-8f7a-6aa797ef517d"},"vehicle_type_id":"4","last_reported":1781454480,"current_range_meters":3600,"station_id":"ce4bh192rcd13ifvqdb0","pricing_plan_id":"cebpf4jnsgd1na2vs0mg"},{"bike_id":"c97fb99a-7c2e-4698-a401-a6886e4eb5f4","system_id":"levelo_inurba_marseille","lat":43.28773,"lon":5.42722,"is_reserved":false,"is_disabled":false,"rental_uris":{"android":"levelo://app?vid=c97fb99a-7c2e-4698-a401-a6886e4eb5f4","ios":"levelo://app?vid=c97fb99a-7c2e-4698-a401-a6886e4eb5f4"},"vehicle_type_id":"4","last_reported":1781454480,"current_range_meters":3600,"station_id":"","pricing_plan_id":"cebpf4jnsgd1na2vs0mg"},{"bike_id":"6d62f6ca-66fa-4efc-8fda-0047b8e06961","system_id":"levelo_inurba_marseille","lat":43.33346,"lon":5.41124,"is_reserved":false,"is_disabled":false,"rental_uris":{"android":"levelo://app?vid=6d62f6ca-66fa-4efc-8fda-0047b8e06961","ios":"levelo://app?vid=6d62f6ca-66fa-4efc-8fda-0047b8e06961"},"vehicle_type_id":"4","last_reported":1781454480,"current_range_meters":3600,"station_id":"","pricing_plan_id":"cebpf4jnsgd1na2vs0mg"},{"bike_id":"3f683387-f7ec-4b9f-9801-ff63896077b4","system_id":"levelo_inurba_marseille","lat":43.23955,"lon":5.36538,"is_reserved":false,"is_disabled":false,"rental_uris":{"android":"levelo://app?vid=3f683387-f7ec-4b9f-9801-ff63896077b4","ios":"levelo://app?vid=3f683387-f7ec-4b9f-9801-ff63896077b4"},"vehicle_type_id":"4","last_reported":1781454480,"current_range_meters":3600,"station_id":"","pricing_plan_id":"cebpf4jnsgd1na2vs0mg"},{"bike_id":"ebadecc1-1517-4c13-b5e0-2a0db721886d","system_id":"levelo_inurba_marseille","lat":43.28242,"lon":5.35063,"is_reserved":false,"is_disabled":true,"rental_uris":{"android":"levelo://app?vid=ebadecc1-1517-4c13-b5e0-2a0db721886d","ios":"levelo://app?vid=ebadecc1-1517-4c13-b5e0-2a0db721886d"},"vehicle_type_id":"4","last_reported":1781454480,"current_range_meters":3600,"station_id":"ce4bhbp2rcd13ifvqerg","pricing_plan_id":"cebpf4jnsgd1na2vs0mg"},{"bike_id":"8185a93a-df23-4cba-b5aa-efc041cddc09","system_id":"levelo_inurba_marseille","lat":43.29625,"lon":5.40595,"is_reserved":false,"is_disabled":true,"rental_uris":{"android":"levelo://app?vid=8185a93a-df23-4cba-b5aa-efc041cddc09","ios":"levelo://app?vid=8185a93a-df23-4cba-b5aa-efc041cddc09"},"vehicle_type_id":"4","last_reported":1781454480,"current_range_meters":4000,"station_id":"ce4bh0h2rcd13ifvqd60","pricing_plan_id":"cebpf4jnsgd1na2vs0mg"},{"bike_id":"93b03f6b-edc6-445d-908a-770c538c330f","system_id":"levelo_inurba_marseille","lat":43.25963,"lon":5.39409,"is_reserved":false,"is_disabled":false,"rental_uris":{"android":"levelo://app?vid=93b03f6b-edc6-445d-908a-770c538c330f","ios":"levelo://app?vid=93b03f6b-edc6-445d-908a-770c538c330f"},"vehicle_type_id":"4","last_reported":1781454480,"current_range_meters":4000,"station_id":"","pricing_plan_id":"cebpf4jnsgd1na2vs0mg"},{"bike_id":"65656522-6967-4ec3-a9aa-c619425a119c","system_id":"levelo_inurba_marseille","lat":43.2254,"lon":5.3482,"is_reserved":false,"is_disabled":false,"rental_uris":{"android":"levelo://app?vid=65656522-6967-4ec3-a9aa-c619425a119c","ios":"levelo://app?vid=65656522-6967-4ec3-a9aa-c619425a119c"},"vehicle_type_id":"4","last_reported":1781454480,"current_range_meters":4000,"station_id":"st_cvj5dfep6f1abm77gieg","pricing_plan_id":"cebpf4jnsgd1na2vs0mg"},{"bike_id":"52f3e772-ae75-4b62-8837-30b3a36cd0d4","system_id":"levelo_inurba_marseille","lat":43.31063,"lon":5.39372,"is_reserved":false,"is_disabled":false,"rental_uris":{"android":"levelo://app?vid=52f3e772-ae75-4b62-8837-30b3a36cd0d4","ios":"levelo://app?vid=52f3e772-ae75-4b62-8837-30b3a36cd0d4"},"vehicle_type_id":"4","last_reported":1781454480,"current_range_meters":4000,"station_id":"","pricing_plan_id":"cebpf4jnsgd1na2vs0mg"},{"bike_id":"68065f8b-f943-470c-9a8b-253855337dcb","system_id":"levelo_inurba_marseille","lat":43.29314,"lon":5.37171,"is_reserved":false,"is_disabled":false,"rental_uris":{"android":"levelo://app?vid=68065f8b-f943-470c-9a8b-253855337dcb","ios":"levelo://app?vid=68065f8b-f943-470c-9a8b-253855337dcb"},"vehicle_type_id":"4","last_reported":1781454480,"current_range_meters":4000,"station_id":"ce4bgh92rcd13ifvqb40","pricing_plan_id":"cebpf4jnsgd1na2vs0mg"},{"bike_id":"8ddee029-c909-4376-bb82-54a5738d73f5","system_id":"levelo_inurba_marseille","lat":43.30743,"lon":5.42435,"is_reserved":false,"is_disabled":false,"rental_uris":{"android":"levelo://app?vid=8ddee029-c909-4376-bb82-54a5738d73f5","ios":"levelo://app?vid=8ddee029-c909-4376-bb82-54a5738d73f5"},"vehicle_type_id":"4","last_reported":1781454480,"current_range_meters":4000,"station_id":"st_cvj6ca6bvosntc0bfgr0","pricing_plan_id":"cebpf4jnsgd1na2vs0mg"},{"bike_id":"8b7063f1-08a4-4f34-84b0-c7c8b40fa9c1","system_id":"levelo_inurba_marseille","lat":43.31189,"lon":5.38492,"is_reserved":false,"is_disabled":false,"rental_uris":{"android":"levelo://app?vid=8b7063f1-08a4-4f34-84b0-c7c8b40fa9c1","ios":"levelo://app?vid=8b7063f1-08a4-4f34-84b0-c7c8b40fa9c1"},"vehicle_type_id":"4","last_reported":1781454480,"current_range_meters":4000,"station_id":"","pricing_plan_id":"cebpf4jnsgd1na2vs0mg"},{"bike_id":"948e7dcf-c12b-4293-8ebe-ef6b71975867","system_id":"levelo_inurba_marseille","lat":43.24182,"lon":5.36361,"is_reserved":false,"is_disabled":true,"rental_uris":{"android":"levelo://app?vid=948e7dcf-c12b-4293-8ebe-ef6b71975867","ios":"levelo://app?vid=948e7dcf-c12b-4293-8ebe-ef6b71975867"},"vehicle_type_id":"4","last_reported":1781454480,"current_range_meters":4000,"station_id":"cpo36qri1sfpv3e86is0","pricing_plan_id":"cebpf4jnsgd1na2vs0mg"},{"bike_id":"b00d8bd0-800e-45a7-ac0f-43138ef8f6fe","system_id":"levelo_inurba_marseille","lat":43.26764,"lon":5.39425,"is_reserved":false,"is_disabled":true,"rental_uris":{"android":"levelo://app?vid=b00d8bd0-800e-45a7-ac0f-43138ef8f6fe","ios":"levelo://app?vid=b00d8bd0-800e-45a7-ac0f-43138ef8f6fe"},"vehicle_type_id":"4","last_reported":1781454480,"current_range_meters":4000,"station_id":"ce4bhh12rcd13ifvqfg0","pricing_plan_id":"cebpf4jnsgd1na2vs0mg"},{"bike_id":"18d362dc-f952-40bd-a7fc-e590a676d09a","system_id":"levelo_inurba_marseille","lat":43.284217,"lon":5.349871,"is_reserved":false,"is_disabled":false,"rental_uris":{"android":"levelo://app?vid=18d362dc-f952-40bd-a7fc-e590a676d09a","ios":"levelo://app?vid=18d362dc-f952-40bd-a7fc-e590a676d09a"},"vehicle_type_id":"4","last_reported":1781454480,"current_range_meters":4000,"station_id":"ce4bhbh2rcd13ifvqepg","pricing_plan_id":"cebpf4jnsgd1na2vs0mg"},{"bike_id":"ed336887-87cc-4897-90a1-9a0e72c03922","system_id":"levelo_inurba_marseille","lat":43.24657,"lon":5.37994,"is_reserved":false,"is_disabled":false,"rental_uris":{"android":"levelo://app?vid=ed336887-87cc-4897-90a1-9a0e72c03922","ios":"levelo://app?vid=ed336887-87cc-4897-90a1-9a0e72c03922"},"vehicle_type_id":"4","last_reported":1781454480,"current_range_meters":4000,"station_id":"","pricing_plan_id":"cebpf4jnsgd1na2vs0mg"},{"bike_id":"607d0434-8d00-4240-91c6-d8e6be155f04","system_id":"levelo_inurba_marseille","lat":43.26217,"lon":5.37446,"is_reserved":false,"is_disabled":false,"rental_uris":{"android":"levelo://app?vid=607d0434-8d00-4240-91c6-d8e6be155f04","ios":"levelo://app?vid=607d0434-8d00-4240-91c6-d8e6be155f04"},"vehicle_type_id":"4","last_reported":1781454480,"current_range_meters":4000,"station_id":"ce4bhgp2rcd13ifvqfc0","pricing_plan_id":"cebpf4jnsgd1na2vs0mg"},{"bike_id":"cf0c68e9-108f-4cb2-8999-26e59936ff8c","system_id":"levelo_inurba_marseille","lat":43.23059,"lon":5.35475,"is_reserved":false,"is_disabled":false,"rental_uris":{"android":"levelo://app?vid=cf0c68e9-108f-4cb2-8999-26e59936ff8c","ios":"levelo://app?vid=cf0c68e9-108f-4cb2-8999-26e59936ff8c"},"vehicle_type_id":"4","last_reported":1781454480,"current_range_meters":4400,"station_id":"cpo3342slgdg3j2ifvpg","pricing_plan_id":"cebpf4jnsgd1na2vs0mg"},{"bike_id":"d2c1c417-9992-4f5c-be0f-08fcbeddbcd9","system_id":"levelo_inurba_marseille","lat":43.29596,"lon":5.38097,"is_reserved":false,"is_disabled":true,"rental_uris":{"android":"levelo://app?vid=d2c1c417-9992-4f5c-be0f-08fcbeddbcd9","ios":"levelo://app?vid=d2c1c417-9992-4f5c-be0f-08fcbeddbcd9"},"vehicle_type_id":"4","last_reported":1781454480,"current_range_meters":4400,"station_id":"ce4bgl12rcd13ifvqbo0","pricing_plan_id":"cebpf4jnsgd1na2vs0mg"},{"bike_id":"51d4efbc-c158-41ce-b655-6df718012fe6","system_id":"levelo_inurba_marseille","lat":43.25096,"lon":5.39509,"is_reserved":false,"is_disabled":false,"rental_uris":{"android":"levelo://app?vid=51d4efbc-c158-41ce-b655-6df718012fe6","ios":"levelo://app?vid=51d4efbc-c158-41ce-b655-6df718012fe6"},"vehicle_type_id":"4","last_reported":1781454480,"current_range_meters":4400,"station_id":"ce4bhm12rcd13ifvqgkg","pricing_plan_id":"cebpf4jnsgd1na2vs0mg"},{"bike_id":"93764741-0cb5-4813-9af1-f441c0c42039","system_id":"levelo_inurba_marseille","lat":43.26219,"lon":5.3744,"is_reserved":false,"is_disabled":false,"rental_uris":{"android":"levelo://app?vid=93764741-0cb5-4813-9af1-f441c0c42039","ios":"levelo://app?vid=93764741-0cb5-4813-9af1-f441c0c42039"},"vehicle_type_id":"4","last_reported":1781454480,"current_range_meters":4400,"station_id":"ce4bhgp2rcd13ifvqfc0","pricing_plan_id":"cebpf4jnsgd1na2vs0mg"},{"bike_id":"d51ce86a-5b38-4b76-8e51-2a3373a4f2df","system_id":"levelo_inurba_marseille","lat":43.32052,"lon":5.36829,"is_reserved":false,"is_disabled":false,"rental_uris":{"android":"levelo://app?vid=d51ce86a-5b38-4b76-8e51-2a3373a4f2df","ios":"levelo://app?vid=d51ce86a-5b38-4b76-8e51-2a3373a4f2df"},"vehicle_type_id":"4","last_reported":1781454480,"current_range_meters":4400,"station_id":"","pricing_plan_id":"cebpf4jnsgd1na2vs0mg"},{"bike_id":"b333dd63-be6b-4b45-9f8f-f915b52a0711","system_id":"levelo_inurba_marseille","lat":43.25072,"lon":5.38842,"is_reserved":false,"is_disabled":false,"rental_uris":{"android":"levelo://app?vid=b333dd63-be6b-4b45-9f8f-f915b52a0711","ios":"levelo://app?vid=b333dd63-be6b-4b45-9f8f-f915b52a0711"},"vehicle_type_id":"4","last_reported":1781454480,"current_range_meters":4400,"station_id":"","pricing_plan_id":"cebpf4jnsgd1na2vs0mg"},{"bike_id":"43aec827-b955-4a67-bba8-4df0141e7eb1","system_id":"levelo_inurba_marseille","lat":43.33775,"lon":5.37478,"is_reserved":false,"is_disabled":false,"rental_uris":{"android":"levelo://app?vid=43aec827-b955-4a67-bba8-4df0141e7eb1","ios":"levelo://app?vid=43aec827-b955-4a67-bba8-4df0141e7eb1"},"vehicle_type_id":"4","last_reported":1781454480,"current_range_meters":4400,"station_id":"","pricing_plan_id":"cebpf4jnsgd1na2vs0mg"},{"bike_id":"e2298d1e-9f46-40e5-8442-06c6300e3b87","system_id":"levelo_inurba_marseille","lat":43.24648,"lon":5.39757,"is_reserved":false,"is_disabled":false,"rental_uris":{"android":"levelo://app?vid=e2298d1e-9f46-40e5-8442-06c6300e3b87","ios":"levelo://app?vid=e2298d1e-9f46-40e5-8442-06c6300e3b87"},"vehicle_type_id":"4","last_reported":1781454480,"current_range_meters":4400,"station_id":"","pricing_plan_id":"cebpf4jnsgd1na2vs0mg"},{"bike_id":"7bb9d837-8621-443d-b257-e306cb33cfa1","system_id":"levelo_inurba_marseille","lat":43.28666,"lon":5.37092,"is_reserved":false,"is_disabled":false,"rental_uris":{"android":"levelo://app?vid=7bb9d837-8621-443d-b257-e306cb33cfa1","ios":"levelo://app?vid=7bb9d837-8621-443d-b257-e306cb33cfa1"},"vehicle_type_id":"4","last_reported":1781454480,"current_range_meters":4400,"station_id":"","pricing_plan_id":"cebpf4jnsgd1na2vs0mg"},{"bike_id":"f57ddc5d-b3ad-43f3-bbc4-226ea7be866d","system_id":"levelo_inurba_marseille","lat":43.29854,"lon":5.4228,"is_reserved":false,"is_disabled":false,"rental_uris":{"android":"levelo://app?vid=f57ddc5d-b3ad-43f3-bbc4-226ea7be866d","ios":"levelo://app?vid=f57ddc5d-b3ad-43f3-bbc4-226ea7be866d"},"vehicle_type_id":"4","last_reported":1781454480,"current_range_meters":4400,"station_id":"","pricing_plan_id":"cebpf4jnsgd1na2vs0mg"},{"bike_id":"d8af3ed3-f110-42fc-a859-20bcac54350f","system_id":"levelo_inurba_marseille","lat":43.30784,"lon":5.37654,"is_reserved":false,"is_disabled":true,"rental_uris":{"android":"levelo://app?vid=d8af3ed3-f110-42fc-a859-20bcac54350f","ios":"levelo://app?vid=d8af3ed3-f110-42fc-a859-20bcac54350f"},"vehicle_type_id":"4","last_reported":1781454480,"current_range_meters":4400,"station_id":"ce4bgv92rcd13ifvqcq0","pricing_plan_id":"cebpf4jnsgd1na2vs0mg"},{"bike_id":"5e644823-0361-426b-bc16-4ac715221997","system_id":"levelo_inurba_marseille","lat":43.287,"lon":5.46656,"is_reserved":false,"is_disabled":false,"rental_uris":{"android":"levelo://app?vid=5e644823-0361-426b-bc16-4ac715221997","ios":"levelo://app?vid=5e644823-0361-426b-bc16-4ac715221997"},"vehicle_type_id":"4","last_reported":1781454480,"current_range_meters":4400,"station_id":"st_d6tc3vkotcvc738tfjhg","pricing_plan_id":"cebpf4jnsgd1na2vs0mg"},{"bike_id":"52159318-e119-4ee3-8546-cdc89f5a2d14","system_id":"levelo_inurba_marseille","lat":43.30308,"lon":5.39212,"is_reserved":false,"is_disabled":false,"rental_uris":{"android":"levelo://app?vid=52159318-e119-4ee3-8546-cdc89f5a2d14","ios":"levelo://app?vid=52159318-e119-4ee3-8546-cdc89f5a2d14"},"vehicle_type_id":"4","last_reported":1781454480,"current_range_meters":4400,"station_id":"ce4bgkh2rcd13ifvqbk0","pricing_plan_id":"cebpf4jnsgd1na2vs0mg"},{"bike_id":"9beb95c9-2bdb-4011-853f-321468fdcc97","system_id":"levelo_inurba_marseille","lat":43.2844,"lon":5.34958,"is_reserved":false,"is_disabled":false,"rental_uris":{"android":"levelo://app?vid=9beb95c9-2bdb-4011-853f-321468fdcc97","ios":"levelo://app?vid=9beb95c9-2bdb-4011-853f-321468fdcc97"},"vehicle_type_id":"4","last_reported":1781454480,"current_range_meters":4400,"station_id":"ce4bhbh2rcd13ifvqepg","pricing_plan_id":"cebpf4jnsgd1na2vs0mg"},{"bike_id":"85ff7ea8-5fb7-4bf1-8a5b-dee5e4773c13","system_id":"levelo_inurba_marseille","lat":43.3199,"lon":5.39558,"is_reserved":false,"is_disabled":false,"rental_uris":{"android":"levelo://app?vid=85ff7ea8-5fb7-4bf1-8a5b-dee5e4773c13","ios":"levelo://app?vid=85ff7ea8-5fb7-4bf1-8a5b-dee5e4773c13"},"vehicle_type_id":"4","last_reported":1781454480,"current_range_meters":4400,"station_id":"","pricing_plan_id":"cebpf4jnsgd1na2vs0mg"},{"bike_id":"f8de8b5b-5261-4890-9f15-57effedc57f9","system_id":"levelo_inurba_marseille","lat":43.24544,"lon":5.39529,"is_reserved":false,"is_disabled":false,"rental_uris":{"android":"levelo://app?vid=f8de8b5b-5261-4890-9f15-57effedc57f9","ios":"levelo://app?vid=f8de8b5b-5261-4890-9f15-57effedc57f9"},"vehicle_type_id":"4","last_reported":1781454480,"current_range_meters":4400,"station_id":"ce4bhlp2rcd13ifvqgjg","pricing_plan_id":"cebpf4jnsgd1na2vs0mg"},{"bike_id":"176513e8-a35b-4169-943e-d10cbc1cbafc","system_id":"levelo_inurba_marseille","lat":43.26036,"lon":5.37558,"is_reserved":false,"is_disabled":false,"rental_uris":{"android":"levelo://app?vid=176513e8-a35b-4169-943e-d10cbc1cbafc","ios":"levelo://app?vid=176513e8-a35b-4169-943e-d10cbc1cbafc"},"vehicle_type_id":"4","last_reported":1781454480,"current_range_meters":4400,"station_id":"ce4bhgh2rcd13ifvqfa0","pricing_plan_id":"cebpf4jnsgd1na2vs0mg"},{"bike_id":"37c618b2-7786-4631-8c60-ef8ae88e1bad","system_id":"levelo_inurba_marseille","lat":43.26792,"lon":5.3942,"is_reserved":false,"is_disabled":false,"rental_uris":{"android":"levelo://app?vid=37c618b2-7786-4631-8c60-ef8ae88e1bad","ios":"levelo://app?vid=37c618b2-7786-4631-8c60-ef8ae88e1bad"},"vehicle_type_id":"4","last_reported":1781454480,"current_range_meters":4800,"station_id":"ce4bhh12rcd13ifvqfg0","pricing_plan_id":"cebpf4jnsgd1na2vs0mg"},{"bike_id":"1ad3b388-7f05-40c4-b2be-92a0734b3aef","system_id":"levelo_inurba_marseille","lat":43.27797,"lon":5.4278,"is_reserved":false,"is_disabled":false,"rental_uris":{"android":"levelo://app?vid=1ad3b388-7f05-40c4-b2be-92a0734b3aef","ios":"levelo://app?vid=1ad3b388-7f05-40c4-b2be-92a0734b3aef"},"vehicle_type_id":"4","last_reported":1781454480,"current_range_meters":4800,"station_id":"","pricing_plan_id":"cebpf4jnsgd1na2vs0mg"},{"bike_id":"56997dce-9cb4-4387-a274-e82e510b15e3","system_id":"levelo_inurba_marseille","lat":43.28645,"lon":5.35126,"is_reserved":false,"is_disabled":false,"rental_uris":{"android":"levelo://app?vid=56997dce-9cb4-4387-a274-e82e510b15e3","ios":"levelo://app?vid=56997dce-9cb4-4387-a274-e82e510b15e3"},"vehicle_type_id":"4","last_reported":1781454480,"current_range_meters":4800,"station_id":"ce4bhch2rcd13ifvqeug","pricing_plan_id":"cebpf4jnsgd1na2vs0mg"},{"bike_id":"ee5326b1-f810-41ef-b1b7-1ea9c2c8872f","system_id":"levelo_inurba_marseille","lat":43.28735,"lon":5.46659,"is_reserved":false,"is_disabled":false,"rental_uris":{"android":"levelo://app?vid=ee5326b1-f810-41ef-b1b7-1ea9c2c8872f","ios":"levelo://app?vid=ee5326b1-f810-41ef-b1b7-1ea9c2c8872f"},"vehicle_type_id":"4","last_reported":1781454480,"current_range_meters":4800,"station_id":"st_d6tc3vkotcvc738tfjhg","pricing_plan_id":"cebpf4jnsgd1na2vs0mg"},{"bike_id":"2135d61a-85c5-40cd-a536-bf92b9ab35e9","system_id":"levelo_inurba_marseille","lat":43.25516,"lon":5.37653,"is_reserved":false,"is_disabled":false,"rental_uris":{"android":"levelo://app?vid=2135d61a-85c5-40cd-a536-bf92b9ab35e9","ios":"levelo://app?vid=2135d61a-85c5-40cd-a536-bf92b9ab35e9"},"vehicle_type_id":"4","last_reported":1781454480,"current_range_meters":4800,"station_id":"ce4bhh12rcd13ifvqff0","pricing_plan_id":"cebpf4jnsgd1na2vs0mg"},{"bike_id":"858ea767-b629-415a-959b-d9b2ac30d926","system_id":"levelo_inurba_marseille","lat":43.2848,"lon":5.3842,"is_reserved":false,"is_disabled":false,"rental_uris":{"android":"levelo://app?vid=858ea767-b629-415a-959b-d9b2ac30d926","ios":"levelo://app?vid=858ea767-b629-415a-959b-d9b2ac30d926"},"vehicle_type_id":"4","last_reported":1781454480,"current_range_meters":4800,"station_id":"ce4bh512rcd13ifvqe3g","pricing_plan_id":"cebpf4jnsgd1na2vs0mg"},{"bike_id":"1a1ad63b-bf2d-4119-8f23-2b8341ecdf2b","system_id":"levelo_inurba_marseille","lat":43.31761,"lon":5.39009,"is_reserved":false,"is_disabled":false,"rental_uris":{"android":"levelo://app?vid=1a1ad63b-bf2d-4119-8f23-2b8341ecdf2b","ios":"levelo://app?vid=1a1ad63b-bf2d-4119-8f23-2b8341ecdf2b"},"vehicle_type_id":"4","last_reported":1781454480,"current_range_meters":4800,"station_id":"ce4bhqp2rcd13ifvqhng","pricing_plan_id":"cebpf4jnsgd1na2vs0mg"},{"bike_id":"be505af8-058a-4f6d-a6f6-6ba5079c96f6","system_id":"levelo_inurba_marseille","lat":43.29867,"lon":5.39739,"is_reserved":false,"is_disabled":false,"rental_uris":{"android":"levelo://app?vid=be505af8-058a-4f6d-a6f6-6ba5079c96f6","ios":"levelo://app?vid=be505af8-058a-4f6d-a6f6-6ba5079c96f6"},"vehicle_type_id":"4","last_reported":1781454480,"current_range_meters":4800,"station_id":"ce4bh0h2rcd13ifvqd50","pricing_plan_id":"cebpf4jnsgd1na2vs0mg"},{"bike_id":"e0cccf2d-e125-4492-af49-bf7d33582c99","system_id":"levelo_inurba_marseille","lat":43.24075,"lon":5.37753,"is_reserved":false,"is_disabled":false,"rental_uris":{"android":"levelo://app?vid=e0cccf2d-e125-4492-af49-bf7d33582c99","ios":"levelo://app?vid=e0cccf2d-e125-4492-af49-bf7d33582c99"},"vehicle_type_id":"4","last_reported":1781454480,"current_range_meters":4800,"station_id":"ce4bhnp2rcd13ifvqgvg","pricing_plan_id":"cebpf4jnsgd1na2vs0mg"},{"bike_id":"5d47ff39-572d-4d0b-ad8c-4fdc3eab0b7c","system_id":"levelo_inurba_marseille","lat":43.31358,"lon":5.38501,"is_reserved":false,"is_disabled":false,"rental_uris":{"android":"levelo://app?vid=5d47ff39-572d-4d0b-ad8c-4fdc3eab0b7c","ios":"levelo://app?vid=5d47ff39-572d-4d0b-ad8c-4fdc3eab0b7c"},"vehicle_type_id":"4","last_reported":1781454480,"current_range_meters":4800,"station_id":"ce4bgt92rcd13ifvqcf0","pricing_plan_id":"cebpf4jnsgd1na2vs0mg"},{"bike_id":"178788d6-7709-4484-9971-d7cbf5ca17ce","system_id":"levelo_inurba_marseille","lat":43.21742,"lon":5.34606,"is_reserved":false,"is_disabled":false,"rental_uris":{"android":"levelo://app?vid=178788d6-7709-4484-9971-d7cbf5ca17ce","ios":"levelo://app?vid=178788d6-7709-4484-9971-d7cbf5ca17ce"},"vehicle_type_id":"4","last_reported":1781454480,"current_range_meters":4800,"station_id":"st_cvj6r9ubvosntc0bgbag","pricing_plan_id":"cebpf4jnsgd1na2vs0mg"},{"bike_id":"556c4ceb-e4c8-4d46-ba59-31e01a878de2","system_id":"levelo_inurba_marseille","lat":43.28478,"lon":5.38423,"is_reserved":false,"is_disabled":false,"rental_uris":{"android":"levelo://app?vid=556c4ceb-e4c8-4d46-ba59-31e01a878de2","ios":"levelo://app?vid=556c4ceb-e4c8-4d46-ba59-31e01a878de2"},"vehicle_type_id":"4","last_reported":1781454480,"current_range_meters":4800,"station_id":"ce4bh512rcd13ifvqe3g","pricing_plan_id":"cebpf4jnsgd1na2vs0mg"},{"bike_id":"8f27be64-7acf-498b-9d2e-74cba605605d","system_id":"levelo_inurba_marseille","lat":43.2175,"lon":5.34616,"is_reserved":false,"is_disabled":false,"rental_uris":{"android":"levelo://app?vid=8f27be64-7acf-498b-9d2e-74cba605605d","ios":"levelo://app?vid=8f27be64-7acf-498b-9d2e-74cba605605d"},"vehicle_type_id":"4","last_reported":1781454480,"current_range_meters":4800,"station_id":"st_cvj6r9ubvosntc0bgbag","pricing_plan_id":"cebpf4jnsgd1na2vs0mg"},{"bike_id":"ff183300-e381-4623-b20d-53a94b47ae87","system_id":"levelo_inurba_marseille","lat":43.32591,"lon":5.36521,"is_reserved":false,"is_disabled":false,"rental_uris":{"android":"levelo://app?vid=ff183300-e381-4623-b20d-53a94b47ae87","ios":"levelo://app?vid=ff183300-e381-4623-b20d-53a94b47ae87"},"vehicle_type_id":"4","last_reported":1781454480,"current_range_meters":4800,"station_id":"","pricing_plan_id":"cebpf4jnsgd1na2vs0mg"},{"bike_id":"6e890818-0091-49c7-b448-7d8a9bd027f5","system_id":"levelo_inurba_marseille","lat":43.24071,"lon":5.37748,"is_reserved":false,"is_disabled":false,"rental_uris":{"android":"levelo://app?vid=6e890818-0091-49c7-b448-7d8a9bd027f5","ios":"levelo://app?vid=6e890818-0091-49c7-b448-7d8a9bd027f5"},"vehicle_type_id":"4","last_reported":1781454480,"current_range_meters":4800,"station_id":"ce4bhnp2rcd13ifvqgvg","pricing_plan_id":"cebpf4jnsgd1na2vs0mg"},{"bike_id":"288ca75a-a887-49af-a41d-f0dd9ff53293","system_id":"levelo_inurba_marseille","lat":43.301447,"lon":5.374183,"is_reserved":false,"is_disabled":false,"rental_uris":{"android":"levelo://app?vid=288ca75a-a887-49af-a41d-f0dd9ff53293","ios":"levelo://app?vid=288ca75a-a887-49af-a41d-f0dd9ff53293"},"vehicle_type_id":"4","last_reported":1781454480,"current_range_meters":4800,"station_id":"ce4bgs92rcd13ifvqcc0","pricing_plan_id":"cebpf4jnsgd1na2vs0mg"},{"bike_id":"207d34b6-3a83-4d90-938a-80aab0b6e29f","system_id":"levelo_inurba_marseille","lat":43.250042,"lon":5.389242,"is_reserved":false,"is_disabled":false,"rental_uris":{"android":"levelo://app?vid=207d34b6-3a83-4d90-938a-80aab0b6e29f","ios":"levelo://app?vid=207d34b6-3a83-4d90-938a-80aab0b6e29f"},"vehicle_type_id":"4","last_reported":1781454480,"current_range_meters":5600,"station_id":"ce4bhgp2rcd13ifvqfd0","pricing_plan_id":"cebpf4jnsgd1na2vs0mg"},{"bike_id":"a47f7ec5-339e-411f-a9f3-d5a489312e95","system_id":"levelo_inurba_marseille","lat":43.28054,"lon":5.35119,"is_reserved":false,"is_disabled":false,"rental_uris":{"android":"levelo://app?vid=a47f7ec5-339e-411f-a9f3-d5a489312e95","ios":"levelo://app?vid=a47f7ec5-339e-411f-a9f3-d5a489312e95"},"vehicle_type_id":"4","last_reported":1781454480,"current_range_meters":5600,"station_id":"","pricing_plan_id":"cebpf4jnsgd1na2vs0mg"},{"bike_id":"0a447fbd-c4e9-4d6f-95ca-96703b3388eb","system_id":"levelo_inurba_marseille","lat":43.21214,"lon":5.35043,"is_reserved":false,"is_disabled":false,"rental_uris":{"android":"levelo://app?vid=0a447fbd-c4e9-4d6f-95ca-96703b3388eb","ios":"levelo://app?vid=0a447fbd-c4e9-4d6f-95ca-96703b3388eb"},"vehicle_type_id":"4","last_reported":1781454480,"current_range_meters":5600,"station_id":"","pricing_plan_id":"cebpf4jnsgd1na2vs0mg"},{"bike_id":"2d5036af-f9df-45c6-97e4-648868345309","system_id":"levelo_inurba_marseille","lat":43.33379,"lon":5.39076,"is_reserved":false,"is_disabled":false,"rental_uris":{"android":"levelo://app?vid=2d5036af-f9df-45c6-97e4-648868345309","ios":"levelo://app?vid=2d5036af-f9df-45c6-97e4-648868345309"},"vehicle_type_id":"4","last_reported":1781454480,"current_range_meters":5600,"station_id":"","pricing_plan_id":"cebpf4jnsgd1na2vs0mg"},{"bike_id":"9ad73139-7430-4597-a4c0-9765ee1bf68c","system_id":"levelo_inurba_marseille","lat":43.28415,"lon":5.34969,"is_reserved":false,"is_disabled":false,"rental_uris":{"android":"levelo://app?vid=9ad73139-7430-4597-a4c0-9765ee1bf68c","ios":"levelo://app?vid=9ad73139-7430-4597-a4c0-9765ee1bf68c"},"vehicle_type_id":"4","last_reported":1781454480,"current_range_meters":5600,"station_id":"ce4bhbh2rcd13ifvqepg","pricing_plan_id":"cebpf4jnsgd1na2vs0mg"},{"bike_id":"d117df6f-92d3-41bd-88ad-1367bea50a0c","system_id":"levelo_inurba_marseille","lat":43.24776,"lon":5.37577,"is_reserved":false,"is_disabled":false,"rental_uris":{"android":"levelo://app?vid=d117df6f-92d3-41bd-88ad-1367bea50a0c","ios":"levelo://app?vid=d117df6f-92d3-41bd-88ad-1367bea50a0c"},"vehicle_type_id":"4","last_reported":1781454480,"current_range_meters":5600,"station_id":"","pricing_plan_id":"cebpf4jnsgd1na2vs0mg"},{"bike_id":"f2ba73c5-fc69-4601-a3f3-cbbbb5b9b11d","system_id":"levelo_inurba_marseille","lat":43.28327,"lon":5.38782,"is_reserved":false,"is_disabled":false,"rental_uris":{"android":"levelo://app?vid=f2ba73c5-fc69-4601-a3f3-cbbbb5b9b11d","ios":"levelo://app?vid=f2ba73c5-fc69-4601-a3f3-cbbbb5b9b11d"},"vehicle_type_id":"4","last_reported":1781454480,"current_range_meters":5600,"station_id":"","pricing_plan_id":"cebpf4jnsgd1na2vs0mg"},{"bike_id":"1aa69796-4597-4e19-90ef-464fe6857eba","system_id":"levelo_inurba_marseille","lat":43.29471,"lon":5.44523,"is_reserved":false,"is_disabled":false,"rental_uris":{"android":"levelo://app?vid=1aa69796-4597-4e19-90ef-464fe6857eba","ios":"levelo://app?vid=1aa69796-4597-4e19-90ef-464fe6857eba"},"vehicle_type_id":"4","last_reported":1781454480,"current_range_meters":5600,"station_id":"","pricing_plan_id":"cebpf4jnsgd1na2vs0mg"},{"bike_id":"ecee4afa-8dca-408f-aabf-eedba156b3df","system_id":"levelo_inurba_marseille","lat":43.250889,"lon":5.39524,"is_reserved":false,"is_disabled":false,"rental_uris":{"android":"levelo://app?vid=ecee4afa-8dca-408f-aabf-eedba156b3df","ios":"levelo://app?vid=ecee4afa-8dca-408f-aabf-eedba156b3df"},"vehicle_type_id":"4","last_reported":1781454480,"current_range_meters":5600,"station_id":"ce4bhm12rcd13ifvqgkg","pricing_plan_id":"cebpf4jnsgd1na2vs0mg"},{"bike_id":"1b5c7b8e-75a6-4e5b-a896-3aa61ed24deb","system_id":"levelo_inurba_marseille","lat":43.29511,"lon":5.39407,"is_reserved":false,"is_disabled":true,"rental_uris":{"android":"levelo://app?vid=1b5c7b8e-75a6-4e5b-a896-3aa61ed24deb","ios":"levelo://app?vid=1b5c7b8e-75a6-4e5b-a896-3aa61ed24deb"},"vehicle_type_id":"4","last_reported":1781454480,"current_range_meters":5600,"station_id":"ce4bh292rcd13ifvqdf0","pricing_plan_id":"cebpf4jnsgd1na2vs0mg"},{"bike_id":"eda16d38-e0c1-49d8-a2a8-9038a3005b1f","system_id":"levelo_inurba_marseille","lat":43.28269,"lon":5.35057,"is_reserved":false,"is_disabled":false,"rental_uris":{"android":"levelo://app?vid=eda16d38-e0c1-49d8-a2a8-9038a3005b1f","ios":"levelo://app?vid=eda16d38-e0c1-49d8-a2a8-9038a3005b1f"},"vehicle_type_id":"4","last_reported":1781454480,"current_range_meters":5600,"station_id":"ce4bhbp2rcd13ifvqerg","pricing_plan_id":"cebpf4jnsgd1na2vs0mg"},{"bike_id":"52e89d55-3f30-4613-8302-671a182f499c","system_id":"levelo_inurba_marseille","lat":43.2806,"lon":5.34781,"is_reserved":false,"is_disabled":false,"rental_uris":{"android":"levelo://app?vid=52e89d55-3f30-4613-8302-671a182f499c","ios":"levelo://app?vid=52e89d55-3f30-4613-8302-671a182f499c"},"vehicle_type_id":"4","last_reported":1781454480,"current_range_meters":5600,"station_id":"","pricing_plan_id":"cebpf4jnsgd1na2vs0mg"},{"bike_id":"c98c9bd1-c55f-4ccd-bc25-39ce9021dd2d","system_id":"levelo_inurba_marseille","lat":43.30948,"lon":5.39032,"is_reserved":false,"is_disabled":false,"rental_uris":{"android":"levelo://app?vid=c98c9bd1-c55f-4ccd-bc25-39ce9021dd2d","ios":"levelo://app?vid=c98c9bd1-c55f-4ccd-bc25-39ce9021dd2d"},"vehicle_type_id":"4","last_reported":1781454480,"current_range_meters":5600,"station_id":"ce4bgup2rcd13ifvqco0","pricing_plan_id":"cebpf4jnsgd1na2vs0mg"},{"bike_id":"52c9834c-1c3b-43ed-aed9-745fe9725e1e","system_id":"levelo_inurba_marseille","lat":43.30953,"lon":5.39035,"is_reserved":false,"is_disabled":false,"rental_uris":{"android":"levelo://app?vid=52c9834c-1c3b-43ed-aed9-745fe9725e1e","ios":"levelo://app?vid=52c9834c-1c3b-43ed-aed9-745fe9725e1e"},"vehicle_type_id":"4","last_reported":1781454480,"current_range_meters":5600,"station_id":"ce4bgup2rcd13ifvqco0","pricing_plan_id":"cebpf4jnsgd1na2vs0mg"},{"bike_id":"6be22a3d-4708-4e07-9d88-292be1cb975b","system_id":"levelo_inurba_marseille","lat":43.30958,"lon":5.39045,"is_reserved":false,"is_disabled":false,"rental_uris":{"android":"levelo://app?vid=6be22a3d-4708-4e07-9d88-292be1cb975b","ios":"levelo://app?vid=6be22a3d-4708-4e07-9d88-292be1cb975b"},"vehicle_type_id":"4","last_reported":1781454480,"current_range_meters":5600,"station_id":"ce4bgup2rcd13ifvqco0","pricing_plan_id":"cebpf4jnsgd1na2vs0mg"},{"bike_id":"f0e23bdf-f0c5-49fa-b82f-83c208f5ae8a","system_id":"levelo_inurba_marseille","lat":43.3171,"lon":5.40465,"is_reserved":false,"is_disabled":false,"rental_uris":{"android":"levelo://app?vid=f0e23bdf-f0c5-49fa-b82f-83c208f5ae8a","ios":"levelo://app?vid=f0e23bdf-f0c5-49fa-b82f-83c208f5ae8a"},"vehicle_type_id":"4","last_reported":1781454480,"current_range_meters":5600,"station_id":"ce4bh012rcd13ifvqd00","pricing_plan_id":"cebpf4jnsgd1na2vs0mg"},{"bike_id":"c2bfcf75-197f-4d0d-8b20-256d9aaad722","system_id":"levelo_inurba_marseille","lat":43.32116,"lon":5.36768,"is_reserved":false,"is_disabled":false,"rental_uris":{"android":"levelo://app?vid=c2bfcf75-197f-4d0d-8b20-256d9aaad722","ios":"levelo://app?vid=c2bfcf75-197f-4d0d-8b20-256d9aaad722"},"vehicle_type_id":"4","last_reported":1781454480,"current_range_meters":5600,"station_id":"ce4bhrh2rcd13ifvqhug","pricing_plan_id":"cebpf4jnsgd1na2vs0mg"},{"bike_id":"649e6fee-89c0-4a20-8918-f820245263ae","system_id":"levelo_inurba_marseille","lat":43.26018,"lon":5.37547,"is_reserved":false,"is_disabled":false,"rental_uris":{"android":"levelo://app?vid=649e6fee-89c0-4a20-8918-f820245263ae","ios":"levelo://app?vid=649e6fee-89c0-4a20-8918-f820245263ae"},"vehicle_type_id":"4","last_reported":1781454480,"current_range_meters":5600,"station_id":"ce4bhgh2rcd13ifvqfa0","pricing_plan_id":"cebpf4jnsgd1na2vs0mg"},{"bike_id":"bc9bb278-9a3f-444c-9ee4-086e46a06286","system_id":"levelo_inurba_marseille","lat":43.22259,"lon":5.40489,"is_reserved":false,"is_disabled":false,"rental_uris":{"android":"levelo://app?vid=bc9bb278-9a3f-444c-9ee4-086e46a06286","ios":"levelo://app?vid=bc9bb278-9a3f-444c-9ee4-086e46a06286"},"vehicle_type_id":"4","last_reported":1781454480,"current_range_meters":5600,"station_id":"","pricing_plan_id":"cebpf4jnsgd1na2vs0mg"},{"bike_id":"234f8ffc-2095-4c48-878e-f286baea4ab2","system_id":"levelo_inurba_marseille","lat":43.280029,"lon":5.400091,"is_reserved":false,"is_disabled":false,"rental_uris":{"android":"levelo://app?vid=234f8ffc-2095-4c48-878e-f286baea4ab2","ios":"levelo://app?vid=234f8ffc-2095-4c48-878e-f286baea4ab2"},"vehicle_type_id":"4","last_reported":1781454480,"current_range_meters":5600,"station_id":"ce4bho92rcd13ifvqh4g","pricing_plan_id":"cebpf4jnsgd1na2vs0mg"},{"bike_id":"ef98ba2b-57cc-4b1f-814d-ede86e797490","system_id":"levelo_inurba_marseille","lat":43.28708,"lon":5.39989,"is_reserved":false,"is_disabled":false,"rental_uris":{"android":"levelo://app?vid=ef98ba2b-57cc-4b1f-814d-ede86e797490","ios":"levelo://app?vid=ef98ba2b-57cc-4b1f-814d-ede86e797490"},"vehicle_type_id":"4","last_reported":1781454480,"current_range_meters":5600,"station_id":"ce4bho92rcd13ifvqh3g","pricing_plan_id":"cebpf4jnsgd1na2vs0mg"},{"bike_id":"96b2ab90-d8d2-49df-9035-0467b0e6c086","system_id":"levelo_inurba_marseille","lat":43.29815,"lon":5.44081,"is_reserved":false,"is_disabled":false,"rental_uris":{"android":"levelo://app?vid=96b2ab90-d8d2-49df-9035-0467b0e6c086","ios":"levelo://app?vid=96b2ab90-d8d2-49df-9035-0467b0e6c086"},"vehicle_type_id":"4","last_reported":1781454480,"current_range_meters":5600,"station_id":"st_d3jp68qikq2c7381ktn0","pricing_plan_id":"cebpf4jnsgd1na2vs0mg"},{"bike_id":"e6268e01-408c-4640-b5e2-0cc5f3b5f674","system_id":"levelo_inurba_marseille","lat":43.33544,"lon":5.37462,"is_reserved":false,"is_disabled":false,"rental_uris":{"android":"levelo://app?vid=e6268e01-408c-4640-b5e2-0cc5f3b5f674","ios":"levelo://app?vid=e6268e01-408c-4640-b5e2-0cc5f3b5f674"},"vehicle_type_id":"4","last_reported":1781454480,"current_range_meters":5600,"station_id":"st_d46tts09ee8s73dlu43g","pricing_plan_id":"cebpf4jnsgd1na2vs0mg"},{"bike_id":"8150589d-aa57-493e-b46c-c7049ac03237","system_id":"levelo_inurba_marseille","lat":43.32524,"lon":5.3915,"is_reserved":false,"is_disabled":false,"rental_uris":{"android":"levelo://app?vid=8150589d-aa57-493e-b46c-c7049ac03237","ios":"levelo://app?vid=8150589d-aa57-493e-b46c-c7049ac03237"},"vehicle_type_id":"4","last_reported":1781454480,"current_range_meters":5600,"station_id":"","pricing_plan_id":"cebpf4jnsgd1na2vs0mg"},{"bike_id":"153149b6-8db0-41eb-b4ed-8684afb29eab","system_id":"levelo_inurba_marseille","lat":43.27312,"lon":5.3908,"is_reserved":false,"is_disabled":false,"rental_uris":{"android":"levelo://app?vid=153149b6-8db0-41eb-b4ed-8684afb29eab","ios":"levelo://app?vid=153149b6-8db0-41eb-b4ed-8684afb29eab"},"vehicle_type_id":"4","last_reported":1781454480,"current_range_meters":5600,"station_id":"ce4bhgp2rcd13ifvqfe0","pricing_plan_id":"cebpf4jnsgd1na2vs0mg"},{"bike_id":"d729573f-a86b-41d2-bc51-bd23c133868d","system_id":"levelo_inurba_marseille","lat":43.31518,"lon":5.38389,"is_reserved":false,"is_disabled":false,"rental_uris":{"android":"levelo://app?vid=d729573f-a86b-41d2-bc51-bd23c133868d","ios":"levelo://app?vid=d729573f-a86b-41d2-bc51-bd23c133868d"},"vehicle_type_id":"4","last_reported":1781454480,"current_range_meters":5600,"station_id":"","pricing_plan_id":"cebpf4jnsgd1na2vs0mg"},{"bike_id":"8c35e00d-f145-4990-9075-f1452b27a592","system_id":"levelo_inurba_marseille","lat":43.21188,"lon":5.35067,"is_reserved":false,"is_disabled":false,"rental_uris":{"android":"levelo://app?vid=8c35e00d-f145-4990-9075-f1452b27a592","ios":"levelo://app?vid=8c35e00d-f145-4990-9075-f1452b27a592"},"vehicle_type_id":"4","last_reported":1781454480,"current_range_meters":6000,"station_id":"st_cvj6sg6p6f1abm77japg","pricing_plan_id":"cebpf4jnsgd1na2vs0mg"},{"bike_id":"2d5ef193-39f2-4c11-87ca-11be80212d28","system_id":"levelo_inurba_marseille","lat":43.25494,"lon":5.37642,"is_reserved":false,"is_disabled":false,"rental_uris":{"android":"levelo://app?vid=2d5ef193-39f2-4c11-87ca-11be80212d28","ios":"levelo://app?vid=2d5ef193-39f2-4c11-87ca-11be80212d28"},"vehicle_type_id":"4","last_reported":1781454480,"current_range_meters":6000,"station_id":"ce4bhh12rcd13ifvqff0","pricing_plan_id":"cebpf4jnsgd1na2vs0mg"},{"bike_id":"dd03c67f-33f6-45b6-a48b-14bffd934592","system_id":"levelo_inurba_marseille","lat":43.27383,"lon":5.36277,"is_reserved":false,"is_disabled":false,"rental_uris":{"android":"levelo://app?vid=dd03c67f-33f6-45b6-a48b-14bffd934592","ios":"levelo://app?vid=dd03c67f-33f6-45b6-a48b-14bffd934592"},"vehicle_type_id":"4","last_reported":1781454480,"current_range_meters":6000,"station_id":"ce4bhbh2rcd13ifvqeo0","pricing_plan_id":"cebpf4jnsgd1na2vs0mg"},{"bike_id":"7ab101d2-fd7e-47cf-982d-f85b01b5cea8","system_id":"levelo_inurba_marseille","lat":43.29066,"lon":5.3697,"is_reserved":false,"is_disabled":false,"rental_uris":{"android":"levelo://app?vid=7ab101d2-fd7e-47cf-982d-f85b01b5cea8","ios":"levelo://app?vid=7ab101d2-fd7e-47cf-982d-f85b01b5cea8"},"vehicle_type_id":"4","last_reported":1781454480,"current_range_meters":6000,"station_id":"","pricing_plan_id":"cebpf4jnsgd1na2vs0mg"},{"bike_id":"67b5d997-f3d7-4ed9-aa45-e579b87e467a","system_id":"levelo_inurba_marseille","lat":43.33763,"lon":5.37419,"is_reserved":false,"is_disabled":false,"rental_uris":{"android":"levelo://app?vid=67b5d997-f3d7-4ed9-aa45-e579b87e467a","ios":"levelo://app?vid=67b5d997-f3d7-4ed9-aa45-e579b87e467a"},"vehicle_type_id":"4","last_reported":1781454480,"current_range_meters":6000,"station_id":"","pricing_plan_id":"cebpf4jnsgd1na2vs0mg"},{"bike_id":"61704817-1327-4008-824f-2bfba68820ec","system_id":"levelo_inurba_marseille","lat":43.239,"lon":5.37455,"is_reserved":false,"is_disabled":false,"rental_uris":{"android":"levelo://app?vid=61704817-1327-4008-824f-2bfba68820ec","ios":"levelo://app?vid=61704817-1327-4008-824f-2bfba68820ec"},"vehicle_type_id":"4","last_reported":1781454480,"current_range_meters":6000,"station_id":"st_d6sm7csbq4hs73f8fpjg","pricing_plan_id":"cebpf4jnsgd1na2vs0mg"},{"bike_id":"2efefc03-4edd-4e9c-8c65-243cf8199fbd","system_id":"levelo_inurba_marseille","lat":43.24477,"lon":5.42521,"is_reserved":false,"is_disabled":false,"rental_uris":{"android":"levelo://app?vid=2efefc03-4edd-4e9c-8c65-243cf8199fbd","ios":"levelo://app?vid=2efefc03-4edd-4e9c-8c65-243cf8199fbd"},"vehicle_type_id":"4","last_reported":1781454480,"current_range_meters":6000,"station_id":"st_d4a3vfp97mjs738cd8kg","pricing_plan_id":"cebpf4jnsgd1na2vs0mg"},{"bike_id":"eaf7b6af-4b59-4c2d-9b24-3b2ba05e4160","system_id":"levelo_inurba_marseille","lat":43.31686,"lon":5.37654,"is_reserved":false,"is_disabled":false,"rental_uris":{"android":"levelo://app?vid=eaf7b6af-4b59-4c2d-9b24-3b2ba05e4160","ios":"levelo://app?vid=eaf7b6af-4b59-4c2d-9b24-3b2ba05e4160"},"vehicle_type_id":"4","last_reported":1781454480,"current_range_meters":6000,"station_id":"","pricing_plan_id":"cebpf4jnsgd1na2vs0mg"},{"bike_id":"92392093-a828-41ad-8728-12a3d2dae9ad","system_id":"levelo_inurba_marseille","lat":43.28287,"lon":5.35094,"is_reserved":false,"is_disabled":false,"rental_uris":{"android":"levelo://app?vid=92392093-a828-41ad-8728-12a3d2dae9ad","ios":"levelo://app?vid=92392093-a828-41ad-8728-12a3d2dae9ad"},"vehicle_type_id":"4","last_reported":1781454480,"current_range_meters":6000,"station_id":"ce4bhbp2rcd13ifvqerg","pricing_plan_id":"cebpf4jnsgd1na2vs0mg"},{"bike_id":"50428c88-f50a-4e26-8649-cd3352160e54","system_id":"levelo_inurba_marseille","lat":43.28477,"lon":5.38422,"is_reserved":false,"is_disabled":false,"rental_uris":{"android":"levelo://app?vid=50428c88-f50a-4e26-8649-cd3352160e54","ios":"levelo://app?vid=50428c88-f50a-4e26-8649-cd3352160e54"},"vehicle_type_id":"4","last_reported":1781454480,"current_range_meters":6000,"station_id":"ce4bh512rcd13ifvqe3g","pricing_plan_id":"cebpf4jnsgd1na2vs0mg"},{"bike_id":"28183782-edae-4093-a21e-87e9046a9ce3","system_id":"levelo_inurba_marseille","lat":43.302564,"lon":5.400724,"is_reserved":false,"is_disabled":false,"rental_uris":{"android":"levelo://app?vid=28183782-edae-4093-a21e-87e9046a9ce3","ios":"levelo://app?vid=28183782-edae-4093-a21e-87e9046a9ce3"},"vehicle_type_id":"4","last_reported":1781454480,"current_range_meters":6000,"station_id":"ce4bgvh2rcd13ifvqcs0","pricing_plan_id":"cebpf4jnsgd1na2vs0mg"},{"bike_id":"fcbdd51f-fa24-4cc6-b92f-f3288e2d1c12","system_id":"levelo_inurba_marseille","lat":43.28686,"lon":5.46706,"is_reserved":false,"is_disabled":false,"rental_uris":{"android":"levelo://app?vid=fcbdd51f-fa24-4cc6-b92f-f3288e2d1c12","ios":"levelo://app?vid=fcbdd51f-fa24-4cc6-b92f-f3288e2d1c12"},"vehicle_type_id":"4","last_reported":1781454480,"current_range_meters":6000,"station_id":"st_d6tc3vkotcvc738tfjhg","pricing_plan_id":"cebpf4jnsgd1na2vs0mg"},{"bike_id":"a3915cd7-7a62-471e-87a4-b14a9b5e3988","system_id":"levelo_inurba_marseille","lat":43.28236,"lon":5.35078,"is_reserved":false,"is_disabled":false,"rental_uris":{"android":"levelo://app?vid=a3915cd7-7a62-471e-87a4-b14a9b5e3988","ios":"levelo://app?vid=a3915cd7-7a62-471e-87a4-b14a9b5e3988"},"vehicle_type_id":"4","last_reported":1781454480,"current_range_meters":6000,"station_id":"ce4bhbp2rcd13ifvqerg","pricing_plan_id":"cebpf4jnsgd1na2vs0mg"},{"bike_id":"44d8c518-1e62-4ae4-9ca9-d1ae179d7840","system_id":"levelo_inurba_marseille","lat":43.29609,"lon":5.37705,"is_reserved":false,"is_disabled":false,"rental_uris":{"android":"levelo://app?vid=44d8c518-1e62-4ae4-9ca9-d1ae179d7840","ios":"levelo://app?vid=44d8c518-1e62-4ae4-9ca9-d1ae179d7840"},"vehicle_type_id":"4","last_reported":1781454480,"current_range_meters":6000,"station_id":"ce4bgi92rcd13ifvqb90","pricing_plan_id":"cebpf4jnsgd1na2vs0mg"},{"bike_id":"9dd4f3a8-39d5-43f7-9f51-1797629b3584","system_id":"levelo_inurba_marseille","lat":43.22525,"lon":5.3484,"is_reserved":false,"is_disabled":false,"rental_uris":{"android":"levelo://app?vid=9dd4f3a8-39d5-43f7-9f51-1797629b3584","ios":"levelo://app?vid=9dd4f3a8-39d5-43f7-9f51-1797629b3584"},"vehicle_type_id":"4","last_reported":1781454480,"current_range_meters":6000,"station_id":"st_cvj5dfep6f1abm77gieg","pricing_plan_id":"cebpf4jnsgd1na2vs0mg"},{"bike_id":"e033fec3-a534-466f-a297-490ac599b623","system_id":"levelo_inurba_marseille","lat":43.24681,"lon":5.38163,"is_reserved":false,"is_disabled":false,"rental_uris":{"android":"levelo://app?vid=e033fec3-a534-466f-a297-490ac599b623","ios":"levelo://app?vid=e033fec3-a534-466f-a297-490ac599b623"},"vehicle_type_id":"4","last_reported":1781454480,"current_range_meters":6000,"station_id":"ce4bhih2rcd13ifvqfr0","pricing_plan_id":"cebpf4jnsgd1na2vs0mg"},{"bike_id":"6957acf4-7deb-4e09-9dc1-15b653cc9dcd","system_id":"levelo_inurba_marseille","lat":43.305382,"lon":5.365634,"is_reserved":false,"is_disabled":false,"rental_uris":{"android":"levelo://app?vid=6957acf4-7deb-4e09-9dc1-15b653cc9dcd","ios":"levelo://app?vid=6957acf4-7deb-4e09-9dc1-15b653cc9dcd"},"vehicle_type_id":"4","last_reported":1781454480,"current_range_meters":6000,"station_id":"ce4bgs12rcd13ifvqcag","pricing_plan_id":"cebpf4jnsgd1na2vs0mg"},{"bike_id":"2f5a2eb1-a60a-4fe8-a5aa-002259731410","system_id":"levelo_inurba_marseille","lat":43.31072,"lon":5.37189,"is_reserved":false,"is_disabled":true,"rental_uris":{"android":"levelo://app?vid=2f5a2eb1-a60a-4fe8-a5aa-002259731410","ios":"levelo://app?vid=2f5a2eb1-a60a-4fe8-a5aa-002259731410"},"vehicle_type_id":"4","last_reported":1781454480,"current_range_meters":6000,"station_id":"st_d4kl2rp97mjs73e7tdfg","pricing_plan_id":"cebpf4jnsgd1na2vs0mg"},{"bike_id":"e1241a9b-063d-4f1f-87e6-02184d4770b2","system_id":"levelo_inurba_marseille","lat":43.27418,"lon":5.39423,"is_reserved":false,"is_disabled":false,"rental_uris":{"android":"levelo://app?vid=e1241a9b-063d-4f1f-87e6-02184d4770b2","ios":"levelo://app?vid=e1241a9b-063d-4f1f-87e6-02184d4770b2"},"vehicle_type_id":"4","last_reported":1781454480,"current_range_meters":6000,"station_id":"ce4bhdp2rcd13ifvqf20","pricing_plan_id":"cebpf4jnsgd1na2vs0mg"},{"bike_id":"423f6182-a443-4c34-a818-81a8277ac3c4","system_id":"levelo_inurba_marseille","lat":43.22528,"lon":5.34831,"is_reserved":false,"is_disabled":false,"rental_uris":{"android":"levelo://app?vid=423f6182-a443-4c34-a818-81a8277ac3c4","ios":"levelo://app?vid=423f6182-a443-4c34-a818-81a8277ac3c4"},"vehicle_type_id":"4","last_reported":1781454480,"current_range_meters":6000,"station_id":"st_cvj5dfep6f1abm77gieg","pricing_plan_id":"cebpf4jnsgd1na2vs0mg"},{"bike_id":"fc89c37c-b3bf-469d-bc96-a0343b5538da","system_id":"levelo_inurba_marseille","lat":43.28921,"lon":5.38404,"is_reserved":false,"is_disabled":false,"rental_uris":{"android":"levelo://app?vid=fc89c37c-b3bf-469d-bc96-a0343b5538da","ios":"levelo://app?vid=fc89c37c-b3bf-469d-bc96-a0343b5538da"},"vehicle_type_id":"4","last_reported":1781454480,"current_range_meters":6000,"station_id":"ce4bh612rcd13ifvqe6g","pricing_plan_id":"cebpf4jnsgd1na2vs0mg"},{"bike_id":"9f64cb25-6d95-49a2-bb44-e07d7e3e1da5","system_id":"levelo_inurba_marseille","lat":43.2623,"lon":5.38772,"is_reserved":false,"is_disabled":false,"rental_uris":{"android":"levelo://app?vid=9f64cb25-6d95-49a2-bb44-e07d7e3e1da5","ios":"levelo://app?vid=9f64cb25-6d95-49a2-bb44-e07d7e3e1da5"},"vehicle_type_id":"4","last_reported":1781454480,"current_range_meters":6000,"station_id":"st_d8gjfg747rts73coq3b0","pricing_plan_id":"cebpf4jnsgd1na2vs0mg"},{"bike_id":"72796695-2555-4787-a2b1-e350512330aa","system_id":"levelo_inurba_marseille","lat":43.30542,"lon":5.36548,"is_reserved":false,"is_disabled":false,"rental_uris":{"android":"levelo://app?vid=72796695-2555-4787-a2b1-e350512330aa","ios":"levelo://app?vid=72796695-2555-4787-a2b1-e350512330aa"},"vehicle_type_id":"4","last_reported":1781454480,"current_range_meters":6000,"station_id":"ce4bgs12rcd13ifvqcag","pricing_plan_id":"cebpf4jnsgd1na2vs0mg"},{"bike_id":"18d3753c-9feb-4a72-9030-d19f09b8a97b","system_id":"levelo_inurba_marseille","lat":43.29856,"lon":5.37917,"is_reserved":false,"is_disabled":false,"rental_uris":{"android":"levelo://app?vid=18d3753c-9feb-4a72-9030-d19f09b8a97b","ios":"levelo://app?vid=18d3753c-9feb-4a72-9030-d19f09b8a97b"},"vehicle_type_id":"4","last_reported":1781454480,"current_range_meters":6400,"station_id":"","pricing_plan_id":"cebpf4jnsgd1na2vs0mg"},{"bike_id":"f4a896bd-76f8-49f9-ad70-d38d9c0e9789","system_id":"levelo_inurba_marseille","lat":43.30598,"lon":5.39373,"is_reserved":false,"is_disabled":false,"rental_uris":{"android":"levelo://app?vid=f4a896bd-76f8-49f9-ad70-d38d9c0e9789","ios":"levelo://app?vid=f4a896bd-76f8-49f9-ad70-d38d9c0e9789"},"vehicle_type_id":"4","last_reported":1781454480,"current_range_meters":6400,"station_id":"ce4bh0p2rcd13ifvqd80","pricing_plan_id":"cebpf4jnsgd1na2vs0mg"},{"bike_id":"8fea25ca-fb48-4384-9778-a8089f84f9ac","system_id":"levelo_inurba_marseille","lat":43.29707,"lon":5.38108,"is_reserved":false,"is_disabled":false,"rental_uris":{"android":"levelo://app?vid=8fea25ca-fb48-4384-9778-a8089f84f9ac","ios":"levelo://app?vid=8fea25ca-fb48-4384-9778-a8089f84f9ac"},"vehicle_type_id":"4","last_reported":1781454480,"current_range_meters":6400,"station_id":"","pricing_plan_id":"cebpf4jnsgd1na2vs0mg"},{"bike_id":"de413249-c88e-41dd-bf2e-9cb6ae6bfa43","system_id":"levelo_inurba_marseille","lat":43.28658,"lon":5.36345,"is_reserved":false,"is_disabled":false,"rental_uris":{"android":"levelo://app?vid=de413249-c88e-41dd-bf2e-9cb6ae6bfa43","ios":"levelo://app?vid=de413249-c88e-41dd-bf2e-9cb6ae6bfa43"},"vehicle_type_id":"4","last_reported":1781454480,"current_range_meters":6400,"station_id":"ce4bhah2rcd13ifvqej0","pricing_plan_id":"cebpf4jnsgd1na2vs0mg"},{"bike_id":"56f2ef51-600d-4f49-a422-ce2f71d0bb3a","system_id":"levelo_inurba_marseille","lat":43.24412,"lon":5.37028,"is_reserved":false,"is_disabled":false,"rental_uris":{"android":"levelo://app?vid=56f2ef51-600d-4f49-a422-ce2f71d0bb3a","ios":"levelo://app?vid=56f2ef51-600d-4f49-a422-ce2f71d0bb3a"},"vehicle_type_id":"4","last_reported":1781454480,"current_range_meters":6400,"station_id":"ce4bhhh2rcd13ifvqfk0","pricing_plan_id":"cebpf4jnsgd1na2vs0mg"},{"bike_id":"72a68596-e19c-4a52-ba10-9bdae69e8aa7","system_id":"levelo_inurba_marseille","lat":43.26486,"lon":5.39554,"is_reserved":false,"is_disabled":true,"rental_uris":{"android":"levelo://app?vid=72a68596-e19c-4a52-ba10-9bdae69e8aa7","ios":"levelo://app?vid=72a68596-e19c-4a52-ba10-9bdae69e8aa7"},"vehicle_type_id":"4","last_reported":1781454480,"current_range_meters":6400,"station_id":"ce4bhi12rcd13ifvqfq0","pricing_plan_id":"cebpf4jnsgd1na2vs0mg"},{"bike_id":"79d3fe55-179a-4dcd-8254-78b6944a2fa4","system_id":"levelo_inurba_marseille","lat":43.25477,"lon":5.3758,"is_reserved":false,"is_disabled":false,"rental_uris":{"android":"levelo://app?vid=79d3fe55-179a-4dcd-8254-78b6944a2fa4","ios":"levelo://app?vid=79d3fe55-179a-4dcd-8254-78b6944a2fa4"},"vehicle_type_id":"4","last_reported":1781454480,"current_range_meters":6400,"station_id":"","pricing_plan_id":"cebpf4jnsgd1na2vs0mg"},{"bike_id":"a7a7b8b3-ea55-4ee7-836b-10c39a1fff22","system_id":"levelo_inurba_marseille","lat":43.30261,"lon":5.40068,"is_reserved":false,"is_disabled":false,"rental_uris":{"android":"levelo://app?vid=a7a7b8b3-ea55-4ee7-836b-10c39a1fff22","ios":"levelo://app?vid=a7a7b8b3-ea55-4ee7-836b-10c39a1fff22"},"vehicle_type_id":"4","last_reported":1781454480,"current_range_meters":6400,"station_id":"ce4bgvh2rcd13ifvqcs0","pricing_plan_id":"cebpf4jnsgd1na2vs0mg"},{"bike_id":"0c977e9a-f490-484e-8825-5fb45e23fb00","system_id":"levelo_inurba_marseille","lat":43.23184,"lon":5.35563,"is_reserved":false,"is_disabled":false,"rental_uris":{"android":"levelo://app?vid=0c977e9a-f490-484e-8825-5fb45e23fb00","ios":"levelo://app?vid=0c977e9a-f490-484e-8825-5fb45e23fb00"},"vehicle_type_id":"4","last_reported":1781454480,"current_range_meters":6400,"station_id":"ce4bhu92rcd13ifvqi70","pricing_plan_id":"cebpf4jnsgd1na2vs0mg"},{"bike_id":"31a5c23d-40d4-417f-98b3-4241d25cf95b","system_id":"levelo_inurba_marseille","lat":43.33368,"lon":5.39335,"is_reserved":false,"is_disabled":false,"rental_uris":{"android":"levelo://app?vid=31a5c23d-40d4-417f-98b3-4241d25cf95b","ios":"levelo://app?vid=31a5c23d-40d4-417f-98b3-4241d25cf95b"},"vehicle_type_id":"4","last_reported":1781454480,"current_range_meters":6400,"station_id":"","pricing_plan_id":"cebpf4jnsgd1na2vs0mg"},{"bike_id":"3dc7f24d-6d8b-4011-9db0-360f1705aa2e","system_id":"levelo_inurba_marseille","lat":43.303038,"lon":5.392164,"is_reserved":false,"is_disabled":false,"rental_uris":{"android":"levelo://app?vid=3dc7f24d-6d8b-4011-9db0-360f1705aa2e","ios":"levelo://app?vid=3dc7f24d-6d8b-4011-9db0-360f1705aa2e"},"vehicle_type_id":"4","last_reported":1781454480,"current_range_meters":6400,"station_id":"ce4bgkh2rcd13ifvqbk0","pricing_plan_id":"cebpf4jnsgd1na2vs0mg"},{"bike_id":"f61863b0-f767-44a6-8d35-21d2d9984309","system_id":"levelo_inurba_marseille","lat":43.28936,"lon":5.38848,"is_reserved":false,"is_disabled":false,"rental_uris":{"android":"levelo://app?vid=f61863b0-f767-44a6-8d35-21d2d9984309","ios":"levelo://app?vid=f61863b0-f767-44a6-8d35-21d2d9984309"},"vehicle_type_id":"4","last_reported":1781454480,"current_range_meters":6400,"station_id":"","pricing_plan_id":"cebpf4jnsgd1na2vs0mg"},{"bike_id":"30c94a8b-1b20-4974-ba93-45ae18971a3b","system_id":"levelo_inurba_marseille","lat":43.2893,"lon":5.36409,"is_reserved":false,"is_disabled":false,"rental_uris":{"android":"levelo://app?vid=30c94a8b-1b20-4974-ba93-45ae18971a3b","ios":"levelo://app?vid=30c94a8b-1b20-4974-ba93-45ae18971a3b"},"vehicle_type_id":"4","last_reported":1781454480,"current_range_meters":6400,"station_id":"ce4bhc92rcd13ifvqetg","pricing_plan_id":"cebpf4jnsgd1na2vs0mg"},{"bike_id":"9b329a65-7b70-4e26-a818-02e7b725d4f9","system_id":"levelo_inurba_marseille","lat":43.28409,"lon":5.34988,"is_reserved":false,"is_disabled":false,"rental_uris":{"android":"levelo://app?vid=9b329a65-7b70-4e26-a818-02e7b725d4f9","ios":"levelo://app?vid=9b329a65-7b70-4e26-a818-02e7b725d4f9"},"vehicle_type_id":"4","last_reported":1781454480,"current_range_meters":6400,"station_id":"ce4bhbh2rcd13ifvqepg","pricing_plan_id":"cebpf4jnsgd1na2vs0mg"},{"bike_id":"83c4a4c7-5424-4a1f-8a98-091c8af4c5e0","system_id":"levelo_inurba_marseille","lat":43.29657,"lon":5.36252,"is_reserved":false,"is_disabled":false,"rental_uris":{"android":"levelo://app?vid=83c4a4c7-5424-4a1f-8a98-091c8af4c5e0","ios":"levelo://app?vid=83c4a4c7-5424-4a1f-8a98-091c8af4c5e0"},"vehicle_type_id":"4","last_reported":1781454480,"current_range_meters":6400,"station_id":"","pricing_plan_id":"cebpf4jnsgd1na2vs0mg"},{"bike_id":"f6fea32a-3a40-4a78-a0ed-39fe69367616","system_id":"levelo_inurba_marseille","lat":43.28665,"lon":5.36355,"is_reserved":false,"is_disabled":false,"rental_uris":{"android":"levelo://app?vid=f6fea32a-3a40-4a78-a0ed-39fe69367616","ios":"levelo://app?vid=f6fea32a-3a40-4a78-a0ed-39fe69367616"},"vehicle_type_id":"4","last_reported":1781454480,"current_range_meters":6400,"station_id":"ce4bhah2rcd13ifvqej0","pricing_plan_id":"cebpf4jnsgd1na2vs0mg"},{"bike_id":"54e482a5-c534-4992-ad75-060a9850516b","system_id":"levelo_inurba_marseille","lat":43.32357,"lon":5.36744,"is_reserved":false,"is_disabled":false,"rental_uris":{"android":"levelo://app?vid=54e482a5-c534-4992-ad75-060a9850516b","ios":"levelo://app?vid=54e482a5-c534-4992-ad75-060a9850516b"},"vehicle_type_id":"4","last_reported":1781454480,"current_range_meters":6800,"station_id":"ce4bhsh2rcd13ifvqi2g","pricing_plan_id":"cebpf4jnsgd1na2vs0mg"},{"bike_id":"9d7cfe82-e27f-4fb9-a963-f2c0e78ce3c1","system_id":"levelo_inurba_marseille","lat":43.28788,"lon":5.37649,"is_reserved":false,"is_disabled":false,"rental_uris":{"android":"levelo://app?vid=9d7cfe82-e27f-4fb9-a963-f2c0e78ce3c1","ios":"levelo://app?vid=9d7cfe82-e27f-4fb9-a963-f2c0e78ce3c1"},"vehicle_type_id":"4","last_reported":1781454480,"current_range_meters":6800,"station_id":"","pricing_plan_id":"cebpf4jnsgd1na2vs0mg"},{"bike_id":"013347b5-f5ff-4484-8a34-93cd1d903112","system_id":"levelo_inurba_marseille","lat":43.28458,"lon":5.35018,"is_reserved":false,"is_disabled":false,"rental_uris":{"android":"levelo://app?vid=013347b5-f5ff-4484-8a34-93cd1d903112","ios":"levelo://app?vid=013347b5-f5ff-4484-8a34-93cd1d903112"},"vehicle_type_id":"4","last_reported":1781454480,"current_range_meters":6800,"station_id":"","pricing_plan_id":"cebpf4jnsgd1na2vs0mg"},{"bike_id":"7954bb94-2ae6-44a3-8b42-e2c960b73def","system_id":"levelo_inurba_marseille","lat":43.237867,"lon":5.366361,"is_reserved":false,"is_disabled":false,"rental_uris":{"android":"levelo://app?vid=7954bb94-2ae6-44a3-8b42-e2c960b73def","ios":"levelo://app?vid=7954bb94-2ae6-44a3-8b42-e2c960b73def"},"vehicle_type_id":"4","last_reported":1781454480,"current_range_meters":6800,"station_id":"st_d3nk18o9ro0c73en2l3g","pricing_plan_id":"cebpf4jnsgd1na2vs0mg"},{"bike_id":"d1800741-fac1-4624-b995-5a057797ea03","system_id":"levelo_inurba_marseille","lat":43.2722,"lon":5.42366,"is_reserved":false,"is_disabled":false,"rental_uris":{"android":"levelo://app?vid=d1800741-fac1-4624-b995-5a057797ea03","ios":"levelo://app?vid=d1800741-fac1-4624-b995-5a057797ea03"},"vehicle_type_id":"4","last_reported":1781454480,"current_range_meters":6800,"station_id":"","pricing_plan_id":"cebpf4jnsgd1na2vs0mg"},{"bike_id":"39d0c51c-f43f-4de3-bda2-70f364f473b9","system_id":"levelo_inurba_marseille","lat":43.21755,"lon":5.346,"is_reserved":false,"is_disabled":false,"rental_uris":{"android":"levelo://app?vid=39d0c51c-f43f-4de3-bda2-70f364f473b9","ios":"levelo://app?vid=39d0c51c-f43f-4de3-bda2-70f364f473b9"},"vehicle_type_id":"4","last_reported":1781454480,"current_range_meters":6800,"station_id":"st_cvj6r9ubvosntc0bgbag","pricing_plan_id":"cebpf4jnsgd1na2vs0mg"},{"bike_id":"3a178be9-377a-4a25-b16e-746e76e3b7b2","system_id":"levelo_inurba_marseille","lat":43.26213,"lon":5.38842,"is_reserved":false,"is_disabled":false,"rental_uris":{"android":"levelo://app?vid=3a178be9-377a-4a25-b16e-746e76e3b7b2","ios":"levelo://app?vid=3a178be9-377a-4a25-b16e-746e76e3b7b2"},"vehicle_type_id":"4","last_reported":1781454480,"current_range_meters":6800,"station_id":"","pricing_plan_id":"cebpf4jnsgd1na2vs0mg"},{"bike_id":"c800199a-5474-40e1-bb50-c25e031e8be6","system_id":"levelo_inurba_marseille","lat":43.2119,"lon":5.3507,"is_reserved":false,"is_disabled":false,"rental_uris":{"android":"levelo://app?vid=c800199a-5474-40e1-bb50-c25e031e8be6","ios":"levelo://app?vid=c800199a-5474-40e1-bb50-c25e031e8be6"},"vehicle_type_id":"4","last_reported":1781454480,"current_range_meters":6800,"station_id":"st_cvj6sg6p6f1abm77japg","pricing_plan_id":"cebpf4jnsgd1na2vs0mg"},{"bike_id":"54410e0e-88fe-44cb-9cd3-c20ab067986a","system_id":"levelo_inurba_marseille","lat":43.28248,"lon":5.34858,"is_reserved":false,"is_disabled":false,"rental_uris":{"android":"levelo://app?vid=54410e0e-88fe-44cb-9cd3-c20ab067986a","ios":"levelo://app?vid=54410e0e-88fe-44cb-9cd3-c20ab067986a"},"vehicle_type_id":"4","last_reported":1781454480,"current_range_meters":6800,"station_id":"","pricing_plan_id":"cebpf4jnsgd1na2vs0mg"},{"bike_id":"0e90fcd7-eac6-4619-8253-cfb1885026ec","system_id":"levelo_inurba_marseille","lat":43.25493,"lon":5.37649,"is_reserved":false,"is_disabled":false,"rental_uris":{"android":"levelo://app?vid=0e90fcd7-eac6-4619-8253-cfb1885026ec","ios":"levelo://app?vid=0e90fcd7-eac6-4619-8253-cfb1885026ec"},"vehicle_type_id":"4","last_reported":1781454480,"current_range_meters":6800,"station_id":"ce4bhh12rcd13ifvqff0","pricing_plan_id":"cebpf4jnsgd1na2vs0mg"},{"bike_id":"64d1def8-2a5b-48eb-8ec4-f02e72a31395","system_id":"levelo_inurba_marseille","lat":43.28698,"lon":5.46687,"is_reserved":false,"is_disabled":false,"rental_uris":{"android":"levelo://app?vid=64d1def8-2a5b-48eb-8ec4-f02e72a31395","ios":"levelo://app?vid=64d1def8-2a5b-48eb-8ec4-f02e72a31395"},"vehicle_type_id":"4","last_reported":1781454480,"current_range_meters":6800,"station_id":"st_d6tc3vkotcvc738tfjhg","pricing_plan_id":"cebpf4jnsgd1na2vs0mg"},{"bike_id":"a275b67e-1716-4dd6-9085-5d79dc51374a","system_id":"levelo_inurba_marseille","lat":43.267856,"lon":5.394166,"is_reserved":false,"is_disabled":false,"rental_uris":{"android":"levelo://app?vid=a275b67e-1716-4dd6-9085-5d79dc51374a","ios":"levelo://app?vid=a275b67e-1716-4dd6-9085-5d79dc51374a"},"vehicle_type_id":"4","last_reported":1781454480,"current_range_meters":6800,"station_id":"ce4bhh12rcd13ifvqfg0","pricing_plan_id":"cebpf4jnsgd1na2vs0mg"},{"bike_id":"87ce889a-432f-46e2-b722-0082a4450219","system_id":"levelo_inurba_marseille","lat":43.25106,"lon":5.40334,"is_reserved":false,"is_disabled":false,"rental_uris":{"android":"levelo://app?vid=87ce889a-432f-46e2-b722-0082a4450219","ios":"levelo://app?vid=87ce889a-432f-46e2-b722-0082a4450219"},"vehicle_type_id":"4","last_reported":1781454480,"current_range_meters":6800,"station_id":"ce4bhlh2rcd13ifvqgig","pricing_plan_id":"cebpf4jnsgd1na2vs0mg"},{"bike_id":"e6eda01b-4746-4a1b-b8bd-bc2e29bf1778","system_id":"levelo_inurba_marseille","lat":43.28472,"lon":5.48403,"is_reserved":false,"is_disabled":false,"rental_uris":{"android":"levelo://app?vid=e6eda01b-4746-4a1b-b8bd-bc2e29bf1778","ios":"levelo://app?vid=e6eda01b-4746-4a1b-b8bd-bc2e29bf1778"},"vehicle_type_id":"4","last_reported":1781454480,"current_range_meters":6800,"station_id":"st_d3svhcjqgbts73a3dn0g","pricing_plan_id":"cebpf4jnsgd1na2vs0mg"},{"bike_id":"56b376d5-9b28-4e92-ac45-b76b482244af","system_id":"levelo_inurba_marseille","lat":43.31899,"lon":5.36802,"is_reserved":false,"is_disabled":false,"rental_uris":{"android":"levelo://app?vid=56b376d5-9b28-4e92-ac45-b76b482244af","ios":"levelo://app?vid=56b376d5-9b28-4e92-ac45-b76b482244af"},"vehicle_type_id":"4","last_reported":1781454480,"current_range_meters":6800,"station_id":"st_d6o2h0d0559c73evc1b0","pricing_plan_id":"cebpf4jnsgd1na2vs0mg"},{"bike_id":"84f1cb8b-bb47-46c7-91e1-6e2bd84b8e8a","system_id":"levelo_inurba_marseille","lat":43.26217,"lon":5.37448,"is_reserved":false,"is_disabled":false,"rental_uris":{"android":"levelo://app?vid=84f1cb8b-bb47-46c7-91e1-6e2bd84b8e8a","ios":"levelo://app?vid=84f1cb8b-bb47-46c7-91e1-6e2bd84b8e8a"},"vehicle_type_id":"4","last_reported":1781454480,"current_range_meters":6800,"station_id":"ce4bhgp2rcd13ifvqfc0","pricing_plan_id":"cebpf4jnsgd1na2vs0mg"},{"bike_id":"eb0c1c7f-47b8-4a10-8001-0064309e6c74","system_id":"levelo_inurba_marseille","lat":43.22535,"lon":5.34828,"is_reserved":false,"is_disabled":false,"rental_uris":{"android":"levelo://app?vid=eb0c1c7f-47b8-4a10-8001-0064309e6c74","ios":"levelo://app?vid=eb0c1c7f-47b8-4a10-8001-0064309e6c74"},"vehicle_type_id":"4","last_reported":1781454480,"current_range_meters":6800,"station_id":"st_cvj5dfep6f1abm77gieg","pricing_plan_id":"cebpf4jnsgd1na2vs0mg"},{"bike_id":"c01f6dec-89dd-472c-9d53-44f20e2f469d","system_id":"levelo_inurba_marseille","lat":43.28051,"lon":5.34829,"is_reserved":false,"is_disabled":false,"rental_uris":{"android":"levelo://app?vid=c01f6dec-89dd-472c-9d53-44f20e2f469d","ios":"levelo://app?vid=c01f6dec-89dd-472c-9d53-44f20e2f469d"},"vehicle_type_id":"4","last_reported":1781454480,"current_range_meters":6800,"station_id":"","pricing_plan_id":"cebpf4jnsgd1na2vs0mg"},{"bike_id":"167df277-6fea-4255-a2ff-b705d70e23c4","system_id":"levelo_inurba_marseille","lat":43.27622,"lon":5.36111,"is_reserved":false,"is_disabled":false,"rental_uris":{"android":"levelo://app?vid=167df277-6fea-4255-a2ff-b705d70e23c4","ios":"levelo://app?vid=167df277-6fea-4255-a2ff-b705d70e23c4"},"vehicle_type_id":"4","last_reported":1781454480,"current_range_meters":6800,"station_id":"ce4bgj92rcd13ifvqbe0","pricing_plan_id":"cebpf4jnsgd1na2vs0mg"},{"bike_id":"9059db4d-53f9-4bc2-96ea-2911cca7514a","system_id":"levelo_inurba_marseille","lat":43.21187,"lon":5.35069,"is_reserved":false,"is_disabled":false,"rental_uris":{"android":"levelo://app?vid=9059db4d-53f9-4bc2-96ea-2911cca7514a","ios":"levelo://app?vid=9059db4d-53f9-4bc2-96ea-2911cca7514a"},"vehicle_type_id":"4","last_reported":1781454480,"current_range_meters":6800,"station_id":"st_cvj6sg6p6f1abm77japg","pricing_plan_id":"cebpf4jnsgd1na2vs0mg"},{"bike_id":"58df25d0-bd57-4415-b2e9-39adcdff72a1","system_id":"levelo_inurba_marseille","lat":43.29132,"lon":5.37171,"is_reserved":false,"is_disabled":true,"rental_uris":{"android":"levelo://app?vid=58df25d0-bd57-4415-b2e9-39adcdff72a1","ios":"levelo://app?vid=58df25d0-bd57-4415-b2e9-39adcdff72a1"},"vehicle_type_id":"4","last_reported":1781454480,"current_range_meters":6800,"station_id":"ce4bha92rcd13ifvqeh0","pricing_plan_id":"cebpf4jnsgd1na2vs0mg"},{"bike_id":"e5112433-aa95-4996-836d-6a5e3dd047ee","system_id":"levelo_inurba_marseille","lat":43.30235,"lon":5.3804,"is_reserved":false,"is_disabled":false,"rental_uris":{"android":"levelo://app?vid=e5112433-aa95-4996-836d-6a5e3dd047ee","ios":"levelo://app?vid=e5112433-aa95-4996-836d-6a5e3dd047ee"},"vehicle_type_id":"4","last_reported":1781454480,"current_range_meters":6800,"station_id":"","pricing_plan_id":"cebpf4jnsgd1na2vs0mg"},{"bike_id":"081783e8-5da7-4fbf-b9b1-3d05ef7e49ce","system_id":"levelo_inurba_marseille","lat":43.2892,"lon":5.36643,"is_reserved":false,"is_disabled":true,"rental_uris":{"android":"levelo://app?vid=081783e8-5da7-4fbf-b9b1-3d05ef7e49ce","ios":"levelo://app?vid=081783e8-5da7-4fbf-b9b1-3d05ef7e49ce"},"vehicle_type_id":"4","last_reported":1781454480,"current_range_meters":6800,"station_id":"ce4bhap2rcd13ifvqek0","pricing_plan_id":"cebpf4jnsgd1na2vs0mg"},{"bike_id":"1cc1e854-a64b-4eaa-bd00-1c309caff36d","system_id":"levelo_inurba_marseille","lat":43.28628,"lon":5.35096,"is_reserved":false,"is_disabled":true,"rental_uris":{"android":"levelo://app?vid=1cc1e854-a64b-4eaa-bd00-1c309caff36d","ios":"levelo://app?vid=1cc1e854-a64b-4eaa-bd00-1c309caff36d"},"vehicle_type_id":"4","last_reported":1781454480,"current_range_meters":6800,"station_id":"ce4bhch2rcd13ifvqeug","pricing_plan_id":"cebpf4jnsgd1na2vs0mg"},{"bike_id":"bbcfa845-04e7-4147-af58-e656c6582dc2","system_id":"levelo_inurba_marseille","lat":43.27642,"lon":5.35859,"is_reserved":false,"is_disabled":false,"rental_uris":{"android":"levelo://app?vid=bbcfa845-04e7-4147-af58-e656c6582dc2","ios":"levelo://app?vid=bbcfa845-04e7-4147-af58-e656c6582dc2"},"vehicle_type_id":"4","last_reported":1781454480,"current_range_meters":6800,"station_id":"","pricing_plan_id":"cebpf4jnsgd1na2vs0mg"},{"bike_id":"7272f913-724d-4b58-b6a6-688b3e04b242","system_id":"levelo_inurba_marseille","lat":43.24705,"lon":5.41259,"is_reserved":false,"is_disabled":false,"rental_uris":{"android":"levelo://app?vid=7272f913-724d-4b58-b6a6-688b3e04b242","ios":"levelo://app?vid=7272f913-724d-4b58-b6a6-688b3e04b242"},"vehicle_type_id":"4","last_reported":1781454480,"current_range_meters":6800,"station_id":"","pricing_plan_id":"cebpf4jnsgd1na2vs0mg"},{"bike_id":"4e6d713d-5d98-4f27-9e30-016f10070add","system_id":"levelo_inurba_marseille","lat":43.2447,"lon":5.4252,"is_reserved":false,"is_disabled":false,"rental_uris":{"android":"levelo://app?vid=4e6d713d-5d98-4f27-9e30-016f10070add","ios":"levelo://app?vid=4e6d713d-5d98-4f27-9e30-016f10070add"},"vehicle_type_id":"4","last_reported":1781454480,"current_range_meters":6800,"station_id":"st_d4a3vfp97mjs738cd8kg","pricing_plan_id":"cebpf4jnsgd1na2vs0mg"},{"bike_id":"fcf4d312-9968-4443-82f2-b045268fd358","system_id":"levelo_inurba_marseille","lat":43.2992,"lon":5.41048,"is_reserved":false,"is_disabled":false,"rental_uris":{"android":"levelo://app?vid=fcf4d312-9968-4443-82f2-b045268fd358","ios":"levelo://app?vid=fcf4d312-9968-4443-82f2-b045268fd358"},"vehicle_type_id":"4","last_reported":1781454480,"current_range_meters":6800,"station_id":"","pricing_plan_id":"cebpf4jnsgd1na2vs0mg"},{"bike_id":"a0967682-704e-4097-9142-482a1f2d36c9","system_id":"levelo_inurba_marseille","lat":43.2121,"lon":5.35067,"is_reserved":false,"is_disabled":true,"rental_uris":{"android":"levelo://app?vid=a0967682-704e-4097-9142-482a1f2d36c9","ios":"levelo://app?vid=a0967682-704e-4097-9142-482a1f2d36c9"},"vehicle_type_id":"4","last_reported":1781454480,"current_range_meters":6800,"station_id":"st_cvj6sg6p6f1abm77japg","pricing_plan_id":"cebpf4jnsgd1na2vs0mg"},{"bike_id":"34cba5c3-5c91-498c-9fee-655c405d5720","system_id":"levelo_inurba_marseille","lat":43.291067,"lon":5.381339,"is_reserved":false,"is_disabled":false,"rental_uris":{"android":"levelo://app?vid=34cba5c3-5c91-498c-9fee-655c405d5720","ios":"levelo://app?vid=34cba5c3-5c91-498c-9fee-655c405d5720"},"vehicle_type_id":"4","last_reported":1781454480,"current_range_meters":7200,"station_id":"ce4bh512rcd13ifvqe2g","pricing_plan_id":"cebpf4jnsgd1na2vs0mg"},{"bike_id":"4d8df8ec-f6c0-4c39-8cac-00a49ce6968d","system_id":"levelo_inurba_marseille","lat":43.29051,"lon":5.37147,"is_reserved":false,"is_disabled":true,"rental_uris":{"android":"levelo://app?vid=4d8df8ec-f6c0-4c39-8cac-00a49ce6968d","ios":"levelo://app?vid=4d8df8ec-f6c0-4c39-8cac-00a49ce6968d"},"vehicle_type_id":"4","last_reported":1781454480,"current_range_meters":7200,"station_id":"ce4bh5p2rcd13ifvqe4g","pricing_plan_id":"cebpf4jnsgd1na2vs0mg"},{"bike_id":"4c78b6b3-2f8d-4f10-973f-a50992bad914","system_id":"levelo_inurba_marseille","lat":43.21194,"lon":5.35077,"is_reserved":false,"is_disabled":false,"rental_uris":{"android":"levelo://app?vid=4c78b6b3-2f8d-4f10-973f-a50992bad914","ios":"levelo://app?vid=4c78b6b3-2f8d-4f10-973f-a50992bad914"},"vehicle_type_id":"4","last_reported":1781454480,"current_range_meters":7200,"station_id":"st_cvj6sg6p6f1abm77japg","pricing_plan_id":"cebpf4jnsgd1na2vs0mg"},{"bike_id":"18a97fb1-1436-49ca-9acc-e362ec62975d","system_id":"levelo_inurba_marseille","lat":43.23199,"lon":5.35551,"is_reserved":false,"is_disabled":false,"rental_uris":{"android":"levelo://app?vid=18a97fb1-1436-49ca-9acc-e362ec62975d","ios":"levelo://app?vid=18a97fb1-1436-49ca-9acc-e362ec62975d"},"vehicle_type_id":"4","last_reported":1781454480,"current_range_meters":7200,"station_id":"ce4bhu92rcd13ifvqi70","pricing_plan_id":"cebpf4jnsgd1na2vs0mg"},{"bike_id":"7269e119-0e13-4dd0-a553-e22258892c39","system_id":"levelo_inurba_marseille","lat":43.22922,"lon":5.35382,"is_reserved":false,"is_disabled":false,"rental_uris":{"android":"levelo://app?vid=7269e119-0e13-4dd0-a553-e22258892c39","ios":"levelo://app?vid=7269e119-0e13-4dd0-a553-e22258892c39"},"vehicle_type_id":"4","last_reported":1781454480,"current_range_meters":7200,"station_id":"cpo3532slgdg3j2ikp40","pricing_plan_id":"cebpf4jnsgd1na2vs0mg"},{"bike_id":"c71d8b58-5fd6-4ac9-a87c-c41c604a55e6","system_id":"levelo_inurba_marseille","lat":43.2953,"lon":5.38555,"is_reserved":false,"is_disabled":false,"rental_uris":{"android":"levelo://app?vid=c71d8b58-5fd6-4ac9-a87c-c41c604a55e6","ios":"levelo://app?vid=c71d8b58-5fd6-4ac9-a87c-c41c604a55e6"},"vehicle_type_id":"4","last_reported":1781454480,"current_range_meters":7200,"station_id":"ce4bgih2rcd13ifvqba0","pricing_plan_id":"cebpf4jnsgd1na2vs0mg"},{"bike_id":"e951097c-25bc-4ef7-97e6-1783eeefa1c0","system_id":"levelo_inurba_marseille","lat":43.33662,"lon":5.41937,"is_reserved":false,"is_disabled":false,"rental_uris":{"android":"levelo://app?vid=e951097c-25bc-4ef7-97e6-1783eeefa1c0","ios":"levelo://app?vid=e951097c-25bc-4ef7-97e6-1783eeefa1c0"},"vehicle_type_id":"4","last_reported":1781454480,"current_range_meters":7200,"station_id":"","pricing_plan_id":"cebpf4jnsgd1na2vs0mg"},{"bike_id":"d21d8bb8-9db8-4b39-8784-239c523ac5af","system_id":"levelo_inurba_marseille","lat":43.31355,"lon":5.38498,"is_reserved":false,"is_disabled":false,"rental_uris":{"android":"levelo://app?vid=d21d8bb8-9db8-4b39-8784-239c523ac5af","ios":"levelo://app?vid=d21d8bb8-9db8-4b39-8784-239c523ac5af"},"vehicle_type_id":"4","last_reported":1781454480,"current_range_meters":7200,"station_id":"ce4bgt92rcd13ifvqcf0","pricing_plan_id":"cebpf4jnsgd1na2vs0mg"},{"bike_id":"49924376-8cc8-44b4-9eca-5c4ff4c899c1","system_id":"levelo_inurba_marseille","lat":43.26554,"lon":5.37293,"is_reserved":false,"is_disabled":true,"rental_uris":{"android":"levelo://app?vid=49924376-8cc8-44b4-9eca-5c4ff4c899c1","ios":"levelo://app?vid=49924376-8cc8-44b4-9eca-5c4ff4c899c1"},"vehicle_type_id":"4","last_reported":1781454480,"current_range_meters":7200,"station_id":"ce4bhg12rcd13ifvqf70","pricing_plan_id":"cebpf4jnsgd1na2vs0mg"},{"bike_id":"da15c788-c8d8-49d8-bc7f-d521b9e32c05","system_id":"levelo_inurba_marseille","lat":43.28417,"lon":5.35001,"is_reserved":false,"is_disabled":false,"rental_uris":{"android":"levelo://app?vid=da15c788-c8d8-49d8-bc7f-d521b9e32c05","ios":"levelo://app?vid=da15c788-c8d8-49d8-bc7f-d521b9e32c05"},"vehicle_type_id":"4","last_reported":1781454480,"current_range_meters":7200,"station_id":"ce4bhbh2rcd13ifvqepg","pricing_plan_id":"cebpf4jnsgd1na2vs0mg"},{"bike_id":"e91d4c37-49e1-4eb2-811e-d4c855f1b23c","system_id":"levelo_inurba_marseille","lat":43.3172,"lon":5.37767,"is_reserved":false,"is_disabled":false,"rental_uris":{"android":"levelo://app?vid=e91d4c37-49e1-4eb2-811e-d4c855f1b23c","ios":"levelo://app?vid=e91d4c37-49e1-4eb2-811e-d4c855f1b23c"},"vehicle_type_id":"4","last_reported":1781454480,"current_range_meters":7200,"station_id":"ce4bgth2rcd13ifvqch0","pricing_plan_id":"cebpf4jnsgd1na2vs0mg"},{"bike_id":"aff014c2-15fa-45d6-bb80-ee15e1a06979","system_id":"levelo_inurba_marseille","lat":43.23787,"lon":5.36624,"is_reserved":false,"is_disabled":false,"rental_uris":{"android":"levelo://app?vid=aff014c2-15fa-45d6-bb80-ee15e1a06979","ios":"levelo://app?vid=aff014c2-15fa-45d6-bb80-ee15e1a06979"},"vehicle_type_id":"4","last_reported":1781454480,"current_range_meters":7200,"station_id":"st_d3nk18o9ro0c73en2l3g","pricing_plan_id":"cebpf4jnsgd1na2vs0mg"},{"bike_id":"14875942-be4f-4364-a46a-f5207eba4f82","system_id":"levelo_inurba_marseille","lat":43.28269,"lon":5.35065,"is_reserved":false,"is_disabled":false,"rental_uris":{"android":"levelo://app?vid=14875942-be4f-4364-a46a-f5207eba4f82","ios":"levelo://app?vid=14875942-be4f-4364-a46a-f5207eba4f82"},"vehicle_type_id":"4","last_reported":1781454480,"current_range_meters":7200,"station_id":"ce4bhbp2rcd13ifvqerg","pricing_plan_id":"cebpf4jnsgd1na2vs0mg"},{"bike_id":"c2d1c0df-0e86-4c2a-8f8c-a589e1b924d5","system_id":"levelo_inurba_marseille","lat":43.21736,"lon":5.34583,"is_reserved":false,"is_disabled":false,"rental_uris":{"android":"levelo://app?vid=c2d1c0df-0e86-4c2a-8f8c-a589e1b924d5","ios":"levelo://app?vid=c2d1c0df-0e86-4c2a-8f8c-a589e1b924d5"},"vehicle_type_id":"4","last_reported":1781454480,"current_range_meters":7200,"station_id":"st_cvj6r9ubvosntc0bgbag","pricing_plan_id":"cebpf4jnsgd1na2vs0mg"},{"bike_id":"0c72a25f-7005-4d7d-a6c3-8ad627ec053f","system_id":"levelo_inurba_marseille","lat":43.25571,"lon":5.38242,"is_reserved":false,"is_disabled":false,"rental_uris":{"android":"levelo://app?vid=0c72a25f-7005-4d7d-a6c3-8ad627ec053f","ios":"levelo://app?vid=0c72a25f-7005-4d7d-a6c3-8ad627ec053f"},"vehicle_type_id":"4","last_reported":1781454480,"current_range_meters":7200,"station_id":"ce4bhih2rcd13ifvqfs0","pricing_plan_id":"cebpf4jnsgd1na2vs0mg"},{"bike_id":"f10274f0-d5a3-4847-854d-5e53c5520946","system_id":"levelo_inurba_marseille","lat":43.32364,"lon":5.36754,"is_reserved":false,"is_disabled":false,"rental_uris":{"android":"levelo://app?vid=f10274f0-d5a3-4847-854d-5e53c5520946","ios":"levelo://app?vid=f10274f0-d5a3-4847-854d-5e53c5520946"},"vehicle_type_id":"4","last_reported":1781454480,"current_range_meters":7200,"station_id":"ce4bhsh2rcd13ifvqi2g","pricing_plan_id":"cebpf4jnsgd1na2vs0mg"},{"bike_id":"eb80db3d-846e-41da-8b9d-9ee0a207e14c","system_id":"levelo_inurba_marseille","lat":43.27549,"lon":5.38441,"is_reserved":false,"is_disabled":false,"rental_uris":{"android":"levelo://app?vid=eb80db3d-846e-41da-8b9d-9ee0a207e14c","ios":"levelo://app?vid=eb80db3d-846e-41da-8b9d-9ee0a207e14c"},"vehicle_type_id":"4","last_reported":1781454480,"current_range_meters":7200,"station_id":"ce4bhh92rcd13ifvqfi0","pricing_plan_id":"cebpf4jnsgd1na2vs0mg"},{"bike_id":"ce059822-03c1-4578-b9e3-bb0b69a47db9","system_id":"levelo_inurba_marseille","lat":43.25004,"lon":5.38958,"is_reserved":false,"is_disabled":false,"rental_uris":{"android":"levelo://app?vid=ce059822-03c1-4578-b9e3-bb0b69a47db9","ios":"levelo://app?vid=ce059822-03c1-4578-b9e3-bb0b69a47db9"},"vehicle_type_id":"4","last_reported":1781454480,"current_range_meters":7200,"station_id":"ce4bhgp2rcd13ifvqfd0","pricing_plan_id":"cebpf4jnsgd1na2vs0mg"},{"bike_id":"fc6d068f-e66a-4a2e-bdf9-0b12bfd86ea0","system_id":"levelo_inurba_marseille","lat":43.23057,"lon":5.35498,"is_reserved":false,"is_disabled":false,"rental_uris":{"android":"levelo://app?vid=fc6d068f-e66a-4a2e-bdf9-0b12bfd86ea0","ios":"levelo://app?vid=fc6d068f-e66a-4a2e-bdf9-0b12bfd86ea0"},"vehicle_type_id":"4","last_reported":1781454480,"current_range_meters":7200,"station_id":"cpo3342slgdg3j2ifvpg","pricing_plan_id":"cebpf4jnsgd1na2vs0mg"},{"bike_id":"520e7007-685d-436d-8d38-db025ae27a9c","system_id":"levelo_inurba_marseille","lat":43.33736,"lon":5.39177,"is_reserved":false,"is_disabled":false,"rental_uris":{"android":"levelo://app?vid=520e7007-685d-436d-8d38-db025ae27a9c","ios":"levelo://app?vid=520e7007-685d-436d-8d38-db025ae27a9c"},"vehicle_type_id":"4","last_reported":1781454480,"current_range_meters":7200,"station_id":"ce4bhr92rcd13ifvqhsg","pricing_plan_id":"cebpf4jnsgd1na2vs0mg"},{"bike_id":"4b51180a-f031-4891-9ca2-75426db627c3","system_id":"levelo_inurba_marseille","lat":43.26603,"lon":5.39486,"is_reserved":false,"is_disabled":false,"rental_uris":{"android":"levelo://app?vid=4b51180a-f031-4891-9ca2-75426db627c3","ios":"levelo://app?vid=4b51180a-f031-4891-9ca2-75426db627c3"},"vehicle_type_id":"4","last_reported":1781454480,"current_range_meters":7200,"station_id":"","pricing_plan_id":"cebpf4jnsgd1na2vs0mg"},{"bike_id":"e4930c30-abfc-479c-b787-1faceb64d864","system_id":"levelo_inurba_marseille","lat":43.279046,"lon":5.380138,"is_reserved":false,"is_disabled":false,"rental_uris":{"android":"levelo://app?vid=e4930c30-abfc-479c-b787-1faceb64d864","ios":"levelo://app?vid=e4930c30-abfc-479c-b787-1faceb64d864"},"vehicle_type_id":"4","last_reported":1781454480,"current_range_meters":7200,"station_id":"ce4bhf92rcd13ifvqf50","pricing_plan_id":"cebpf4jnsgd1na2vs0mg"},{"bike_id":"10c3d2ae-f5da-41e9-ad71-c65b3c5f004a","system_id":"levelo_inurba_marseille","lat":43.22514,"lon":5.34832,"is_reserved":false,"is_disabled":false,"rental_uris":{"android":"levelo://app?vid=10c3d2ae-f5da-41e9-ad71-c65b3c5f004a","ios":"levelo://app?vid=10c3d2ae-f5da-41e9-ad71-c65b3c5f004a"},"vehicle_type_id":"4","last_reported":1781454480,"current_range_meters":7200,"station_id":"st_cvj5dfep6f1abm77gieg","pricing_plan_id":"cebpf4jnsgd1na2vs0mg"},{"bike_id":"7594804f-c2a0-42e5-a223-4cbf901d93c2","system_id":"levelo_inurba_marseille","lat":43.28627,"lon":5.38357,"is_reserved":false,"is_disabled":false,"rental_uris":{"android":"levelo://app?vid=7594804f-c2a0-42e5-a223-4cbf901d93c2","ios":"levelo://app?vid=7594804f-c2a0-42e5-a223-4cbf901d93c2"},"vehicle_type_id":"4","last_reported":1781454480,"current_range_meters":7200,"station_id":"","pricing_plan_id":"cebpf4jnsgd1na2vs0mg"},{"bike_id":"f3bdfd88-7ce6-4ff4-ad25-5f06c43e66a7","system_id":"levelo_inurba_marseille","lat":43.27964,"lon":5.38733,"is_reserved":false,"is_disabled":false,"rental_uris":{"android":"levelo://app?vid=f3bdfd88-7ce6-4ff4-ad25-5f06c43e66a7","ios":"levelo://app?vid=f3bdfd88-7ce6-4ff4-ad25-5f06c43e66a7"},"vehicle_type_id":"4","last_reported":1781454480,"current_range_meters":7200,"station_id":"ce4bhg12rcd13ifvqf80","pricing_plan_id":"cebpf4jnsgd1na2vs0mg"},{"bike_id":"349586d1-2983-4165-a665-24f8929c0d47","system_id":"levelo_inurba_marseille","lat":43.25529,"lon":5.37643,"is_reserved":false,"is_disabled":false,"rental_uris":{"android":"levelo://app?vid=349586d1-2983-4165-a665-24f8929c0d47","ios":"levelo://app?vid=349586d1-2983-4165-a665-24f8929c0d47"},"vehicle_type_id":"4","last_reported":1781454480,"current_range_meters":7200,"station_id":"ce4bhh12rcd13ifvqff0","pricing_plan_id":"cebpf4jnsgd1na2vs0mg"},{"bike_id":"c1d734fd-9377-400d-8dda-b844a392e7e1","system_id":"levelo_inurba_marseille","lat":43.28357,"lon":5.38661,"is_reserved":false,"is_disabled":true,"rental_uris":{"android":"levelo://app?vid=c1d734fd-9377-400d-8dda-b844a392e7e1","ios":"levelo://app?vid=c1d734fd-9377-400d-8dda-b844a392e7e1"},"vehicle_type_id":"4","last_reported":1781454480,"current_range_meters":7200,"station_id":"ce4bh492rcd13ifvqdvg","pricing_plan_id":"cebpf4jnsgd1na2vs0mg"},{"bike_id":"6b8cb977-40d3-476c-80f1-678aae2533a7","system_id":"levelo_inurba_marseille","lat":43.25009,"lon":5.38924,"is_reserved":false,"is_disabled":false,"rental_uris":{"android":"levelo://app?vid=6b8cb977-40d3-476c-80f1-678aae2533a7","ios":"levelo://app?vid=6b8cb977-40d3-476c-80f1-678aae2533a7"},"vehicle_type_id":"4","last_reported":1781454480,"current_range_meters":7200,"station_id":"ce4bhgp2rcd13ifvqfd0","pricing_plan_id":"cebpf4jnsgd1na2vs0mg"},{"bike_id":"3c30eb6f-a68c-4718-a3ed-f2a3b8ae1fb0","system_id":"levelo_inurba_marseille","lat":43.2292,"lon":5.35389,"is_reserved":false,"is_disabled":false,"rental_uris":{"android":"levelo://app?vid=3c30eb6f-a68c-4718-a3ed-f2a3b8ae1fb0","ios":"levelo://app?vid=3c30eb6f-a68c-4718-a3ed-f2a3b8ae1fb0"},"vehicle_type_id":"4","last_reported":1781454480,"current_range_meters":7200,"station_id":"cpo3532slgdg3j2ikp40","pricing_plan_id":"cebpf4jnsgd1na2vs0mg"},{"bike_id":"6e731773-2418-4631-b7fd-e17c8e336e67","system_id":"levelo_inurba_marseille","lat":43.23964,"lon":5.3664,"is_reserved":false,"is_disabled":false,"rental_uris":{"android":"levelo://app?vid=6e731773-2418-4631-b7fd-e17c8e336e67","ios":"levelo://app?vid=6e731773-2418-4631-b7fd-e17c8e336e67"},"vehicle_type_id":"4","last_reported":1781454480,"current_range_meters":7200,"station_id":"ce4bhi12rcd13ifvqfp0","pricing_plan_id":"cebpf4jnsgd1na2vs0mg"},{"bike_id":"9caedc08-1b46-44d5-b599-1919983df576","system_id":"levelo_inurba_marseille","lat":43.28274,"lon":5.35057,"is_reserved":false,"is_disabled":false,"rental_uris":{"android":"levelo://app?vid=9caedc08-1b46-44d5-b599-1919983df576","ios":"levelo://app?vid=9caedc08-1b46-44d5-b599-1919983df576"},"vehicle_type_id":"4","last_reported":1781454480,"current_range_meters":7200,"station_id":"ce4bhbp2rcd13ifvqerg","pricing_plan_id":"cebpf4jnsgd1na2vs0mg"},{"bike_id":"4aea31e7-340c-41cc-9891-40f25353b445","system_id":"levelo_inurba_marseille","lat":43.28623,"lon":5.35106,"is_reserved":false,"is_disabled":false,"rental_uris":{"android":"levelo://app?vid=4aea31e7-340c-41cc-9891-40f25353b445","ios":"levelo://app?vid=4aea31e7-340c-41cc-9891-40f25353b445"},"vehicle_type_id":"4","last_reported":1781454480,"current_range_meters":7200,"station_id":"ce4bhch2rcd13ifvqeug","pricing_plan_id":"cebpf4jnsgd1na2vs0mg"},{"bike_id":"6fd5dbf0-8b82-43ca-a7df-ce99879692d3","system_id":"levelo_inurba_marseille","lat":43.29267,"lon":5.38436,"is_reserved":false,"is_disabled":false,"rental_uris":{"android":"levelo://app?vid=6fd5dbf0-8b82-43ca-a7df-ce99879692d3","ios":"levelo://app?vid=6fd5dbf0-8b82-43ca-a7df-ce99879692d3"},