{"last_updated":1725649603,"ttl":30,"version":"2.2","data":{"bikes":[{"bike_id":"30f70af3-a6e3-437a-bc42-b50bc4ac86bf","system_id":"levelo_inurba_marseille","lat":43.31341,"lon":5.367098,"is_reserved":false,"is_disabled":false,"rental_uris":{"android":"levelo://app?vid=30f70af3-a6e3-437a-bc42-b50bc4ac86bf","ios":"levelo://app?vid=30f70af3-a6e3-437a-bc42-b50bc4ac86bf"},"vehicle_type_id":"4","last_reported":1725649603,"current_range_meters":31200,"station_id":"ce4bgr92rcd13ifvqc6g","pricing_plan_id":"cebpf4jnsgd1na2vs0mg"},{"bike_id":"9c155ff9-1fcb-4e24-a133-182e7ec590e3","system_id":"levelo_inurba_marseille","lat":43.312239,"lon":5.368562,"is_reserved":false,"is_disabled":false,"rental_uris":{"android":"levelo://app?vid=9c155ff9-1fcb-4e24-a133-182e7ec590e3","ios":"levelo://app?vid=9c155ff9-1fcb-4e24-a133-182e7ec590e3"},"vehicle_type_id":"4","last_reported":1725649603,"current_range_meters":30800,"station_id":"ce4bgl92rcd13ifvqbq0","pricing_plan_id":"cebpf4jnsgd1na2vs0mg"},{"bike_id":"e00bea1a-9965-48b8-b9e4-1c7ff9c92dd7","system_id":"levelo_inurba_marseille","lat":43.312239,"lon":5.368562,"is_reserved":false,"is_disabled":false,"rental_uris":{"android":"levelo://app?vid=e00bea1a-9965-48b8-b9e4-1c7ff9c92dd7","ios":"levelo://app?vid=e00bea1a-9965-48b8-b9e4-1c7ff9c92dd7"},"vehicle_type_id":"4","last_reported":1725649603,"current_range_meters":9600,"station_id":"ce4bgl92rcd13ifvqbq0","pricing_plan_id":"cebpf4jnsgd1na2vs0mg"},{"bike_id":"dd7e6b2d-8c8f-4961-8581-e08d8a7a0a8d","system_id":"levelo_inurba_marseille","lat":43.312239,"lon":5.368562,"is_reserved":false,"is_disabled":false,"rental_uris":{"android":"levelo://app?vid=dd7e6b2d-8c8f-4961-8581-e08d8a7a0a8d","ios":"levelo://app?vid=dd7e6b2d-8c8f-4961-8581-e08d8a7a0a8d"},"vehicle_type_id":"4","last_reported":1725649603,"current_range_meters":31200,"station_id":"ce4bgl92rcd13ifvqbq0","pricing_plan_id":"cebpf4jnsgd1na2vs0mg"},{"bike_id":"92f27e6d-f8e0-4dcb-aecf-f10742f4b6f6","system_id":"levelo_inurba_marseille","lat":43.312239,"lon":5.368562,"is_reserved":false,"is_disabled":false,"rental_uris":{"android":"levelo://app?vid=92f27e6d-f8e0-4dcb-aecf-f10742f4b6f6","ios":"levelo://app?vid=92f27e6d-f8e0-4dcb-aecf-f10742f4b6f6"},"vehicle_type_id":"4","last_reported":1725649603,"current_range_meters":31200,"station_id":"ce4bgl92rcd13ifvqbq0","pricing_plan_id":"cebpf4jnsgd1na2vs0mg"},{"bike_id":"af8d5148-1901-46b0-8988-f5fcb3c9c401","system_id":"levelo_inurba_marseille","lat":43.312239,"lon":5.368562,"is_reserved":false,"is_disabled":false,"rental_uris":{"android":"levelo://app?vid=af8d5148-1901-46b0-8988-f5fcb3c9c401","ios":"levelo://app?vid=af8d5148-1901-46b0-8988-f5fcb3c9c401"},"vehicle_type_id":"4","last_reported":1725649603,"current_range_meters":31200,"station_id":"ce4bgl92rcd13ifvqbq0","pricing_plan_id":"cebpf4jnsgd1na2vs0mg"},{"bike_id":"c25aad9e-5fdf-4fdf-be68-b42b4dbdbb5a","system_id":"levelo_inurba_marseille","lat":43.309076,"lon":5.368465,"is_reserved":false,"is_disabled":false,"rental_uris":{"android":"levelo://app?vid=c25aad9e-5fdf-4fdf-be68-b42b4dbdbb5a","ios":"levelo://app?vid=c25aad9e-5fdf-4fdf-be68-b42b4dbdbb5a"},"vehicle_type_id":"4","last_reported":1725649603,"current_range_meters":18800,"station_id":"ce4bgn92rcd13ifvqbvg","pricing_plan_id":"cebpf4jnsgd1na2vs0mg"},{"bike_id":"eea180d9-b685-4358-8cfa-e1bbb999c132","system_id":"levelo_inurba_marseille","lat":43.314811,"lon":5.373103,"is_reserved":false,"is_disabled":false,"rental_uris":{"android":"levelo://app?vid=eea180d9-b685-4358-8cfa-e1bbb999c132","ios":"levelo://app?vid=eea180d9-b685-4358-8cfa-e1bbb999c132"},"vehicle_type_id":"4","last_reported":1725649603,"current_range_meters":26800,"station_id":"ce4bgt12rcd13ifvqcd0","pricing_plan_id":"cebpf4jnsgd1na2vs0mg"},{"bike_id":"c287c550-0f34-4145-a09c-a94fe11ff386","system_id":"levelo_inurba_marseille","lat":43.31481,"lon":5.37306,"is_reserved":false,"is_disabled":false,"rental_uris":{"android":"levelo://app?vid=c287c550-0f34-4145-a09c-a94fe11ff386","ios":"levelo://app?vid=c287c550-0f34-4145-a09c-a94fe11ff386"},"vehicle_type_id":"4","last_reported":1725649603,"current_range_meters":31200,"station_id":"ce4bgt12rcd13ifvqcd0","pricing_plan_id":"cebpf4jnsgd1na2vs0mg"},{"bike_id":"137c4ec0-2dbb-456e-9976-185aa45f8d6f","system_id":"levelo_inurba_marseille","lat":43.31481,"lon":5.37309,"is_reserved":false,"is_disabled":false,"rental_uris":{"android":"levelo://app?vid=137c4ec0-2dbb-456e-9976-185aa45f8d6f","ios":"levelo://app?vid=137c4ec0-2dbb-456e-9976-185aa45f8d6f"},"vehicle_type_id":"4","last_reported":1725649603,"current_range_meters":28800,"station_id":"ce4bgt12rcd13ifvqcd0","pricing_plan_id":"cebpf4jnsgd1na2vs0mg"},{"bike_id":"565a311b-5581-4b4a-ac70-743098b16c1e","system_id":"levelo_inurba_marseille","lat":43.314893,"lon":5.373087,"is_reserved":false,"is_disabled":false,"rental_uris":{"android":"levelo://app?vid=565a311b-5581-4b4a-ac70-743098b16c1e","ios":"levelo://app?vid=565a311b-5581-4b4a-ac70-743098b16c1e"},"vehicle_type_id":"4","last_reported":1725649603,"current_range_meters":31200,"station_id":"ce4bgt12rcd13ifvqcd0","pricing_plan_id":"cebpf4jnsgd1na2vs0mg"},{"bike_id":"95870e6b-79b1-4dad-9416-2d17c9f7b99d","system_id":"levelo_inurba_marseille","lat":43.314978,"lon":5.373109,"is_reserved":false,"is_disabled":false,"rental_uris":{"android":"levelo://app?vid=95870e6b-79b1-4dad-9416-2d17c9f7b99d","ios":"levelo://app?vid=95870e6b-79b1-4dad-9416-2d17c9f7b99d"},"vehicle_type_id":"4","last_reported":1725649603,"current_range_meters":31600,"station_id":"ce4bgt12rcd13ifvqcd0","pricing_plan_id":"cebpf4jnsgd1na2vs0mg"},{"bike_id":"af573c32-e457-49ef-90f6-78f1af2e1996","system_id":"levelo_inurba_marseille","lat":43.309034,"lon":5.371783,"is_reserved":false,"is_disabled":false,"rental_uris":{"android":"levelo://app?vid=af573c32-e457-49ef-90f6-78f1af2e1996","ios":"levelo://app?vid=af573c32-e457-49ef-90f6-78f1af2e1996"},"vehicle_type_id":"4","last_reported":1725649603,"current_range_meters":13600,"station_id":"ce4bguh2rcd13ifvqckg","pricing_plan_id":"cebpf4jnsgd1na2vs0mg"},{"bike_id":"6d885c33-4e2a-4f56-bb0d-e989776d33b2","system_id":"levelo_inurba_marseille","lat":43.309039,"lon":5.371797,"is_reserved":false,"is_disabled":false,"rental_uris":{"android":"levelo://app?vid=6d885c33-4e2a-4f56-bb0d-e989776d33b2","ios":"levelo://app?vid=6d885c33-4e2a-4f56-bb0d-e989776d33b2"},"vehicle_type_id":"4","last_reported":1725649603,"current_range_meters":24800,"station_id":"ce4bguh2rcd13ifvqckg","pricing_plan_id":"cebpf4jnsgd1na2vs0mg"},{"bike_id":"bf1d9f82-f5f3-4356-b311-b36f21b6a972","system_id":"levelo_inurba_marseille","lat":43.305527,"lon":5.36555,"is_reserved":false,"is_disabled":false,"rental_uris":{"android":"levelo://app?vid=bf1d9f82-f5f3-4356-b311-b36f21b6a972","ios":"levelo://app?vid=bf1d9f82-f5f3-4356-b311-b36f21b6a972"},"vehicle_type_id":"4","last_reported":1725649603,"current_range_meters":14000,"station_id":"ce4bgs12rcd13ifvqcag","pricing_plan_id":"cebpf4jnsgd1na2vs0mg"},{"bike_id":"6d895ca9-e26e-4ffc-9db4-4270148a340e","system_id":"levelo_inurba_marseille","lat":43.30546,"lon":5.36557,"is_reserved":false,"is_disabled":false,"rental_uris":{"android":"levelo://app?vid=6d895ca9-e26e-4ffc-9db4-4270148a340e","ios":"levelo://app?vid=6d895ca9-e26e-4ffc-9db4-4270148a340e"},"vehicle_type_id":"4","last_reported":1725649603,"current_range_meters":24800,"station_id":"ce4bgs12rcd13ifvqcag","pricing_plan_id":"cebpf4jnsgd1na2vs0mg"},{"bike_id":"4bac336d-8e9a-44bf-8200-b6b3ef315c3b","system_id":"levelo_inurba_marseille","lat":43.305368,"lon":5.367343,"is_reserved":false,"is_disabled":false,"rental_uris":{"android":"levelo://app?vid=4bac336d-8e9a-44bf-8200-b6b3ef315c3b","ios":"levelo://app?vid=4bac336d-8e9a-44bf-8200-b6b3ef315c3b"},"vehicle_type_id":"4","last_reported":1725649603,"current_range_meters":24000,"station_id":"ce4bgrp2rcd13ifvqc9g","pricing_plan_id":"cebpf4jnsgd1na2vs0mg"},{"bike_id":"d6377143-718b-448d-8fc0-4f32fc4a7aba","system_id":"levelo_inurba_marseille","lat":43.297794,"lon":5.370888,"is_reserved":false,"is_disabled":false,"rental_uris":{"android":"levelo://app?vid=d6377143-718b-448d-8fc0-4f32fc4a7aba","ios":"levelo://app?vid=d6377143-718b-448d-8fc0-4f32fc4a7aba"},"vehicle_type_id":"4","last_reported":1725649603,"current_range_meters":26400,"station_id":"ce4bgop2rcd13ifvqc1g","pricing_plan_id":"cebpf4jnsgd1na2vs0mg"},{"bike_id":"ebe87563-f0dd-4f24-b950-29bced038440","system_id":"levelo_inurba_marseille","lat":43.311125,"lon":5.377624,"is_reserved":false,"is_disabled":false,"rental_uris":{"android":"levelo://app?vid=ebe87563-f0dd-4f24-b950-29bced038440","ios":"levelo://app?vid=ebe87563-f0dd-4f24-b950-29bced038440"},"vehicle_type_id":"4","last_reported":1725649603,"current_range_meters":31200,"station_id":"ce4bgt92rcd13ifvqcg0","pricing_plan_id":"cebpf4jnsgd1na2vs0mg"},{"bike_id":"5a85276a-f1ac-4402-8117-0580e8783aaa","system_id":"levelo_inurba_marseille","lat":43.311197,"lon":5.37769,"is_reserved":false,"is_disabled":false,"rental_uris":{"android":"levelo://app?vid=5a85276a-f1ac-4402-8117-0580e8783aaa","ios":"levelo://app?vid=5a85276a-f1ac-4402-8117-0580e8783aaa"},"vehicle_type_id":"4","last_reported":1725649603,"current_range_meters":4000,"station_id":"ce4bgt92rcd13ifvqcg0","pricing_plan_id":"cebpf4jnsgd1na2vs0mg"},{"bike_id":"34f17a00-51eb-4155-9d62-15b310fb3f2d","system_id":"levelo_inurba_marseille","lat":43.311147,"lon":5.377697,"is_reserved":false,"is_disabled":false,"rental_uris":{"android":"levelo://app?vid=34f17a00-51eb-4155-9d62-15b310fb3f2d","ios":"levelo://app?vid=34f17a00-51eb-4155-9d62-15b310fb3f2d"},"vehicle_type_id":"4","last_reported":1725649603,"current_range_meters":31200,"station_id":"ce4bgt92rcd13ifvqcg0","pricing_plan_id":"cebpf4jnsgd1na2vs0mg"},{"bike_id":"d35eccb1-365b-4c61-b80c-d3ef9a55c35e","system_id":"levelo_inurba_marseille","lat":43.311177,"lon":5.37784,"is_reserved":false,"is_disabled":false,"rental_uris":{"android":"levelo://app?vid=d35eccb1-365b-4c61-b80c-d3ef9a55c35e","ios":"levelo://app?vid=d35eccb1-365b-4c61-b80c-d3ef9a55c35e"},"vehicle_type_id":"4","last_reported":1725649603,"current_range_meters":28000,"station_id":"ce4bgt92rcd13ifvqcg0","pricing_plan_id":"cebpf4jnsgd1na2vs0mg"},{"bike_id":"ea772489-5855-4fc1-a8fc-a6e747182e16","system_id":"levelo_inurba_marseille","lat":43.307945,"lon":5.376487,"is_reserved":false,"is_disabled":false,"rental_uris":{"android":"levelo://app?vid=ea772489-5855-4fc1-a8fc-a6e747182e16","ios":"levelo://app?vid=ea772489-5855-4fc1-a8fc-a6e747182e16"},"vehicle_type_id":"4","last_reported":1725649603,"current_range_meters":14800,"station_id":"ce4bgv92rcd13ifvqcq0","pricing_plan_id":"cebpf4jnsgd1na2vs0mg"},{"bike_id":"2ae57de7-1f83-47d8-80e1-ed497fe27a46","system_id":"levelo_inurba_marseille","lat":43.307945,"lon":5.376487,"is_reserved":false,"is_disabled":false,"rental_uris":{"android":"levelo://app?vid=2ae57de7-1f83-47d8-80e1-ed497fe27a46","ios":"levelo://app?vid=2ae57de7-1f83-47d8-80e1-ed497fe27a46"},"vehicle_type_id":"4","last_reported":1725649603,"current_range_meters":25600,"station_id":"ce4bgv92rcd13ifvqcq0","pricing_plan_id":"cebpf4jnsgd1na2vs0mg"},{"bike_id":"e53b5272-eb4f-42bb-afb6-44d73987a389","system_id":"levelo_inurba_marseille","lat":43.311154,"lon":5.378381,"is_reserved":false,"is_disabled":false,"rental_uris":{"android":"levelo://app?vid=e53b5272-eb4f-42bb-afb6-44d73987a389","ios":"levelo://app?vid=e53b5272-eb4f-42bb-afb6-44d73987a389"},"vehicle_type_id":"4","last_reported":1725649603,"current_range_meters":21200,"station_id":"","pricing_plan_id":"cebpf4jnsgd1na2vs0mg"},{"bike_id":"cae40428-93d0-4716-8fa0-9170269476b8","system_id":"levelo_inurba_marseille","lat":43.30431,"lon":5.36862,"is_reserved":false,"is_disabled":false,"rental_uris":{"android":"levelo://app?vid=cae40428-93d0-4716-8fa0-9170269476b8","ios":"levelo://app?vid=cae40428-93d0-4716-8fa0-9170269476b8"},"vehicle_type_id":"4","last_reported":1725649603,"current_range_meters":0,"station_id":"","pricing_plan_id":"cebpf4jnsgd1na2vs0mg"},{"bike_id":"5f596ba4-a91c-40fe-899a-a5a10b3ef3b5","system_id":"levelo_inurba_marseille","lat":43.307945,"lon":5.376487,"is_reserved":false,"is_disabled":false,"rental_uris":{"android":"levelo://app?vid=5f596ba4-a91c-40fe-899a-a5a10b3ef3b5","ios":"levelo://app?vid=5f596ba4-a91c-40fe-899a-a5a10b3ef3b5"},"vehicle_type_id":"4","last_reported":1725649603,"current_range_meters":20000,"station_id":"ce4bgv92rcd13ifvqcq0","pricing_plan_id":"cebpf4jnsgd1na2vs0mg"},{"bike_id":"adf1d534-e9ff-4330-9e3f-213cdf347643","system_id":"levelo_inurba_marseille","lat":43.317075,"lon":5.377367,"is_reserved":false,"is_disabled":false,"rental_uris":{"android":"levelo://app?vid=adf1d534-e9ff-4330-9e3f-213cdf347643","ios":"levelo://app?vid=adf1d534-e9ff-4330-9e3f-213cdf347643"},"vehicle_type_id":"4","last_reported":1725649603,"current_range_meters":31200,"station_id":"ce4bgth2rcd13ifvqch0","pricing_plan_id":"cebpf4jnsgd1na2vs0mg"},{"bike_id":"3b5a17ba-856a-45c6-b7ff-7af12c8646f5","system_id":"levelo_inurba_marseille","lat":43.31702,"lon":5.37746,"is_reserved":false,"is_disabled":false,"rental_uris":{"android":"levelo://app?vid=3b5a17ba-856a-45c6-b7ff-7af12c8646f5","ios":"levelo://app?vid=3b5a17ba-856a-45c6-b7ff-7af12c8646f5"},"vehicle_type_id":"4","last_reported":1725649603,"current_range_meters":9200,"station_id":"ce4bgth2rcd13ifvqch0","pricing_plan_id":"cebpf4jnsgd1na2vs0mg"},{"bike_id":"404117de-5831-441c-ae81-5f545759f10a","system_id":"levelo_inurba_marseille","lat":43.317075,"lon":5.377367,"is_reserved":false,"is_disabled":false,"rental_uris":{"android":"levelo://app?vid=404117de-5831-441c-ae81-5f545759f10a","ios":"levelo://app?vid=404117de-5831-441c-ae81-5f545759f10a"},"vehicle_type_id":"4","last_reported":1725649603,"current_range_meters":26400,"station_id":"ce4bgth2rcd13ifvqch0","pricing_plan_id":"cebpf4jnsgd1na2vs0mg"},{"bike_id":"2982b60b-04a3-417d-ad7d-b1df648a1eca","system_id":"levelo_inurba_marseille","lat":43.317075,"lon":5.377367,"is_reserved":false,"is_disabled":false,"rental_uris":{"android":"levelo://app?vid=2982b60b-04a3-417d-ad7d-b1df648a1eca","ios":"levelo://app?vid=2982b60b-04a3-417d-ad7d-b1df648a1eca"},"vehicle_type_id":"4","last_reported":1725649603,"current_range_meters":10400,"station_id":"ce4bgth2rcd13ifvqch0","pricing_plan_id":"cebpf4jnsgd1na2vs0mg"},{"bike_id":"2c8f208f-4859-4fd8-81d0-4344acfc49d5","system_id":"levelo_inurba_marseille","lat":43.317075,"lon":5.377367,"is_reserved":false,"is_disabled":false,"rental_uris":{"android":"levelo://app?vid=2c8f208f-4859-4fd8-81d0-4344acfc49d5","ios":"levelo://app?vid=2c8f208f-4859-4fd8-81d0-4344acfc49d5"},"vehicle_type_id":"4","last_reported":1725649603,"current_range_meters":4800,"station_id":"ce4bgth2rcd13ifvqch0","pricing_plan_id":"cebpf4jnsgd1na2vs0mg"},{"bike_id":"2d32062a-86d4-45d2-98e9-0a4f1f82eba6","system_id":"levelo_inurba_marseille","lat":43.317095,"lon":5.37755,"is_reserved":false,"is_disabled":false,"rental_uris":{"android":"levelo://app?vid=2d32062a-86d4-45d2-98e9-0a4f1f82eba6","ios":"levelo://app?vid=2d32062a-86d4-45d2-98e9-0a4f1f82eba6"},"vehicle_type_id":"4","last_reported":1725649603,"current_range_meters":7600,"station_id":"ce4bgth2rcd13ifvqch0","pricing_plan_id":"cebpf4jnsgd1na2vs0mg"},{"bike_id":"a50f9712-bb17-47fa-a777-16930b22d604","system_id":"levelo_inurba_marseille","lat":43.317075,"lon":5.377367,"is_reserved":false,"is_disabled":false,"rental_uris":{"android":"levelo://app?vid=a50f9712-bb17-47fa-a777-16930b22d604","ios":"levelo://app?vid=a50f9712-bb17-47fa-a777-16930b22d604"},"vehicle_type_id":"4","last_reported":1725649603,"current_range_meters":27600,"station_id":"ce4bgth2rcd13ifvqch0","pricing_plan_id":"cebpf4jnsgd1na2vs0mg"},{"bike_id":"82975e82-db5b-4acd-aee9-27354e64d4f1","system_id":"levelo_inurba_marseille","lat":43.30304,"lon":5.368987,"is_reserved":false,"is_disabled":false,"rental_uris":{"android":"levelo://app?vid=82975e82-db5b-4acd-aee9-27354e64d4f1","ios":"levelo://app?vid=82975e82-db5b-4acd-aee9-27354e64d4f1"},"vehicle_type_id":"4","last_reported":1725649603,"current_range_meters":7600,"station_id":"ce4bgqh2rcd13ifvqc5g","pricing_plan_id":"cebpf4jnsgd1na2vs0mg"},{"bike_id":"cabb430b-1ae3-475b-b5a3-1557c986f9ff","system_id":"levelo_inurba_marseille","lat":43.303046,"lon":5.368981,"is_reserved":false,"is_disabled":false,"rental_uris":{"android":"levelo://app?vid=cabb430b-1ae3-475b-b5a3-1557c986f9ff","ios":"levelo://app?vid=cabb430b-1ae3-475b-b5a3-1557c986f9ff"},"vehicle_type_id":"4","last_reported":1725649603,"current_range_meters":16800,"station_id":"ce4bgqh2rcd13ifvqc5g","pricing_plan_id":"cebpf4jnsgd1na2vs0mg"},{"bike_id":"b6945593-3bd7-4b18-b570-7180fb271e8f","system_id":"levelo_inurba_marseille","lat":43.315289,"lon":5.380349,"is_reserved":false,"is_disabled":false,"rental_uris":{"android":"levelo://app?vid=b6945593-3bd7-4b18-b570-7180fb271e8f","ios":"levelo://app?vid=b6945593-3bd7-4b18-b570-7180fb271e8f"},"vehicle_type_id":"4","last_reported":1725649603,"current_range_meters":30400,"station_id":"ce4bhsp2rcd13ifvqi50","pricing_plan_id":"cebpf4jnsgd1na2vs0mg"},{"bike_id":"54bb4e74-9e9a-4e41-8455-d760cc71bf6c","system_id":"levelo_inurba_marseille","lat":43.315289,"lon":5.380349,"is_reserved":false,"is_disabled":false,"rental_uris":{"android":"levelo://app?vid=54bb4e74-9e9a-4e41-8455-d760cc71bf6c","ios":"levelo://app?vid=54bb4e74-9e9a-4e41-8455-d760cc71bf6c"},"vehicle_type_id":"4","last_reported":1725649603,"current_range_meters":6400,"station_id":"ce4bhsp2rcd13ifvqi50","pricing_plan_id":"cebpf4jnsgd1na2vs0mg"},{"bike_id":"5c7e602c-f961-461f-96ab-799dea8e8115","system_id":"levelo_inurba_marseille","lat":43.32312,"lon":5.36758,"is_reserved":false,"is_disabled":false,"rental_uris":{"android":"levelo://app?vid=5c7e602c-f961-461f-96ab-799dea8e8115","ios":"levelo://app?vid=5c7e602c-f961-461f-96ab-799dea8e8115"},"vehicle_type_id":"4","last_reported":1725649603,"current_range_meters":18000,"station_id":"","pricing_plan_id":"cebpf4jnsgd1na2vs0mg"},{"bike_id":"bd5c560e-d21e-4efb-9e9d-a6fc7eb78030","system_id":"levelo_inurba_marseille","lat":43.301939,"lon":5.366286,"is_reserved":false,"is_disabled":false,"rental_uris":{"android":"levelo://app?vid=bd5c560e-d21e-4efb-9e9d-a6fc7eb78030","ios":"levelo://app?vid=bd5c560e-d21e-4efb-9e9d-a6fc7eb78030"},"vehicle_type_id":"4","last_reported":1725649603,"current_range_meters":1200,"station_id":"ce4bgrh2rcd13ifvqc8g","pricing_plan_id":"cebpf4jnsgd1na2vs0mg"},{"bike_id":"fd3599e0-edc6-491d-843b-447fe8aa12ae","system_id":"levelo_inurba_marseille","lat":43.301939,"lon":5.366286,"is_reserved":false,"is_disabled":false,"rental_uris":{"android":"levelo://app?vid=fd3599e0-edc6-491d-843b-447fe8aa12ae","ios":"levelo://app?vid=fd3599e0-edc6-491d-843b-447fe8aa12ae"},"vehicle_type_id":"4","last_reported":1725649603,"current_range_meters":25200,"station_id":"ce4bgrh2rcd13ifvqc8g","pricing_plan_id":"cebpf4jnsgd1na2vs0mg"},{"bike_id":"b3bd09ad-f101-4263-946b-89ff6aca38a8","system_id":"levelo_inurba_marseille","lat":43.308012,"lon":5.381511,"is_reserved":false,"is_disabled":false,"rental_uris":{"android":"levelo://app?vid=b3bd09ad-f101-4263-946b-89ff6aca38a8","ios":"levelo://app?vid=b3bd09ad-f101-4263-946b-89ff6aca38a8"},"vehicle_type_id":"4","last_reported":1725649603,"current_range_meters":0,"station_id":"ce4bgt12rcd13ifvqce0","pricing_plan_id":"cebpf4jnsgd1na2vs0mg"},{"bike_id":"2bcc66d2-38bb-4b55-ada9-76f65e8b07ae","system_id":"levelo_inurba_marseille","lat":43.308012,"lon":5.381511,"is_reserved":false,"is_disabled":false,"rental_uris":{"android":"levelo://app?vid=2bcc66d2-38bb-4b55-ada9-76f65e8b07ae","ios":"levelo://app?vid=2bcc66d2-38bb-4b55-ada9-76f65e8b07ae"},"vehicle_type_id":"4","last_reported":1725649603,"current_range_meters":15200,"station_id":"ce4bgt12rcd13ifvqce0","pricing_plan_id":"cebpf4jnsgd1na2vs0mg"},{"bike_id":"86345d93-ea0f-4075-9e41-5011a0285323","system_id":"levelo_inurba_marseille","lat":43.308012,"lon":5.381511,"is_reserved":false,"is_disabled":false,"rental_uris":{"android":"levelo://app?vid=86345d93-ea0f-4075-9e41-5011a0285323","ios":"levelo://app?vid=86345d93-ea0f-4075-9e41-5011a0285323"},"vehicle_type_id":"4","last_reported":1725649603,"current_range_meters":27200,"station_id":"ce4bgt12rcd13ifvqce0","pricing_plan_id":"cebpf4jnsgd1na2vs0mg"},{"bike_id":"e8398a33-2f39-47ef-ad12-11d69d3ad4b0","system_id":"levelo_inurba_marseille","lat":43.308012,"lon":5.381511,"is_reserved":false,"is_disabled":false,"rental_uris":{"android":"levelo://app?vid=e8398a33-2f39-47ef-ad12-11d69d3ad4b0","ios":"levelo://app?vid=e8398a33-2f39-47ef-ad12-11d69d3ad4b0"},"vehicle_type_id":"4","last_reported":1725649603,"current_range_meters":400,"station_id":"ce4bgt12rcd13ifvqce0","pricing_plan_id":"cebpf4jnsgd1na2vs0mg"},{"bike_id":"9c84d45e-9645-492a-b050-23d6d54f5c13","system_id":"levelo_inurba_marseille","lat":43.324771,"lon":5.36557,"is_reserved":false,"is_disabled":false,"rental_uris":{"android":"levelo://app?vid=9c84d45e-9645-492a-b050-23d6d54f5c13","ios":"levelo://app?vid=9c84d45e-9645-492a-b050-23d6d54f5c13"},"vehicle_type_id":"4","last_reported":1725649603,"current_range_meters":23200,"station_id":"ce4bhs12rcd13ifvqhvg","pricing_plan_id":"cebpf4jnsgd1na2vs0mg"},{"bike_id":"b1640384-4aca-47c5-af8b-05cd11714fba","system_id":"levelo_inurba_marseille","lat":43.32482,"lon":5.36567,"is_reserved":false,"is_disabled":false,"rental_uris":{"android":"levelo://app?vid=b1640384-4aca-47c5-af8b-05cd11714fba","ios":"levelo://app?vid=b1640384-4aca-47c5-af8b-05cd11714fba"},"vehicle_type_id":"4","last_reported":1725649603,"current_range_meters":16800,"station_id":"ce4bhs12rcd13ifvqhvg","pricing_plan_id":"cebpf4jnsgd1na2vs0mg"},{"bike_id":"09947a28-de94-4b78-be44-e8ed9eb6337a","system_id":"levelo_inurba_marseille","lat":43.324771,"lon":5.36557,"is_reserved":false,"is_disabled":false,"rental_uris":{"android":"levelo://app?vid=09947a28-de94-4b78-be44-e8ed9eb6337a","ios":"levelo://app?vid=09947a28-de94-4b78-be44-e8ed9eb6337a"},"vehicle_type_id":"4","last_reported":1725649603,"current_range_meters":9600,"station_id":"ce4bhs12rcd13ifvqhvg","pricing_plan_id":"cebpf4jnsgd1na2vs0mg"},{"bike_id":"9a43e707-b747-4a27-a8ba-f4e2e7809c03","system_id":"levelo_inurba_marseille","lat":43.324771,"lon":5.36557,"is_reserved":false,"is_disabled":false,"rental_uris":{"android":"levelo://app?vid=9a43e707-b747-4a27-a8ba-f4e2e7809c03","ios":"levelo://app?vid=9a43e707-b747-4a27-a8ba-f4e2e7809c03"},"vehicle_type_id":"4","last_reported":1725649603,"current_range_meters":14400,"station_id":"ce4bhs12rcd13ifvqhvg","pricing_plan_id":"cebpf4jnsgd1na2vs0mg"},{"bike_id":"b463e5f2-87be-4fb6-886c-d19a199a63be","system_id":"levelo_inurba_marseille","lat":43.324771,"lon":5.36557,"is_reserved":false,"is_disabled":false,"rental_uris":{"android":"levelo://app?vid=b463e5f2-87be-4fb6-886c-d19a199a63be","ios":"levelo://app?vid=b463e5f2-87be-4fb6-886c-d19a199a63be"},"vehicle_type_id":"4","last_reported":1725649603,"current_range_meters":24000,"station_id":"ce4bhs12rcd13ifvqhvg","pricing_plan_id":"cebpf4jnsgd1na2vs0mg"},{"bike_id":"1d30093c-ca4f-485d-aac3-6514cb570dc2","system_id":"levelo_inurba_marseille","lat":43.324771,"lon":5.36557,"is_reserved":false,"is_disabled":false,"rental_uris":{"android":"levelo://app?vid=1d30093c-ca4f-485d-aac3-6514cb570dc2","ios":"levelo://app?vid=1d30093c-ca4f-485d-aac3-6514cb570dc2"},"vehicle_type_id":"4","last_reported":1725649603,"current_range_meters":23200,"station_id":"ce4bhs12rcd13ifvqhvg","pricing_plan_id":"cebpf4jnsgd1na2vs0mg"},{"bike_id":"33a5524d-9e06-48a0-b030-c181cf3ce0c9","system_id":"levelo_inurba_marseille","lat":43.324892,"lon":5.365737,"is_reserved":false,"is_disabled":false,"rental_uris":{"android":"levelo://app?vid=33a5524d-9e06-48a0-b030-c181cf3ce0c9","ios":"levelo://app?vid=33a5524d-9e06-48a0-b030-c181cf3ce0c9"},"vehicle_type_id":"4","last_reported":1725649603,"current_range_meters":16000,"station_id":"ce4bhs12rcd13ifvqhvg","pricing_plan_id":"cebpf4jnsgd1na2vs0mg"},{"bike_id":"9755fb10-40eb-4285-92ca-c1c116a6a617","system_id":"levelo_inurba_marseille","lat":43.310804,"lon":5.38359,"is_reserved":false,"is_disabled":false,"rental_uris":{"android":"levelo://app?vid=9755fb10-40eb-4285-92ca-c1c116a6a617","ios":"levelo://app?vid=9755fb10-40eb-4285-92ca-c1c116a6a617"},"vehicle_type_id":"4","last_reported":1725649603,"current_range_meters":22800,"station_id":"ce4bgv92rcd13ifvqcr0","pricing_plan_id":"cebpf4jnsgd1na2vs0mg"},{"bike_id":"d3507cec-ad9d-4cfe-8704-d78c2e9afe16","system_id":"levelo_inurba_marseille","lat":43.310804,"lon":5.38359,"is_reserved":false,"is_disabled":false,"rental_uris":{"android":"levelo://app?vid=d3507cec-ad9d-4cfe-8704-d78c2e9afe16","ios":"levelo://app?vid=d3507cec-ad9d-4cfe-8704-d78c2e9afe16"},"vehicle_type_id":"4","last_reported":1725649603,"current_range_meters":0,"station_id":"ce4bgv92rcd13ifvqcr0","pricing_plan_id":"cebpf4jnsgd1na2vs0mg"},{"bike_id":"950ae000-d7f3-434a-8bb1-04263c24a088","system_id":"levelo_inurba_marseille","lat":43.310804,"lon":5.38359,"is_reserved":false,"is_disabled":false,"rental_uris":{"android":"levelo://app?vid=950ae000-d7f3-434a-8bb1-04263c24a088","ios":"levelo://app?vid=950ae000-d7f3-434a-8bb1-04263c24a088"},"vehicle_type_id":"4","last_reported":1725649603,"current_range_meters":1600,"station_id":"ce4bgv92rcd13ifvqcr0","pricing_plan_id":"cebpf4jnsgd1na2vs0mg"},{"bike_id":"8eb786c8-66c2-4754-933a-08591cde59a4","system_id":"levelo_inurba_marseille","lat":43.310804,"lon":5.38359,"is_reserved":false,"is_disabled":false,"rental_uris":{"android":"levelo://app?vid=8eb786c8-66c2-4754-933a-08591cde59a4","ios":"levelo://app?vid=8eb786c8-66c2-4754-933a-08591cde59a4"},"vehicle_type_id":"4","last_reported":1725649603,"current_range_meters":6400,"station_id":"ce4bgv92rcd13ifvqcr0","pricing_plan_id":"cebpf4jnsgd1na2vs0mg"},{"bike_id":"73dc2855-31d6-461b-90af-93a3c47505d9","system_id":"levelo_inurba_marseille","lat":43.30143,"lon":5.37413,"is_reserved":false,"is_disabled":false,"rental_uris":{"android":"levelo://app?vid=73dc2855-31d6-461b-90af-93a3c47505d9","ios":"levelo://app?vid=73dc2855-31d6-461b-90af-93a3c47505d9"},"vehicle_type_id":"4","last_reported":1725649603,"current_range_meters":0,"station_id":"ce4bgs92rcd13ifvqcc0","pricing_plan_id":"cebpf4jnsgd1na2vs0mg"},{"bike_id":"d9763bdf-de63-47bd-a1fa-d297661155aa","system_id":"levelo_inurba_marseille","lat":43.30143,"lon":5.37413,"is_reserved":false,"is_disabled":false,"rental_uris":{"android":"levelo://app?vid=d9763bdf-de63-47bd-a1fa-d297661155aa","ios":"levelo://app?vid=d9763bdf-de63-47bd-a1fa-d297661155aa"},"vehicle_type_id":"4","last_reported":1725649603,"current_range_meters":0,"station_id":"ce4bgs92rcd13ifvqcc0","pricing_plan_id":"cebpf4jnsgd1na2vs0mg"},{"bike_id":"2f43287f-0af0-4517-9b6f-dde40cecd3e4","system_id":"levelo_inurba_marseille","lat":43.319935,"lon":5.381699,"is_reserved":false,"is_disabled":false,"rental_uris":{"android":"levelo://app?vid=2f43287f-0af0-4517-9b6f-dde40cecd3e4","ios":"levelo://app?vid=2f43287f-0af0-4517-9b6f-dde40cecd3e4"},"vehicle_type_id":"4","last_reported":1725649603,"current_range_meters":8400,"station_id":"ce4bhr12rcd13ifvqhpg","pricing_plan_id":"cebpf4jnsgd1na2vs0mg"},{"bike_id":"226dda00-2b94-43cc-8783-09698966e154","system_id":"levelo_inurba_marseille","lat":43.319935,"lon":5.381699,"is_reserved":false,"is_disabled":false,"rental_uris":{"android":"levelo://app?vid=226dda00-2b94-43cc-8783-09698966e154","ios":"levelo://app?vid=226dda00-2b94-43cc-8783-09698966e154"},"vehicle_type_id":"4","last_reported":1725649603,"current_range_meters":12400,"station_id":"ce4bhr12rcd13ifvqhpg","pricing_plan_id":"cebpf4jnsgd1na2vs0mg"},{"bike_id":"3f82651b-0f90-4a41-ade7-7ecbdc7ad1ee","system_id":"levelo_inurba_marseille","lat":43.31358,"lon":5.38497,"is_reserved":false,"is_disabled":false,"rental_uris":{"android":"levelo://app?vid=3f82651b-0f90-4a41-ade7-7ecbdc7ad1ee","ios":"levelo://app?vid=3f82651b-0f90-4a41-ade7-7ecbdc7ad1ee"},"vehicle_type_id":"4","last_reported":1725649603,"current_range_meters":0,"station_id":"ce4bgt92rcd13ifvqcf0","pricing_plan_id":"cebpf4jnsgd1na2vs0mg"},{"bike_id":"030b44b2-6984-4aac-8190-7e8b668307ad","system_id":"levelo_inurba_marseille","lat":43.313571,"lon":5.384829,"is_reserved":false,"is_disabled":false,"rental_uris":{"android":"levelo://app?vid=030b44b2-6984-4aac-8190-7e8b668307ad","ios":"levelo://app?vid=030b44b2-6984-4aac-8190-7e8b668307ad"},"vehicle_type_id":"4","last_reported":1725649603,"current_range_meters":5600,"station_id":"ce4bgt92rcd13ifvqcf0","pricing_plan_id":"cebpf4jnsgd1na2vs0mg"},{"bike_id":"a59dc13e-d490-4403-9b5f-96a85fd606ff","system_id":"levelo_inurba_marseille","lat":43.299724,"lon":5.371829,"is_reserved":false,"is_disabled":false,"rental_uris":{"android":"levelo://app?vid=a59dc13e-d490-4403-9b5f-96a85fd606ff","ios":"levelo://app?vid=a59dc13e-d490-4403-9b5f-96a85fd606ff"},"vehicle_type_id":"4","last_reported":1725649603,"current_range_meters":27600,"station_id":"ce4bgr92rcd13ifvqc7g","pricing_plan_id":"cebpf4jnsgd1na2vs0mg"},{"bike_id":"7c60dcef-96a5-4774-a5a3-6dda20d33296","system_id":"levelo_inurba_marseille","lat":43.299222,"lon":5.365554,"is_reserved":false,"is_disabled":false,"rental_uris":{"android":"levelo://app?vid=7c60dcef-96a5-4774-a5a3-6dda20d33296","ios":"levelo://app?vid=7c60dcef-96a5-4774-a5a3-6dda20d33296"},"vehicle_type_id":"4","last_reported":1725649603,"current_range_meters":18000,"station_id":"ce4bgm92rcd13ifvqbr0","pricing_plan_id":"cebpf4jnsgd1na2vs0mg"},{"bike_id":"b325493c-94f6-4f4c-99f3-e767df3c00e3","system_id":"levelo_inurba_marseille","lat":43.299222,"lon":5.365554,"is_reserved":false,"is_disabled":false,"rental_uris":{"android":"levelo://app?vid=b325493c-94f6-4f4c-99f3-e767df3c00e3","ios":"levelo://app?vid=b325493c-94f6-4f4c-99f3-e767df3c00e3"},"vehicle_type_id":"4","last_reported":1725649603,"current_range_meters":6000,"station_id":"ce4bgm92rcd13ifvqbr0","pricing_plan_id":"cebpf4jnsgd1na2vs0mg"},{"bike_id":"8c8ab5c1-5c9d-4e4d-9331-d2cd3c8a7bae","system_id":"levelo_inurba_marseille","lat":43.299222,"lon":5.365554,"is_reserved":false,"is_disabled":false,"rental_uris":{"android":"levelo://app?vid=8c8ab5c1-5c9d-4e4d-9331-d2cd3c8a7bae","ios":"levelo://app?vid=8c8ab5c1-5c9d-4e4d-9331-d2cd3c8a7bae"},"vehicle_type_id":"4","last_reported":1725649603,"current_range_meters":27600,"station_id":"ce4bgm92rcd13ifvqbr0","pricing_plan_id":"cebpf4jnsgd1na2vs0mg"},{"bike_id":"469c95c2-b073-44e8-b5b8-6fd6f991937d","system_id":"levelo_inurba_marseille","lat":43.298433,"lon":5.362774,"is_reserved":false,"is_disabled":false,"rental_uris":{"android":"levelo://app?vid=469c95c2-b073-44e8-b5b8-6fd6f991937d","ios":"levelo://app?vid=469c95c2-b073-44e8-b5b8-6fd6f991937d"},"vehicle_type_id":"4","last_reported":1725649603,"current_range_meters":25600,"station_id":"ce4bgpp2rcd13ifvqc3g","pricing_plan_id":"cebpf4jnsgd1na2vs0mg"},{"bike_id":"c6ba0b80-7890-4793-9269-31ef9cead4bb","system_id":"levelo_inurba_marseille","lat":43.298433,"lon":5.362774,"is_reserved":false,"is_disabled":false,"rental_uris":{"android":"levelo://app?vid=c6ba0b80-7890-4793-9269-31ef9cead4bb","ios":"levelo://app?vid=c6ba0b80-7890-4793-9269-31ef9cead4bb"},"vehicle_type_id":"4","last_reported":1725649603,"current_range_meters":18800,"station_id":"ce4bgpp2rcd13ifvqc3g","pricing_plan_id":"cebpf4jnsgd1na2vs0mg"},{"bike_id":"00ee2714-d9ba-497b-8f01-381406889169","system_id":"levelo_inurba_marseille","lat":43.299243,"lon":5.37481,"is_reserved":false,"is_disabled":false,"rental_uris":{"android":"levelo://app?vid=00ee2714-d9ba-497b-8f01-381406889169","ios":"levelo://app?vid=00ee2714-d9ba-497b-8f01-381406889169"},"vehicle_type_id":"4","last_reported":1725649603,"current_range_meters":400,"station_id":"ce4bgjh2rcd13ifvqbg0","pricing_plan_id":"cebpf4jnsgd1na2vs0mg"},{"bike_id":"3bad1675-3c79-484f-8e0c-9e3a635c14ac","system_id":"levelo_inurba_marseille","lat":43.311722,"lon":5.387247,"is_reserved":false,"is_disabled":false,"rental_uris":{"android":"levelo://app?vid=3bad1675-3c79-484f-8e0c-9e3a635c14ac","ios":"levelo://app?vid=3bad1675-3c79-484f-8e0c-9e3a635c14ac"},"vehicle_type_id":"4","last_reported":1725649603,"current_range_meters":29600,"station_id":"ce4bgv12rcd13ifvqcp0","pricing_plan_id":"cebpf4jnsgd1na2vs0mg"},{"bike_id":"4ae51d6b-aaaf-442a-873d-f8eca9a3e7b5","system_id":"levelo_inurba_marseille","lat":43.32065,"lon":5.3845,"is_reserved":false,"is_disabled":false,"rental_uris":{"android":"levelo://app?vid=4ae51d6b-aaaf-442a-873d-f8eca9a3e7b5","ios":"levelo://app?vid=4ae51d6b-aaaf-442a-873d-f8eca9a3e7b5"},"vehicle_type_id":"4","last_reported":1725649603,"current_range_meters":10000,"station_id":"","pricing_plan_id":"cebpf4jnsgd1na2vs0mg"},{"bike_id":"9d4d4ad3-9fa4-4394-8995-8a5887e80cc8","system_id":"levelo_inurba_marseille","lat":43.32282,"lon":5.382644,"is_reserved":false,"is_disabled":false,"rental_uris":{"android":"levelo://app?vid=9d4d4ad3-9fa4-4394-8995-8a5887e80cc8","ios":"levelo://app?vid=9d4d4ad3-9fa4-4394-8995-8a5887e80cc8"},"vehicle_type_id":"4","last_reported":1725649603,"current_range_meters":18400,"station_id":"ce4bhr12rcd13ifvqhqg","pricing_plan_id":"cebpf4jnsgd1na2vs0mg"},{"bike_id":"faaf4ef2-91e1-41b7-9b2f-e7376cba2160","system_id":"levelo_inurba_marseille","lat":43.297774,"lon":5.370875,"is_reserved":false,"is_disabled":false,"rental_uris":{"android":"levelo://app?vid=faaf4ef2-91e1-41b7-9b2f-e7376cba2160","ios":"levelo://app?vid=faaf4ef2-91e1-41b7-9b2f-e7376cba2160"},"vehicle_type_id":"4","last_reported":1725649603,"current_range_meters":13600,"station_id":"ce4bgop2rcd13ifvqc1g","pricing_plan_id":"cebpf4jnsgd1na2vs0mg"},{"bike_id":"909f3412-c3e3-47d3-a586-b0b79feeb1fb","system_id":"levelo_inurba_marseille","lat":43.322872,"lon":5.382756,"is_reserved":false,"is_disabled":false,"rental_uris":{"android":"levelo://app?vid=909f3412-c3e3-47d3-a586-b0b79feeb1fb","ios":"levelo://app?vid=909f3412-c3e3-47d3-a586-b0b79feeb1fb"},"vehicle_type_id":"4","last_reported":1725649603,"current_range_meters":15200,"station_id":"ce4bhr12rcd13ifvqhqg","pricing_plan_id":"cebpf4jnsgd1na2vs0mg"},{"bike_id":"244b1f6e-4cb1-4789-be79-87331ebe15ac","system_id":"levelo_inurba_marseille","lat":43.3229,"lon":5.382777,"is_reserved":false,"is_disabled":false,"rental_uris":{"android":"levelo://app?vid=244b1f6e-4cb1-4789-be79-87331ebe15ac","ios":"levelo://app?vid=244b1f6e-4cb1-4789-be79-87331ebe15ac"},"vehicle_type_id":"4","last_reported":1725649603,"current_range_meters":2000,"station_id":"ce4bhr12rcd13ifvqhqg","pricing_plan_id":"cebpf4jnsgd1na2vs0mg"},{"bike_id":"8d27e8e1-314a-4289-b377-687f866b978c","system_id":"levelo_inurba_marseille","lat":43.322872,"lon":5.382756,"is_reserved":false,"is_disabled":false,"rental_uris":{"android":"levelo://app?vid=8d27e8e1-314a-4289-b377-687f866b978c","ios":"levelo://app?vid=8d27e8e1-314a-4289-b377-687f866b978c"},"vehicle_type_id":"4","last_reported":1725649603,"current_range_meters":28000,"station_id":"ce4bhr12rcd13ifvqhqg","pricing_plan_id":"cebpf4jnsgd1na2vs0mg"},{"bike_id":"5d29279a-9093-4233-bc6a-f6b8e4712728","system_id":"levelo_inurba_marseille","lat":43.297163,"lon":5.365866,"is_reserved":false,"is_disabled":false,"rental_uris":{"android":"levelo://app?vid=5d29279a-9093-4233-bc6a-f6b8e4712728","ios":"levelo://app?vid=5d29279a-9093-4233-bc6a-f6b8e4712728"},"vehicle_type_id":"4","last_reported":1725649603,"current_range_meters":6400,"station_id":"ce4bgn12rcd13ifvqbt0","pricing_plan_id":"cebpf4jnsgd1na2vs0mg"},{"bike_id":"bb1b88d5-365b-4c60-8383-246678679728","system_id":"levelo_inurba_marseille","lat":43.297163,"lon":5.365866,"is_reserved":false,"is_disabled":false,"rental_uris":{"android":"levelo://app?vid=bb1b88d5-365b-4c60-8383-246678679728","ios":"levelo://app?vid=bb1b88d5-365b-4c60-8383-246678679728"},"vehicle_type_id":"4","last_reported":1725649603,"current_range_meters":4400,"station_id":"ce4bgn12rcd13ifvqbt0","pricing_plan_id":"cebpf4jnsgd1na2vs0mg"},{"bike_id":"b7872990-4ac3-4c10-81b9-6e2036da02b9","system_id":"levelo_inurba_marseille","lat":43.297163,"lon":5.365866,"is_reserved":false,"is_disabled":false,"rental_uris":{"android":"levelo://app?vid=b7872990-4ac3-4c10-81b9-6e2036da02b9","ios":"levelo://app?vid=b7872990-4ac3-4c10-81b9-6e2036da02b9"},"vehicle_type_id":"4","last_reported":1725649603,"current_range_meters":4400,"station_id":"ce4bgn12rcd13ifvqbt0","pricing_plan_id":"cebpf4jnsgd1na2vs0mg"},{"bike_id":"8a8887de-5c7d-4b1c-91b2-78e9c920b48d","system_id":"levelo_inurba_marseille","lat":43.2968,"lon":5.37291,"is_reserved":false,"is_disabled":false,"rental_uris":{"android":"levelo://app?vid=8a8887de-5c7d-4b1c-91b2-78e9c920b48d","ios":"levelo://app?vid=8a8887de-5c7d-4b1c-91b2-78e9c920b48d"},"vehicle_type_id":"4","last_reported":1725649603,"current_range_meters":29600,"station_id":"ce4bgk12rcd13ifvqbj0","pricing_plan_id":"cebpf4jnsgd1na2vs0mg"},{"bike_id":"928bbfe2-89d7-4673-a0c9-1d2d8f1dc8c1","system_id":"levelo_inurba_marseille","lat":43.30165,"lon":5.3845,"is_reserved":false,"is_disabled":false,"rental_uris":{"android":"levelo://app?vid=928bbfe2-89d7-4673-a0c9-1d2d8f1dc8c1","ios":"levelo://app?vid=928bbfe2-89d7-4673-a0c9-1d2d8f1dc8c1"},"vehicle_type_id":"4","last_reported":1725649603,"current_range_meters":26800,"station_id":"","pricing_plan_id":"cebpf4jnsgd1na2vs0mg"},{"bike_id":"afac7f4a-b59e-4c70-84e3-ed0508c8967d","system_id":"levelo_inurba_marseille","lat":43.299117,"lon":5.380848,"is_reserved":false,"is_disabled":false,"rental_uris":{"android":"levelo://app?vid=afac7f4a-b59e-4c70-84e3-ed0508c8967d","ios":"levelo://app?vid=afac7f4a-b59e-4c70-84e3-ed0508c8967d"},"vehicle_type_id":"4","last_reported":1725649603,"current_range_meters":0,"station_id":"","pricing_plan_id":"cebpf4jnsgd1na2vs0mg"},{"bike_id":"0f8ef6cb-498f-40ce-a38c-9fc1caef5613","system_id":"levelo_inurba_marseille","lat":43.30172,"lon":5.38504,"is_reserved":false,"is_disabled":false,"rental_uris":{"android":"levelo://app?vid=0f8ef6cb-498f-40ce-a38c-9fc1caef5613","ios":"levelo://app?vid=0f8ef6cb-498f-40ce-a38c-9fc1caef5613"},"vehicle_type_id":"4","last_reported":1725649603,"current_range_meters":28400,"station_id":"","pricing_plan_id":"cebpf4jnsgd1na2vs0mg"},{"bike_id":"90fc7ec4-1c82-4e82-822b-591de8ef4586","system_id":"levelo_inurba_marseille","lat":43.30954,"lon":5.39029,"is_reserved":false,"is_disabled":false,"rental_uris":{"android":"levelo://app?vid=90fc7ec4-1c82-4e82-822b-591de8ef4586","ios":"levelo://app?vid=90fc7ec4-1c82-4e82-822b-591de8ef4586"},"vehicle_type_id":"4","last_reported":1725649603,"current_range_meters":6400,"station_id":"ce4bgup2rcd13ifvqco0","pricing_plan_id":"cebpf4jnsgd1na2vs0mg"},{"bike_id":"08fdf501-11e1-4139-84d1-b288dad9341f","system_id":"levelo_inurba_marseille","lat":43.309589,"lon":5.390258,"is_reserved":false,"is_disabled":false,"rental_uris":{"android":"levelo://app?vid=08fdf501-11e1-4139-84d1-b288dad9341f","ios":"levelo://app?vid=08fdf501-11e1-4139-84d1-b288dad9341f"},"vehicle_type_id":"4","last_reported":1725649603,"current_range_meters":31200,"station_id":"ce4bgup2rcd13ifvqco0","pricing_plan_id":"cebpf4jnsgd1na2vs0mg"},{"bike_id":"ccc13b39-dccc-45da-9dea-1f69788d7b37","system_id":"levelo_inurba_marseille","lat":43.30944,"lon":5.39028,"is_reserved":false,"is_disabled":false,"rental_uris":{"android":"levelo://app?vid=ccc13b39-dccc-45da-9dea-1f69788d7b37","ios":"levelo://app?vid=ccc13b39-dccc-45da-9dea-1f69788d7b37"},"vehicle_type_id":"4","last_reported":1725649603,"current_range_meters":6000,"station_id":"ce4bgup2rcd13ifvqco0","pricing_plan_id":"cebpf4jnsgd1na2vs0mg"},{"bike_id":"d08cea5d-2948-4191-a169-b2cad0ca0a60","system_id":"levelo_inurba_marseille","lat":43.30948,"lon":5.39031,"is_reserved":false,"is_disabled":false,"rental_uris":{"android":"levelo://app?vid=d08cea5d-2948-4191-a169-b2cad0ca0a60","ios":"levelo://app?vid=d08cea5d-2948-4191-a169-b2cad0ca0a60"},"vehicle_type_id":"4","last_reported":1725649603,"current_range_meters":31200,"station_id":"ce4bgup2rcd13ifvqco0","pricing_plan_id":"cebpf4jnsgd1na2vs0mg"},{"bike_id":"293a4769-06c6-43c0-aa84-1ba85582bd42","system_id":"levelo_inurba_marseille","lat":43.309589,"lon":5.390258,"is_reserved":false,"is_disabled":false,"rental_uris":{"android":"levelo://app?vid=293a4769-06c6-43c0-aa84-1ba85582bd42","ios":"levelo://app?vid=293a4769-06c6-43c0-aa84-1ba85582bd42"},"vehicle_type_id":"4","last_reported":1725649603,"current_range_meters":19200,"station_id":"ce4bgup2rcd13ifvqco0","pricing_plan_id":"cebpf4jnsgd1na2vs0mg"},{"bike_id":"d452ceda-3000-4c98-8971-9116506141cf","system_id":"levelo_inurba_marseille","lat":43.309589,"lon":5.390258,"is_reserved":false,"is_disabled":false,"rental_uris":{"android":"levelo://app?vid=d452ceda-3000-4c98-8971-9116506141cf","ios":"levelo://app?vid=d452ceda-3000-4c98-8971-9116506141cf"},"vehicle_type_id":"4","last_reported":1725649603,"current_range_meters":1200,"station_id":"ce4bgup2rcd13ifvqco0","pricing_plan_id":"cebpf4jnsgd1na2vs0mg"},{"bike_id":"f808924b-a831-4db3-ac99-9a9abe109270","system_id":"levelo_inurba_marseille","lat":43.30948,"lon":5.39043,"is_reserved":false,"is_disabled":false,"rental_uris":{"android":"levelo://app?vid=f808924b-a831-4db3-ac99-9a9abe109270","ios":"levelo://app?vid=f808924b-a831-4db3-ac99-9a9abe109270"},"vehicle_type_id":"4","last_reported":1725649603,"current_range_meters":17200,"station_id":"ce4bgup2rcd13ifvqco0","pricing_plan_id":"cebpf4jnsgd1na2vs0mg"},{"bike_id":"89688f21-51de-4710-9bc7-61ecc15d3b1c","system_id":"levelo_inurba_marseille","lat":43.3095,"lon":5.39044,"is_reserved":false,"is_disabled":false,"rental_uris":{"android":"levelo://app?vid=89688f21-51de-4710-9bc7-61ecc15d3b1c","ios":"levelo://app?vid=89688f21-51de-4710-9bc7-61ecc15d3b1c"},"vehicle_type_id":"4","last_reported":1725649603,"current_range_meters":12000,"station_id":"ce4bgup2rcd13ifvqco0","pricing_plan_id":"cebpf4jnsgd1na2vs0mg"},{"bike_id":"47cf1a81-b8dc-47dd-84dd-c21cab0700a3","system_id":"levelo_inurba_marseille","lat":43.30949,"lon":5.39046,"is_reserved":false,"is_disabled":false,"rental_uris":{"android":"levelo://app?vid=47cf1a81-b8dc-47dd-84dd-c21cab0700a3","ios":"levelo://app?vid=47cf1a81-b8dc-47dd-84dd-c21cab0700a3"},"vehicle_type_id":"4","last_reported":1725649603,"current_range_meters":21600,"station_id":"ce4bgup2rcd13ifvqco0","pricing_plan_id":"cebpf4jnsgd1na2vs0mg"},{"bike_id":"2fe6b070-8a21-408d-a273-65b0c1087578","system_id":"levelo_inurba_marseille","lat":43.30952,"lon":5.39047,"is_reserved":false,"is_disabled":false,"rental_uris":{"android":"levelo://app?vid=2fe6b070-8a21-408d-a273-65b0c1087578","ios":"levelo://app?vid=2fe6b070-8a21-408d-a273-65b0c1087578"},"vehicle_type_id":"4","last_reported":1725649603,"current_range_meters":4400,"station_id":"ce4bgup2rcd13ifvqco0","pricing_plan_id":"cebpf4jnsgd1na2vs0mg"},{"bike_id":"6765e966-e495-45ed-b449-3545c9139aa1","system_id":"levelo_inurba_marseille","lat":43.30947,"lon":5.39053,"is_reserved":false,"is_disabled":false,"rental_uris":{"android":"levelo://app?vid=6765e966-e495-45ed-b449-3545c9139aa1","ios":"levelo://app?vid=6765e966-e495-45ed-b449-3545c9139aa1"},"vehicle_type_id":"4","last_reported":1725649603,"current_range_meters":28400,"station_id":"ce4bgup2rcd13ifvqco0","pricing_plan_id":"cebpf4jnsgd1na2vs0mg"},{"bike_id":"10f69fe8-7773-460f-8cbc-84d5043d302b","system_id":"levelo_inurba_marseille","lat":43.32253,"lon":5.387034,"is_reserved":false,"is_disabled":false,"rental_uris":{"android":"levelo://app?vid=10f69fe8-7773-460f-8cbc-84d5043d302b","ios":"levelo://app?vid=10f69fe8-7773-460f-8cbc-84d5043d302b"},"vehicle_type_id":"4","last_reported":1725649603,"current_range_meters":26000,"station_id":"","pricing_plan_id":"cebpf4jnsgd1na2vs0mg"},{"bike_id":"e0aae909-25f6-4aba-b494-257a01268f0d","system_id":"levelo_inurba_marseille","lat":43.295903,"lon":5.375127,"is_reserved":false,"is_disabled":false,"rental_uris":{"android":"levelo://app?vid=e0aae909-25f6-4aba-b494-257a01268f0d","ios":"levelo://app?vid=e0aae909-25f6-4aba-b494-257a01268f0d"},"vehicle_type_id":"4","last_reported":1725649603,"current_range_meters":0,"station_id":"ce4bgh92rcd13ifvqb50","pricing_plan_id":"cebpf4jnsgd1na2vs0mg"},{"bike_id":"e3a53e13-0468-420f-82b3-81ff2ea6412d","system_id":"levelo_inurba_marseille","lat":43.298037,"lon":5.381066,"is_reserved":false,"is_disabled":false,"rental_uris":{"android":"levelo://app?vid=e3a53e13-0468-420f-82b3-81ff2ea6412d","ios":"levelo://app?vid=e3a53e13-0468-420f-82b3-81ff2ea6412d"},"vehicle_type_id":"4","last_reported":1725649603,"current_range_meters":4400,"station_id":"ce4bgip2rcd13ifvqbb0","pricing_plan_id":"cebpf4jnsgd1na2vs0mg"},{"bike_id":"868812ac-bb91-4c6c-8095-11d0b633efc1","system_id":"levelo_inurba_marseille","lat":43.298037,"lon":5.381066,"is_reserved":false,"is_disabled":false,"rental_uris":{"android":"levelo://app?vid=868812ac-bb91-4c6c-8095-11d0b633efc1","ios":"levelo://app?vid=868812ac-bb91-4c6c-8095-11d0b633efc1"},"vehicle_type_id":"4","last_reported":1725649603,"current_range_meters":31200,"station_id":"ce4bgip2rcd13ifvqbb0","pricing_plan_id":"cebpf4jnsgd1na2vs0mg"},{"bike_id":"7b03035c-de5e-4b98-b9fc-560b44f1697a","system_id":"levelo_inurba_marseille","lat":43.298037,"lon":5.381066,"is_reserved":false,"is_disabled":false,"rental_uris":{"android":"levelo://app?vid=7b03035c-de5e-4b98-b9fc-560b44f1697a","ios":"levelo://app?vid=7b03035c-de5e-4b98-b9fc-560b44f1697a"},"vehicle_type_id":"4","last_reported":1725649603,"current_range_meters":31200,"station_id":"ce4bgip2rcd13ifvqbb0","pricing_plan_id":"cebpf4jnsgd1na2vs0mg"},{"bike_id":"2bd69217-1e6a-4260-a9fd-e014631c99af","system_id":"levelo_inurba_marseille","lat":43.298037,"lon":5.381066,"is_reserved":false,"is_disabled":false,"rental_uris":{"android":"levelo://app?vid=2bd69217-1e6a-4260-a9fd-e014631c99af","ios":"levelo://app?vid=2bd69217-1e6a-4260-a9fd-e014631c99af"},"vehicle_type_id":"4","last_reported":1725649603,"current_range_meters":31200,"station_id":"ce4bgip2rcd13ifvqbb0","pricing_plan_id":"cebpf4jnsgd1na2vs0mg"},{"bike_id":"9880b0f3-cd9a-43d1-b756-51363c7683ff","system_id":"levelo_inurba_marseille","lat":43.298037,"lon":5.381066,"is_reserved":false,"is_disabled":false,"rental_uris":{"android":"levelo://app?vid=9880b0f3-cd9a-43d1-b756-51363c7683ff","ios":"levelo://app?vid=9880b0f3-cd9a-43d1-b756-51363c7683ff"},"vehicle_type_id":"4","last_reported":1725649603,"current_range_meters":28400,"station_id":"ce4bgip2rcd13ifvqbb0","pricing_plan_id":"cebpf4jnsgd1na2vs0mg"},{"bike_id":"a998e965-e3dc-4dd5-8700-32cef5dacd8e","system_id":"levelo_inurba_marseille","lat":43.299707,"lon":5.384859,"is_reserved":false,"is_disabled":false,"rental_uris":{"android":"levelo://app?vid=a998e965-e3dc-4dd5-8700-32cef5dacd8e","ios":"levelo://app?vid=a998e965-e3dc-4dd5-8700-32cef5dacd8e"},"vehicle_type_id":"4","last_reported":1725649603,"current_range_meters":8400,"station_id":"ce4bgj92rcd13ifvqbd0","pricing_plan_id":"cebpf4jnsgd1na2vs0mg"},{"bike_id":"7bf4a9d9-0d90-4b92-abf3-1927003b2357","system_id":"levelo_inurba_marseille","lat":43.301396,"lon":5.387812,"is_reserved":false,"is_disabled":false,"rental_uris":{"android":"levelo://app?vid=7bf4a9d9-0d90-4b92-abf3-1927003b2357","ios":"levelo://app?vid=7bf4a9d9-0d90-4b92-abf3-1927003b2357"},"vehicle_type_id":"4","last_reported":1725649603,"current_range_meters":26000,"station_id":"ce4bghh2rcd13ifvqb60","pricing_plan_id":"cebpf4jnsgd1na2vs0mg"},{"bike_id":"16ca4d44-e42f-48ec-b29b-fa417d064513","system_id":"levelo_inurba_marseille","lat":43.301396,"lon":5.387812,"is_reserved":false,"is_disabled":false,"rental_uris":{"android":"levelo://app?vid=16ca4d44-e42f-48ec-b29b-fa417d064513","ios":"levelo://app?vid=16ca4d44-e42f-48ec-b29b-fa417d064513"},"vehicle_type_id":"4","last_reported":1725649603,"current_range_meters":0,"station_id":"ce4bghh2rcd13ifvqb60","pricing_plan_id":"cebpf4jnsgd1na2vs0mg"},{"bike_id":"1aa18c85-afb7-42ab-8da9-ce63f77bce8a","system_id":"levelo_inurba_marseille","lat":43.3236,"lon":5.3889,"is_reserved":false,"is_disabled":false,"rental_uris":{"android":"levelo://app?vid=1aa18c85-afb7-42ab-8da9-ce63f77bce8a","ios":"levelo://app?vid=1aa18c85-afb7-42ab-8da9-ce63f77bce8a"},"vehicle_type_id":"4","last_reported":1725649603,"current_range_meters":2400,"station_id":"ce4bhqp2rcd13ifvqhog","pricing_plan_id":"cebpf4jnsgd1na2vs0mg"},{"bike_id":"81a98824-2008-44d6-9c81-2be30d9e0932","system_id":"levelo_inurba_marseille","lat":43.32367,"lon":5.38892,"is_reserved":false,"is_disabled":false,"rental_uris":{"android":"levelo://app?vid=81a98824-2008-44d6-9c81-2be30d9e0932","ios":"levelo://app?vid=81a98824-2008-44d6-9c81-2be30d9e0932"},"vehicle_type_id":"4","last_reported":1725649603,"current_range_meters":0,"station_id":"ce4bhqp2rcd13ifvqhog","pricing_plan_id":"cebpf4jnsgd1na2vs0mg"},{"bike_id":"039e319b-6f89-4bf4-8398-2947ac22714d","system_id":"levelo_inurba_marseille","lat":43.29602,"lon":5.381084,"is_reserved":false,"is_disabled":false,"rental_uris":{"android":"levelo://app?vid=039e319b-6f89-4bf4-8398-2947ac22714d","ios":"levelo://app?vid=039e319b-6f89-4bf4-8398-2947ac22714d"},"vehicle_type_id":"4","last_reported":1725649603,"current_range_meters":29200,"station_id":"ce4bgl12rcd13ifvqbo0","pricing_plan_id":"cebpf4jnsgd1na2vs0mg"},{"bike_id":"1389f4a0-fe8c-45a8-89e1-761602337135","system_id":"levelo_inurba_marseille","lat":43.32367,"lon":5.38925,"is_reserved":false,"is_disabled":false,"rental_uris":{"android":"levelo://app?vid=1389f4a0-fe8c-45a8-89e1-761602337135","ios":"levelo://app?vid=1389f4a0-fe8c-45a8-89e1-761602337135"},"vehicle_type_id":"4","last_reported":1725649603,"current_range_meters":23200,"station_id":"ce4bhqp2rcd13ifvqhog","pricing_plan_id":"cebpf4jnsgd1na2vs0mg"},{"bike_id":"9ab3021e-b5d3-4d39-aeff-54329f8a495d","system_id":"levelo_inurba_marseille","lat":43.29602,"lon":5.381084,"is_reserved":false,"is_disabled":false,"rental_uris":{"android":"levelo://app?vid=9ab3021e-b5d3-4d39-aeff-54329f8a495d","ios":"levelo://app?vid=9ab3021e-b5d3-4d39-aeff-54329f8a495d"},"vehicle_type_id":"4","last_reported":1725649603,"current_range_meters":31200,"station_id":"ce4bgl12rcd13ifvqbo0","pricing_plan_id":"cebpf4jnsgd1na2vs0mg"},{"bike_id":"974dd4ac-df50-4dce-8630-117e0e6e002a","system_id":"levelo_inurba_marseille","lat":43.3237,"lon":5.38926,"is_reserved":false,"is_disabled":false,"rental_uris":{"android":"levelo://app?vid=974dd4ac-df50-4dce-8630-117e0e6e002a","ios":"levelo://app?vid=974dd4ac-df50-4dce-8630-117e0e6e002a"},"vehicle_type_id":"4","last_reported":1725649603,"current_range_meters":28000,"station_id":"ce4bhqp2rcd13ifvqhog","pricing_plan_id":"cebpf4jnsgd1na2vs0mg"},{"bike_id":"41704600-e9e6-4869-aefd-a4a12996605b","system_id":"levelo_inurba_marseille","lat":43.3237,"lon":5.38926,"is_reserved":false,"is_disabled":false,"rental_uris":{"android":"levelo://app?vid=41704600-e9e6-4869-aefd-a4a12996605b","ios":"levelo://app?vid=41704600-e9e6-4869-aefd-a4a12996605b"},"vehicle_type_id":"4","last_reported":1725649603,"current_range_meters":15600,"station_id":"ce4bhqp2rcd13ifvqhog","pricing_plan_id":"cebpf4jnsgd1na2vs0mg"},{"bike_id":"ab316338-59e0-43f1-8d6a-e73fa0a9afa2","system_id":"levelo_inurba_marseille","lat":43.295957,"lon":5.38095,"is_reserved":false,"is_disabled":false,"rental_uris":{"android":"levelo://app?vid=ab316338-59e0-43f1-8d6a-e73fa0a9afa2","ios":"levelo://app?vid=ab316338-59e0-43f1-8d6a-e73fa0a9afa2"},"vehicle_type_id":"4","last_reported":1725649603,"current_range_meters":0,"station_id":"ce4bgl12rcd13ifvqbo0","pricing_plan_id":"cebpf4jnsgd1na2vs0mg"},{"bike_id":"6bd76bd2-88c6-429b-9852-b0ce7921a3c1","system_id":"levelo_inurba_marseille","lat":43.292749,"lon":5.368402,"is_reserved":false,"is_disabled":false,"rental_uris":{"android":"levelo://app?vid=6bd76bd2-88c6-429b-9852-b0ce7921a3c1","ios":"levelo://app?vid=6bd76bd2-88c6-429b-9852-b0ce7921a3c1"},"vehicle_type_id":"4","last_reported":1725649603,"current_range_meters":400,"station_id":"ce4bhbp2rcd13ifvqesg","pricing_plan_id":"cebpf4jnsgd1na2vs0mg"},{"bike_id":"c0e3dc07-729b-45ce-9efd-5197df2f45d2","system_id":"levelo_inurba_marseille","lat":43.29277,"lon":5.36839,"is_reserved":false,"is_disabled":false,"rental_uris":{"android":"levelo://app?vid=c0e3dc07-729b-45ce-9efd-5197df2f45d2","ios":"levelo://app?vid=c0e3dc07-729b-45ce-9efd-5197df2f45d2"},"vehicle_type_id":"4","last_reported":1725649603,"current_range_meters":0,"station_id":"ce4bhbp2rcd13ifvqesg","pricing_plan_id":"cebpf4jnsgd1na2vs0mg"},{"bike_id":"024cccbe-8772-44f2-8d0e-c7a19d8e4a9f","system_id":"levelo_inurba_marseille","lat":43.29303,"lon":5.3718,"is_reserved":false,"is_disabled":false,"rental_uris":{"android":"levelo://app?vid=024cccbe-8772-44f2-8d0e-c7a19d8e4a9f","ios":"levelo://app?vid=024cccbe-8772-44f2-8d0e-c7a19d8e4a9f"},"vehicle_type_id":"4","last_reported":1725649603,"current_range_meters":0,"station_id":"ce4bgh92rcd13ifvqb40","pricing_plan_id":"cebpf4jnsgd1na2vs0mg"},{"bike_id":"de216316-1575-40f5-a616-814ee44aaa56","system_id":"levelo_inurba_marseille","lat":43.29256,"lon":5.36642,"is_reserved":false,"is_disabled":false,"rental_uris":{"android":"levelo://app?vid=de216316-1575-40f5-a616-814ee44aaa56","ios":"levelo://app?vid=de216316-1575-40f5-a616-814ee44aaa56"},"vehicle_type_id":"4","last_reported":1725649603,"current_range_meters":26400,"station_id":"","pricing_plan_id":"cebpf4jnsgd1na2vs0mg"},{"bike_id":"660eecff-c6e1-452f-9929-8140e054d2d9","system_id":"levelo_inurba_marseille","lat":43.305994,"lon":5.393687,"is_reserved":false,"is_disabled":false,"rental_uris":{"android":"levelo://app?vid=660eecff-c6e1-452f-9929-8140e054d2d9","ios":"levelo://app?vid=660eecff-c6e1-452f-9929-8140e054d2d9"},"vehicle_type_id":"4","last_reported":1725649603,"current_range_meters":15600,"station_id":"ce4bh0p2rcd13ifvqd80","pricing_plan_id":"cebpf4jnsgd1na2vs0mg"},{"bike_id":"dd0bba2f-5666-46cc-8620-fd704acbe3c8","system_id":"levelo_inurba_marseille","lat":43.293009,"lon":5.374584,"is_reserved":false,"is_disabled":false,"rental_uris":{"android":"levelo://app?vid=dd0bba2f-5666-46cc-8620-fd704acbe3c8","ios":"levelo://app?vid=dd0bba2f-5666-46cc-8620-fd704acbe3c8"},"vehicle_type_id":"4","last_reported":1725649603,"current_range_meters":0,"station_id":"ce4bgi12rcd13ifvqb70","pricing_plan_id":"cebpf4jnsgd1na2vs0mg"},{"bike_id":"0d13d7ba-8f4d-4340-93d7-f259819e227f","system_id":"levelo_inurba_marseille","lat":43.305994,"lon":5.393687,"is_reserved":false,"is_disabled":false,"rental_uris":{"android":"levelo://app?vid=0d13d7ba-8f4d-4340-93d7-f259819e227f","ios":"levelo://app?vid=0d13d7ba-8f4d-4340-93d7-f259819e227f"},"vehicle_type_id":"4","last_reported":1725649603,"current_range_meters":6800,"station_id":"ce4bh0p2rcd13ifvqd80","pricing_plan_id":"cebpf4jnsgd1na2vs0mg"},{"bike_id":"b11bb34c-75a4-49f7-923e-8c8243ce020f","system_id":"levelo_inurba_marseille","lat":43.305994,"lon":5.393687,"is_reserved":false,"is_disabled":false,"rental_uris":{"android":"levelo://app?vid=b11bb34c-75a4-49f7-923e-8c8243ce020f","ios":"levelo://app?vid=b11bb34c-75a4-49f7-923e-8c8243ce020f"},"vehicle_type_id":"4","last_reported":1725649603,"current_range_meters":4000,"station_id":"ce4bh0p2rcd13ifvqd80","pricing_plan_id":"cebpf4jnsgd1na2vs0mg"},{"bike_id":"cc52f4df-4b55-4d0d-8117-0dbe5c3d4287","system_id":"levelo_inurba_marseille","lat":43.29294,"lon":5.37463,"is_reserved":false,"is_disabled":false,"rental_uris":{"android":"levelo://app?vid=cc52f4df-4b55-4d0d-8117-0dbe5c3d4287","ios":"levelo://app?vid=cc52f4df-4b55-4d0d-8117-0dbe5c3d4287"},"vehicle_type_id":"4","last_reported":1725649603,"current_range_meters":0,"station_id":"ce4bgi12rcd13ifvqb70","pricing_plan_id":"cebpf4jnsgd1na2vs0mg"},{"bike_id":"d6a89400-d20e-4020-b1a8-a7af447fea30","system_id":"levelo_inurba_marseille","lat":43.293009,"lon":5.374584,"is_reserved":false,"is_disabled":false,"rental_uris":{"android":"levelo://app?vid=d6a89400-d20e-4020-b1a8-a7af447fea30","ios":"levelo://app?vid=d6a89400-d20e-4020-b1a8-a7af447fea30"},"vehicle_type_id":"4","last_reported":1725649603,"current_range_meters":0,"station_id":"ce4bgi12rcd13ifvqb70","pricing_plan_id":"cebpf4jnsgd1na2vs0mg"},{"bike_id":"cffc5eb3-4cb7-4450-9c8c-5db3a1e6f93b","system_id":"levelo_inurba_marseille","lat":43.305994,"lon":5.393687,"is_reserved":false,"is_disabled":false,"rental_uris":{"android":"levelo://app?vid=cffc5eb3-4cb7-4450-9c8c-5db3a1e6f93b","ios":"levelo://app?vid=cffc5eb3-4cb7-4450-9c8c-5db3a1e6f93b"},"vehicle_type_id":"4","last_reported":1725649603,"current_range_meters":23600,"station_id":"ce4bh0p2rcd13ifvqd80","pricing_plan_id":"cebpf4jnsgd1na2vs0mg"},{"bike_id":"89f4ae48-fdbc-4d77-a1e9-fa7a9196ab30","system_id":"levelo_inurba_marseille","lat":43.305994,"lon":5.393687,"is_reserved":false,"is_disabled":false,"rental_uris":{"android":"levelo://app?vid=89f4ae48-fdbc-4d77-a1e9-fa7a9196ab30","ios":"levelo://app?vid=89f4ae48-fdbc-4d77-a1e9-fa7a9196ab30"},"vehicle_type_id":"4","last_reported":1725649603,"current_range_meters":2800,"station_id":"ce4bh0p2rcd13ifvqd80","pricing_plan_id":"cebpf4jnsgd1na2vs0mg"},{"bike_id":"2951961d-9548-4b9b-9edc-d928d9ab6613","system_id":"levelo_inurba_marseille","lat":43.305994,"lon":5.393687,"is_reserved":false,"is_disabled":false,"rental_uris":{"android":"levelo://app?vid=2951961d-9548-4b9b-9edc-d928d9ab6613","ios":"levelo://app?vid=2951961d-9548-4b9b-9edc-d928d9ab6613"},"vehicle_type_id":"4","last_reported":1725649603,"current_range_meters":1600,"station_id":"ce4bh0p2rcd13ifvqd80","pricing_plan_id":"cebpf4jnsgd1na2vs0mg"},{"bike_id":"cb33442a-b54e-4357-89a1-bec1e360d649","system_id":"levelo_inurba_marseille","lat":43.305994,"lon":5.393687,"is_reserved":false,"is_disabled":false,"rental_uris":{"android":"levelo://app?vid=cb33442a-b54e-4357-89a1-bec1e360d649","ios":"levelo://app?vid=cb33442a-b54e-4357-89a1-bec1e360d649"},"vehicle_type_id":"4","last_reported":1725649603,"current_range_meters":12800,"station_id":"ce4bh0p2rcd13ifvqd80","pricing_plan_id":"cebpf4jnsgd1na2vs0mg"},{"bike_id":"f4bd5676-cae0-421d-98c6-bdc06b86084d","system_id":"levelo_inurba_marseille","lat":43.29226,"lon":5.36074,"is_reserved":false,"is_disabled":false,"rental_uris":{"android":"levelo://app?vid=f4bd5676-cae0-421d-98c6-bdc06b86084d","ios":"levelo://app?vid=f4bd5676-cae0-421d-98c6-bdc06b86084d"},"vehicle_type_id":"4","last_reported":1725649603,"current_range_meters":31200,"station_id":"ce4bhbh2rcd13ifvqeqg","pricing_plan_id":"cebpf4jnsgd1na2vs0mg"},{"bike_id":"b0fbcc5c-72bd-459a-bd19-29389ae8e56f","system_id":"levelo_inurba_marseille","lat":43.29227,"lon":5.36058,"is_reserved":false,"is_disabled":false,"rental_uris":{"android":"levelo://app?vid=b0fbcc5c-72bd-459a-bd19-29389ae8e56f","ios":"levelo://app?vid=b0fbcc5c-72bd-459a-bd19-29389ae8e56f"},"vehicle_type_id":"4","last_reported":1725649603,"current_range_meters":0,"station_id":"ce4bhbh2rcd13ifvqeqg","pricing_plan_id":"cebpf4jnsgd1na2vs0mg"},{"bike_id":"81cdae46-1506-485e-8613-2c443167471c","system_id":"levelo_inurba_marseille","lat":43.292311,"lon":5.360731,"is_reserved":false,"is_disabled":false,"rental_uris":{"android":"levelo://app?vid=81cdae46-1506-485e-8613-2c443167471c","ios":"levelo://app?vid=81cdae46-1506-485e-8613-2c443167471c"},"vehicle_type_id":"4","last_reported":1725649603,"current_range_meters":800,"station_id":"ce4bhbh2rcd13ifvqeqg","pricing_plan_id":"cebpf4jnsgd1na2vs0mg"},{"bike_id":"9faac412-7b36-4d99-8016-c0892962ad5f","system_id":"levelo_inurba_marseille","lat":43.29223,"lon":5.3606,"is_reserved":false,"is_disabled":false,"rental_uris":{"android":"levelo://app?vid=9faac412-7b36-4d99-8016-c0892962ad5f","ios":"levelo://app?vid=9faac412-7b36-4d99-8016-c0892962ad5f"},"vehicle_type_id":"4","last_reported":1725649603,"current_range_meters":0,"station_id":"ce4bhbh2rcd13ifvqeqg","pricing_plan_id":"cebpf4jnsgd1na2vs0mg"},{"bike_id":"4f7783d2-6ac1-41ab-a513-484ca762aacf","system_id":"levelo_inurba_marseille","lat":43.29884,"lon":5.38901,"is_reserved":false,"is_disabled":false,"rental_uris":{"android":"levelo://app?vid=4f7783d2-6ac1-41ab-a513-484ca762aacf","ios":"levelo://app?vid=4f7783d2-6ac1-41ab-a513-484ca762aacf"},"vehicle_type_id":"4","last_reported":1725649603,"current_range_meters":0,"station_id":"ce4bh392rcd13ifvqdl0","pricing_plan_id":"cebpf4jnsgd1na2vs0mg"},{"bike_id":"e7afe217-a388-4192-b029-b72141b86f89","system_id":"levelo_inurba_marseille","lat":43.313291,"lon":5.396838,"is_reserved":false,"is_disabled":false,"rental_uris":{"android":"levelo://app?vid=e7afe217-a388-4192-b029-b72141b86f89","ios":"levelo://app?vid=e7afe217-a388-4192-b029-b72141b86f89"},"vehicle_type_id":"4","last_reported":1725649603,"current_range_meters":25200,"station_id":"ce4bgvp2rcd13ifvqcu0","pricing_plan_id":"cebpf4jnsgd1na2vs0mg"},{"bike_id":"47e5f88b-6fe1-44f5-8306-b147c6ad7c6a","system_id":"levelo_inurba_marseille","lat":43.313291,"lon":5.396838,"is_reserved":false,"is_disabled":false,"rental_uris":{"android":"levelo://app?vid=47e5f88b-6fe1-44f5-8306-b147c6ad7c6a","ios":"levelo://app?vid=47e5f88b-6fe1-44f5-8306-b147c6ad7c6a"},"vehicle_type_id":"4","last_reported":1725649603,"current_range_meters":28000,"station_id":"ce4bgvp2rcd13ifvqcu0","pricing_plan_id":"cebpf4jnsgd1na2vs0mg"},{"bike_id":"e02ff030-d52e-4ce9-9f53-abffb8d0323c","system_id":"levelo_inurba_marseille","lat":43.309038,"lon":5.396546,"is_reserved":false,"is_disabled":false,"rental_uris":{"android":"levelo://app?vid=e02ff030-d52e-4ce9-9f53-abffb8d0323c","ios":"levelo://app?vid=e02ff030-d52e-4ce9-9f53-abffb8d0323c"},"vehicle_type_id":"4","last_reported":1725649603,"current_range_meters":27200,"station_id":"ce4bh012rcd13ifvqcv0","pricing_plan_id":"cebpf4jnsgd1na2vs0mg"},{"bike_id":"8ec2898c-82a6-4779-9322-615e09361b59","system_id":"levelo_inurba_marseille","lat":43.309047,"lon":5.396551,"is_reserved":false,"is_disabled":false,"rental_uris":{"android":"levelo://app?vid=8ec2898c-82a6-4779-9322-615e09361b59","ios":"levelo://app?vid=8ec2898c-82a6-4779-9322-615e09361b59"},"vehicle_type_id":"4","last_reported":1725649603,"current_range_meters":2400,"station_id":"ce4bh012rcd13ifvqcv0","pricing_plan_id":"cebpf4jnsgd1na2vs0mg"},{"bike_id":"4f39fa8e-55b0-499d-b5ee-3fb8ce6300c2","system_id":"levelo_inurba_marseille","lat":43.309038,"lon":5.396546,"is_reserved":false,"is_disabled":false,"rental_uris":{"android":"levelo://app?vid=4f39fa8e-55b0-499d-b5ee-3fb8ce6300c2","ios":"levelo://app?vid=4f39fa8e-55b0-499d-b5ee-3fb8ce6300c2"},"vehicle_type_id":"4","last_reported":1725649603,"current_range_meters":7200,"station_id":"ce4bh012rcd13ifvqcv0","pricing_plan_id":"cebpf4jnsgd1na2vs0mg"},{"bike_id":"7290f566-8ddc-4038-841f-78fc974f9706","system_id":"levelo_inurba_marseille","lat":43.309038,"lon":5.396546,"is_reserved":false,"is_disabled":false,"rental_uris":{"android":"levelo://app?vid=7290f566-8ddc-4038-841f-78fc974f9706","ios":"levelo://app?vid=7290f566-8ddc-4038-841f-78fc974f9706"},"vehicle_type_id":"4","last_reported":1725649603,"current_range_meters":28400,"station_id":"ce4bh012rcd13ifvqcv0","pricing_plan_id":"cebpf4jnsgd1na2vs0mg"},{"bike_id":"d88d2ceb-8413-4595-9835-0c594d86d69d","system_id":"levelo_inurba_marseille","lat":43.29529,"lon":5.385581,"is_reserved":false,"is_disabled":false,"rental_uris":{"android":"levelo://app?vid=d88d2ceb-8413-4595-9835-0c594d86d69d","ios":"levelo://app?vid=d88d2ceb-8413-4595-9835-0c594d86d69d"},"vehicle_type_id":"4","last_reported":1725649603,"current_range_meters":30400,"station_id":"ce4bgih2rcd13ifvqba0","pricing_plan_id":"cebpf4jnsgd1na2vs0mg"},{"bike_id":"d7ef82d9-1e12-4741-91c2-c2361916a4b4","system_id":"levelo_inurba_marseille","lat":43.29529,"lon":5.385581,"is_reserved":false,"is_disabled":false,"rental_uris":{"android":"levelo://app?vid=d7ef82d9-1e12-4741-91c2-c2361916a4b4","ios":"levelo://app?vid=d7ef82d9-1e12-4741-91c2-c2361916a4b4"},"vehicle_type_id":"4","last_reported":1725649603,"current_range_meters":0,"station_id":"ce4bgih2rcd13ifvqba0","pricing_plan_id":"cebpf4jnsgd1na2vs0mg"},{"bike_id":"5717fc85-0fd2-4578-975b-d9fceb673c9b","system_id":"levelo_inurba_marseille","lat":43.29529,"lon":5.385581,"is_reserved":false,"is_disabled":false,"rental_uris":{"android":"levelo://app?vid=5717fc85-0fd2-4578-975b-d9fceb673c9b","ios":"levelo://app?vid=5717fc85-0fd2-4578-975b-d9fceb673c9b"},"vehicle_type_id":"4","last_reported":1725649603,"current_range_meters":6000,"station_id":"ce4bgih2rcd13ifvqba0","pricing_plan_id":"cebpf4jnsgd1na2vs0mg"},{"bike_id":"ee90a892-ef45-49c5-8268-461fdc63bdf1","system_id":"levelo_inurba_marseille","lat":43.29529,"lon":5.385581,"is_reserved":false,"is_disabled":false,"rental_uris":{"android":"levelo://app?vid=ee90a892-ef45-49c5-8268-461fdc63bdf1","ios":"levelo://app?vid=ee90a892-ef45-49c5-8268-461fdc63bdf1"},"vehicle_type_id":"4","last_reported":1725649603,"current_range_meters":22400,"station_id":"ce4bgih2rcd13ifvqba0","pricing_plan_id":"cebpf4jnsgd1na2vs0mg"},{"bike_id":"e9985986-8e24-453d-99ef-4938f0caf9af","system_id":"levelo_inurba_marseille","lat":43.29529,"lon":5.385581,"is_reserved":false,"is_disabled":false,"rental_uris":{"android":"levelo://app?vid=e9985986-8e24-453d-99ef-4938f0caf9af","ios":"levelo://app?vid=e9985986-8e24-453d-99ef-4938f0caf9af"},"vehicle_type_id":"4","last_reported":1725649603,"current_range_meters":27200,"station_id":"ce4bgih2rcd13ifvqba0","pricing_plan_id":"cebpf4jnsgd1na2vs0mg"},{"bike_id":"3ebd64f2-6f91-4895-8dab-df423b2a3a8b","system_id":"levelo_inurba_marseille","lat":43.29529,"lon":5.385581,"is_reserved":false,"is_disabled":false,"rental_uris":{"android":"levelo://app?vid=3ebd64f2-6f91-4895-8dab-df423b2a3a8b","ios":"levelo://app?vid=3ebd64f2-6f91-4895-8dab-df423b2a3a8b"},"vehicle_type_id":"4","last_reported":1725649603,"current_range_meters":800,"station_id":"ce4bgih2rcd13ifvqba0","pricing_plan_id":"cebpf4jnsgd1na2vs0mg"},{"bike_id":"83dd000a-0b00-4d70-9605-f6acdf73888b","system_id":"levelo_inurba_marseille","lat":43.29529,"lon":5.385581,"is_reserved":false,"is_disabled":false,"rental_uris":{"android":"levelo://app?vid=83dd000a-0b00-4d70-9605-f6acdf73888b","ios":"levelo://app?vid=83dd000a-0b00-4d70-9605-f6acdf73888b"},"vehicle_type_id":"4","last_reported":1725649603,"current_range_meters":19200,"station_id":"ce4bgih2rcd13ifvqba0","pricing_plan_id":"cebpf4jnsgd1na2vs0mg"},{"bike_id":"4770db1a-55bd-42be-b264-44a1d852e562","system_id":"levelo_inurba_marseille","lat":43.29529,"lon":5.385581,"is_reserved":false,"is_disabled":false,"rental_uris":{"android":"levelo://app?vid=4770db1a-55bd-42be-b264-44a1d852e562","ios":"levelo://app?vid=4770db1a-55bd-42be-b264-44a1d852e562"},"vehicle_type_id":"4","last_reported":1725649603,"current_range_meters":4800,"station_id":"ce4bgih2rcd13ifvqba0","pricing_plan_id":"cebpf4jnsgd1na2vs0mg"},{"bike_id":"e0a73fab-0886-4ea7-91e7-c2d1c539639b","system_id":"levelo_inurba_marseille","lat":43.29529,"lon":5.385581,"is_reserved":false,"is_disabled":false,"rental_uris":{"android":"levelo://app?vid=e0a73fab-0886-4ea7-91e7-c2d1c539639b","ios":"levelo://app?vid=e0a73fab-0886-4ea7-91e7-c2d1c539639b"},"vehicle_type_id":"4","last_reported":1725649603,"current_range_meters":7200,"station_id":"ce4bgih2rcd13ifvqba0","pricing_plan_id":"cebpf4jnsgd1na2vs0mg"},{"bike_id":"0efc128b-db58-4481-9704-350dc48f515c","system_id":"levelo_inurba_marseille","lat":43.290779,"lon":5.371482,"is_reserved":false,"is_disabled":false,"rental_uris":{"android":"levelo://app?vid=0efc128b-db58-4481-9704-350dc48f515c","ios":"levelo://app?vid=0efc128b-db58-4481-9704-350dc48f515c"},"vehicle_type_id":"4","last_reported":1725649603,"current_range_meters":31200,"station_id":"ce4bh5p2rcd13ifvqe4g","pricing_plan_id":"cebpf4jnsgd1na2vs0mg"},{"bike_id":"3455db7c-6004-4de9-9158-1bdf1d1cc296","system_id":"levelo_inurba_marseille","lat":43.302008,"lon":5.394694,"is_reserved":false,"is_disabled":false,"rental_uris":{"android":"levelo://app?vid=3455db7c-6004-4de9-9158-1bdf1d1cc296","ios":"levelo://app?vid=3455db7c-6004-4de9-9158-1bdf1d1cc296"},"vehicle_type_id":"4","last_reported":1725649603,"current_range_meters":0,"station_id":"ce4bh0p2rcd13ifvqd70","pricing_plan_id":"cebpf4jnsgd1na2vs0mg"},{"bike_id":"f4b517ba-0901-497e-99c0-b9be13bafe29","system_id":"levelo_inurba_marseille","lat":43.290624,"lon":5.359245,"is_reserved":false,"is_disabled":false,"rental_uris":{"android":"levelo://app?vid=f4b517ba-0901-497e-99c0-b9be13bafe29","ios":"levelo://app?vid=f4b517ba-0901-497e-99c0-b9be13bafe29"},"vehicle_type_id":"4","last_reported":1725649603,"current_range_meters":2400,"station_id":"ce4bha92rcd13ifvqeg0","pricing_plan_id":"cebpf4jnsgd1na2vs0mg"},{"bike_id":"9e0a4cdb-2ede-41b2-9711-184ad486d0a5","system_id":"levelo_inurba_marseille","lat":43.290631,"lon":5.359244,"is_reserved":false,"is_disabled":false,"rental_uris":{"android":"levelo://app?vid=9e0a4cdb-2ede-41b2-9711-184ad486d0a5","ios":"levelo://app?vid=9e0a4cdb-2ede-41b2-9711-184ad486d0a5"},"vehicle_type_id":"4","last_reported":1725649603,"current_range_meters":27200,"station_id":"ce4bha92rcd13ifvqeg0","pricing_plan_id":"cebpf4jnsgd1na2vs0mg"},{"bike_id":"d6004633-70f1-45fa-bc44-f0fa35c6938d","system_id":"levelo_inurba_marseille","lat":43.29427,"lon":5.38618,"is_reserved":false,"is_disabled":false,"rental_uris":{"android":"levelo://app?vid=d6004633-70f1-45fa-bc44-f0fa35c6938d","ios":"levelo://app?vid=d6004633-70f1-45fa-bc44-f0fa35c6938d"},"vehicle_type_id":"4","last_reported":1725649603,"current_range_meters":4800,"station_id":"ce4bh2h2rcd13ifvqdh0","pricing_plan_id":"cebpf4jnsgd1na2vs0mg"},{"bike_id":"848c5def-8316-49c7-aac3-bfc06f2aec44","system_id":"levelo_inurba_marseille","lat":43.29419,"lon":5.38615,"is_reserved":false,"is_disabled":false,"rental_uris":{"android":"levelo://app?vid=848c5def-8316-49c7-aac3-bfc06f2aec44","ios":"levelo://app?vid=848c5def-8316-49c7-aac3-bfc06f2aec44"},"vehicle_type_id":"4","last_reported":1725649603,"current_range_meters":0,"station_id":"ce4bh2h2rcd13ifvqdh0","pricing_plan_id":"cebpf4jnsgd1na2vs0mg"},{"bike_id":"6b9bc282-60ca-4982-864d-36df0aa4b77c","system_id":"levelo_inurba_marseille","lat":43.29421,"lon":5.38619,"is_reserved":false,"is_disabled":false,"rental_uris":{"android":"levelo://app?vid=6b9bc282-60ca-4982-864d-36df0aa4b77c","ios":"levelo://app?vid=6b9bc282-60ca-4982-864d-36df0aa4b77c"},"vehicle_type_id":"4","last_reported":1725649603,"current_range_meters":26000,"station_id":"ce4bh2h2rcd13ifvqdh0","pricing_plan_id":"cebpf4jnsgd1na2vs0mg"},{"bike_id":"ab8cff17-3f62-4cd2-8d8f-387d90f36c82","system_id":"levelo_inurba_marseille","lat":43.29422,"lon":5.38621,"is_reserved":false,"is_disabled":false,"rental_uris":{"android":"levelo://app?vid=ab8cff17-3f62-4cd2-8d8f-387d90f36c82","ios":"levelo://app?vid=ab8cff17-3f62-4cd2-8d8f-387d90f36c82"},"vehicle_type_id":"4","last_reported":1725649603,"current_range_meters":4400,"station_id":"ce4bh2h2rcd13ifvqdh0","pricing_plan_id":"cebpf4jnsgd1na2vs0mg"},{"bike_id":"bc562d2b-b317-49fc-98a0-38971498e12e","system_id":"levelo_inurba_marseille","lat":43.290319,"lon":5.375732,"is_reserved":false,"is_disabled":false,"rental_uris":{"android":"levelo://app?vid=bc562d2b-b317-49fc-98a0-38971498e12e","ios":"levelo://app?vid=bc562d2b-b317-49fc-98a0-38971498e12e"},"vehicle_type_id":"4","last_reported":1725649603,"current_range_meters":400,"station_id":"ce4bh692rcd13ifvqe90","pricing_plan_id":"cebpf4jnsgd1na2vs0mg"},{"bike_id":"bc250751-eb7e-40b9-a9cc-5626e8c212cb","system_id":"levelo_inurba_marseille","lat":43.29422,"lon":5.38623,"is_reserved":false,"is_disabled":false,"rental_uris":{"android":"levelo://app?vid=bc250751-eb7e-40b9-a9cc-5626e8c212cb","ios":"levelo://app?vid=bc250751-eb7e-40b9-a9cc-5626e8c212cb"},"vehicle_type_id":"4","last_reported":1725649603,"current_range_meters":0,"station_id":"ce4bh2h2rcd13ifvqdh0","pricing_plan_id":"cebpf4jnsgd1na2vs0mg"},{"bike_id":"9737cb56-3ff5-4917-a676-64c37632797e","system_id":"levelo_inurba_marseille","lat":43.29419,"lon":5.3862,"is_reserved":false,"is_disabled":false,"rental_uris":{"android":"levelo://app?vid=9737cb56-3ff5-4917-a676-64c37632797e","ios":"levelo://app?vid=9737cb56-3ff5-4917-a676-64c37632797e"},"vehicle_type_id":"4","last_reported":1725649603,"current_range_meters":0,"station_id":"ce4bh2h2rcd13ifvqdh0","pricing_plan_id":"cebpf4jnsgd1na2vs0mg"},{"bike_id":"e28797b0-0171-44e3-9395-4c1115de3d9d","system_id":"levelo_inurba_marseille","lat":43.294153,"lon":5.386305,"is_reserved":false,"is_disabled":false,"rental_uris":{"android":"levelo://app?vid=e28797b0-0171-44e3-9395-4c1115de3d9d","ios":"levelo://app?vid=e28797b0-0171-44e3-9395-4c1115de3d9d"},"vehicle_type_id":"4","last_reported":1725649603,"current_range_meters":0,"station_id":"ce4bh2h2rcd13ifvqdh0","pricing_plan_id":"cebpf4jnsgd1na2vs0mg"},{"bike_id":"0ab92614-9ca5-443f-b8e3-3606a8471792","system_id":"levelo_inurba_marseille","lat":43.2942,"lon":5.38625,"is_reserved":false,"is_disabled":false,"rental_uris":{"android":"levelo://app?vid=0ab92614-9ca5-443f-b8e3-3606a8471792","ios":"levelo://app?vid=0ab92614-9ca5-443f-b8e3-3606a8471792"},"vehicle_type_id":"4","last_reported":1725649603,"current_range_meters":5200,"station_id":"ce4bh2h2rcd13ifvqdh0","pricing_plan_id":"cebpf4jnsgd1na2vs0mg"},{"bike_id":"074f8430-00a3-4eac-a43e-93c123fd89e5","system_id":"levelo_inurba_marseille","lat":43.294189,"lon":5.386233,"is_reserved":false,"is_disabled":false,"rental_uris":{"android":"levelo://app?vid=074f8430-00a3-4eac-a43e-93c123fd89e5","ios":"levelo://app?vid=074f8430-00a3-4eac-a43e-93c123fd89e5"},"vehicle_type_id":"4","last_reported":1725649603,"current_range_meters":2800,"station_id":"ce4bh2h2rcd13ifvqdh0","pricing_plan_id":"cebpf4jnsgd1na2vs0mg"},{"bike_id":"56dde0c2-7641-4ea6-b995-7b8c43ec8c12","system_id":"levelo_inurba_marseille","lat":43.29419,"lon":5.38625,"is_reserved":false,"is_disabled":false,"rental_uris":{"android":"levelo://app?vid=56dde0c2-7641-4ea6-b995-7b8c43ec8c12","ios":"levelo://app?vid=56dde0c2-7641-4ea6-b995-7b8c43ec8c12"},"vehicle_type_id":"4","last_reported":1725649603,"current_range_meters":16000,"station_id":"ce4bh2h2rcd13ifvqdh0","pricing_plan_id":"cebpf4jnsgd1na2vs0mg"},{"bike_id":"d07e69ff-10d7-4a63-8e8f-a3b255391315","system_id":"levelo_inurba_marseille","lat":43.29418,"lon":5.38624,"is_reserved":false,"is_disabled":false,"rental_uris":{"android":"levelo://app?vid=d07e69ff-10d7-4a63-8e8f-a3b255391315","ios":"levelo://app?vid=d07e69ff-10d7-4a63-8e8f-a3b255391315"},"vehicle_type_id":"4","last_reported":1725649603,"current_range_meters":0,"station_id":"ce4bh2h2rcd13ifvqdh0","pricing_plan_id":"cebpf4jnsgd1na2vs0mg"},{"bike_id":"777d5fe5-3f19-41f7-9f0a-d27febddba70","system_id":"levelo_inurba_marseille","lat":43.29417,"lon":5.38624,"is_reserved":false,"is_disabled":false,"rental_uris":{"android":"levelo://app?vid=777d5fe5-3f19-41f7-9f0a-d27febddba70","ios":"levelo://app?vid=777d5fe5-3f19-41f7-9f0a-d27febddba70"},"vehicle_type_id":"4","last_reported":1725649603,"current_range_meters":1200,"station_id":"ce4bh2h2rcd13ifvqdh0","pricing_plan_id":"cebpf4jnsgd1na2vs0mg"},{"bike_id":"6d1f6482-a7ac-442c-8952-27435b888367","system_id":"levelo_inurba_marseille","lat":43.28945,"lon":5.36639,"is_reserved":false,"is_disabled":false,"rental_uris":{"android":"levelo://app?vid=6d1f6482-a7ac-442c-8952-27435b888367","ios":"levelo://app?vid=6d1f6482-a7ac-442c-8952-27435b888367"},"vehicle_type_id":"4","last_reported":1725649603,"current_range_meters":27200,"station_id":"ce4bhap2rcd13ifvqek0","pricing_plan_id":"cebpf4jnsgd1na2vs0mg"},{"bike_id":"a7740b15-54b1-456a-acfe-86b923b3b749","system_id":"levelo_inurba_marseille","lat":43.29417,"lon":5.38626,"is_reserved":false,"is_disabled":false,"rental_uris":{"android":"levelo://app?vid=a7740b15-54b1-456a-acfe-86b923b3b749","ios":"levelo://app?vid=a7740b15-54b1-456a-acfe-86b923b3b749"},"vehicle_type_id":"4","last_reported":1725649603,"current_range_meters":0,"station_id":"ce4bh2h2rcd13ifvqdh0","pricing_plan_id":"cebpf4jnsgd1na2vs0mg"},{"bike_id":"c646f52e-ee37-4567-ad5c-f636459353aa","system_id":"levelo_inurba_marseille","lat":43.289184,"lon":5.366408,"is_reserved":false,"is_disabled":false,"rental_uris":{"android":"levelo://app?vid=c646f52e-ee37-4567-ad5c-f636459353aa","ios":"levelo://app?vid=c646f52e-ee37-4567-ad5c-f636459353aa"},"vehicle_type_id":"4","last_reported":1725649603,"current_range_meters":8000,"station_id":"ce4bhap2rcd13ifvqek0","pricing_plan_id":"cebpf4jnsgd1na2vs0mg"},{"bike_id":"0a4149c3-4912-4e36-beab-a073077c7c90","system_id":"levelo_inurba_marseille","lat":43.29414,"lon":5.38629,"is_reserved":false,"is_disabled":false,"rental_uris":{"android":"levelo://app?vid=0a4149c3-4912-4e36-beab-a073077c7c90","ios":"levelo://app?vid=0a4149c3-4912-4e36-beab-a073077c7c90"},"vehicle_type_id":"4","last_reported":1725649603,"current_range_meters":0,"station_id":"ce4bh2h2rcd13ifvqdh0","pricing_plan_id":"cebpf4jnsgd1na2vs0mg"},{"bike_id":"d3aca617-4b27-4eda-bf3e-348f4b169c5b","system_id":"levelo_inurba_marseille","lat":43.290319,"lon":5.375732,"is_reserved":false,"is_disabled":false,"rental_uris":{"android":"levelo://app?vid=d3aca617-4b27-4eda-bf3e-348f4b169c5b","ios":"levelo://app?vid=d3aca617-4b27-4eda-bf3e-348f4b169c5b"},"vehicle_type_id":"4","last_reported":1725649603,"current_range_meters":1200,"station_id":"ce4bh692rcd13ifvqe90","pricing_plan_id":"cebpf4jnsgd1na2vs0mg"},{"bike_id":"c5c71912-7096-409d-9422-decb74c69175","system_id":"levelo_inurba_marseille","lat":43.289184,"lon":5.366408,"is_reserved":false,"is_disabled":false,"rental_uris":{"android":"levelo://app?vid=c5c71912-7096-409d-9422-decb74c69175","ios":"levelo://app?vid=c5c71912-7096-409d-9422-decb74c69175"},"vehicle_type_id":"4","last_reported":1725649603,"current_range_meters":0,"station_id":"ce4bhap2rcd13ifvqek0","pricing_plan_id":"cebpf4jnsgd1na2vs0mg"},{"bike_id":"3214f6b2-4e0c-4fdb-bb73-d8c25f5feacb","system_id":"levelo_inurba_marseille","lat":43.2893,"lon":5.36647,"is_reserved":false,"is_disabled":false,"rental_uris":{"android":"levelo://app?vid=3214f6b2-4e0c-4fdb-bb73-d8c25f5feacb","ios":"levelo://app?vid=3214f6b2-4e0c-4fdb-bb73-d8c25f5feacb"},"vehicle_type_id":"4","last_reported":1725649603,"current_range_meters":31200,"station_id":"ce4bhap2rcd13ifvqek0","pricing_plan_id":"cebpf4jnsgd1na2vs0mg"},{"bike_id":"36b50db1-4747-4a85-b8bb-ee30ba513c4a","system_id":"levelo_inurba_marseille","lat":43.289468,"lon":5.363719,"is_reserved":false,"is_disabled":false,"rental_uris":{"android":"levelo://app?vid=36b50db1-4747-4a85-b8bb-ee30ba513c4a","ios":"levelo://app?vid=36b50db1-4747-4a85-b8bb-ee30ba513c4a"},"vehicle_type_id":"4","last_reported":1725649603,"current_range_meters":800,"station_id":"ce4bhc92rcd13ifvqetg","pricing_plan_id":"cebpf4jnsgd1na2vs0mg"},{"bike_id":"0991c1db-495e-47aa-9e27-9b4837968486","system_id":"levelo_inurba_marseille","lat":43.28929,"lon":5.36653,"is_reserved":false,"is_disabled":false,"rental_uris":{"android":"levelo://app?vid=0991c1db-495e-47aa-9e27-9b4837968486","ios":"levelo://app?vid=0991c1db-495e-47aa-9e27-9b4837968486"},"vehicle_type_id":"4","last_reported":1725649603,"current_range_meters":22000,"station_id":"ce4bhap2rcd13ifvqek0","pricing_plan_id":"cebpf4jnsgd1na2vs0mg"},{"bike_id":"fbf33879-5109-44f3-bc90-5a012f031f19","system_id":"levelo_inurba_marseille","lat":43.289468,"lon":5.363719,"is_reserved":false,"is_disabled":false,"rental_uris":{"android":"levelo://app?vid=fbf33879-5109-44f3-bc90-5a012f031f19","ios":"levelo://app?vid=fbf33879-5109-44f3-bc90-5a012f031f19"},"vehicle_type_id":"4","last_reported":1725649603,"current_range_meters":5200,"station_id":"ce4bhc92rcd13ifvqetg","pricing_plan_id":"cebpf4jnsgd1na2vs0mg"},{"bike_id":"6695177f-1518-426f-8e8b-f7de0d3c8a38","system_id":"levelo_inurba_marseille","lat":43.292642,"lon":5.384254,"is_reserved":false,"is_disabled":false,"rental_uris":{"android":"levelo://app?vid=6695177f-1518-426f-8e8b-f7de0d3c8a38","ios":"levelo://app?vid=6695177f-1518-426f-8e8b-f7de0d3c8a38"},"vehicle_type_id":"4","last_reported":1725649603,"current_range_meters":400,"station_id":"ce4bh692rcd13ifvqea0","pricing_plan_id":"cebpf4jnsgd1na2vs0mg"},{"bike_id":"11be6830-bc0d-485d-bbf2-da31839e88d9","system_id":"levelo_inurba_marseille","lat":43.292642,"lon":5.384254,"is_reserved":false,"is_disabled":false,"rental_uris":{"android":"levelo://app?vid=11be6830-bc0d-485d-bbf2-da31839e88d9","ios":"levelo://app?vid=11be6830-bc0d-485d-bbf2-da31839e88d9"},"vehicle_type_id":"4","last_reported":1725649603,"current_range_meters":14800,"station_id":"ce4bh692rcd13ifvqea0","pricing_plan_id":"cebpf4jnsgd1na2vs0mg"},{"bike_id":"1795ee79-b062-423b-a37f-27dcafd7ae21","system_id":"levelo_inurba_marseille","lat":43.29267,"lon":5.38436,"is_reserved":false,"is_disabled":false,"rental_uris":{"android":"levelo://app?vid=1795ee79-b062-423b-a37f-27dcafd7ae21","ios":"levelo://app?vid=1795ee79-b062-423b-a37f-27dcafd7ae21"},"vehicle_type_id":"4","last_reported":1725649603,"current_range_meters":0,"station_id":"ce4bh692rcd13ifvqea0","pricing_plan_id":"cebpf4jnsgd1na2vs0mg"},{"bike_id":"d685fa2a-b31e-4f23-bde5-0f026f69af3f","system_id":"levelo_inurba_marseille","lat":43.292644,"lon":5.384257,"is_reserved":false,"is_disabled":false,"rental_uris":{"android":"levelo://app?vid=d685fa2a-b31e-4f23-bde5-0f026f69af3f","ios":"levelo://app?vid=d685fa2a-b31e-4f23-bde5-0f026f69af3f"},"vehicle_type_id":"4","last_reported":1725649603,"current_range_meters":7200,"station_id":"ce4bh692rcd13ifvqea0","pricing_plan_id":"cebpf4jnsgd1na2vs0mg"},{"bike_id":"fd355fb1-3439-4f3d-a552-ce4d7605b464","system_id":"levelo_inurba_marseille","lat":43.2912,"lon":5.38078,"is_reserved":false,"is_disabled":false,"rental_uris":{"android":"levelo://app?vid=fd355fb1-3439-4f3d-a552-ce4d7605b464","ios":"levelo://app?vid=fd355fb1-3439-4f3d-a552-ce4d7605b464"},"vehicle_type_id":"4","last_reported":1725649603,"current_range_meters":0,"station_id":"","pricing_plan_id":"cebpf4jnsgd1na2vs0mg"},{"bike_id":"6be4570b-e145-4277-9000-bbb5353898eb","system_id":"levelo_inurba_marseille","lat":43.292644,"lon":5.384257,"is_reserved":false,"is_disabled":false,"rental_uris":{"android":"levelo://app?vid=6be4570b-e145-4277-9000-bbb5353898eb","ios":"levelo://app?vid=6be4570b-e145-4277-9000-bbb5353898eb"},"vehicle_type_id":"4","last_reported":1725649603,"current_range_meters":17200,"station_id":"ce4bh692rcd13ifvqea0","pricing_plan_id":"cebpf4jnsgd1na2vs0mg"},{"bike_id":"0c0f4b56-00ce-48ce-8674-0017d3370de0","system_id":"levelo_inurba_marseille","lat":43.292644,"lon":5.384257,"is_reserved":false,"is_disabled":false,"rental_uris":{"android":"levelo://app?vid=0c0f4b56-00ce-48ce-8674-0017d3370de0","ios":"levelo://app?vid=0c0f4b56-00ce-48ce-8674-0017d3370de0"},"vehicle_type_id":"4","last_reported":1725649603,"current_range_meters":0,"station_id":"ce4bh692rcd13ifvqea0","pricing_plan_id":"cebpf4jnsgd1na2vs0mg"},{"bike_id":"ac9bd96b-b1bb-4dbc-8746-6e5173cb10fd","system_id":"levelo_inurba_marseille","lat":43.292642,"lon":5.384254,"is_reserved":false,"is_disabled":false,"rental_uris":{"android":"levelo://app?vid=ac9bd96b-b1bb-4dbc-8746-6e5173cb10fd","ios":"levelo://app?vid=ac9bd96b-b1bb-4dbc-8746-6e5173cb10fd"},"vehicle_type_id":"4","last_reported":1725649603,"current_range_meters":0,"station_id":"ce4bh692rcd13ifvqea0","pricing_plan_id":"cebpf4jnsgd1na2vs0mg"},{"bike_id":"278e8774-b35e-4c63-968d-04edfd62f350","system_id":"levelo_inurba_marseille","lat":43.29257,"lon":5.38433,"is_reserved":false,"is_disabled":false,"rental_uris":{"android":"levelo://app?vid=278e8774-b35e-4c63-968d-04edfd62f350","ios":"levelo://app?vid=278e8774-b35e-4c63-968d-04edfd62f350"},"vehicle_type_id":"4","last_reported":1725649603,"current_range_meters":0,"station_id":"ce4bh692rcd13ifvqea0","pricing_plan_id":"cebpf4jnsgd1na2vs0mg"},{"bike_id":"36ddcca7-ca11-4c5f-a909-d257d2e7d799","system_id":"levelo_inurba_marseille","lat":43.292644,"lon":5.384257,"is_reserved":false,"is_disabled":false,"rental_uris":{"android":"levelo://app?vid=36ddcca7-ca11-4c5f-a909-d257d2e7d799","ios":"levelo://app?vid=36ddcca7-ca11-4c5f-a909-d257d2e7d799"},"vehicle_type_id":"4","last_reported":1725649603,"current_range_meters":29600,"station_id":"ce4bh692rcd13ifvqea0","pricing_plan_id":"cebpf4jnsgd1na2vs0mg"},{"bike_id":"50b05e3a-55ec-43b0-aae3-62863d07fac3","system_id":"levelo_inurba_marseille","lat":43.290103,"lon":5.356114,"is_reserved":false,"is_disabled":false,"rental_uris":{"android":"levelo://app?vid=50b05e3a-55ec-43b0-aae3-62863d07fac3","ios":"levelo://app?vid=50b05e3a-55ec-43b0-aae3-62863d07fac3"},"vehicle_type_id":"4","last_reported":1725649603,"current_range_meters":16800,"station_id":"ce4bhb92rcd13ifvqen0","pricing_plan_id":"cebpf4jnsgd1na2vs0mg"},{"bike_id":"d21d217a-17ed-4948-a377-e86df22f69eb","system_id":"levelo_inurba_marseille","lat":43.290104,"lon":5.356111,"is_reserved":false,"is_disabled":false,"rental_uris":{"android":"levelo://app?vid=d21d217a-17ed-4948-a377-e86df22f69eb","ios":"levelo://app?vid=d21d217a-17ed-4948-a377-e86df22f69eb"},"vehicle_type_id":"4","last_reported":1725649603,"current_range_meters":27200,"station_id":"ce4bhb92rcd13ifvqen0","pricing_plan_id":"cebpf4jnsgd1na2vs0mg"},{"bike_id":"72be1032-3711-414c-92b0-45efcdaa26ad","system_id":"levelo_inurba_marseille","lat":43.290995,"lon":5.381361,"is_reserved":false,"is_disabled":false,"rental_uris":{"android":"levelo://app?vid=72be1032-3711-414c-92b0-45efcdaa26ad","ios":"levelo://app?vid=72be1032-3711-414c-92b0-45efcdaa26ad"},"vehicle_type_id":"4","last_reported":1725649603,"current_range_meters":400,"station_id":"ce4bh512rcd13ifvqe2g","pricing_plan_id":"cebpf4jnsgd1na2vs0mg"},{"bike_id":"f8a54539-267b-44da-913b-3efed790a862","system_id":"levelo_inurba_marseille","lat":43.29105,"lon":5.38152,"is_reserved":false,"is_disabled":false,"rental_uris":{"android":"levelo://app?vid=f8a54539-267b-44da-913b-3efed790a862","ios":"levelo://app?vid=f8a54539-267b-44da-913b-3efed790a862"},"vehicle_type_id":"4","last_reported":1725649603,"current_range_meters":0,"station_id":"ce4bh512rcd13ifvqe2g","pricing_plan_id":"cebpf4jnsgd1na2vs0mg"},{"bike_id":"11086511-2db0-4c50-8b91-5b8843dae9b7","system_id":"levelo_inurba_marseille","lat":43.297807,"lon":5.393533,"is_reserved":false,"is_disabled":false,"rental_uris":{"android":"levelo://app?vid=11086511-2db0-4c50-8b91-5b8843dae9b7","ios":"levelo://app?vid=11086511-2db0-4c50-8b91-5b8843dae9b7"},"vehicle_type_id":"4","last_reported":1725649603,"current_range_meters":30000,"station_id":"chh1huq6cuj3fo74tm60","pricing_plan_id":"cebpf4jnsgd1na2vs0mg"},{"bike_id":"8591ebc4-f6fd-43cd-a03b-c1e112a6b672","system_id":"levelo_inurba_marseille","lat":43.295169,"lon":5.390426,"is_reserved":false,"is_disabled":false,"rental_uris":{"android":"levelo://app?vid=8591ebc4-f6fd-43cd-a03b-c1e112a6b672","ios":"levelo://app?vid=8591ebc4-f6fd-43cd-a03b-c1e112a6b672"},"vehicle_type_id":"4","last_reported":1725649603,"current_range_meters":24000,"station_id":"ce4bh3p2rcd13ifvqdp0","pricing_plan_id":"cebpf4jnsgd1na2vs0mg"},{"bike_id":"283dc65a-01b2-4032-8f92-d7903e79d667","system_id":"levelo_inurba_marseille","lat":43.289743,"lon":5.378304,"is_reserved":false,"is_disabled":false,"rental_uris":{"android":"levelo://app?vid=283dc65a-01b2-4032-8f92-d7903e79d667","ios":"levelo://app?vid=283dc65a-01b2-4032-8f92-d7903e79d667"},"vehicle_type_id":"4","last_reported":1725649603,"current_range_meters":0,"station_id":"ce4bh9p2rcd13ifvqed0","pricing_plan_id":"cebpf4jnsgd1na2vs0mg"},{"bike_id":"9dff809e-9be5-4ca1-b072-616fb4dcde9c","system_id":"levelo_inurba_marseille","lat":43.330442,"lon":5.389148,"is_reserved":false,"is_disabled":false,"rental_uris":{"android":"levelo://app?vid=9dff809e-9be5-4ca1-b072-616fb4dcde9c","ios":"levelo://app?vid=9dff809e-9be5-4ca1-b072-616fb4dcde9c"},"vehicle_type_id":"4","last_reported":1725649603,"current_range_meters":7600,"station_id":"ce4bhr92rcd13ifvqhrg","pricing_plan_id":"cebpf4jnsgd1na2vs0mg"},{"bike_id":"1aaea0a3-088a-4135-88a5-6cf89c8cce77","system_id":"levelo_inurba_marseille","lat":43.330241,"lon":5.390433,"is_reserved":false,"is_disabled":false,"rental_uris":{"android":"levelo://app?vid=1aaea0a3-088a-4135-88a5-6cf89c8cce77","ios":"levelo://app?vid=1aaea0a3-088a-4135-88a5-6cf89c8cce77"},"vehicle_type_id":"4","last_reported":1725649603,"current_range_meters":0,"station_id":"ce4bhr92rcd13ifvqhrg","pricing_plan_id":"cebpf4jnsgd1na2vs0mg"},{"bike_id":"23f794cf-2c82-4875-92af-a01fc9fd59d1","system_id":"levelo_inurba_marseille","lat":43.330442,"lon":5.389148,"is_reserved":false,"is_disabled":false,"rental_uris":{"android":"levelo://app?vid=23f794cf-2c82-4875-92af-a01fc9fd59d1","ios":"levelo://app?vid=23f794cf-2c82-4875-92af-a01fc9fd59d1"},"vehicle_type_id":"4","last_reported":1725649603,"current_range_meters":30000,"station_id":"ce4bhr92rcd13ifvqhrg","pricing_plan_id":"cebpf4jnsgd1na2vs0mg"},{"bike_id":"b531d607-4c68-48c1-8d16-f27abca8a1f7","system_id":"levelo_inurba_marseille","lat":43.295169,"lon":5.390426,"is_reserved":false,"is_disabled":false,"rental_uris":{"android":"levelo://app?vid=b531d607-4c68-48c1-8d16-f27abca8a1f7","ios":"levelo://app?vid=b531d607-4c68-48c1-8d16-f27abca8a1f7"},"vehicle_type_id":"4","last_reported":1725649603,"current_range_meters":6800,"station_id":"ce4bh3p2rcd13ifvqdp0","pricing_plan_id":"cebpf4jnsgd1na2vs0mg"},{"bike_id":"48d1e25a-1cf7-4f32-a27d-cc5fcb8a80e2","system_id":"levelo_inurba_marseille","lat":43.330442,"lon":5.389148,"is_reserved":false,"is_disabled":false,"rental_uris":{"android":"levelo://app?vid=48d1e25a-1cf7-4f32-a27d-cc5fcb8a80e2","ios":"levelo://app?vid=48d1e25a-1cf7-4f32-a27d-cc5fcb8a80e2"},"vehicle_type_id":"4","last_reported":1725649603,"current_range_meters":27600,"station_id":"ce4bhr92rcd13ifvqhrg","pricing_plan_id":"cebpf4jnsgd1na2vs0mg"},{"bike_id":"588661c8-4dc7-4a4d-b068-bf0811cd658f","system_id":"levelo_inurba_marseille","lat":43.28849,"lon":5.35845,"is_reserved":false,"is_disabled":false,"rental_uris":{"android":"levelo://app?vid=588661c8-4dc7-4a4d-b068-bf0811cd658f","ios":"levelo://app?vid=588661c8-4dc7-4a4d-b068-bf0811cd658f"},"vehicle_type_id":"4","last_reported":1725649603,"current_range_meters":31200,"station_id":"ce4bhb12rcd13ifvqem0","pricing_plan_id":"cebpf4jnsgd1na2vs0mg"},{"bike_id":"027ef4b8-a45c-42f2-8656-36250348da25","system_id":"levelo_inurba_marseille","lat":43.33739,"lon":5.3748,"is_reserved":false,"is_disabled":false,"rental_uris":{"android":"levelo://app?vid=027ef4b8-a45c-42f2-8656-36250348da25","ios":"levelo://app?vid=027ef4b8-a45c-42f2-8656-36250348da25"},"vehicle_type_id":"4","last_reported":1725649603,"current_range_meters":24400,"station_id":"","pricing_plan_id":"cebpf4jnsgd1na2vs0mg"},{"bike_id":"3f3244df-bee4-4437-b2a1-ab9135c8e39a","system_id":"levelo_inurba_marseille","lat":43.33749,"lon":5.37458,"is_reserved":false,"is_disabled":false,"rental_uris":{"android":"levelo://app?vid=3f3244df-bee4-4437-b2a1-ab9135c8e39a","ios":"levelo://app?vid=3f3244df-bee4-4437-b2a1-ab9135c8e39a"},"vehicle_type_id":"4","last_reported":1725649603,"current_range_meters":24800,"station_id":"","pricing_plan_id":"cebpf4jnsgd1na2vs0mg"},{"bike_id":"c6a88fe6-f2a4-4868-b2e7-07391d1f0f0f","system_id":"levelo_inurba_marseille","lat":43.30642,"lon":5.401031,"is_reserved":false,"is_disabled":false,"rental_uris":{"android":"levelo://app?vid=c6a88fe6-f2a4-4868-b2e7-07391d1f0f0f","ios":"levelo://app?vid=c6a88fe6-f2a4-4868-b2e7-07391d1f0f0f"},"vehicle_type_id":"4","last_reported":1725649603,"current_range_meters":26400,"station_id":"ce4bh112rcd13ifvqda0","pricing_plan_id":"cebpf4jnsgd1na2vs0mg"},{"bike_id":"0beaa652-3a8e-4a85-8915-eed2f5ff6c85","system_id":"levelo_inurba_marseille","lat":43.30642,"lon":5.401031,"is_reserved":false,"is_disabled":false,"rental_uris":{"android":"levelo://app?vid=0beaa652-3a8e-4a85-8915-eed2f5ff6c85","ios":"levelo://app?vid=0beaa652-3a8e-4a85-8915-eed2f5ff6c85"},"vehicle_type_id":"4","last_reported":1725649603,"current_range_meters":25200,"station_id":"ce4bh112rcd13ifvqda0","pricing_plan_id":"cebpf4jnsgd1na2vs0mg"},{"bike_id":"0d2a9bad-0e13-4a76-9855-d9c2a047d6dc","system_id":"levelo_inurba_marseille","lat":43.306412,"lon":5.401035,"is_reserved":false,"is_disabled":false,"rental_uris":{"android":"levelo://app?vid=0d2a9bad-0e13-4a76-9855-d9c2a047d6dc","ios":"levelo://app?vid=0d2a9bad-0e13-4a76-9855-d9c2a047d6dc"},"vehicle_type_id":"4","last_reported":1725649603,"current_range_meters":20000,"station_id":"ce4bh112rcd13ifvqda0","pricing_plan_id":"cebpf4jnsgd1na2vs0mg"},{"bike_id":"ebd149e5-6e3e-4873-b664-c8f64a1d61b6","system_id":"levelo_inurba_marseille","lat":43.30642,"lon":5.401031,"is_reserved":false,"is_disabled":false,"rental_uris":{"android":"levelo://app?vid=ebd149e5-6e3e-4873-b664-c8f64a1d61b6","ios":"levelo://app?vid=ebd149e5-6e3e-4873-b664-c8f64a1d61b6"},"vehicle_type_id":"4","last_reported":1725649603,"current_range_meters":1200,"station_id":"ce4bh112rcd13ifvqda0","pricing_plan_id":"cebpf4jnsgd1na2vs0mg"},{"bike_id":"548e21cc-9c0e-4efe-a6ae-049747969956","system_id":"levelo_inurba_marseille","lat":43.290336,"lon":5.386425,"is_reserved":false,"is_disabled":false,"rental_uris":{"android":"levelo://app?vid=548e21cc-9c0e-4efe-a6ae-049747969956","ios":"levelo://app?vid=548e21cc-9c0e-4efe-a6ae-049747969956"},"vehicle_type_id":"4","last_reported":1725649603,"current_range_meters":20000,"station_id":"ce4bh4p2rcd13ifvqe0g","pricing_plan_id":"cebpf4jnsgd1na2vs0mg"},{"bike_id":"eb0c24b6-19be-4c01-aec7-5dd0497f0cc9","system_id":"levelo_inurba_marseille","lat":43.286593,"lon":5.363346,"is_reserved":false,"is_disabled":false,"rental_uris":{"android":"levelo://app?vid=eb0c24b6-19be-4c01-aec7-5dd0497f0cc9","ios":"levelo://app?vid=eb0c24b6-19be-4c01-aec7-5dd0497f0cc9"},"vehicle_type_id":"4","last_reported":1725649603,"current_range_meters":23200,"station_id":"ce4bhah2rcd13ifvqej0","pricing_plan_id":"cebpf4jnsgd1na2vs0mg"},{"bike_id":"c63fa4dd-5d77-48c4-8112-d1272106beab","system_id":"levelo_inurba_marseille","lat":43.286591,"lon":5.363346,"is_reserved":false,"is_disabled":false,"rental_uris":{"android":"levelo://app?vid=c63fa4dd-5d77-48c4-8112-d1272106beab","ios":"levelo://app?vid=c63fa4dd-5d77-48c4-8112-d1272106beab"},"vehicle_type_id":"4","last_reported":1725649603,"current_range_meters":22400,"station_id":"ce4bhah2rcd13ifvqej0","pricing_plan_id":"cebpf4jnsgd1na2vs0mg"},{"bike_id":"af41446e-dd4b-4c2b-a737-f2fdfcba7147","system_id":"levelo_inurba_marseille","lat":43.286961,"lon":5.373785,"is_reserved":false,"is_disabled":false,"rental_uris":{"android":"levelo://app?vid=af41446e-dd4b-4c2b-a737-f2fdfcba7147","ios":"levelo://app?vid=af41446e-dd4b-4c2b-a737-f2fdfcba7147"},"vehicle_type_id":"4","last_reported":1725649603,"current_range_meters":0,"station_id":"ce4bh3p2rcd13ifvqdq0","pricing_plan_id":"cebpf4jnsgd1na2vs0mg"},{"bike_id":"d6750b13-0e93-451e-acee-97aec96cc6f6","system_id":"levelo_inurba_marseille","lat":43.28667,"lon":5.363493,"is_reserved":false,"is_disabled":false,"rental_uris":{"android":"levelo://app?vid=d6750b13-0e93-451e-acee-97aec96cc6f6","ios":"levelo://app?vid=d6750b13-0e93-451e-acee-97aec96cc6f6"},"vehicle_type_id":"4","last_reported":1725649603,"current_range_meters":0,"station_id":"ce4bhah2rcd13ifvqej0","pricing_plan_id":"cebpf4jnsgd1na2vs0mg"},{"bike_id":"ec4b441a-c075-4eb5-b0e1-a728fb31d40f","system_id":"levelo_inurba_marseille","lat":43.298681,"lon":5.397225,"is_reserved":false,"is_disabled":false,"rental_uris":{"android":"levelo://app?vid=ec4b441a-c075-4eb5-b0e1-a728fb31d40f","ios":"levelo://app?vid=ec4b441a-c075-4eb5-b0e1-a728fb31d40f"},"vehicle_type_id":"4","last_reported":1725649603,"current_range_meters":15200,"station_id":"ce4bh0h2rcd13ifvqd50","pricing_plan_id":"cebpf4jnsgd1na2vs0mg"},{"bike_id":"d556bbf1-d6cc-49e9-b75b-7bcab4990a25","system_id":"levelo_inurba_marseille","lat":43.28696,"lon":5.37382,"is_reserved":false,"is_disabled":false,"rental_uris":{"android":"levelo://app?vid=d556bbf1-d6cc-49e9-b75b-7bcab4990a25","ios":"levelo://app?vid=d556bbf1-d6cc-49e9-b75b-7bcab4990a25"},"vehicle_type_id":"4","last_reported":1725649603,"current_range_meters":400,"station_id":"ce4bh3p2rcd13ifvqdq0","pricing_plan_id":"cebpf4jnsgd1na2vs0mg"},{"bike_id":"5604c0f1-5c4d-405f-8ed2-600130c9ffa5","system_id":"levelo_inurba_marseille","lat":43.29522,"lon":5.394015,"is_reserved":false,"is_disabled":false,"rental_uris":{"android":"levelo://app?vid=5604c0f1-5c4d-405f-8ed2-600130c9ffa5","ios":"levelo://app?vid=5604c0f1-5c4d-405f-8ed2-600130c9ffa5"},"vehicle_type_id":"4","last_reported":1725649603,"current_range_meters":3600,"station_id":"ce4bh292rcd13ifvqdf0","pricing_plan_id":"cebpf4jnsgd1na2vs0mg"},{"bike_id":"e686d324-b7e2-43d6-a476-b0ed2c065356","system_id":"levelo_inurba_marseille","lat":43.29515,"lon":5.39402,"is_reserved":false,"is_disabled":false,"rental_uris":{"android":"levelo://app?vid=e686d324-b7e2-43d6-a476-b0ed2c065356","ios":"levelo://app?vid=e686d324-b7e2-43d6-a476-b0ed2c065356"},"vehicle_type_id":"4","last_reported":1725649603,"current_range_meters":23200,"station_id":"ce4bh292rcd13ifvqdf0","pricing_plan_id":"cebpf4jnsgd1na2vs0mg"},{"bike_id":"ba09ce7d-051f-42c2-b6c4-9dea366d59e4","system_id":"levelo_inurba_marseille","lat":43.295196,"lon":5.39397,"is_reserved":false,"is_disabled":false,"rental_uris":{"android":"levelo://app?vid=ba09ce7d-051f-42c2-b6c4-9dea366d59e4","ios":"levelo://app?vid=ba09ce7d-051f-42c2-b6c4-9dea366d59e4"},"vehicle_type_id":"4","last_reported":1725649603,"current_range_meters":11600,"station_id":"ce4bh292rcd13ifvqdf0","pricing_plan_id":"cebpf4jnsgd1na2vs0mg"},{"bike_id":"920c2c44-6d07-47cb-8f41-64c48b4fda65","system_id":"levelo_inurba_marseille","lat":43.290345,"lon":5.38646,"is_reserved":false,"is_disabled":false,"rental_uris":{"android":"levelo://app?vid=920c2c44-6d07-47cb-8f41-64c48b4fda65","ios":"levelo://app?vid=920c2c44-6d07-47cb-8f41-64c48b4fda65"},"vehicle_type_id":"4","last_reported":1725649603,"current_range_meters":12000,"station_id":"ce4bh4p2rcd13ifvqe0g","pricing_plan_id":"cebpf4jnsgd1na2vs0mg"},{"bike_id":"505aa189-be58-4adf-bdde-b314e335a0fc","system_id":"levelo_inurba_marseille","lat":43.289307,"lon":5.38406,"is_reserved":false,"is_disabled":false,"rental_uris":{"android":"levelo://app?vid=505aa189-be58-4adf-bdde-b314e335a0fc","ios":"levelo://app?vid=505aa189-be58-4adf-bdde-b314e335a0fc"},"vehicle_type_id":"4","last_reported":1725649603,"current_range_meters":11600,"station_id":"ce4bh612rcd13ifvqe6g","pricing_plan_id":"cebpf4jnsgd1na2vs0mg"},{"bike_id":"6f821e1e-f304-449f-9c15-b3fe86a77178","system_id":"levelo_inurba_marseille","lat":43.29031,"lon":5.38643,"is_reserved":false,"is_disabled":false,"rental_uris":{"android":"levelo://app?vid=6f821e1e-f304-449f-9c15-b3fe86a77178","ios":"levelo://app?vid=6f821e1e-f304-449f-9c15-b3fe86a77178"},"vehicle_type_id":"4","last_reported":1725649603,"current_range_meters":0,"station_id":"ce4bh4p2rcd13ifvqe0g","pricing_plan_id":"cebpf4jnsgd1na2vs0mg"},{"bike_id":"2fdbed3f-5938-421f-9096-b229ad2e93e0","system_id":"levelo_inurba_marseille","lat":43.289265,"lon":5.383955,"is_reserved":false,"is_disabled":false,"rental_uris":{"android":"levelo://app?vid=2fdbed3f-5938-421f-9096-b229ad2e93e0","ios":"levelo://app?vid=2fdbed3f-5938-421f-9096-b229ad2e93e0"},"vehicle_type_id":"4","last_reported":1725649603,"current_range_meters":0,"station_id":"ce4bh612rcd13ifvqe6g","pricing_plan_id":"cebpf4jnsgd1na2vs0mg"},{"bike_id":"9bfbc6a1-1b4a-453b-92a7-767b5fff8308","system_id":"levelo_inurba_marseille","lat":43.290345,"lon":5.38646,"is_reserved":false,"is_disabled":false,"rental_uris":{"android":"levelo://app?vid=9bfbc6a1-1b4a-453b-92a7-767b5fff8308","ios":"levelo://app?vid=9bfbc6a1-1b4a-453b-92a7-767b5fff8308"},"vehicle_type_id":"4","last_reported":1725649603,"current_range_meters":25200,"station_id":"ce4bh4p2rcd13ifvqe0g","pricing_plan_id":"cebpf4jnsgd1na2vs0mg"},{"bike_id":"87e51c53-ace4-4508-aa96-067b5977cc78","system_id":"levelo_inurba_marseille","lat":43.289307,"lon":5.38406,"is_reserved":false,"is_disabled":false,"rental_uris":{"android":"levelo://app?vid=87e51c53-ace4-4508-aa96-067b5977cc78","ios":"levelo://app?vid=87e51c53-ace4-4508-aa96-067b5977cc78"},"vehicle_type_id":"4","last_reported":1725649603,"current_range_meters":8800,"station_id":"ce4bh612rcd13ifvqe6g","pricing_plan_id":"cebpf4jnsgd1na2vs0mg"},{"bike_id":"2c6f4d61-3e88-4492-98d4-3ed9d2ed4362","system_id":"levelo_inurba_marseille","lat":43.289198,"lon":5.384035,"is_reserved":false,"is_disabled":false,"rental_uris":{"android":"levelo://app?vid=2c6f4d61-3e88-4492-98d4-3ed9d2ed4362","ios":"levelo://app?vid=2c6f4d61-3e88-4492-98d4-3ed9d2ed4362"},"vehicle_type_id":"4","last_reported":1725649603,"current_range_meters":400,"station_id":"ce4bh612rcd13ifvqe6g","pricing_plan_id":"cebpf4jnsgd1na2vs0mg"},