{"last_updated":1701065406,"ttl":30,"version":"2.2","data":{"bikes":[{"bike_id":"0e07f4dc-f05c-4a47-a7fc-9cf5a2bc7aff","system_id":"levelo_inurba_marseille","lat":43.31341,"lon":5.367098,"is_reserved":false,"is_disabled":false,"rental_uris":{"android":"levelo://app?vid=0e07f4dc-f05c-4a47-a7fc-9cf5a2bc7aff","ios":"levelo://app?vid=0e07f4dc-f05c-4a47-a7fc-9cf5a2bc7aff"},"vehicle_type_id":"4","last_reported":1701065406,"current_range_meters":28000,"station_id":"ce4bgr92rcd13ifvqc6g","pricing_plan_id":"free"},{"bike_id":"07cc5b6d-28b2-485c-b05d-61c15e55a370","system_id":"levelo_inurba_marseille","lat":43.313391,"lon":5.36706,"is_reserved":false,"is_disabled":false,"rental_uris":{"android":"levelo://app?vid=07cc5b6d-28b2-485c-b05d-61c15e55a370","ios":"levelo://app?vid=07cc5b6d-28b2-485c-b05d-61c15e55a370"},"vehicle_type_id":"4","last_reported":1701065406,"current_range_meters":27200,"station_id":"ce4bgr92rcd13ifvqc6g","pricing_plan_id":"free"},{"bike_id":"e841562e-fb8b-43e8-b928-be9e34f79ef3","system_id":"levelo_inurba_marseille","lat":43.31368,"lon":5.36688,"is_reserved":false,"is_disabled":false,"rental_uris":{"android":"levelo://app?vid=e841562e-fb8b-43e8-b928-be9e34f79ef3","ios":"levelo://app?vid=e841562e-fb8b-43e8-b928-be9e34f79ef3"},"vehicle_type_id":"4","last_reported":1701065406,"current_range_meters":800,"station_id":"ce4bgr92rcd13ifvqc6g","pricing_plan_id":"free"},{"bike_id":"6feaeb70-76fd-458d-baf2-fca8ea47ac08","system_id":"levelo_inurba_marseille","lat":43.3122,"lon":5.36886,"is_reserved":false,"is_disabled":false,"rental_uris":{"android":"levelo://app?vid=6feaeb70-76fd-458d-baf2-fca8ea47ac08","ios":"levelo://app?vid=6feaeb70-76fd-458d-baf2-fca8ea47ac08"},"vehicle_type_id":"4","last_reported":1701065406,"current_range_meters":1600,"station_id":"ce4bgl92rcd13ifvqbq0","pricing_plan_id":"free"},{"bike_id":"8f2f826b-e69e-4be6-bcfc-d43033e593fb","system_id":"levelo_inurba_marseille","lat":43.309076,"lon":5.368465,"is_reserved":false,"is_disabled":false,"rental_uris":{"android":"levelo://app?vid=8f2f826b-e69e-4be6-bcfc-d43033e593fb","ios":"levelo://app?vid=8f2f826b-e69e-4be6-bcfc-d43033e593fb"},"vehicle_type_id":"4","last_reported":1701065406,"current_range_meters":21200,"station_id":"ce4bgn92rcd13ifvqbvg","pricing_plan_id":"free"},{"bike_id":"bd995399-9857-4b05-a12b-892c4ab9f713","system_id":"levelo_inurba_marseille","lat":43.314811,"lon":5.373103,"is_reserved":false,"is_disabled":false,"rental_uris":{"android":"levelo://app?vid=bd995399-9857-4b05-a12b-892c4ab9f713","ios":"levelo://app?vid=bd995399-9857-4b05-a12b-892c4ab9f713"},"vehicle_type_id":"4","last_reported":1701065406,"current_range_meters":30000,"station_id":"ce4bgt12rcd13ifvqcd0","pricing_plan_id":"free"},{"bike_id":"a46a5384-815a-43bc-8f16-2c5363496ada","system_id":"levelo_inurba_marseille","lat":43.314811,"lon":5.373104,"is_reserved":false,"is_disabled":false,"rental_uris":{"android":"levelo://app?vid=a46a5384-815a-43bc-8f16-2c5363496ada","ios":"levelo://app?vid=a46a5384-815a-43bc-8f16-2c5363496ada"},"vehicle_type_id":"4","last_reported":1701065406,"current_range_meters":29200,"station_id":"ce4bgt12rcd13ifvqcd0","pricing_plan_id":"free"},{"bike_id":"661c7d9d-bcfe-4f83-a8cd-546d47145b21","system_id":"levelo_inurba_marseille","lat":43.309039,"lon":5.371797,"is_reserved":false,"is_disabled":false,"rental_uris":{"android":"levelo://app?vid=661c7d9d-bcfe-4f83-a8cd-546d47145b21","ios":"levelo://app?vid=661c7d9d-bcfe-4f83-a8cd-546d47145b21"},"vehicle_type_id":"4","last_reported":1701065406,"current_range_meters":13200,"station_id":"ce4bguh2rcd13ifvqckg","pricing_plan_id":"free"},{"bike_id":"fa4c08a8-f79b-4419-8791-02374ece74c7","system_id":"levelo_inurba_marseille","lat":43.316907,"lon":5.372703,"is_reserved":false,"is_disabled":false,"rental_uris":{"android":"levelo://app?vid=fa4c08a8-f79b-4419-8791-02374ece74c7","ios":"levelo://app?vid=fa4c08a8-f79b-4419-8791-02374ece74c7"},"vehicle_type_id":"4","last_reported":1701065406,"current_range_meters":7200,"station_id":"","pricing_plan_id":"free"},{"bike_id":"a178d0dc-f1a4-44e9-a3a5-7b90431c6dd4","system_id":"levelo_inurba_marseille","lat":43.306058,"lon":5.372249,"is_reserved":false,"is_disabled":false,"rental_uris":{"android":"levelo://app?vid=a178d0dc-f1a4-44e9-a3a5-7b90431c6dd4","ios":"levelo://app?vid=a178d0dc-f1a4-44e9-a3a5-7b90431c6dd4"},"vehicle_type_id":"4","last_reported":1701065406,"current_range_meters":0,"station_id":"ce4bgqh2rcd13ifvqc4g","pricing_plan_id":"free"},{"bike_id":"f427a2c3-6e4a-446b-ae2f-9be8aa7f4122","system_id":"levelo_inurba_marseille","lat":43.31719,"lon":5.376813,"is_reserved":false,"is_disabled":false,"rental_uris":{"android":"levelo://app?vid=f427a2c3-6e4a-446b-ae2f-9be8aa7f4122","ios":"levelo://app?vid=f427a2c3-6e4a-446b-ae2f-9be8aa7f4122"},"vehicle_type_id":"4","last_reported":1701065406,"current_range_meters":18400,"station_id":"ce4bgth2rcd13ifvqch0","pricing_plan_id":"free"},{"bike_id":"e913f328-1e31-4c22-bd87-f809ea246de4","system_id":"levelo_inurba_marseille","lat":43.317168,"lon":5.376883,"is_reserved":false,"is_disabled":false,"rental_uris":{"android":"levelo://app?vid=e913f328-1e31-4c22-bd87-f809ea246de4","ios":"levelo://app?vid=e913f328-1e31-4c22-bd87-f809ea246de4"},"vehicle_type_id":"4","last_reported":1701065406,"current_range_meters":20800,"station_id":"ce4bgth2rcd13ifvqch0","pricing_plan_id":"free"},{"bike_id":"0033b656-9eb7-4159-8ba0-f2d9ffe5872c","system_id":"levelo_inurba_marseille","lat":43.317075,"lon":5.377367,"is_reserved":false,"is_disabled":false,"rental_uris":{"android":"levelo://app?vid=0033b656-9eb7-4159-8ba0-f2d9ffe5872c","ios":"levelo://app?vid=0033b656-9eb7-4159-8ba0-f2d9ffe5872c"},"vehicle_type_id":"4","last_reported":1701065406,"current_range_meters":23600,"station_id":"ce4bgth2rcd13ifvqch0","pricing_plan_id":"free"},{"bike_id":"a80f348a-adbe-415b-8175-efc5cebf9a3a","system_id":"levelo_inurba_marseille","lat":43.317075,"lon":5.377367,"is_reserved":false,"is_disabled":false,"rental_uris":{"android":"levelo://app?vid=a80f348a-adbe-415b-8175-efc5cebf9a3a","ios":"levelo://app?vid=a80f348a-adbe-415b-8175-efc5cebf9a3a"},"vehicle_type_id":"4","last_reported":1701065406,"current_range_meters":31200,"station_id":"ce4bgth2rcd13ifvqch0","pricing_plan_id":"free"},{"bike_id":"939bf4f0-ae3a-4692-b0ff-ce5fe384b2fd","system_id":"levelo_inurba_marseille","lat":43.317075,"lon":5.377367,"is_reserved":false,"is_disabled":false,"rental_uris":{"android":"levelo://app?vid=939bf4f0-ae3a-4692-b0ff-ce5fe384b2fd","ios":"levelo://app?vid=939bf4f0-ae3a-4692-b0ff-ce5fe384b2fd"},"vehicle_type_id":"4","last_reported":1701065406,"current_range_meters":27600,"station_id":"ce4bgth2rcd13ifvqch0","pricing_plan_id":"free"},{"bike_id":"423e19d4-bde0-4982-bd4c-371d4e0cf407","system_id":"levelo_inurba_marseille","lat":43.315315,"lon":5.380365,"is_reserved":false,"is_disabled":false,"rental_uris":{"android":"levelo://app?vid=423e19d4-bde0-4982-bd4c-371d4e0cf407","ios":"levelo://app?vid=423e19d4-bde0-4982-bd4c-371d4e0cf407"},"vehicle_type_id":"4","last_reported":1701065406,"current_range_meters":11600,"station_id":"ce4bhsp2rcd13ifvqi50","pricing_plan_id":"free"},{"bike_id":"0bdfe7ea-6712-46a6-9518-c2701bc640d4","system_id":"levelo_inurba_marseille","lat":43.31534,"lon":5.38036,"is_reserved":false,"is_disabled":false,"rental_uris":{"android":"levelo://app?vid=0bdfe7ea-6712-46a6-9518-c2701bc640d4","ios":"levelo://app?vid=0bdfe7ea-6712-46a6-9518-c2701bc640d4"},"vehicle_type_id":"4","last_reported":1701065406,"current_range_meters":15200,"station_id":"ce4bhsp2rcd13ifvqi50","pricing_plan_id":"free"},{"bike_id":"4960cd84-5f51-4fcb-bf4f-043f77c0faa0","system_id":"levelo_inurba_marseille","lat":43.312693,"lon":5.381813,"is_reserved":false,"is_disabled":false,"rental_uris":{"android":"levelo://app?vid=4960cd84-5f51-4fcb-bf4f-043f77c0faa0","ios":"levelo://app?vid=4960cd84-5f51-4fcb-bf4f-043f77c0faa0"},"vehicle_type_id":"4","last_reported":1701065406,"current_range_meters":14800,"station_id":"","pricing_plan_id":"free"},{"bike_id":"e752aa78-7782-4705-9100-701cf8956d37","system_id":"levelo_inurba_marseille","lat":43.30801,"lon":5.38155,"is_reserved":false,"is_disabled":false,"rental_uris":{"android":"levelo://app?vid=e752aa78-7782-4705-9100-701cf8956d37","ios":"levelo://app?vid=e752aa78-7782-4705-9100-701cf8956d37"},"vehicle_type_id":"4","last_reported":1701065406,"current_range_meters":7200,"station_id":"ce4bgt12rcd13ifvqce0","pricing_plan_id":"free"},{"bike_id":"f2da9669-1912-4bc0-8e34-9b30db03874a","system_id":"levelo_inurba_marseille","lat":43.308012,"lon":5.381511,"is_reserved":false,"is_disabled":false,"rental_uris":{"android":"levelo://app?vid=f2da9669-1912-4bc0-8e34-9b30db03874a","ios":"levelo://app?vid=f2da9669-1912-4bc0-8e34-9b30db03874a"},"vehicle_type_id":"4","last_reported":1701065406,"current_range_meters":31200,"station_id":"ce4bgt12rcd13ifvqce0","pricing_plan_id":"free"},{"bike_id":"08d2b880-6edf-4416-bf77-e5e0d66c6254","system_id":"levelo_inurba_marseille","lat":43.304606,"lon":5.379026,"is_reserved":false,"is_disabled":false,"rental_uris":{"android":"levelo://app?vid=08d2b880-6edf-4416-bf77-e5e0d66c6254","ios":"levelo://app?vid=08d2b880-6edf-4416-bf77-e5e0d66c6254"},"vehicle_type_id":"4","last_reported":1701065406,"current_range_meters":26400,"station_id":"ce4bgup2rcd13ifvqcn0","pricing_plan_id":"free"},{"bike_id":"254c12c5-69a9-4723-80d5-f9701745f331","system_id":"levelo_inurba_marseille","lat":43.304606,"lon":5.379026,"is_reserved":false,"is_disabled":false,"rental_uris":{"android":"levelo://app?vid=254c12c5-69a9-4723-80d5-f9701745f331","ios":"levelo://app?vid=254c12c5-69a9-4723-80d5-f9701745f331"},"vehicle_type_id":"4","last_reported":1701065406,"current_range_meters":31200,"station_id":"ce4bgup2rcd13ifvqcn0","pricing_plan_id":"free"},{"bike_id":"a9005f04-5ae9-41a3-a18c-4d23d3bbb0b6","system_id":"levelo_inurba_marseille","lat":43.304606,"lon":5.379026,"is_reserved":false,"is_disabled":false,"rental_uris":{"android":"levelo://app?vid=a9005f04-5ae9-41a3-a18c-4d23d3bbb0b6","ios":"levelo://app?vid=a9005f04-5ae9-41a3-a18c-4d23d3bbb0b6"},"vehicle_type_id":"4","last_reported":1701065406,"current_range_meters":31600,"station_id":"ce4bgup2rcd13ifvqcn0","pricing_plan_id":"free"},{"bike_id":"33242382-36ae-45eb-884e-476af8b063a1","system_id":"levelo_inurba_marseille","lat":43.304606,"lon":5.379026,"is_reserved":false,"is_disabled":false,"rental_uris":{"android":"levelo://app?vid=33242382-36ae-45eb-884e-476af8b063a1","ios":"levelo://app?vid=33242382-36ae-45eb-884e-476af8b063a1"},"vehicle_type_id":"4","last_reported":1701065406,"current_range_meters":30400,"station_id":"ce4bgup2rcd13ifvqcn0","pricing_plan_id":"free"},{"bike_id":"6b268469-cc96-4f7c-8685-9d4411ff30a0","system_id":"levelo_inurba_marseille","lat":43.304606,"lon":5.379026,"is_reserved":false,"is_disabled":false,"rental_uris":{"android":"levelo://app?vid=6b268469-cc96-4f7c-8685-9d4411ff30a0","ios":"levelo://app?vid=6b268469-cc96-4f7c-8685-9d4411ff30a0"},"vehicle_type_id":"4","last_reported":1701065406,"current_range_meters":18800,"station_id":"ce4bgup2rcd13ifvqcn0","pricing_plan_id":"free"},{"bike_id":"ecb8f0f4-405e-4366-bf4e-8e3a820359a8","system_id":"levelo_inurba_marseille","lat":43.304606,"lon":5.379026,"is_reserved":false,"is_disabled":false,"rental_uris":{"android":"levelo://app?vid=ecb8f0f4-405e-4366-bf4e-8e3a820359a8","ios":"levelo://app?vid=ecb8f0f4-405e-4366-bf4e-8e3a820359a8"},"vehicle_type_id":"4","last_reported":1701065406,"current_range_meters":8800,"station_id":"ce4bgup2rcd13ifvqcn0","pricing_plan_id":"free"},{"bike_id":"f57549ab-50c5-4898-9673-ed7ed25b14bd","system_id":"levelo_inurba_marseille","lat":43.304606,"lon":5.379026,"is_reserved":false,"is_disabled":false,"rental_uris":{"android":"levelo://app?vid=f57549ab-50c5-4898-9673-ed7ed25b14bd","ios":"levelo://app?vid=f57549ab-50c5-4898-9673-ed7ed25b14bd"},"vehicle_type_id":"4","last_reported":1701065406,"current_range_meters":28800,"station_id":"ce4bgup2rcd13ifvqcn0","pricing_plan_id":"free"},{"bike_id":"2aaeaaef-5380-42a0-857f-ea621ada9d99","system_id":"levelo_inurba_marseille","lat":43.304606,"lon":5.379026,"is_reserved":false,"is_disabled":false,"rental_uris":{"android":"levelo://app?vid=2aaeaaef-5380-42a0-857f-ea621ada9d99","ios":"levelo://app?vid=2aaeaaef-5380-42a0-857f-ea621ada9d99"},"vehicle_type_id":"4","last_reported":1701065406,"current_range_meters":400,"station_id":"ce4bgup2rcd13ifvqcn0","pricing_plan_id":"free"},{"bike_id":"bfff4da3-b457-4eab-99f3-8e507e2cf593","system_id":"levelo_inurba_marseille","lat":43.304606,"lon":5.379026,"is_reserved":false,"is_disabled":false,"rental_uris":{"android":"levelo://app?vid=bfff4da3-b457-4eab-99f3-8e507e2cf593","ios":"levelo://app?vid=bfff4da3-b457-4eab-99f3-8e507e2cf593"},"vehicle_type_id":"4","last_reported":1701065406,"current_range_meters":18400,"station_id":"ce4bgup2rcd13ifvqcn0","pricing_plan_id":"free"},{"bike_id":"41e80f9f-7aef-48c0-adcf-174c07190cca","system_id":"levelo_inurba_marseille","lat":43.304606,"lon":5.379026,"is_reserved":false,"is_disabled":false,"rental_uris":{"android":"levelo://app?vid=41e80f9f-7aef-48c0-adcf-174c07190cca","ios":"levelo://app?vid=41e80f9f-7aef-48c0-adcf-174c07190cca"},"vehicle_type_id":"4","last_reported":1701065406,"current_range_meters":23600,"station_id":"ce4bgup2rcd13ifvqcn0","pricing_plan_id":"free"},{"bike_id":"249067fe-d308-4dda-8e66-1f7ad5769601","system_id":"levelo_inurba_marseille","lat":43.304606,"lon":5.379026,"is_reserved":false,"is_disabled":false,"rental_uris":{"android":"levelo://app?vid=249067fe-d308-4dda-8e66-1f7ad5769601","ios":"levelo://app?vid=249067fe-d308-4dda-8e66-1f7ad5769601"},"vehicle_type_id":"4","last_reported":1701065406,"current_range_meters":30800,"station_id":"ce4bgup2rcd13ifvqcn0","pricing_plan_id":"free"},{"bike_id":"14b9b5e6-e859-4cae-8b58-bed95599a4a1","system_id":"levelo_inurba_marseille","lat":43.304606,"lon":5.379026,"is_reserved":false,"is_disabled":false,"rental_uris":{"android":"levelo://app?vid=14b9b5e6-e859-4cae-8b58-bed95599a4a1","ios":"levelo://app?vid=14b9b5e6-e859-4cae-8b58-bed95599a4a1"},"vehicle_type_id":"4","last_reported":1701065406,"current_range_meters":31600,"station_id":"ce4bgup2rcd13ifvqcn0","pricing_plan_id":"free"},{"bike_id":"65fdb8cf-4b31-44ab-bde0-931e3f7eed1a","system_id":"levelo_inurba_marseille","lat":43.301429,"lon":5.37413,"is_reserved":false,"is_disabled":false,"rental_uris":{"android":"levelo://app?vid=65fdb8cf-4b31-44ab-bde0-931e3f7eed1a","ios":"levelo://app?vid=65fdb8cf-4b31-44ab-bde0-931e3f7eed1a"},"vehicle_type_id":"4","last_reported":1701065406,"current_range_meters":25600,"station_id":"ce4bgs92rcd13ifvqcc0","pricing_plan_id":"free"},{"bike_id":"e1c5179b-1edf-4c62-9406-4fcf9e0f97a4","system_id":"levelo_inurba_marseille","lat":43.319942,"lon":5.38145,"is_reserved":false,"is_disabled":false,"rental_uris":{"android":"levelo://app?vid=e1c5179b-1edf-4c62-9406-4fcf9e0f97a4","ios":"levelo://app?vid=e1c5179b-1edf-4c62-9406-4fcf9e0f97a4"},"vehicle_type_id":"4","last_reported":1701065406,"current_range_meters":28400,"station_id":"ce4bhr12rcd13ifvqhpg","pricing_plan_id":"free"},{"bike_id":"26424229-3f6c-4825-80c2-05bb33edfdc5","system_id":"levelo_inurba_marseille","lat":43.299222,"lon":5.365554,"is_reserved":false,"is_disabled":false,"rental_uris":{"android":"levelo://app?vid=26424229-3f6c-4825-80c2-05bb33edfdc5","ios":"levelo://app?vid=26424229-3f6c-4825-80c2-05bb33edfdc5"},"vehicle_type_id":"4","last_reported":1701065406,"current_range_meters":800,"station_id":"ce4bgm92rcd13ifvqbr0","pricing_plan_id":"free"},{"bike_id":"226e9f74-a000-4c0e-921d-92c18c491bc8","system_id":"levelo_inurba_marseille","lat":43.299222,"lon":5.365554,"is_reserved":false,"is_disabled":false,"rental_uris":{"android":"levelo://app?vid=226e9f74-a000-4c0e-921d-92c18c491bc8","ios":"levelo://app?vid=226e9f74-a000-4c0e-921d-92c18c491bc8"},"vehicle_type_id":"4","last_reported":1701065406,"current_range_meters":30000,"station_id":"ce4bgm92rcd13ifvqbr0","pricing_plan_id":"free"},{"bike_id":"873fdb60-6fa2-403a-8d34-dc61cac62633","system_id":"levelo_inurba_marseille","lat":43.29933,"lon":5.36541,"is_reserved":false,"is_disabled":false,"rental_uris":{"android":"levelo://app?vid=873fdb60-6fa2-403a-8d34-dc61cac62633","ios":"levelo://app?vid=873fdb60-6fa2-403a-8d34-dc61cac62633"},"vehicle_type_id":"4","last_reported":1701065406,"current_range_meters":28800,"station_id":"ce4bgm92rcd13ifvqbr0","pricing_plan_id":"free"},{"bike_id":"f852916f-8890-4fa9-a9b3-e7c61af9734f","system_id":"levelo_inurba_marseille","lat":43.298673,"lon":5.369111,"is_reserved":false,"is_disabled":false,"rental_uris":{"android":"levelo://app?vid=f852916f-8890-4fa9-a9b3-e7c61af9734f","ios":"levelo://app?vid=f852916f-8890-4fa9-a9b3-e7c61af9734f"},"vehicle_type_id":"4","last_reported":1701065406,"current_range_meters":0,"station_id":"","pricing_plan_id":"free"},{"bike_id":"477235fc-d2e7-4bab-b368-dd78a5c1ebe9","system_id":"levelo_inurba_marseille","lat":43.29852,"lon":5.36278,"is_reserved":false,"is_disabled":false,"rental_uris":{"android":"levelo://app?vid=477235fc-d2e7-4bab-b368-dd78a5c1ebe9","ios":"levelo://app?vid=477235fc-d2e7-4bab-b368-dd78a5c1ebe9"},"vehicle_type_id":"4","last_reported":1701065406,"current_range_meters":20400,"station_id":"ce4bgpp2rcd13ifvqc3g","pricing_plan_id":"free"},{"bike_id":"14275d3f-d286-4db3-acf7-5534eae88e4e","system_id":"levelo_inurba_marseille","lat":43.305339,"lon":5.384284,"is_reserved":false,"is_disabled":false,"rental_uris":{"android":"levelo://app?vid=14275d3f-d286-4db3-acf7-5534eae88e4e","ios":"levelo://app?vid=14275d3f-d286-4db3-acf7-5534eae88e4e"},"vehicle_type_id":"4","last_reported":1701065406,"current_range_meters":6000,"station_id":"ce4bgg92rcd13ifvqb30","pricing_plan_id":"free"},{"bike_id":"bdcce320-8872-4561-a8e5-16b6f8a74a4a","system_id":"levelo_inurba_marseille","lat":43.311722,"lon":5.387247,"is_reserved":false,"is_disabled":false,"rental_uris":{"android":"levelo://app?vid=bdcce320-8872-4561-a8e5-16b6f8a74a4a","ios":"levelo://app?vid=bdcce320-8872-4561-a8e5-16b6f8a74a4a"},"vehicle_type_id":"4","last_reported":1701065406,"current_range_meters":31600,"station_id":"ce4bgv12rcd13ifvqcp0","pricing_plan_id":"free"},{"bike_id":"2466eaec-a348-49e0-8ab7-4f77badbbfb4","system_id":"levelo_inurba_marseille","lat":43.311722,"lon":5.387247,"is_reserved":false,"is_disabled":false,"rental_uris":{"android":"levelo://app?vid=2466eaec-a348-49e0-8ab7-4f77badbbfb4","ios":"levelo://app?vid=2466eaec-a348-49e0-8ab7-4f77badbbfb4"},"vehicle_type_id":"4","last_reported":1701065406,"current_range_meters":28400,"station_id":"ce4bgv12rcd13ifvqcp0","pricing_plan_id":"free"},{"bike_id":"28de30db-d818-403d-ba27-cd244dac06ce","system_id":"levelo_inurba_marseille","lat":43.297774,"lon":5.370875,"is_reserved":false,"is_disabled":false,"rental_uris":{"android":"levelo://app?vid=28de30db-d818-403d-ba27-cd244dac06ce","ios":"levelo://app?vid=28de30db-d818-403d-ba27-cd244dac06ce"},"vehicle_type_id":"4","last_reported":1701065406,"current_range_meters":24400,"station_id":"ce4bgop2rcd13ifvqc1g","pricing_plan_id":"free"},{"bike_id":"c57375d0-3fc9-4bbc-9de2-2d75c7626d44","system_id":"levelo_inurba_marseille","lat":43.297163,"lon":5.365866,"is_reserved":false,"is_disabled":false,"rental_uris":{"android":"levelo://app?vid=c57375d0-3fc9-4bbc-9de2-2d75c7626d44","ios":"levelo://app?vid=c57375d0-3fc9-4bbc-9de2-2d75c7626d44"},"vehicle_type_id":"4","last_reported":1701065406,"current_range_meters":26800,"station_id":"ce4bgn12rcd13ifvqbt0","pricing_plan_id":"free"},{"bike_id":"84e79bc2-f872-4461-b5dc-11392b156935","system_id":"levelo_inurba_marseille","lat":43.32831,"lon":5.36678,"is_reserved":false,"is_disabled":false,"rental_uris":{"android":"levelo://app?vid=84e79bc2-f872-4461-b5dc-11392b156935","ios":"levelo://app?vid=84e79bc2-f872-4461-b5dc-11392b156935"},"vehicle_type_id":"4","last_reported":1701065406,"current_range_meters":16800,"station_id":"ce4bhs92rcd13ifvqi0g","pricing_plan_id":"free"},{"bike_id":"d4f8eaeb-1157-4ebd-9969-eb4a257af8ee","system_id":"levelo_inurba_marseille","lat":43.328331,"lon":5.366699,"is_reserved":false,"is_disabled":false,"rental_uris":{"android":"levelo://app?vid=d4f8eaeb-1157-4ebd-9969-eb4a257af8ee","ios":"levelo://app?vid=d4f8eaeb-1157-4ebd-9969-eb4a257af8ee"},"vehicle_type_id":"4","last_reported":1701065406,"current_range_meters":13600,"station_id":"ce4bhs92rcd13ifvqi0g","pricing_plan_id":"free"},{"bike_id":"5028f56d-c7ad-4d21-9d37-36b3da921171","system_id":"levelo_inurba_marseille","lat":43.297163,"lon":5.365866,"is_reserved":false,"is_disabled":false,"rental_uris":{"android":"levelo://app?vid=5028f56d-c7ad-4d21-9d37-36b3da921171","ios":"levelo://app?vid=5028f56d-c7ad-4d21-9d37-36b3da921171"},"vehicle_type_id":"4","last_reported":1701065406,"current_range_meters":19600,"station_id":"ce4bgn12rcd13ifvqbt0","pricing_plan_id":"free"},{"bike_id":"a5da601e-e514-4354-a856-ff62a81a8ac8","system_id":"levelo_inurba_marseille","lat":43.29573,"lon":5.367355,"is_reserved":false,"is_disabled":false,"rental_uris":{"android":"levelo://app?vid=a5da601e-e514-4354-a856-ff62a81a8ac8","ios":"levelo://app?vid=a5da601e-e514-4354-a856-ff62a81a8ac8"},"vehicle_type_id":"4","last_reported":1701065406,"current_range_meters":31600,"station_id":"ce4bgph2rcd13ifvqc2g","pricing_plan_id":"free"},{"bike_id":"4a05ac65-f220-41ad-b9bc-20102080b17f","system_id":"levelo_inurba_marseille","lat":43.29573,"lon":5.367355,"is_reserved":false,"is_disabled":false,"rental_uris":{"android":"levelo://app?vid=4a05ac65-f220-41ad-b9bc-20102080b17f","ios":"levelo://app?vid=4a05ac65-f220-41ad-b9bc-20102080b17f"},"vehicle_type_id":"4","last_reported":1701065406,"current_range_meters":31600,"station_id":"ce4bgph2rcd13ifvqc2g","pricing_plan_id":"free"},{"bike_id":"d8613364-3af9-4e42-ad90-5312bafdca5b","system_id":"levelo_inurba_marseille","lat":43.29573,"lon":5.367355,"is_reserved":false,"is_disabled":false,"rental_uris":{"android":"levelo://app?vid=d8613364-3af9-4e42-ad90-5312bafdca5b","ios":"levelo://app?vid=d8613364-3af9-4e42-ad90-5312bafdca5b"},"vehicle_type_id":"4","last_reported":1701065406,"current_range_meters":19600,"station_id":"ce4bgph2rcd13ifvqc2g","pricing_plan_id":"free"},{"bike_id":"2a3acb06-8222-43d3-99c6-46dd09e64d00","system_id":"levelo_inurba_marseille","lat":43.29573,"lon":5.367355,"is_reserved":false,"is_disabled":false,"rental_uris":{"android":"levelo://app?vid=2a3acb06-8222-43d3-99c6-46dd09e64d00","ios":"levelo://app?vid=2a3acb06-8222-43d3-99c6-46dd09e64d00"},"vehicle_type_id":"4","last_reported":1701065406,"current_range_meters":23600,"station_id":"ce4bgph2rcd13ifvqc2g","pricing_plan_id":"free"},{"bike_id":"91815f0e-280f-4f47-95a0-ea694b142381","system_id":"levelo_inurba_marseille","lat":43.29573,"lon":5.367355,"is_reserved":false,"is_disabled":false,"rental_uris":{"android":"levelo://app?vid=91815f0e-280f-4f47-95a0-ea694b142381","ios":"levelo://app?vid=91815f0e-280f-4f47-95a0-ea694b142381"},"vehicle_type_id":"4","last_reported":1701065406,"current_range_meters":12400,"station_id":"ce4bgph2rcd13ifvqc2g","pricing_plan_id":"free"},{"bike_id":"4c2cfcb4-6536-421f-a5c1-5b85a8f464cb","system_id":"levelo_inurba_marseille","lat":43.29573,"lon":5.367355,"is_reserved":false,"is_disabled":false,"rental_uris":{"android":"levelo://app?vid=4c2cfcb4-6536-421f-a5c1-5b85a8f464cb","ios":"levelo://app?vid=4c2cfcb4-6536-421f-a5c1-5b85a8f464cb"},"vehicle_type_id":"4","last_reported":1701065406,"current_range_meters":30400,"station_id":"ce4bgph2rcd13ifvqc2g","pricing_plan_id":"free"},{"bike_id":"8eb99f99-b944-4964-96f2-e263cd7c52fc","system_id":"levelo_inurba_marseille","lat":43.29581,"lon":5.3675,"is_reserved":false,"is_disabled":false,"rental_uris":{"android":"levelo://app?vid=8eb99f99-b944-4964-96f2-e263cd7c52fc","ios":"levelo://app?vid=8eb99f99-b944-4964-96f2-e263cd7c52fc"},"vehicle_type_id":"4","last_reported":1701065406,"current_range_meters":24800,"station_id":"ce4bgph2rcd13ifvqc2g","pricing_plan_id":"free"},{"bike_id":"91cf2b2a-855f-4734-9188-91ee71d17ca1","system_id":"levelo_inurba_marseille","lat":43.29573,"lon":5.367355,"is_reserved":false,"is_disabled":false,"rental_uris":{"android":"levelo://app?vid=91cf2b2a-855f-4734-9188-91ee71d17ca1","ios":"levelo://app?vid=91cf2b2a-855f-4734-9188-91ee71d17ca1"},"vehicle_type_id":"4","last_reported":1701065406,"current_range_meters":28800,"station_id":"ce4bgph2rcd13ifvqc2g","pricing_plan_id":"free"},{"bike_id":"35364ef1-dae4-40dd-97db-5a72fa7d07a1","system_id":"levelo_inurba_marseille","lat":43.29573,"lon":5.367355,"is_reserved":false,"is_disabled":false,"rental_uris":{"android":"levelo://app?vid=35364ef1-dae4-40dd-97db-5a72fa7d07a1","ios":"levelo://app?vid=35364ef1-dae4-40dd-97db-5a72fa7d07a1"},"vehicle_type_id":"4","last_reported":1701065406,"current_range_meters":12400,"station_id":"ce4bgph2rcd13ifvqc2g","pricing_plan_id":"free"},{"bike_id":"3c6291e8-a595-4440-8725-4a39bebc53be","system_id":"levelo_inurba_marseille","lat":43.296935,"lon":5.376544,"is_reserved":false,"is_disabled":false,"rental_uris":{"android":"levelo://app?vid=3c6291e8-a595-4440-8725-4a39bebc53be","ios":"levelo://app?vid=3c6291e8-a595-4440-8725-4a39bebc53be"},"vehicle_type_id":"4","last_reported":1701065406,"current_range_meters":27600,"station_id":"ce4bgkh2rcd13ifvqbl0","pricing_plan_id":"free"},{"bike_id":"d0a03d54-62cc-4e0a-af56-4bc607665dcd","system_id":"levelo_inurba_marseille","lat":43.299028,"lon":5.381509,"is_reserved":false,"is_disabled":false,"rental_uris":{"android":"levelo://app?vid=d0a03d54-62cc-4e0a-af56-4bc607665dcd","ios":"levelo://app?vid=d0a03d54-62cc-4e0a-af56-4bc607665dcd"},"vehicle_type_id":"4","last_reported":1701065406,"current_range_meters":24800,"station_id":"ce4bgj12rcd13ifvqbc0","pricing_plan_id":"free"},{"bike_id":"2b06041f-69f2-44de-ad07-d9b60527ea8a","system_id":"levelo_inurba_marseille","lat":43.299028,"lon":5.381509,"is_reserved":false,"is_disabled":false,"rental_uris":{"android":"levelo://app?vid=2b06041f-69f2-44de-ad07-d9b60527ea8a","ios":"levelo://app?vid=2b06041f-69f2-44de-ad07-d9b60527ea8a"},"vehicle_type_id":"4","last_reported":1701065406,"current_range_meters":30000,"station_id":"ce4bgj12rcd13ifvqbc0","pricing_plan_id":"free"},{"bike_id":"4ca2b5ca-c2f1-493c-954f-03557be74c1d","system_id":"levelo_inurba_marseille","lat":43.296263,"lon":5.377094,"is_reserved":false,"is_disabled":false,"rental_uris":{"android":"levelo://app?vid=4ca2b5ca-c2f1-493c-954f-03557be74c1d","ios":"levelo://app?vid=4ca2b5ca-c2f1-493c-954f-03557be74c1d"},"vehicle_type_id":"4","last_reported":1701065406,"current_range_meters":31200,"station_id":"ce4bgi92rcd13ifvqb90","pricing_plan_id":"free"},{"bike_id":"790abdd5-9aa4-4942-8adf-ae554a6a6af7","system_id":"levelo_inurba_marseille","lat":43.299717,"lon":5.384845,"is_reserved":false,"is_disabled":false,"rental_uris":{"android":"levelo://app?vid=790abdd5-9aa4-4942-8adf-ae554a6a6af7","ios":"levelo://app?vid=790abdd5-9aa4-4942-8adf-ae554a6a6af7"},"vehicle_type_id":"4","last_reported":1701065406,"current_range_meters":25600,"station_id":"ce4bgj92rcd13ifvqbd0","pricing_plan_id":"free"},{"bike_id":"1f3c84b4-365e-4da3-95b9-8d010961d7af","system_id":"levelo_inurba_marseille","lat":43.299707,"lon":5.384859,"is_reserved":false,"is_disabled":false,"rental_uris":{"android":"levelo://app?vid=1f3c84b4-365e-4da3-95b9-8d010961d7af","ios":"levelo://app?vid=1f3c84b4-365e-4da3-95b9-8d010961d7af"},"vehicle_type_id":"4","last_reported":1701065406,"current_range_meters":27600,"station_id":"ce4bgj92rcd13ifvqbd0","pricing_plan_id":"free"},{"bike_id":"b713a90d-16d4-46a8-b65b-b2682d7a5e40","system_id":"levelo_inurba_marseille","lat":43.299724,"lon":5.384848,"is_reserved":false,"is_disabled":false,"rental_uris":{"android":"levelo://app?vid=b713a90d-16d4-46a8-b65b-b2682d7a5e40","ios":"levelo://app?vid=b713a90d-16d4-46a8-b65b-b2682d7a5e40"},"vehicle_type_id":"4","last_reported":1701065406,"current_range_meters":28000,"station_id":"ce4bgj92rcd13ifvqbd0","pricing_plan_id":"free"},{"bike_id":"9ec724ef-b112-4e25-90d6-77af6c0f88b8","system_id":"levelo_inurba_marseille","lat":43.29965,"lon":5.385025,"is_reserved":false,"is_disabled":false,"rental_uris":{"android":"levelo://app?vid=9ec724ef-b112-4e25-90d6-77af6c0f88b8","ios":"levelo://app?vid=9ec724ef-b112-4e25-90d6-77af6c0f88b8"},"vehicle_type_id":"4","last_reported":1701065406,"current_range_meters":28000,"station_id":"ce4bgj92rcd13ifvqbd0","pricing_plan_id":"free"},{"bike_id":"6b621983-5e9e-42f7-990d-ad5a093820d2","system_id":"levelo_inurba_marseille","lat":43.293801,"lon":5.363066,"is_reserved":false,"is_disabled":false,"rental_uris":{"android":"levelo://app?vid=6b621983-5e9e-42f7-990d-ad5a093820d2","ios":"levelo://app?vid=6b621983-5e9e-42f7-990d-ad5a093820d2"},"vehicle_type_id":"4","last_reported":1701065406,"current_range_meters":0,"station_id":"","pricing_plan_id":"free"},{"bike_id":"ddd61bce-03d4-4f1e-8020-8ef45188a057","system_id":"levelo_inurba_marseille","lat":43.29996,"lon":5.387903,"is_reserved":false,"is_disabled":false,"rental_uris":{"android":"levelo://app?vid=ddd61bce-03d4-4f1e-8020-8ef45188a057","ios":"levelo://app?vid=ddd61bce-03d4-4f1e-8020-8ef45188a057"},"vehicle_type_id":"4","last_reported":1701065406,"current_range_meters":16800,"station_id":"","pricing_plan_id":"free"},{"bike_id":"fdc8ca1c-79b4-464d-a6c2-30fc54a45f4e","system_id":"levelo_inurba_marseille","lat":43.29275,"lon":5.36849,"is_reserved":false,"is_disabled":false,"rental_uris":{"android":"levelo://app?vid=fdc8ca1c-79b4-464d-a6c2-30fc54a45f4e","ios":"levelo://app?vid=fdc8ca1c-79b4-464d-a6c2-30fc54a45f4e"},"vehicle_type_id":"4","last_reported":1701065406,"current_range_meters":28800,"station_id":"ce4bhbp2rcd13ifvqesg","pricing_plan_id":"free"},{"bike_id":"ab396960-887f-44a0-a40d-92e0edb21dfc","system_id":"levelo_inurba_marseille","lat":43.292724,"lon":5.368502,"is_reserved":false,"is_disabled":false,"rental_uris":{"android":"levelo://app?vid=ab396960-887f-44a0-a40d-92e0edb21dfc","ios":"levelo://app?vid=ab396960-887f-44a0-a40d-92e0edb21dfc"},"vehicle_type_id":"4","last_reported":1701065406,"current_range_meters":31200,"station_id":"ce4bhbp2rcd13ifvqesg","pricing_plan_id":"free"},{"bike_id":"7aba977c-7e5e-40d9-95d9-39e8966cd87c","system_id":"levelo_inurba_marseille","lat":43.293009,"lon":5.374584,"is_reserved":false,"is_disabled":false,"rental_uris":{"android":"levelo://app?vid=7aba977c-7e5e-40d9-95d9-39e8966cd87c","ios":"levelo://app?vid=7aba977c-7e5e-40d9-95d9-39e8966cd87c"},"vehicle_type_id":"4","last_reported":1701065406,"current_range_meters":23200,"station_id":"ce4bgi12rcd13ifvqb70","pricing_plan_id":"free"},{"bike_id":"8341d1c0-71e7-45ca-a325-1f315f9837d1","system_id":"levelo_inurba_marseille","lat":43.308825,"lon":5.396346,"is_reserved":false,"is_disabled":false,"rental_uris":{"android":"levelo://app?vid=8341d1c0-71e7-45ca-a325-1f315f9837d1","ios":"levelo://app?vid=8341d1c0-71e7-45ca-a325-1f315f9837d1"},"vehicle_type_id":"4","last_reported":1701065406,"current_range_meters":30800,"station_id":"ce4bh012rcd13ifvqcv0","pricing_plan_id":"free"},{"bike_id":"3579a8ed-7d34-4c46-8eeb-6385e5c60a39","system_id":"levelo_inurba_marseille","lat":43.309038,"lon":5.396546,"is_reserved":false,"is_disabled":false,"rental_uris":{"android":"levelo://app?vid=3579a8ed-7d34-4c46-8eeb-6385e5c60a39","ios":"levelo://app?vid=3579a8ed-7d34-4c46-8eeb-6385e5c60a39"},"vehicle_type_id":"4","last_reported":1701065406,"current_range_meters":21600,"station_id":"ce4bh012rcd13ifvqcv0","pricing_plan_id":"free"},{"bike_id":"ac1d2fcb-bb0e-4913-9855-079024a010e5","system_id":"levelo_inurba_marseille","lat":43.291916,"lon":5.358001,"is_reserved":false,"is_disabled":false,"rental_uris":{"android":"levelo://app?vid=ac1d2fcb-bb0e-4913-9855-079024a010e5","ios":"levelo://app?vid=ac1d2fcb-bb0e-4913-9855-079024a010e5"},"vehicle_type_id":"4","last_reported":1701065406,"current_range_meters":26400,"station_id":"ce4bhb12rcd13ifvqel0","pricing_plan_id":"free"},{"bike_id":"6bbafb0e-de5a-4e53-8fdf-6383a175b2b5","system_id":"levelo_inurba_marseille","lat":43.313259,"lon":5.396899,"is_reserved":false,"is_disabled":false,"rental_uris":{"android":"levelo://app?vid=6bbafb0e-de5a-4e53-8fdf-6383a175b2b5","ios":"levelo://app?vid=6bbafb0e-de5a-4e53-8fdf-6383a175b2b5"},"vehicle_type_id":"4","last_reported":1701065406,"current_range_meters":29200,"station_id":"ce4bgvp2rcd13ifvqcu0","pricing_plan_id":"free"},{"bike_id":"dfa2cb77-50cd-4655-a3e3-3f1b190e3453","system_id":"levelo_inurba_marseille","lat":43.308882,"lon":5.396434,"is_reserved":false,"is_disabled":false,"rental_uris":{"android":"levelo://app?vid=dfa2cb77-50cd-4655-a3e3-3f1b190e3453","ios":"levelo://app?vid=dfa2cb77-50cd-4655-a3e3-3f1b190e3453"},"vehicle_type_id":"4","last_reported":1701065406,"current_range_meters":24400,"station_id":"ce4bh012rcd13ifvqcv0","pricing_plan_id":"free"},{"bike_id":"7ab5f7ed-0017-4fc9-a467-fe2d0c256128","system_id":"levelo_inurba_marseille","lat":43.313291,"lon":5.396838,"is_reserved":false,"is_disabled":false,"rental_uris":{"android":"levelo://app?vid=7ab5f7ed-0017-4fc9-a467-fe2d0c256128","ios":"levelo://app?vid=7ab5f7ed-0017-4fc9-a467-fe2d0c256128"},"vehicle_type_id":"4","last_reported":1701065406,"current_range_meters":29600,"station_id":"ce4bgvp2rcd13ifvqcu0","pricing_plan_id":"free"},{"bike_id":"8571f734-2140-4a15-85b5-a20822c00c22","system_id":"levelo_inurba_marseille","lat":43.31333,"lon":5.39691,"is_reserved":false,"is_disabled":false,"rental_uris":{"android":"levelo://app?vid=8571f734-2140-4a15-85b5-a20822c00c22","ios":"levelo://app?vid=8571f734-2140-4a15-85b5-a20822c00c22"},"vehicle_type_id":"4","last_reported":1701065406,"current_range_meters":28400,"station_id":"ce4bgvp2rcd13ifvqcu0","pricing_plan_id":"free"},{"bike_id":"20894f0c-a016-4e6c-91a2-42eaf42972c0","system_id":"levelo_inurba_marseille","lat":43.291994,"lon":5.357886,"is_reserved":false,"is_disabled":false,"rental_uris":{"android":"levelo://app?vid=20894f0c-a016-4e6c-91a2-42eaf42972c0","ios":"levelo://app?vid=20894f0c-a016-4e6c-91a2-42eaf42972c0"},"vehicle_type_id":"4","last_reported":1701065406,"current_range_meters":24800,"station_id":"ce4bhb12rcd13ifvqel0","pricing_plan_id":"free"},{"bike_id":"671bd9cd-e961-4631-b707-bbdd5cdcd4d3","system_id":"levelo_inurba_marseille","lat":43.309038,"lon":5.396546,"is_reserved":false,"is_disabled":false,"rental_uris":{"android":"levelo://app?vid=671bd9cd-e961-4631-b707-bbdd5cdcd4d3","ios":"levelo://app?vid=671bd9cd-e961-4631-b707-bbdd5cdcd4d3"},"vehicle_type_id":"4","last_reported":1701065406,"current_range_meters":30400,"station_id":"ce4bh012rcd13ifvqcv0","pricing_plan_id":"free"},{"bike_id":"25f5b4b6-212c-4289-9186-562841da850a","system_id":"levelo_inurba_marseille","lat":43.313291,"lon":5.396838,"is_reserved":false,"is_disabled":false,"rental_uris":{"android":"levelo://app?vid=25f5b4b6-212c-4289-9186-562841da850a","ios":"levelo://app?vid=25f5b4b6-212c-4289-9186-562841da850a"},"vehicle_type_id":"4","last_reported":1701065406,"current_range_meters":30800,"station_id":"ce4bgvp2rcd13ifvqcu0","pricing_plan_id":"free"},{"bike_id":"7a1a3063-7370-43fe-bd47-3187123c38e2","system_id":"levelo_inurba_marseille","lat":43.31325,"lon":5.39695,"is_reserved":false,"is_disabled":false,"rental_uris":{"android":"levelo://app?vid=7a1a3063-7370-43fe-bd47-3187123c38e2","ios":"levelo://app?vid=7a1a3063-7370-43fe-bd47-3187123c38e2"},"vehicle_type_id":"4","last_reported":1701065406,"current_range_meters":18000,"station_id":"ce4bgvp2rcd13ifvqcu0","pricing_plan_id":"free"},{"bike_id":"a9185b0c-f524-4acc-8618-ed48811f1e0a","system_id":"levelo_inurba_marseille","lat":43.309038,"lon":5.396546,"is_reserved":false,"is_disabled":false,"rental_uris":{"android":"levelo://app?vid=a9185b0c-f524-4acc-8618-ed48811f1e0a","ios":"levelo://app?vid=a9185b0c-f524-4acc-8618-ed48811f1e0a"},"vehicle_type_id":"4","last_reported":1701065406,"current_range_meters":31200,"station_id":"ce4bh012rcd13ifvqcv0","pricing_plan_id":"free"},{"bike_id":"0413cfa7-2510-4150-809e-546dfb92aa2d","system_id":"levelo_inurba_marseille","lat":43.308874,"lon":5.396506,"is_reserved":false,"is_disabled":false,"rental_uris":{"android":"levelo://app?vid=0413cfa7-2510-4150-809e-546dfb92aa2d","ios":"levelo://app?vid=0413cfa7-2510-4150-809e-546dfb92aa2d"},"vehicle_type_id":"4","last_reported":1701065406,"current_range_meters":18000,"station_id":"ce4bh012rcd13ifvqcv0","pricing_plan_id":"free"},{"bike_id":"63135695-51c7-47cd-9ed2-bdf2474ef39f","system_id":"levelo_inurba_marseille","lat":43.290734,"lon":5.371629,"is_reserved":false,"is_disabled":false,"rental_uris":{"android":"levelo://app?vid=63135695-51c7-47cd-9ed2-bdf2474ef39f","ios":"levelo://app?vid=63135695-51c7-47cd-9ed2-bdf2474ef39f"},"vehicle_type_id":"4","last_reported":1701065406,"current_range_meters":27600,"station_id":"ce4bh5p2rcd13ifvqe4g","pricing_plan_id":"free"},{"bike_id":"47497c99-760f-43a1-a36e-b001dff64e1d","system_id":"levelo_inurba_marseille","lat":43.294162,"lon":5.386292,"is_reserved":false,"is_disabled":false,"rental_uris":{"android":"levelo://app?vid=47497c99-760f-43a1-a36e-b001dff64e1d","ios":"levelo://app?vid=47497c99-760f-43a1-a36e-b001dff64e1d"},"vehicle_type_id":"4","last_reported":1701065406,"current_range_meters":28000,"station_id":"ce4bh2h2rcd13ifvqdh0","pricing_plan_id":"free"},{"bike_id":"f985a5a7-722f-46b1-9723-0d60ea9a2aed","system_id":"levelo_inurba_marseille","lat":43.28944,"lon":5.36629,"is_reserved":false,"is_disabled":false,"rental_uris":{"android":"levelo://app?vid=f985a5a7-722f-46b1-9723-0d60ea9a2aed","ios":"levelo://app?vid=f985a5a7-722f-46b1-9723-0d60ea9a2aed"},"vehicle_type_id":"4","last_reported":1701065406,"current_range_meters":26800,"station_id":"ce4bhap2rcd13ifvqek0","pricing_plan_id":"free"},{"bike_id":"6b21b186-404a-46d3-931a-087a15f02869","system_id":"levelo_inurba_marseille","lat":43.294153,"lon":5.386305,"is_reserved":false,"is_disabled":false,"rental_uris":{"android":"levelo://app?vid=6b21b186-404a-46d3-931a-087a15f02869","ios":"levelo://app?vid=6b21b186-404a-46d3-931a-087a15f02869"},"vehicle_type_id":"4","last_reported":1701065406,"current_range_meters":23200,"station_id":"ce4bh2h2rcd13ifvqdh0","pricing_plan_id":"free"},{"bike_id":"8047288c-8905-4027-a13f-b509494979fd","system_id":"levelo_inurba_marseille","lat":43.289339,"lon":5.36631,"is_reserved":false,"is_disabled":false,"rental_uris":{"android":"levelo://app?vid=8047288c-8905-4027-a13f-b509494979fd","ios":"levelo://app?vid=8047288c-8905-4027-a13f-b509494979fd"},"vehicle_type_id":"4","last_reported":1701065406,"current_range_meters":10000,"station_id":"ce4bhap2rcd13ifvqek0","pricing_plan_id":"free"},{"bike_id":"1566c790-0cad-4502-9d79-ad7add89bd72","system_id":"levelo_inurba_marseille","lat":43.289468,"lon":5.363719,"is_reserved":false,"is_disabled":false,"rental_uris":{"android":"levelo://app?vid=1566c790-0cad-4502-9d79-ad7add89bd72","ios":"levelo://app?vid=1566c790-0cad-4502-9d79-ad7add89bd72"},"vehicle_type_id":"4","last_reported":1701065406,"current_range_meters":28400,"station_id":"ce4bhc92rcd13ifvqetg","pricing_plan_id":"free"},{"bike_id":"a525856e-b85b-4dae-bf2e-2f4adac931ea","system_id":"levelo_inurba_marseille","lat":43.289184,"lon":5.366408,"is_reserved":false,"is_disabled":false,"rental_uris":{"android":"levelo://app?vid=a525856e-b85b-4dae-bf2e-2f4adac931ea","ios":"levelo://app?vid=a525856e-b85b-4dae-bf2e-2f4adac931ea"},"vehicle_type_id":"4","last_reported":1701065406,"current_range_meters":30400,"station_id":"ce4bhap2rcd13ifvqek0","pricing_plan_id":"free"},{"bike_id":"0c24fd48-904b-4b73-990f-8a7b74144662","system_id":"levelo_inurba_marseille","lat":43.28931,"lon":5.36398,"is_reserved":false,"is_disabled":false,"rental_uris":{"android":"levelo://app?vid=0c24fd48-904b-4b73-990f-8a7b74144662","ios":"levelo://app?vid=0c24fd48-904b-4b73-990f-8a7b74144662"},"vehicle_type_id":"4","last_reported":1701065406,"current_range_meters":27600,"station_id":"ce4bhc92rcd13ifvqetg","pricing_plan_id":"free"},{"bike_id":"effba58d-0f9c-44ec-99b2-219416f64cda","system_id":"levelo_inurba_marseille","lat":43.304296,"lon":5.397513,"is_reserved":false,"is_disabled":false,"rental_uris":{"android":"levelo://app?vid=effba58d-0f9c-44ec-99b2-219416f64cda","ios":"levelo://app?vid=effba58d-0f9c-44ec-99b2-219416f64cda"},"vehicle_type_id":"4","last_reported":1701065406,"current_range_meters":27600,"station_id":"ce4bh092rcd13ifvqd20","pricing_plan_id":"free"},{"bike_id":"2b5fcc23-1081-4e98-8b02-791f8b42c3e1","system_id":"levelo_inurba_marseille","lat":43.290104,"lon":5.356111,"is_reserved":false,"is_disabled":false,"rental_uris":{"android":"levelo://app?vid=2b5fcc23-1081-4e98-8b02-791f8b42c3e1","ios":"levelo://app?vid=2b5fcc23-1081-4e98-8b02-791f8b42c3e1"},"vehicle_type_id":"4","last_reported":1701065406,"current_range_meters":31600,"station_id":"ce4bhb92rcd13ifvqen0","pricing_plan_id":"free"},{"bike_id":"c55c8bad-bae4-40d1-83a2-b49dd8cb5bd9","system_id":"levelo_inurba_marseille","lat":43.290103,"lon":5.356114,"is_reserved":false,"is_disabled":false,"rental_uris":{"android":"levelo://app?vid=c55c8bad-bae4-40d1-83a2-b49dd8cb5bd9","ios":"levelo://app?vid=c55c8bad-bae4-40d1-83a2-b49dd8cb5bd9"},"vehicle_type_id":"4","last_reported":1701065406,"current_range_meters":27200,"station_id":"ce4bhb92rcd13ifvqen0","pricing_plan_id":"free"},{"bike_id":"f7d03061-58bd-4d69-897b-6d4c2ef675db","system_id":"levelo_inurba_marseille","lat":43.290104,"lon":5.356111,"is_reserved":false,"is_disabled":false,"rental_uris":{"android":"levelo://app?vid=f7d03061-58bd-4d69-897b-6d4c2ef675db","ios":"levelo://app?vid=f7d03061-58bd-4d69-897b-6d4c2ef675db"},"vehicle_type_id":"4","last_reported":1701065406,"current_range_meters":24000,"station_id":"ce4bhb92rcd13ifvqen0","pricing_plan_id":"free"},{"bike_id":"856c023f-a8df-47d9-a6d8-d1ea2cb6ecf0","system_id":"levelo_inurba_marseille","lat":43.290104,"lon":5.356111,"is_reserved":false,"is_disabled":false,"rental_uris":{"android":"levelo://app?vid=856c023f-a8df-47d9-a6d8-d1ea2cb6ecf0","ios":"levelo://app?vid=856c023f-a8df-47d9-a6d8-d1ea2cb6ecf0"},"vehicle_type_id":"4","last_reported":1701065406,"current_range_meters":25600,"station_id":"ce4bhb92rcd13ifvqen0","pricing_plan_id":"free"},{"bike_id":"f7c2e831-4c36-4175-985f-9b5d57dc5a1e","system_id":"levelo_inurba_marseille","lat":43.295169,"lon":5.390426,"is_reserved":false,"is_disabled":false,"rental_uris":{"android":"levelo://app?vid=f7c2e831-4c36-4175-985f-9b5d57dc5a1e","ios":"levelo://app?vid=f7c2e831-4c36-4175-985f-9b5d57dc5a1e"},"vehicle_type_id":"4","last_reported":1701065406,"current_range_meters":24800,"station_id":"ce4bh3p2rcd13ifvqdp0","pricing_plan_id":"free"},{"bike_id":"6d4a7d93-1e71-4aba-8b25-bedcb0ef19bf","system_id":"levelo_inurba_marseille","lat":43.28977,"lon":5.37841,"is_reserved":false,"is_disabled":false,"rental_uris":{"android":"levelo://app?vid=6d4a7d93-1e71-4aba-8b25-bedcb0ef19bf","ios":"levelo://app?vid=6d4a7d93-1e71-4aba-8b25-bedcb0ef19bf"},"vehicle_type_id":"4","last_reported":1701065406,"current_range_meters":24000,"station_id":"ce4bh9p2rcd13ifvqed0","pricing_plan_id":"free"},{"bike_id":"c97aa797-596e-481f-8cb2-ae54f85c35da","system_id":"levelo_inurba_marseille","lat":43.289743,"lon":5.378304,"is_reserved":false,"is_disabled":false,"rental_uris":{"android":"levelo://app?vid=c97aa797-596e-481f-8cb2-ae54f85c35da","ios":"levelo://app?vid=c97aa797-596e-481f-8cb2-ae54f85c35da"},"vehicle_type_id":"4","last_reported":1701065406,"current_range_meters":7200,"station_id":"ce4bh9p2rcd13ifvqed0","pricing_plan_id":"free"},{"bike_id":"14ece8fa-7a31-43b7-a735-f64bdfdfd330","system_id":"levelo_inurba_marseille","lat":43.30936,"lon":5.4014,"is_reserved":false,"is_disabled":false,"rental_uris":{"android":"levelo://app?vid=14ece8fa-7a31-43b7-a735-f64bdfdfd330","ios":"levelo://app?vid=14ece8fa-7a31-43b7-a735-f64bdfdfd330"},"vehicle_type_id":"4","last_reported":1701065406,"current_range_meters":23200,"station_id":"ce4bgvp2rcd13ifvqct0","pricing_plan_id":"free"},{"bike_id":"6f70af8c-322c-4dc6-97c0-732a8decc587","system_id":"levelo_inurba_marseille","lat":43.309371,"lon":5.401449,"is_reserved":false,"is_disabled":false,"rental_uris":{"android":"levelo://app?vid=6f70af8c-322c-4dc6-97c0-732a8decc587","ios":"levelo://app?vid=6f70af8c-322c-4dc6-97c0-732a8decc587"},"vehicle_type_id":"4","last_reported":1701065406,"current_range_meters":30000,"station_id":"ce4bgvp2rcd13ifvqct0","pricing_plan_id":"free"},{"bike_id":"1427eb31-f9b3-4bc2-8e1d-dfd6fbe51be5","system_id":"levelo_inurba_marseille","lat":43.309328,"lon":5.401447,"is_reserved":false,"is_disabled":false,"rental_uris":{"android":"levelo://app?vid=1427eb31-f9b3-4bc2-8e1d-dfd6fbe51be5","ios":"levelo://app?vid=1427eb31-f9b3-4bc2-8e1d-dfd6fbe51be5"},"vehicle_type_id":"4","last_reported":1701065406,"current_range_meters":27600,"station_id":"ce4bgvp2rcd13ifvqct0","pricing_plan_id":"free"},{"bike_id":"ce4c3d71-1878-45b3-b3aa-66ea154cc4f5","system_id":"levelo_inurba_marseille","lat":43.309371,"lon":5.401449,"is_reserved":false,"is_disabled":false,"rental_uris":{"android":"levelo://app?vid=ce4c3d71-1878-45b3-b3aa-66ea154cc4f5","ios":"levelo://app?vid=ce4c3d71-1878-45b3-b3aa-66ea154cc4f5"},"vehicle_type_id":"4","last_reported":1701065406,"current_range_meters":28000,"station_id":"ce4bgvp2rcd13ifvqct0","pricing_plan_id":"free"},{"bike_id":"6ad298fa-f49c-461a-b002-e1ed806a452f","system_id":"levelo_inurba_marseille","lat":43.28727,"lon":5.36078,"is_reserved":false,"is_disabled":false,"rental_uris":{"android":"levelo://app?vid=6ad298fa-f49c-461a-b002-e1ed806a452f","ios":"levelo://app?vid=6ad298fa-f49c-461a-b002-e1ed806a452f"},"vehicle_type_id":"4","last_reported":1701065406,"current_range_meters":27600,"station_id":"cki0cbj6b192h4jlfktg","pricing_plan_id":"free"},{"bike_id":"7fc5340a-5a82-44b0-837f-41a33cf196bd","system_id":"levelo_inurba_marseille","lat":43.287175,"lon":5.360965,"is_reserved":false,"is_disabled":false,"rental_uris":{"android":"levelo://app?vid=7fc5340a-5a82-44b0-837f-41a33cf196bd","ios":"levelo://app?vid=7fc5340a-5a82-44b0-837f-41a33cf196bd"},"vehicle_type_id":"4","last_reported":1701065406,"current_range_meters":7600,"station_id":"cki0cbj6b192h4jlfktg","pricing_plan_id":"free"},{"bike_id":"56a21818-d91f-41cd-b0c1-87f8522a6532","system_id":"levelo_inurba_marseille","lat":43.286593,"lon":5.363346,"is_reserved":false,"is_disabled":false,"rental_uris":{"android":"levelo://app?vid=56a21818-d91f-41cd-b0c1-87f8522a6532","ios":"levelo://app?vid=56a21818-d91f-41cd-b0c1-87f8522a6532"},"vehicle_type_id":"4","last_reported":1701065406,"current_range_meters":30400,"station_id":"ce4bhah2rcd13ifvqej0","pricing_plan_id":"free"},{"bike_id":"f5e42b48-2769-4098-98f6-041122c23ac6","system_id":"levelo_inurba_marseille","lat":43.286591,"lon":5.363346,"is_reserved":false,"is_disabled":false,"rental_uris":{"android":"levelo://app?vid=f5e42b48-2769-4098-98f6-041122c23ac6","ios":"levelo://app?vid=f5e42b48-2769-4098-98f6-041122c23ac6"},"vehicle_type_id":"4","last_reported":1701065406,"current_range_meters":31600,"station_id":"ce4bhah2rcd13ifvqej0","pricing_plan_id":"free"},{"bike_id":"7fcd4c87-3875-4011-9eda-96edabc2b0b2","system_id":"levelo_inurba_marseille","lat":43.286591,"lon":5.363346,"is_reserved":false,"is_disabled":false,"rental_uris":{"android":"levelo://app?vid=7fcd4c87-3875-4011-9eda-96edabc2b0b2","ios":"levelo://app?vid=7fcd4c87-3875-4011-9eda-96edabc2b0b2"},"vehicle_type_id":"4","last_reported":1701065406,"current_range_meters":20800,"station_id":"ce4bhah2rcd13ifvqej0","pricing_plan_id":"free"},{"bike_id":"ebfb025a-2731-489b-a44d-803b65f0d09c","system_id":"levelo_inurba_marseille","lat":43.286961,"lon":5.373785,"is_reserved":false,"is_disabled":false,"rental_uris":{"android":"levelo://app?vid=ebfb025a-2731-489b-a44d-803b65f0d09c","ios":"levelo://app?vid=ebfb025a-2731-489b-a44d-803b65f0d09c"},"vehicle_type_id":"4","last_reported":1701065406,"current_range_meters":30400,"station_id":"ce4bh3p2rcd13ifvqdq0","pricing_plan_id":"free"},{"bike_id":"1c32affe-751e-423a-827d-76d95953688c","system_id":"levelo_inurba_marseille","lat":43.286961,"lon":5.373785,"is_reserved":false,"is_disabled":false,"rental_uris":{"android":"levelo://app?vid=1c32affe-751e-423a-827d-76d95953688c","ios":"levelo://app?vid=1c32affe-751e-423a-827d-76d95953688c"},"vehicle_type_id":"4","last_reported":1701065406,"current_range_meters":23200,"station_id":"ce4bh3p2rcd13ifvqdq0","pricing_plan_id":"free"},{"bike_id":"dcf573ef-83ac-4b1e-b6ab-23ddd59c18af","system_id":"levelo_inurba_marseille","lat":43.286591,"lon":5.363346,"is_reserved":false,"is_disabled":false,"rental_uris":{"android":"levelo://app?vid=dcf573ef-83ac-4b1e-b6ab-23ddd59c18af","ios":"levelo://app?vid=dcf573ef-83ac-4b1e-b6ab-23ddd59c18af"},"vehicle_type_id":"4","last_reported":1701065406,"current_range_meters":20400,"station_id":"ce4bhah2rcd13ifvqej0","pricing_plan_id":"free"},{"bike_id":"a0c873d9-1f45-473b-a9b8-0c589f32082d","system_id":"levelo_inurba_marseille","lat":43.286961,"lon":5.373785,"is_reserved":false,"is_disabled":false,"rental_uris":{"android":"levelo://app?vid=a0c873d9-1f45-473b-a9b8-0c589f32082d","ios":"levelo://app?vid=a0c873d9-1f45-473b-a9b8-0c589f32082d"},"vehicle_type_id":"4","last_reported":1701065406,"current_range_meters":31200,"station_id":"ce4bh3p2rcd13ifvqdq0","pricing_plan_id":"free"},{"bike_id":"fc98fb73-4605-44a9-bb4a-de405e1f6e1b","system_id":"levelo_inurba_marseille","lat":43.28691,"lon":5.37398,"is_reserved":false,"is_disabled":false,"rental_uris":{"android":"levelo://app?vid=fc98fb73-4605-44a9-bb4a-de405e1f6e1b","ios":"levelo://app?vid=fc98fb73-4605-44a9-bb4a-de405e1f6e1b"},"vehicle_type_id":"4","last_reported":1701065406,"current_range_meters":28400,"station_id":"ce4bh3p2rcd13ifvqdq0","pricing_plan_id":"free"},{"bike_id":"7460d808-2709-49e7-b64a-78e296046142","system_id":"levelo_inurba_marseille","lat":43.289366,"lon":5.383969,"is_reserved":false,"is_disabled":false,"rental_uris":{"android":"levelo://app?vid=7460d808-2709-49e7-b64a-78e296046142","ios":"levelo://app?vid=7460d808-2709-49e7-b64a-78e296046142"},"vehicle_type_id":"4","last_reported":1701065406,"current_range_meters":25600,"station_id":"ce4bh612rcd13ifvqe6g","pricing_plan_id":"free"},{"bike_id":"b39da0e8-e24a-4f83-b355-c07f3a2c074c","system_id":"levelo_inurba_marseille","lat":43.29027,"lon":5.38644,"is_reserved":false,"is_disabled":false,"rental_uris":{"android":"levelo://app?vid=b39da0e8-e24a-4f83-b355-c07f3a2c074c","ios":"levelo://app?vid=b39da0e8-e24a-4f83-b355-c07f3a2c074c"},"vehicle_type_id":"4","last_reported":1701065406,"current_range_meters":28800,"station_id":"ce4bh4p2rcd13ifvqe0g","pricing_plan_id":"free"},{"bike_id":"5071acbb-3c43-4521-abe3-333426fed992","system_id":"levelo_inurba_marseille","lat":43.316418,"lon":5.404339,"is_reserved":false,"is_disabled":false,"rental_uris":{"android":"levelo://app?vid=5071acbb-3c43-4521-abe3-333426fed992","ios":"levelo://app?vid=5071acbb-3c43-4521-abe3-333426fed992"},"vehicle_type_id":"4","last_reported":1701065406,"current_range_meters":0,"station_id":"ce4bh012rcd13ifvqd00","pricing_plan_id":"free"},{"bike_id":"c55477f8-cb17-4436-905c-65a287b08fd9","system_id":"levelo_inurba_marseille","lat":43.316415,"lon":5.404411,"is_reserved":false,"is_disabled":false,"rental_uris":{"android":"levelo://app?vid=c55477f8-cb17-4436-905c-65a287b08fd9","ios":"levelo://app?vid=c55477f8-cb17-4436-905c-65a287b08fd9"},"vehicle_type_id":"4","last_reported":1701065406,"current_range_meters":0,"station_id":"ce4bh012rcd13ifvqd00","pricing_plan_id":"free"},{"bike_id":"3a12544e-6647-4f7d-916e-8dd35fbfa4a7","system_id":"levelo_inurba_marseille","lat":43.284538,"lon":5.358657,"is_reserved":false,"is_disabled":false,"rental_uris":{"android":"levelo://app?vid=3a12544e-6647-4f7d-916e-8dd35fbfa4a7","ios":"levelo://app?vid=3a12544e-6647-4f7d-916e-8dd35fbfa4a7"},"vehicle_type_id":"4","last_reported":1701065406,"current_range_meters":31600,"station_id":"ce4bhah2rcd13ifvqei0","pricing_plan_id":"free"},{"bike_id":"c2267585-6099-44fd-8c74-85997bcc0857","system_id":"levelo_inurba_marseille","lat":43.284538,"lon":5.358657,"is_reserved":false,"is_disabled":false,"rental_uris":{"android":"levelo://app?vid=c2267585-6099-44fd-8c74-85997bcc0857","ios":"levelo://app?vid=c2267585-6099-44fd-8c74-85997bcc0857"},"vehicle_type_id":"4","last_reported":1701065406,"current_range_meters":30400,"station_id":"ce4bhah2rcd13ifvqei0","pricing_plan_id":"free"},{"bike_id":"a05121bd-52ec-4304-ba7f-dc7667e8acfa","system_id":"levelo_inurba_marseille","lat":43.284538,"lon":5.358657,"is_reserved":false,"is_disabled":false,"rental_uris":{"android":"levelo://app?vid=a05121bd-52ec-4304-ba7f-dc7667e8acfa","ios":"levelo://app?vid=a05121bd-52ec-4304-ba7f-dc7667e8acfa"},"vehicle_type_id":"4","last_reported":1701065406,"current_range_meters":30800,"station_id":"ce4bhah2rcd13ifvqei0","pricing_plan_id":"free"},{"bike_id":"850cce33-980b-4e96-b6bc-65a30fad8f45","system_id":"levelo_inurba_marseille","lat":43.284538,"lon":5.358657,"is_reserved":false,"is_disabled":false,"rental_uris":{"android":"levelo://app?vid=850cce33-980b-4e96-b6bc-65a30fad8f45","ios":"levelo://app?vid=850cce33-980b-4e96-b6bc-65a30fad8f45"},"vehicle_type_id":"4","last_reported":1701065406,"current_range_meters":18800,"station_id":"ce4bhah2rcd13ifvqei0","pricing_plan_id":"free"},{"bike_id":"08618197-6e99-466b-a18c-0874f38b1cda","system_id":"levelo_inurba_marseille","lat":43.284534,"lon":5.358662,"is_reserved":false,"is_disabled":false,"rental_uris":{"android":"levelo://app?vid=08618197-6e99-466b-a18c-0874f38b1cda","ios":"levelo://app?vid=08618197-6e99-466b-a18c-0874f38b1cda"},"vehicle_type_id":"4","last_reported":1701065406,"current_range_meters":16800,"station_id":"ce4bhah2rcd13ifvqei0","pricing_plan_id":"free"},{"bike_id":"b50ae186-df09-4f5a-b559-f9ad162971a5","system_id":"levelo_inurba_marseille","lat":43.284534,"lon":5.358662,"is_reserved":false,"is_disabled":false,"rental_uris":{"android":"levelo://app?vid=b50ae186-df09-4f5a-b559-f9ad162971a5","ios":"levelo://app?vid=b50ae186-df09-4f5a-b559-f9ad162971a5"},"vehicle_type_id":"4","last_reported":1701065406,"current_range_meters":28800,"station_id":"ce4bhah2rcd13ifvqei0","pricing_plan_id":"free"},{"bike_id":"11d7d85f-e794-4877-bab0-4dcf8b4131c6","system_id":"levelo_inurba_marseille","lat":43.284538,"lon":5.358657,"is_reserved":false,"is_disabled":false,"rental_uris":{"android":"levelo://app?vid=11d7d85f-e794-4877-bab0-4dcf8b4131c6","ios":"levelo://app?vid=11d7d85f-e794-4877-bab0-4dcf8b4131c6"},"vehicle_type_id":"4","last_reported":1701065406,"current_range_meters":9600,"station_id":"ce4bhah2rcd13ifvqei0","pricing_plan_id":"free"},{"bike_id":"3b1acaa6-131d-4c7d-925c-ce75c27018a2","system_id":"levelo_inurba_marseille","lat":43.284534,"lon":5.358662,"is_reserved":false,"is_disabled":false,"rental_uris":{"android":"levelo://app?vid=3b1acaa6-131d-4c7d-925c-ce75c27018a2","ios":"levelo://app?vid=3b1acaa6-131d-4c7d-925c-ce75c27018a2"},"vehicle_type_id":"4","last_reported":1701065406,"current_range_meters":25200,"station_id":"ce4bhah2rcd13ifvqei0","pricing_plan_id":"free"},{"bike_id":"cca47f6e-60f8-436b-adf0-19b7d5d3337a","system_id":"levelo_inurba_marseille","lat":43.284561,"lon":5.358916,"is_reserved":false,"is_disabled":false,"rental_uris":{"android":"levelo://app?vid=cca47f6e-60f8-436b-adf0-19b7d5d3337a","ios":"levelo://app?vid=cca47f6e-60f8-436b-adf0-19b7d5d3337a"},"vehicle_type_id":"4","last_reported":1701065406,"current_range_meters":1600,"station_id":"ce4bhah2rcd13ifvqei0","pricing_plan_id":"free"},{"bike_id":"85a769b1-2c7e-4ac0-8515-a80f30685d03","system_id":"levelo_inurba_marseille","lat":43.285856,"lon":5.350771,"is_reserved":false,"is_disabled":false,"rental_uris":{"android":"levelo://app?vid=85a769b1-2c7e-4ac0-8515-a80f30685d03","ios":"levelo://app?vid=85a769b1-2c7e-4ac0-8515-a80f30685d03"},"vehicle_type_id":"4","last_reported":1701065406,"current_range_meters":18000,"station_id":"ce4bhch2rcd13ifvqeug","pricing_plan_id":"free"},{"bike_id":"42786884-d38c-48b0-a5d6-623538999e27","system_id":"levelo_inurba_marseille","lat":43.283998,"lon":5.375062,"is_reserved":false,"is_disabled":false,"rental_uris":{"android":"levelo://app?vid=42786884-d38c-48b0-a5d6-623538999e27","ios":"levelo://app?vid=42786884-d38c-48b0-a5d6-623538999e27"},"vehicle_type_id":"4","last_reported":1701065406,"current_range_meters":30000,"station_id":"ce4bh412rcd13ifvqds0","pricing_plan_id":"free"},{"bike_id":"d9b0c75d-ad0b-4ca2-9642-6f6a5b7879ef","system_id":"levelo_inurba_marseille","lat":43.28407,"lon":5.37516,"is_reserved":false,"is_disabled":false,"rental_uris":{"android":"levelo://app?vid=d9b0c75d-ad0b-4ca2-9642-6f6a5b7879ef","ios":"levelo://app?vid=d9b0c75d-ad0b-4ca2-9642-6f6a5b7879ef"},"vehicle_type_id":"4","last_reported":1701065406,"current_range_meters":13600,"station_id":"ce4bh412rcd13ifvqds0","pricing_plan_id":"free"},{"bike_id":"2678b48b-e2f5-415d-a307-9d8cc82b1d71","system_id":"levelo_inurba_marseille","lat":43.295713,"lon":5.399639,"is_reserved":false,"is_disabled":false,"rental_uris":{"android":"levelo://app?vid=2678b48b-e2f5-415d-a307-9d8cc82b1d71","ios":"levelo://app?vid=2678b48b-e2f5-415d-a307-9d8cc82b1d71"},"vehicle_type_id":"4","last_reported":1701065406,"current_range_meters":23600,"station_id":"ce4bh312rcd13ifvqdj0","pricing_plan_id":"free"},{"bike_id":"da5750a3-07f1-47a0-940a-d928d9d09031","system_id":"levelo_inurba_marseille","lat":43.295673,"lon":5.399815,"is_reserved":false,"is_disabled":false,"rental_uris":{"android":"levelo://app?vid=da5750a3-07f1-47a0-940a-d928d9d09031","ios":"levelo://app?vid=da5750a3-07f1-47a0-940a-d928d9d09031"},"vehicle_type_id":"4","last_reported":1701065406,"current_range_meters":25600,"station_id":"ce4bh312rcd13ifvqdj0","pricing_plan_id":"free"},{"bike_id":"a734f515-e723-4a04-bdfa-213a642338e8","system_id":"levelo_inurba_marseille","lat":43.28678,"lon":5.38644,"is_reserved":false,"is_disabled":false,"rental_uris":{"android":"levelo://app?vid=a734f515-e723-4a04-bdfa-213a642338e8","ios":"levelo://app?vid=a734f515-e723-4a04-bdfa-213a642338e8"},"vehicle_type_id":"4","last_reported":1701065406,"current_range_meters":31200,"station_id":"ce4bh492rcd13ifvqdug","pricing_plan_id":"free"},{"bike_id":"3908c0de-2166-444f-a9db-f0d70532a748","system_id":"levelo_inurba_marseille","lat":43.2868,"lon":5.38656,"is_reserved":false,"is_disabled":false,"rental_uris":{"android":"levelo://app?vid=3908c0de-2166-444f-a9db-f0d70532a748","ios":"levelo://app?vid=3908c0de-2166-444f-a9db-f0d70532a748"},"vehicle_type_id":"4","last_reported":1701065406,"current_range_meters":30400,"station_id":"ce4bh492rcd13ifvqdug","pricing_plan_id":"free"},{"bike_id":"623c18c5-9521-4e43-91b4-3802628397de","system_id":"levelo_inurba_marseille","lat":43.28481,"lon":5.38437,"is_reserved":false,"is_disabled":false,"rental_uris":{"android":"levelo://app?vid=623c18c5-9521-4e43-91b4-3802628397de","ios":"levelo://app?vid=623c18c5-9521-4e43-91b4-3802628397de"},"vehicle_type_id":"4","last_reported":1701065406,"current_range_meters":30800,"station_id":"ce4bh512rcd13ifvqe3g","pricing_plan_id":"free"},{"bike_id":"114e9d2c-8147-4607-aaa1-9ec72fa84216","system_id":"levelo_inurba_marseille","lat":43.284787,"lon":5.384116,"is_reserved":false,"is_disabled":false,"rental_uris":{"android":"levelo://app?vid=114e9d2c-8147-4607-aaa1-9ec72fa84216","ios":"levelo://app?vid=114e9d2c-8147-4607-aaa1-9ec72fa84216"},"vehicle_type_id":"4","last_reported":1701065406,"current_range_meters":26400,"station_id":"ce4bh512rcd13ifvqe3g","pricing_plan_id":"free"},{"bike_id":"64453638-3a18-42a4-a2cc-0164bdb2f796","system_id":"levelo_inurba_marseille","lat":43.288501,"lon":5.393087,"is_reserved":false,"is_disabled":false,"rental_uris":{"android":"levelo://app?vid=64453638-3a18-42a4-a2cc-0164bdb2f796","ios":"levelo://app?vid=64453638-3a18-42a4-a2cc-0164bdb2f796"},"vehicle_type_id":"4","last_reported":1701065406,"current_range_meters":22000,"station_id":"ce4bh2p2rcd13ifvqdi0","pricing_plan_id":"free"},{"bike_id":"89cfc896-f202-4c11-8524-3c312d434839","system_id":"levelo_inurba_marseille","lat":43.283494,"lon":5.380945,"is_reserved":false,"is_disabled":false,"rental_uris":{"android":"levelo://app?vid=89cfc896-f202-4c11-8524-3c312d434839","ios":"levelo://app?vid=89cfc896-f202-4c11-8524-3c312d434839"},"vehicle_type_id":"4","last_reported":1701065406,"current_range_meters":30000,"station_id":"ce4bh412rcd13ifvqdr0","pricing_plan_id":"free"},{"bike_id":"c5bbff28-4de4-4ca1-9d97-a35c3db07119","system_id":"levelo_inurba_marseille","lat":43.283494,"lon":5.380945,"is_reserved":false,"is_disabled":false,"rental_uris":{"android":"levelo://app?vid=c5bbff28-4de4-4ca1-9d97-a35c3db07119","ios":"levelo://app?vid=c5bbff28-4de4-4ca1-9d97-a35c3db07119"},"vehicle_type_id":"4","last_reported":1701065406,"current_range_meters":30000,"station_id":"ce4bh412rcd13ifvqdr0","pricing_plan_id":"free"},{"bike_id":"89fdca47-2c1f-4794-b682-ee4029b7699b","system_id":"levelo_inurba_marseille","lat":43.284224,"lon":5.349873,"is_reserved":false,"is_disabled":false,"rental_uris":{"android":"levelo://app?vid=89fdca47-2c1f-4794-b682-ee4029b7699b","ios":"levelo://app?vid=89fdca47-2c1f-4794-b682-ee4029b7699b"},"vehicle_type_id":"4","last_reported":1701065406,"current_range_meters":31200,"station_id":"ce4bhbh2rcd13ifvqepg","pricing_plan_id":"free"},{"bike_id":"e2284003-4e46-4e0a-93e7-73d05c3666d9","system_id":"levelo_inurba_marseille","lat":43.33508,"lon":5.397755,"is_reserved":false,"is_disabled":false,"rental_uris":{"android":"levelo://app?vid=e2284003-4e46-4e0a-93e7-73d05c3666d9","ios":"levelo://app?vid=e2284003-4e46-4e0a-93e7-73d05c3666d9"},"vehicle_type_id":"4","last_reported":1701065406,"current_range_meters":16000,"station_id":"","pricing_plan_id":"free"},{"bike_id":"a4aba37a-7032-4b43-ad8e-9b71358c6b18","system_id":"levelo_inurba_marseille","lat":43.292724,"lon":5.401131,"is_reserved":false,"is_disabled":false,"rental_uris":{"android":"levelo://app?vid=a4aba37a-7032-4b43-ad8e-9b71358c6b18","ios":"levelo://app?vid=a4aba37a-7032-4b43-ad8e-9b71358c6b18"},"vehicle_type_id":"4","last_reported":1701065406,"current_range_meters":30400,"station_id":"ce4bh312rcd13ifvqdk0","pricing_plan_id":"free"},{"bike_id":"f0ea144a-85a7-413b-83b7-ddbe302b8797","system_id":"levelo_inurba_marseille","lat":43.292724,"lon":5.401131,"is_reserved":false,"is_disabled":false,"rental_uris":{"android":"levelo://app?vid=f0ea144a-85a7-413b-83b7-ddbe302b8797","ios":"levelo://app?vid=f0ea144a-85a7-413b-83b7-ddbe302b8797"},"vehicle_type_id":"4","last_reported":1701065406,"current_range_meters":29600,"station_id":"ce4bh312rcd13ifvqdk0","pricing_plan_id":"free"},{"bike_id":"00584029-8953-4993-b331-cbca650b790e","system_id":"levelo_inurba_marseille","lat":43.282732,"lon":5.350759,"is_reserved":false,"is_disabled":false,"rental_uris":{"android":"levelo://app?vid=00584029-8953-4993-b331-cbca650b790e","ios":"levelo://app?vid=00584029-8953-4993-b331-cbca650b790e"},"vehicle_type_id":"4","last_reported":1701065406,"current_range_meters":20800,"station_id":"ce4bhbp2rcd13ifvqerg","pricing_plan_id":"free"},{"bike_id":"b3f5de32-7144-465c-a23d-20d488dc562d","system_id":"levelo_inurba_marseille","lat":43.282705,"lon":5.35075,"is_reserved":false,"is_disabled":false,"rental_uris":{"android":"levelo://app?vid=b3f5de32-7144-465c-a23d-20d488dc562d","ios":"levelo://app?vid=b3f5de32-7144-465c-a23d-20d488dc562d"},"vehicle_type_id":"4","last_reported":1701065406,"current_range_meters":24800,"station_id":"ce4bhbp2rcd13ifvqerg","pricing_plan_id":"free"},{"bike_id":"2b8b4312-9908-4d24-9a48-03f8ae87c750","system_id":"levelo_inurba_marseille","lat":43.282754,"lon":5.350519,"is_reserved":false,"is_disabled":false,"rental_uris":{"android":"levelo://app?vid=2b8b4312-9908-4d24-9a48-03f8ae87c750","ios":"levelo://app?vid=2b8b4312-9908-4d24-9a48-03f8ae87c750"},"vehicle_type_id":"4","last_reported":1701065406,"current_range_meters":28800,"station_id":"ce4bhbp2rcd13ifvqerg","pricing_plan_id":"free"},{"bike_id":"b79fcaa7-c964-4223-9658-a23ecbc4d3b4","system_id":"levelo_inurba_marseille","lat":43.28266,"lon":5.35084,"is_reserved":false,"is_disabled":false,"rental_uris":{"android":"levelo://app?vid=b79fcaa7-c964-4223-9658-a23ecbc4d3b4","ios":"levelo://app?vid=b79fcaa7-c964-4223-9658-a23ecbc4d3b4"},"vehicle_type_id":"4","last_reported":1701065406,"current_range_meters":30000,"station_id":"ce4bhbp2rcd13ifvqerg","pricing_plan_id":"free"},{"bike_id":"0e81f73b-0d7a-48f3-8b31-863970ac5987","system_id":"levelo_inurba_marseille","lat":43.283502,"lon":5.386471,"is_reserved":false,"is_disabled":false,"rental_uris":{"android":"levelo://app?vid=0e81f73b-0d7a-48f3-8b31-863970ac5987","ios":"levelo://app?vid=0e81f73b-0d7a-48f3-8b31-863970ac5987"},"vehicle_type_id":"4","last_reported":1701065406,"current_range_meters":31200,"station_id":"ce4bh492rcd13ifvqdvg","pricing_plan_id":"free"},{"bike_id":"77e2e818-f7b1-4cb5-8029-fbcbcafefa21","system_id":"levelo_inurba_marseille","lat":43.282744,"lon":5.350533,"is_reserved":false,"is_disabled":false,"rental_uris":{"android":"levelo://app?vid=77e2e818-f7b1-4cb5-8029-fbcbcafefa21","ios":"levelo://app?vid=77e2e818-f7b1-4cb5-8029-fbcbcafefa21"},"vehicle_type_id":"4","last_reported":1701065406,"current_range_meters":31200,"station_id":"ce4bhbp2rcd13ifvqerg","pricing_plan_id":"free"},{"bike_id":"bac6088f-6bc3-42d3-8bba-42726760c5cd","system_id":"levelo_inurba_marseille","lat":43.282754,"lon":5.350519,"is_reserved":false,"is_disabled":false,"rental_uris":{"android":"levelo://app?vid=bac6088f-6bc3-42d3-8bba-42726760c5cd","ios":"levelo://app?vid=bac6088f-6bc3-42d3-8bba-42726760c5cd"},"vehicle_type_id":"4","last_reported":1701065406,"current_range_meters":30800,"station_id":"ce4bhbp2rcd13ifvqerg","pricing_plan_id":"free"},{"bike_id":"3832996c-a116-436b-9a23-cc6f1fe3343a","system_id":"levelo_inurba_marseille","lat":43.283502,"lon":5.386471,"is_reserved":false,"is_disabled":false,"rental_uris":{"android":"levelo://app?vid=3832996c-a116-436b-9a23-cc6f1fe3343a","ios":"levelo://app?vid=3832996c-a116-436b-9a23-cc6f1fe3343a"},"vehicle_type_id":"4","last_reported":1701065406,"current_range_meters":24400,"station_id":"ce4bh492rcd13ifvqdvg","pricing_plan_id":"free"},{"bike_id":"6b0f7bb4-d7c0-4aec-9bc1-3e53a2e8a5bd","system_id":"levelo_inurba_marseille","lat":43.282744,"lon":5.350533,"is_reserved":false,"is_disabled":false,"rental_uris":{"android":"levelo://app?vid=6b0f7bb4-d7c0-4aec-9bc1-3e53a2e8a5bd","ios":"levelo://app?vid=6b0f7bb4-d7c0-4aec-9bc1-3e53a2e8a5bd"},"vehicle_type_id":"4","last_reported":1701065406,"current_range_meters":30800,"station_id":"ce4bhbp2rcd13ifvqerg","pricing_plan_id":"free"},{"bike_id":"0643b355-5c01-4036-a74d-b0bcd1a9f51f","system_id":"levelo_inurba_marseille","lat":43.282754,"lon":5.350519,"is_reserved":false,"is_disabled":false,"rental_uris":{"android":"levelo://app?vid=0643b355-5c01-4036-a74d-b0bcd1a9f51f","ios":"levelo://app?vid=0643b355-5c01-4036-a74d-b0bcd1a9f51f"},"vehicle_type_id":"4","last_reported":1701065406,"current_range_meters":30400,"station_id":"ce4bhbp2rcd13ifvqerg","pricing_plan_id":"free"},{"bike_id":"bd965618-76dd-4142-8f38-ac650bb39851","system_id":"levelo_inurba_marseille","lat":43.283502,"lon":5.386471,"is_reserved":false,"is_disabled":false,"rental_uris":{"android":"levelo://app?vid=bd965618-76dd-4142-8f38-ac650bb39851","ios":"levelo://app?vid=bd965618-76dd-4142-8f38-ac650bb39851"},"vehicle_type_id":"4","last_reported":1701065406,"current_range_meters":28800,"station_id":"ce4bh492rcd13ifvqdvg","pricing_plan_id":"free"},{"bike_id":"12a5dc61-7f08-4f39-9331-f646ff1205fa","system_id":"levelo_inurba_marseille","lat":43.283547,"lon":5.38642,"is_reserved":false,"is_disabled":false,"rental_uris":{"android":"levelo://app?vid=12a5dc61-7f08-4f39-9331-f646ff1205fa","ios":"levelo://app?vid=12a5dc61-7f08-4f39-9331-f646ff1205fa"},"vehicle_type_id":"4","last_reported":1701065406,"current_range_meters":30400,"station_id":"ce4bh492rcd13ifvqdvg","pricing_plan_id":"free"},{"bike_id":"59774753-ee6f-4231-9434-3d844a52292e","system_id":"levelo_inurba_marseille","lat":43.280382,"lon":5.369291,"is_reserved":false,"is_disabled":false,"rental_uris":{"android":"levelo://app?vid=59774753-ee6f-4231-9434-3d844a52292e","ios":"levelo://app?vid=59774753-ee6f-4231-9434-3d844a52292e"},"vehicle_type_id":"4","last_reported":1701065406,"current_range_meters":31600,"station_id":"ce4bha12rcd13ifvqef0","pricing_plan_id":"free"},{"bike_id":"14b0ec36-c292-4b73-a33a-e41ce3fcf2b1","system_id":"levelo_inurba_marseille","lat":43.280382,"lon":5.369291,"is_reserved":false,"is_disabled":false,"rental_uris":{"android":"levelo://app?vid=14b0ec36-c292-4b73-a33a-e41ce3fcf2b1","ios":"levelo://app?vid=14b0ec36-c292-4b73-a33a-e41ce3fcf2b1"},"vehicle_type_id":"4","last_reported":1701065406,"current_range_meters":10000,"station_id":"ce4bha12rcd13ifvqef0","pricing_plan_id":"free"},{"bike_id":"840401f9-55c0-4bde-8444-184748ef16ff","system_id":"levelo_inurba_marseille","lat":43.290334,"lon":5.399586,"is_reserved":false,"is_disabled":false,"rental_uris":{"android":"levelo://app?vid=840401f9-55c0-4bde-8444-184748ef16ff","ios":"levelo://app?vid=840401f9-55c0-4bde-8444-184748ef16ff"},"vehicle_type_id":"4","last_reported":1701065406,"current_range_meters":20800,"station_id":"","pricing_plan_id":"free"},{"bike_id":"0e807ab9-996f-43fb-a980-786a91f63f39","system_id":"levelo_inurba_marseille","lat":43.290387,"lon":5.399678,"is_reserved":false,"is_disabled":false,"rental_uris":{"android":"levelo://app?vid=0e807ab9-996f-43fb-a980-786a91f63f39","ios":"levelo://app?vid=0e807ab9-996f-43fb-a980-786a91f63f39"},"vehicle_type_id":"4","last_reported":1701065406,"current_range_meters":21200,"station_id":"ce4bh392rcd13ifvqdm0","pricing_plan_id":"free"},{"bike_id":"afaa3978-337d-42bd-ac29-778f821e7594","system_id":"levelo_inurba_marseille","lat":43.29037,"lon":5.399755,"is_reserved":false,"is_disabled":false,"rental_uris":{"android":"levelo://app?vid=afaa3978-337d-42bd-ac29-778f821e7594","ios":"levelo://app?vid=afaa3978-337d-42bd-ac29-778f821e7594"},"vehicle_type_id":"4","last_reported":1701065406,"current_range_meters":0,"station_id":"ce4bh392rcd13ifvqdm0","pricing_plan_id":"free"},{"bike_id":"eac18d60-16ca-4394-ba55-e719355b5ec9","system_id":"levelo_inurba_marseille","lat":43.296263,"lon":5.40601,"is_reserved":false,"is_disabled":false,"rental_uris":{"android":"levelo://app?vid=eac18d60-16ca-4394-ba55-e719355b5ec9","ios":"levelo://app?vid=eac18d60-16ca-4394-ba55-e719355b5ec9"},"vehicle_type_id":"4","last_reported":1701065406,"current_range_meters":30800,"station_id":"ce4bh0h2rcd13ifvqd60","pricing_plan_id":"free"},{"bike_id":"ce875aa2-69c8-4bcd-8c20-7d4c40513eba","system_id":"levelo_inurba_marseille","lat":43.296263,"lon":5.40601,"is_reserved":false,"is_disabled":false,"rental_uris":{"android":"levelo://app?vid=ce875aa2-69c8-4bcd-8c20-7d4c40513eba","ios":"levelo://app?vid=ce875aa2-69c8-4bcd-8c20-7d4c40513eba"},"vehicle_type_id":"4","last_reported":1701065406,"current_range_meters":23600,"station_id":"ce4bh0h2rcd13ifvqd60","pricing_plan_id":"free"},{"bike_id":"064cf4cb-d40a-47a3-bb84-802c2defe67c","system_id":"levelo_inurba_marseille","lat":43.304188,"lon":5.412904,"is_reserved":false,"is_disabled":false,"rental_uris":{"android":"levelo://app?vid=064cf4cb-d40a-47a3-bb84-802c2defe67c","ios":"levelo://app?vid=064cf4cb-d40a-47a3-bb84-802c2defe67c"},"vehicle_type_id":"4","last_reported":1701065406,"current_range_meters":26800,"station_id":"ce4bhop2rcd13ifvqh8g","pricing_plan_id":"free"},{"bike_id":"4eafc249-a85d-4181-aeba-e8fcc9e94f4e","system_id":"levelo_inurba_marseille","lat":43.279087,"lon":5.380114,"is_reserved":false,"is_disabled":false,"rental_uris":{"android":"levelo://app?vid=4eafc249-a85d-4181-aeba-e8fcc9e94f4e","ios":"levelo://app?vid=4eafc249-a85d-4181-aeba-e8fcc9e94f4e"},"vehicle_type_id":"4","last_reported":1701065406,"current_range_meters":31200,"station_id":"ce4bhf92rcd13ifvqf50","pricing_plan_id":"free"},{"bike_id":"201d98ba-3bb6-4d21-8941-b2fdd6dd910d","system_id":"levelo_inurba_marseille","lat":43.287154,"lon":5.399979,"is_reserved":false,"is_disabled":false,"rental_uris":{"android":"levelo://app?vid=201d98ba-3bb6-4d21-8941-b2fdd6dd910d","ios":"levelo://app?vid=201d98ba-3bb6-4d21-8941-b2fdd6dd910d"},"vehicle_type_id":"4","last_reported":1701065406,"current_range_meters":21200,"station_id":"ce4bho92rcd13ifvqh3g","pricing_plan_id":"free"},{"bike_id":"4f12c378-3fab-4efd-b4d4-e93960d35c22","system_id":"levelo_inurba_marseille","lat":43.287154,"lon":5.399979,"is_reserved":false,"is_disabled":false,"rental_uris":{"android":"levelo://app?vid=4f12c378-3fab-4efd-b4d4-e93960d35c22","ios":"levelo://app?vid=4f12c378-3fab-4efd-b4d4-e93960d35c22"},"vehicle_type_id":"4","last_reported":1701065406,"current_range_meters":12800,"station_id":"ce4bho92rcd13ifvqh3g","pricing_plan_id":"free"},{"bike_id":"c103b530-9c6d-4ac7-adf6-4ae019cb5aa9","system_id":"levelo_inurba_marseille","lat":43.299579,"lon":5.413255,"is_reserved":false,"is_disabled":false,"rental_uris":{"android":"levelo://app?vid=c103b530-9c6d-4ac7-adf6-4ae019cb5aa9","ios":"levelo://app?vid=c103b530-9c6d-4ac7-adf6-4ae019cb5aa9"},"vehicle_type_id":"4","last_reported":1701065406,"current_range_meters":30000,"station_id":"ce4bhp12rcd13ifvqh9g","pricing_plan_id":"free"},{"bike_id":"d4117923-4cca-4f9f-a766-b339080538a9","system_id":"levelo_inurba_marseille","lat":43.320045,"lon":5.415046,"is_reserved":false,"is_disabled":false,"rental_uris":{"android":"levelo://app?vid=d4117923-4cca-4f9f-a766-b339080538a9","ios":"levelo://app?vid=d4117923-4cca-4f9f-a766-b339080538a9"},"vehicle_type_id":"4","last_reported":1701065406,"current_range_meters":30000,"station_id":"ce4bhq92rcd13ifvqhkg","pricing_plan_id":"free"},{"bike_id":"e66a2f4a-aace-4ca0-87b3-961810fb168f","system_id":"levelo_inurba_marseille","lat":43.320045,"lon":5.415048,"is_reserved":false,"is_disabled":false,"rental_uris":{"android":"levelo://app?vid=e66a2f4a-aace-4ca0-87b3-961810fb168f","ios":"levelo://app?vid=e66a2f4a-aace-4ca0-87b3-961810fb168f"},"vehicle_type_id":"4","last_reported":1701065406,"current_range_meters":29600,"station_id":"ce4bhq92rcd13ifvqhkg","pricing_plan_id":"free"},{"bike_id":"2549ae3c-fc70-4418-bc97-b81c544b207e","system_id":"levelo_inurba_marseille","lat":43.27964,"lon":5.38751,"is_reserved":false,"is_disabled":false,"rental_uris":{"android":"levelo://app?vid=2549ae3c-fc70-4418-bc97-b81c544b207e","ios":"levelo://app?vid=2549ae3c-fc70-4418-bc97-b81c544b207e"},"vehicle_type_id":"4","last_reported":1701065406,"current_range_meters":29600,"station_id":"ce4bhg12rcd13ifvqf80","pricing_plan_id":"free"},{"bike_id":"6526cad1-2f4b-4db1-8d6b-ce04bc407b31","system_id":"levelo_inurba_marseille","lat":43.34883,"lon":5.37501,"is_reserved":false,"is_disabled":false,"rental_uris":{"android":"levelo://app?vid=6526cad1-2f4b-4db1-8d6b-ce04bc407b31","ios":"levelo://app?vid=6526cad1-2f4b-4db1-8d6b-ce04bc407b31"},"vehicle_type_id":"4","last_reported":1701065406,"current_range_meters":0,"station_id":"","pricing_plan_id":"free"},{"bike_id":"fefec210-82a8-4785-9c98-99a869455ba4","system_id":"levelo_inurba_marseille","lat":43.29256,"lon":5.40904,"is_reserved":false,"is_disabled":false,"rental_uris":{"android":"levelo://app?vid=fefec210-82a8-4785-9c98-99a869455ba4","ios":"levelo://app?vid=fefec210-82a8-4785-9c98-99a869455ba4"},"vehicle_type_id":"4","last_reported":1701065406,"current_range_meters":30800,"station_id":"ce4bh192rcd13ifvqdc0","pricing_plan_id":"free"},{"bike_id":"ea97ff8c-669e-4c95-8b1d-a9d6b5aa2231","system_id":"levelo_inurba_marseille","lat":43.27619,"lon":5.36116,"is_reserved":false,"is_disabled":false,"rental_uris":{"android":"levelo://app?vid=ea97ff8c-669e-4c95-8b1d-a9d6b5aa2231","ios":"levelo://app?vid=ea97ff8c-669e-4c95-8b1d-a9d6b5aa2231"},"vehicle_type_id":"4","last_reported":1701065406,"current_range_meters":30400,"station_id":"ce4bgj92rcd13ifvqbe0","pricing_plan_id":"free"},{"bike_id":"dc5d04d2-2b09-4dea-8be4-a32c69f01655","system_id":"levelo_inurba_marseille","lat":43.276179,"lon":5.361009,"is_reserved":false,"is_disabled":false,"rental_uris":{"android":"levelo://app?vid=dc5d04d2-2b09-4dea-8be4-a32c69f01655","ios":"levelo://app?vid=dc5d04d2-2b09-4dea-8be4-a32c69f01655"},"vehicle_type_id":"4","last_reported":1701065406,"current_range_meters":31200,"station_id":"ce4bgj92rcd13ifvqbe0","pricing_plan_id":"free"},{"bike_id":"7b3f2857-4020-4e9a-9572-5065d96ebff7","system_id":"levelo_inurba_marseille","lat":43.276154,"lon":5.361076,"is_reserved":false,"is_disabled":false,"rental_uris":{"android":"levelo://app?vid=7b3f2857-4020-4e9a-9572-5065d96ebff7","ios":"levelo://app?vid=7b3f2857-4020-4e9a-9572-5065d96ebff7"},"vehicle_type_id":"4","last_reported":1701065406,"current_range_meters":21200,"station_id":"ce4bgj92rcd13ifvqbe0","pricing_plan_id":"free"},{"bike_id":"d7d5ad38-a706-46bf-a9f7-837653392e36","system_id":"levelo_inurba_marseille","lat":43.30355,"lon":5.41873,"is_reserved":false,"is_disabled":false,"rental_uris":{"android":"levelo://app?vid=d7d5ad38-a706-46bf-a9f7-837653392e36","ios":"levelo://app?vid=d7d5ad38-a706-46bf-a9f7-837653392e36"},"vehicle_type_id":"4","last_reported":1701065406,"current_range_meters":13600,"station_id":"ce4bhop2rcd13ifvqh7g","pricing_plan_id":"free"},{"bike_id":"5ee57155-df57-4962-9544-56ad6c09b1e3","system_id":"levelo_inurba_marseille","lat":43.30352,"lon":5.418735,"is_reserved":false,"is_disabled":false,"rental_uris":{"android":"levelo://app?vid=5ee57155-df57-4962-9544-56ad6c09b1e3","ios":"levelo://app?vid=5ee57155-df57-4962-9544-56ad6c09b1e3"},"vehicle_type_id":"4","last_reported":1701065406,"current_range_meters":24400,"station_id":"ce4bhop2rcd13ifvqh7g","pricing_plan_id":"free"},{"bike_id":"b0ed4a91-f4d2-43e8-b684-e4e09d3127b8","system_id":"levelo_inurba_marseille","lat":43.30355,"lon":5.41881,"is_reserved":false,"is_disabled":false,"rental_uris":{"android":"levelo://app?vid=b0ed4a91-f4d2-43e8-b684-e4e09d3127b8","ios":"levelo://app?vid=b0ed4a91-f4d2-43e8-b684-e4e09d3127b8"},"vehicle_type_id":"4","last_reported":1701065406,"current_range_meters":31200,"station_id":"","pricing_plan_id":"free"},{"bike_id":"df25246b-4673-45b3-9a51-f849605bad31","system_id":"levelo_inurba_marseille","lat":43.278399,"lon":5.392139,"is_reserved":false,"is_disabled":false,"rental_uris":{"android":"levelo://app?vid=df25246b-4673-45b3-9a51-f849605bad31","ios":"levelo://app?vid=df25246b-4673-45b3-9a51-f849605bad31"},"vehicle_type_id":"4","last_reported":1701065406,"current_range_meters":24400,"station_id":"ce4bhjp2rcd13ifvqga0","pricing_plan_id":"free"},{"bike_id":"163a3bbf-9841-4611-b5f2-c1cd0264af3a","system_id":"levelo_inurba_marseille","lat":43.2738,"lon":5.36251,"is_reserved":false,"is_disabled":false,"rental_uris":{"android":"levelo://app?vid=163a3bbf-9841-4611-b5f2-c1cd0264af3a","ios":"levelo://app?vid=163a3bbf-9841-4611-b5f2-c1cd0264af3a"},"vehicle_type_id":"4","last_reported":1701065406,"current_range_meters":24400,"station_id":"ce4bhbh2rcd13ifvqeo0","pricing_plan_id":"free"},{"bike_id":"521527ea-01d1-4811-b5dc-5e57d4a26c44","system_id":"levelo_inurba_marseille","lat":43.275625,"lon":5.384392,"is_reserved":false,"is_disabled":false,"rental_uris":{"android":"levelo://app?vid=521527ea-01d1-4811-b5dc-5e57d4a26c44","ios":"levelo://app?vid=521527ea-01d1-4811-b5dc-5e57d4a26c44"},"vehicle_type_id":"4","last_reported":1701065406,"current_range_meters":29600,"station_id":"ce4bhh92rcd13ifvqfi0","pricing_plan_id":"free"},{"bike_id":"408e95d9-9aae-4cb6-b8b7-178eb062543f","system_id":"levelo_inurba_marseille","lat":43.275625,"lon":5.384392,"is_reserved":false,"is_disabled":false,"rental_uris":{"android":"levelo://app?vid=408e95d9-9aae-4cb6-b8b7-178eb062543f","ios":"levelo://app?vid=408e95d9-9aae-4cb6-b8b7-178eb062543f"},"vehicle_type_id":"4","last_reported":1701065406,"current_range_meters":24800,"station_id":"ce4bhh92rcd13ifvqfi0","pricing_plan_id":"free"},{"bike_id":"0e9d8071-a79f-4cb5-8a26-65abcc36a97f","system_id":"levelo_inurba_marseille","lat":43.276661,"lon":5.389033,"is_reserved":false,"is_disabled":false,"rental_uris":{"android":"levelo://app?vid=0e9d8071-a79f-4cb5-8a26-65abcc36a97f","ios":"levelo://app?vid=0e9d8071-a79f-4cb5-8a26-65abcc36a97f"},"vehicle_type_id":"4","last_reported":1701065406,"current_range_meters":31200,"station_id":"ce4bhi12rcd13ifvqfo0","pricing_plan_id":"free"},{"bike_id":"7299bf0e-29ca-4d07-932f-b76ad466a440","system_id":"levelo_inurba_marseille","lat":43.279952,"lon":5.400085,"is_reserved":false,"is_disabled":false,"rental_uris":{"android":"levelo://app?vid=7299bf0e-29ca-4d07-932f-b76ad466a440","ios":"levelo://app?vid=7299bf0e-29ca-4d07-932f-b76ad466a440"},"vehicle_type_id":"4","last_reported":1701065406,"current_range_meters":26000,"station_id":"ce4bho92rcd13ifvqh4g","pricing_plan_id":"free"},{"bike_id":"7424a429-0fb8-48ee-b6d6-d90c89061a07","system_id":"levelo_inurba_marseille","lat":43.31084,"lon":5.424278,"is_reserved":false,"is_disabled":false,"rental_uris":{"android":"levelo://app?vid=7424a429-0fb8-48ee-b6d6-d90c89061a07","ios":"levelo://app?vid=7424a429-0fb8-48ee-b6d6-d90c89061a07"},"vehicle_type_id":"4","last_reported":1701065406,"current_range_meters":25600,"station_id":"ce4bhp92rcd13ifvqhag","pricing_plan_id":"free"},{"bike_id":"8eb5bdb0-5c9b-4999-93c3-a1a499ccf536","system_id":"levelo_inurba_marseille","lat":43.310809,"lon":5.42428,"is_reserved":false,"is_disabled":false,"rental_uris":{"android":"levelo://app?vid=8eb5bdb0-5c9b-4999-93c3-a1a499ccf536","ios":"levelo://app?vid=8eb5bdb0-5c9b-4999-93c3-a1a499ccf536"},"vehicle_type_id":"4","last_reported":1701065406,"current_range_meters":28400,"station_id":"ce4bhp92rcd13ifvqhag","pricing_plan_id":"free"},{"bike_id":"2bac63be-2248-4f83-9913-6fa6e719b914","system_id":"levelo_inurba_marseille","lat":43.31085,"lon":5.424292,"is_reserved":false,"is_disabled":false,"rental_uris":{"android":"levelo://app?vid=2bac63be-2248-4f83-9913-6fa6e719b914","ios":"levelo://app?vid=2bac63be-2248-4f83-9913-6fa6e719b914"},"vehicle_type_id":"4","last_reported":1701065406,"current_range_meters":30000,"station_id":"ce4bhp92rcd13ifvqhag","pricing_plan_id":"free"},{"bike_id":"9c647ef0-289b-43e9-9a52-dd600c269787","system_id":"levelo_inurba_marseille","lat":43.310799,"lon":5.424326,"is_reserved":false,"is_disabled":false,"rental_uris":{"android":"levelo://app?vid=9c647ef0-289b-43e9-9a52-dd600c269787","ios":"levelo://app?vid=9c647ef0-289b-43e9-9a52-dd600c269787"},"vehicle_type_id":"4","last_reported":1701065406,"current_range_meters":16400,"station_id":"ce4bhp92rcd13ifvqhag","pricing_plan_id":"free"},{"bike_id":"41dcae60-2c28-4a0f-83a9-e8df85c25bef","system_id":"levelo_inurba_marseille","lat":43.340804,"lon":5.410219,"is_reserved":false,"is_disabled":false,"rental_uris":{"android":"levelo://app?vid=41dcae60-2c28-4a0f-83a9-e8df85c25bef","ios":"levelo://app?vid=41dcae60-2c28-4a0f-83a9-e8df85c25bef"},"vehicle_type_id":"4","last_reported":1701065406,"current_range_meters":28000,"station_id":"ce4bhqh2rcd13ifvqhlg","pricing_plan_id":"free"},{"bike_id":"956ba346-5ecd-400b-a5ec-d1812886f5f5","system_id":"levelo_inurba_marseille","lat":43.340804,"lon":5.410219,"is_reserved":false,"is_disabled":false,"rental_uris":{"android":"levelo://app?vid=956ba346-5ecd-400b-a5ec-d1812886f5f5","ios":"levelo://app?vid=956ba346-5ecd-400b-a5ec-d1812886f5f5"},"vehicle_type_id":"4","last_reported":1701065406,"current_range_meters":30400,"station_id":"ce4bhqh2rcd13ifvqhlg","pricing_plan_id":"free"},{"bike_id":"8ef87ac3-8a0d-4ac6-80c0-266e2621bf7f","system_id":"levelo_inurba_marseille","lat":43.27605,"lon":5.39488,"is_reserved":false,"is_disabled":false,"rental_uris":{"android":"levelo://app?vid=8ef87ac3-8a0d-4ac6-80c0-266e2621bf7f","ios":"levelo://app?vid=8ef87ac3-8a0d-4ac6-80c0-266e2621bf7f"},"vehicle_type_id":"4","last_reported":1701065406,"current_range_meters":0,"station_id":"","pricing_plan_id":"free"},{"bike_id":"4fae8898-fda1-4fdc-93bf-566c836279a7","system_id":"levelo_inurba_marseille","lat":43.2732,"lon":5.391165,"is_reserved":false,"is_disabled":false,"rental_uris":{"android":"levelo://app?vid=4fae8898-fda1-4fdc-93bf-566c836279a7","ios":"levelo://app?vid=4fae8898-fda1-4fdc-93bf-566c836279a7"},"vehicle_type_id":"4","last_reported":1701065406,"current_range_meters":30000,"station_id":"ce4bhgp2rcd13ifvqfe0","pricing_plan_id":"free"},{"bike_id":"35b076db-3699-4bd7-b6a4-71a59162fbdf","system_id":"levelo_inurba_marseille","lat":43.273129,"lon":5.390725,"is_reserved":false,"is_disabled":false,"rental_uris":{"android":"levelo://app?vid=35b076db-3699-4bd7-b6a4-71a59162fbdf","ios":"levelo://app?vid=35b076db-3699-4bd7-b6a4-71a59162fbdf"},"vehicle_type_id":"4","last_reported":1701065406,"current_range_meters":27200,"station_id":"ce4bhgp2rcd13ifvqfe0","pricing_plan_id":"free"},{"bike_id":"f33d6367-f605-4a44-999a-1a849156ae20","system_id":"levelo_inurba_marseille","lat":43.273129,"lon":5.390725,"is_reserved":false,"is_disabled":false,"rental_uris":{"android":"levelo://app?vid=f33d6367-f605-4a44-999a-1a849156ae20","ios":"levelo://app?vid=f33d6367-f605-4a44-999a-1a849156ae20"},"vehicle_type_id":"4","last_reported":1701065406,"current_range_meters":21600,"station_id":"ce4bhgp2rcd13ifvqfe0","pricing_plan_id":"free"},{"bike_id":"080f1ee0-b1fe-419a-beca-238a5bb218f1","system_id":"levelo_inurba_marseille","lat":43.273129,"lon":5.390725,"is_reserved":false,"is_disabled":false,"rental_uris":{"android":"levelo://app?vid=080f1ee0-b1fe-419a-beca-238a5bb218f1","ios":"levelo://app?vid=080f1ee0-b1fe-419a-beca-238a5bb218f1"},"vehicle_type_id":"4","last_reported":1701065406,"current_range_meters":30400,"station_id":"ce4bhgp2rcd13ifvqfe0","pricing_plan_id":"free"},{"bike_id":"3029bb9c-a722-4a0b-80d7-eaec226f56af","system_id":"levelo_inurba_marseille","lat":43.295511,"lon":5.422926,"is_reserved":false,"is_disabled":false,"rental_uris":{"android":"levelo://app?vid=3029bb9c-a722-4a0b-80d7-eaec226f56af","ios":"levelo://app?vid=3029bb9c-a722-4a0b-80d7-eaec226f56af"},"vehicle_type_id":"4","last_reported":1701065406,"current_range_meters":23200,"station_id":"ce4bhph2rcd13ifvqhdg","pricing_plan_id":"free"},{"bike_id":"487e8935-2222-4e65-8507-6d483307a42a","system_id":"levelo_inurba_marseille","lat":43.295511,"lon":5.422926,"is_reserved":false,"is_disabled":false,"rental_uris":{"android":"levelo://app?vid=487e8935-2222-4e65-8507-6d483307a42a","ios":"levelo://app?vid=487e8935-2222-4e65-8507-6d483307a42a"},"vehicle_type_id":"4","last_reported":1701065406,"current_range_meters":31200,"station_id":"ce4bhph2rcd13ifvqhdg","pricing_plan_id":"free"},{"bike_id":"dceecb1f-2649-4266-bd91-57eef51a007f","system_id":"levelo_inurba_marseille","lat":43.272124,"lon":5.391768,"is_reserved":false,"is_disabled":false,"rental_uris":{"android":"levelo://app?vid=dceecb1f-2649-4266-bd91-57eef51a007f","ios":"levelo://app?vid=dceecb1f-2649-4266-bd91-57eef51a007f"},"vehicle_type_id":"4","last_reported":1701065406,"current_range_meters":26400,"station_id":"ce4bhhp2rcd13ifvqfm0","pricing_plan_id":"free"},{"bike_id":"f0da382f-3a65-4ee6-b325-6531e6c036fe","system_id":"levelo_inurba_marseille","lat":43.272124,"lon":5.391768,"is_reserved":false,"is_disabled":false,"rental_uris":{"android":"levelo://app?vid=f0da382f-3a65-4ee6-b325-6531e6c036fe","ios":"levelo://app?vid=f0da382f-3a65-4ee6-b325-6531e6c036fe"},"vehicle_type_id":"4","last_reported":1701065406,"current_range_meters":31200,"station_id":"ce4bhhp2rcd13ifvqfm0","pricing_plan_id":"free"},{"bike_id":"11c530ef-3a1e-4341-9786-f43509d01bc1","system_id":"levelo_inurba_marseille","lat":43.299319,"lon":5.42563,"is_reserved":false,"is_disabled":false,"rental_uris":{"android":"levelo://app?vid=11c530ef-3a1e-4341-9786-f43509d01bc1","ios":"levelo://app?vid=11c530ef-3a1e-4341-9786-f43509d01bc1"},"vehicle_type_id":"4","last_reported":1701065406,"current_range_meters":800,"station_id":"","pricing_plan_id":"free"},{"bike_id":"0d37c74b-b317-4b8b-9dae-c96829bfd787","system_id":"levelo_inurba_marseille","lat":43.278128,"lon":5.407195,"is_reserved":false,"is_disabled":false,"rental_uris":{"android":"levelo://app?vid=0d37c74b-b317-4b8b-9dae-c96829bfd787","ios":"levelo://app?vid=0d37c74b-b317-4b8b-9dae-c96829bfd787"},"vehicle_type_id":"4","last_reported":1701065406,"current_range_meters":25600,"station_id":"ce4bhnh2rcd13ifvqgtg","pricing_plan_id":"free"},{"bike_id":"1752b427-aa23-4f65-b55f-52549321d6a0","system_id":"levelo_inurba_marseille","lat":43.278128,"lon":5.407195,"is_reserved":false,"is_disabled":false,"rental_uris":{"android":"levelo://app?vid=1752b427-aa23-4f65-b55f-52549321d6a0","ios":"levelo://app?vid=1752b427-aa23-4f65-b55f-52549321d6a0"},"vehicle_type_id":"4","last_reported":1701065406,"current_range_meters":30000,"station_id":"ce4bhnh2rcd13ifvqgtg","pricing_plan_id":"free"},{"bike_id":"c704e5d9-e85e-418c-86bf-41fba84b5087","system_id":"levelo_inurba_marseille","lat":43.278128,"lon":5.407195,"is_reserved":false,"is_disabled":false,"rental_uris":{"android":"levelo://app?vid=c704e5d9-e85e-418c-86bf-41fba84b5087","ios":"levelo://app?vid=c704e5d9-e85e-418c-86bf-41fba84b5087"},"vehicle_type_id":"4","last_reported":1701065406,"current_range_meters":30000,"station_id":"ce4bhnh2rcd13ifvqgtg","pricing_plan_id":"free"},{"bike_id":"c0aad585-780c-4648-a646-d2c46c2ec5e5","system_id":"levelo_inurba_marseille","lat":43.269467,"lon":5.386439,"is_reserved":false,"is_disabled":false,"rental_uris":{"android":"levelo://app?vid=c0aad585-780c-4648-a646-d2c46c2ec5e5","ios":"levelo://app?vid=c0aad585-780c-4648-a646-d2c46c2ec5e5"},"vehicle_type_id":"4","last_reported":1701065406,"current_range_meters":20000,"station_id":"ce4bhh92rcd13ifvqfh0","pricing_plan_id":"free"},{"bike_id":"7d32123f-0f2a-40a0-9f54-d34d85af9911","system_id":"levelo_inurba_marseille","lat":43.279493,"lon":5.410362,"is_reserved":false,"is_disabled":false,"rental_uris":{"android":"levelo://app?vid=7d32123f-0f2a-40a0-9f54-d34d85af9911","ios":"levelo://app?vid=7d32123f-0f2a-40a0-9f54-d34d85af9911"},"vehicle_type_id":"4","last_reported":1701065406,"current_range_meters":30800,"station_id":"ce4bhnp2rcd13ifvqh0g","pricing_plan_id":"free"},{"bike_id":"f3ec215e-f334-4077-a0c0-e1f91072683e","system_id":"levelo_inurba_marseille","lat":43.279477,"lon":5.410436,"is_reserved":false,"is_disabled":false,"rental_uris":{"android":"levelo://app?vid=f3ec215e-f334-4077-a0c0-e1f91072683e","ios":"levelo://app?vid=f3ec215e-f334-4077-a0c0-e1f91072683e"},"vehicle_type_id":"4","last_reported":1701065406,"current_range_meters":31200,"station_id":"ce4bhnp2rcd13ifvqh0g","pricing_plan_id":"free"},{"bike_id":"c4b5f840-54cd-4b74-8f00-741178b7e63a","system_id":"levelo_inurba_marseille","lat":43.279462,"lon":5.410424,"is_reserved":false,"is_disabled":false,"rental_uris":{"android":"levelo://app?vid=c4b5f840-54cd-4b74-8f00-741178b7e63a","ios":"levelo://app?vid=c4b5f840-54cd-4b74-8f00-741178b7e63a"},"vehicle_type_id":"4","last_reported":1701065406,"current_range_meters":30800,"station_id":"ce4bhnp2rcd13ifvqh0g","pricing_plan_id":"free"},{"bike_id":"3105b523-65b7-4bb3-a575-26e068a7e940","system_id":"levelo_inurba_marseille","lat":43.279424,"lon":5.410411,"is_reserved":false,"is_disabled":false,"rental_uris":{"android":"levelo://app?vid=3105b523-65b7-4bb3-a575-26e068a7e940","ios":"levelo://app?vid=3105b523-65b7-4bb3-a575-26e068a7e940"},"vehicle_type_id":"4","last_reported":1701065406,"current_range_meters":31200,"station_id":"ce4bhnp2rcd13ifvqh0g","pricing_plan_id":"free"},{"bike_id":"f23d8119-b478-4639-98c5-6883279f9f84","system_id":"levelo_inurba_marseille","lat":43.32592,"lon":5.43067,"is_reserved":false,"is_disabled":false,"rental_uris":{"android":"levelo://app?vid=f23d8119-b478-4639-98c5-6883279f9f84","ios":"levelo://app?vid=f23d8119-b478-4639-98c5-6883279f9f84"},"vehicle_type_id":"4","last_reported":1701065406,"current_range_meters":20000,"station_id":"","pricing_plan_id":"free"},{"bike_id":"ed30d6a1-b23a-49e5-9c83-5546be72a734","system_id":"levelo_inurba_marseille","lat":43.3259,"lon":5.43075,"is_reserved":false,"is_disabled":false,"rental_uris":{"android":"levelo://app?vid=ed30d6a1-b23a-49e5-9c83-5546be72a734","ios":"levelo://app?vid=ed30d6a1-b23a-49e5-9c83-5546be72a734"},"vehicle_type_id":"4","last_reported":1701065406,"current_range_meters":14800,"station_id":"","pricing_plan_id":"free"},{"bike_id":"d67469ee-5362-4610-a163-fe05ae3cf4f7","system_id":"levelo_inurba_marseille","lat":43.32604,"lon":5.430817,"is_reserved":false,"is_disabled":false,"rental_uris":{"android":"levelo://app?vid=d67469ee-5362-4610-a163-fe05ae3cf4f7","ios":"levelo://app?vid=d67469ee-5362-4610-a163-fe05ae3cf4f7"},"vehicle_type_id":"4","last_reported":1701065406,"current_range_meters":3200,"station_id":"","pricing_plan_id":"free"},{"bike_id":"0921b03f-27ff-4fe8-bdad-8bda3f689d07","system_id":"levelo_inurba_marseille","lat":43.28003,"lon":5.41657,"is_reserved":false,"is_disabled":false,"rental_uris":{"android":"levelo://app?vid=0921b03f-27ff-4fe8-bdad-8bda3f689d07","ios":"levelo://app?vid=0921b03f-27ff-4fe8-bdad-8bda3f689d07"},"vehicle_type_id":"4","last_reported":1701065406,"current_range_meters":20400,"station_id":"ce4bho12rcd13ifvqh1g","pricing_plan_id":"free"},{"bike_id":"56fd5872-e3c1-45ef-aa2a-fc8d7c3f59df","system_id":"levelo_inurba_marseille","lat":43.27989,"lon":5.41659,"is_reserved":false,"is_disabled":false,"rental_uris":{"android":"levelo://app?vid=56fd5872-e3c1-45ef-aa2a-fc8d7c3f59df","ios":"levelo://app?vid=56fd5872-e3c1-45ef-aa2a-fc8d7c3f59df"},"vehicle_type_id":"4","last_reported":1701065406,"current_range_meters":29600,"station_id":"ce4bho12rcd13ifvqh1g","pricing_plan_id":"free"},{"bike_id":"f0f539f6-5a23-49d3-9fcc-82baeb873342","system_id":"levelo_inurba_marseille","lat":43.27996,"lon":5.416624,"is_reserved":false,"is_disabled":false,"rental_uris":{"android":"levelo://app?vid=f0f539f6-5a23-49d3-9fcc-82baeb873342","ios":"levelo://app?vid=f0f539f6-5a23-49d3-9fcc-82baeb873342"},"vehicle_type_id":"4","last_reported":1701065406,"current_range_meters":25600,"station_id":"ce4bho12rcd13ifvqh1g","pricing_plan_id":"free"},{"bike_id":"5d2ddb13-0b9d-43b7-87da-cbfee97ae747","system_id":"levelo_inurba_marseille","lat":43.279957,"lon":5.416693,"is_reserved":false,"is_disabled":false,"rental_uris":{"android":"levelo://app?vid=5d2ddb13-0b9d-43b7-87da-cbfee97ae747","ios":"levelo://app?vid=5d2ddb13-0b9d-43b7-87da-cbfee97ae747"},"vehicle_type_id":"4","last_reported":1701065406,"current_range_meters":31200,"station_id":"ce4bho12rcd13ifvqh1g","pricing_plan_id":"free"},{"bike_id":"de4d28fd-57f7-4f8a-b8e1-b582f6c4e453","system_id":"levelo_inurba_marseille","lat":43.26949,"lon":5.40262,"is_reserved":false,"is_disabled":false,"rental_uris":{"android":"levelo://app?vid=de4d28fd-57f7-4f8a-b8e1-b582f6c4e453","ios":"levelo://app?vid=de4d28fd-57f7-4f8a-b8e1-b582f6c4e453"},"vehicle_type_id":"4","last_reported":1701065406,"current_range_meters":23200,"station_id":"cjm6bp8fraef2m0cb0m0","pricing_plan_id":"free"},{"bike_id":"debae947-3edd-44f6-81a3-5297bb92b7ac","system_id":"levelo_inurba_marseille","lat":43.26949,"lon":5.40262,"is_reserved":false,"is_disabled":false,"rental_uris":{"android":"levelo://app?vid=debae947-3edd-44f6-81a3-5297bb92b7ac","ios":"levelo://app?vid=debae947-3edd-44f6-81a3-5297bb92b7ac"},"vehicle_type_id":"4","last_reported":1701065406,"current_range_meters":18400,"station_id":"cjm6bp8fraef2m0cb0m0","pricing_plan_id":"free"},{"bike_id":"ea936c59-3b60-4450-9e0c-fefa9fcaf0ba","system_id":"levelo_inurba_marseille","lat":43.261782,"lon":5.374515,"is_reserved":false,"is_disabled":false,"rental_uris":{"android":"levelo://app?vid=ea936c59-3b60-4450-9e0c-fefa9fcaf0ba","ios":"levelo://app?vid=ea936c59-3b60-4450-9e0c-fefa9fcaf0ba"},"vehicle_type_id":"4","last_reported":1701065406,"current_range_meters":28000,"station_id":"ce4bhgp2rcd13ifvqfc0","pricing_plan_id":"free"},{"bike_id":"10157d4f-d2f9-44a6-80b1-568063d58c65","system_id":"levelo_inurba_marseille","lat":43.26185,"lon":5.37441,"is_reserved":false,"is_disabled":false,"rental_uris":{"android":"levelo://app?vid=10157d4f-d2f9-44a6-80b1-568063d58c65","ios":"levelo://app?vid=10157d4f-d2f9-44a6-80b1-568063d58c65"},"vehicle_type_id":"4","last_reported":1701065406,"current_range_meters":31200,"station_id":"ce4bhgp2rcd13ifvqfc0","pricing_plan_id":"free"},{"bike_id":"199fc432-c004-47d5-94ed-e7650cf64526","system_id":"levelo_inurba_marseille","lat":43.31709,"lon":5.43703,"is_reserved":false,"is_disabled":false,"rental_uris":{"android":"levelo://app?vid=199fc432-c004-47d5-94ed-e7650cf64526","ios":"levelo://app?vid=199fc432-c004-47d5-94ed-e7650cf64526"},"vehicle_type_id":"4","last_reported":1701065406,"current_range_meters":20000,"station_id":"ce4bhp92rcd13ifvqhcg","pricing_plan_id":"free"},{"bike_id":"97f80185-fa05-4829-9ebf-943295623d1e","system_id":"levelo_inurba_marseille","lat":43.317104,"lon":5.436818,"is_reserved":false,"is_disabled":false,"rental_uris":{"android":"levelo://app?vid=97f80185-fa05-4829-9ebf-943295623d1e","ios":"levelo://app?vid=97f80185-fa05-4829-9ebf-943295623d1e"},"vehicle_type_id":"4","last_reported":1701065406,"current_range_meters":24000,"station_id":"ce4bhp92rcd13ifvqhcg","pricing_plan_id":"free"},{"bike_id":"cdf2c497-f033-4c0f-80f4-b4e51e4970c2","system_id":"levelo_inurba_marseille","lat":43.271781,"lon":5.409921,"is_reserved":false,"is_disabled":false,"rental_uris":{"android":"levelo://app?vid=cdf2c497-f033-4c0f-80f4-b4e51e4970c2","ios":"levelo://app?vid=cdf2c497-f033-4c0f-80f4-b4e51e4970c2"},"vehicle_type_id":"4","last_reported":1701065406,"current_range_meters":20400,"station_id":"ce4bhl12rcd13ifvqgf0","pricing_plan_id":"free"},{"bike_id":"1426b61d-5217-4b75-a9b4-4304bec2e8ef","system_id":"levelo_inurba_marseille","lat":43.271388,"lon":5.409269,"is_reserved":false,"is_disabled":false,"rental_uris":{"android":"levelo://app?vid=1426b61d-5217-4b75-a9b4-4304bec2e8ef","ios":"levelo://app?vid=1426b61d-5217-4b75-a9b4-4304bec2e8ef"},"vehicle_type_id":"4","last_reported":1701065406,"current_range_meters":30400,"station_id":"ce4bhl12rcd13ifvqgf0","pricing_plan_id":"free"},{"bike_id":"6486a652-dc78-4f86-b884-a8279240274a","system_id":"levelo_inurba_marseille","lat":43.27174,"lon":5.409928,"is_reserved":false,"is_disabled":false,"rental_uris":{"android":"levelo://app?vid=6486a652-dc78-4f86-b884-a8279240274a","ios":"levelo://app?vid=6486a652-dc78-4f86-b884-a8279240274a"},"vehicle_type_id":"4","last_reported":1701065406,"current_range_meters":9600,"station_id":"ce4bhl12rcd13ifvqgf0","pricing_plan_id":"free"},{"bike_id":"5f068fab-b1ca-45a3-b69a-4b4318ce3c20","system_id":"levelo_inurba_marseille","lat":43.268053,"lon":5.402678,"is_reserved":false,"is_disabled":false,"rental_uris":{"android":"levelo://app?vid=5f068fab-b1ca-45a3-b69a-4b4318ce3c20","ios":"levelo://app?vid=5f068fab-b1ca-45a3-b69a-4b4318ce3c20"},"vehicle_type_id":"4","last_reported":1701065406,"current_range_meters":22800,"station_id":"ce501612rcd8frsf0b60","pricing_plan_id":"free"},{"bike_id":"13efbc1c-d5e6-4098-8f82-49cd483b6f29","system_id":"levelo_inurba_marseille","lat":43.267959,"lon":5.402687,"is_reserved":false,"is_disabled":false,"rental_uris":{"android":"levelo://app?vid=13efbc1c-d5e6-4098-8f82-49cd483b6f29","ios":"levelo://app?vid=13efbc1c-d5e6-4098-8f82-49cd483b6f29"},"vehicle_type_id":"4","last_reported":1701065406,"current_range_meters":31200,"station_id":"ce501612rcd8frsf0b60","pricing_plan_id":"free"},{"bike_id":"7c5a83ac-336c-4b91-a5ea-82b3c6d6127d","system_id":"levelo_inurba_marseille","lat":43.298768,"lon":5.43643,"is_reserved":false,"is_disabled":false,"rental_uris":{"android":"levelo://app?vid=7c5a83ac-336c-4b91-a5ea-82b3c6d6127d","ios":"levelo://app?vid=7c5a83ac-336c-4b91-a5ea-82b3c6d6127d"},"vehicle_type_id":"4","last_reported":1701065406,"current_range_meters":31200,"station_id":"ce4bhpp2rcd13ifvqhfg","pricing_plan_id":"free"},{"bike_id":"9a5ca6f0-6f31-4d5e-bf3e-7f028d92f2c5","system_id":"levelo_inurba_marseille","lat":43.298768,"lon":5.43643,"is_reserved":false,"is_disabled":false,"rental_uris":{"android":"levelo://app?vid=9a5ca6f0-6f31-4d5e-bf3e-7f028d92f2c5","ios":"levelo://app?vid=9a5ca6f0-6f31-4d5e-bf3e-7f028d92f2c5"},"vehicle_type_id":"4","last_reported":1701065406,"current_range_meters":28400,"station_id":"ce4bhpp2rcd13ifvqhfg","pricing_plan_id":"free"},