{"last_updated":1733497799,"ttl":60,"version":"2.2","data":{"bikes":[{"bike_id":"c8756871-db35-4a3b-b691-d98d2619e332","system_id":"levelo_inurba_marseille","lat":43.23155,"lon":5.43721,"is_reserved":false,"is_disabled":true,"rental_uris":{"android":"levelo://app?vid=c8756871-db35-4a3b-b691-d98d2619e332","ios":"levelo://app?vid=c8756871-db35-4a3b-b691-d98d2619e332"},"vehicle_type_id":"4","last_reported":1733497800,"current_range_meters":0,"station_id":"ce4bhmp2rcd13ifvqgog","pricing_plan_id":"cebpf4jnsgd1na2vs0mg"},{"bike_id":"96aebb06-a6c4-4dd2-8c42-786705bea318","system_id":"levelo_inurba_marseille","lat":43.29572,"lon":5.37512,"is_reserved":false,"is_disabled":false,"rental_uris":{"android":"levelo://app?vid=96aebb06-a6c4-4dd2-8c42-786705bea318","ios":"levelo://app?vid=96aebb06-a6c4-4dd2-8c42-786705bea318"},"vehicle_type_id":"4","last_reported":1733497800,"current_range_meters":36800,"station_id":"ce4bgh92rcd13ifvqb50","pricing_plan_id":"cebpf4jnsgd1na2vs0mg"},{"bike_id":"df479c2c-35ac-44ad-b9d6-81c89ed769ce","system_id":"levelo_inurba_marseille","lat":43.29699,"lon":5.37054,"is_reserved":false,"is_disabled":true,"rental_uris":{"android":"levelo://app?vid=df479c2c-35ac-44ad-b9d6-81c89ed769ce","ios":"levelo://app?vid=df479c2c-35ac-44ad-b9d6-81c89ed769ce"},"vehicle_type_id":"4","last_reported":1733497800,"current_range_meters":0,"station_id":"","pricing_plan_id":"cebpf4jnsgd1na2vs0mg"},{"bike_id":"8e029eaf-e104-4c5d-858d-6cd39de73d09","system_id":"levelo_inurba_marseille","lat":43.24179,"lon":5.36387,"is_reserved":false,"is_disabled":false,"rental_uris":{"android":"levelo://app?vid=8e029eaf-e104-4c5d-858d-6cd39de73d09","ios":"levelo://app?vid=8e029eaf-e104-4c5d-858d-6cd39de73d09"},"vehicle_type_id":"4","last_reported":1733497800,"current_range_meters":36000,"station_id":"cpo36qri1sfpv3e86is0","pricing_plan_id":"cebpf4jnsgd1na2vs0mg"},{"bike_id":"0cc0e2ac-45c0-4a41-8ba5-b613cc20f6f4","system_id":"levelo_inurba_marseille","lat":43.25086,"lon":5.39524,"is_reserved":false,"is_disabled":false,"rental_uris":{"android":"levelo://app?vid=0cc0e2ac-45c0-4a41-8ba5-b613cc20f6f4","ios":"levelo://app?vid=0cc0e2ac-45c0-4a41-8ba5-b613cc20f6f4"},"vehicle_type_id":"4","last_reported":1733497800,"current_range_meters":17600,"station_id":"ce4bhm12rcd13ifvqgkg","pricing_plan_id":"cebpf4jnsgd1na2vs0mg"},{"bike_id":"ec6f5889-22cf-443b-b3cc-a0a128e36bfa","system_id":"levelo_inurba_marseille","lat":43.30871,"lon":5.37216,"is_reserved":false,"is_disabled":false,"rental_uris":{"android":"levelo://app?vid=ec6f5889-22cf-443b-b3cc-a0a128e36bfa","ios":"levelo://app?vid=ec6f5889-22cf-443b-b3cc-a0a128e36bfa"},"vehicle_type_id":"4","last_reported":1733497800,"current_range_meters":15200,"station_id":"ce4bguh2rcd13ifvqckg","pricing_plan_id":"cebpf4jnsgd1na2vs0mg"},{"bike_id":"d28ba912-d0ca-40c6-b821-e1c0a4efc6b7","system_id":"levelo_inurba_marseille","lat":43.24801,"lon":5.37451,"is_reserved":false,"is_disabled":false,"rental_uris":{"android":"levelo://app?vid=d28ba912-d0ca-40c6-b821-e1c0a4efc6b7","ios":"levelo://app?vid=d28ba912-d0ca-40c6-b821-e1c0a4efc6b7"},"vehicle_type_id":"4","last_reported":1733497800,"current_range_meters":27600,"station_id":"ce4bhgh2rcd13ifvqfb0","pricing_plan_id":"cebpf4jnsgd1na2vs0mg"},{"bike_id":"38b996a6-ab13-4adb-83fd-5d2ac062d97f","system_id":"levelo_inurba_marseille","lat":43.28664,"lon":5.36349,"is_reserved":false,"is_disabled":false,"rental_uris":{"android":"levelo://app?vid=38b996a6-ab13-4adb-83fd-5d2ac062d97f","ios":"levelo://app?vid=38b996a6-ab13-4adb-83fd-5d2ac062d97f"},"vehicle_type_id":"4","last_reported":1733497800,"current_range_meters":8000,"station_id":"ce4bhah2rcd13ifvqej0","pricing_plan_id":"cebpf4jnsgd1na2vs0mg"},{"bike_id":"319bbecf-b04a-4308-be6d-34b96f4fc262","system_id":"levelo_inurba_marseille","lat":43.311804,"lon":5.387061,"is_reserved":false,"is_disabled":false,"rental_uris":{"android":"levelo://app?vid=319bbecf-b04a-4308-be6d-34b96f4fc262","ios":"levelo://app?vid=319bbecf-b04a-4308-be6d-34b96f4fc262"},"vehicle_type_id":"4","last_reported":1733497800,"current_range_meters":8800,"station_id":"ce4bgv12rcd13ifvqcp0","pricing_plan_id":"cebpf4jnsgd1na2vs0mg"},{"bike_id":"be407bbe-d1ce-48de-8db2-09114af9efd7","system_id":"levelo_inurba_marseille","lat":43.32362,"lon":5.36762,"is_reserved":false,"is_disabled":false,"rental_uris":{"android":"levelo://app?vid=be407bbe-d1ce-48de-8db2-09114af9efd7","ios":"levelo://app?vid=be407bbe-d1ce-48de-8db2-09114af9efd7"},"vehicle_type_id":"4","last_reported":1733497800,"current_range_meters":24400,"station_id":"ce4bhsh2rcd13ifvqi2g","pricing_plan_id":"cebpf4jnsgd1na2vs0mg"},{"bike_id":"5fd8fda4-5ceb-4e39-b9f4-ea27acda2ce7","system_id":"levelo_inurba_marseille","lat":43.27201,"lon":5.41007,"is_reserved":false,"is_disabled":true,"rental_uris":{"android":"levelo://app?vid=5fd8fda4-5ceb-4e39-b9f4-ea27acda2ce7","ios":"levelo://app?vid=5fd8fda4-5ceb-4e39-b9f4-ea27acda2ce7"},"vehicle_type_id":"4","last_reported":1733497800,"current_range_meters":26800,"station_id":"ce4bhl12rcd13ifvqgf0","pricing_plan_id":"cebpf4jnsgd1na2vs0mg"},{"bike_id":"ef8049db-7897-4a9e-b3bc-80c8607aca0b","system_id":"levelo_inurba_marseille","lat":43.244835,"lon":5.395439,"is_reserved":false,"is_disabled":false,"rental_uris":{"android":"levelo://app?vid=ef8049db-7897-4a9e-b3bc-80c8607aca0b","ios":"levelo://app?vid=ef8049db-7897-4a9e-b3bc-80c8607aca0b"},"vehicle_type_id":"4","last_reported":1733497800,"current_range_meters":32800,"station_id":"","pricing_plan_id":"cebpf4jnsgd1na2vs0mg"},{"bike_id":"53b2021f-2d76-4c3d-be13-d01d30021086","system_id":"levelo_inurba_marseille","lat":43.33727,"lon":5.39183,"is_reserved":false,"is_disabled":false,"rental_uris":{"android":"levelo://app?vid=53b2021f-2d76-4c3d-be13-d01d30021086","ios":"levelo://app?vid=53b2021f-2d76-4c3d-be13-d01d30021086"},"vehicle_type_id":"4","last_reported":1733497800,"current_range_meters":27600,"station_id":"ce4bhr92rcd13ifvqhsg","pricing_plan_id":"cebpf4jnsgd1na2vs0mg"},{"bike_id":"8bd642b2-0279-44c7-9ee2-fc3b57332c83","system_id":"levelo_inurba_marseille","lat":43.27455,"lon":5.40073,"is_reserved":false,"is_disabled":true,"rental_uris":{"android":"levelo://app?vid=8bd642b2-0279-44c7-9ee2-fc3b57332c83","ios":"levelo://app?vid=8bd642b2-0279-44c7-9ee2-fc3b57332c83"},"vehicle_type_id":"4","last_reported":1733497800,"current_range_meters":0,"station_id":"","pricing_plan_id":"cebpf4jnsgd1na2vs0mg"},{"bike_id":"c479d6be-2a1a-4437-af09-28fbc0d745f3","system_id":"levelo_inurba_marseille","lat":43.23198,"lon":5.35551,"is_reserved":false,"is_disabled":false,"rental_uris":{"android":"levelo://app?vid=c479d6be-2a1a-4437-af09-28fbc0d745f3","ios":"levelo://app?vid=c479d6be-2a1a-4437-af09-28fbc0d745f3"},"vehicle_type_id":"4","last_reported":1733497800,"current_range_meters":5600,"station_id":"ce4bhu92rcd13ifvqi70","pricing_plan_id":"cebpf4jnsgd1na2vs0mg"},{"bike_id":"fe8c18e7-ee3c-4d91-babc-d3591f028df4","system_id":"levelo_inurba_marseille","lat":43.27999,"lon":5.41668,"is_reserved":false,"is_disabled":true,"rental_uris":{"android":"levelo://app?vid=fe8c18e7-ee3c-4d91-babc-d3591f028df4","ios":"levelo://app?vid=fe8c18e7-ee3c-4d91-babc-d3591f028df4"},"vehicle_type_id":"4","last_reported":1733497800,"current_range_meters":400,"station_id":"ce4bho12rcd13ifvqh1g","pricing_plan_id":"cebpf4jnsgd1na2vs0mg"},{"bike_id":"2e98085e-b20c-4f2e-ad05-74bff05ea30e","system_id":"levelo_inurba_marseille","lat":43.29572,"lon":5.39972,"is_reserved":false,"is_disabled":false,"rental_uris":{"android":"levelo://app?vid=2e98085e-b20c-4f2e-ad05-74bff05ea30e","ios":"levelo://app?vid=2e98085e-b20c-4f2e-ad05-74bff05ea30e"},"vehicle_type_id":"4","last_reported":1733497800,"current_range_meters":38000,"station_id":"ce4bh312rcd13ifvqdj0","pricing_plan_id":"cebpf4jnsgd1na2vs0mg"},{"bike_id":"572d5e03-1d52-4091-aed3-aef7accba865","system_id":"levelo_inurba_marseille","lat":43.24546,"lon":5.39526,"is_reserved":false,"is_disabled":false,"rental_uris":{"android":"levelo://app?vid=572d5e03-1d52-4091-aed3-aef7accba865","ios":"levelo://app?vid=572d5e03-1d52-4091-aed3-aef7accba865"},"vehicle_type_id":"4","last_reported":1733497800,"current_range_meters":38800,"station_id":"ce4bhlp2rcd13ifvqgjg","pricing_plan_id":"cebpf4jnsgd1na2vs0mg"},{"bike_id":"997ca4c6-4b37-45b7-b4c8-d3246d03ecc3","system_id":"levelo_inurba_marseille","lat":43.23553,"lon":5.37988,"is_reserved":false,"is_disabled":true,"rental_uris":{"android":"levelo://app?vid=997ca4c6-4b37-45b7-b4c8-d3246d03ecc3","ios":"levelo://app?vid=997ca4c6-4b37-45b7-b4c8-d3246d03ecc3"},"vehicle_type_id":"4","last_reported":1733497800,"current_range_meters":0,"station_id":"","pricing_plan_id":"cebpf4jnsgd1na2vs0mg"},{"bike_id":"28b52837-d828-49e4-b4be-cfbac010c328","system_id":"levelo_inurba_marseille","lat":43.33731,"lon":5.3918,"is_reserved":false,"is_disabled":false,"rental_uris":{"android":"levelo://app?vid=28b52837-d828-49e4-b4be-cfbac010c328","ios":"levelo://app?vid=28b52837-d828-49e4-b4be-cfbac010c328"},"vehicle_type_id":"4","last_reported":1733497800,"current_range_meters":24400,"station_id":"ce4bhr92rcd13ifvqhsg","pricing_plan_id":"cebpf4jnsgd1na2vs0mg"},{"bike_id":"b3f478ac-3b05-4edf-bdbf-76399090f8e9","system_id":"levelo_inurba_marseille","lat":43.29994,"lon":5.37639,"is_reserved":false,"is_disabled":true,"rental_uris":{"android":"levelo://app?vid=b3f478ac-3b05-4edf-bdbf-76399090f8e9","ios":"levelo://app?vid=b3f478ac-3b05-4edf-bdbf-76399090f8e9"},"vehicle_type_id":"4","last_reported":1733497800,"current_range_meters":0,"station_id":"","pricing_plan_id":"cebpf4jnsgd1na2vs0mg"},{"bike_id":"fdc62a63-5355-4bd1-a06c-e6106eb23903","system_id":"levelo_inurba_marseille","lat":43.23964,"lon":5.36627,"is_reserved":false,"is_disabled":false,"rental_uris":{"android":"levelo://app?vid=fdc62a63-5355-4bd1-a06c-e6106eb23903","ios":"levelo://app?vid=fdc62a63-5355-4bd1-a06c-e6106eb23903"},"vehicle_type_id":"4","last_reported":1733497800,"current_range_meters":17600,"station_id":"ce4bhi12rcd13ifvqfp0","pricing_plan_id":"cebpf4jnsgd1na2vs0mg"},{"bike_id":"89ceac00-2c22-4cb1-b85d-583fccdb788b","system_id":"levelo_inurba_marseille","lat":43.32109,"lon":5.36765,"is_reserved":false,"is_disabled":false,"rental_uris":{"android":"levelo://app?vid=89ceac00-2c22-4cb1-b85d-583fccdb788b","ios":"levelo://app?vid=89ceac00-2c22-4cb1-b85d-583fccdb788b"},"vehicle_type_id":"4","last_reported":1733497800,"current_range_meters":18800,"station_id":"ce4bhrh2rcd13ifvqhug","pricing_plan_id":"cebpf4jnsgd1na2vs0mg"},{"bike_id":"a3e282f0-081a-4fe6-bbbf-7e4d98b4508d","system_id":"levelo_inurba_marseille","lat":43.25861,"lon":5.399,"is_reserved":false,"is_disabled":false,"rental_uris":{"android":"levelo://app?vid=a3e282f0-081a-4fe6-bbbf-7e4d98b4508d","ios":"levelo://app?vid=a3e282f0-081a-4fe6-bbbf-7e4d98b4508d"},"vehicle_type_id":"4","last_reported":1733497800,"current_range_meters":22000,"station_id":"ce4bhl92rcd13ifvqghg","pricing_plan_id":"cebpf4jnsgd1na2vs0mg"},{"bike_id":"088a82a6-7803-417d-b990-d2686f3a6e70","system_id":"levelo_inurba_marseille","lat":43.29585,"lon":5.37527,"is_reserved":false,"is_disabled":false,"rental_uris":{"android":"levelo://app?vid=088a82a6-7803-417d-b990-d2686f3a6e70","ios":"levelo://app?vid=088a82a6-7803-417d-b990-d2686f3a6e70"},"vehicle_type_id":"4","last_reported":1733497800,"current_range_meters":35600,"station_id":"ce4bgh92rcd13ifvqb50","pricing_plan_id":"cebpf4jnsgd1na2vs0mg"},{"bike_id":"d180c708-c2eb-468f-bde2-cc174dfe962e","system_id":"levelo_inurba_marseille","lat":43.23959,"lon":5.36641,"is_reserved":false,"is_disabled":false,"rental_uris":{"android":"levelo://app?vid=d180c708-c2eb-468f-bde2-cc174dfe962e","ios":"levelo://app?vid=d180c708-c2eb-468f-bde2-cc174dfe962e"},"vehicle_type_id":"4","last_reported":1733497800,"current_range_meters":36400,"station_id":"ce4bhi12rcd13ifvqfp0","pricing_plan_id":"cebpf4jnsgd1na2vs0mg"},{"bike_id":"c995de29-1f5c-48d6-9e31-a9fba088583d","system_id":"levelo_inurba_marseille","lat":43.26948,"lon":5.38912,"is_reserved":false,"is_disabled":false,"rental_uris":{"android":"levelo://app?vid=c995de29-1f5c-48d6-9e31-a9fba088583d","ios":"levelo://app?vid=c995de29-1f5c-48d6-9e31-a9fba088583d"},"vehicle_type_id":"4","last_reported":1733497800,"current_range_meters":28000,"station_id":"ce4bhhh2rcd13ifvqfl0","pricing_plan_id":"cebpf4jnsgd1na2vs0mg"},{"bike_id":"0f2cc434-3b5d-40c6-96cc-f2b504075a8b","system_id":"levelo_inurba_marseille","lat":43.25932,"lon":5.4092,"is_reserved":false,"is_disabled":false,"rental_uris":{"android":"levelo://app?vid=0f2cc434-3b5d-40c6-96cc-f2b504075a8b","ios":"levelo://app?vid=0f2cc434-3b5d-40c6-96cc-f2b504075a8b"},"vehicle_type_id":"4","last_reported":1733497800,"current_range_meters":22800,"station_id":"ce4bhm92rcd13ifvqglg","pricing_plan_id":"cebpf4jnsgd1na2vs0mg"},{"bike_id":"65ea8a13-f7a8-486f-90be-0a6dbaf33713","system_id":"levelo_inurba_marseille","lat":43.3117,"lon":5.3723,"is_reserved":false,"is_disabled":false,"rental_uris":{"android":"levelo://app?vid=65ea8a13-f7a8-486f-90be-0a6dbaf33713","ios":"levelo://app?vid=65ea8a13-f7a8-486f-90be-0a6dbaf33713"},"vehicle_type_id":"4","last_reported":1733497800,"current_range_meters":28800,"station_id":"","pricing_plan_id":"cebpf4jnsgd1na2vs0mg"},{"bike_id":"2b4477ad-bf22-4a05-9744-e06ce9f2bd4f","system_id":"levelo_inurba_marseille","lat":43.3081,"lon":5.37234,"is_reserved":false,"is_disabled":false,"rental_uris":{"android":"levelo://app?vid=2b4477ad-bf22-4a05-9744-e06ce9f2bd4f","ios":"levelo://app?vid=2b4477ad-bf22-4a05-9744-e06ce9f2bd4f"},"vehicle_type_id":"4","last_reported":1733497800,"current_range_meters":26000,"station_id":"","pricing_plan_id":"cebpf4jnsgd1na2vs0mg"},{"bike_id":"0d76dbf6-5e40-455b-a0e6-70fb0b70c5f9","system_id":"levelo_inurba_marseille","lat":43.32365,"lon":5.38883,"is_reserved":false,"is_disabled":false,"rental_uris":{"android":"levelo://app?vid=0d76dbf6-5e40-455b-a0e6-70fb0b70c5f9","ios":"levelo://app?vid=0d76dbf6-5e40-455b-a0e6-70fb0b70c5f9"},"vehicle_type_id":"4","last_reported":1733497800,"current_range_meters":36400,"station_id":"ce4bhqp2rcd13ifvqhog","pricing_plan_id":"cebpf4jnsgd1na2vs0mg"},{"bike_id":"de18c067-1813-4492-bbea-f058c8bab85c","system_id":"levelo_inurba_marseille","lat":43.27673,"lon":5.38879,"is_reserved":false,"is_disabled":false,"rental_uris":{"android":"levelo://app?vid=de18c067-1813-4492-bbea-f058c8bab85c","ios":"levelo://app?vid=de18c067-1813-4492-bbea-f058c8bab85c"},"vehicle_type_id":"4","last_reported":1733497800,"current_range_meters":36000,"station_id":"ce4bhi12rcd13ifvqfo0","pricing_plan_id":"cebpf4jnsgd1na2vs0mg"},{"bike_id":"2f3968e7-9336-4ee4-ba78-8e92c0a818cc","system_id":"levelo_inurba_marseille","lat":43.31322,"lon":5.36647,"is_reserved":false,"is_disabled":true,"rental_uris":{"android":"levelo://app?vid=2f3968e7-9336-4ee4-ba78-8e92c0a818cc","ios":"levelo://app?vid=2f3968e7-9336-4ee4-ba78-8e92c0a818cc"},"vehicle_type_id":"4","last_reported":1733497800,"current_range_meters":0,"station_id":"","pricing_plan_id":"cebpf4jnsgd1na2vs0mg"},{"bike_id":"3d830a0f-4ef7-46e6-87e3-07d32599352c","system_id":"levelo_inurba_marseille","lat":43.24813,"lon":5.37464,"is_reserved":false,"is_disabled":false,"rental_uris":{"android":"levelo://app?vid=3d830a0f-4ef7-46e6-87e3-07d32599352c","ios":"levelo://app?vid=3d830a0f-4ef7-46e6-87e3-07d32599352c"},"vehicle_type_id":"4","last_reported":1733497800,"current_range_meters":24000,"station_id":"ce4bhgh2rcd13ifvqfb0","pricing_plan_id":"cebpf4jnsgd1na2vs0mg"},{"bike_id":"a936cc66-af2b-428d-a4ad-ec5e9853d170","system_id":"levelo_inurba_marseille","lat":43.24998,"lon":5.38936,"is_reserved":false,"is_disabled":false,"rental_uris":{"android":"levelo://app?vid=a936cc66-af2b-428d-a4ad-ec5e9853d170","ios":"levelo://app?vid=a936cc66-af2b-428d-a4ad-ec5e9853d170"},"vehicle_type_id":"4","last_reported":1733497800,"current_range_meters":11200,"station_id":"ce4bhgp2rcd13ifvqfd0","pricing_plan_id":"cebpf4jnsgd1na2vs0mg"},{"bike_id":"4d3faf3b-c455-4a80-9648-56dd8a851d4f","system_id":"levelo_inurba_marseille","lat":43.24179,"lon":5.39733,"is_reserved":false,"is_disabled":false,"rental_uris":{"android":"levelo://app?vid=4d3faf3b-c455-4a80-9648-56dd8a851d4f","ios":"levelo://app?vid=4d3faf3b-c455-4a80-9648-56dd8a851d4f"},"vehicle_type_id":"4","last_reported":1733497800,"current_range_meters":21600,"station_id":"ce4bhn12rcd13ifvqgpg","pricing_plan_id":"cebpf4jnsgd1na2vs0mg"},{"bike_id":"9537ead7-cfd2-40c1-89fd-1e8c65f06850","system_id":"levelo_inurba_marseille","lat":43.32488,"lon":5.36572,"is_reserved":false,"is_disabled":false,"rental_uris":{"android":"levelo://app?vid=9537ead7-cfd2-40c1-89fd-1e8c65f06850","ios":"levelo://app?vid=9537ead7-cfd2-40c1-89fd-1e8c65f06850"},"vehicle_type_id":"4","last_reported":1733497800,"current_range_meters":9200,"station_id":"ce4bhs12rcd13ifvqhvg","pricing_plan_id":"cebpf4jnsgd1na2vs0mg"},{"bike_id":"a4195ee0-472a-4f03-b955-5b202da4d03a","system_id":"levelo_inurba_marseille","lat":43.23185,"lon":5.39979,"is_reserved":false,"is_disabled":false,"rental_uris":{"android":"levelo://app?vid=a4195ee0-472a-4f03-b955-5b202da4d03a","ios":"levelo://app?vid=a4195ee0-472a-4f03-b955-5b202da4d03a"},"vehicle_type_id":"4","last_reported":1733497800,"current_range_meters":37600,"station_id":"ce4bhn12rcd13ifvqgqg","pricing_plan_id":"cebpf4jnsgd1na2vs0mg"},{"bike_id":"39d029ca-76e8-4336-9436-93dcfd7e7eed","system_id":"levelo_inurba_marseille","lat":43.29848,"lon":5.36285,"is_reserved":false,"is_disabled":false,"rental_uris":{"android":"levelo://app?vid=39d029ca-76e8-4336-9436-93dcfd7e7eed","ios":"levelo://app?vid=39d029ca-76e8-4336-9436-93dcfd7e7eed"},"vehicle_type_id":"4","last_reported":1733497800,"current_range_meters":17200,"station_id":"ce4bgpp2rcd13ifvqc3g","pricing_plan_id":"cebpf4jnsgd1na2vs0mg"},{"bike_id":"4f364583-ef31-4fd7-b03f-e8563c2d4cc3","system_id":"levelo_inurba_marseille","lat":43.26682,"lon":5.38269,"is_reserved":false,"is_disabled":false,"rental_uris":{"android":"levelo://app?vid=4f364583-ef31-4fd7-b03f-e8563c2d4cc3","ios":"levelo://app?vid=4f364583-ef31-4fd7-b03f-e8563c2d4cc3"},"vehicle_type_id":"4","last_reported":1733497800,"current_range_meters":23200,"station_id":"ce4bhg92rcd13ifvqf90","pricing_plan_id":"cebpf4jnsgd1na2vs0mg"},{"bike_id":"aa8e0b68-f9c4-4a7e-9d62-755eb275655a","system_id":"levelo_inurba_marseille","lat":43.32485,"lon":5.36563,"is_reserved":false,"is_disabled":false,"rental_uris":{"android":"levelo://app?vid=aa8e0b68-f9c4-4a7e-9d62-755eb275655a","ios":"levelo://app?vid=aa8e0b68-f9c4-4a7e-9d62-755eb275655a"},"vehicle_type_id":"4","last_reported":1733497800,"current_range_meters":16800,"station_id":"ce4bhs12rcd13ifvqhvg","pricing_plan_id":"cebpf4jnsgd1na2vs0mg"},{"bike_id":"18c465ad-16a0-4d72-a337-11a15929aab8","system_id":"levelo_inurba_marseille","lat":43.239606,"lon":5.366203,"is_reserved":false,"is_disabled":false,"rental_uris":{"android":"levelo://app?vid=18c465ad-16a0-4d72-a337-11a15929aab8","ios":"levelo://app?vid=18c465ad-16a0-4d72-a337-11a15929aab8"},"vehicle_type_id":"4","last_reported":1733497800,"current_range_meters":9600,"station_id":"ce4bhi12rcd13ifvqfp0","pricing_plan_id":"cebpf4jnsgd1na2vs0mg"},{"bike_id":"b87c5081-2c6f-437f-9ea9-4b38346a1dc2","system_id":"levelo_inurba_marseille","lat":43.29007,"lon":5.35606,"is_reserved":false,"is_disabled":false,"rental_uris":{"android":"levelo://app?vid=b87c5081-2c6f-437f-9ea9-4b38346a1dc2","ios":"levelo://app?vid=b87c5081-2c6f-437f-9ea9-4b38346a1dc2"},"vehicle_type_id":"4","last_reported":1733497800,"current_range_meters":17200,"station_id":"ce4bhb92rcd13ifvqen0","pricing_plan_id":"cebpf4jnsgd1na2vs0mg"},{"bike_id":"f825a6e3-d202-4ddc-917b-5da49c4114c4","system_id":"levelo_inurba_marseille","lat":43.23197,"lon":5.3555,"is_reserved":false,"is_disabled":false,"rental_uris":{"android":"levelo://app?vid=f825a6e3-d202-4ddc-917b-5da49c4114c4","ios":"levelo://app?vid=f825a6e3-d202-4ddc-917b-5da49c4114c4"},"vehicle_type_id":"4","last_reported":1733497800,"current_range_meters":14800,"station_id":"ce4bhu92rcd13ifvqi70","pricing_plan_id":"cebpf4jnsgd1na2vs0mg"},{"bike_id":"1425627e-6340-4d9a-b112-c701c5f71ea7","system_id":"levelo_inurba_marseille","lat":43.31379,"lon":5.36717,"is_reserved":false,"is_disabled":false,"rental_uris":{"android":"levelo://app?vid=1425627e-6340-4d9a-b112-c701c5f71ea7","ios":"levelo://app?vid=1425627e-6340-4d9a-b112-c701c5f71ea7"},"vehicle_type_id":"4","last_reported":1733497800,"current_range_meters":33200,"station_id":"ce4bgr92rcd13ifvqc6g","pricing_plan_id":"cebpf4jnsgd1na2vs0mg"},{"bike_id":"604dc610-1f39-448a-b1d5-d227d9ef09f4","system_id":"levelo_inurba_marseille","lat":43.2955,"lon":5.42286,"is_reserved":false,"is_disabled":false,"rental_uris":{"android":"levelo://app?vid=604dc610-1f39-448a-b1d5-d227d9ef09f4","ios":"levelo://app?vid=604dc610-1f39-448a-b1d5-d227d9ef09f4"},"vehicle_type_id":"4","last_reported":1733497800,"current_range_meters":39200,"station_id":"ce4bhph2rcd13ifvqhdg","pricing_plan_id":"cebpf4jnsgd1na2vs0mg"},{"bike_id":"e64ce58c-c4cf-4415-8598-25cf70aa2d60","system_id":"levelo_inurba_marseille","lat":43.29627,"lon":5.37154,"is_reserved":false,"is_disabled":false,"rental_uris":{"android":"levelo://app?vid=e64ce58c-c4cf-4415-8598-25cf70aa2d60","ios":"levelo://app?vid=e64ce58c-c4cf-4415-8598-25cf70aa2d60"},"vehicle_type_id":"4","last_reported":1733497800,"current_range_meters":15200,"station_id":"ce4bgnh2rcd13ifvqc0g","pricing_plan_id":"cebpf4jnsgd1na2vs0mg"},{"bike_id":"58b7f3f7-65c9-4d03-9945-f68b16afccae","system_id":"levelo_inurba_marseille","lat":43.29271,"lon":5.38439,"is_reserved":false,"is_disabled":false,"rental_uris":{"android":"levelo://app?vid=58b7f3f7-65c9-4d03-9945-f68b16afccae","ios":"levelo://app?vid=58b7f3f7-65c9-4d03-9945-f68b16afccae"},"vehicle_type_id":"4","last_reported":1733497800,"current_range_meters":19600,"station_id":"ce4bh692rcd13ifvqea0","pricing_plan_id":"cebpf4jnsgd1na2vs0mg"},{"bike_id":"c18f072d-1e51-4e64-b027-076e62d7834b","system_id":"levelo_inurba_marseille","lat":43.2894,"lon":5.38404,"is_reserved":false,"is_disabled":false,"rental_uris":{"android":"levelo://app?vid=c18f072d-1e51-4e64-b027-076e62d7834b","ios":"levelo://app?vid=c18f072d-1e51-4e64-b027-076e62d7834b"},"vehicle_type_id":"4","last_reported":1733497800,"current_range_meters":38800,"station_id":"ce4bh612rcd13ifvqe6g","pricing_plan_id":"cebpf4jnsgd1na2vs0mg"},{"bike_id":"f10c5e90-601b-4bd4-87e7-4cbb6a13a4fb","system_id":"levelo_inurba_marseille","lat":43.26124,"lon":5.39269,"is_reserved":false,"is_disabled":true,"rental_uris":{"android":"levelo://app?vid=f10c5e90-601b-4bd4-87e7-4cbb6a13a4fb","ios":"levelo://app?vid=f10c5e90-601b-4bd4-87e7-4cbb6a13a4fb"},"vehicle_type_id":"4","last_reported":1733497800,"current_range_meters":0,"station_id":"","pricing_plan_id":"cebpf4jnsgd1na2vs0mg"},{"bike_id":"8c4d45d2-9267-457d-b89f-898dc7d872b2","system_id":"levelo_inurba_marseille","lat":43.31699,"lon":5.40465,"is_reserved":false,"is_disabled":false,"rental_uris":{"android":"levelo://app?vid=8c4d45d2-9267-457d-b89f-898dc7d872b2","ios":"levelo://app?vid=8c4d45d2-9267-457d-b89f-898dc7d872b2"},"vehicle_type_id":"4","last_reported":1733497800,"current_range_meters":30800,"station_id":"ce4bh012rcd13ifvqd00","pricing_plan_id":"cebpf4jnsgd1na2vs0mg"},{"bike_id":"e1997e5e-4416-448a-b708-daa9ded786aa","system_id":"levelo_inurba_marseille","lat":43.26681,"lon":5.38279,"is_reserved":false,"is_disabled":false,"rental_uris":{"android":"levelo://app?vid=e1997e5e-4416-448a-b708-daa9ded786aa","ios":"levelo://app?vid=e1997e5e-4416-448a-b708-daa9ded786aa"},"vehicle_type_id":"4","last_reported":1733497800,"current_range_meters":32400,"station_id":"ce4bhg92rcd13ifvqf90","pricing_plan_id":"cebpf4jnsgd1na2vs0mg"},{"bike_id":"e624b9a3-e158-4520-bac3-b7ae3c94c5fa","system_id":"levelo_inurba_marseille","lat":43.29905,"lon":5.37474,"is_reserved":false,"is_disabled":false,"rental_uris":{"android":"levelo://app?vid=e624b9a3-e158-4520-bac3-b7ae3c94c5fa","ios":"levelo://app?vid=e624b9a3-e158-4520-bac3-b7ae3c94c5fa"},"vehicle_type_id":"4","last_reported":1733497800,"current_range_meters":36400,"station_id":"ce4bgjh2rcd13ifvqbg0","pricing_plan_id":"cebpf4jnsgd1na2vs0mg"},{"bike_id":"0e516958-fe02-46a6-9187-d1cfa5dfa278","system_id":"levelo_inurba_marseille","lat":43.259319,"lon":5.409183,"is_reserved":false,"is_disabled":false,"rental_uris":{"android":"levelo://app?vid=0e516958-fe02-46a6-9187-d1cfa5dfa278","ios":"levelo://app?vid=0e516958-fe02-46a6-9187-d1cfa5dfa278"},"vehicle_type_id":"4","last_reported":1733497800,"current_range_meters":14800,"station_id":"ce4bhm92rcd13ifvqglg","pricing_plan_id":"cebpf4jnsgd1na2vs0mg"},{"bike_id":"20b7188f-e505-43bb-9200-5e9953d9e57f","system_id":"levelo_inurba_marseille","lat":43.23969,"lon":5.36633,"is_reserved":false,"is_disabled":false,"rental_uris":{"android":"levelo://app?vid=20b7188f-e505-43bb-9200-5e9953d9e57f","ios":"levelo://app?vid=20b7188f-e505-43bb-9200-5e9953d9e57f"},"vehicle_type_id":"4","last_reported":1733497800,"current_range_meters":28800,"station_id":"ce4bhi12rcd13ifvqfp0","pricing_plan_id":"cebpf4jnsgd1na2vs0mg"},{"bike_id":"8701139b-c9ad-44e4-ab13-5cc49a843881","system_id":"levelo_inurba_marseille","lat":43.27998,"lon":5.40015,"is_reserved":false,"is_disabled":true,"rental_uris":{"android":"levelo://app?vid=8701139b-c9ad-44e4-ab13-5cc49a843881","ios":"levelo://app?vid=8701139b-c9ad-44e4-ab13-5cc49a843881"},"vehicle_type_id":"4","last_reported":1733497800,"current_range_meters":2000,"station_id":"ce4bho92rcd13ifvqh4g","pricing_plan_id":"cebpf4jnsgd1na2vs0mg"},{"bike_id":"6a07fe14-aef4-4271-9d66-0651b134dd9e","system_id":"levelo_inurba_marseille","lat":43.2396,"lon":5.36626,"is_reserved":false,"is_disabled":false,"rental_uris":{"android":"levelo://app?vid=6a07fe14-aef4-4271-9d66-0651b134dd9e","ios":"levelo://app?vid=6a07fe14-aef4-4271-9d66-0651b134dd9e"},"vehicle_type_id":"4","last_reported":1733497800,"current_range_meters":6000,"station_id":"ce4bhi12rcd13ifvqfp0","pricing_plan_id":"cebpf4jnsgd1na2vs0mg"},{"bike_id":"9b3987a2-8348-4a5e-b400-7f173ac8b8de","system_id":"levelo_inurba_marseille","lat":43.29554,"lon":5.42293,"is_reserved":false,"is_disabled":false,"rental_uris":{"android":"levelo://app?vid=9b3987a2-8348-4a5e-b400-7f173ac8b8de","ios":"levelo://app?vid=9b3987a2-8348-4a5e-b400-7f173ac8b8de"},"vehicle_type_id":"4","last_reported":1733497800,"current_range_meters":32800,"station_id":"ce4bhph2rcd13ifvqhdg","pricing_plan_id":"cebpf4jnsgd1na2vs0mg"},{"bike_id":"cdfe6590-4984-4014-86c8-6dd70747c27a","system_id":"levelo_inurba_marseille","lat":43.29737,"lon":5.37434,"is_reserved":false,"is_disabled":true,"rental_uris":{"android":"levelo://app?vid=cdfe6590-4984-4014-86c8-6dd70747c27a","ios":"levelo://app?vid=cdfe6590-4984-4014-86c8-6dd70747c27a"},"vehicle_type_id":"4","last_reported":1733497800,"current_range_meters":0,"station_id":"","pricing_plan_id":"cebpf4jnsgd1na2vs0mg"},{"bike_id":"5b83c4ba-ed91-44fe-a96c-15b47ae6cf05","system_id":"levelo_inurba_marseille","lat":43.28411,"lon":5.34995,"is_reserved":false,"is_disabled":false,"rental_uris":{"android":"levelo://app?vid=5b83c4ba-ed91-44fe-a96c-15b47ae6cf05","ios":"levelo://app?vid=5b83c4ba-ed91-44fe-a96c-15b47ae6cf05"},"vehicle_type_id":"4","last_reported":1733497800,"current_range_meters":23200,"station_id":"ce4bhbh2rcd13ifvqepg","pricing_plan_id":"cebpf4jnsgd1na2vs0mg"},{"bike_id":"4072b07f-d757-40a8-ae0a-c2db35ea3d62","system_id":"levelo_inurba_marseille","lat":43.29007,"lon":5.35614,"is_reserved":false,"is_disabled":false,"rental_uris":{"android":"levelo://app?vid=4072b07f-d757-40a8-ae0a-c2db35ea3d62","ios":"levelo://app?vid=4072b07f-d757-40a8-ae0a-c2db35ea3d62"},"vehicle_type_id":"4","last_reported":1733497800,"current_range_meters":3200,"station_id":"ce4bhb92rcd13ifvqen0","pricing_plan_id":"cebpf4jnsgd1na2vs0mg"},{"bike_id":"384efc0b-9f58-43ef-a659-4581dd1f3800","system_id":"levelo_inurba_marseille","lat":43.25089,"lon":5.39522,"is_reserved":false,"is_disabled":false,"rental_uris":{"android":"levelo://app?vid=384efc0b-9f58-43ef-a659-4581dd1f3800","ios":"levelo://app?vid=384efc0b-9f58-43ef-a659-4581dd1f3800"},"vehicle_type_id":"4","last_reported":1733497800,"current_range_meters":38800,"station_id":"ce4bhm12rcd13ifvqgkg","pricing_plan_id":"cebpf4jnsgd1na2vs0mg"},{"bike_id":"9cfb1313-64f8-4531-ad90-1dc3d6fb9e2b","system_id":"levelo_inurba_marseille","lat":43.24385,"lon":5.37057,"is_reserved":false,"is_disabled":false,"rental_uris":{"android":"levelo://app?vid=9cfb1313-64f8-4531-ad90-1dc3d6fb9e2b","ios":"levelo://app?vid=9cfb1313-64f8-4531-ad90-1dc3d6fb9e2b"},"vehicle_type_id":"4","last_reported":1733497800,"current_range_meters":25200,"station_id":"ce4bhhh2rcd13ifvqfk0","pricing_plan_id":"cebpf4jnsgd1na2vs0mg"},{"bike_id":"e8736526-236c-4961-a970-dd7125004418","system_id":"levelo_inurba_marseille","lat":43.32368,"lon":5.38882,"is_reserved":false,"is_disabled":false,"rental_uris":{"android":"levelo://app?vid=e8736526-236c-4961-a970-dd7125004418","ios":"levelo://app?vid=e8736526-236c-4961-a970-dd7125004418"},"vehicle_type_id":"4","last_reported":1733497800,"current_range_meters":19600,"station_id":"ce4bhqp2rcd13ifvqhog","pricing_plan_id":"cebpf4jnsgd1na2vs0mg"},{"bike_id":"fcd9936f-372a-4782-a0a1-fe2ee8690016","system_id":"levelo_inurba_marseille","lat":43.26685,"lon":5.38267,"is_reserved":false,"is_disabled":false,"rental_uris":{"android":"levelo://app?vid=fcd9936f-372a-4782-a0a1-fe2ee8690016","ios":"levelo://app?vid=fcd9936f-372a-4782-a0a1-fe2ee8690016"},"vehicle_type_id":"4","last_reported":1733497800,"current_range_meters":39200,"station_id":"ce4bhg92rcd13ifvqf90","pricing_plan_id":"cebpf4jnsgd1na2vs0mg"},{"bike_id":"987a5ab4-d60c-480c-94b6-7cab38975402","system_id":"levelo_inurba_marseille","lat":43.29748,"lon":5.37971,"is_reserved":false,"is_disabled":true,"rental_uris":{"android":"levelo://app?vid=987a5ab4-d60c-480c-94b6-7cab38975402","ios":"levelo://app?vid=987a5ab4-d60c-480c-94b6-7cab38975402"},"vehicle_type_id":"4","last_reported":1733497800,"current_range_meters":0,"station_id":"","pricing_plan_id":"cebpf4jnsgd1na2vs0mg"},{"bike_id":"2c4596ad-0ad9-4016-b92b-0093349de2b4","system_id":"levelo_inurba_marseille","lat":43.30755,"lon":5.38187,"is_reserved":false,"is_disabled":true,"rental_uris":{"android":"levelo://app?vid=2c4596ad-0ad9-4016-b92b-0093349de2b4","ios":"levelo://app?vid=2c4596ad-0ad9-4016-b92b-0093349de2b4"},"vehicle_type_id":"4","last_reported":1733497800,"current_range_meters":0,"station_id":"","pricing_plan_id":"cebpf4jnsgd1na2vs0mg"},{"bike_id":"25a33d2c-2601-4adf-8b03-9c7b44512e72","system_id":"levelo_inurba_marseille","lat":43.29574,"lon":5.3751,"is_reserved":false,"is_disabled":true,"rental_uris":{"android":"levelo://app?vid=25a33d2c-2601-4adf-8b03-9c7b44512e72","ios":"levelo://app?vid=25a33d2c-2601-4adf-8b03-9c7b44512e72"},"vehicle_type_id":"4","last_reported":1733497800,"current_range_meters":1200,"station_id":"ce4bgh92rcd13ifvqb50","pricing_plan_id":"cebpf4jnsgd1na2vs0mg"},{"bike_id":"8a696230-0cd8-4e37-adec-e0ada77baafb","system_id":"levelo_inurba_marseille","lat":43.29532,"lon":5.38545,"is_reserved":false,"is_disabled":true,"rental_uris":{"android":"levelo://app?vid=8a696230-0cd8-4e37-adec-e0ada77baafb","ios":"levelo://app?vid=8a696230-0cd8-4e37-adec-e0ada77baafb"},"vehicle_type_id":"4","last_reported":1733497800,"current_range_meters":0,"station_id":"ce4bgih2rcd13ifvqba0","pricing_plan_id":"cebpf4jnsgd1na2vs0mg"},{"bike_id":"b7ab8c01-033f-4395-8276-23c850ad3d02","system_id":"levelo_inurba_marseille","lat":43.30348,"lon":5.36626,"is_reserved":false,"is_disabled":true,"rental_uris":{"android":"levelo://app?vid=b7ab8c01-033f-4395-8276-23c850ad3d02","ios":"levelo://app?vid=b7ab8c01-033f-4395-8276-23c850ad3d02"},"vehicle_type_id":"4","last_reported":1733497800,"current_range_meters":0,"station_id":"","pricing_plan_id":"cebpf4jnsgd1na2vs0mg"},{"bike_id":"b52ab50a-7aa8-484c-81c7-fead67df921c","system_id":"levelo_inurba_marseille","lat":43.31123,"lon":5.37783,"is_reserved":false,"is_disabled":true,"rental_uris":{"android":"levelo://app?vid=b52ab50a-7aa8-484c-81c7-fead67df921c","ios":"levelo://app?vid=b52ab50a-7aa8-484c-81c7-fead67df921c"},"vehicle_type_id":"4","last_reported":1733497800,"current_range_meters":1600,"station_id":"ce4bgt92rcd13ifvqcg0","pricing_plan_id":"cebpf4jnsgd1na2vs0mg"},{"bike_id":"67227237-acca-42f7-a8c6-5d001592550f","system_id":"levelo_inurba_marseille","lat":43.25116,"lon":5.40316,"is_reserved":false,"is_disabled":false,"rental_uris":{"android":"levelo://app?vid=67227237-acca-42f7-a8c6-5d001592550f","ios":"levelo://app?vid=67227237-acca-42f7-a8c6-5d001592550f"},"vehicle_type_id":"4","last_reported":1733497800,"current_range_meters":36400,"station_id":"ce4bhlh2rcd13ifvqgig","pricing_plan_id":"cebpf4jnsgd1na2vs0mg"},{"bike_id":"aabdb257-8888-4229-a0a4-2fbdece78663","system_id":"levelo_inurba_marseille","lat":43.3248,"lon":5.36571,"is_reserved":false,"is_disabled":false,"rental_uris":{"android":"levelo://app?vid=aabdb257-8888-4229-a0a4-2fbdece78663","ios":"levelo://app?vid=aabdb257-8888-4229-a0a4-2fbdece78663"},"vehicle_type_id":"4","last_reported":1733497800,"current_range_meters":25200,"station_id":"ce4bhs12rcd13ifvqhvg","pricing_plan_id":"cebpf4jnsgd1na2vs0mg"},{"bike_id":"647c1f48-d704-4589-a43c-9c0d46034840","system_id":"levelo_inurba_marseille","lat":43.29621,"lon":5.37719,"is_reserved":false,"is_disabled":false,"rental_uris":{"android":"levelo://app?vid=647c1f48-d704-4589-a43c-9c0d46034840","ios":"levelo://app?vid=647c1f48-d704-4589-a43c-9c0d46034840"},"vehicle_type_id":"4","last_reported":1733497800,"current_range_meters":33600,"station_id":"ce4bgi92rcd13ifvqb90","pricing_plan_id":"cebpf4jnsgd1na2vs0mg"},{"bike_id":"938b4735-7b1d-4b21-a87f-38be5cffddf0","system_id":"levelo_inurba_marseille","lat":43.29378,"lon":5.37846,"is_reserved":false,"is_disabled":false,"rental_uris":{"android":"levelo://app?vid=938b4735-7b1d-4b21-a87f-38be5cffddf0","ios":"levelo://app?vid=938b4735-7b1d-4b21-a87f-38be5cffddf0"},"vehicle_type_id":"4","last_reported":1733497800,"current_range_meters":38000,"station_id":"ce4bgjh2rcd13ifvqbf0","pricing_plan_id":"cebpf4jnsgd1na2vs0mg"},{"bike_id":"11e86528-eb6b-4391-86a5-9b1822d069a4","system_id":"levelo_inurba_marseille","lat":43.278805,"lon":5.388003,"is_reserved":false,"is_disabled":true,"rental_uris":{"android":"levelo://app?vid=11e86528-eb6b-4391-86a5-9b1822d069a4","ios":"levelo://app?vid=11e86528-eb6b-4391-86a5-9b1822d069a4"},"vehicle_type_id":"4","last_reported":1733497800,"current_range_meters":4800,"station_id":"","pricing_plan_id":"cebpf4jnsgd1na2vs0mg"},{"bike_id":"6cc6805f-c0ca-4585-bdf1-b5a0339762b0","system_id":"levelo_inurba_marseille","lat":43.29027,"lon":5.42744,"is_reserved":false,"is_disabled":true,"rental_uris":{"android":"levelo://app?vid=6cc6805f-c0ca-4585-bdf1-b5a0339762b0","ios":"levelo://app?vid=6cc6805f-c0ca-4585-bdf1-b5a0339762b0"},"vehicle_type_id":"4","last_reported":1733497800,"current_range_meters":0,"station_id":"","pricing_plan_id":"cebpf4jnsgd1na2vs0mg"},{"bike_id":"d15688dc-7904-4994-a582-08bc5bee0700","system_id":"levelo_inurba_marseille","lat":43.25574,"lon":5.38225,"is_reserved":false,"is_disabled":false,"rental_uris":{"android":"levelo://app?vid=d15688dc-7904-4994-a582-08bc5bee0700","ios":"levelo://app?vid=d15688dc-7904-4994-a582-08bc5bee0700"},"vehicle_type_id":"4","last_reported":1733497800,"current_range_meters":20400,"station_id":"ce4bhih2rcd13ifvqfs0","pricing_plan_id":"cebpf4jnsgd1na2vs0mg"},{"bike_id":"4e6fc26f-c1d5-4d84-ac5b-7d384b8c30d5","system_id":"levelo_inurba_marseille","lat":43.32357,"lon":5.36757,"is_reserved":false,"is_disabled":false,"rental_uris":{"android":"levelo://app?vid=4e6fc26f-c1d5-4d84-ac5b-7d384b8c30d5","ios":"levelo://app?vid=4e6fc26f-c1d5-4d84-ac5b-7d384b8c30d5"},"vehicle_type_id":"4","last_reported":1733497800,"current_range_meters":38400,"station_id":"ce4bhsh2rcd13ifvqi2g","pricing_plan_id":"cebpf4jnsgd1na2vs0mg"},{"bike_id":"8d1c8b92-79bb-4181-b0d2-5e94db1a14d0","system_id":"levelo_inurba_marseille","lat":43.29972,"lon":5.3826,"is_reserved":false,"is_disabled":true,"rental_uris":{"android":"levelo://app?vid=8d1c8b92-79bb-4181-b0d2-5e94db1a14d0","ios":"levelo://app?vid=8d1c8b92-79bb-4181-b0d2-5e94db1a14d0"},"vehicle_type_id":"4","last_reported":1733497800,"current_range_meters":0,"station_id":"","pricing_plan_id":"cebpf4jnsgd1na2vs0mg"},{"bike_id":"ab783f5c-556c-4bb2-b72a-18606393f833","system_id":"levelo_inurba_marseille","lat":43.24544,"lon":5.39524,"is_reserved":false,"is_disabled":false,"rental_uris":{"android":"levelo://app?vid=ab783f5c-556c-4bb2-b72a-18606393f833","ios":"levelo://app?vid=ab783f5c-556c-4bb2-b72a-18606393f833"},"vehicle_type_id":"4","last_reported":1733497800,"current_range_meters":29600,"station_id":"ce4bhlp2rcd13ifvqgjg","pricing_plan_id":"cebpf4jnsgd1na2vs0mg"},{"bike_id":"399883ed-25f1-4421-8a14-885e09f74ac3","system_id":"levelo_inurba_marseille","lat":43.29608,"lon":5.3811,"is_reserved":false,"is_disabled":false,"rental_uris":{"android":"levelo://app?vid=399883ed-25f1-4421-8a14-885e09f74ac3","ios":"levelo://app?vid=399883ed-25f1-4421-8a14-885e09f74ac3"},"vehicle_type_id":"4","last_reported":1733497800,"current_range_meters":32800,"station_id":"ce4bgl12rcd13ifvqbo0","pricing_plan_id":"cebpf4jnsgd1na2vs0mg"},{"bike_id":"52e70aaa-9deb-4093-bbbf-f36d3f16dbad","system_id":"levelo_inurba_marseille","lat":43.3132,"lon":5.3971,"is_reserved":false,"is_disabled":false,"rental_uris":{"android":"levelo://app?vid=52e70aaa-9deb-4093-bbbf-f36d3f16dbad","ios":"levelo://app?vid=52e70aaa-9deb-4093-bbbf-f36d3f16dbad"},"vehicle_type_id":"4","last_reported":1733497800,"current_range_meters":12400,"station_id":"ce4bgvp2rcd13ifvqcu0","pricing_plan_id":"cebpf4jnsgd1na2vs0mg"},{"bike_id":"dca09f8e-9ce9-449f-bfed-2500189a950f","system_id":"levelo_inurba_marseille","lat":43.29926,"lon":5.36552,"is_reserved":false,"is_disabled":false,"rental_uris":{"android":"levelo://app?vid=dca09f8e-9ce9-449f-bfed-2500189a950f","ios":"levelo://app?vid=dca09f8e-9ce9-449f-bfed-2500189a950f"},"vehicle_type_id":"4","last_reported":1733497800,"current_range_meters":14400,"station_id":"ce4bgm92rcd13ifvqbr0","pricing_plan_id":"cebpf4jnsgd1na2vs0mg"},{"bike_id":"0b4a63d2-578b-41d8-9f6a-90b7f42bb8e8","system_id":"levelo_inurba_marseille","lat":43.292877,"lon":5.374541,"is_reserved":false,"is_disabled":true,"rental_uris":{"android":"levelo://app?vid=0b4a63d2-578b-41d8-9f6a-90b7f42bb8e8","ios":"levelo://app?vid=0b4a63d2-578b-41d8-9f6a-90b7f42bb8e8"},"vehicle_type_id":"4","last_reported":1733497800,"current_range_meters":37600,"station_id":"ce4bgi12rcd13ifvqb70","pricing_plan_id":"cebpf4jnsgd1na2vs0mg"},{"bike_id":"3a1cabfd-7ea0-40e5-ba2a-bc16f7acb1fa","system_id":"levelo_inurba_marseille","lat":43.34338,"lon":5.35814,"is_reserved":false,"is_disabled":true,"rental_uris":{"android":"levelo://app?vid=3a1cabfd-7ea0-40e5-ba2a-bc16f7acb1fa","ios":"levelo://app?vid=3a1cabfd-7ea0-40e5-ba2a-bc16f7acb1fa"},"vehicle_type_id":"4","last_reported":1733497800,"current_range_meters":19600,"station_id":"","pricing_plan_id":"cebpf4jnsgd1na2vs0mg"},{"bike_id":"484c4da0-df29-4728-ba65-e2ac5a072c13","system_id":"levelo_inurba_marseille","lat":43.31116,"lon":5.37591,"is_reserved":false,"is_disabled":false,"rental_uris":{"android":"levelo://app?vid=484c4da0-df29-4728-ba65-e2ac5a072c13","ios":"levelo://app?vid=484c4da0-df29-4728-ba65-e2ac5a072c13"},"vehicle_type_id":"4","last_reported":1733497800,"current_range_meters":18000,"station_id":"","pricing_plan_id":"cebpf4jnsgd1na2vs0mg"},{"bike_id":"d1664eee-63a1-464b-a844-7dfb42454c93","system_id":"levelo_inurba_marseille","lat":43.28275,"lon":5.35084,"is_reserved":false,"is_disabled":true,"rental_uris":{"android":"levelo://app?vid=d1664eee-63a1-464b-a844-7dfb42454c93","ios":"levelo://app?vid=d1664eee-63a1-464b-a844-7dfb42454c93"},"vehicle_type_id":"4","last_reported":1733497800,"current_range_meters":400,"station_id":"ce4bhbp2rcd13ifvqerg","pricing_plan_id":"cebpf4jnsgd1na2vs0mg"},{"bike_id":"c74c78a8-85e3-45a0-a28a-1371480c9f4c","system_id":"levelo_inurba_marseille","lat":43.3014,"lon":5.37429,"is_reserved":false,"is_disabled":false,"rental_uris":{"android":"levelo://app?vid=c74c78a8-85e3-45a0-a28a-1371480c9f4c","ios":"levelo://app?vid=c74c78a8-85e3-45a0-a28a-1371480c9f4c"},"vehicle_type_id":"4","last_reported":1733497800,"current_range_meters":38800,"station_id":"ce4bgs92rcd13ifvqcc0","pricing_plan_id":"cebpf4jnsgd1na2vs0mg"},{"bike_id":"0f1586a4-917b-4696-806c-a052cb3f11a0","system_id":"levelo_inurba_marseille","lat":43.324731,"lon":5.365525,"is_reserved":false,"is_disabled":false,"rental_uris":{"android":"levelo://app?vid=0f1586a4-917b-4696-806c-a052cb3f11a0","ios":"levelo://app?vid=0f1586a4-917b-4696-806c-a052cb3f11a0"},"vehicle_type_id":"4","last_reported":1733497800,"current_range_meters":21600,"station_id":"ce4bhs12rcd13ifvqhvg","pricing_plan_id":"cebpf4jnsgd1na2vs0mg"},{"bike_id":"cf315912-6fc6-4c2f-9885-dbef65eb8065","system_id":"levelo_inurba_marseille","lat":43.28827,"lon":5.38827,"is_reserved":false,"is_disabled":false,"rental_uris":{"android":"levelo://app?vid=cf315912-6fc6-4c2f-9885-dbef65eb8065","ios":"levelo://app?vid=cf315912-6fc6-4c2f-9885-dbef65eb8065"},"vehicle_type_id":"4","last_reported":1733497800,"current_range_meters":10000,"station_id":"","pricing_plan_id":"cebpf4jnsgd1na2vs0mg"},{"bike_id":"cce36afe-508e-48e4-8ef7-370069af1a3e","system_id":"levelo_inurba_marseille","lat":43.27423,"lon":5.39418,"is_reserved":false,"is_disabled":false,"rental_uris":{"android":"levelo://app?vid=cce36afe-508e-48e4-8ef7-370069af1a3e","ios":"levelo://app?vid=cce36afe-508e-48e4-8ef7-370069af1a3e"},"vehicle_type_id":"4","last_reported":1733497800,"current_range_meters":35600,"station_id":"ce4bhdp2rcd13ifvqf20","pricing_plan_id":"cebpf4jnsgd1na2vs0mg"},{"bike_id":"263aa02e-fbe2-4581-a999-4f4a5a58bb26","system_id":"levelo_inurba_marseille","lat":43.26684,"lon":5.3827,"is_reserved":false,"is_disabled":false,"rental_uris":{"android":"levelo://app?vid=263aa02e-fbe2-4581-a999-4f4a5a58bb26","ios":"levelo://app?vid=263aa02e-fbe2-4581-a999-4f4a5a58bb26"},"vehicle_type_id":"4","last_reported":1733497800,"current_range_meters":24400,"station_id":"ce4bhg92rcd13ifvqf90","pricing_plan_id":"cebpf4jnsgd1na2vs0mg"},{"bike_id":"b42d912b-1944-4cc5-a4bf-92545c2f7d24","system_id":"levelo_inurba_marseille","lat":43.2862,"lon":5.35103,"is_reserved":false,"is_disabled":false,"rental_uris":{"android":"levelo://app?vid=b42d912b-1944-4cc5-a4bf-92545c2f7d24","ios":"levelo://app?vid=b42d912b-1944-4cc5-a4bf-92545c2f7d24"},"vehicle_type_id":"4","last_reported":1733497800,"current_range_meters":38400,"station_id":"ce4bhch2rcd13ifvqeug","pricing_plan_id":"cebpf4jnsgd1na2vs0mg"},{"bike_id":"da92aff9-3fbb-4007-90fe-1a4d9eeeb4c2","system_id":"levelo_inurba_marseille","lat":43.30189,"lon":5.36609,"is_reserved":false,"is_disabled":false,"rental_uris":{"android":"levelo://app?vid=da92aff9-3fbb-4007-90fe-1a4d9eeeb4c2","ios":"levelo://app?vid=da92aff9-3fbb-4007-90fe-1a4d9eeeb4c2"},"vehicle_type_id":"4","last_reported":1733497800,"current_range_meters":28800,"station_id":"ce4bgrh2rcd13ifvqc8g","pricing_plan_id":"cebpf4jnsgd1na2vs0mg"},{"bike_id":"9c77a68d-2e99-44e9-b903-950fb6644d35","system_id":"levelo_inurba_marseille","lat":43.25265,"lon":5.39465,"is_reserved":false,"is_disabled":true,"rental_uris":{"android":"levelo://app?vid=9c77a68d-2e99-44e9-b903-950fb6644d35","ios":"levelo://app?vid=9c77a68d-2e99-44e9-b903-950fb6644d35"},"vehicle_type_id":"4","last_reported":1733497800,"current_range_meters":0,"station_id":"","pricing_plan_id":"cebpf4jnsgd1na2vs0mg"},{"bike_id":"6b14f33b-b867-49f3-8143-679f3d12ccec","system_id":"levelo_inurba_marseille","lat":43.31264,"lon":5.40171,"is_reserved":false,"is_disabled":true,"rental_uris":{"android":"levelo://app?vid=6b14f33b-b867-49f3-8143-679f3d12ccec","ios":"levelo://app?vid=6b14f33b-b867-49f3-8143-679f3d12ccec"},"vehicle_type_id":"4","last_reported":1733497800,"current_range_meters":7200,"station_id":"ce4bh092rcd13ifvqd30","pricing_plan_id":"cebpf4jnsgd1na2vs0mg"},{"bike_id":"ee6aba86-c86f-4847-a3b7-ce5c30160491","system_id":"levelo_inurba_marseille","lat":43.2997,"lon":5.38501,"is_reserved":false,"is_disabled":false,"rental_uris":{"android":"levelo://app?vid=ee6aba86-c86f-4847-a3b7-ce5c30160491","ios":"levelo://app?vid=ee6aba86-c86f-4847-a3b7-ce5c30160491"},"vehicle_type_id":"4","last_reported":1733497800,"current_range_meters":3600,"station_id":"ce4bgj92rcd13ifvqbd0","pricing_plan_id":"cebpf4jnsgd1na2vs0mg"},{"bike_id":"45a99d3d-18c7-4943-8d60-ad1491c0fa82","system_id":"levelo_inurba_marseille","lat":43.27563,"lon":5.38417,"is_reserved":false,"is_disabled":true,"rental_uris":{"android":"levelo://app?vid=45a99d3d-18c7-4943-8d60-ad1491c0fa82","ios":"levelo://app?vid=45a99d3d-18c7-4943-8d60-ad1491c0fa82"},"vehicle_type_id":"4","last_reported":1733497800,"current_range_meters":38400,"station_id":"ce4bhh92rcd13ifvqfi0","pricing_plan_id":"cebpf4jnsgd1na2vs0mg"},{"bike_id":"2a76e2c4-f345-433e-ba85-e0577d027046","system_id":"levelo_inurba_marseille","lat":43.26552,"lon":5.37287,"is_reserved":false,"is_disabled":false,"rental_uris":{"android":"levelo://app?vid=2a76e2c4-f345-433e-ba85-e0577d027046","ios":"levelo://app?vid=2a76e2c4-f345-433e-ba85-e0577d027046"},"vehicle_type_id":"4","last_reported":1733497800,"current_range_meters":37600,"station_id":"ce4bhg12rcd13ifvqf70","pricing_plan_id":"cebpf4jnsgd1na2vs0mg"},{"bike_id":"83985555-c848-4b28-808f-8a7e7cf8519e","system_id":"levelo_inurba_marseille","lat":43.28115,"lon":5.43955,"is_reserved":false,"is_disabled":true,"rental_uris":{"android":"levelo://app?vid=83985555-c848-4b28-808f-8a7e7cf8519e","ios":"levelo://app?vid=83985555-c848-4b28-808f-8a7e7cf8519e"},"vehicle_type_id":"4","last_reported":1733497800,"current_range_meters":0,"station_id":"","pricing_plan_id":"cebpf4jnsgd1na2vs0mg"},{"bike_id":"b8a22ce7-509e-4761-8ab0-753f3399c6a5","system_id":"levelo_inurba_marseille","lat":43.29037,"lon":5.39948,"is_reserved":false,"is_disabled":false,"rental_uris":{"android":"levelo://app?vid=b8a22ce7-509e-4761-8ab0-753f3399c6a5","ios":"levelo://app?vid=b8a22ce7-509e-4761-8ab0-753f3399c6a5"},"vehicle_type_id":"4","last_reported":1733497800,"current_range_meters":38000,"station_id":"ce4bh392rcd13ifvqdm0","pricing_plan_id":"cebpf4jnsgd1na2vs0mg"},{"bike_id":"84eddd35-4076-462c-b0e4-9c17c748aeff","system_id":"levelo_inurba_marseille","lat":43.33771,"lon":5.37491,"is_reserved":false,"is_disabled":false,"rental_uris":{"android":"levelo://app?vid=84eddd35-4076-462c-b0e4-9c17c748aeff","ios":"levelo://app?vid=84eddd35-4076-462c-b0e4-9c17c748aeff"},"vehicle_type_id":"4","last_reported":1733497800,"current_range_meters":22800,"station_id":"","pricing_plan_id":"cebpf4jnsgd1na2vs0mg"},{"bike_id":"f0d3a8b0-7f91-4a10-9d7c-db78ae274294","system_id":"levelo_inurba_marseille","lat":43.31191,"lon":5.37237,"is_reserved":false,"is_disabled":false,"rental_uris":{"android":"levelo://app?vid=f0d3a8b0-7f91-4a10-9d7c-db78ae274294","ios":"levelo://app?vid=f0d3a8b0-7f91-4a10-9d7c-db78ae274294"},"vehicle_type_id":"4","last_reported":1733497800,"current_range_meters":34000,"station_id":"","pricing_plan_id":"cebpf4jnsgd1na2vs0mg"},{"bike_id":"783c8722-f61d-4e13-bbdc-d620ad63e18c","system_id":"levelo_inurba_marseille","lat":43.32336,"lon":5.40618,"is_reserved":false,"is_disabled":false,"rental_uris":{"android":"levelo://app?vid=783c8722-f61d-4e13-bbdc-d620ad63e18c","ios":"levelo://app?vid=783c8722-f61d-4e13-bbdc-d620ad63e18c"},"vehicle_type_id":"4","last_reported":1733497800,"current_range_meters":28000,"station_id":"ce4bhq92rcd13ifvqhjg","pricing_plan_id":"cebpf4jnsgd1na2vs0mg"},{"bike_id":"8d945386-d014-4a32-b28c-e33d29feac50","system_id":"levelo_inurba_marseille","lat":43.2961,"lon":5.38109,"is_reserved":false,"is_disabled":false,"rental_uris":{"android":"levelo://app?vid=8d945386-d014-4a32-b28c-e33d29feac50","ios":"levelo://app?vid=8d945386-d014-4a32-b28c-e33d29feac50"},"vehicle_type_id":"4","last_reported":1733497800,"current_range_meters":3600,"station_id":"ce4bgl12rcd13ifvqbo0","pricing_plan_id":"cebpf4jnsgd1na2vs0mg"},{"bike_id":"f1f5f16a-ff1f-42e7-b1ff-3590402569d5","system_id":"levelo_inurba_marseille","lat":43.28856,"lon":5.35845,"is_reserved":false,"is_disabled":true,"rental_uris":{"android":"levelo://app?vid=f1f5f16a-ff1f-42e7-b1ff-3590402569d5","ios":"levelo://app?vid=f1f5f16a-ff1f-42e7-b1ff-3590402569d5"},"vehicle_type_id":"4","last_reported":1733497800,"current_range_meters":1600,"station_id":"ce4bhb12rcd13ifvqem0","pricing_plan_id":"cebpf4jnsgd1na2vs0mg"},{"bike_id":"a8264fb2-dad4-4c52-9230-cf80b47302d6","system_id":"levelo_inurba_marseille","lat":43.31995,"lon":5.3816,"is_reserved":false,"is_disabled":false,"rental_uris":{"android":"levelo://app?vid=a8264fb2-dad4-4c52-9230-cf80b47302d6","ios":"levelo://app?vid=a8264fb2-dad4-4c52-9230-cf80b47302d6"},"vehicle_type_id":"4","last_reported":1733497800,"current_range_meters":12000,"station_id":"ce4bhr12rcd13ifvqhpg","pricing_plan_id":"cebpf4jnsgd1na2vs0mg"},{"bike_id":"5edf82fa-e9d0-4d1f-98f1-37c98092771a","system_id":"levelo_inurba_marseille","lat":43.23188,"lon":5.35548,"is_reserved":false,"is_disabled":false,"rental_uris":{"android":"levelo://app?vid=5edf82fa-e9d0-4d1f-98f1-37c98092771a","ios":"levelo://app?vid=5edf82fa-e9d0-4d1f-98f1-37c98092771a"},"vehicle_type_id":"4","last_reported":1733497800,"current_range_meters":38800,"station_id":"ce4bhu92rcd13ifvqi70","pricing_plan_id":"cebpf4jnsgd1na2vs0mg"},{"bike_id":"870f1a45-5cd2-4b5d-a5c5-1df7eb02cf49","system_id":"levelo_inurba_marseille","lat":43.29942,"lon":5.36554,"is_reserved":false,"is_disabled":true,"rental_uris":{"android":"levelo://app?vid=870f1a45-5cd2-4b5d-a5c5-1df7eb02cf49","ios":"levelo://app?vid=870f1a45-5cd2-4b5d-a5c5-1df7eb02cf49"},"vehicle_type_id":"4","last_reported":1733497800,"current_range_meters":0,"station_id":"ce4bgm92rcd13ifvqbr0","pricing_plan_id":"cebpf4jnsgd1na2vs0mg"},{"bike_id":"5c27a1c0-fefa-4c09-893f-8aee30a8a434","system_id":"levelo_inurba_marseille","lat":43.31123,"lon":5.3778,"is_reserved":false,"is_disabled":false,"rental_uris":{"android":"levelo://app?vid=5c27a1c0-fefa-4c09-893f-8aee30a8a434","ios":"levelo://app?vid=5c27a1c0-fefa-4c09-893f-8aee30a8a434"},"vehicle_type_id":"4","last_reported":1733497800,"current_range_meters":22000,"station_id":"ce4bgt92rcd13ifvqcg0","pricing_plan_id":"cebpf4jnsgd1na2vs0mg"},{"bike_id":"e27fdd58-2ce6-4040-85b4-36dd8a9e4364","system_id":"levelo_inurba_marseille","lat":43.29913,"lon":5.38155,"is_reserved":false,"is_disabled":false,"rental_uris":{"android":"levelo://app?vid=e27fdd58-2ce6-4040-85b4-36dd8a9e4364","ios":"levelo://app?vid=e27fdd58-2ce6-4040-85b4-36dd8a9e4364"},"vehicle_type_id":"4","last_reported":1733497800,"current_range_meters":16400,"station_id":"ce4bgj12rcd13ifvqbc0","pricing_plan_id":"cebpf4jnsgd1na2vs0mg"},{"bike_id":"16b1033d-9d73-4e99-b963-a0bc0fcdaaae","system_id":"levelo_inurba_marseille","lat":43.29418,"lon":5.3862,"is_reserved":false,"is_disabled":false,"rental_uris":{"android":"levelo://app?vid=16b1033d-9d73-4e99-b963-a0bc0fcdaaae","ios":"levelo://app?vid=16b1033d-9d73-4e99-b963-a0bc0fcdaaae"},"vehicle_type_id":"4","last_reported":1733497800,"current_range_meters":33600,"station_id":"ce4bh2h2rcd13ifvqdh0","pricing_plan_id":"cebpf4jnsgd1na2vs0mg"},{"bike_id":"2e73801d-3395-46c2-91c4-86882530a7f3","system_id":"levelo_inurba_marseille","lat":43.31246,"lon":5.38142,"is_reserved":false,"is_disabled":false,"rental_uris":{"android":"levelo://app?vid=2e73801d-3395-46c2-91c4-86882530a7f3","ios":"levelo://app?vid=2e73801d-3395-46c2-91c4-86882530a7f3"},"vehicle_type_id":"4","last_reported":1733497800,"current_range_meters":36000,"station_id":"","pricing_plan_id":"cebpf4jnsgd1na2vs0mg"},{"bike_id":"3ac118e6-721e-40e5-aa6f-e0ea2c89658e","system_id":"levelo_inurba_marseille","lat":43.29933,"lon":5.36555,"is_reserved":false,"is_disabled":false,"rental_uris":{"android":"levelo://app?vid=3ac118e6-721e-40e5-aa6f-e0ea2c89658e","ios":"levelo://app?vid=3ac118e6-721e-40e5-aa6f-e0ea2c89658e"},"vehicle_type_id":"4","last_reported":1733497800,"current_range_meters":32000,"station_id":"ce4bgm92rcd13ifvqbr0","pricing_plan_id":"cebpf4jnsgd1na2vs0mg"},{"bike_id":"9202c63e-372c-4469-a5c1-8e35757d1940","system_id":"levelo_inurba_marseille","lat":43.30053,"lon":5.38832,"is_reserved":false,"is_disabled":true,"rental_uris":{"android":"levelo://app?vid=9202c63e-372c-4469-a5c1-8e35757d1940","ios":"levelo://app?vid=9202c63e-372c-4469-a5c1-8e35757d1940"},"vehicle_type_id":"4","last_reported":1733497800,"current_range_meters":0,"station_id":"","pricing_plan_id":"cebpf4jnsgd1na2vs0mg"},{"bike_id":"eb896402-09db-467f-811b-5ef4e27cce2e","system_id":"levelo_inurba_marseille","lat":43.30897,"lon":5.37203,"is_reserved":false,"is_disabled":false,"rental_uris":{"android":"levelo://app?vid=eb896402-09db-467f-811b-5ef4e27cce2e","ios":"levelo://app?vid=eb896402-09db-467f-811b-5ef4e27cce2e"},"vehicle_type_id":"4","last_reported":1733497800,"current_range_meters":12000,"station_id":"ce4bguh2rcd13ifvqckg","pricing_plan_id":"cebpf4jnsgd1na2vs0mg"},{"bike_id":"1c23ca72-7ca1-40ee-8075-6d91654dc4a7","system_id":"levelo_inurba_marseille","lat":43.23153,"lon":5.43716,"is_reserved":false,"is_disabled":false,"rental_uris":{"android":"levelo://app?vid=1c23ca72-7ca1-40ee-8075-6d91654dc4a7","ios":"levelo://app?vid=1c23ca72-7ca1-40ee-8075-6d91654dc4a7"},"vehicle_type_id":"4","last_reported":1733497800,"current_range_meters":7200,"station_id":"ce4bhmp2rcd13ifvqgog","pricing_plan_id":"cebpf4jnsgd1na2vs0mg"},{"bike_id":"fe74ab4f-9a54-496c-8409-dcbadb066a0a","system_id":"levelo_inurba_marseille","lat":43.32336,"lon":5.4062,"is_reserved":false,"is_disabled":false,"rental_uris":{"android":"levelo://app?vid=fe74ab4f-9a54-496c-8409-dcbadb066a0a","ios":"levelo://app?vid=fe74ab4f-9a54-496c-8409-dcbadb066a0a"},"vehicle_type_id":"4","last_reported":1733497800,"current_range_meters":12400,"station_id":"ce4bhq92rcd13ifvqhjg","pricing_plan_id":"cebpf4jnsgd1na2vs0mg"},{"bike_id":"0deb7b46-3bee-4382-87b1-3984fb62457f","system_id":"levelo_inurba_marseille","lat":43.28742,"lon":5.38914,"is_reserved":false,"is_disabled":true,"rental_uris":{"android":"levelo://app?vid=0deb7b46-3bee-4382-87b1-3984fb62457f","ios":"levelo://app?vid=0deb7b46-3bee-4382-87b1-3984fb62457f"},"vehicle_type_id":"4","last_reported":1733497800,"current_range_meters":30400,"station_id":"","pricing_plan_id":"cebpf4jnsgd1na2vs0mg"},{"bike_id":"cf3e6ea0-09ff-406c-b357-28a6a6117f94","system_id":"levelo_inurba_marseille","lat":43.22932,"lon":5.35378,"is_reserved":false,"is_disabled":false,"rental_uris":{"android":"levelo://app?vid=cf3e6ea0-09ff-406c-b357-28a6a6117f94","ios":"levelo://app?vid=cf3e6ea0-09ff-406c-b357-28a6a6117f94"},"vehicle_type_id":"4","last_reported":1733497800,"current_range_meters":39200,"station_id":"cpo3532slgdg3j2ikp40","pricing_plan_id":"cebpf4jnsgd1na2vs0mg"},{"bike_id":"1bfd8ca3-8a0d-4e18-9e5d-d6b17b568f65","system_id":"levelo_inurba_marseille","lat":43.28938,"lon":5.36638,"is_reserved":false,"is_disabled":false,"rental_uris":{"android":"levelo://app?vid=1bfd8ca3-8a0d-4e18-9e5d-d6b17b568f65","ios":"levelo://app?vid=1bfd8ca3-8a0d-4e18-9e5d-d6b17b568f65"},"vehicle_type_id":"4","last_reported":1733497800,"current_range_meters":27600,"station_id":"ce4bhap2rcd13ifvqek0","pricing_plan_id":"cebpf4jnsgd1na2vs0mg"},{"bike_id":"5ae341a8-40b3-423a-b8fd-03f037018098","system_id":"levelo_inurba_marseille","lat":43.27975,"lon":5.38729,"is_reserved":false,"is_disabled":true,"rental_uris":{"android":"levelo://app?vid=5ae341a8-40b3-423a-b8fd-03f037018098","ios":"levelo://app?vid=5ae341a8-40b3-423a-b8fd-03f037018098"},"vehicle_type_id":"4","last_reported":1733497800,"current_range_meters":0,"station_id":"ce4bhg12rcd13ifvqf80","pricing_plan_id":"cebpf4jnsgd1na2vs0mg"},{"bike_id":"719e509a-25e4-4b1b-9830-f708d85d7593","system_id":"levelo_inurba_marseille","lat":43.29404,"lon":5.37451,"is_reserved":false,"is_disabled":true,"rental_uris":{"android":"levelo://app?vid=719e509a-25e4-4b1b-9830-f708d85d7593","ios":"levelo://app?vid=719e509a-25e4-4b1b-9830-f708d85d7593"},"vehicle_type_id":"4","last_reported":1733497800,"current_range_meters":0,"station_id":"","pricing_plan_id":"cebpf4jnsgd1na2vs0mg"},{"bike_id":"b4e13fa5-83fd-4c0c-9822-9dc1fd0d1baf","system_id":"levelo_inurba_marseille","lat":43.2956,"lon":5.42294,"is_reserved":false,"is_disabled":false,"rental_uris":{"android":"levelo://app?vid=b4e13fa5-83fd-4c0c-9822-9dc1fd0d1baf","ios":"levelo://app?vid=b4e13fa5-83fd-4c0c-9822-9dc1fd0d1baf"},"vehicle_type_id":"4","last_reported":1733497800,"current_range_meters":26000,"station_id":"ce4bhph2rcd13ifvqhdg","pricing_plan_id":"cebpf4jnsgd1na2vs0mg"},{"bike_id":"7a0a2714-105e-4622-8b3e-a7dd62dc6941","system_id":"levelo_inurba_marseille","lat":43.29266,"lon":5.384189,"is_reserved":false,"is_disabled":true,"rental_uris":{"android":"levelo://app?vid=7a0a2714-105e-4622-8b3e-a7dd62dc6941","ios":"levelo://app?vid=7a0a2714-105e-4622-8b3e-a7dd62dc6941"},"vehicle_type_id":"4","last_reported":1733497800,"current_range_meters":0,"station_id":"","pricing_plan_id":"cebpf4jnsgd1na2vs0mg"},{"bike_id":"34555c11-8e20-47a9-978b-e6cd1dbff5ce","system_id":"levelo_inurba_marseille","lat":43.26941,"lon":5.40254,"is_reserved":false,"is_disabled":false,"rental_uris":{"android":"levelo://app?vid=34555c11-8e20-47a9-978b-e6cd1dbff5ce","ios":"levelo://app?vid=34555c11-8e20-47a9-978b-e6cd1dbff5ce"},"vehicle_type_id":"4","last_reported":1733497800,"current_range_meters":19600,"station_id":"cjm6bp8fraef2m0cb0m0","pricing_plan_id":"cebpf4jnsgd1na2vs0mg"},{"bike_id":"d58c6100-d497-4193-a627-5c824ac6dcba","system_id":"levelo_inurba_marseille","lat":43.2893,"lon":5.36634,"is_reserved":false,"is_disabled":false,"rental_uris":{"android":"levelo://app?vid=d58c6100-d497-4193-a627-5c824ac6dcba","ios":"levelo://app?vid=d58c6100-d497-4193-a627-5c824ac6dcba"},"vehicle_type_id":"4","last_reported":1733497800,"current_range_meters":22400,"station_id":"ce4bhap2rcd13ifvqek0","pricing_plan_id":"cebpf4jnsgd1na2vs0mg"},{"bike_id":"41cd85ba-06b1-41a9-80cd-57c477bd458f","system_id":"levelo_inurba_marseille","lat":43.29694,"lon":5.37292,"is_reserved":false,"is_disabled":false,"rental_uris":{"android":"levelo://app?vid=41cd85ba-06b1-41a9-80cd-57c477bd458f","ios":"levelo://app?vid=41cd85ba-06b1-41a9-80cd-57c477bd458f"},"vehicle_type_id":"4","last_reported":1733497800,"current_range_meters":38400,"station_id":"ce4bgk12rcd13ifvqbj0","pricing_plan_id":"cebpf4jnsgd1na2vs0mg"},{"bike_id":"cf8ccab0-0120-43f4-b9ca-75c8c52d1850","system_id":"levelo_inurba_marseille","lat":43.26812,"lon":5.40272,"is_reserved":false,"is_disabled":false,"rental_uris":{"android":"levelo://app?vid=cf8ccab0-0120-43f4-b9ca-75c8c52d1850","ios":"levelo://app?vid=cf8ccab0-0120-43f4-b9ca-75c8c52d1850"},"vehicle_type_id":"4","last_reported":1733497800,"current_range_meters":38800,"station_id":"ce501612rcd8frsf0b60","pricing_plan_id":"cebpf4jnsgd1na2vs0mg"},{"bike_id":"7cab2b0e-b85d-461c-a6ff-00d3bd0ccb9d","system_id":"levelo_inurba_marseille","lat":43.29103,"lon":5.38144,"is_reserved":false,"is_disabled":true,"rental_uris":{"android":"levelo://app?vid=7cab2b0e-b85d-461c-a6ff-00d3bd0ccb9d","ios":"levelo://app?vid=7cab2b0e-b85d-461c-a6ff-00d3bd0ccb9d"},"vehicle_type_id":"4","last_reported":1733497800,"current_range_meters":0,"station_id":"ce4bh512rcd13ifvqe2g","pricing_plan_id":"cebpf4jnsgd1na2vs0mg"},{"bike_id":"fcb62435-bf2a-4b29-aa1d-0883c27a83a9","system_id":"levelo_inurba_marseille","lat":43.28419,"lon":5.34988,"is_reserved":false,"is_disabled":true,"rental_uris":{"android":"levelo://app?vid=fcb62435-bf2a-4b29-aa1d-0883c27a83a9","ios":"levelo://app?vid=fcb62435-bf2a-4b29-aa1d-0883c27a83a9"},"vehicle_type_id":"4","last_reported":1733497800,"current_range_meters":0,"station_id":"ce4bhbh2rcd13ifvqepg","pricing_plan_id":"cebpf4jnsgd1na2vs0mg"},{"bike_id":"b01ba929-1580-401b-973d-e4a15d746d4a","system_id":"levelo_inurba_marseille","lat":43.22928,"lon":5.35377,"is_reserved":false,"is_disabled":false,"rental_uris":{"android":"levelo://app?vid=b01ba929-1580-401b-973d-e4a15d746d4a","ios":"levelo://app?vid=b01ba929-1580-401b-973d-e4a15d746d4a"},"vehicle_type_id":"4","last_reported":1733497800,"current_range_meters":8800,"station_id":"cpo3532slgdg3j2ikp40","pricing_plan_id":"cebpf4jnsgd1na2vs0mg"},{"bike_id":"8c1e28b4-904f-48d7-ba6d-d3b5b5d05922","system_id":"levelo_inurba_marseille","lat":43.29383,"lon":5.401,"is_reserved":false,"is_disabled":true,"rental_uris":{"android":"levelo://app?vid=8c1e28b4-904f-48d7-ba6d-d3b5b5d05922","ios":"levelo://app?vid=8c1e28b4-904f-48d7-ba6d-d3b5b5d05922"},"vehicle_type_id":"4","last_reported":1733497800,"current_range_meters":0,"station_id":"","pricing_plan_id":"cebpf4jnsgd1na2vs0mg"},{"bike_id":"0a43f817-3d21-4907-aab1-172705ef3170","system_id":"levelo_inurba_marseille","lat":43.27814,"lon":5.40717,"is_reserved":false,"is_disabled":false,"rental_uris":{"android":"levelo://app?vid=0a43f817-3d21-4907-aab1-172705ef3170","ios":"levelo://app?vid=0a43f817-3d21-4907-aab1-172705ef3170"},"vehicle_type_id":"4","last_reported":1733497800,"current_range_meters":28400,"station_id":"ce4bhnh2rcd13ifvqgtg","pricing_plan_id":"cebpf4jnsgd1na2vs0mg"},{"bike_id":"7b9b3679-8df0-485d-a17a-ac62ea96167a","system_id":"levelo_inurba_marseille","lat":43.27982,"lon":5.38709,"is_reserved":false,"is_disabled":true,"rental_uris":{"android":"levelo://app?vid=7b9b3679-8df0-485d-a17a-ac62ea96167a","ios":"levelo://app?vid=7b9b3679-8df0-485d-a17a-ac62ea96167a"},"vehicle_type_id":"4","last_reported":1733497800,"current_range_meters":13600,"station_id":"ce4bhg12rcd13ifvqf80","pricing_plan_id":"cebpf4jnsgd1na2vs0mg"},{"bike_id":"f6bedac7-c30b-4b43-b9bc-66f3f86cbaa2","system_id":"levelo_inurba_marseille","lat":43.29093,"lon":5.3815,"is_reserved":false,"is_disabled":false,"rental_uris":{"android":"levelo://app?vid=f6bedac7-c30b-4b43-b9bc-66f3f86cbaa2","ios":"levelo://app?vid=f6bedac7-c30b-4b43-b9bc-66f3f86cbaa2"},"vehicle_type_id":"4","last_reported":1733497800,"current_range_meters":28400,"station_id":"ce4bh512rcd13ifvqe2g","pricing_plan_id":"cebpf4jnsgd1na2vs0mg"},{"bike_id":"0739cb89-586c-4275-beff-81c62ae67a52","system_id":"levelo_inurba_marseille","lat":43.27815,"lon":5.40717,"is_reserved":false,"is_disabled":true,"rental_uris":{"android":"levelo://app?vid=0739cb89-586c-4275-beff-81c62ae67a52","ios":"levelo://app?vid=0739cb89-586c-4275-beff-81c62ae67a52"},"vehicle_type_id":"4","last_reported":1733497800,"current_range_meters":0,"station_id":"ce4bhnh2rcd13ifvqgtg","pricing_plan_id":"cebpf4jnsgd1na2vs0mg"},{"bike_id":"1ee16765-0c02-4b4c-9590-0b78687b4cbb","system_id":"levelo_inurba_marseille","lat":43.32553,"lon":5.4144,"is_reserved":false,"is_disabled":false,"rental_uris":{"android":"levelo://app?vid=1ee16765-0c02-4b4c-9590-0b78687b4cbb","ios":"levelo://app?vid=1ee16765-0c02-4b4c-9590-0b78687b4cbb"},"vehicle_type_id":"4","last_reported":1733497800,"current_range_meters":17200,"station_id":"ce4bhq12rcd13ifvqhhg","pricing_plan_id":"cebpf4jnsgd1na2vs0mg"},{"bike_id":"157f24cf-ff2f-4c38-98dc-c1fa10142ac1","system_id":"levelo_inurba_marseille","lat":43.2737,"lon":5.36248,"is_reserved":false,"is_disabled":false,"rental_uris":{"android":"levelo://app?vid=157f24cf-ff2f-4c38-98dc-c1fa10142ac1","ios":"levelo://app?vid=157f24cf-ff2f-4c38-98dc-c1fa10142ac1"},"vehicle_type_id":"4","last_reported":1733497800,"current_range_meters":38800,"station_id":"ce4bhbh2rcd13ifvqeo0","pricing_plan_id":"cebpf4jnsgd1na2vs0mg"},{"bike_id":"9d7ad871-bd10-43ef-9428-020f12d87ed7","system_id":"levelo_inurba_marseille","lat":43.29264,"lon":5.38449,"is_reserved":false,"is_disabled":false,"rental_uris":{"android":"levelo://app?vid=9d7ad871-bd10-43ef-9428-020f12d87ed7","ios":"levelo://app?vid=9d7ad871-bd10-43ef-9428-020f12d87ed7"},"vehicle_type_id":"4","last_reported":1733497800,"current_range_meters":6800,"station_id":"ce4bh692rcd13ifvqea0","pricing_plan_id":"cebpf4jnsgd1na2vs0mg"},{"bike_id":"150c1164-c501-4e12-bb54-760d28101acc","system_id":"levelo_inurba_marseille","lat":43.29041,"lon":5.37561,"is_reserved":false,"is_disabled":true,"rental_uris":{"android":"levelo://app?vid=150c1164-c501-4e12-bb54-760d28101acc","ios":"levelo://app?vid=150c1164-c501-4e12-bb54-760d28101acc"},"vehicle_type_id":"4","last_reported":1733497800,"current_range_meters":1600,"station_id":"ce4bh692rcd13ifvqe90","pricing_plan_id":"cebpf4jnsgd1na2vs0mg"},{"bike_id":"6ad8fff5-6505-40fc-8922-2acdd3c82e7b","system_id":"levelo_inurba_marseille","lat":43.29796,"lon":5.38116,"is_reserved":false,"is_disabled":true,"rental_uris":{"android":"levelo://app?vid=6ad8fff5-6505-40fc-8922-2acdd3c82e7b","ios":"levelo://app?vid=6ad8fff5-6505-40fc-8922-2acdd3c82e7b"},"vehicle_type_id":"4","last_reported":1733497800,"current_range_meters":23200,"station_id":"ce4bgip2rcd13ifvqbb0","pricing_plan_id":"cebpf4jnsgd1na2vs0mg"},{"bike_id":"8b3324fb-93a3-421d-bde3-22f9a7a01e6f","system_id":"levelo_inurba_marseille","lat":43.30308,"lon":5.36905,"is_reserved":false,"is_disabled":false,"rental_uris":{"android":"levelo://app?vid=8b3324fb-93a3-421d-bde3-22f9a7a01e6f","ios":"levelo://app?vid=8b3324fb-93a3-421d-bde3-22f9a7a01e6f"},"vehicle_type_id":"4","last_reported":1733497800,"current_range_meters":34800,"station_id":"ce4bgqh2rcd13ifvqc5g","pricing_plan_id":"cebpf4jnsgd1na2vs0mg"},{"bike_id":"7f3e5379-4164-4786-9154-aacb13f149a3","system_id":"levelo_inurba_marseille","lat":43.28622,"lon":5.3509,"is_reserved":false,"is_disabled":true,"rental_uris":{"android":"levelo://app?vid=7f3e5379-4164-4786-9154-aacb13f149a3","ios":"levelo://app?vid=7f3e5379-4164-4786-9154-aacb13f149a3"},"vehicle_type_id":"4","last_reported":1733497800,"current_range_meters":0,"station_id":"ce4bhch2rcd13ifvqeug","pricing_plan_id":"cebpf4jnsgd1na2vs0mg"},{"bike_id":"8eb0d0c6-cfaf-4968-8ce1-d4622a486dbb","system_id":"levelo_inurba_marseille","lat":43.33723,"lon":5.39197,"is_reserved":false,"is_disabled":false,"rental_uris":{"android":"levelo://app?vid=8eb0d0c6-cfaf-4968-8ce1-d4622a486dbb","ios":"levelo://app?vid=8eb0d0c6-cfaf-4968-8ce1-d4622a486dbb"},"vehicle_type_id":"4","last_reported":1733497800,"current_range_meters":12000,"station_id":"ce4bhr92rcd13ifvqhsg","pricing_plan_id":"cebpf4jnsgd1na2vs0mg"},{"bike_id":"3d9eb939-76b6-44e2-bc3a-fdf83b07333f","system_id":"levelo_inurba_marseille","lat":43.28974,"lon":5.37842,"is_reserved":false,"is_disabled":false,"rental_uris":{"android":"levelo://app?vid=3d9eb939-76b6-44e2-bc3a-fdf83b07333f","ios":"levelo://app?vid=3d9eb939-76b6-44e2-bc3a-fdf83b07333f"},"vehicle_type_id":"4","last_reported":1733497800,"current_range_meters":34800,"station_id":"ce4bh9p2rcd13ifvqed0","pricing_plan_id":"cebpf4jnsgd1na2vs0mg"},{"bike_id":"8ddada62-4afa-4384-95e7-49b22be9190a","system_id":"levelo_inurba_marseille","lat":43.2707,"lon":5.42279,"is_reserved":false,"is_disabled":true,"rental_uris":{"android":"levelo://app?vid=8ddada62-4afa-4384-95e7-49b22be9190a","ios":"levelo://app?vid=8ddada62-4afa-4384-95e7-49b22be9190a"},"vehicle_type_id":"4","last_reported":1733497800,"current_range_meters":0,"station_id":"ce4bhk92rcd13ifvqgb0","pricing_plan_id":"cebpf4jnsgd1na2vs0mg"},{"bike_id":"581367ce-481c-40c1-a0e2-d5680f7b4da1","system_id":"levelo_inurba_marseille","lat":43.25917,"lon":5.40882,"is_reserved":false,"is_disabled":false,"rental_uris":{"android":"levelo://app?vid=581367ce-481c-40c1-a0e2-d5680f7b4da1","ios":"levelo://app?vid=581367ce-481c-40c1-a0e2-d5680f7b4da1"},"vehicle_type_id":"4","last_reported":1733497800,"current_range_meters":38000,"station_id":"ce4bhm92rcd13ifvqglg","pricing_plan_id":"cebpf4jnsgd1na2vs0mg"},{"bike_id":"91aa83af-d339-4f52-bd3c-a6cde3d29aab","system_id":"levelo_inurba_marseille","lat":43.28485,"lon":5.38562,"is_reserved":false,"is_disabled":false,"rental_uris":{"android":"levelo://app?vid=91aa83af-d339-4f52-bd3c-a6cde3d29aab","ios":"levelo://app?vid=91aa83af-d339-4f52-bd3c-a6cde3d29aab"},"vehicle_type_id":"4","last_reported":1733497800,"current_range_meters":12000,"station_id":"ce4bh8p2rcd13ifvqeb0","pricing_plan_id":"cebpf4jnsgd1na2vs0mg"},{"bike_id":"0ada4ac8-82be-41ab-a4d6-04558624c236","system_id":"levelo_inurba_marseille","lat":43.3248,"lon":5.36566,"is_reserved":false,"is_disabled":false,"rental_uris":{"android":"levelo://app?vid=0ada4ac8-82be-41ab-a4d6-04558624c236","ios":"levelo://app?vid=0ada4ac8-82be-41ab-a4d6-04558624c236"},"vehicle_type_id":"4","last_reported":1733497800,"current_range_meters":12000,"station_id":"ce4bhs12rcd13ifvqhvg","pricing_plan_id":"cebpf4jnsgd1na2vs0mg"},{"bike_id":"8800324d-73b8-4bae-95a8-e93d063d21d7","system_id":"levelo_inurba_marseille","lat":43.28706,"lon":5.39975,"is_reserved":false,"is_disabled":false,"rental_uris":{"android":"levelo://app?vid=8800324d-73b8-4bae-95a8-e93d063d21d7","ios":"levelo://app?vid=8800324d-73b8-4bae-95a8-e93d063d21d7"},"vehicle_type_id":"4","last_reported":1733497800,"current_range_meters":38800,"station_id":"ce4bho92rcd13ifvqh3g","pricing_plan_id":"cebpf4jnsgd1na2vs0mg"},{"bike_id":"710c9d13-8a64-4ca7-ba64-fd3194714b19","system_id":"levelo_inurba_marseille","lat":43.30799,"lon":5.37341,"is_reserved":false,"is_disabled":false,"rental_uris":{"android":"levelo://app?vid=710c9d13-8a64-4ca7-ba64-fd3194714b19","ios":"levelo://app?vid=710c9d13-8a64-4ca7-ba64-fd3194714b19"},"vehicle_type_id":"4","last_reported":1733497800,"current_range_meters":8800,"station_id":"","pricing_plan_id":"cebpf4jnsgd1na2vs0mg"},{"bike_id":"a4b9e425-64b8-4ce2-a5ab-5fcc5d1230a4","system_id":"levelo_inurba_marseille","lat":43.32103,"lon":5.36775,"is_reserved":false,"is_disabled":false,"rental_uris":{"android":"levelo://app?vid=a4b9e425-64b8-4ce2-a5ab-5fcc5d1230a4","ios":"levelo://app?vid=a4b9e425-64b8-4ce2-a5ab-5fcc5d1230a4"},"vehicle_type_id":"4","last_reported":1733497800,"current_range_meters":29600,"station_id":"ce4bhrh2rcd13ifvqhug","pricing_plan_id":"cebpf4jnsgd1na2vs0mg"},{"bike_id":"51991a0a-fe9c-412b-8c2b-242ee7813ef4","system_id":"levelo_inurba_marseille","lat":43.23967,"lon":5.36636,"is_reserved":false,"is_disabled":false,"rental_uris":{"android":"levelo://app?vid=51991a0a-fe9c-412b-8c2b-242ee7813ef4","ios":"levelo://app?vid=51991a0a-fe9c-412b-8c2b-242ee7813ef4"},"vehicle_type_id":"4","last_reported":1733497800,"current_range_meters":39200,"station_id":"ce4bhi12rcd13ifvqfp0","pricing_plan_id":"cebpf4jnsgd1na2vs0mg"},{"bike_id":"fd98eaa9-4d55-4e7b-aa90-0d14707466d9","system_id":"levelo_inurba_marseille","lat":43.337444,"lon":5.374475,"is_reserved":false,"is_disabled":true,"rental_uris":{"android":"levelo://app?vid=fd98eaa9-4d55-4e7b-aa90-0d14707466d9","ios":"levelo://app?vid=fd98eaa9-4d55-4e7b-aa90-0d14707466d9"},"vehicle_type_id":"4","last_reported":1733497800,"current_range_meters":0,"station_id":"","pricing_plan_id":"cebpf4jnsgd1na2vs0mg"},{"bike_id":"cce6f420-4439-4f23-b16c-85a1cc91ce44","system_id":"levelo_inurba_marseille","lat":43.26212,"lon":5.37442,"is_reserved":false,"is_disabled":false,"rental_uris":{"android":"levelo://app?vid=cce6f420-4439-4f23-b16c-85a1cc91ce44","ios":"levelo://app?vid=cce6f420-4439-4f23-b16c-85a1cc91ce44"},"vehicle_type_id":"4","last_reported":1733497800,"current_range_meters":38800,"station_id":"ce4bhgp2rcd13ifvqfc0","pricing_plan_id":"cebpf4jnsgd1na2vs0mg"},{"bike_id":"58ae90bf-28dc-4332-a45b-369b54ae3a67","system_id":"levelo_inurba_marseille","lat":43.284118,"lon":5.349967,"is_reserved":false,"is_disabled":false,"rental_uris":{"android":"levelo://app?vid=58ae90bf-28dc-4332-a45b-369b54ae3a67","ios":"levelo://app?vid=58ae90bf-28dc-4332-a45b-369b54ae3a67"},"vehicle_type_id":"4","last_reported":1733497800,"current_range_meters":39200,"station_id":"ce4bhbh2rcd13ifvqepg","pricing_plan_id":"cebpf4jnsgd1na2vs0mg"},{"bike_id":"b1c4eb48-3657-4b66-b5ed-53507d84fe46","system_id":"levelo_inurba_marseille","lat":43.29794,"lon":5.39351,"is_reserved":false,"is_disabled":true,"rental_uris":{"android":"levelo://app?vid=b1c4eb48-3657-4b66-b5ed-53507d84fe46","ios":"levelo://app?vid=b1c4eb48-3657-4b66-b5ed-53507d84fe46"},"vehicle_type_id":"4","last_reported":1733497800,"current_range_meters":0,"station_id":"chh1huq6cuj3fo74tm60","pricing_plan_id":"cebpf4jnsgd1na2vs0mg"},{"bike_id":"c2d8a1c2-d166-4a36-b32f-beec95c93bd5","system_id":"levelo_inurba_marseille","lat":43.33756,"lon":5.37459,"is_reserved":false,"is_disabled":false,"rental_uris":{"android":"levelo://app?vid=c2d8a1c2-d166-4a36-b32f-beec95c93bd5","ios":"levelo://app?vid=c2d8a1c2-d166-4a36-b32f-beec95c93bd5"},"vehicle_type_id":"4","last_reported":1733497800,"current_range_meters":4000,"station_id":"","pricing_plan_id":"cebpf4jnsgd1na2vs0mg"},{"bike_id":"2a8c409c-b216-4055-9cb8-d20b841540f1","system_id":"levelo_inurba_marseille","lat":43.31077,"lon":5.38369,"is_reserved":false,"is_disabled":false,"rental_uris":{"android":"levelo://app?vid=2a8c409c-b216-4055-9cb8-d20b841540f1","ios":"levelo://app?vid=2a8c409c-b216-4055-9cb8-d20b841540f1"},"vehicle_type_id":"4","last_reported":1733497800,"current_range_meters":4400,"station_id":"ce4bgv92rcd13ifvqcr0","pricing_plan_id":"cebpf4jnsgd1na2vs0mg"},{"bike_id":"7a7888d2-4b0b-4186-8376-568c3b2ce15a","system_id":"levelo_inurba_marseille","lat":43.29398,"lon":5.38601,"is_reserved":false,"is_disabled":true,"rental_uris":{"android":"levelo://app?vid=7a7888d2-4b0b-4186-8376-568c3b2ce15a","ios":"levelo://app?vid=7a7888d2-4b0b-4186-8376-568c3b2ce15a"},"vehicle_type_id":"4","last_reported":1733497800,"current_range_meters":0,"station_id":"ce4bh2h2rcd13ifvqdh0","pricing_plan_id":"cebpf4jnsgd1na2vs0mg"},{"bike_id":"5976e944-e79a-451d-8f85-b143b67e5e11","system_id":"levelo_inurba_marseille","lat":43.25506,"lon":5.37675,"is_reserved":false,"is_disabled":true,"rental_uris":{"android":"levelo://app?vid=5976e944-e79a-451d-8f85-b143b67e5e11","ios":"levelo://app?vid=5976e944-e79a-451d-8f85-b143b67e5e11"},"vehicle_type_id":"4","last_reported":1733497800,"current_range_meters":0,"station_id":"ce4bhh12rcd13ifvqff0","pricing_plan_id":"cebpf4jnsgd1na2vs0mg"},{"bike_id":"f0f90d7a-a11e-420e-ae43-024f8cc9dc0b","system_id":"levelo_inurba_marseille","lat":43.27843,"lon":5.39207,"is_reserved":false,"is_disabled":false,"rental_uris":{"android":"levelo://app?vid=f0f90d7a-a11e-420e-ae43-024f8cc9dc0b","ios":"levelo://app?vid=f0f90d7a-a11e-420e-ae43-024f8cc9dc0b"},"vehicle_type_id":"4","last_reported":1733497800,"current_range_meters":12400,"station_id":"ce4bhjp2rcd13ifvqga0","pricing_plan_id":"cebpf4jnsgd1na2vs0mg"},{"bike_id":"37267792-4f8a-44e1-9946-ff3978fccde7","system_id":"levelo_inurba_marseille","lat":43.31728,"lon":5.42395,"is_reserved":false,"is_disabled":false,"rental_uris":{"android":"levelo://app?vid=37267792-4f8a-44e1-9946-ff3978fccde7","ios":"levelo://app?vid=37267792-4f8a-44e1-9946-ff3978fccde7"},"vehicle_type_id":"4","last_reported":1733497800,"current_range_meters":32400,"station_id":"ce4bhp92rcd13ifvqhbg","pricing_plan_id":"cebpf4jnsgd1na2vs0mg"},{"bike_id":"af09a0dc-fb31-4a7b-8389-8cfed4645295","system_id":"levelo_inurba_marseille","lat":43.27059,"lon":5.40261,"is_reserved":false,"is_disabled":false,"rental_uris":{"android":"levelo://app?vid=af09a0dc-fb31-4a7b-8389-8cfed4645295","ios":"levelo://app?vid=af09a0dc-fb31-4a7b-8389-8cfed4645295"},"vehicle_type_id":"4","last_reported":1733497800,"current_range_meters":8800,"station_id":"ce4bhk92rcd13ifvqgc0","pricing_plan_id":"cebpf4jnsgd1na2vs0mg"},{"bike_id":"dce35d6a-08b0-4b4c-b89b-7b5e69e85874","system_id":"levelo_inurba_marseille","lat":43.32481,"lon":5.3656,"is_reserved":false,"is_disabled":false,"rental_uris":{"android":"levelo://app?vid=dce35d6a-08b0-4b4c-b89b-7b5e69e85874","ios":"levelo://app?vid=dce35d6a-08b0-4b4c-b89b-7b5e69e85874"},"vehicle_type_id":"4","last_reported":1733497800,"current_range_meters":5600,"station_id":"ce4bhs12rcd13ifvqhvg","pricing_plan_id":"cebpf4jnsgd1na2vs0mg"},{"bike_id":"37727576-2d28-4525-b065-40affdaee0f8","system_id":"levelo_inurba_marseille","lat":43.32364,"lon":5.38881,"is_reserved":false,"is_disabled":false,"rental_uris":{"android":"levelo://app?vid=37727576-2d28-4525-b065-40affdaee0f8","ios":"levelo://app?vid=37727576-2d28-4525-b065-40affdaee0f8"},"vehicle_type_id":"4","last_reported":1733497800,"current_range_meters":36000,"station_id":"ce4bhqp2rcd13ifvqhog","pricing_plan_id":"cebpf4jnsgd1na2vs0mg"},{"bike_id":"3a352b39-ea88-4938-aca7-0d30863305b9","system_id":"levelo_inurba_marseille","lat":43.30608,"lon":5.37221,"is_reserved":false,"is_disabled":false,"rental_uris":{"android":"levelo://app?vid=3a352b39-ea88-4938-aca7-0d30863305b9","ios":"levelo://app?vid=3a352b39-ea88-4938-aca7-0d30863305b9"},"vehicle_type_id":"4","last_reported":1733497800,"current_range_meters":16400,"station_id":"ce4bgqh2rcd13ifvqc4g","pricing_plan_id":"cebpf4jnsgd1na2vs0mg"},{"bike_id":"f5561434-0740-4a3c-abc2-013f37687b8d","system_id":"levelo_inurba_marseille","lat":43.24823,"lon":5.3746,"is_reserved":false,"is_disabled":true,"rental_uris":{"android":"levelo://app?vid=f5561434-0740-4a3c-abc2-013f37687b8d","ios":"levelo://app?vid=f5561434-0740-4a3c-abc2-013f37687b8d"},"vehicle_type_id":"4","last_reported":1733497800,"current_range_meters":38800,"station_id":"ce4bhgh2rcd13ifvqfb0","pricing_plan_id":"cebpf4jnsgd1na2vs0mg"},{"bike_id":"2497263a-1e49-446f-8ac2-aedcbe0b5ea4","system_id":"levelo_inurba_marseille","lat":43.26212,"lon":5.37449,"is_reserved":false,"is_disabled":false,"rental_uris":{"android":"levelo://app?vid=2497263a-1e49-446f-8ac2-aedcbe0b5ea4","ios":"levelo://app?vid=2497263a-1e49-446f-8ac2-aedcbe0b5ea4"},"vehicle_type_id":"4","last_reported":1733497800,"current_range_meters":38800,"station_id":"ce4bhgp2rcd13ifvqfc0","pricing_plan_id":"cebpf4jnsgd1na2vs0mg"},{"bike_id":"2e25e5ac-189e-491e-a8a8-90c3dd347a2d","system_id":"levelo_inurba_marseille","lat":43.31358,"lon":5.36722,"is_reserved":false,"is_disabled":false,"rental_uris":{"android":"levelo://app?vid=2e25e5ac-189e-491e-a8a8-90c3dd347a2d","ios":"levelo://app?vid=2e25e5ac-189e-491e-a8a8-90c3dd347a2d"},"vehicle_type_id":"4","last_reported":1733497800,"current_range_meters":38800,"station_id":"ce4bgr92rcd13ifvqc6g","pricing_plan_id":"cebpf4jnsgd1na2vs0mg"},{"bike_id":"bc759f2e-64b0-486f-aefa-02322dc6d21b","system_id":"levelo_inurba_marseille","lat":43.25116,"lon":5.4032,"is_reserved":false,"is_disabled":false,"rental_uris":{"android":"levelo://app?vid=bc759f2e-64b0-486f-aefa-02322dc6d21b","ios":"levelo://app?vid=bc759f2e-64b0-486f-aefa-02322dc6d21b"},"vehicle_type_id":"4","last_reported":1733497800,"current_range_meters":36000,"station_id":"ce4bhlh2rcd13ifvqgig","pricing_plan_id":"cebpf4jnsgd1na2vs0mg"},{"bike_id":"cfaf4cfb-7cf6-4676-b34b-9b2cffde21d5","system_id":"levelo_inurba_marseille","lat":43.29035,"lon":5.3865,"is_reserved":false,"is_disabled":false,"rental_uris":{"android":"levelo://app?vid=cfaf4cfb-7cf6-4676-b34b-9b2cffde21d5","ios":"levelo://app?vid=cfaf4cfb-7cf6-4676-b34b-9b2cffde21d5"},"vehicle_type_id":"4","last_reported":1733497800,"current_range_meters":26800,"station_id":"ce4bh4p2rcd13ifvqe0g","pricing_plan_id":"cebpf4jnsgd1na2vs0mg"},{"bike_id":"06fa5d7c-3b9b-4c5d-a878-9f9d07eac2da","system_id":"levelo_inurba_marseille","lat":43.27961,"lon":5.41045,"is_reserved":false,"is_disabled":false,"rental_uris":{"android":"levelo://app?vid=06fa5d7c-3b9b-4c5d-a878-9f9d07eac2da","ios":"levelo://app?vid=06fa5d7c-3b9b-4c5d-a878-9f9d07eac2da"},"vehicle_type_id":"4","last_reported":1733497800,"current_range_meters":32000,"station_id":"ce4bhnp2rcd13ifvqh0g","pricing_plan_id":"cebpf4jnsgd1na2vs0mg"},{"bike_id":"28121aa3-7c19-4b1b-a44a-d17aed6b8d94","system_id":"levelo_inurba_marseille","lat":43.337444,"lon":5.374475,"is_reserved":false,"is_disabled":false,"rental_uris":{"android":"levelo://app?vid=28121aa3-7c19-4b1b-a44a-d17aed6b8d94","ios":"levelo://app?vid=28121aa3-7c19-4b1b-a44a-d17aed6b8d94"},"vehicle_type_id":"4","last_reported":1733497800,"current_range_meters":33200,"station_id":"","pricing_plan_id":"cebpf4jnsgd1na2vs0mg"},{"bike_id":"62dddee1-1100-4d8c-839c-64951e09afde","system_id":"levelo_inurba_marseille","lat":43.25256,"lon":5.40526,"is_reserved":false,"is_disabled":true,"rental_uris":{"android":"levelo://app?vid=62dddee1-1100-4d8c-839c-64951e09afde","ios":"levelo://app?vid=62dddee1-1100-4d8c-839c-64951e09afde"},"vehicle_type_id":"4","last_reported":1733497800,"current_range_meters":22400,"station_id":"","pricing_plan_id":"cebpf4jnsgd1na2vs0mg"},{"bike_id":"b57ac3ac-1cb9-4a0e-9880-d76a5f5fa301","system_id":"levelo_inurba_marseille","lat":43.26209,"lon":5.37926,"is_reserved":false,"is_disabled":true,"rental_uris":{"android":"levelo://app?vid=b57ac3ac-1cb9-4a0e-9880-d76a5f5fa301","ios":"levelo://app?vid=b57ac3ac-1cb9-4a0e-9880-d76a5f5fa301"},"vehicle_type_id":"4","last_reported":1733497800,"current_range_meters":0,"station_id":"ce4bhjp2rcd13ifvqg90","pricing_plan_id":"cebpf4jnsgd1na2vs0mg"},{"bike_id":"25589d48-0602-4234-80cc-ea0e01c6d495","system_id":"levelo_inurba_marseille","lat":43.30312,"lon":5.36893,"is_reserved":false,"is_disabled":false,"rental_uris":{"android":"levelo://app?vid=25589d48-0602-4234-80cc-ea0e01c6d495","ios":"levelo://app?vid=25589d48-0602-4234-80cc-ea0e01c6d495"},"vehicle_type_id":"4","last_reported":1733497800,"current_range_meters":16000,"station_id":"ce4bgqh2rcd13ifvqc5g","pricing_plan_id":"cebpf4jnsgd1na2vs0mg"},{"bike_id":"21c61b3f-2ae1-41ed-96e8-21fc1b01a387","system_id":"levelo_inurba_marseille","lat":43.30088,"lon":5.37253,"is_reserved":false,"is_disabled":false,"rental_uris":{"android":"levelo://app?vid=21c61b3f-2ae1-41ed-96e8-21fc1b01a387","ios":"levelo://app?vid=21c61b3f-2ae1-41ed-96e8-21fc1b01a387"},"vehicle_type_id":"4","last_reported":1733497800,"current_range_meters":10000,"station_id":"","pricing_plan_id":"cebpf4jnsgd1na2vs0mg"},{"bike_id":"9d601b44-18de-420f-afc6-2cb5de397159","system_id":"levelo_inurba_marseille","lat":43.30613,"lon":5.37239,"is_reserved":false,"is_disabled":false,"rental_uris":{"android":"levelo://app?vid=9d601b44-18de-420f-afc6-2cb5de397159","ios":"levelo://app?vid=9d601b44-18de-420f-afc6-2cb5de397159"},"vehicle_type_id":"4","last_reported":1733497800,"current_range_meters":16000,"station_id":"ce4bgqh2rcd13ifvqc4g","pricing_plan_id":"cebpf4jnsgd1na2vs0mg"},{"bike_id":"3a9149f3-357c-4d0a-859b-18382ef024a5","system_id":"levelo_inurba_marseille","lat":43.32114,"lon":5.36764,"is_reserved":false,"is_disabled":false,"rental_uris":{"android":"levelo://app?vid=3a9149f3-357c-4d0a-859b-18382ef024a5","ios":"levelo://app?vid=3a9149f3-357c-4d0a-859b-18382ef024a5"},"vehicle_type_id":"4","last_reported":1733497800,"current_range_meters":18000,"station_id":"ce4bhrh2rcd13ifvqhug","pricing_plan_id":"cebpf4jnsgd1na2vs0mg"},{"bike_id":"868a434e-7c11-4b20-84c6-7ecdbf24c83b","system_id":"levelo_inurba_marseille","lat":43.33022,"lon":5.39037,"is_reserved":false,"is_disabled":false,"rental_uris":{"android":"levelo://app?vid=868a434e-7c11-4b20-84c6-7ecdbf24c83b","ios":"levelo://app?vid=868a434e-7c11-4b20-84c6-7ecdbf24c83b"},"vehicle_type_id":"4","last_reported":1733497800,"current_range_meters":27200,"station_id":"ce4bhr92rcd13ifvqhrg","pricing_plan_id":"cebpf4jnsgd1na2vs0mg"},{"bike_id":"a90edf1f-a50f-4556-8541-4eafae33c950","system_id":"levelo_inurba_marseille","lat":43.30301,"lon":5.36868,"is_reserved":false,"is_disabled":false,"rental_uris":{"android":"levelo://app?vid=a90edf1f-a50f-4556-8541-4eafae33c950","ios":"levelo://app?vid=a90edf1f-a50f-4556-8541-4eafae33c950"},"vehicle_type_id":"4","last_reported":1733497800,"current_range_meters":32800,"station_id":"ce4bgqh2rcd13ifvqc5g","pricing_plan_id":"cebpf4jnsgd1na2vs0mg"},{"bike_id":"98df377c-5b46-4a4e-a80e-95ded7d1b7b9","system_id":"levelo_inurba_marseille","lat":43.29028,"lon":5.38654,"is_reserved":false,"is_disabled":true,"rental_uris":{"android":"levelo://app?vid=98df377c-5b46-4a4e-a80e-95ded7d1b7b9","ios":"levelo://app?vid=98df377c-5b46-4a4e-a80e-95ded7d1b7b9"},"vehicle_type_id":"4","last_reported":1733497800,"current_range_meters":23200,"station_id":"ce4bh4p2rcd13ifvqe0g","pricing_plan_id":"cebpf4jnsgd1na2vs0mg"},{"bike_id":"6c0188ce-85bf-4949-8478-25f429529633","system_id":"levelo_inurba_marseille","lat":43.27379,"lon":5.36263,"is_reserved":false,"is_disabled":false,"rental_uris":{"android":"levelo://app?vid=6c0188ce-85bf-4949-8478-25f429529633","ios":"levelo://app?vid=6c0188ce-85bf-4949-8478-25f429529633"},"vehicle_type_id":"4","last_reported":1733497800,"current_range_meters":38000,"station_id":"ce4bhbh2rcd13ifvqeo0","pricing_plan_id":"cebpf4jnsgd1na2vs0mg"},{"bike_id":"da6a7a1d-e653-4950-af8c-8137b06f7d40","system_id":"levelo_inurba_marseille","lat":43.3004,"lon":5.37551,"is_reserved":false,"is_disabled":true,"rental_uris":{"android":"levelo://app?vid=da6a7a1d-e653-4950-af8c-8137b06f7d40","ios":"levelo://app?vid=da6a7a1d-e653-4950-af8c-8137b06f7d40"},"vehicle_type_id":"4","last_reported":1733497800,"current_range_meters":0,"station_id":"","pricing_plan_id":"cebpf4jnsgd1na2vs0mg"},{"bike_id":"f7252cae-ba4c-4699-a0b4-4edea22fdb53","system_id":"levelo_inurba_marseille","lat":43.26204,"lon":5.37927,"is_reserved":false,"is_disabled":false,"rental_uris":{"android":"levelo://app?vid=f7252cae-ba4c-4699-a0b4-4edea22fdb53","ios":"levelo://app?vid=f7252cae-ba4c-4699-a0b4-4edea22fdb53"},"vehicle_type_id":"4","last_reported":1733497800,"current_range_meters":17600,"station_id":"ce4bhjp2rcd13ifvqg90","pricing_plan_id":"cebpf4jnsgd1na2vs0mg"},{"bike_id":"8a32ddbe-52d9-4967-85f9-f560e896d218","system_id":"levelo_inurba_marseille","lat":43.29935,"lon":5.36554,"is_reserved":false,"is_disabled":false,"rental_uris":{"android":"levelo://app?vid=8a32ddbe-52d9-4967-85f9-f560e896d218","ios":"levelo://app?vid=8a32ddbe-52d9-4967-85f9-f560e896d218"},"vehicle_type_id":"4","last_reported":1733497800,"current_range_meters":7200,"station_id":"ce4bgm92rcd13ifvqbr0","pricing_plan_id":"cebpf4jnsgd1na2vs0mg"},{"bike_id":"a605b757-e0f5-4518-86d8-fb017306fbd1","system_id":"levelo_inurba_marseille","lat":43.28932,"lon":5.38411,"is_reserved":false,"is_disabled":false,"rental_uris":{"android":"levelo://app?vid=a605b757-e0f5-4518-86d8-fb017306fbd1","ios":"levelo://app?vid=a605b757-e0f5-4518-86d8-fb017306fbd1"},"vehicle_type_id":"4","last_reported":1733497800,"current_range_meters":37600,"station_id":"ce4bh612rcd13ifvqe6g","pricing_plan_id":"cebpf4jnsgd1na2vs0mg"},{"bike_id":"9e8394be-851d-4a64-8fdd-0f4b7bd2ff1e","system_id":"levelo_inurba_marseille","lat":43.32365,"lon":5.38887,"is_reserved":false,"is_disabled":false,"rental_uris":{"android":"levelo://app?vid=9e8394be-851d-4a64-8fdd-0f4b7bd2ff1e","ios":"levelo://app?vid=9e8394be-851d-4a64-8fdd-0f4b7bd2ff1e"},"vehicle_type_id":"4","last_reported":1733497800,"current_range_meters":5600,"station_id":"ce4bhqp2rcd13ifvqhog","pricing_plan_id":"cebpf4jnsgd1na2vs0mg"},{"bike_id":"650920d9-2f84-4848-8626-661303dce4a2","system_id":"levelo_inurba_marseille","lat":43.26799,"lon":5.40265,"is_reserved":false,"is_disabled":false,"rental_uris":{"android":"levelo://app?vid=650920d9-2f84-4848-8626-661303dce4a2","ios":"levelo://app?vid=650920d9-2f84-4848-8626-661303dce4a2"},"vehicle_type_id":"4","last_reported":1733497800,"current_range_meters":11600,"station_id":"ce501612rcd8frsf0b60","pricing_plan_id":"cebpf4jnsgd1na2vs0mg"},{"bike_id":"d409d846-374b-4e70-b177-db10a8f6776a","system_id":"levelo_inurba_marseille","lat":43.2971,"lon":5.36612,"is_reserved":false,"is_disabled":true,"rental_uris":{"android":"levelo://app?vid=d409d846-374b-4e70-b177-db10a8f6776a","ios":"levelo://app?vid=d409d846-374b-4e70-b177-db10a8f6776a"},"vehicle_type_id":"4","last_reported":1733497800,"current_range_meters":0,"station_id":"ce4bgn12rcd13ifvqbt0","pricing_plan_id":"cebpf4jnsgd1na2vs0mg"},{"bike_id":"b983f700-39e1-418f-84a3-1c3c95a84b96","system_id":"levelo_inurba_marseille","lat":43.337752,"lon":5.375048,"is_reserved":false,"is_disabled":false,"rental_uris":{"android":"levelo://app?vid=b983f700-39e1-418f-84a3-1c3c95a84b96","ios":"levelo://app?vid=b983f700-39e1-418f-84a3-1c3c95a84b96"},"vehicle_type_id":"4","last_reported":1733497800,"current_range_meters":36400,"station_id":"","pricing_plan_id":"cebpf4jnsgd1na2vs0mg"},{"bike_id":"30de221a-4ae9-44c8-af60-f5843b67f535","system_id":"levelo_inurba_marseille","lat":43.337444,"lon":5.374475,"is_reserved":false,"is_disabled":false,"rental_uris":{"android":"levelo://app?vid=30de221a-4ae9-44c8-af60-f5843b67f535","ios":"levelo://app?vid=30de221a-4ae9-44c8-af60-f5843b67f535"},"vehicle_type_id":"4","last_reported":1733497800,"current_range_meters":33200,"station_id":"","pricing_plan_id":"cebpf4jnsgd1na2vs0mg"},{"bike_id":"3c0dbda7-2eab-4375-a2c0-e397bdb398b0","system_id":"levelo_inurba_marseille","lat":43.28412,"lon":5.34985,"is_reserved":false,"is_disabled":false,"rental_uris":{"android":"levelo://app?vid=3c0dbda7-2eab-4375-a2c0-e397bdb398b0","ios":"levelo://app?vid=3c0dbda7-2eab-4375-a2c0-e397bdb398b0"},"vehicle_type_id":"4","last_reported":1733497800,"current_range_meters":30000,"station_id":"ce4bhbh2rcd13ifvqepg","pricing_plan_id":"cebpf4jnsgd1na2vs0mg"},{"bike_id":"67b64d2b-de74-406e-9bc0-064c6243faf2","system_id":"levelo_inurba_marseille","lat":43.26564,"lon":5.39001,"is_reserved":false,"is_disabled":false,"rental_uris":{"android":"levelo://app?vid=67b64d2b-de74-406e-9bc0-064c6243faf2","ios":"levelo://app?vid=67b64d2b-de74-406e-9bc0-064c6243faf2"},"vehicle_type_id":"4","last_reported":1733497800,"current_range_meters":36800,"station_id":"ce4bhe12rcd13ifvqf30","pricing_plan_id":"cebpf4jnsgd1na2vs0mg"},{"bike_id":"0926a58f-f7f1-456e-826c-66fceeca260f","system_id":"levelo_inurba_marseille","lat":43.29904,"lon":5.43656,"is_reserved":false,"is_disabled":false,"rental_uris":{"android":"levelo://app?vid=0926a58f-f7f1-456e-826c-66fceeca260f","ios":"levelo://app?vid=0926a58f-f7f1-456e-826c-66fceeca260f"},"vehicle_type_id":"4","last_reported":1733497800,"current_range_meters":15200,"station_id":"ce4bhpp2rcd13ifvqhfg","pricing_plan_id":"cebpf4jnsgd1na2vs0mg"},{"bike_id":"7a688541-8817-41cb-bdc9-326a83531004","system_id":"levelo_inurba_marseille","lat":43.28716,"lon":5.39998,"is_reserved":false,"is_disabled":true,"rental_uris":{"android":"levelo://app?vid=7a688541-8817-41cb-bdc9-326a83531004","ios":"levelo://app?vid=7a688541-8817-41cb-bdc9-326a83531004"},"vehicle_type_id":"4","last_reported":1733497800,"current_range_meters":1200,"station_id":"ce4bho92rcd13ifvqh3g","pricing_plan_id":"cebpf4jnsgd1na2vs0mg"},{"bike_id":"7714ce30-465c-426d-9621-0f0245a19ff8","system_id":"levelo_inurba_marseille","lat":43.27179,"lon":5.41,"is_reserved":false,"is_disabled":false,"rental_uris":{"android":"levelo://app?vid=7714ce30-465c-426d-9621-0f0245a19ff8","ios":"levelo://app?vid=7714ce30-465c-426d-9621-0f0245a19ff8"},"vehicle_type_id":"4","last_reported":1733497800,"current_range_meters":21600,"station_id":"ce4bhl12rcd13ifvqgf0","pricing_plan_id":"cebpf4jnsgd1na2vs0mg"},{"bike_id":"2e38f9e4-f6de-4fae-9004-b11bb52a4773","system_id":"levelo_inurba_marseille","lat":43.27063,"lon":5.40262,"is_reserved":false,"is_disabled":true,"rental_uris":{"android":"levelo://app?vid=2e38f9e4-f6de-4fae-9004-b11bb52a4773","ios":"levelo://app?vid=2e38f9e4-f6de-4fae-9004-b11bb52a4773"},"vehicle_type_id":"4","last_reported":1733497800,"current_range_meters":0,"station_id":"ce4bhk92rcd13ifvqgc0","pricing_plan_id":"cebpf4jnsgd1na2vs0mg"},{"bike_id":"b72243d5-edca-4170-b2b3-c6f71b8dc4e8","system_id":"levelo_inurba_marseille","lat":43.29724,"lon":5.37685,"is_reserved":false,"is_disabled":false,"rental_uris":{"android":"levelo://app?vid=b72243d5-edca-4170-b2b3-c6f71b8dc4e8","ios":"levelo://app?vid=b72243d5-edca-4170-b2b3-c6f71b8dc4e8"},"vehicle_type_id":"4","last_reported":1733497800,"current_range_meters":7200,"station_id":"ce4bgkh2rcd13ifvqbl0","pricing_plan_id":"cebpf4jnsgd1na2vs0mg"},{"bike_id":"55708d44-3f0b-49db-b92a-aa39fe6e84ea","system_id":"levelo_inurba_marseille","lat":43.276809,"lon":5.418575,"is_reserved":false,"is_disabled":true,"rental_uris":{"android":"levelo://app?vid=55708d44-3f0b-49db-b92a-aa39fe6e84ea","ios":"levelo://app?vid=55708d44-3f0b-49db-b92a-aa39fe6e84ea"},"vehicle_type_id":"4","last_reported":1733497800,"current_range_meters":38800,"station_id":"","pricing_plan_id":"cebpf4jnsgd1na2vs0mg"},{"bike_id":"6ecae497-eadf-45cc-9d13-3da0482c97c0","system_id":"levelo_inurba_marseille","lat":43.29439,"lon":5.39759,"is_reserved":false,"is_disabled":false,"rental_uris":{"android":"levelo://app?vid=6ecae497-eadf-45cc-9d13-3da0482c97c0","ios":"levelo://app?vid=6ecae497-eadf-45cc-9d13-3da0482c97c0"},"vehicle_type_id":"4","last_reported":1733497800,"current_range_meters":28400,"station_id":"ce4bh3h2rcd13ifvqdo0","pricing_plan_id":"cebpf4jnsgd1na2vs0mg"},{"bike_id":"5efa639b-8eb4-47aa-b99d-5928fe3809eb","system_id":"levelo_inurba_marseille","lat":43.24555,"lon":5.39547,"is_reserved":false,"is_disabled":false,"rental_uris":{"android":"levelo://app?vid=5efa639b-8eb4-47aa-b99d-5928fe3809eb","ios":"levelo://app?vid=5efa639b-8eb4-47aa-b99d-5928fe3809eb"},"vehicle_type_id":"4","last_reported":1733497800,"current_range_meters":38800,"station_id":"ce4bhlp2rcd13ifvqgjg","pricing_plan_id":"cebpf4jnsgd1na2vs0mg"},{"bike_id":"45b65137-572c-4379-b219-d3399485f9a0","system_id":"levelo_inurba_marseille","lat":43.26065,"lon":5.39395,"is_reserved":false,"is_disabled":false,"rental_uris":{"android":"levelo://app?vid=45b65137-572c-4379-b219-d3399485f9a0","ios":"levelo://app?vid=45b65137-572c-4379-b219-d3399485f9a0"},"vehicle_type_id":"4","last_reported":1733497800,"current_range_meters":37600,"station_id":"ce4bhh92rcd13ifvqfj0","pricing_plan_id":"cebpf4jnsgd1na2vs0mg"},{"bike_id":"d79c5101-d536-43bd-a521-a42c79dc6b61","system_id":"levelo_inurba_marseille","lat":43.27972,"lon":5.38735,"is_reserved":false,"is_disabled":false,"rental_uris":{"android":"levelo://app?vid=d79c5101-d536-43bd-a521-a42c79dc6b61","ios":"levelo://app?vid=d79c5101-d536-43bd-a521-a42c79dc6b61"},"vehicle_type_id":"4","last_reported":1733497800,"current_range_meters":27600,"station_id":"ce4bhg12rcd13ifvqf80","pricing_plan_id":"cebpf4jnsgd1na2vs0mg"},{"bike_id":"070a4ab6-b3cb-485e-9b9b-988e874fbc1a","system_id":"levelo_inurba_marseille","lat":43.32485,"lon":5.36565,"is_reserved":false,"is_disabled":false,"rental_uris":{"android":"levelo://app?vid=070a4ab6-b3cb-485e-9b9b-988e874fbc1a","ios":"levelo://app?vid=070a4ab6-b3cb-485e-9b9b-988e874fbc1a"},"vehicle_type_id":"4","last_reported":1733497800,"current_range_meters":36800,"station_id":"ce4bhs12rcd13ifvqhvg","pricing_plan_id":"cebpf4jnsgd1na2vs0mg"},{"bike_id":"d7fd8304-9263-4705-84e6-8552e65103a2","system_id":"levelo_inurba_marseille","lat":43.23964,"lon":5.36621,"is_reserved":false,"is_disabled":false,"rental_uris":{"android":"levelo://app?vid=d7fd8304-9263-4705-84e6-8552e65103a2","ios":"levelo://app?vid=d7fd8304-9263-4705-84e6-8552e65103a2"},"vehicle_type_id":"4","last_reported":1733497800,"current_range_meters":27600,"station_id":"ce4bhi12rcd13ifvqfp0","pricing_plan_id":"cebpf4jnsgd1na2vs0mg"},{"bike_id":"7cefc4a2-f9e9-4f38-8349-c06fec1dcd83","system_id":"levelo_inurba_marseille","lat":43.31325,"lon":5.39699,"is_reserved":false,"is_disabled":false,"rental_uris":{"android":"levelo://app?vid=7cefc4a2-f9e9-4f38-8349-c06fec1dcd83","ios":"levelo://app?vid=7cefc4a2-f9e9-4f38-8349-c06fec1dcd83"},"vehicle_type_id":"4","last_reported":1733497800,"current_range_meters":6400,"station_id":"ce4bgvp2rcd13ifvqcu0","pricing_plan_id":"cebpf4jnsgd1na2vs0mg"},{"bike_id":"cd384d2f-f473-47bd-ae4a-9b7324d12b10","system_id":"levelo_inurba_marseille","lat":43.31072,"lon":5.40088,"is_reserved":false,"is_disabled":false,"rental_uris":{"android":"levelo://app?vid=cd384d2f-f473-47bd-ae4a-9b7324d12b10","ios":"levelo://app?vid=cd384d2f-f473-47bd-ae4a-9b7324d12b10"},"vehicle_type_id":"4","last_reported":1733497800,"current_range_meters":38800,"station_id":"","pricing_plan_id":"cebpf4jnsgd1na2vs0mg"},{"bike_id":"7cf3071e-1d5b-4808-9f40-91100b42b928","system_id":"levelo_inurba_marseille","lat":43.31358,"lon":5.36714,"is_reserved":false,"is_disabled":false,"rental_uris":{"android":"levelo://app?vid=7cf3071e-1d5b-4808-9f40-91100b42b928","ios":"levelo://app?vid=7cf3071e-1d5b-4808-9f40-91100b42b928"},"vehicle_type_id":"4","last_reported":1733497800,"current_range_meters":37600,"station_id":"ce4bgr92rcd13ifvqc6g","pricing_plan_id":"cebpf4jnsgd1na2vs0mg"},{"bike_id":"f6945186-90e2-4a0a-a179-d95668178508","system_id":"levelo_inurba_marseille","lat":43.31362,"lon":5.38489,"is_reserved":false,"is_disabled":false,"rental_uris":{"android":"levelo://app?vid=f6945186-90e2-4a0a-a179-d95668178508","ios":"levelo://app?vid=f6945186-90e2-4a0a-a179-d95668178508"},"vehicle_type_id":"4","last_reported":1733497800,"current_range_meters":38800,"station_id":"ce4bgt92rcd13ifvqcf0","pricing_plan_id":"cebpf4jnsgd1na2vs0mg"},{"bike_id":"be8cd377-bf58-414c-876c-45495911bc5b","system_id":"levelo_inurba_marseille","lat":43.2868,"lon":5.41089,"is_reserved":false,"is_disabled":true,"rental_uris":{"android":"levelo://app?vid=be8cd377-bf58-414c-876c-45495911bc5b","ios":"levelo://app?vid=be8cd377-bf58-414c-876c-45495911bc5b"},"vehicle_type_id":"4","last_reported":1733497800,"current_range_meters":0,"station_id":"","pricing_plan_id":"cebpf4jnsgd1na2vs0mg"},{"bike_id":"ed412722-dc75-429e-9db7-c2abf262b573","system_id":"levelo_inurba_marseille","lat":43.29254,"lon":5.40902,"is_reserved":false,"is_disabled":false,"rental_uris":{"android":"levelo://app?vid=ed412722-dc75-429e-9db7-c2abf262b573","ios":"levelo://app?vid=ed412722-dc75-429e-9db7-c2abf262b573"},"vehicle_type_id":"4","last_reported":1733497800,"current_range_meters":33600,"station_id":"ce4bh192rcd13ifvqdc0","pricing_plan_id":"cebpf4jnsgd1na2vs0mg"},{"bike_id":"29bbbc31-f533-48f6-8d1e-643590144581","system_id":"levelo_inurba_marseille","lat":43.26192,"lon":5.37448,"is_reserved":false,"is_disabled":false,"rental_uris":{"android":"levelo://app?vid=29bbbc31-f533-48f6-8d1e-643590144581","ios":"levelo://app?vid=29bbbc31-f533-48f6-8d1e-643590144581"},"vehicle_type_id":"4","last_reported":1733497800,"current_range_meters":38800,"station_id":"ce4bhgp2rcd13ifvqfc0","pricing_plan_id":"cebpf4jnsgd1na2vs0mg"},{"bike_id":"65bdb63e-9b21-4023-a1b3-2036e8130a91","system_id":"levelo_inurba_marseille","lat":43.24391,"lon":5.37066,"is_reserved":false,"is_disabled":true,"rental_uris":{"android":"levelo://app?vid=65bdb63e-9b21-4023-a1b3-2036e8130a91","ios":"levelo://app?vid=65bdb63e-9b21-4023-a1b3-2036e8130a91"},"vehicle_type_id":"4","last_reported":1733497800,"current_range_meters":0,"station_id":"ce4bhhh2rcd13ifvqfk0","pricing_plan_id":"cebpf4jnsgd1na2vs0mg"},{"bike_id":"0770995c-964d-42cb-80de-55f4fd5ee79a","system_id":"levelo_inurba_marseille","lat":43.337444,"lon":5.374475,"is_reserved":false,"is_disabled":false,"rental_uris":{"android":"levelo://app?vid=0770995c-964d-42cb-80de-55f4fd5ee79a","ios":"levelo://app?vid=0770995c-964d-42cb-80de-55f4fd5ee79a"},"vehicle_type_id":"4","last_reported":1733497800,"current_range_meters":18000,"station_id":"","pricing_plan_id":"cebpf4jnsgd1na2vs0mg"},{"bike_id":"20e9db8d-d68b-4418-94af-d9d63f8c2b96","system_id":"levelo_inurba_marseille","lat":43.337444,"lon":5.374475,"is_reserved":false,"is_disabled":true,"rental_uris":{"android":"levelo://app?vid=20e9db8d-d68b-4418-94af-d9d63f8c2b96","ios":"levelo://app?vid=20e9db8d-d68b-4418-94af-d9d63f8c2b96"},"vehicle_type_id":"4","last_reported":1733497800,"current_range_meters":0,"station_id":"","pricing_plan_id":"cebpf4jnsgd1na2vs0mg"},{"bike_id":"f2cac181-00ca-4f10-b5d7-0f462450abde","system_id":"levelo_inurba_marseille","lat":43.23964,"lon":5.36633,"is_reserved":false,"is_disabled":false,"rental_uris":{"android":"levelo://app?vid=f2cac181-00ca-4f10-b5d7-0f462450abde","ios":"levelo://app?vid=f2cac181-00ca-4f10-b5d7-0f462450abde"},"vehicle_type_id":"4","last_reported":1733497800,"current_range_meters":29600,"station_id":"ce4bhi12rcd13ifvqfp0","pricing_plan_id":"cebpf4jnsgd1na2vs0mg"},{"bike_id":"0e847549-639a-4fc9-8547-3a4fd1219be4","system_id":"levelo_inurba_marseille","lat":43.26377,"lon":5.40448,"is_reserved":false,"is_disabled":true,"rental_uris":{"android":"levelo://app?vid=0e847549-639a-4fc9-8547-3a4fd1219be4","ios":"levelo://app?vid=0e847549-639a-4fc9-8547-3a4fd1219be4"},"vehicle_type_id":"4","last_reported":1733497800,"current_range_meters":400,"station_id":"","pricing_plan_id":"cebpf4jnsgd1na2vs0mg"},