{"last_updated":1761383361,"ttl":60,"version":"2.2","data":{"bikes":[{"bike_id":"ed5592f6-738f-424e-b1c7-4090ab91b445","system_id":"levelo_inurba_marseille","lat":43.21188,"lon":5.35072,"is_reserved":false,"is_disabled":false,"rental_uris":{"android":"levelo://app?vid=ed5592f6-738f-424e-b1c7-4090ab91b445","ios":"levelo://app?vid=ed5592f6-738f-424e-b1c7-4090ab91b445"},"vehicle_type_id":"4","last_reported":1761383362,"current_range_meters":2800,"station_id":"st_cvj6sg6p6f1abm77japg","pricing_plan_id":"cebpf4jnsgd1na2vs0mg"},{"bike_id":"64e2fa92-76af-4d22-a846-5b66f1b4b47f","system_id":"levelo_inurba_marseille","lat":43.25583,"lon":5.38231,"is_reserved":false,"is_disabled":false,"rental_uris":{"android":"levelo://app?vid=64e2fa92-76af-4d22-a846-5b66f1b4b47f","ios":"levelo://app?vid=64e2fa92-76af-4d22-a846-5b66f1b4b47f"},"vehicle_type_id":"4","last_reported":1761383362,"current_range_meters":3200,"station_id":"ce4bhih2rcd13ifvqfs0","pricing_plan_id":"cebpf4jnsgd1na2vs0mg"},{"bike_id":"bc0481cd-f6af-49c7-b420-73a77a8ca5b5","system_id":"levelo_inurba_marseille","lat":43.311274,"lon":5.377617,"is_reserved":false,"is_disabled":false,"rental_uris":{"android":"levelo://app?vid=bc0481cd-f6af-49c7-b420-73a77a8ca5b5","ios":"levelo://app?vid=bc0481cd-f6af-49c7-b420-73a77a8ca5b5"},"vehicle_type_id":"4","last_reported":1761383362,"current_range_meters":3200,"station_id":"ce4bgt92rcd13ifvqcg0","pricing_plan_id":"cebpf4jnsgd1na2vs0mg"},{"bike_id":"66e9efcf-ffb0-4a88-ba2c-99e78f592d3a","system_id":"levelo_inurba_marseille","lat":43.2988,"lon":5.38153,"is_reserved":false,"is_disabled":false,"rental_uris":{"android":"levelo://app?vid=66e9efcf-ffb0-4a88-ba2c-99e78f592d3a","ios":"levelo://app?vid=66e9efcf-ffb0-4a88-ba2c-99e78f592d3a"},"vehicle_type_id":"4","last_reported":1761383362,"current_range_meters":3200,"station_id":"ce4bgj12rcd13ifvqbc0","pricing_plan_id":"cebpf4jnsgd1na2vs0mg"},{"bike_id":"7546f470-e2c9-46ad-b638-733b3092a9dc","system_id":"levelo_inurba_marseille","lat":43.22537,"lon":5.34856,"is_reserved":false,"is_disabled":false,"rental_uris":{"android":"levelo://app?vid=7546f470-e2c9-46ad-b638-733b3092a9dc","ios":"levelo://app?vid=7546f470-e2c9-46ad-b638-733b3092a9dc"},"vehicle_type_id":"4","last_reported":1761383362,"current_range_meters":3200,"station_id":"","pricing_plan_id":"cebpf4jnsgd1na2vs0mg"},{"bike_id":"7a7b5695-8ee4-40ae-9a5d-cb68d504012d","system_id":"levelo_inurba_marseille","lat":43.23151,"lon":5.43719,"is_reserved":false,"is_disabled":false,"rental_uris":{"android":"levelo://app?vid=7a7b5695-8ee4-40ae-9a5d-cb68d504012d","ios":"levelo://app?vid=7a7b5695-8ee4-40ae-9a5d-cb68d504012d"},"vehicle_type_id":"4","last_reported":1761383362,"current_range_meters":3600,"station_id":"ce4bhmp2rcd13ifvqgog","pricing_plan_id":"cebpf4jnsgd1na2vs0mg"},{"bike_id":"ca1d1489-56cb-44b6-8655-4a6065fd56b7","system_id":"levelo_inurba_marseille","lat":43.211918,"lon":5.350722,"is_reserved":false,"is_disabled":false,"rental_uris":{"android":"levelo://app?vid=ca1d1489-56cb-44b6-8655-4a6065fd56b7","ios":"levelo://app?vid=ca1d1489-56cb-44b6-8655-4a6065fd56b7"},"vehicle_type_id":"4","last_reported":1761383362,"current_range_meters":4400,"station_id":"st_cvj6sg6p6f1abm77japg","pricing_plan_id":"cebpf4jnsgd1na2vs0mg"},{"bike_id":"3e4783b6-28d8-4737-a4ef-6a1b0da02476","system_id":"levelo_inurba_marseille","lat":43.29458,"lon":5.40725,"is_reserved":false,"is_disabled":false,"rental_uris":{"android":"levelo://app?vid=3e4783b6-28d8-4737-a4ef-6a1b0da02476","ios":"levelo://app?vid=3e4783b6-28d8-4737-a4ef-6a1b0da02476"},"vehicle_type_id":"4","last_reported":1761383362,"current_range_meters":4800,"station_id":"","pricing_plan_id":"cebpf4jnsgd1na2vs0mg"},{"bike_id":"41ada01a-7b4b-4e9c-86ea-f17b6e6c6411","system_id":"levelo_inurba_marseille","lat":43.28925,"lon":5.38389,"is_reserved":false,"is_disabled":false,"rental_uris":{"android":"levelo://app?vid=41ada01a-7b4b-4e9c-86ea-f17b6e6c6411","ios":"levelo://app?vid=41ada01a-7b4b-4e9c-86ea-f17b6e6c6411"},"vehicle_type_id":"4","last_reported":1761383362,"current_range_meters":4800,"station_id":"ce4bh612rcd13ifvqe6g","pricing_plan_id":"cebpf4jnsgd1na2vs0mg"},{"bike_id":"09afc97d-4be4-45f0-97e1-77a86f6add7f","system_id":"levelo_inurba_marseille","lat":43.31225,"lon":5.36861,"is_reserved":false,"is_disabled":false,"rental_uris":{"android":"levelo://app?vid=09afc97d-4be4-45f0-97e1-77a86f6add7f","ios":"levelo://app?vid=09afc97d-4be4-45f0-97e1-77a86f6add7f"},"vehicle_type_id":"4","last_reported":1761383362,"current_range_meters":5600,"station_id":"ce4bgl92rcd13ifvqbq0","pricing_plan_id":"cebpf4jnsgd1na2vs0mg"},{"bike_id":"00fd3c6a-780c-49dc-9993-d4de69c9b57a","system_id":"levelo_inurba_marseille","lat":43.31056,"lon":5.37388,"is_reserved":false,"is_disabled":false,"rental_uris":{"android":"levelo://app?vid=00fd3c6a-780c-49dc-9993-d4de69c9b57a","ios":"levelo://app?vid=00fd3c6a-780c-49dc-9993-d4de69c9b57a"},"vehicle_type_id":"4","last_reported":1761383362,"current_range_meters":6000,"station_id":"","pricing_plan_id":"cebpf4jnsgd1na2vs0mg"},{"bike_id":"dd52ae34-038b-45fd-8eeb-2e622068d221","system_id":"levelo_inurba_marseille","lat":43.295564,"lon":5.386626,"is_reserved":false,"is_disabled":false,"rental_uris":{"android":"levelo://app?vid=dd52ae34-038b-45fd-8eeb-2e622068d221","ios":"levelo://app?vid=dd52ae34-038b-45fd-8eeb-2e622068d221"},"vehicle_type_id":"4","last_reported":1761383362,"current_range_meters":6000,"station_id":"ce4bh092rcd13ifvqd30","pricing_plan_id":"cebpf4jnsgd1na2vs0mg"},{"bike_id":"0ebe1d54-49c3-4126-a50e-a7349324f510","system_id":"levelo_inurba_marseille","lat":43.25107,"lon":5.40324,"is_reserved":false,"is_disabled":false,"rental_uris":{"android":"levelo://app?vid=0ebe1d54-49c3-4126-a50e-a7349324f510","ios":"levelo://app?vid=0ebe1d54-49c3-4126-a50e-a7349324f510"},"vehicle_type_id":"4","last_reported":1761383362,"current_range_meters":6000,"station_id":"ce4bhlh2rcd13ifvqgig","pricing_plan_id":"cebpf4jnsgd1na2vs0mg"},{"bike_id":"323bf2de-3bb4-4b4c-b330-b19ea807dbf5","system_id":"levelo_inurba_marseille","lat":43.33004,"lon":5.42954,"is_reserved":false,"is_disabled":false,"rental_uris":{"android":"levelo://app?vid=323bf2de-3bb4-4b4c-b330-b19ea807dbf5","ios":"levelo://app?vid=323bf2de-3bb4-4b4c-b330-b19ea807dbf5"},"vehicle_type_id":"4","last_reported":1761383362,"current_range_meters":6400,"station_id":"","pricing_plan_id":"cebpf4jnsgd1na2vs0mg"},{"bike_id":"17bd9fff-f8a7-45af-8120-cab272292f42","system_id":"levelo_inurba_marseille","lat":43.284757,"lon":5.483969,"is_reserved":false,"is_disabled":false,"rental_uris":{"android":"levelo://app?vid=17bd9fff-f8a7-45af-8120-cab272292f42","ios":"levelo://app?vid=17bd9fff-f8a7-45af-8120-cab272292f42"},"vehicle_type_id":"4","last_reported":1761383362,"current_range_meters":6400,"station_id":"st_d3svhcjqgbts73a3dn0g","pricing_plan_id":"cebpf4jnsgd1na2vs0mg"},{"bike_id":"0d2b9fd2-e679-4ac9-9da4-b4e4a73fa6c8","system_id":"levelo_inurba_marseille","lat":43.2119,"lon":5.35075,"is_reserved":false,"is_disabled":false,"rental_uris":{"android":"levelo://app?vid=0d2b9fd2-e679-4ac9-9da4-b4e4a73fa6c8","ios":"levelo://app?vid=0d2b9fd2-e679-4ac9-9da4-b4e4a73fa6c8"},"vehicle_type_id":"4","last_reported":1761383362,"current_range_meters":6400,"station_id":"st_cvj6sg6p6f1abm77japg","pricing_plan_id":"cebpf4jnsgd1na2vs0mg"},{"bike_id":"3c7ce920-4ffc-4c10-b467-bb71a6a8d004","system_id":"levelo_inurba_marseille","lat":43.337444,"lon":5.374475,"is_reserved":false,"is_disabled":false,"rental_uris":{"android":"levelo://app?vid=3c7ce920-4ffc-4c10-b467-bb71a6a8d004","ios":"levelo://app?vid=3c7ce920-4ffc-4c10-b467-bb71a6a8d004"},"vehicle_type_id":"4","last_reported":1761383362,"current_range_meters":6800,"station_id":"","pricing_plan_id":"cebpf4jnsgd1na2vs0mg"},{"bike_id":"2383f4b6-a288-4c1f-9756-a6918c7eef1b","system_id":"levelo_inurba_marseille","lat":43.23819,"lon":5.43234,"is_reserved":false,"is_disabled":false,"rental_uris":{"android":"levelo://app?vid=2383f4b6-a288-4c1f-9756-a6918c7eef1b","ios":"levelo://app?vid=2383f4b6-a288-4c1f-9756-a6918c7eef1b"},"vehicle_type_id":"4","last_reported":1761383362,"current_range_meters":6800,"station_id":"","pricing_plan_id":"cebpf4jnsgd1na2vs0mg"},{"bike_id":"bf52d227-e2e6-4e46-bfde-44cbb96d7d45","system_id":"levelo_inurba_marseille","lat":43.21208,"lon":5.35065,"is_reserved":false,"is_disabled":false,"rental_uris":{"android":"levelo://app?vid=bf52d227-e2e6-4e46-bfde-44cbb96d7d45","ios":"levelo://app?vid=bf52d227-e2e6-4e46-bfde-44cbb96d7d45"},"vehicle_type_id":"4","last_reported":1761383362,"current_range_meters":6800,"station_id":"st_cvj6sg6p6f1abm77japg","pricing_plan_id":"cebpf4jnsgd1na2vs0mg"},{"bike_id":"9bfed83c-4a67-448a-b6b2-0cdeb6d04c62","system_id":"levelo_inurba_marseille","lat":43.21191,"lon":5.35077,"is_reserved":false,"is_disabled":false,"rental_uris":{"android":"levelo://app?vid=9bfed83c-4a67-448a-b6b2-0cdeb6d04c62","ios":"levelo://app?vid=9bfed83c-4a67-448a-b6b2-0cdeb6d04c62"},"vehicle_type_id":"4","last_reported":1761383362,"current_range_meters":6800,"station_id":"st_cvj6sg6p6f1abm77japg","pricing_plan_id":"cebpf4jnsgd1na2vs0mg"},{"bike_id":"b9764ed2-f91a-421e-b54e-d7527bd8af22","system_id":"levelo_inurba_marseille","lat":43.29811,"lon":5.36588,"is_reserved":false,"is_disabled":false,"rental_uris":{"android":"levelo://app?vid=b9764ed2-f91a-421e-b54e-d7527bd8af22","ios":"levelo://app?vid=b9764ed2-f91a-421e-b54e-d7527bd8af22"},"vehicle_type_id":"4","last_reported":1761383362,"current_range_meters":7200,"station_id":"","pricing_plan_id":"cebpf4jnsgd1na2vs0mg"},{"bike_id":"8bcacd78-80de-4026-af75-b37ebe3030fe","system_id":"levelo_inurba_marseille","lat":43.334756,"lon":5.404255,"is_reserved":false,"is_disabled":false,"rental_uris":{"android":"levelo://app?vid=8bcacd78-80de-4026-af75-b37ebe3030fe","ios":"levelo://app?vid=8bcacd78-80de-4026-af75-b37ebe3030fe"},"vehicle_type_id":"4","last_reported":1761383362,"current_range_meters":7200,"station_id":"","pricing_plan_id":"cebpf4jnsgd1na2vs0mg"},{"bike_id":"0262ae9b-c926-40bf-ad56-f8fd60937f75","system_id":"levelo_inurba_marseille","lat":43.25861,"lon":5.399,"is_reserved":false,"is_disabled":false,"rental_uris":{"android":"levelo://app?vid=0262ae9b-c926-40bf-ad56-f8fd60937f75","ios":"levelo://app?vid=0262ae9b-c926-40bf-ad56-f8fd60937f75"},"vehicle_type_id":"4","last_reported":1761383362,"current_range_meters":8000,"station_id":"ce4bhl92rcd13ifvqghg","pricing_plan_id":"cebpf4jnsgd1na2vs0mg"},{"bike_id":"1b1dabb4-232b-490c-9d20-725420c16d32","system_id":"levelo_inurba_marseille","lat":43.29967,"lon":5.38487,"is_reserved":false,"is_disabled":false,"rental_uris":{"android":"levelo://app?vid=1b1dabb4-232b-490c-9d20-725420c16d32","ios":"levelo://app?vid=1b1dabb4-232b-490c-9d20-725420c16d32"},"vehicle_type_id":"4","last_reported":1761383362,"current_range_meters":8000,"station_id":"ce4bgj92rcd13ifvqbd0","pricing_plan_id":"cebpf4jnsgd1na2vs0mg"},{"bike_id":"9881c788-42a8-46f5-8ccc-580a73583155","system_id":"levelo_inurba_marseille","lat":43.32089,"lon":5.4093,"is_reserved":false,"is_disabled":false,"rental_uris":{"android":"levelo://app?vid=9881c788-42a8-46f5-8ccc-580a73583155","ios":"levelo://app?vid=9881c788-42a8-46f5-8ccc-580a73583155"},"vehicle_type_id":"4","last_reported":1761383362,"current_range_meters":8000,"station_id":"","pricing_plan_id":"cebpf4jnsgd1na2vs0mg"},{"bike_id":"dfab39a7-8357-44ba-ba48-12563c1d5d5a","system_id":"levelo_inurba_marseille","lat":43.25088,"lon":5.39524,"is_reserved":false,"is_disabled":false,"rental_uris":{"android":"levelo://app?vid=dfab39a7-8357-44ba-ba48-12563c1d5d5a","ios":"levelo://app?vid=dfab39a7-8357-44ba-ba48-12563c1d5d5a"},"vehicle_type_id":"4","last_reported":1761383362,"current_range_meters":8400,"station_id":"ce4bhm12rcd13ifvqgkg","pricing_plan_id":"cebpf4jnsgd1na2vs0mg"},{"bike_id":"4011c122-3e6b-4b30-9fb5-09eabd4f6d40","system_id":"levelo_inurba_marseille","lat":43.26203,"lon":5.37932,"is_reserved":false,"is_disabled":false,"rental_uris":{"android":"levelo://app?vid=4011c122-3e6b-4b30-9fb5-09eabd4f6d40","ios":"levelo://app?vid=4011c122-3e6b-4b30-9fb5-09eabd4f6d40"},"vehicle_type_id":"4","last_reported":1761383362,"current_range_meters":8400,"station_id":"ce4bhjp2rcd13ifvqg90","pricing_plan_id":"cebpf4jnsgd1na2vs0mg"},{"bike_id":"2842f5fd-7b05-4b47-909c-5ee54d7d3bc5","system_id":"levelo_inurba_marseille","lat":43.32444,"lon":5.42802,"is_reserved":false,"is_disabled":false,"rental_uris":{"android":"levelo://app?vid=2842f5fd-7b05-4b47-909c-5ee54d7d3bc5","ios":"levelo://app?vid=2842f5fd-7b05-4b47-909c-5ee54d7d3bc5"},"vehicle_type_id":"4","last_reported":1761383362,"current_range_meters":8400,"station_id":"","pricing_plan_id":"cebpf4jnsgd1na2vs0mg"},{"bike_id":"d6f3fead-56c5-4eef-8b9f-2a96494ed0c3","system_id":"levelo_inurba_marseille","lat":43.245458,"lon":5.395181,"is_reserved":false,"is_disabled":false,"rental_uris":{"android":"levelo://app?vid=d6f3fead-56c5-4eef-8b9f-2a96494ed0c3","ios":"levelo://app?vid=d6f3fead-56c5-4eef-8b9f-2a96494ed0c3"},"vehicle_type_id":"4","last_reported":1761383362,"current_range_meters":8800,"station_id":"ce4bhlp2rcd13ifvqgjg","pricing_plan_id":"cebpf4jnsgd1na2vs0mg"},{"bike_id":"e35e1247-2ec0-4206-a360-6aaa534a130f","system_id":"levelo_inurba_marseille","lat":43.284786,"lon":5.483875,"is_reserved":false,"is_disabled":false,"rental_uris":{"android":"levelo://app?vid=e35e1247-2ec0-4206-a360-6aaa534a130f","ios":"levelo://app?vid=e35e1247-2ec0-4206-a360-6aaa534a130f"},"vehicle_type_id":"4","last_reported":1761383362,"current_range_meters":8800,"station_id":"st_d3svhcjqgbts73a3dn0g","pricing_plan_id":"cebpf4jnsgd1na2vs0mg"},{"bike_id":"5f9debc0-c360-4a2e-b517-592e9a0c2818","system_id":"levelo_inurba_marseille","lat":43.32973,"lon":5.42806,"is_reserved":false,"is_disabled":false,"rental_uris":{"android":"levelo://app?vid=5f9debc0-c360-4a2e-b517-592e9a0c2818","ios":"levelo://app?vid=5f9debc0-c360-4a2e-b517-592e9a0c2818"},"vehicle_type_id":"4","last_reported":1761383362,"current_range_meters":9200,"station_id":"","pricing_plan_id":"cebpf4jnsgd1na2vs0mg"},{"bike_id":"2ea49922-2074-4613-aa64-a997e98a287e","system_id":"levelo_inurba_marseille","lat":43.30736,"lon":5.42433,"is_reserved":false,"is_disabled":false,"rental_uris":{"android":"levelo://app?vid=2ea49922-2074-4613-aa64-a997e98a287e","ios":"levelo://app?vid=2ea49922-2074-4613-aa64-a997e98a287e"},"vehicle_type_id":"4","last_reported":1761383362,"current_range_meters":9200,"station_id":"st_cvj6ca6bvosntc0bfgr0","pricing_plan_id":"cebpf4jnsgd1na2vs0mg"},{"bike_id":"7b8ab22f-f43b-4108-9fe7-fe57ce802434","system_id":"levelo_inurba_marseille","lat":43.29259,"lon":5.40905,"is_reserved":false,"is_disabled":false,"rental_uris":{"android":"levelo://app?vid=7b8ab22f-f43b-4108-9fe7-fe57ce802434","ios":"levelo://app?vid=7b8ab22f-f43b-4108-9fe7-fe57ce802434"},"vehicle_type_id":"4","last_reported":1761383362,"current_range_meters":9600,"station_id":"ce4bh192rcd13ifvqdc0","pricing_plan_id":"cebpf4jnsgd1na2vs0mg"},{"bike_id":"8db996a9-a123-4ae0-bf2e-1c6a4eded6ba","system_id":"levelo_inurba_marseille","lat":43.26539,"lon":5.39019,"is_reserved":false,"is_disabled":false,"rental_uris":{"android":"levelo://app?vid=8db996a9-a123-4ae0-bf2e-1c6a4eded6ba","ios":"levelo://app?vid=8db996a9-a123-4ae0-bf2e-1c6a4eded6ba"},"vehicle_type_id":"4","last_reported":1761383362,"current_range_meters":10000,"station_id":"ce4bhe12rcd13ifvqf30","pricing_plan_id":"cebpf4jnsgd1na2vs0mg"},{"bike_id":"32ce9492-4637-4d6e-a292-cd351db28377","system_id":"levelo_inurba_marseille","lat":43.31132,"lon":5.37001,"is_reserved":false,"is_disabled":false,"rental_uris":{"android":"levelo://app?vid=32ce9492-4637-4d6e-a292-cd351db28377","ios":"levelo://app?vid=32ce9492-4637-4d6e-a292-cd351db28377"},"vehicle_type_id":"4","last_reported":1761383362,"current_range_meters":10000,"station_id":"","pricing_plan_id":"cebpf4jnsgd1na2vs0mg"},{"bike_id":"6b307c52-f33b-4885-85a6-9bac6592bb3d","system_id":"levelo_inurba_marseille","lat":43.21206,"lon":5.35076,"is_reserved":false,"is_disabled":false,"rental_uris":{"android":"levelo://app?vid=6b307c52-f33b-4885-85a6-9bac6592bb3d","ios":"levelo://app?vid=6b307c52-f33b-4885-85a6-9bac6592bb3d"},"vehicle_type_id":"4","last_reported":1761383362,"current_range_meters":10000,"station_id":"st_cvj6sg6p6f1abm77japg","pricing_plan_id":"cebpf4jnsgd1na2vs0mg"},{"bike_id":"f7225214-4a8f-4ef4-845b-aac76f92c437","system_id":"levelo_inurba_marseille","lat":43.27316,"lon":5.39071,"is_reserved":false,"is_disabled":false,"rental_uris":{"android":"levelo://app?vid=f7225214-4a8f-4ef4-845b-aac76f92c437","ios":"levelo://app?vid=f7225214-4a8f-4ef4-845b-aac76f92c437"},"vehicle_type_id":"4","last_reported":1761383362,"current_range_meters":10000,"station_id":"ce4bhgp2rcd13ifvqfe0","pricing_plan_id":"cebpf4jnsgd1na2vs0mg"},{"bike_id":"6398fd05-47e5-41f8-95bf-116d17d1d757","system_id":"levelo_inurba_marseille","lat":43.292603,"lon":5.384447,"is_reserved":false,"is_disabled":false,"rental_uris":{"android":"levelo://app?vid=6398fd05-47e5-41f8-95bf-116d17d1d757","ios":"levelo://app?vid=6398fd05-47e5-41f8-95bf-116d17d1d757"},"vehicle_type_id":"4","last_reported":1761383362,"current_range_meters":10800,"station_id":"","pricing_plan_id":"cebpf4jnsgd1na2vs0mg"},{"bike_id":"4f5c5045-2f2c-4ab7-ad8b-eeba1d52fe66","system_id":"levelo_inurba_marseille","lat":43.31083,"lon":5.37455,"is_reserved":false,"is_disabled":false,"rental_uris":{"android":"levelo://app?vid=4f5c5045-2f2c-4ab7-ad8b-eeba1d52fe66","ios":"levelo://app?vid=4f5c5045-2f2c-4ab7-ad8b-eeba1d52fe66"},"vehicle_type_id":"4","last_reported":1761383362,"current_range_meters":10800,"station_id":"","pricing_plan_id":"cebpf4jnsgd1na2vs0mg"},{"bike_id":"e94f57f2-601c-4cad-a187-6e953770aa25","system_id":"levelo_inurba_marseille","lat":43.3124,"lon":5.37873,"is_reserved":false,"is_disabled":false,"rental_uris":{"android":"levelo://app?vid=e94f57f2-601c-4cad-a187-6e953770aa25","ios":"levelo://app?vid=e94f57f2-601c-4cad-a187-6e953770aa25"},"vehicle_type_id":"4","last_reported":1761383362,"current_range_meters":10800,"station_id":"","pricing_plan_id":"cebpf4jnsgd1na2vs0mg"},{"bike_id":"2efd2d3e-31f2-40ec-b473-87791e77de71","system_id":"levelo_inurba_marseille","lat":43.30424,"lon":5.39741,"is_reserved":false,"is_disabled":false,"rental_uris":{"android":"levelo://app?vid=2efd2d3e-31f2-40ec-b473-87791e77de71","ios":"levelo://app?vid=2efd2d3e-31f2-40ec-b473-87791e77de71"},"vehicle_type_id":"4","last_reported":1761383362,"current_range_meters":10800,"station_id":"ce4bh092rcd13ifvqd20","pricing_plan_id":"cebpf4jnsgd1na2vs0mg"},{"bike_id":"69599b97-b573-4868-ae16-9bda40c9248f","system_id":"levelo_inurba_marseille","lat":43.211934,"lon":5.35082,"is_reserved":false,"is_disabled":false,"rental_uris":{"android":"levelo://app?vid=69599b97-b573-4868-ae16-9bda40c9248f","ios":"levelo://app?vid=69599b97-b573-4868-ae16-9bda40c9248f"},"vehicle_type_id":"4","last_reported":1761383362,"current_range_meters":11200,"station_id":"st_cvj6sg6p6f1abm77japg","pricing_plan_id":"cebpf4jnsgd1na2vs0mg"},{"bike_id":"87644e03-e3b4-40f3-a6b3-5eb73ef4f6c9","system_id":"levelo_inurba_marseille","lat":43.28486,"lon":5.3855,"is_reserved":false,"is_disabled":false,"rental_uris":{"android":"levelo://app?vid=87644e03-e3b4-40f3-a6b3-5eb73ef4f6c9","ios":"levelo://app?vid=87644e03-e3b4-40f3-a6b3-5eb73ef4f6c9"},"vehicle_type_id":"4","last_reported":1761383362,"current_range_meters":11200,"station_id":"ce4bh8p2rcd13ifvqeb0","pricing_plan_id":"cebpf4jnsgd1na2vs0mg"},{"bike_id":"4923f04b-063d-4d5c-a4b1-a704d5499e67","system_id":"levelo_inurba_marseille","lat":43.211953,"lon":5.350723,"is_reserved":false,"is_disabled":false,"rental_uris":{"android":"levelo://app?vid=4923f04b-063d-4d5c-a4b1-a704d5499e67","ios":"levelo://app?vid=4923f04b-063d-4d5c-a4b1-a704d5499e67"},"vehicle_type_id":"4","last_reported":1761383362,"current_range_meters":12000,"station_id":"st_cvj6sg6p6f1abm77japg","pricing_plan_id":"cebpf4jnsgd1na2vs0mg"},{"bike_id":"a4150ec3-b947-4e2e-9fa7-83c060da38a7","system_id":"levelo_inurba_marseille","lat":43.272123,"lon":5.391685,"is_reserved":false,"is_disabled":false,"rental_uris":{"android":"levelo://app?vid=a4150ec3-b947-4e2e-9fa7-83c060da38a7","ios":"levelo://app?vid=a4150ec3-b947-4e2e-9fa7-83c060da38a7"},"vehicle_type_id":"4","last_reported":1761383362,"current_range_meters":12000,"station_id":"ce4bhhp2rcd13ifvqfm0","pricing_plan_id":"cebpf4jnsgd1na2vs0mg"},{"bike_id":"6c8c38e5-cd05-4e9c-9a27-f3b78ff3e0e1","system_id":"levelo_inurba_marseille","lat":43.28613,"lon":5.37058,"is_reserved":false,"is_disabled":false,"rental_uris":{"android":"levelo://app?vid=6c8c38e5-cd05-4e9c-9a27-f3b78ff3e0e1","ios":"levelo://app?vid=6c8c38e5-cd05-4e9c-9a27-f3b78ff3e0e1"},"vehicle_type_id":"4","last_reported":1761383362,"current_range_meters":12000,"station_id":"ce4bht12rcd13ifvqi60","pricing_plan_id":"cebpf4jnsgd1na2vs0mg"},{"bike_id":"803914bc-7a6d-4c9b-b617-1d959c7932ff","system_id":"levelo_inurba_marseille","lat":43.26791,"lon":5.39408,"is_reserved":false,"is_disabled":false,"rental_uris":{"android":"levelo://app?vid=803914bc-7a6d-4c9b-b617-1d959c7932ff","ios":"levelo://app?vid=803914bc-7a6d-4c9b-b617-1d959c7932ff"},"vehicle_type_id":"4","last_reported":1761383362,"current_range_meters":12400,"station_id":"ce4bhh12rcd13ifvqfg0","pricing_plan_id":"cebpf4jnsgd1na2vs0mg"},{"bike_id":"5c0e1fad-1092-45f4-930f-73335d46d836","system_id":"levelo_inurba_marseille","lat":43.29785,"lon":5.38109,"is_reserved":false,"is_disabled":true,"rental_uris":{"android":"levelo://app?vid=5c0e1fad-1092-45f4-930f-73335d46d836","ios":"levelo://app?vid=5c0e1fad-1092-45f4-930f-73335d46d836"},"vehicle_type_id":"4","last_reported":1761383362,"current_range_meters":12400,"station_id":"ce4bgip2rcd13ifvqbb0","pricing_plan_id":"cebpf4jnsgd1na2vs0mg"},{"bike_id":"6861ce85-77a9-4d2e-a905-a525940c7a22","system_id":"levelo_inurba_marseille","lat":43.24664,"lon":5.38171,"is_reserved":false,"is_disabled":false,"rental_uris":{"android":"levelo://app?vid=6861ce85-77a9-4d2e-a905-a525940c7a22","ios":"levelo://app?vid=6861ce85-77a9-4d2e-a905-a525940c7a22"},"vehicle_type_id":"4","last_reported":1761383362,"current_range_meters":12400,"station_id":"ce4bhih2rcd13ifvqfr0","pricing_plan_id":"cebpf4jnsgd1na2vs0mg"},{"bike_id":"4ceca3ae-b4eb-4606-aa1f-d045bcefce4f","system_id":"levelo_inurba_marseille","lat":43.31888,"lon":5.40735,"is_reserved":false,"is_disabled":false,"rental_uris":{"android":"levelo://app?vid=4ceca3ae-b4eb-4606-aa1f-d045bcefce4f","ios":"levelo://app?vid=4ceca3ae-b4eb-4606-aa1f-d045bcefce4f"},"vehicle_type_id":"4","last_reported":1761383362,"current_range_meters":12400,"station_id":"ce4bhq12rcd13ifvqhig","pricing_plan_id":"cebpf4jnsgd1na2vs0mg"},{"bike_id":"72595d14-8f84-4de5-a9ab-f8151c131960","system_id":"levelo_inurba_marseille","lat":43.22929,"lon":5.35362,"is_reserved":false,"is_disabled":false,"rental_uris":{"android":"levelo://app?vid=72595d14-8f84-4de5-a9ab-f8151c131960","ios":"levelo://app?vid=72595d14-8f84-4de5-a9ab-f8151c131960"},"vehicle_type_id":"4","last_reported":1761383362,"current_range_meters":12800,"station_id":"cpo3532slgdg3j2ikp40","pricing_plan_id":"cebpf4jnsgd1na2vs0mg"},{"bike_id":"320aca22-8dcf-42b3-a159-c2668ff2a902","system_id":"levelo_inurba_marseille","lat":43.29266,"lon":5.38438,"is_reserved":false,"is_disabled":false,"rental_uris":{"android":"levelo://app?vid=320aca22-8dcf-42b3-a159-c2668ff2a902","ios":"levelo://app?vid=320aca22-8dcf-42b3-a159-c2668ff2a902"},"vehicle_type_id":"4","last_reported":1761383362,"current_range_meters":12800,"station_id":"ce4bh692rcd13ifvqea0","pricing_plan_id":"cebpf4jnsgd1na2vs0mg"},{"bike_id":"9d964ec4-c537-4f1d-b21c-451d3f46b1bf","system_id":"levelo_inurba_marseille","lat":43.2989,"lon":5.37834,"is_reserved":false,"is_disabled":false,"rental_uris":{"android":"levelo://app?vid=9d964ec4-c537-4f1d-b21c-451d3f46b1bf","ios":"levelo://app?vid=9d964ec4-c537-4f1d-b21c-451d3f46b1bf"},"vehicle_type_id":"4","last_reported":1761383362,"current_range_meters":12800,"station_id":"","pricing_plan_id":"cebpf4jnsgd1na2vs0mg"},{"bike_id":"e1d05531-bc5b-42c2-b668-1c49ad26d333","system_id":"levelo_inurba_marseille","lat":43.33769,"lon":5.3743,"is_reserved":false,"is_disabled":false,"rental_uris":{"android":"levelo://app?vid=e1d05531-bc5b-42c2-b668-1c49ad26d333","ios":"levelo://app?vid=e1d05531-bc5b-42c2-b668-1c49ad26d333"},"vehicle_type_id":"4","last_reported":1761383362,"current_range_meters":13600,"station_id":"","pricing_plan_id":"cebpf4jnsgd1na2vs0mg"},{"bike_id":"8be6a47c-9542-4fed-8109-f6d91a0f2b3f","system_id":"levelo_inurba_marseille","lat":43.29174,"lon":5.37161,"is_reserved":false,"is_disabled":false,"rental_uris":{"android":"levelo://app?vid=8be6a47c-9542-4fed-8109-f6d91a0f2b3f","ios":"levelo://app?vid=8be6a47c-9542-4fed-8109-f6d91a0f2b3f"},"vehicle_type_id":"4","last_reported":1761383362,"current_range_meters":13600,"station_id":"ce4bha92rcd13ifvqeh0","pricing_plan_id":"cebpf4jnsgd1na2vs0mg"},{"bike_id":"386a9c87-6707-4c56-9410-3952ef242f20","system_id":"levelo_inurba_marseille","lat":43.24075,"lon":5.3776,"is_reserved":false,"is_disabled":false,"rental_uris":{"android":"levelo://app?vid=386a9c87-6707-4c56-9410-3952ef242f20","ios":"levelo://app?vid=386a9c87-6707-4c56-9410-3952ef242f20"},"vehicle_type_id":"4","last_reported":1761383362,"current_range_meters":14400,"station_id":"ce4bhnp2rcd13ifvqgvg","pricing_plan_id":"cebpf4jnsgd1na2vs0mg"},{"bike_id":"b6559af0-e31e-415b-92a3-0988f7fc43ef","system_id":"levelo_inurba_marseille","lat":43.284141,"lon":5.375172,"is_reserved":false,"is_disabled":true,"rental_uris":{"android":"levelo://app?vid=b6559af0-e31e-415b-92a3-0988f7fc43ef","ios":"levelo://app?vid=b6559af0-e31e-415b-92a3-0988f7fc43ef"},"vehicle_type_id":"4","last_reported":1761383362,"current_range_meters":14400,"station_id":"","pricing_plan_id":"cebpf4jnsgd1na2vs0mg"},{"bike_id":"4f6d245d-0277-4f24-8760-3d192a819e3d","system_id":"levelo_inurba_marseille","lat":43.27226,"lon":5.40968,"is_reserved":false,"is_disabled":false,"rental_uris":{"android":"levelo://app?vid=4f6d245d-0277-4f24-8760-3d192a819e3d","ios":"levelo://app?vid=4f6d245d-0277-4f24-8760-3d192a819e3d"},"vehicle_type_id":"4","last_reported":1761383362,"current_range_meters":14400,"station_id":"ce4bhl12rcd13ifvqgf0","pricing_plan_id":"cebpf4jnsgd1na2vs0mg"},{"bike_id":"d4f34596-cd96-4004-af96-068144e0795b","system_id":"levelo_inurba_marseille","lat":43.306805,"lon":5.422313,"is_reserved":false,"is_disabled":false,"rental_uris":{"android":"levelo://app?vid=d4f34596-cd96-4004-af96-068144e0795b","ios":"levelo://app?vid=d4f34596-cd96-4004-af96-068144e0795b"},"vehicle_type_id":"4","last_reported":1761383362,"current_range_meters":14400,"station_id":"","pricing_plan_id":"cebpf4jnsgd1na2vs0mg"},{"bike_id":"c70a5567-5460-4c31-a070-7544e706941c","system_id":"levelo_inurba_marseille","lat":43.22561,"lon":5.41623,"is_reserved":false,"is_disabled":false,"rental_uris":{"android":"levelo://app?vid=c70a5567-5460-4c31-a070-7544e706941c","ios":"levelo://app?vid=c70a5567-5460-4c31-a070-7544e706941c"},"vehicle_type_id":"4","last_reported":1761383362,"current_range_meters":14400,"station_id":"st_d2o4gvlbi1j2169b742g","pricing_plan_id":"cebpf4jnsgd1na2vs0mg"},{"bike_id":"43117888-69d1-4bc6-a73a-697554e4a08e","system_id":"levelo_inurba_marseille","lat":43.25258,"lon":5.37798,"is_reserved":false,"is_disabled":false,"rental_uris":{"android":"levelo://app?vid=43117888-69d1-4bc6-a73a-697554e4a08e","ios":"levelo://app?vid=43117888-69d1-4bc6-a73a-697554e4a08e"},"vehicle_type_id":"4","last_reported":1761383362,"current_range_meters":14800,"station_id":"","pricing_plan_id":"cebpf4jnsgd1na2vs0mg"},{"bike_id":"8c118fb3-2482-42d1-8507-b5f94f6adec4","system_id":"levelo_inurba_marseille","lat":43.273132,"lon":5.390696,"is_reserved":false,"is_disabled":false,"rental_uris":{"android":"levelo://app?vid=8c118fb3-2482-42d1-8507-b5f94f6adec4","ios":"levelo://app?vid=8c118fb3-2482-42d1-8507-b5f94f6adec4"},"vehicle_type_id":"4","last_reported":1761383362,"current_range_meters":14800,"station_id":"ce4bhgp2rcd13ifvqfe0","pricing_plan_id":"cebpf4jnsgd1na2vs0mg"},{"bike_id":"8e92164c-deff-4fbd-9f4e-43ff81933572","system_id":"levelo_inurba_marseille","lat":43.29838,"lon":5.42013,"is_reserved":false,"is_disabled":false,"rental_uris":{"android":"levelo://app?vid=8e92164c-deff-4fbd-9f4e-43ff81933572","ios":"levelo://app?vid=8e92164c-deff-4fbd-9f4e-43ff81933572"},"vehicle_type_id":"4","last_reported":1761383362,"current_range_meters":14800,"station_id":"","pricing_plan_id":"cebpf4jnsgd1na2vs0mg"},{"bike_id":"fbe50a91-8778-42f9-a045-27c2c88ac2e7","system_id":"levelo_inurba_marseille","lat":43.29761,"lon":5.42779,"is_reserved":false,"is_disabled":false,"rental_uris":{"android":"levelo://app?vid=fbe50a91-8778-42f9-a045-27c2c88ac2e7","ios":"levelo://app?vid=fbe50a91-8778-42f9-a045-27c2c88ac2e7"},"vehicle_type_id":"4","last_reported":1761383362,"current_range_meters":15200,"station_id":"st_d3md5207bmas73dh9klg","pricing_plan_id":"cebpf4jnsgd1na2vs0mg"},{"bike_id":"3cfa595b-cff3-48e4-9ef0-78ef1b9568f9","system_id":"levelo_inurba_marseille","lat":43.29023,"lon":5.38093,"is_reserved":false,"is_disabled":false,"rental_uris":{"android":"levelo://app?vid=3cfa595b-cff3-48e4-9ef0-78ef1b9568f9","ios":"levelo://app?vid=3cfa595b-cff3-48e4-9ef0-78ef1b9568f9"},"vehicle_type_id":"4","last_reported":1761383362,"current_range_meters":15200,"station_id":"ce4bh4p2rcd13ifvqe1g","pricing_plan_id":"cebpf4jnsgd1na2vs0mg"},{"bike_id":"48736ec0-1351-48ef-b390-a2f65d2bfc4e","system_id":"levelo_inurba_marseille","lat":43.27218,"lon":5.39177,"is_reserved":false,"is_disabled":false,"rental_uris":{"android":"levelo://app?vid=48736ec0-1351-48ef-b390-a2f65d2bfc4e","ios":"levelo://app?vid=48736ec0-1351-48ef-b390-a2f65d2bfc4e"},"vehicle_type_id":"4","last_reported":1761383362,"current_range_meters":15200,"station_id":"ce4bhhp2rcd13ifvqfm0","pricing_plan_id":"cebpf4jnsgd1na2vs0mg"},{"bike_id":"985d01d8-f70e-4476-ae96-47ef920b9ab6","system_id":"levelo_inurba_marseille","lat":43.21186,"lon":5.35077,"is_reserved":false,"is_disabled":false,"rental_uris":{"android":"levelo://app?vid=985d01d8-f70e-4476-ae96-47ef920b9ab6","ios":"levelo://app?vid=985d01d8-f70e-4476-ae96-47ef920b9ab6"},"vehicle_type_id":"4","last_reported":1761383362,"current_range_meters":15200,"station_id":"st_cvj6sg6p6f1abm77japg","pricing_plan_id":"cebpf4jnsgd1na2vs0mg"},{"bike_id":"872912e2-779b-4f95-8301-307048c20270","system_id":"levelo_inurba_marseille","lat":43.21172,"lon":5.35047,"is_reserved":false,"is_disabled":false,"rental_uris":{"android":"levelo://app?vid=872912e2-779b-4f95-8301-307048c20270","ios":"levelo://app?vid=872912e2-779b-4f95-8301-307048c20270"},"vehicle_type_id":"4","last_reported":1761383362,"current_range_meters":16000,"station_id":"st_cvj6sg6p6f1abm77japg","pricing_plan_id":"cebpf4jnsgd1na2vs0mg"},{"bike_id":"dab36927-4328-48fa-bffb-145a737de07e","system_id":"levelo_inurba_marseille","lat":43.30795,"lon":5.43529,"is_reserved":false,"is_disabled":true,"rental_uris":{"android":"levelo://app?vid=dab36927-4328-48fa-bffb-145a737de07e","ios":"levelo://app?vid=dab36927-4328-48fa-bffb-145a737de07e"},"vehicle_type_id":"4","last_reported":1761383362,"current_range_meters":16000,"station_id":"ce4bhph2rcd13ifvqheg","pricing_plan_id":"cebpf4jnsgd1na2vs0mg"},{"bike_id":"36ef565d-595c-4fe5-832e-9069968fcd08","system_id":"levelo_inurba_marseille","lat":43.32548,"lon":5.41442,"is_reserved":false,"is_disabled":true,"rental_uris":{"android":"levelo://app?vid=36ef565d-595c-4fe5-832e-9069968fcd08","ios":"levelo://app?vid=36ef565d-595c-4fe5-832e-9069968fcd08"},"vehicle_type_id":"4","last_reported":1761383362,"current_range_meters":16000,"station_id":"ce4bhq12rcd13ifvqhhg","pricing_plan_id":"cebpf4jnsgd1na2vs0mg"},{"bike_id":"de4560c0-6f43-49b3-9b02-2b7ef171787b","system_id":"levelo_inurba_marseille","lat":43.278273,"lon":5.39213,"is_reserved":false,"is_disabled":false,"rental_uris":{"android":"levelo://app?vid=de4560c0-6f43-49b3-9b02-2b7ef171787b","ios":"levelo://app?vid=de4560c0-6f43-49b3-9b02-2b7ef171787b"},"vehicle_type_id":"4","last_reported":1761383362,"current_range_meters":16000,"station_id":"ce4bhjp2rcd13ifvqga0","pricing_plan_id":"cebpf4jnsgd1na2vs0mg"},{"bike_id":"d03f3636-16e3-4275-8b6e-75e5a75cfef1","system_id":"levelo_inurba_marseille","lat":43.26558,"lon":5.37344,"is_reserved":false,"is_disabled":false,"rental_uris":{"android":"levelo://app?vid=d03f3636-16e3-4275-8b6e-75e5a75cfef1","ios":"levelo://app?vid=d03f3636-16e3-4275-8b6e-75e5a75cfef1"},"vehicle_type_id":"4","last_reported":1761383362,"current_range_meters":16000,"station_id":"ce4bhg12rcd13ifvqf70","pricing_plan_id":"cebpf4jnsgd1na2vs0mg"},{"bike_id":"8c35a7e4-8378-4fdf-b42f-02e88b6199ca","system_id":"levelo_inurba_marseille","lat":43.32099,"lon":5.36765,"is_reserved":false,"is_disabled":false,"rental_uris":{"android":"levelo://app?vid=8c35a7e4-8378-4fdf-b42f-02e88b6199ca","ios":"levelo://app?vid=8c35a7e4-8378-4fdf-b42f-02e88b6199ca"},"vehicle_type_id":"4","last_reported":1761383362,"current_range_meters":16000,"station_id":"ce4bhrh2rcd13ifvqhug","pricing_plan_id":"cebpf4jnsgd1na2vs0mg"},{"bike_id":"f9386dde-e955-41d5-b191-a9a86e4b8f84","system_id":"levelo_inurba_marseille","lat":43.283903,"lon":5.37532,"is_reserved":false,"is_disabled":true,"rental_uris":{"android":"levelo://app?vid=f9386dde-e955-41d5-b191-a9a86e4b8f84","ios":"levelo://app?vid=f9386dde-e955-41d5-b191-a9a86e4b8f84"},"vehicle_type_id":"4","last_reported":1761383362,"current_range_meters":16400,"station_id":"ce4bh412rcd13ifvqds0","pricing_plan_id":"cebpf4jnsgd1na2vs0mg"},{"bike_id":"fbc51a66-9f5b-4793-bf47-376ff7c8c289","system_id":"levelo_inurba_marseille","lat":43.21192,"lon":5.35075,"is_reserved":false,"is_disabled":false,"rental_uris":{"android":"levelo://app?vid=fbc51a66-9f5b-4793-bf47-376ff7c8c289","ios":"levelo://app?vid=fbc51a66-9f5b-4793-bf47-376ff7c8c289"},"vehicle_type_id":"4","last_reported":1761383362,"current_range_meters":16400,"station_id":"st_cvj6sg6p6f1abm77japg","pricing_plan_id":"cebpf4jnsgd1na2vs0mg"},{"bike_id":"4d2ac17a-10c7-4257-b14a-5a0821903d3a","system_id":"levelo_inurba_marseille","lat":43.2985,"lon":5.36287,"is_reserved":false,"is_disabled":false,"rental_uris":{"android":"levelo://app?vid=4d2ac17a-10c7-4257-b14a-5a0821903d3a","ios":"levelo://app?vid=4d2ac17a-10c7-4257-b14a-5a0821903d3a"},"vehicle_type_id":"4","last_reported":1761383362,"current_range_meters":16800,"station_id":"ce4bgpp2rcd13ifvqc3g","pricing_plan_id":"cebpf4jnsgd1na2vs0mg"},{"bike_id":"e68afb4c-679c-4cca-9657-5c582519bed4","system_id":"levelo_inurba_marseille","lat":43.26218,"lon":5.37441,"is_reserved":false,"is_disabled":false,"rental_uris":{"android":"levelo://app?vid=e68afb4c-679c-4cca-9657-5c582519bed4","ios":"levelo://app?vid=e68afb4c-679c-4cca-9657-5c582519bed4"},"vehicle_type_id":"4","last_reported":1761383362,"current_range_meters":16800,"station_id":"ce4bhgp2rcd13ifvqfc0","pricing_plan_id":"cebpf4jnsgd1na2vs0mg"},{"bike_id":"8e1001bf-14bf-4add-9e80-532070c873ea","system_id":"levelo_inurba_marseille","lat":43.255736,"lon":5.382519,"is_reserved":false,"is_disabled":false,"rental_uris":{"android":"levelo://app?vid=8e1001bf-14bf-4add-9e80-532070c873ea","ios":"levelo://app?vid=8e1001bf-14bf-4add-9e80-532070c873ea"},"vehicle_type_id":"4","last_reported":1761383362,"current_range_meters":16800,"station_id":"ce4bhih2rcd13ifvqfs0","pricing_plan_id":"cebpf4jnsgd1na2vs0mg"},{"bike_id":"edd2c541-eaf2-4a50-a0de-142f364b01dc","system_id":"levelo_inurba_marseille","lat":43.31267,"lon":5.37764,"is_reserved":false,"is_disabled":false,"rental_uris":{"android":"levelo://app?vid=edd2c541-eaf2-4a50-a0de-142f364b01dc","ios":"levelo://app?vid=edd2c541-eaf2-4a50-a0de-142f364b01dc"},"vehicle_type_id":"4","last_reported":1761383362,"current_range_meters":16800,"station_id":"","pricing_plan_id":"cebpf4jnsgd1na2vs0mg"},{"bike_id":"2d5419ca-8955-4cc2-bf16-13223323293b","system_id":"levelo_inurba_marseille","lat":43.26206,"lon":5.37461,"is_reserved":false,"is_disabled":true,"rental_uris":{"android":"levelo://app?vid=2d5419ca-8955-4cc2-bf16-13223323293b","ios":"levelo://app?vid=2d5419ca-8955-4cc2-bf16-13223323293b"},"vehicle_type_id":"4","last_reported":1761383362,"current_range_meters":16800,"station_id":"ce4bhgp2rcd13ifvqfc0","pricing_plan_id":"cebpf4jnsgd1na2vs0mg"},{"bike_id":"6cf2b315-d1ee-4e24-a665-250fae4ab05f","system_id":"levelo_inurba_marseille","lat":43.31302,"lon":5.37528,"is_reserved":false,"is_disabled":true,"rental_uris":{"android":"levelo://app?vid=6cf2b315-d1ee-4e24-a665-250fae4ab05f","ios":"levelo://app?vid=6cf2b315-d1ee-4e24-a665-250fae4ab05f"},"vehicle_type_id":"4","last_reported":1761383362,"current_range_meters":16800,"station_id":"","pricing_plan_id":"cebpf4jnsgd1na2vs0mg"},{"bike_id":"8c4ade53-28b6-421a-8b0a-4b851571fed4","system_id":"levelo_inurba_marseille","lat":43.25332,"lon":5.421631,"is_reserved":false,"is_disabled":false,"rental_uris":{"android":"levelo://app?vid=8c4ade53-28b6-421a-8b0a-4b851571fed4","ios":"levelo://app?vid=8c4ade53-28b6-421a-8b0a-4b851571fed4"},"vehicle_type_id":"4","last_reported":1761383362,"current_range_meters":16800,"station_id":"st_d2m65c5bi1j21697t3ng","pricing_plan_id":"cebpf4jnsgd1na2vs0mg"},{"bike_id":"c2615fa8-f906-4e05-937e-772259bb2874","system_id":"levelo_inurba_marseille","lat":43.24632,"lon":5.431561,"is_reserved":false,"is_disabled":false,"rental_uris":{"android":"levelo://app?vid=c2615fa8-f906-4e05-937e-772259bb2874","ios":"levelo://app?vid=c2615fa8-f906-4e05-937e-772259bb2874"},"vehicle_type_id":"4","last_reported":1761383362,"current_range_meters":17200,"station_id":"st_d2m6c4gdas8pm72e190g","pricing_plan_id":"cebpf4jnsgd1na2vs0mg"},{"bike_id":"9b628c58-dafb-43b8-9833-d56b39094a2a","system_id":"levelo_inurba_marseille","lat":43.30789,"lon":5.37649,"is_reserved":false,"is_disabled":false,"rental_uris":{"android":"levelo://app?vid=9b628c58-dafb-43b8-9833-d56b39094a2a","ios":"levelo://app?vid=9b628c58-dafb-43b8-9833-d56b39094a2a"},"vehicle_type_id":"4","last_reported":1761383362,"current_range_meters":17200,"station_id":"ce4bgv92rcd13ifvqcq0","pricing_plan_id":"cebpf4jnsgd1na2vs0mg"},{"bike_id":"51f6b392-8d0d-41b5-9bf6-76a949608beb","system_id":"levelo_inurba_marseille","lat":43.25343,"lon":5.42177,"is_reserved":false,"is_disabled":false,"rental_uris":{"android":"levelo://app?vid=51f6b392-8d0d-41b5-9bf6-76a949608beb","ios":"levelo://app?vid=51f6b392-8d0d-41b5-9bf6-76a949608beb"},"vehicle_type_id":"4","last_reported":1761383362,"current_range_meters":17200,"station_id":"st_d2m65c5bi1j21697t3ng","pricing_plan_id":"cebpf4jnsgd1na2vs0mg"},{"bike_id":"294a3f34-361b-4c46-9333-ce2708bba8b2","system_id":"levelo_inurba_marseille","lat":43.3171,"lon":5.36928,"is_reserved":false,"is_disabled":false,"rental_uris":{"android":"levelo://app?vid=294a3f34-361b-4c46-9333-ce2708bba8b2","ios":"levelo://app?vid=294a3f34-361b-4c46-9333-ce2708bba8b2"},"vehicle_type_id":"4","last_reported":1761383362,"current_range_meters":17200,"station_id":"","pricing_plan_id":"cebpf4jnsgd1na2vs0mg"},{"bike_id":"bc805b80-3097-410f-b503-9e60f016e0de","system_id":"levelo_inurba_marseille","lat":43.27214,"lon":5.39187,"is_reserved":false,"is_disabled":true,"rental_uris":{"android":"levelo://app?vid=bc805b80-3097-410f-b503-9e60f016e0de","ios":"levelo://app?vid=bc805b80-3097-410f-b503-9e60f016e0de"},"vehicle_type_id":"4","last_reported":1761383362,"current_range_meters":17200,"station_id":"ce4bhhp2rcd13ifvqfm0","pricing_plan_id":"cebpf4jnsgd1na2vs0mg"},{"bike_id":"a706b316-2ae6-4826-be8f-e018665642e1","system_id":"levelo_inurba_marseille","lat":43.272464,"lon":5.392027,"is_reserved":false,"is_disabled":false,"rental_uris":{"android":"levelo://app?vid=a706b316-2ae6-4826-be8f-e018665642e1","ios":"levelo://app?vid=a706b316-2ae6-4826-be8f-e018665642e1"},"vehicle_type_id":"4","last_reported":1761383362,"current_range_meters":17200,"station_id":"ce4bhhp2rcd13ifvqfm0","pricing_plan_id":"cebpf4jnsgd1na2vs0mg"},{"bike_id":"79843ed5-696c-4b67-8f8e-24fb583c3116","system_id":"levelo_inurba_marseille","lat":43.337444,"lon":5.374475,"is_reserved":false,"is_disabled":false,"rental_uris":{"android":"levelo://app?vid=79843ed5-696c-4b67-8f8e-24fb583c3116","ios":"levelo://app?vid=79843ed5-696c-4b67-8f8e-24fb583c3116"},"vehicle_type_id":"4","last_reported":1761383362,"current_range_meters":17200,"station_id":"","pricing_plan_id":"cebpf4jnsgd1na2vs0mg"},{"bike_id":"40fed290-3dea-4c73-bf2e-af05de8161fd","system_id":"levelo_inurba_marseille","lat":43.32111,"lon":5.36746,"is_reserved":false,"is_disabled":false,"rental_uris":{"android":"levelo://app?vid=40fed290-3dea-4c73-bf2e-af05de8161fd","ios":"levelo://app?vid=40fed290-3dea-4c73-bf2e-af05de8161fd"},"vehicle_type_id":"4","last_reported":1761383362,"current_range_meters":17600,"station_id":"ce4bhrh2rcd13ifvqhug","pricing_plan_id":"cebpf4jnsgd1na2vs0mg"},{"bike_id":"0144bdf2-84a6-45ad-976a-ea6fd3101d41","system_id":"levelo_inurba_marseille","lat":43.32101,"lon":5.36758,"is_reserved":false,"is_disabled":false,"rental_uris":{"android":"levelo://app?vid=0144bdf2-84a6-45ad-976a-ea6fd3101d41","ios":"levelo://app?vid=0144bdf2-84a6-45ad-976a-ea6fd3101d41"},"vehicle_type_id":"4","last_reported":1761383362,"current_range_meters":17600,"station_id":"ce4bhrh2rcd13ifvqhug","pricing_plan_id":"cebpf4jnsgd1na2vs0mg"},{"bike_id":"de4c9d67-aa03-439a-a821-c7b9a613d790","system_id":"levelo_inurba_marseille","lat":43.211964,"lon":5.350721,"is_reserved":false,"is_disabled":false,"rental_uris":{"android":"levelo://app?vid=de4c9d67-aa03-439a-a821-c7b9a613d790","ios":"levelo://app?vid=de4c9d67-aa03-439a-a821-c7b9a613d790"},"vehicle_type_id":"4","last_reported":1761383362,"current_range_meters":17600,"station_id":"st_cvj6sg6p6f1abm77japg","pricing_plan_id":"cebpf4jnsgd1na2vs0mg"},{"bike_id":"151681fe-d6da-478a-be81-1ca5e6442b9c","system_id":"levelo_inurba_marseille","lat":43.27059,"lon":5.40262,"is_reserved":false,"is_disabled":false,"rental_uris":{"android":"levelo://app?vid=151681fe-d6da-478a-be81-1ca5e6442b9c","ios":"levelo://app?vid=151681fe-d6da-478a-be81-1ca5e6442b9c"},"vehicle_type_id":"4","last_reported":1761383362,"current_range_meters":17600,"station_id":"ce4bhk92rcd13ifvqgc0","pricing_plan_id":"cebpf4jnsgd1na2vs0mg"},{"bike_id":"29b38a45-3e07-40c1-b8b1-5f85b487711f","system_id":"levelo_inurba_marseille","lat":43.312311,"lon":5.404117,"is_reserved":false,"is_disabled":false,"rental_uris":{"android":"levelo://app?vid=29b38a45-3e07-40c1-b8b1-5f85b487711f","ios":"levelo://app?vid=29b38a45-3e07-40c1-b8b1-5f85b487711f"},"vehicle_type_id":"4","last_reported":1761383362,"current_range_meters":18000,"station_id":"","pricing_plan_id":"cebpf4jnsgd1na2vs0mg"},{"bike_id":"10d72b14-8999-4a8d-9dca-23f746fdbaf5","system_id":"levelo_inurba_marseille","lat":43.27573,"lon":5.38418,"is_reserved":false,"is_disabled":false,"rental_uris":{"android":"levelo://app?vid=10d72b14-8999-4a8d-9dca-23f746fdbaf5","ios":"levelo://app?vid=10d72b14-8999-4a8d-9dca-23f746fdbaf5"},"vehicle_type_id":"4","last_reported":1761383362,"current_range_meters":18000,"station_id":"ce4bhh92rcd13ifvqfi0","pricing_plan_id":"cebpf4jnsgd1na2vs0mg"},{"bike_id":"582dfa3f-e2f9-4b57-9fe3-9f6490817e4a","system_id":"levelo_inurba_marseille","lat":43.29848,"lon":5.36268,"is_reserved":false,"is_disabled":false,"rental_uris":{"android":"levelo://app?vid=582dfa3f-e2f9-4b57-9fe3-9f6490817e4a","ios":"levelo://app?vid=582dfa3f-e2f9-4b57-9fe3-9f6490817e4a"},"vehicle_type_id":"4","last_reported":1761383362,"current_range_meters":18000,"station_id":"ce4bgpp2rcd13ifvqc3g","pricing_plan_id":"cebpf4jnsgd1na2vs0mg"},{"bike_id":"62eb6828-cb1e-418d-91d1-8e62ed406fc9","system_id":"levelo_inurba_marseille","lat":43.29213,"lon":5.36063,"is_reserved":false,"is_disabled":false,"rental_uris":{"android":"levelo://app?vid=62eb6828-cb1e-418d-91d1-8e62ed406fc9","ios":"levelo://app?vid=62eb6828-cb1e-418d-91d1-8e62ed406fc9"},"vehicle_type_id":"4","last_reported":1761383362,"current_range_meters":18000,"station_id":"ce4bhbh2rcd13ifvqeqg","pricing_plan_id":"cebpf4jnsgd1na2vs0mg"},{"bike_id":"c0b81f28-bbba-4247-a74b-c55a34b31846","system_id":"levelo_inurba_marseille","lat":43.33258,"lon":5.41086,"is_reserved":false,"is_disabled":false,"rental_uris":{"android":"levelo://app?vid=c0b81f28-bbba-4247-a74b-c55a34b31846","ios":"levelo://app?vid=c0b81f28-bbba-4247-a74b-c55a34b31846"},"vehicle_type_id":"4","last_reported":1761383362,"current_range_meters":18800,"station_id":"","pricing_plan_id":"cebpf4jnsgd1na2vs0mg"},{"bike_id":"fc74c03f-6810-4b94-8149-477bae3888a5","system_id":"levelo_inurba_marseille","lat":43.29817,"lon":5.44035,"is_reserved":false,"is_disabled":false,"rental_uris":{"android":"levelo://app?vid=fc74c03f-6810-4b94-8149-477bae3888a5","ios":"levelo://app?vid=fc74c03f-6810-4b94-8149-477bae3888a5"},"vehicle_type_id":"4","last_reported":1761383362,"current_range_meters":18800,"station_id":"st_d3jp68qikq2c7381ktn0","pricing_plan_id":"cebpf4jnsgd1na2vs0mg"},{"bike_id":"79acc5ae-1f2e-4766-8068-80d5e38bc62b","system_id":"levelo_inurba_marseille","lat":43.211898,"lon":5.350727,"is_reserved":false,"is_disabled":false,"rental_uris":{"android":"levelo://app?vid=79acc5ae-1f2e-4766-8068-80d5e38bc62b","ios":"levelo://app?vid=79acc5ae-1f2e-4766-8068-80d5e38bc62b"},"vehicle_type_id":"4","last_reported":1761383362,"current_range_meters":18800,"station_id":"st_cvj6sg6p6f1abm77japg","pricing_plan_id":"cebpf4jnsgd1na2vs0mg"},{"bike_id":"74546168-aafc-4fc6-824e-fd7787db6ac1","system_id":"levelo_inurba_marseille","lat":43.22927,"lon":5.3537,"is_reserved":false,"is_disabled":false,"rental_uris":{"android":"levelo://app?vid=74546168-aafc-4fc6-824e-fd7787db6ac1","ios":"levelo://app?vid=74546168-aafc-4fc6-824e-fd7787db6ac1"},"vehicle_type_id":"4","last_reported":1761383362,"current_range_meters":18800,"station_id":"cpo3532slgdg3j2ikp40","pricing_plan_id":"cebpf4jnsgd1na2vs0mg"},{"bike_id":"e27978ca-c412-4b12-aa1c-cfdf44476df5","system_id":"levelo_inurba_marseille","lat":43.30171,"lon":5.38076,"is_reserved":false,"is_disabled":false,"rental_uris":{"android":"levelo://app?vid=e27978ca-c412-4b12-aa1c-cfdf44476df5","ios":"levelo://app?vid=e27978ca-c412-4b12-aa1c-cfdf44476df5"},"vehicle_type_id":"4","last_reported":1761383362,"current_range_meters":18800,"station_id":"ce4bgjp2rcd13ifvqbh0","pricing_plan_id":"cebpf4jnsgd1na2vs0mg"},{"bike_id":"e4746a2d-9cd3-46c8-bf0e-3a10fdb16ced","system_id":"levelo_inurba_marseille","lat":43.3236,"lon":5.3676,"is_reserved":false,"is_disabled":false,"rental_uris":{"android":"levelo://app?vid=e4746a2d-9cd3-46c8-bf0e-3a10fdb16ced","ios":"levelo://app?vid=e4746a2d-9cd3-46c8-bf0e-3a10fdb16ced"},"vehicle_type_id":"4","last_reported":1761383362,"current_range_meters":18800,"station_id":"ce4bhsh2rcd13ifvqi2g","pricing_plan_id":"cebpf4jnsgd1na2vs0mg"},{"bike_id":"7fb3971e-84b0-4ac6-82fb-b4ca6cdec2ab","system_id":"levelo_inurba_marseille","lat":43.294829,"lon":5.433114,"is_reserved":false,"is_disabled":false,"rental_uris":{"android":"levelo://app?vid=7fb3971e-84b0-4ac6-82fb-b4ca6cdec2ab","ios":"levelo://app?vid=7fb3971e-84b0-4ac6-82fb-b4ca6cdec2ab"},"vehicle_type_id":"4","last_reported":1761383362,"current_range_meters":18800,"station_id":"st_d3j5ugp08ojc73fj9d10","pricing_plan_id":"cebpf4jnsgd1na2vs0mg"},{"bike_id":"f72a00f1-1fed-4f6c-b4b5-8473dfdb4606","system_id":"levelo_inurba_marseille","lat":43.296776,"lon":5.403753,"is_reserved":false,"is_disabled":false,"rental_uris":{"android":"levelo://app?vid=f72a00f1-1fed-4f6c-b4b5-8473dfdb4606","ios":"levelo://app?vid=f72a00f1-1fed-4f6c-b4b5-8473dfdb4606"},"vehicle_type_id":"4","last_reported":1761383362,"current_range_meters":18800,"station_id":"","pricing_plan_id":"cebpf4jnsgd1na2vs0mg"},{"bike_id":"38a064e1-0c23-4c21-963f-8d817112a18f","system_id":"levelo_inurba_marseille","lat":43.283933,"lon":5.398997,"is_reserved":false,"is_disabled":false,"rental_uris":{"android":"levelo://app?vid=38a064e1-0c23-4c21-963f-8d817112a18f","ios":"levelo://app?vid=38a064e1-0c23-4c21-963f-8d817112a18f"},"vehicle_type_id":"4","last_reported":1761383362,"current_range_meters":18800,"station_id":"","pricing_plan_id":"cebpf4jnsgd1na2vs0mg"},{"bike_id":"f1a214e6-5f31-4f1b-ab16-5b2fea76869f","system_id":"levelo_inurba_marseille","lat":43.2408,"lon":5.37754,"is_reserved":false,"is_disabled":false,"rental_uris":{"android":"levelo://app?vid=f1a214e6-5f31-4f1b-ab16-5b2fea76869f","ios":"levelo://app?vid=f1a214e6-5f31-4f1b-ab16-5b2fea76869f"},"vehicle_type_id":"4","last_reported":1761383362,"current_range_meters":18800,"station_id":"ce4bhnp2rcd13ifvqgvg","pricing_plan_id":"cebpf4jnsgd1na2vs0mg"},{"bike_id":"2f0339ce-fae3-42bc-85dc-6224504bd4ce","system_id":"levelo_inurba_marseille","lat":43.27206,"lon":5.39181,"is_reserved":false,"is_disabled":false,"rental_uris":{"android":"levelo://app?vid=2f0339ce-fae3-42bc-85dc-6224504bd4ce","ios":"levelo://app?vid=2f0339ce-fae3-42bc-85dc-6224504bd4ce"},"vehicle_type_id":"4","last_reported":1761383362,"current_range_meters":19200,"station_id":"ce4bhhp2rcd13ifvqfm0","pricing_plan_id":"cebpf4jnsgd1na2vs0mg"},{"bike_id":"20be5c95-61ce-407d-a7b7-25702e8a2c0e","system_id":"levelo_inurba_marseille","lat":43.310757,"lon":5.383539,"is_reserved":false,"is_disabled":false,"rental_uris":{"android":"levelo://app?vid=20be5c95-61ce-407d-a7b7-25702e8a2c0e","ios":"levelo://app?vid=20be5c95-61ce-407d-a7b7-25702e8a2c0e"},"vehicle_type_id":"4","last_reported":1761383362,"current_range_meters":19200,"station_id":"ce4bgv92rcd13ifvqcr0","pricing_plan_id":"cebpf4jnsgd1na2vs0mg"},{"bike_id":"cd33ad2f-074d-4823-b442-df5bd7a554e2","system_id":"levelo_inurba_marseille","lat":43.24388,"lon":5.37049,"is_reserved":false,"is_disabled":false,"rental_uris":{"android":"levelo://app?vid=cd33ad2f-074d-4823-b442-df5bd7a554e2","ios":"levelo://app?vid=cd33ad2f-074d-4823-b442-df5bd7a554e2"},"vehicle_type_id":"4","last_reported":1761383362,"current_range_meters":19200,"station_id":"ce4bhhh2rcd13ifvqfk0","pricing_plan_id":"cebpf4jnsgd1na2vs0mg"},{"bike_id":"a7f883ab-2769-43da-937c-354e091269f7","system_id":"levelo_inurba_marseille","lat":43.23194,"lon":5.35561,"is_reserved":false,"is_disabled":false,"rental_uris":{"android":"levelo://app?vid=a7f883ab-2769-43da-937c-354e091269f7","ios":"levelo://app?vid=a7f883ab-2769-43da-937c-354e091269f7"},"vehicle_type_id":"4","last_reported":1761383362,"current_range_meters":19200,"station_id":"ce4bhu92rcd13ifvqi70","pricing_plan_id":"cebpf4jnsgd1na2vs0mg"},{"bike_id":"e4ccce50-4824-4895-aa8c-033835526f23","system_id":"levelo_inurba_marseille","lat":43.31881,"lon":5.39986,"is_reserved":false,"is_disabled":false,"rental_uris":{"android":"levelo://app?vid=e4ccce50-4824-4895-aa8c-033835526f23","ios":"levelo://app?vid=e4ccce50-4824-4895-aa8c-033835526f23"},"vehicle_type_id":"4","last_reported":1761383362,"current_range_meters":19200,"station_id":"","pricing_plan_id":"cebpf4jnsgd1na2vs0mg"},{"bike_id":"322cdff8-a2c4-4304-9237-21cde55ebd77","system_id":"levelo_inurba_marseille","lat":43.26498,"lon":5.3954,"is_reserved":false,"is_disabled":false,"rental_uris":{"android":"levelo://app?vid=322cdff8-a2c4-4304-9237-21cde55ebd77","ios":"levelo://app?vid=322cdff8-a2c4-4304-9237-21cde55ebd77"},"vehicle_type_id":"4","last_reported":1761383362,"current_range_meters":19200,"station_id":"ce4bhi12rcd13ifvqfq0","pricing_plan_id":"cebpf4jnsgd1na2vs0mg"},{"bike_id":"086f06a3-e7c8-422e-b74d-978beabe3bc6","system_id":"levelo_inurba_marseille","lat":43.26933,"lon":5.38931,"is_reserved":false,"is_disabled":false,"rental_uris":{"android":"levelo://app?vid=086f06a3-e7c8-422e-b74d-978beabe3bc6","ios":"levelo://app?vid=086f06a3-e7c8-422e-b74d-978beabe3bc6"},"vehicle_type_id":"4","last_reported":1761383362,"current_range_meters":19600,"station_id":"ce4bhhh2rcd13ifvqfl0","pricing_plan_id":"cebpf4jnsgd1na2vs0mg"},{"bike_id":"91d5c914-2907-4403-b239-a8e651a7b844","system_id":"levelo_inurba_marseille","lat":43.29725,"lon":5.37685,"is_reserved":false,"is_disabled":true,"rental_uris":{"android":"levelo://app?vid=91d5c914-2907-4403-b239-a8e651a7b844","ios":"levelo://app?vid=91d5c914-2907-4403-b239-a8e651a7b844"},"vehicle_type_id":"4","last_reported":1761383362,"current_range_meters":19600,"station_id":"ce4bgkh2rcd13ifvqbl0","pricing_plan_id":"cebpf4jnsgd1na2vs0mg"},{"bike_id":"d4f6cd6f-2e03-4d52-87e2-774301b94d7f","system_id":"levelo_inurba_marseille","lat":43.211985,"lon":5.350899,"is_reserved":false,"is_disabled":false,"rental_uris":{"android":"levelo://app?vid=d4f6cd6f-2e03-4d52-87e2-774301b94d7f","ios":"levelo://app?vid=d4f6cd6f-2e03-4d52-87e2-774301b94d7f"},"vehicle_type_id":"4","last_reported":1761383362,"current_range_meters":19600,"station_id":"st_cvj6sg6p6f1abm77japg","pricing_plan_id":"cebpf4jnsgd1na2vs0mg"},{"bike_id":"4ccfd035-1165-4ba0-aba8-930912edabff","system_id":"levelo_inurba_marseille","lat":43.305451,"lon":5.365375,"is_reserved":false,"is_disabled":false,"rental_uris":{"android":"levelo://app?vid=4ccfd035-1165-4ba0-aba8-930912edabff","ios":"levelo://app?vid=4ccfd035-1165-4ba0-aba8-930912edabff"},"vehicle_type_id":"4","last_reported":1761383362,"current_range_meters":19600,"station_id":"ce4bgs12rcd13ifvqcag","pricing_plan_id":"cebpf4jnsgd1na2vs0mg"},{"bike_id":"0d24eb67-3269-44d3-9e33-56c801b7fdbd","system_id":"levelo_inurba_marseille","lat":43.26784,"lon":5.39413,"is_reserved":false,"is_disabled":false,"rental_uris":{"android":"levelo://app?vid=0d24eb67-3269-44d3-9e33-56c801b7fdbd","ios":"levelo://app?vid=0d24eb67-3269-44d3-9e33-56c801b7fdbd"},"vehicle_type_id":"4","last_reported":1761383362,"current_range_meters":19600,"station_id":"ce4bhh12rcd13ifvqfg0","pricing_plan_id":"cebpf4jnsgd1na2vs0mg"},{"bike_id":"3e034739-17b5-47e9-b0d3-c3e41e54e8cb","system_id":"levelo_inurba_marseille","lat":43.29616,"lon":5.37733,"is_reserved":false,"is_disabled":false,"rental_uris":{"android":"levelo://app?vid=3e034739-17b5-47e9-b0d3-c3e41e54e8cb","ios":"levelo://app?vid=3e034739-17b5-47e9-b0d3-c3e41e54e8cb"},"vehicle_type_id":"4","last_reported":1761383362,"current_range_meters":19600,"station_id":"ce4bgi92rcd13ifvqb90","pricing_plan_id":"cebpf4jnsgd1na2vs0mg"},{"bike_id":"3da36b46-32f0-4723-8f3b-8cba39a84287","system_id":"levelo_inurba_marseille","lat":43.24439,"lon":5.37083,"is_reserved":false,"is_disabled":false,"rental_uris":{"android":"levelo://app?vid=3da36b46-32f0-4723-8f3b-8cba39a84287","ios":"levelo://app?vid=3da36b46-32f0-4723-8f3b-8cba39a84287"},"vehicle_type_id":"4","last_reported":1761383362,"current_range_meters":19600,"station_id":"ce4bhhh2rcd13ifvqfk0","pricing_plan_id":"cebpf4jnsgd1na2vs0mg"},{"bike_id":"e90ff1ca-a6ac-42e7-9927-ded229b29c6a","system_id":"levelo_inurba_marseille","lat":43.330826,"lon":5.417066,"is_reserved":false,"is_disabled":false,"rental_uris":{"android":"levelo://app?vid=e90ff1ca-a6ac-42e7-9927-ded229b29c6a","ios":"levelo://app?vid=e90ff1ca-a6ac-42e7-9927-ded229b29c6a"},"vehicle_type_id":"4","last_reported":1761383362,"current_range_meters":19600,"station_id":"","pricing_plan_id":"cebpf4jnsgd1na2vs0mg"},{"bike_id":"8847af5d-c1ad-4d8d-a5c1-273c3b41c105","system_id":"levelo_inurba_marseille","lat":43.322488,"lon":5.419637,"is_reserved":false,"is_disabled":false,"rental_uris":{"android":"levelo://app?vid=8847af5d-c1ad-4d8d-a5c1-273c3b41c105","ios":"levelo://app?vid=8847af5d-c1ad-4d8d-a5c1-273c3b41c105"},"vehicle_type_id":"4","last_reported":1761383362,"current_range_meters":20000,"station_id":"","pricing_plan_id":"cebpf4jnsgd1na2vs0mg"},{"bike_id":"82c54f9e-bcd7-4c6d-9b18-44ec0fadd322","system_id":"levelo_inurba_marseille","lat":43.3157,"lon":5.38437,"is_reserved":false,"is_disabled":false,"rental_uris":{"android":"levelo://app?vid=82c54f9e-bcd7-4c6d-9b18-44ec0fadd322","ios":"levelo://app?vid=82c54f9e-bcd7-4c6d-9b18-44ec0fadd322"},"vehicle_type_id":"4","last_reported":1761383362,"current_range_meters":20000,"station_id":"","pricing_plan_id":"cebpf4jnsgd1na2vs0mg"},{"bike_id":"59aad6c9-fea5-4314-ac8a-b0b129c49c44","system_id":"levelo_inurba_marseille","lat":43.29616,"lon":5.37735,"is_reserved":false,"is_disabled":false,"rental_uris":{"android":"levelo://app?vid=59aad6c9-fea5-4314-ac8a-b0b129c49c44","ios":"levelo://app?vid=59aad6c9-fea5-4314-ac8a-b0b129c49c44"},"vehicle_type_id":"4","last_reported":1761383362,"current_range_meters":20000,"station_id":"ce4bgi92rcd13ifvqb90","pricing_plan_id":"cebpf4jnsgd1na2vs0mg"},{"bike_id":"218c6e0a-6fdf-41f2-9f9c-52da1cbef58a","system_id":"levelo_inurba_marseille","lat":43.323525,"lon":5.367489,"is_reserved":false,"is_disabled":false,"rental_uris":{"android":"levelo://app?vid=218c6e0a-6fdf-41f2-9f9c-52da1cbef58a","ios":"levelo://app?vid=218c6e0a-6fdf-41f2-9f9c-52da1cbef58a"},"vehicle_type_id":"4","last_reported":1761383362,"current_range_meters":20000,"station_id":"ce4bhsh2rcd13ifvqi2g","pricing_plan_id":"cebpf4jnsgd1na2vs0mg"},{"bike_id":"67f8857f-0853-46d2-b9ef-96c5ce2639bc","system_id":"levelo_inurba_marseille","lat":43.23053,"lon":5.35493,"is_reserved":false,"is_disabled":false,"rental_uris":{"android":"levelo://app?vid=67f8857f-0853-46d2-b9ef-96c5ce2639bc","ios":"levelo://app?vid=67f8857f-0853-46d2-b9ef-96c5ce2639bc"},"vehicle_type_id":"4","last_reported":1761383362,"current_range_meters":20000,"station_id":"cpo3342slgdg3j2ifvpg","pricing_plan_id":"cebpf4jnsgd1na2vs0mg"},{"bike_id":"d5dfaebc-363f-4601-b26a-6e9c4f1c2b4b","system_id":"levelo_inurba_marseille","lat":43.211941,"lon":5.350662,"is_reserved":false,"is_disabled":false,"rental_uris":{"android":"levelo://app?vid=d5dfaebc-363f-4601-b26a-6e9c4f1c2b4b","ios":"levelo://app?vid=d5dfaebc-363f-4601-b26a-6e9c4f1c2b4b"},"vehicle_type_id":"4","last_reported":1761383362,"current_range_meters":20000,"station_id":"st_cvj6sg6p6f1abm77japg","pricing_plan_id":"cebpf4jnsgd1na2vs0mg"},{"bike_id":"b4a58be7-078f-4a20-a7d5-be89215205b6","system_id":"levelo_inurba_marseille","lat":43.312691,"lon":5.401682,"is_reserved":false,"is_disabled":false,"rental_uris":{"android":"levelo://app?vid=b4a58be7-078f-4a20-a7d5-be89215205b6","ios":"levelo://app?vid=b4a58be7-078f-4a20-a7d5-be89215205b6"},"vehicle_type_id":"4","last_reported":1761383362,"current_range_meters":20000,"station_id":"ce4bh092rcd13ifvqd30","pricing_plan_id":"cebpf4jnsgd1na2vs0mg"},{"bike_id":"d3cc7656-8e75-4784-83f0-bcb556deaa8f","system_id":"levelo_inurba_marseille","lat":43.30176,"lon":5.38072,"is_reserved":false,"is_disabled":false,"rental_uris":{"android":"levelo://app?vid=d3cc7656-8e75-4784-83f0-bcb556deaa8f","ios":"levelo://app?vid=d3cc7656-8e75-4784-83f0-bcb556deaa8f"},"vehicle_type_id":"4","last_reported":1761383362,"current_range_meters":20000,"station_id":"ce4bgjp2rcd13ifvqbh0","pricing_plan_id":"cebpf4jnsgd1na2vs0mg"},{"bike_id":"df32a8bf-ca8a-481f-a891-94f4bf44442f","system_id":"levelo_inurba_marseille","lat":43.299848,"lon":5.3736,"is_reserved":false,"is_disabled":false,"rental_uris":{"android":"levelo://app?vid=df32a8bf-ca8a-481f-a891-94f4bf44442f","ios":"levelo://app?vid=df32a8bf-ca8a-481f-a891-94f4bf44442f"},"vehicle_type_id":"4","last_reported":1761383362,"current_range_meters":20000,"station_id":"","pricing_plan_id":"cebpf4jnsgd1na2vs0mg"},{"bike_id":"1a941277-2e63-4624-8f42-ffde5fbf41f3","system_id":"levelo_inurba_marseille","lat":43.31503,"lon":5.37287,"is_reserved":false,"is_disabled":false,"rental_uris":{"android":"levelo://app?vid=1a941277-2e63-4624-8f42-ffde5fbf41f3","ios":"levelo://app?vid=1a941277-2e63-4624-8f42-ffde5fbf41f3"},"vehicle_type_id":"4","last_reported":1761383362,"current_range_meters":20400,"station_id":"ce4bgt12rcd13ifvqcd0","pricing_plan_id":"cebpf4jnsgd1na2vs0mg"},{"bike_id":"ee4b6482-3437-4c69-a647-87e84fb42a41","system_id":"levelo_inurba_marseille","lat":43.28731,"lon":5.37931,"is_reserved":false,"is_disabled":false,"rental_uris":{"android":"levelo://app?vid=ee4b6482-3437-4c69-a647-87e84fb42a41","ios":"levelo://app?vid=ee4b6482-3437-4c69-a647-87e84fb42a41"},"vehicle_type_id":"4","last_reported":1761383362,"current_range_meters":20400,"station_id":"ce4bh9p2rcd13ifvqec0","pricing_plan_id":"cebpf4jnsgd1na2vs0mg"},{"bike_id":"64b75b4a-3497-4861-8cc2-90dd62cd9f5e","system_id":"levelo_inurba_marseille","lat":43.294874,"lon":5.433117,"is_reserved":false,"is_disabled":false,"rental_uris":{"android":"levelo://app?vid=64b75b4a-3497-4861-8cc2-90dd62cd9f5e","ios":"levelo://app?vid=64b75b4a-3497-4861-8cc2-90dd62cd9f5e"},"vehicle_type_id":"4","last_reported":1761383362,"current_range_meters":20400,"station_id":"st_d3j5ugp08ojc73fj9d10","pricing_plan_id":"cebpf4jnsgd1na2vs0mg"},{"bike_id":"f3a91d4d-f2af-4aa0-8e33-591c2ddd19d1","system_id":"levelo_inurba_marseille","lat":43.2781,"lon":5.40714,"is_reserved":false,"is_disabled":false,"rental_uris":{"android":"levelo://app?vid=f3a91d4d-f2af-4aa0-8e33-591c2ddd19d1","ios":"levelo://app?vid=f3a91d4d-f2af-4aa0-8e33-591c2ddd19d1"},"vehicle_type_id":"4","last_reported":1761383362,"current_range_meters":20400,"station_id":"ce4bhnh2rcd13ifvqgtg","pricing_plan_id":"cebpf4jnsgd1na2vs0mg"},{"bike_id":"86325cf9-b04d-4c89-aa63-8c08a5228155","system_id":"levelo_inurba_marseille","lat":43.30086,"lon":5.39082,"is_reserved":false,"is_disabled":false,"rental_uris":{"android":"levelo://app?vid=86325cf9-b04d-4c89-aa63-8c08a5228155","ios":"levelo://app?vid=86325cf9-b04d-4c89-aa63-8c08a5228155"},"vehicle_type_id":"4","last_reported":1761383362,"current_range_meters":20800,"station_id":"ce4bh192rcd13ifvqdb0","pricing_plan_id":"cebpf4jnsgd1na2vs0mg"},{"bike_id":"804b28d7-24db-4c6a-b77b-ea83396e7038","system_id":"levelo_inurba_marseille","lat":43.28458,"lon":5.35902,"is_reserved":false,"is_disabled":true,"rental_uris":{"android":"levelo://app?vid=804b28d7-24db-4c6a-b77b-ea83396e7038","ios":"levelo://app?vid=804b28d7-24db-4c6a-b77b-ea83396e7038"},"vehicle_type_id":"4","last_reported":1761383362,"current_range_meters":20800,"station_id":"ce4bhah2rcd13ifvqei0","pricing_plan_id":"cebpf4jnsgd1na2vs0mg"},{"bike_id":"1eac0aa7-2b82-4118-bb70-4582cf563475","system_id":"levelo_inurba_marseille","lat":43.284895,"lon":5.484084,"is_reserved":false,"is_disabled":false,"rental_uris":{"android":"levelo://app?vid=1eac0aa7-2b82-4118-bb70-4582cf563475","ios":"levelo://app?vid=1eac0aa7-2b82-4118-bb70-4582cf563475"},"vehicle_type_id":"4","last_reported":1761383362,"current_range_meters":20800,"station_id":"st_d3svhcjqgbts73a3dn0g","pricing_plan_id":"cebpf4jnsgd1na2vs0mg"},{"bike_id":"ac7a5257-38c5-4d2f-af8c-648f2433e513","system_id":"levelo_inurba_marseille","lat":43.273529,"lon":5.362634,"is_reserved":false,"is_disabled":false,"rental_uris":{"android":"levelo://app?vid=ac7a5257-38c5-4d2f-af8c-648f2433e513","ios":"levelo://app?vid=ac7a5257-38c5-4d2f-af8c-648f2433e513"},"vehicle_type_id":"4","last_reported":1761383362,"current_range_meters":20800,"station_id":"","pricing_plan_id":"cebpf4jnsgd1na2vs0mg"},{"bike_id":"26bfdb8a-30fe-4860-a090-5544489a42fd","system_id":"levelo_inurba_marseille","lat":43.29968,"lon":5.38492,"is_reserved":false,"is_disabled":false,"rental_uris":{"android":"levelo://app?vid=26bfdb8a-30fe-4860-a090-5544489a42fd","ios":"levelo://app?vid=26bfdb8a-30fe-4860-a090-5544489a42fd"},"vehicle_type_id":"4","last_reported":1761383362,"current_range_meters":20800,"station_id":"ce4bgj92rcd13ifvqbd0","pricing_plan_id":"cebpf4jnsgd1na2vs0mg"},{"bike_id":"d3ba5e5e-0c1d-42b0-8248-4b7268100fdc","system_id":"levelo_inurba_marseille","lat":43.29625,"lon":5.37149,"is_reserved":false,"is_disabled":false,"rental_uris":{"android":"levelo://app?vid=d3ba5e5e-0c1d-42b0-8248-4b7268100fdc","ios":"levelo://app?vid=d3ba5e5e-0c1d-42b0-8248-4b7268100fdc"},"vehicle_type_id":"4","last_reported":1761383362,"current_range_meters":20800,"station_id":"ce4bgnh2rcd13ifvqc0g","pricing_plan_id":"cebpf4jnsgd1na2vs0mg"},{"bike_id":"7445a99a-f95d-4e30-b931-5346d9df3c6e","system_id":"levelo_inurba_marseille","lat":43.29618,"lon":5.37722,"is_reserved":false,"is_disabled":false,"rental_uris":{"android":"levelo://app?vid=7445a99a-f95d-4e30-b931-5346d9df3c6e","ios":"levelo://app?vid=7445a99a-f95d-4e30-b931-5346d9df3c6e"},"vehicle_type_id":"4","last_reported":1761383362,"current_range_meters":20800,"station_id":"ce4bgi92rcd13ifvqb90","pricing_plan_id":"cebpf4jnsgd1na2vs0mg"},{"bike_id":"250f1d79-6352-49f6-b9ad-32a2517f3aff","system_id":"levelo_inurba_marseille","lat":43.27209,"lon":5.39177,"is_reserved":false,"is_disabled":false,"rental_uris":{"android":"levelo://app?vid=250f1d79-6352-49f6-b9ad-32a2517f3aff","ios":"levelo://app?vid=250f1d79-6352-49f6-b9ad-32a2517f3aff"},"vehicle_type_id":"4","last_reported":1761383362,"current_range_meters":20800,"station_id":"ce4bhhp2rcd13ifvqfm0","pricing_plan_id":"cebpf4jnsgd1na2vs0mg"},{"bike_id":"781d6e05-cea7-4e65-80ba-e843254f35e7","system_id":"levelo_inurba_marseille","lat":43.29093,"lon":5.37167,"is_reserved":false,"is_disabled":false,"rental_uris":{"android":"levelo://app?vid=781d6e05-cea7-4e65-80ba-e843254f35e7","ios":"levelo://app?vid=781d6e05-cea7-4e65-80ba-e843254f35e7"},"vehicle_type_id":"4","last_reported":1761383362,"current_range_meters":20800,"station_id":"ce4bh5p2rcd13ifvqe4g","pricing_plan_id":"cebpf4jnsgd1na2vs0mg"},{"bike_id":"c124d4a0-9e47-48ec-ad7a-ea36eb6e5d35","system_id":"levelo_inurba_marseille","lat":43.243864,"lon":5.370482,"is_reserved":false,"is_disabled":false,"rental_uris":{"android":"levelo://app?vid=c124d4a0-9e47-48ec-ad7a-ea36eb6e5d35","ios":"levelo://app?vid=c124d4a0-9e47-48ec-ad7a-ea36eb6e5d35"},"vehicle_type_id":"4","last_reported":1761383362,"current_range_meters":20800,"station_id":"ce4bhhh2rcd13ifvqfk0","pricing_plan_id":"cebpf4jnsgd1na2vs0mg"},{"bike_id":"6a4eeade-f2bd-42ad-b0a0-31af57f1e442","system_id":"levelo_inurba_marseille","lat":43.31489,"lon":5.37301,"is_reserved":false,"is_disabled":false,"rental_uris":{"android":"levelo://app?vid=6a4eeade-f2bd-42ad-b0a0-31af57f1e442","ios":"levelo://app?vid=6a4eeade-f2bd-42ad-b0a0-31af57f1e442"},"vehicle_type_id":"4","last_reported":1761383362,"current_range_meters":21600,"station_id":"ce4bgt12rcd13ifvqcd0","pricing_plan_id":"cebpf4jnsgd1na2vs0mg"},{"bike_id":"6d0fda98-f8bc-4e1a-b4e8-ae972eacdb19","system_id":"levelo_inurba_marseille","lat":43.27818,"lon":5.40717,"is_reserved":false,"is_disabled":false,"rental_uris":{"android":"levelo://app?vid=6d0fda98-f8bc-4e1a-b4e8-ae972eacdb19","ios":"levelo://app?vid=6d0fda98-f8bc-4e1a-b4e8-ae972eacdb19"},"vehicle_type_id":"4","last_reported":1761383362,"current_range_meters":21600,"station_id":"ce4bhnh2rcd13ifvqgtg","pricing_plan_id":"cebpf4jnsgd1na2vs0mg"},{"bike_id":"50422f4e-3c9e-4bf3-802a-e3507df47a14","system_id":"levelo_inurba_marseille","lat":43.211911,"lon":5.350739,"is_reserved":false,"is_disabled":false,"rental_uris":{"android":"levelo://app?vid=50422f4e-3c9e-4bf3-802a-e3507df47a14","ios":"levelo://app?vid=50422f4e-3c9e-4bf3-802a-e3507df47a14"},"vehicle_type_id":"4","last_reported":1761383362,"current_range_meters":21600,"station_id":"st_cvj6sg6p6f1abm77japg","pricing_plan_id":"cebpf4jnsgd1na2vs0mg"},{"bike_id":"74caa548-3cc4-428c-abce-673ea7a5e8db","system_id":"levelo_inurba_marseille","lat":43.31102,"lon":5.3776,"is_reserved":false,"is_disabled":false,"rental_uris":{"android":"levelo://app?vid=74caa548-3cc4-428c-abce-673ea7a5e8db","ios":"levelo://app?vid=74caa548-3cc4-428c-abce-673ea7a5e8db"},"vehicle_type_id":"4","last_reported":1761383362,"current_range_meters":21600,"station_id":"ce4bgt92rcd13ifvqcg0","pricing_plan_id":"cebpf4jnsgd1na2vs0mg"},{"bike_id":"3ead5a7d-2cad-4d89-b04f-21af6f52e5ba","system_id":"levelo_inurba_marseille","lat":43.29108,"lon":5.38118,"is_reserved":false,"is_disabled":false,"rental_uris":{"android":"levelo://app?vid=3ead5a7d-2cad-4d89-b04f-21af6f52e5ba","ios":"levelo://app?vid=3ead5a7d-2cad-4d89-b04f-21af6f52e5ba"},"vehicle_type_id":"4","last_reported":1761383362,"current_range_meters":21600,"station_id":"ce4bh512rcd13ifvqe2g","pricing_plan_id":"cebpf4jnsgd1na2vs0mg"},{"bike_id":"5c254468-8ac2-4dd0-b776-4672b2bb8cc3","system_id":"levelo_inurba_marseille","lat":43.28421,"lon":5.34978,"is_reserved":false,"is_disabled":false,"rental_uris":{"android":"levelo://app?vid=5c254468-8ac2-4dd0-b776-4672b2bb8cc3","ios":"levelo://app?vid=5c254468-8ac2-4dd0-b776-4672b2bb8cc3"},"vehicle_type_id":"4","last_reported":1761383362,"current_range_meters":21600,"station_id":"ce4bhbh2rcd13ifvqepg","pricing_plan_id":"cebpf4jnsgd1na2vs0mg"},{"bike_id":"9438d25a-696a-4f3d-8b88-3dbb46e80b4d","system_id":"levelo_inurba_marseille","lat":43.3148,"lon":5.373065,"is_reserved":false,"is_disabled":false,"rental_uris":{"android":"levelo://app?vid=9438d25a-696a-4f3d-8b88-3dbb46e80b4d","ios":"levelo://app?vid=9438d25a-696a-4f3d-8b88-3dbb46e80b4d"},"vehicle_type_id":"4","last_reported":1761383362,"current_range_meters":21600,"station_id":"ce4bgt12rcd13ifvqcd0","pricing_plan_id":"cebpf4jnsgd1na2vs0mg"},{"bike_id":"2148beeb-8cf8-4ebe-a3cc-23a26b0cfcc0","system_id":"levelo_inurba_marseille","lat":43.286102,"lon":5.351023,"is_reserved":false,"is_disabled":false,"rental_uris":{"android":"levelo://app?vid=2148beeb-8cf8-4ebe-a3cc-23a26b0cfcc0","ios":"levelo://app?vid=2148beeb-8cf8-4ebe-a3cc-23a26b0cfcc0"},"vehicle_type_id":"4","last_reported":1761383362,"current_range_meters":21600,"station_id":"ce4bhch2rcd13ifvqeug","pricing_plan_id":"cebpf4jnsgd1na2vs0mg"},{"bike_id":"9cae943c-80b4-49df-b0db-20a5e41c1c47","system_id":"levelo_inurba_marseille","lat":43.26555,"lon":5.37289,"is_reserved":false,"is_disabled":false,"rental_uris":{"android":"levelo://app?vid=9cae943c-80b4-49df-b0db-20a5e41c1c47","ios":"levelo://app?vid=9cae943c-80b4-49df-b0db-20a5e41c1c47"},"vehicle_type_id":"4","last_reported":1761383362,"current_range_meters":22000,"station_id":"ce4bhg12rcd13ifvqf70","pricing_plan_id":"cebpf4jnsgd1na2vs0mg"},{"bike_id":"52aac1a1-258f-475c-82f8-b1b191183b0c","system_id":"levelo_inurba_marseille","lat":43.30933,"lon":5.39025,"is_reserved":false,"is_disabled":false,"rental_uris":{"android":"levelo://app?vid=52aac1a1-258f-475c-82f8-b1b191183b0c","ios":"levelo://app?vid=52aac1a1-258f-475c-82f8-b1b191183b0c"},"vehicle_type_id":"4","last_reported":1761383362,"current_range_meters":22000,"station_id":"ce4bgup2rcd13ifvqco0","pricing_plan_id":"cebpf4jnsgd1na2vs0mg"},{"bike_id":"4c2e07a7-845c-42fe-9317-b9021b5c736e","system_id":"levelo_inurba_marseille","lat":43.295402,"lon":5.393898,"is_reserved":false,"is_disabled":false,"rental_uris":{"android":"levelo://app?vid=4c2e07a7-845c-42fe-9317-b9021b5c736e","ios":"levelo://app?vid=4c2e07a7-845c-42fe-9317-b9021b5c736e"},"vehicle_type_id":"4","last_reported":1761383362,"current_range_meters":22400,"station_id":"ce4bh312rcd13ifvqdj0","pricing_plan_id":"cebpf4jnsgd1na2vs0mg"},{"bike_id":"d25de322-cce6-4cd8-a2a0-bc10d18dc517","system_id":"levelo_inurba_marseille","lat":43.24082,"lon":5.37754,"is_reserved":false,"is_disabled":false,"rental_uris":{"android":"levelo://app?vid=d25de322-cce6-4cd8-a2a0-bc10d18dc517","ios":"levelo://app?vid=d25de322-cce6-4cd8-a2a0-bc10d18dc517"},"vehicle_type_id":"4","last_reported":1761383362,"current_range_meters":22400,"station_id":"ce4bhnp2rcd13ifvqgvg","pricing_plan_id":"cebpf4jnsgd1na2vs0mg"},{"bike_id":"896e43c6-41f5-42f6-842d-1da96da2c09f","system_id":"levelo_inurba_marseille","lat":43.30313,"lon":5.36892,"is_reserved":false,"is_disabled":false,"rental_uris":{"android":"levelo://app?vid=896e43c6-41f5-42f6-842d-1da96da2c09f","ios":"levelo://app?vid=896e43c6-41f5-42f6-842d-1da96da2c09f"},"vehicle_type_id":"4","last_reported":1761383362,"current_range_meters":22400,"station_id":"ce4bgqh2rcd13ifvqc5g","pricing_plan_id":"cebpf4jnsgd1na2vs0mg"},{"bike_id":"ba6662ce-864a-4d51-8fd4-ebf287339297","system_id":"levelo_inurba_marseille","lat":43.2722,"lon":5.39164,"is_reserved":false,"is_disabled":false,"rental_uris":{"android":"levelo://app?vid=ba6662ce-864a-4d51-8fd4-ebf287339297","ios":"levelo://app?vid=ba6662ce-864a-4d51-8fd4-ebf287339297"},"vehicle_type_id":"4","last_reported":1761383362,"current_range_meters":22400,"station_id":"ce4bhhp2rcd13ifvqfm0","pricing_plan_id":"cebpf4jnsgd1na2vs0mg"},{"bike_id":"3211ce47-eb18-47da-9deb-118dcbdfb370","system_id":"levelo_inurba_marseille","lat":43.23784,"lon":5.36634,"is_reserved":false,"is_disabled":false,"rental_uris":{"android":"levelo://app?vid=3211ce47-eb18-47da-9deb-118dcbdfb370","ios":"levelo://app?vid=3211ce47-eb18-47da-9deb-118dcbdfb370"},"vehicle_type_id":"4","last_reported":1761383362,"current_range_meters":22400,"station_id":"st_d3nk18o9ro0c73en2l3g","pricing_plan_id":"cebpf4jnsgd1na2vs0mg"},{"bike_id":"262b30b8-0754-49c8-9d25-e41e7144977f","system_id":"levelo_inurba_marseille","lat":43.30149,"lon":5.38091,"is_reserved":false,"is_disabled":false,"rental_uris":{"android":"levelo://app?vid=262b30b8-0754-49c8-9d25-e41e7144977f","ios":"levelo://app?vid=262b30b8-0754-49c8-9d25-e41e7144977f"},"vehicle_type_id":"4","last_reported":1761383362,"current_range_meters":22400,"station_id":"ce4bgjp2rcd13ifvqbh0","pricing_plan_id":"cebpf4jnsgd1na2vs0mg"},{"bike_id":"023cc6f5-7d96-4924-ad82-229600fdd214","system_id":"levelo_inurba_marseille","lat":43.29079,"lon":5.37166,"is_reserved":false,"is_disabled":false,"rental_uris":{"android":"levelo://app?vid=023cc6f5-7d96-4924-ad82-229600fdd214","ios":"levelo://app?vid=023cc6f5-7d96-4924-ad82-229600fdd214"},"vehicle_type_id":"4","last_reported":1761383362,"current_range_meters":22400,"station_id":"ce4bh5p2rcd13ifvqe4g","pricing_plan_id":"cebpf4jnsgd1na2vs0mg"},{"bike_id":"bc21c965-16b6-4789-9266-2f575ce7c9e8","system_id":"levelo_inurba_marseille","lat":43.25336,"lon":5.42162,"is_reserved":false,"is_disabled":false,"rental_uris":{"android":"levelo://app?vid=bc21c965-16b6-4789-9266-2f575ce7c9e8","ios":"levelo://app?vid=bc21c965-16b6-4789-9266-2f575ce7c9e8"},"vehicle_type_id":"4","last_reported":1761383362,"current_range_meters":22400,"station_id":"st_d2m65c5bi1j21697t3ng","pricing_plan_id":"cebpf4jnsgd1na2vs0mg"},{"bike_id":"9f825af1-6f4b-41ac-8951-2dcf00223475","system_id":"levelo_inurba_marseille","lat":43.27306,"lon":5.39081,"is_reserved":false,"is_disabled":false,"rental_uris":{"android":"levelo://app?vid=9f825af1-6f4b-41ac-8951-2dcf00223475","ios":"levelo://app?vid=9f825af1-6f4b-41ac-8951-2dcf00223475"},"vehicle_type_id":"4","last_reported":1761383362,"current_range_meters":22800,"station_id":"ce4bhgp2rcd13ifvqfe0","pricing_plan_id":"cebpf4jnsgd1na2vs0mg"},{"bike_id":"3c999d93-43ac-422a-a32e-188523994b73","system_id":"levelo_inurba_marseille","lat":43.2862,"lon":5.35102,"is_reserved":false,"is_disabled":false,"rental_uris":{"android":"levelo://app?vid=3c999d93-43ac-422a-a32e-188523994b73","ios":"levelo://app?vid=3c999d93-43ac-422a-a32e-188523994b73"},"vehicle_type_id":"4","last_reported":1761383362,"current_range_meters":23200,"station_id":"ce4bhch2rcd13ifvqeug","pricing_plan_id":"cebpf4jnsgd1na2vs0mg"},{"bike_id":"b223c2ec-c618-485b-b65c-09069add52e9","system_id":"levelo_inurba_marseille","lat":43.24813,"lon":5.37459,"is_reserved":false,"is_disabled":false,"rental_uris":{"android":"levelo://app?vid=b223c2ec-c618-485b-b65c-09069add52e9","ios":"levelo://app?vid=b223c2ec-c618-485b-b65c-09069add52e9"},"vehicle_type_id":"4","last_reported":1761383362,"current_range_meters":23200,"station_id":"ce4bhgh2rcd13ifvqfb0","pricing_plan_id":"cebpf4jnsgd1na2vs0mg"},{"bike_id":"b3ee1ece-421b-4b58-8a5e-99a22617fc9b","system_id":"levelo_inurba_marseille","lat":43.31082,"lon":5.42428,"is_reserved":false,"is_disabled":false,"rental_uris":{"android":"levelo://app?vid=b3ee1ece-421b-4b58-8a5e-99a22617fc9b","ios":"levelo://app?vid=b3ee1ece-421b-4b58-8a5e-99a22617fc9b"},"vehicle_type_id":"4","last_reported":1761383362,"current_range_meters":23200,"station_id":"ce4bhp92rcd13ifvqhag","pricing_plan_id":"cebpf4jnsgd1na2vs0mg"},{"bike_id":"6419366e-14ca-49c7-9586-1a136d3748ee","system_id":"levelo_inurba_marseille","lat":43.29854,"lon":5.36281,"is_reserved":false,"is_disabled":false,"rental_uris":{"android":"levelo://app?vid=6419366e-14ca-49c7-9586-1a136d3748ee","ios":"levelo://app?vid=6419366e-14ca-49c7-9586-1a136d3748ee"},"vehicle_type_id":"4","last_reported":1761383362,"current_range_meters":23200,"station_id":"ce4bgpp2rcd13ifvqc3g","pricing_plan_id":"cebpf4jnsgd1na2vs0mg"},{"bike_id":"d45188ff-80c9-414f-a0d8-25fce82bf3cc","system_id":"levelo_inurba_marseille","lat":43.28696,"lon":5.39979,"is_reserved":false,"is_disabled":false,"rental_uris":{"android":"levelo://app?vid=d45188ff-80c9-414f-a0d8-25fce82bf3cc","ios":"levelo://app?vid=d45188ff-80c9-414f-a0d8-25fce82bf3cc"},"vehicle_type_id":"4","last_reported":1761383362,"current_range_meters":23200,"station_id":"ce4bho92rcd13ifvqh3g","pricing_plan_id":"cebpf4jnsgd1na2vs0mg"},{"bike_id":"66a94d6b-3672-4b7c-a261-ae56d11fc010","system_id":"levelo_inurba_marseille","lat":43.29531,"lon":5.38533,"is_reserved":false,"is_disabled":false,"rental_uris":{"android":"levelo://app?vid=66a94d6b-3672-4b7c-a261-ae56d11fc010","ios":"levelo://app?vid=66a94d6b-3672-4b7c-a261-ae56d11fc010"},"vehicle_type_id":"4","last_reported":1761383362,"current_range_meters":24000,"station_id":"ce4bgih2rcd13ifvqba0","pricing_plan_id":"cebpf4jnsgd1na2vs0mg"},{"bike_id":"8f5c3197-c223-412b-88eb-bee3f4507288","system_id":"levelo_inurba_marseille","lat":43.29924,"lon":5.36942,"is_reserved":false,"is_disabled":false,"rental_uris":{"android":"levelo://app?vid=8f5c3197-c223-412b-88eb-bee3f4507288","ios":"levelo://app?vid=8f5c3197-c223-412b-88eb-bee3f4507288"},"vehicle_type_id":"4","last_reported":1761383362,"current_range_meters":24000,"station_id":"","pricing_plan_id":"cebpf4jnsgd1na2vs0mg"},{"bike_id":"05be4cd8-27c4-40d2-978a-42a048413eff","system_id":"levelo_inurba_marseille","lat":43.28601,"lon":5.38712,"is_reserved":false,"is_disabled":false,"rental_uris":{"android":"levelo://app?vid=05be4cd8-27c4-40d2-978a-42a048413eff","ios":"levelo://app?vid=05be4cd8-27c4-40d2-978a-42a048413eff"},"vehicle_type_id":"4","last_reported":1761383362,"current_range_meters":24400,"station_id":"ce4bho92rcd13ifvqh3g","pricing_plan_id":"cebpf4jnsgd1na2vs0mg"},{"bike_id":"609e8845-7ae3-4c4f-97f5-856dd3a8b490","system_id":"levelo_inurba_marseille","lat":43.288657,"lon":5.425078,"is_reserved":false,"is_disabled":false,"rental_uris":{"android":"levelo://app?vid=609e8845-7ae3-4c4f-97f5-856dd3a8b490","ios":"levelo://app?vid=609e8845-7ae3-4c4f-97f5-856dd3a8b490"},"vehicle_type_id":"4","last_reported":1761383362,"current_range_meters":24400,"station_id":"st_d3b462108ojc7389ooeg","pricing_plan_id":"cebpf4jnsgd1na2vs0mg"},{"bike_id":"2a43009c-5abc-4b7e-9483-1eb4af709a45","system_id":"levelo_inurba_marseille","lat":43.3017,"lon":5.3808,"is_reserved":false,"is_disabled":false,"rental_uris":{"android":"levelo://app?vid=2a43009c-5abc-4b7e-9483-1eb4af709a45","ios":"levelo://app?vid=2a43009c-5abc-4b7e-9483-1eb4af709a45"},"vehicle_type_id":"4","last_reported":1761383362,"current_range_meters":24400,"station_id":"ce4bgjp2rcd13ifvqbh0","pricing_plan_id":"cebpf4jnsgd1na2vs0mg"},{"bike_id":"be836a37-286a-4f16-81af-a5d0434952bf","system_id":"levelo_inurba_marseille","lat":43.23176,"lon":5.35546,"is_reserved":false,"is_disabled":false,"rental_uris":{"android":"levelo://app?vid=be836a37-286a-4f16-81af-a5d0434952bf","ios":"levelo://app?vid=be836a37-286a-4f16-81af-a5d0434952bf"},"vehicle_type_id":"4","last_reported":1761383362,"current_range_meters":24400,"station_id":"ce4bhu92rcd13ifvqi70","pricing_plan_id":"cebpf4jnsgd1na2vs0mg"},{"bike_id":"a21bb900-ea85-4b67-98fa-33512ef7e207","system_id":"levelo_inurba_marseille","lat":43.26785,"lon":5.39418,"is_reserved":false,"is_disabled":false,"rental_uris":{"android":"levelo://app?vid=a21bb900-ea85-4b67-98fa-33512ef7e207","ios":"levelo://app?vid=a21bb900-ea85-4b67-98fa-33512ef7e207"},"vehicle_type_id":"4","last_reported":1761383362,"current_range_meters":24400,"station_id":"ce4bhh12rcd13ifvqfg0","pricing_plan_id":"cebpf4jnsgd1na2vs0mg"},{"bike_id":"da945370-32c7-4765-8b8c-dadee680d38e","system_id":"levelo_inurba_marseille","lat":43.34058,"lon":5.40415,"is_reserved":false,"is_disabled":false,"rental_uris":{"android":"levelo://app?vid=da945370-32c7-4765-8b8c-dadee680d38e","ios":"levelo://app?vid=da945370-32c7-4765-8b8c-dadee680d38e"},"vehicle_type_id":"4","last_reported":1761383362,"current_range_meters":24400,"station_id":"","pricing_plan_id":"cebpf4jnsgd1na2vs0mg"},{"bike_id":"69c74dfc-d1e1-4de6-a9fc-3f8f022c73a0","system_id":"levelo_inurba_marseille","lat":43.30937,"lon":5.39031,"is_reserved":false,"is_disabled":false,"rental_uris":{"android":"levelo://app?vid=69c74dfc-d1e1-4de6-a9fc-3f8f022c73a0","ios":"levelo://app?vid=69c74dfc-d1e1-4de6-a9fc-3f8f022c73a0"},"vehicle_type_id":"4","last_reported":1761383362,"current_range_meters":24400,"station_id":"ce4bgup2rcd13ifvqco0","pricing_plan_id":"cebpf4jnsgd1na2vs0mg"},{"bike_id":"9fb65f43-c71f-41fe-80dc-417db2bf790d","system_id":"levelo_inurba_marseille","lat":43.30608,"lon":5.37223,"is_reserved":false,"is_disabled":false,"rental_uris":{"android":"levelo://app?vid=9fb65f43-c71f-41fe-80dc-417db2bf790d","ios":"levelo://app?vid=9fb65f43-c71f-41fe-80dc-417db2bf790d"},"vehicle_type_id":"4","last_reported":1761383362,"current_range_meters":24400,"station_id":"ce4bgqh2rcd13ifvqc4g","pricing_plan_id":"cebpf4jnsgd1na2vs0mg"},{"bike_id":"1c2bb86e-5225-475c-949f-b9bd2db59d0a","system_id":"levelo_inurba_marseille","lat":43.27209,"lon":5.39179,"is_reserved":false,"is_disabled":false,"rental_uris":{"android":"levelo://app?vid=1c2bb86e-5225-475c-949f-b9bd2db59d0a","ios":"levelo://app?vid=1c2bb86e-5225-475c-949f-b9bd2db59d0a"},"vehicle_type_id":"4","last_reported":1761383362,"current_range_meters":24400,"station_id":"ce4bhhp2rcd13ifvqfm0","pricing_plan_id":"cebpf4jnsgd1na2vs0mg"},{"bike_id":"d9f11e19-d32b-4760-a4bd-308639b1902f","system_id":"levelo_inurba_marseille","lat":43.30608,"lon":5.37226,"is_reserved":false,"is_disabled":false,"rental_uris":{"android":"levelo://app?vid=d9f11e19-d32b-4760-a4bd-308639b1902f","ios":"levelo://app?vid=d9f11e19-d32b-4760-a4bd-308639b1902f"},"vehicle_type_id":"4","last_reported":1761383362,"current_range_meters":24800,"station_id":"ce4bgqh2rcd13ifvqc4g","pricing_plan_id":"cebpf4jnsgd1na2vs0mg"},{"bike_id":"baaf1316-21a3-4c18-8589-fb956739a947","system_id":"levelo_inurba_marseille","lat":43.25928,"lon":5.40889,"is_reserved":false,"is_disabled":false,"rental_uris":{"android":"levelo://app?vid=baaf1316-21a3-4c18-8589-fb956739a947","ios":"levelo://app?vid=baaf1316-21a3-4c18-8589-fb956739a947"},"vehicle_type_id":"4","last_reported":1761383362,"current_range_meters":24800,"station_id":"ce4bhm92rcd13ifvqglg","pricing_plan_id":"cebpf4jnsgd1na2vs0mg"},{"bike_id":"fc415666-0eee-42cf-ad7e-559eb9802048","system_id":"levelo_inurba_marseille","lat":43.31097,"lon":5.37487,"is_reserved":false,"is_disabled":false,"rental_uris":{"android":"levelo://app?vid=fc415666-0eee-42cf-ad7e-559eb9802048","ios":"levelo://app?vid=fc415666-0eee-42cf-ad7e-559eb9802048"},"vehicle_type_id":"4","last_reported":1761383362,"current_range_meters":24800,"station_id":"","pricing_plan_id":"cebpf4jnsgd1na2vs0mg"},{"bike_id":"9973da49-0ee6-42bd-9f3e-53fa26b48546","system_id":"levelo_inurba_marseille","lat":43.26556,"lon":5.37282,"is_reserved":false,"is_disabled":false,"rental_uris":{"android":"levelo://app?vid=9973da49-0ee6-42bd-9f3e-53fa26b48546","ios":"levelo://app?vid=9973da49-0ee6-42bd-9f3e-53fa26b48546"},"vehicle_type_id":"4","last_reported":1761383362,"current_range_meters":24800,"station_id":"ce4bhg12rcd13ifvqf70","pricing_plan_id":"cebpf4jnsgd1na2vs0mg"},{"bike_id":"ed49f2b0-db65-420d-9a06-9eb02fbb892b","system_id":"levelo_inurba_marseille","lat":43.310636,"lon":5.38351,"is_reserved":false,"is_disabled":false,"rental_uris":{"android":"levelo://app?vid=ed49f2b0-db65-420d-9a06-9eb02fbb892b","ios":"levelo://app?vid=ed49f2b0-db65-420d-9a06-9eb02fbb892b"},"vehicle_type_id":"4","last_reported":1761383362,"current_range_meters":24800,"station_id":"ce4bgv92rcd13ifvqcr0","pricing_plan_id":"cebpf4jnsgd1na2vs0mg"},{"bike_id":"4d79ec17-b191-44d9-affe-0426aeb51aa8","system_id":"levelo_inurba_marseille","lat":43.30316,"lon":5.36911,"is_reserved":false,"is_disabled":true,"rental_uris":{"android":"levelo://app?vid=4d79ec17-b191-44d9-affe-0426aeb51aa8","ios":"levelo://app?vid=4d79ec17-b191-44d9-affe-0426aeb51aa8"},"vehicle_type_id":"4","last_reported":1761383362,"current_range_meters":24800,"station_id":"ce4bgqh2rcd13ifvqc5g","pricing_plan_id":"cebpf4jnsgd1na2vs0mg"},{"bike_id":"77ac8331-216b-467f-a5b1-34a019d119d6","system_id":"levelo_inurba_marseille","lat":43.250837,"lon":5.395192,"is_reserved":false,"is_disabled":false,"rental_uris":{"android":"levelo://app?vid=77ac8331-216b-467f-a5b1-34a019d119d6","ios":"levelo://app?vid=77ac8331-216b-467f-a5b1-34a019d119d6"},"vehicle_type_id":"4","last_reported":1761383362,"current_range_meters":24800,"station_id":"ce4bhm12rcd13ifvqgkg","pricing_plan_id":"cebpf4jnsgd1na2vs0mg"},{"bike_id":"e92a5181-3093-4535-adde-2230374de0aa","system_id":"levelo_inurba_marseille","lat":43.31355,"lon":5.3767,"is_reserved":false,"is_disabled":false,"rental_uris":{"android":"levelo://app?vid=e92a5181-3093-4535-adde-2230374de0aa","ios":"levelo://app?vid=e92a5181-3093-4535-adde-2230374de0aa"},"vehicle_type_id":"4","last_reported":1761383362,"current_range_meters":24800,"station_id":"","pricing_plan_id":"cebpf4jnsgd1na2vs0mg"},{"bike_id":"117bfadf-76ee-48a7-a166-6095ebe310d1","system_id":"levelo_inurba_marseille","lat":43.32116,"lon":5.36776,"is_reserved":false,"is_disabled":false,"rental_uris":{"android":"levelo://app?vid=117bfadf-76ee-48a7-a166-6095ebe310d1","ios":"levelo://app?vid=117bfadf-76ee-48a7-a166-6095ebe310d1"},"vehicle_type_id":"4","last_reported":1761383362,"current_range_meters":24800,"station_id":"ce4bhrh2rcd13ifvqhug","pricing_plan_id":"cebpf4jnsgd1na2vs0mg"},{"bike_id":"074bf224-52f1-461e-a2bb-8842a80c8b30","system_id":"levelo_inurba_marseille","lat":43.2994,"lon":5.36555,"is_reserved":false,"is_disabled":false,"rental_uris":{"android":"levelo://app?vid=074bf224-52f1-461e-a2bb-8842a80c8b30","ios":"levelo://app?vid=074bf224-52f1-461e-a2bb-8842a80c8b30"},"vehicle_type_id":"4","last_reported":1761383362,"current_range_meters":24800,"station_id":"ce4bgm92rcd13ifvqbr0","pricing_plan_id":"cebpf4jnsgd1na2vs0mg"},{"bike_id":"e3986cbb-9003-4dbe-a409-95bd905ae7dd","system_id":"levelo_inurba_marseille","lat":43.26792,"lon":5.39415,"is_reserved":false,"is_disabled":false,"rental_uris":{"android":"levelo://app?vid=e3986cbb-9003-4dbe-a409-95bd905ae7dd","ios":"levelo://app?vid=e3986cbb-9003-4dbe-a409-95bd905ae7dd"},"vehicle_type_id":"4","last_reported":1761383362,"current_range_meters":24800,"station_id":"ce4bhh12rcd13ifvqfg0","pricing_plan_id":"cebpf4jnsgd1na2vs0mg"},{"bike_id":"12cefd40-c26f-402c-b50f-33cfb17b8e9f","system_id":"levelo_inurba_marseille","lat":43.2596,"lon":5.37541,"is_reserved":false,"is_disabled":false,"rental_uris":{"android":"levelo://app?vid=12cefd40-c26f-402c-b50f-33cfb17b8e9f","ios":"levelo://app?vid=12cefd40-c26f-402c-b50f-33cfb17b8e9f"},"vehicle_type_id":"4","last_reported":1761383362,"current_range_meters":25200,"station_id":"","pricing_plan_id":"cebpf4jnsgd1na2vs0mg"},{"bike_id":"408e1aa4-ba69-4988-8857-9cb927f6b99f","system_id":"levelo_inurba_marseille","lat":43.241786,"lon":5.397344,"is_reserved":false,"is_disabled":false,"rental_uris":{"android":"levelo://app?vid=408e1aa4-ba69-4988-8857-9cb927f6b99f","ios":"levelo://app?vid=408e1aa4-ba69-4988-8857-9cb927f6b99f"},"vehicle_type_id":"4","last_reported":1761383362,"current_range_meters":25200,"station_id":"ce4bhn12rcd13ifvqgpg","pricing_plan_id":"cebpf4jnsgd1na2vs0mg"},{"bike_id":"d171e6c6-2fee-4918-b61b-64ecd1831a76","system_id":"levelo_inurba_marseille","lat":43.288612,"lon":5.425203,"is_reserved":false,"is_disabled":false,"rental_uris":{"android":"levelo://app?vid=d171e6c6-2fee-4918-b61b-64ecd1831a76","ios":"levelo://app?vid=d171e6c6-2fee-4918-b61b-64ecd1831a76"},"vehicle_type_id":"4","last_reported":1761383362,"current_range_meters":25200,"station_id":"st_d3b462108ojc7389ooeg","pricing_plan_id":"cebpf4jnsgd1na2vs0mg"},{"bike_id":"b5fe5ca5-db3c-4d5e-b0fa-f5b6c3fa4ff8","system_id":"levelo_inurba_marseille","lat":43.26781,"lon":5.39405,"is_reserved":false,"is_disabled":false,"rental_uris":{"android":"levelo://app?vid=b5fe5ca5-db3c-4d5e-b0fa-f5b6c3fa4ff8","ios":"levelo://app?vid=b5fe5ca5-db3c-4d5e-b0fa-f5b6c3fa4ff8"},"vehicle_type_id":"4","last_reported":1761383362,"current_range_meters":25200,"station_id":"ce4bhh12rcd13ifvqfg0","pricing_plan_id":"cebpf4jnsgd1na2vs0mg"},{"bike_id":"e4cdd185-f7a3-4bf5-88a3-e106cbe6fd56","system_id":"levelo_inurba_marseille","lat":43.27198,"lon":5.3918,"is_reserved":false,"is_disabled":false,"rental_uris":{"android":"levelo://app?vid=e4cdd185-f7a3-4bf5-88a3-e106cbe6fd56","ios":"levelo://app?vid=e4cdd185-f7a3-4bf5-88a3-e106cbe6fd56"},"vehicle_type_id":"4","last_reported":1761383362,"current_range_meters":25200,"station_id":"ce4bhhp2rcd13ifvqfm0","pricing_plan_id":"cebpf4jnsgd1na2vs0mg"},{"bike_id":"d943d571-2d87-4248-bb42-e8ef87fc6a6f","system_id":"levelo_inurba_marseille","lat":43.28612,"lon":5.37063,"is_reserved":false,"is_disabled":false,"rental_uris":{"android":"levelo://app?vid=d943d571-2d87-4248-bb42-e8ef87fc6a6f","ios":"levelo://app?vid=d943d571-2d87-4248-bb42-e8ef87fc6a6f"},"vehicle_type_id":"4","last_reported":1761383362,"current_range_meters":25200,"station_id":"ce4bht12rcd13ifvqi60","pricing_plan_id":"cebpf4jnsgd1na2vs0mg"},{"bike_id":"67364f74-7cf9-46cb-97a5-43088d20b006","system_id":"levelo_inurba_marseille","lat":43.24644,"lon":5.43127,"is_reserved":false,"is_disabled":false,"rental_uris":{"android":"levelo://app?vid=67364f74-7cf9-46cb-97a5-43088d20b006","ios":"levelo://app?vid=67364f74-7cf9-46cb-97a5-43088d20b006"},"vehicle_type_id":"4","last_reported":1761383362,"current_range_meters":25200,"station_id":"st_d2m6c4gdas8pm72e190g","pricing_plan_id":"cebpf4jnsgd1na2vs0mg"},{"bike_id":"de1ee74a-2037-41cc-915a-194c40fd41c8","system_id":"levelo_inurba_marseille","lat":43.2657,"lon":5.40304,"is_reserved":false,"is_disabled":false,"rental_uris":{"android":"levelo://app?vid=de1ee74a-2037-41cc-915a-194c40fd41c8","ios":"levelo://app?vid=de1ee74a-2037-41cc-915a-194c40fd41c8"},"vehicle_type_id":"4","last_reported":1761383362,"current_range_meters":25200,"station_id":"ce4bhmp2rcd13ifvqgng","pricing_plan_id":"cebpf4jnsgd1na2vs0mg"},{"bike_id":"3bc09566-236b-410d-9cda-a952bab43ccf","system_id":"levelo_inurba_marseille","lat":43.25492,"lon":5.37655,"is_reserved":false,"is_disabled":false,"rental_uris":{"android":"levelo://app?vid=3bc09566-236b-410d-9cda-a952bab43ccf","ios":"levelo://app?vid=3bc09566-236b-410d-9cda-a952bab43ccf"},"vehicle_type_id":"4","last_reported":1761383362,"current_range_meters":25200,"station_id":"ce4bhh12rcd13ifvqff0","pricing_plan_id":"cebpf4jnsgd1na2vs0mg"},{"bike_id":"c55b85d7-2cf5-4017-96b7-5dd61757102c","system_id":"levelo_inurba_marseille","lat":43.2418,"lon":5.3973,"is_reserved":false,"is_disabled":false,"rental_uris":{"android":"levelo://app?vid=c55b85d7-2cf5-4017-96b7-5dd61757102c","ios":"levelo://app?vid=c55b85d7-2cf5-4017-96b7-5dd61757102c"},"vehicle_type_id":"4","last_reported":1761383362,"current_range_meters":25200,"station_id":"ce4bhn12rcd13ifvqgpg","pricing_plan_id":"cebpf4jnsgd1na2vs0mg"},{"bike_id":"476ede32-cfdc-42f2-8cc1-233e266f9923","system_id":"levelo_inurba_marseille","lat":43.295699,"lon":5.37555,"is_reserved":false,"is_disabled":false,"rental_uris":{"android":"levelo://app?vid=476ede32-cfdc-42f2-8cc1-233e266f9923","ios":"levelo://app?vid=476ede32-cfdc-42f2-8cc1-233e266f9923"},"vehicle_type_id":"4","last_reported":1761383362,"current_range_meters":25600,"station_id":"","pricing_plan_id":"cebpf4jnsgd1na2vs0mg"},{"bike_id":"d55aa900-43d1-43c6-87d1-5651b4d8ff4a","system_id":"levelo_inurba_marseille","lat":43.30347,"lon":5.43769,"is_reserved":false,"is_disabled":false,"rental_uris":{"android":"levelo://app?vid=d55aa900-43d1-43c6-87d1-5651b4d8ff4a","ios":"levelo://app?vid=d55aa900-43d1-43c6-87d1-5651b4d8ff4a"},"vehicle_type_id":"4","last_reported":1761383362,"current_range_meters":25600,"station_id":"","pricing_plan_id":"cebpf4jnsgd1na2vs0mg"},{"bike_id":"10339065-c65a-4d2b-8b6a-737642e99b77","system_id":"levelo_inurba_marseille","lat":43.290283,"lon":5.375776,"is_reserved":false,"is_disabled":false,"rental_uris":{"android":"levelo://app?vid=10339065-c65a-4d2b-8b6a-737642e99b77","ios":"levelo://app?vid=10339065-c65a-4d2b-8b6a-737642e99b77"},"vehicle_type_id":"4","last_reported":1761383362,"current_range_meters":25600,"station_id":"ce4bh692rcd13ifvqe90","pricing_plan_id":"cebpf4jnsgd1na2vs0mg"},{"bike_id":"7affa9e1-100c-4a8a-8ae8-7c3d66949ffc","system_id":"levelo_inurba_marseille","lat":43.2957,"lon":5.37509,"is_reserved":false,"is_disabled":false,"rental_uris":{"android":"levelo://app?vid=7affa9e1-100c-4a8a-8ae8-7c3d66949ffc","ios":"levelo://app?vid=7affa9e1-100c-4a8a-8ae8-7c3d66949ffc"},"vehicle_type_id":"4","last_reported":1761383362,"current_range_meters":25600,"station_id":"ce4bgh92rcd13ifvqb50","pricing_plan_id":"cebpf4jnsgd1na2vs0mg"},{"bike_id":"7330cd55-ffa4-47ad-952a-1cbdfed24af0","system_id":"levelo_inurba_marseille","lat":43.31886,"lon":5.36811,"is_reserved":false,"is_disabled":false,"rental_uris":{"android":"levelo://app?vid=7330cd55-ffa4-47ad-952a-1cbdfed24af0","ios":"levelo://app?vid=7330cd55-ffa4-47ad-952a-1cbdfed24af0"},"vehicle_type_id":"4","last_reported":1761383362,"current_range_meters":25600,"station_id":"","pricing_plan_id":"cebpf4jnsgd1na2vs0mg"},{"bike_id":"a892865a-fbf7-45d9-a93b-90e8e9f6517e","system_id":"levelo_inurba_marseille","lat":43.29511,"lon":5.39389,"is_reserved":false,"is_disabled":true,"rental_uris":{"android":"levelo://app?vid=a892865a-fbf7-45d9-a93b-90e8e9f6517e","ios":"levelo://app?vid=a892865a-fbf7-45d9-a93b-90e8e9f6517e"},"vehicle_type_id":"4","last_reported":1761383362,"current_range_meters":25600,"station_id":"ce4bh292rcd13ifvqdf0","pricing_plan_id":"cebpf4jnsgd1na2vs0mg"},{"bike_id":"92c90a82-5cfa-46a8-954e-1d297d2b27ae","system_id":"levelo_inurba_marseille","lat":43.24999,"lon":5.38931,"is_reserved":false,"is_disabled":false,"rental_uris":{"android":"levelo://app?vid=92c90a82-5cfa-46a8-954e-1d297d2b27ae","ios":"levelo://app?vid=92c90a82-5cfa-46a8-954e-1d297d2b27ae"},"vehicle_type_id":"4","last_reported":1761383362,"current_range_meters":25600,"station_id":"ce4bhgp2rcd13ifvqfd0","pricing_plan_id":"cebpf4jnsgd1na2vs0mg"},{"bike_id":"1a11cf74-ccbf-4b76-84ba-29a8eb7a05b1","system_id":"levelo_inurba_marseille","lat":43.319843,"lon":5.381458,"is_reserved":false,"is_disabled":false,"rental_uris":{"android":"levelo://app?vid=1a11cf74-ccbf-4b76-84ba-29a8eb7a05b1","ios":"levelo://app?vid=1a11cf74-ccbf-4b76-84ba-29a8eb7a05b1"},"vehicle_type_id":"4","last_reported":1761383362,"current_range_meters":26000,"station_id":"ce4bhr12rcd13ifvqhpg","pricing_plan_id":"cebpf4jnsgd1na2vs0mg"},{"bike_id":"a8075c4b-e291-4f52-8b0c-b744c57b0fa3","system_id":"levelo_inurba_marseille","lat":43.29369,"lon":5.3856,"is_reserved":false,"is_disabled":false,"rental_uris":{"android":"levelo://app?vid=a8075c4b-e291-4f52-8b0c-b744c57b0fa3","ios":"levelo://app?vid=a8075c4b-e291-4f52-8b0c-b744c57b0fa3"},"vehicle_type_id":"4","last_reported":1761383362,"current_range_meters":26000,"station_id":"","pricing_plan_id":"cebpf4jnsgd1na2vs0mg"},{"bike_id":"4b774518-e07b-4370-9bba-5638dc42c2d1","system_id":"levelo_inurba_marseille","lat":43.3169,"lon":5.4045,"is_reserved":false,"is_disabled":false,"rental_uris":{"android":"levelo://app?vid=4b774518-e07b-4370-9bba-5638dc42c2d1","ios":"levelo://app?vid=4b774518-e07b-4370-9bba-5638dc42c2d1"},"vehicle_type_id":"4","last_reported":1761383362,"current_range_meters":26000,"station_id":"ce4bh012rcd13ifvqd00","pricing_plan_id":"cebpf4jnsgd1na2vs0mg"},{"bike_id":"690096a5-5380-424a-b849-e63c3ae36400","system_id":"levelo_inurba_marseille","lat":43.239568,"lon":5.366286,"is_reserved":false,"is_disabled":false,"rental_uris":{"android":"levelo://app?vid=690096a5-5380-424a-b849-e63c3ae36400","ios":"levelo://app?vid=690096a5-5380-424a-b849-e63c3ae36400"},"vehicle_type_id":"4","last_reported":1761383362,"current_range_meters":26000,"station_id":"ce4bhi12rcd13ifvqfp0","pricing_plan_id":"cebpf4jnsgd1na2vs0mg"},{"bike_id":"4dfdb82e-4697-4884-9a31-0e94c12f9d55","system_id":"levelo_inurba_marseille","lat":43.25087,"lon":5.39531,"is_reserved":false,"is_disabled":false,"rental_uris":{"android":"levelo://app?vid=4dfdb82e-4697-4884-9a31-0e94c12f9d55","ios":"levelo://app?vid=4dfdb82e-4697-4884-9a31-0e94c12f9d55"},"vehicle_type_id":"4","last_reported":1761383362,"current_range_meters":26000,"station_id":"ce4bhm12rcd13ifvqgkg","pricing_plan_id":"cebpf4jnsgd1na2vs0mg"},{"bike_id":"8038e0d1-2614-46b0-a4d1-4b80ed055cfc","system_id":"levelo_inurba_marseille","lat":43.27378,"lon":5.36258,"is_reserved":false,"is_disabled":false,"rental_uris":{"android":"levelo://app?vid=8038e0d1-2614-46b0-a4d1-4b80ed055cfc","ios":"levelo://app?vid=8038e0d1-2614-46b0-a4d1-4b80ed055cfc"},"vehicle_type_id":"4","last_reported":1761383362,"current_range_meters":26000,"station_id":"ce4bhbh2rcd13ifvqeo0","pricing_plan_id":"cebpf4jnsgd1na2vs0mg"},{"bike_id":"7a157e06-992b-4240-9ede-54f6f27f2881","system_id":"levelo_inurba_marseille","lat":43.27207,"lon":5.3919,"is_reserved":false,"is_disabled":false,"rental_uris":{"android":"levelo://app?vid=7a157e06-992b-4240-9ede-54f6f27f2881","ios":"levelo://app?vid=7a157e06-992b-4240-9ede-54f6f27f2881"},"vehicle_type_id":"4","last_reported":1761383362,"current_range_meters":26000,"station_id":"ce4bhhp2rcd13ifvqfm0","pricing_plan_id":"cebpf4jnsgd1na2vs0mg"},{"bike_id":"2e11fbdd-51d2-4bc0-ae73-67f3b6b49ce6","system_id":"levelo_inurba_marseille","lat":43.30886,"lon":5.39658,"is_reserved":false,"is_disabled":false,"rental_uris":{"android":"levelo://app?vid=2e11fbdd-51d2-4bc0-ae73-67f3b6b49ce6","ios":"levelo://app?vid=2e11fbdd-51d2-4bc0-ae73-67f3b6b49ce6"},"vehicle_type_id":"4","last_reported":1761383362,"current_range_meters":26000,"station_id":"ce4bh012rcd13ifvqcv0","pricing_plan_id":"cebpf4jnsgd1na2vs0mg"},{"bike_id":"21dbf7f2-eb19-4663-b1c0-879822879492","system_id":"levelo_inurba_marseille","lat":43.337625,"lon":5.374407,"is_reserved":false,"is_disabled":false,"rental_uris":{"android":"levelo://app?vid=21dbf7f2-eb19-4663-b1c0-879822879492","ios":"levelo://app?vid=21dbf7f2-eb19-4663-b1c0-879822879492"},"vehicle_type_id":"4","last_reported":1761383362,"current_range_meters":26000,"station_id":"","pricing_plan_id":"cebpf4jnsgd1na2vs0mg"},{"bike_id":"7b3c3d77-c3cb-4176-ac2f-ddc2d8bed496","system_id":"levelo_inurba_marseille","lat":43.29267,"lon":5.36839,"is_reserved":false,"is_disabled":false,"rental_uris":{"android":"levelo://app?vid=7b3c3d77-c3cb-4176-ac2f-ddc2d8bed496","ios":"levelo://app?vid=7b3c3d77-c3cb-4176-ac2f-ddc2d8bed496"},"vehicle_type_id":"4","last_reported":1761383362,"current_range_meters":26000,"station_id":"ce4bhbp2rcd13ifvqesg","pricing_plan_id":"cebpf4jnsgd1na2vs0mg"},{"bike_id":"d3344e5a-b6fb-4872-9488-c54c2f7c930c","system_id":"levelo_inurba_marseille","lat":43.30123,"lon":5.43117,"is_reserved":false,"is_disabled":false,"rental_uris":{"android":"levelo://app?vid=d3344e5a-b6fb-4872-9488-c54c2f7c930c","ios":"levelo://app?vid=d3344e5a-b6fb-4872-9488-c54c2f7c930c"},"vehicle_type_id":"4","last_reported":1761383362,"current_range_meters":26800,"station_id":"st_d3js3co5814s73ftftug","pricing_plan_id":"cebpf4jnsgd1na2vs0mg"},{"bike_id":"5a577809-89d5-4fec-b00f-469df3f43d53","system_id":"levelo_inurba_marseille","lat":43.2721,"lon":5.39174,"is_reserved":false,"is_disabled":false,"rental_uris":{"android":"levelo://app?vid=5a577809-89d5-4fec-b00f-469df3f43d53","ios":"levelo://app?vid=5a577809-89d5-4fec-b00f-469df3f43d53"},"vehicle_type_id":"4","last_reported":1761383362,"current_range_meters":26800,"station_id":"ce4bhhp2rcd13ifvqfm0","pricing_plan_id":"cebpf4jnsgd1na2vs0mg"},{"bike_id":"bd66706c-e230-4a71-a3fd-6d151fef21b4","system_id":"levelo_inurba_marseille","lat":43.31688,"lon":5.40476,"is_reserved":false,"is_disabled":false,"rental_uris":{"android":"levelo://app?vid=bd66706c-e230-4a71-a3fd-6d151fef21b4","ios":"levelo://app?vid=bd66706c-e230-4a71-a3fd-6d151fef21b4"},"vehicle_type_id":"4","last_reported":1761383362,"current_range_meters":26800,"station_id":"ce4bh012rcd13ifvqd00","pricing_plan_id":"cebpf4jnsgd1na2vs0mg"},