{"last_updated":1753850101,"ttl":60,"version":"2.2","data":{"bikes":[{"bike_id":"da0dea9a-07a2-4249-aa7c-2489e28d40de","system_id":"levelo_inurba_marseille","lat":43.29683,"lon":5.36239,"is_reserved":false,"is_disabled":false,"rental_uris":{"android":"levelo://app?vid=da0dea9a-07a2-4249-aa7c-2489e28d40de","ios":"levelo://app?vid=da0dea9a-07a2-4249-aa7c-2489e28d40de"},"vehicle_type_id":"4","last_reported":1753850101,"current_range_meters":2800,"station_id":"","pricing_plan_id":"cebpf4jnsgd1na2vs0mg"},{"bike_id":"5a67886b-2f40-46df-b0be-1179491cb0a7","system_id":"levelo_inurba_marseille","lat":43.299683,"lon":5.386239,"is_reserved":false,"is_disabled":false,"rental_uris":{"android":"levelo://app?vid=5a67886b-2f40-46df-b0be-1179491cb0a7","ios":"levelo://app?vid=5a67886b-2f40-46df-b0be-1179491cb0a7"},"vehicle_type_id":"4","last_reported":1753850101,"current_range_meters":2800,"station_id":"","pricing_plan_id":"cebpf4jnsgd1na2vs0mg"},{"bike_id":"d8e6094c-0de7-412e-bab8-3969f4a35524","system_id":"levelo_inurba_marseille","lat":43.29893,"lon":5.37753,"is_reserved":false,"is_disabled":false,"rental_uris":{"android":"levelo://app?vid=d8e6094c-0de7-412e-bab8-3969f4a35524","ios":"levelo://app?vid=d8e6094c-0de7-412e-bab8-3969f4a35524"},"vehicle_type_id":"4","last_reported":1753850101,"current_range_meters":2800,"station_id":"","pricing_plan_id":"cebpf4jnsgd1na2vs0mg"},{"bike_id":"a5ffa286-ffb1-4f55-bfbe-7821ace3a066","system_id":"levelo_inurba_marseille","lat":43.211927,"lon":5.350748,"is_reserved":false,"is_disabled":false,"rental_uris":{"android":"levelo://app?vid=a5ffa286-ffb1-4f55-bfbe-7821ace3a066","ios":"levelo://app?vid=a5ffa286-ffb1-4f55-bfbe-7821ace3a066"},"vehicle_type_id":"4","last_reported":1753850101,"current_range_meters":2800,"station_id":"st_cvj6sg6p6f1abm77japg","pricing_plan_id":"cebpf4jnsgd1na2vs0mg"},{"bike_id":"dfeef013-405d-4d83-bff9-fe3d4f9e6756","system_id":"levelo_inurba_marseille","lat":43.31721,"lon":5.40467,"is_reserved":false,"is_disabled":true,"rental_uris":{"android":"levelo://app?vid=dfeef013-405d-4d83-bff9-fe3d4f9e6756","ios":"levelo://app?vid=dfeef013-405d-4d83-bff9-fe3d4f9e6756"},"vehicle_type_id":"4","last_reported":1753850101,"current_range_meters":2800,"station_id":"ce4bh012rcd13ifvqd00","pricing_plan_id":"cebpf4jnsgd1na2vs0mg"},{"bike_id":"070e408c-49e2-47b2-9584-a62676fbc778","system_id":"levelo_inurba_marseille","lat":43.30963,"lon":5.39044,"is_reserved":false,"is_disabled":false,"rental_uris":{"android":"levelo://app?vid=070e408c-49e2-47b2-9584-a62676fbc778","ios":"levelo://app?vid=070e408c-49e2-47b2-9584-a62676fbc778"},"vehicle_type_id":"4","last_reported":1753850101,"current_range_meters":3200,"station_id":"ce4bgup2rcd13ifvqco0","pricing_plan_id":"cebpf4jnsgd1na2vs0mg"},{"bike_id":"ddcbb103-ab88-4809-ba98-a63593c1bf44","system_id":"levelo_inurba_marseille","lat":43.29137,"lon":5.40033,"is_reserved":false,"is_disabled":false,"rental_uris":{"android":"levelo://app?vid=ddcbb103-ab88-4809-ba98-a63593c1bf44","ios":"levelo://app?vid=ddcbb103-ab88-4809-ba98-a63593c1bf44"},"vehicle_type_id":"4","last_reported":1753850101,"current_range_meters":3200,"station_id":"ce4bh392rcd13ifvqdm0","pricing_plan_id":"cebpf4jnsgd1na2vs0mg"},{"bike_id":"9e636b11-f09d-4708-8edd-606ef74f1066","system_id":"levelo_inurba_marseille","lat":43.25995,"lon":5.37244,"is_reserved":false,"is_disabled":false,"rental_uris":{"android":"levelo://app?vid=9e636b11-f09d-4708-8edd-606ef74f1066","ios":"levelo://app?vid=9e636b11-f09d-4708-8edd-606ef74f1066"},"vehicle_type_id":"4","last_reported":1753850101,"current_range_meters":3600,"station_id":"","pricing_plan_id":"cebpf4jnsgd1na2vs0mg"},{"bike_id":"83fdb9f2-ef9d-4a70-8333-65f103ec90ae","system_id":"levelo_inurba_marseille","lat":43.27416,"lon":5.36254,"is_reserved":false,"is_disabled":true,"rental_uris":{"android":"levelo://app?vid=83fdb9f2-ef9d-4a70-8333-65f103ec90ae","ios":"levelo://app?vid=83fdb9f2-ef9d-4a70-8333-65f103ec90ae"},"vehicle_type_id":"4","last_reported":1753850101,"current_range_meters":3600,"station_id":"","pricing_plan_id":"cebpf4jnsgd1na2vs0mg"},{"bike_id":"3152576e-d602-4c3f-980e-717f41aed773","system_id":"levelo_inurba_marseille","lat":43.33737,"lon":5.37465,"is_reserved":false,"is_disabled":false,"rental_uris":{"android":"levelo://app?vid=3152576e-d602-4c3f-980e-717f41aed773","ios":"levelo://app?vid=3152576e-d602-4c3f-980e-717f41aed773"},"vehicle_type_id":"4","last_reported":1753850101,"current_range_meters":3600,"station_id":"","pricing_plan_id":"cebpf4jnsgd1na2vs0mg"},{"bike_id":"64f258c6-1e92-4dd0-a4f6-11b336a5b138","system_id":"levelo_inurba_marseille","lat":43.22526,"lon":5.34792,"is_reserved":false,"is_disabled":false,"rental_uris":{"android":"levelo://app?vid=64f258c6-1e92-4dd0-a4f6-11b336a5b138","ios":"levelo://app?vid=64f258c6-1e92-4dd0-a4f6-11b336a5b138"},"vehicle_type_id":"4","last_reported":1753850101,"current_range_meters":4000,"station_id":"st_cvj5dfep6f1abm77gieg","pricing_plan_id":"cebpf4jnsgd1na2vs0mg"},{"bike_id":"5915c484-bd7c-435f-bca1-185e1e80dfcf","system_id":"levelo_inurba_marseille","lat":43.23161,"lon":5.43648,"is_reserved":false,"is_disabled":false,"rental_uris":{"android":"levelo://app?vid=5915c484-bd7c-435f-bca1-185e1e80dfcf","ios":"levelo://app?vid=5915c484-bd7c-435f-bca1-185e1e80dfcf"},"vehicle_type_id":"4","last_reported":1753850101,"current_range_meters":4800,"station_id":"ce4bhmp2rcd13ifvqgog","pricing_plan_id":"cebpf4jnsgd1na2vs0mg"},{"bike_id":"d99716cc-03d7-4ec6-9afb-f243b2d67578","system_id":"levelo_inurba_marseille","lat":43.33757,"lon":5.37501,"is_reserved":false,"is_disabled":false,"rental_uris":{"android":"levelo://app?vid=d99716cc-03d7-4ec6-9afb-f243b2d67578","ios":"levelo://app?vid=d99716cc-03d7-4ec6-9afb-f243b2d67578"},"vehicle_type_id":"4","last_reported":1753850101,"current_range_meters":4800,"station_id":"","pricing_plan_id":"cebpf4jnsgd1na2vs0mg"},{"bike_id":"ce081285-4cad-41a6-84ea-ff2b53823a10","system_id":"levelo_inurba_marseille","lat":43.24177,"lon":5.39724,"is_reserved":false,"is_disabled":false,"rental_uris":{"android":"levelo://app?vid=ce081285-4cad-41a6-84ea-ff2b53823a10","ios":"levelo://app?vid=ce081285-4cad-41a6-84ea-ff2b53823a10"},"vehicle_type_id":"4","last_reported":1753850101,"current_range_meters":4800,"station_id":"ce4bhn12rcd13ifvqgpg","pricing_plan_id":"cebpf4jnsgd1na2vs0mg"},{"bike_id":"8a569b31-55c0-441f-9435-5ac594ac9c22","system_id":"levelo_inurba_marseille","lat":43.297302,"lon":5.374166,"is_reserved":false,"is_disabled":false,"rental_uris":{"android":"levelo://app?vid=8a569b31-55c0-441f-9435-5ac594ac9c22","ios":"levelo://app?vid=8a569b31-55c0-441f-9435-5ac594ac9c22"},"vehicle_type_id":"4","last_reported":1753850101,"current_range_meters":5600,"station_id":"","pricing_plan_id":"cebpf4jnsgd1na2vs0mg"},{"bike_id":"370ae9b0-a2a5-4171-8a99-35a3daa5d2ab","system_id":"levelo_inurba_marseille","lat":43.284201,"lon":5.349855,"is_reserved":false,"is_disabled":true,"rental_uris":{"android":"levelo://app?vid=370ae9b0-a2a5-4171-8a99-35a3daa5d2ab","ios":"levelo://app?vid=370ae9b0-a2a5-4171-8a99-35a3daa5d2ab"},"vehicle_type_id":"4","last_reported":1753850101,"current_range_meters":5600,"station_id":"ce4bhbh2rcd13ifvqepg","pricing_plan_id":"cebpf4jnsgd1na2vs0mg"},{"bike_id":"b4e8af3c-c937-4b7c-8c2d-b395715d0ea3","system_id":"levelo_inurba_marseille","lat":43.313583,"lon":5.384998,"is_reserved":false,"is_disabled":false,"rental_uris":{"android":"levelo://app?vid=b4e8af3c-c937-4b7c-8c2d-b395715d0ea3","ios":"levelo://app?vid=b4e8af3c-c937-4b7c-8c2d-b395715d0ea3"},"vehicle_type_id":"4","last_reported":1753850101,"current_range_meters":5600,"station_id":"ce4bgt92rcd13ifvqcf0","pricing_plan_id":"cebpf4jnsgd1na2vs0mg"},{"bike_id":"209c73e6-1f69-4d13-9fed-77cb46eecd05","system_id":"levelo_inurba_marseille","lat":43.34681,"lon":5.38065,"is_reserved":false,"is_disabled":false,"rental_uris":{"android":"levelo://app?vid=209c73e6-1f69-4d13-9fed-77cb46eecd05","ios":"levelo://app?vid=209c73e6-1f69-4d13-9fed-77cb46eecd05"},"vehicle_type_id":"4","last_reported":1753850101,"current_range_meters":5600,"station_id":"","pricing_plan_id":"cebpf4jnsgd1na2vs0mg"},{"bike_id":"ec43f092-32ac-4e09-a245-f936d4700cdb","system_id":"levelo_inurba_marseille","lat":43.29532,"lon":5.39268,"is_reserved":false,"is_disabled":false,"rental_uris":{"android":"levelo://app?vid=ec43f092-32ac-4e09-a245-f936d4700cdb","ios":"levelo://app?vid=ec43f092-32ac-4e09-a245-f936d4700cdb"},"vehicle_type_id":"4","last_reported":1753850101,"current_range_meters":6000,"station_id":"","pricing_plan_id":"cebpf4jnsgd1na2vs0mg"},{"bike_id":"80915a30-ef88-4d81-b5d1-969d1c17a42d","system_id":"levelo_inurba_marseille","lat":43.304113,"lon":5.408395,"is_reserved":false,"is_disabled":false,"rental_uris":{"android":"levelo://app?vid=80915a30-ef88-4d81-b5d1-969d1c17a42d","ios":"levelo://app?vid=80915a30-ef88-4d81-b5d1-969d1c17a42d"},"vehicle_type_id":"4","last_reported":1753850101,"current_range_meters":6000,"station_id":"","pricing_plan_id":"cebpf4jnsgd1na2vs0mg"},{"bike_id":"95dd70e4-879c-49e7-b318-a6c71b22a43e","system_id":"levelo_inurba_marseille","lat":43.2703,"lon":5.39295,"is_reserved":false,"is_disabled":false,"rental_uris":{"android":"levelo://app?vid=95dd70e4-879c-49e7-b318-a6c71b22a43e","ios":"levelo://app?vid=95dd70e4-879c-49e7-b318-a6c71b22a43e"},"vehicle_type_id":"4","last_reported":1753850101,"current_range_meters":6000,"station_id":"","pricing_plan_id":"cebpf4jnsgd1na2vs0mg"},{"bike_id":"65e3db07-f188-422b-b687-3d06cfe2bcf8","system_id":"levelo_inurba_marseille","lat":43.28047,"lon":5.35008,"is_reserved":false,"is_disabled":false,"rental_uris":{"android":"levelo://app?vid=65e3db07-f188-422b-b687-3d06cfe2bcf8","ios":"levelo://app?vid=65e3db07-f188-422b-b687-3d06cfe2bcf8"},"vehicle_type_id":"4","last_reported":1753850101,"current_range_meters":6400,"station_id":"","pricing_plan_id":"cebpf4jnsgd1na2vs0mg"},{"bike_id":"3c1a6a31-f23a-40b2-b944-a5783fa6fa93","system_id":"levelo_inurba_marseille","lat":43.27941,"lon":5.41031,"is_reserved":false,"is_disabled":true,"rental_uris":{"android":"levelo://app?vid=3c1a6a31-f23a-40b2-b944-a5783fa6fa93","ios":"levelo://app?vid=3c1a6a31-f23a-40b2-b944-a5783fa6fa93"},"vehicle_type_id":"4","last_reported":1753850101,"current_range_meters":6400,"station_id":"ce4bhnp2rcd13ifvqh0g","pricing_plan_id":"cebpf4jnsgd1na2vs0mg"},{"bike_id":"a738d821-aeb2-4de2-ba56-0507bc6dc2ec","system_id":"levelo_inurba_marseille","lat":43.318905,"lon":5.407285,"is_reserved":false,"is_disabled":false,"rental_uris":{"android":"levelo://app?vid=a738d821-aeb2-4de2-ba56-0507bc6dc2ec","ios":"levelo://app?vid=a738d821-aeb2-4de2-ba56-0507bc6dc2ec"},"vehicle_type_id":"4","last_reported":1753850101,"current_range_meters":6800,"station_id":"ce4bhq12rcd13ifvqhig","pricing_plan_id":"cebpf4jnsgd1na2vs0mg"},{"bike_id":"37fcf059-83b8-4b6e-bc28-0c83f77e3c05","system_id":"levelo_inurba_marseille","lat":43.22501,"lon":5.3479,"is_reserved":false,"is_disabled":false,"rental_uris":{"android":"levelo://app?vid=37fcf059-83b8-4b6e-bc28-0c83f77e3c05","ios":"levelo://app?vid=37fcf059-83b8-4b6e-bc28-0c83f77e3c05"},"vehicle_type_id":"4","last_reported":1753850101,"current_range_meters":6800,"station_id":"st_cvj5dfep6f1abm77gieg","pricing_plan_id":"cebpf4jnsgd1na2vs0mg"},{"bike_id":"175941c2-2011-491a-8f10-41b1358418aa","system_id":"levelo_inurba_marseille","lat":43.30805,"lon":5.3817,"is_reserved":false,"is_disabled":false,"rental_uris":{"android":"levelo://app?vid=175941c2-2011-491a-8f10-41b1358418aa","ios":"levelo://app?vid=175941c2-2011-491a-8f10-41b1358418aa"},"vehicle_type_id":"4","last_reported":1753850101,"current_range_meters":6800,"station_id":"ce4bgt12rcd13ifvqce0","pricing_plan_id":"cebpf4jnsgd1na2vs0mg"},{"bike_id":"6fdfdb8a-9f9e-4a21-8068-b9b4d99f980c","system_id":"levelo_inurba_marseille","lat":43.31089,"lon":5.38355,"is_reserved":false,"is_disabled":false,"rental_uris":{"android":"levelo://app?vid=6fdfdb8a-9f9e-4a21-8068-b9b4d99f980c","ios":"levelo://app?vid=6fdfdb8a-9f9e-4a21-8068-b9b4d99f980c"},"vehicle_type_id":"4","last_reported":1753850101,"current_range_meters":6800,"station_id":"ce4bgv92rcd13ifvqcr0","pricing_plan_id":"cebpf4jnsgd1na2vs0mg"},{"bike_id":"b74c3768-eb8a-4205-8dbb-b16d09d8a7a5","system_id":"levelo_inurba_marseille","lat":43.308843,"lon":5.396495,"is_reserved":false,"is_disabled":false,"rental_uris":{"android":"levelo://app?vid=b74c3768-eb8a-4205-8dbb-b16d09d8a7a5","ios":"levelo://app?vid=b74c3768-eb8a-4205-8dbb-b16d09d8a7a5"},"vehicle_type_id":"4","last_reported":1753850101,"current_range_meters":6800,"station_id":"ce4bh012rcd13ifvqcv0","pricing_plan_id":"cebpf4jnsgd1na2vs0mg"},{"bike_id":"e7af6c93-20fc-4fbd-9778-03737b491918","system_id":"levelo_inurba_marseille","lat":43.307811,"lon":5.376469,"is_reserved":false,"is_disabled":false,"rental_uris":{"android":"levelo://app?vid=e7af6c93-20fc-4fbd-9778-03737b491918","ios":"levelo://app?vid=e7af6c93-20fc-4fbd-9778-03737b491918"},"vehicle_type_id":"4","last_reported":1753850101,"current_range_meters":7200,"station_id":"ce4bgv92rcd13ifvqcq0","pricing_plan_id":"cebpf4jnsgd1na2vs0mg"},{"bike_id":"7ead535a-e7f2-4489-9051-59e4f5eeec8a","system_id":"levelo_inurba_marseille","lat":43.306868,"lon":5.373432,"is_reserved":false,"is_disabled":false,"rental_uris":{"android":"levelo://app?vid=7ead535a-e7f2-4489-9051-59e4f5eeec8a","ios":"levelo://app?vid=7ead535a-e7f2-4489-9051-59e4f5eeec8a"},"vehicle_type_id":"4","last_reported":1753850101,"current_range_meters":7200,"station_id":"","pricing_plan_id":"cebpf4jnsgd1na2vs0mg"},{"bike_id":"149fbe11-3bce-47a0-b584-c7c7bd6bb12f","system_id":"levelo_inurba_marseille","lat":43.216286,"lon":5.344361,"is_reserved":false,"is_disabled":false,"rental_uris":{"android":"levelo://app?vid=149fbe11-3bce-47a0-b584-c7c7bd6bb12f","ios":"levelo://app?vid=149fbe11-3bce-47a0-b584-c7c7bd6bb12f"},"vehicle_type_id":"4","last_reported":1753850101,"current_range_meters":7200,"station_id":"","pricing_plan_id":"cebpf4jnsgd1na2vs0mg"},{"bike_id":"fa4e0e2e-0be2-44bb-a9da-d8a8fff38aff","system_id":"levelo_inurba_marseille","lat":43.311666,"lon":5.387102,"is_reserved":false,"is_disabled":false,"rental_uris":{"android":"levelo://app?vid=fa4e0e2e-0be2-44bb-a9da-d8a8fff38aff","ios":"levelo://app?vid=fa4e0e2e-0be2-44bb-a9da-d8a8fff38aff"},"vehicle_type_id":"4","last_reported":1753850101,"current_range_meters":8000,"station_id":"ce4bgv12rcd13ifvqcp0","pricing_plan_id":"cebpf4jnsgd1na2vs0mg"},{"bike_id":"882bdff1-651a-41c1-9ab0-596f43205cf1","system_id":"levelo_inurba_marseille","lat":43.337444,"lon":5.374475,"is_reserved":false,"is_disabled":false,"rental_uris":{"android":"levelo://app?vid=882bdff1-651a-41c1-9ab0-596f43205cf1","ios":"levelo://app?vid=882bdff1-651a-41c1-9ab0-596f43205cf1"},"vehicle_type_id":"4","last_reported":1753850101,"current_range_meters":8000,"station_id":"ce4bgkp2rcd13ifvqbmg","pricing_plan_id":"cebpf4jnsgd1na2vs0mg"},{"bike_id":"786ae6ae-9799-440e-ae50-a310566c1e9d","system_id":"levelo_inurba_marseille","lat":43.270599,"lon":5.402539,"is_reserved":false,"is_disabled":false,"rental_uris":{"android":"levelo://app?vid=786ae6ae-9799-440e-ae50-a310566c1e9d","ios":"levelo://app?vid=786ae6ae-9799-440e-ae50-a310566c1e9d"},"vehicle_type_id":"4","last_reported":1753850101,"current_range_meters":8000,"station_id":"ce4bhk92rcd13ifvqgc0","pricing_plan_id":"cebpf4jnsgd1na2vs0mg"},{"bike_id":"5969a80c-0f85-4ae2-b1de-6dfe236afa65","system_id":"levelo_inurba_marseille","lat":43.28738,"lon":5.36122,"is_reserved":false,"is_disabled":false,"rental_uris":{"android":"levelo://app?vid=5969a80c-0f85-4ae2-b1de-6dfe236afa65","ios":"levelo://app?vid=5969a80c-0f85-4ae2-b1de-6dfe236afa65"},"vehicle_type_id":"4","last_reported":1753850101,"current_range_meters":8000,"station_id":"cki0cbj6b192h4jlfktg","pricing_plan_id":"cebpf4jnsgd1na2vs0mg"},{"bike_id":"e4da92db-0574-4aca-a38d-b7b6f609441f","system_id":"levelo_inurba_marseille","lat":43.317088,"lon":5.377363,"is_reserved":false,"is_disabled":false,"rental_uris":{"android":"levelo://app?vid=e4da92db-0574-4aca-a38d-b7b6f609441f","ios":"levelo://app?vid=e4da92db-0574-4aca-a38d-b7b6f609441f"},"vehicle_type_id":"4","last_reported":1753850101,"current_range_meters":8000,"station_id":"ce4bgth2rcd13ifvqch0","pricing_plan_id":"cebpf4jnsgd1na2vs0mg"},{"bike_id":"64d16de7-cb0f-4526-b27b-218cfae2b026","system_id":"levelo_inurba_marseille","lat":43.32358,"lon":5.36746,"is_reserved":false,"is_disabled":false,"rental_uris":{"android":"levelo://app?vid=64d16de7-cb0f-4526-b27b-218cfae2b026","ios":"levelo://app?vid=64d16de7-cb0f-4526-b27b-218cfae2b026"},"vehicle_type_id":"4","last_reported":1753850101,"current_range_meters":8000,"station_id":"ce4bhsh2rcd13ifvqi2g","pricing_plan_id":"cebpf4jnsgd1na2vs0mg"},{"bike_id":"2a3a9f20-00d1-4c95-a093-ba8e28724bc0","system_id":"levelo_inurba_marseille","lat":43.30682,"lon":5.37565,"is_reserved":false,"is_disabled":false,"rental_uris":{"android":"levelo://app?vid=2a3a9f20-00d1-4c95-a093-ba8e28724bc0","ios":"levelo://app?vid=2a3a9f20-00d1-4c95-a093-ba8e28724bc0"},"vehicle_type_id":"4","last_reported":1753850101,"current_range_meters":8000,"station_id":"","pricing_plan_id":"cebpf4jnsgd1na2vs0mg"},{"bike_id":"da913aa8-3d8c-4ab2-b48f-187998fd2a99","system_id":"levelo_inurba_marseille","lat":43.33771,"lon":5.37513,"is_reserved":false,"is_disabled":false,"rental_uris":{"android":"levelo://app?vid=da913aa8-3d8c-4ab2-b48f-187998fd2a99","ios":"levelo://app?vid=da913aa8-3d8c-4ab2-b48f-187998fd2a99"},"vehicle_type_id":"4","last_reported":1753850101,"current_range_meters":8400,"station_id":"","pricing_plan_id":"cebpf4jnsgd1na2vs0mg"},{"bike_id":"ee294293-b484-40ec-a941-e6b5b62a025b","system_id":"levelo_inurba_marseille","lat":43.21203,"lon":5.35079,"is_reserved":false,"is_disabled":false,"rental_uris":{"android":"levelo://app?vid=ee294293-b484-40ec-a941-e6b5b62a025b","ios":"levelo://app?vid=ee294293-b484-40ec-a941-e6b5b62a025b"},"vehicle_type_id":"4","last_reported":1753850101,"current_range_meters":8400,"station_id":"st_cvj6sg6p6f1abm77japg","pricing_plan_id":"cebpf4jnsgd1na2vs0mg"},{"bike_id":"3b08c7fe-da62-4fb4-8da1-3e8b0064e2d8","system_id":"levelo_inurba_marseille","lat":43.30905,"lon":5.39665,"is_reserved":false,"is_disabled":true,"rental_uris":{"android":"levelo://app?vid=3b08c7fe-da62-4fb4-8da1-3e8b0064e2d8","ios":"levelo://app?vid=3b08c7fe-da62-4fb4-8da1-3e8b0064e2d8"},"vehicle_type_id":"4","last_reported":1753850101,"current_range_meters":8400,"station_id":"ce4bh012rcd13ifvqcv0","pricing_plan_id":"cebpf4jnsgd1na2vs0mg"},{"bike_id":"d4b0442d-37e3-4887-8827-87b59f4e9086","system_id":"levelo_inurba_marseille","lat":43.2977,"lon":5.38108,"is_reserved":false,"is_disabled":false,"rental_uris":{"android":"levelo://app?vid=d4b0442d-37e3-4887-8827-87b59f4e9086","ios":"levelo://app?vid=d4b0442d-37e3-4887-8827-87b59f4e9086"},"vehicle_type_id":"4","last_reported":1753850101,"current_range_meters":8400,"station_id":"","pricing_plan_id":"cebpf4jnsgd1na2vs0mg"},{"bike_id":"bb650ed0-d989-4f7c-9fda-1512931e29aa","system_id":"levelo_inurba_marseille","lat":43.30016,"lon":5.37202,"is_reserved":false,"is_disabled":false,"rental_uris":{"android":"levelo://app?vid=bb650ed0-d989-4f7c-9fda-1512931e29aa","ios":"levelo://app?vid=bb650ed0-d989-4f7c-9fda-1512931e29aa"},"vehicle_type_id":"4","last_reported":1753850101,"current_range_meters":8400,"station_id":"ce4bgr92rcd13ifvqc7g","pricing_plan_id":"cebpf4jnsgd1na2vs0mg"},{"bike_id":"d7918252-9ded-43fa-9c14-191d8e290ecf","system_id":"levelo_inurba_marseille","lat":43.31706,"lon":5.40498,"is_reserved":false,"is_disabled":false,"rental_uris":{"android":"levelo://app?vid=d7918252-9ded-43fa-9c14-191d8e290ecf","ios":"levelo://app?vid=d7918252-9ded-43fa-9c14-191d8e290ecf"},"vehicle_type_id":"4","last_reported":1753850101,"current_range_meters":8800,"station_id":"ce4bh012rcd13ifvqd00","pricing_plan_id":"cebpf4jnsgd1na2vs0mg"},{"bike_id":"7e9aeb8e-f66f-43c2-a59d-c0e42783ddbc","system_id":"levelo_inurba_marseille","lat":43.25398,"lon":5.41902,"is_reserved":false,"is_disabled":false,"rental_uris":{"android":"levelo://app?vid=7e9aeb8e-f66f-43c2-a59d-c0e42783ddbc","ios":"levelo://app?vid=7e9aeb8e-f66f-43c2-a59d-c0e42783ddbc"},"vehicle_type_id":"4","last_reported":1753850101,"current_range_meters":8800,"station_id":"","pricing_plan_id":"cebpf4jnsgd1na2vs0mg"},{"bike_id":"8a0ff05e-151b-4e50-84e5-cbd3dc78cbb7","system_id":"levelo_inurba_marseille","lat":43.28181,"lon":5.4264,"is_reserved":false,"is_disabled":false,"rental_uris":{"android":"levelo://app?vid=8a0ff05e-151b-4e50-84e5-cbd3dc78cbb7","ios":"levelo://app?vid=8a0ff05e-151b-4e50-84e5-cbd3dc78cbb7"},"vehicle_type_id":"4","last_reported":1753850101,"current_range_meters":8800,"station_id":"ce4bhnh2rcd13ifvqgug","pricing_plan_id":"cebpf4jnsgd1na2vs0mg"},{"bike_id":"d72421b8-3411-486c-a49e-680c846f73bc","system_id":"levelo_inurba_marseille","lat":43.30735,"lon":5.4246,"is_reserved":false,"is_disabled":false,"rental_uris":{"android":"levelo://app?vid=d72421b8-3411-486c-a49e-680c846f73bc","ios":"levelo://app?vid=d72421b8-3411-486c-a49e-680c846f73bc"},"vehicle_type_id":"4","last_reported":1753850101,"current_range_meters":8800,"station_id":"st_cvj6ca6bvosntc0bfgr0","pricing_plan_id":"cebpf4jnsgd1na2vs0mg"},{"bike_id":"3da0d6e9-9147-4076-8e9c-e7d3d2fd1372","system_id":"levelo_inurba_marseille","lat":43.30155,"lon":5.3808,"is_reserved":false,"is_disabled":false,"rental_uris":{"android":"levelo://app?vid=3da0d6e9-9147-4076-8e9c-e7d3d2fd1372","ios":"levelo://app?vid=3da0d6e9-9147-4076-8e9c-e7d3d2fd1372"},"vehicle_type_id":"4","last_reported":1753850101,"current_range_meters":8800,"station_id":"ce4bgjp2rcd13ifvqbh0","pricing_plan_id":"cebpf4jnsgd1na2vs0mg"},{"bike_id":"9a9f7ee4-cd30-4503-882e-9e36249bea47","system_id":"levelo_inurba_marseille","lat":43.29522,"lon":5.39029,"is_reserved":false,"is_disabled":true,"rental_uris":{"android":"levelo://app?vid=9a9f7ee4-cd30-4503-882e-9e36249bea47","ios":"levelo://app?vid=9a9f7ee4-cd30-4503-882e-9e36249bea47"},"vehicle_type_id":"4","last_reported":1753850101,"current_range_meters":9200,"station_id":"ce4bh3p2rcd13ifvqdp0","pricing_plan_id":"cebpf4jnsgd1na2vs0mg"},{"bike_id":"b5e469a6-8e8f-4b1a-91cc-e9f6f04151ad","system_id":"levelo_inurba_marseille","lat":43.295804,"lon":5.436801,"is_reserved":false,"is_disabled":false,"rental_uris":{"android":"levelo://app?vid=b5e469a6-8e8f-4b1a-91cc-e9f6f04151ad","ios":"levelo://app?vid=b5e469a6-8e8f-4b1a-91cc-e9f6f04151ad"},"vehicle_type_id":"4","last_reported":1753850101,"current_range_meters":9200,"station_id":"","pricing_plan_id":"cebpf4jnsgd1na2vs0mg"},{"bike_id":"99d6f198-ecad-4196-8453-119f90eeecf8","system_id":"levelo_inurba_marseille","lat":43.3064,"lon":5.40071,"is_reserved":false,"is_disabled":false,"rental_uris":{"android":"levelo://app?vid=99d6f198-ecad-4196-8453-119f90eeecf8","ios":"levelo://app?vid=99d6f198-ecad-4196-8453-119f90eeecf8"},"vehicle_type_id":"4","last_reported":1753850101,"current_range_meters":9200,"station_id":"ce4bh112rcd13ifvqda0","pricing_plan_id":"cebpf4jnsgd1na2vs0mg"},{"bike_id":"55201a9e-328f-452a-8b58-b76f0e5a4511","system_id":"levelo_inurba_marseille","lat":43.23181,"lon":5.400041,"is_reserved":false,"is_disabled":true,"rental_uris":{"android":"levelo://app?vid=55201a9e-328f-452a-8b58-b76f0e5a4511","ios":"levelo://app?vid=55201a9e-328f-452a-8b58-b76f0e5a4511"},"vehicle_type_id":"4","last_reported":1753850101,"current_range_meters":9200,"station_id":"ce4bhn12rcd13ifvqgqg","pricing_plan_id":"cebpf4jnsgd1na2vs0mg"},{"bike_id":"7279efb2-baa4-48eb-8b27-c4ab3207904d","system_id":"levelo_inurba_marseille","lat":43.30788,"lon":5.3764,"is_reserved":false,"is_disabled":false,"rental_uris":{"android":"levelo://app?vid=7279efb2-baa4-48eb-8b27-c4ab3207904d","ios":"levelo://app?vid=7279efb2-baa4-48eb-8b27-c4ab3207904d"},"vehicle_type_id":"4","last_reported":1753850101,"current_range_meters":9200,"station_id":"ce4bgv92rcd13ifvqcq0","pricing_plan_id":"cebpf4jnsgd1na2vs0mg"},{"bike_id":"b91eea8e-5bfd-4015-80e3-c6a73f1ee420","system_id":"levelo_inurba_marseille","lat":43.321059,"lon":5.367719,"is_reserved":false,"is_disabled":false,"rental_uris":{"android":"levelo://app?vid=b91eea8e-5bfd-4015-80e3-c6a73f1ee420","ios":"levelo://app?vid=b91eea8e-5bfd-4015-80e3-c6a73f1ee420"},"vehicle_type_id":"4","last_reported":1753850101,"current_range_meters":9200,"station_id":"ce4bhrh2rcd13ifvqhug","pricing_plan_id":"cebpf4jnsgd1na2vs0mg"},{"bike_id":"b6c1096b-d915-4a56-9f0a-4188874faa14","system_id":"levelo_inurba_marseille","lat":43.2993,"lon":5.3749,"is_reserved":false,"is_disabled":false,"rental_uris":{"android":"levelo://app?vid=b6c1096b-d915-4a56-9f0a-4188874faa14","ios":"levelo://app?vid=b6c1096b-d915-4a56-9f0a-4188874faa14"},"vehicle_type_id":"4","last_reported":1753850101,"current_range_meters":9600,"station_id":"ce4bgjh2rcd13ifvqbg0","pricing_plan_id":"cebpf4jnsgd1na2vs0mg"},{"bike_id":"84aafa29-819a-4c13-b11f-1f4e655bdc98","system_id":"levelo_inurba_marseille","lat":43.295932,"lon":5.38091,"is_reserved":false,"is_disabled":true,"rental_uris":{"android":"levelo://app?vid=84aafa29-819a-4c13-b11f-1f4e655bdc98","ios":"levelo://app?vid=84aafa29-819a-4c13-b11f-1f4e655bdc98"},"vehicle_type_id":"4","last_reported":1753850101,"current_range_meters":9600,"station_id":"ce4bgl12rcd13ifvqbo0","pricing_plan_id":"cebpf4jnsgd1na2vs0mg"},{"bike_id":"50427cb4-f7c5-45fa-9402-39ede650aa5c","system_id":"levelo_inurba_marseille","lat":43.312818,"lon":5.401734,"is_reserved":false,"is_disabled":true,"rental_uris":{"android":"levelo://app?vid=50427cb4-f7c5-45fa-9402-39ede650aa5c","ios":"levelo://app?vid=50427cb4-f7c5-45fa-9402-39ede650aa5c"},"vehicle_type_id":"4","last_reported":1753850101,"current_range_meters":9600,"station_id":"ce4bh092rcd13ifvqd30","pricing_plan_id":"cebpf4jnsgd1na2vs0mg"},{"bike_id":"43348ea9-7f7d-45e7-9344-a5a742188c65","system_id":"levelo_inurba_marseille","lat":43.28696,"lon":5.37386,"is_reserved":false,"is_disabled":true,"rental_uris":{"android":"levelo://app?vid=43348ea9-7f7d-45e7-9344-a5a742188c65","ios":"levelo://app?vid=43348ea9-7f7d-45e7-9344-a5a742188c65"},"vehicle_type_id":"4","last_reported":1753850101,"current_range_meters":9600,"station_id":"ce4bh3p2rcd13ifvqdq0","pricing_plan_id":"cebpf4jnsgd1na2vs0mg"},{"bike_id":"91dedfa9-6c8d-437a-a4ea-107111842acd","system_id":"levelo_inurba_marseille","lat":43.28023,"lon":5.36938,"is_reserved":false,"is_disabled":false,"rental_uris":{"android":"levelo://app?vid=91dedfa9-6c8d-437a-a4ea-107111842acd","ios":"levelo://app?vid=91dedfa9-6c8d-437a-a4ea-107111842acd"},"vehicle_type_id":"4","last_reported":1753850101,"current_range_meters":9600,"station_id":"ce4bha12rcd13ifvqef0","pricing_plan_id":"cebpf4jnsgd1na2vs0mg"},{"bike_id":"64aba394-71f6-4236-aada-f1e99d5900fe","system_id":"levelo_inurba_marseille","lat":43.24651,"lon":5.38891,"is_reserved":false,"is_disabled":false,"rental_uris":{"android":"levelo://app?vid=64aba394-71f6-4236-aada-f1e99d5900fe","ios":"levelo://app?vid=64aba394-71f6-4236-aada-f1e99d5900fe"},"vehicle_type_id":"4","last_reported":1753850101,"current_range_meters":9600,"station_id":"ce4bhg12rcd13ifvqf60","pricing_plan_id":"cebpf4jnsgd1na2vs0mg"},{"bike_id":"1c2cee29-6d27-4bdf-b97c-eecf71616341","system_id":"levelo_inurba_marseille","lat":43.23186,"lon":5.35557,"is_reserved":false,"is_disabled":false,"rental_uris":{"android":"levelo://app?vid=1c2cee29-6d27-4bdf-b97c-eecf71616341","ios":"levelo://app?vid=1c2cee29-6d27-4bdf-b97c-eecf71616341"},"vehicle_type_id":"4","last_reported":1753850101,"current_range_meters":10000,"station_id":"ce4bhu92rcd13ifvqi70","pricing_plan_id":"cebpf4jnsgd1na2vs0mg"},{"bike_id":"73c28b44-fb9a-4083-b9eb-e60de241e4cb","system_id":"levelo_inurba_marseille","lat":43.32363,"lon":5.38892,"is_reserved":false,"is_disabled":false,"rental_uris":{"android":"levelo://app?vid=73c28b44-fb9a-4083-b9eb-e60de241e4cb","ios":"levelo://app?vid=73c28b44-fb9a-4083-b9eb-e60de241e4cb"},"vehicle_type_id":"4","last_reported":1753850101,"current_range_meters":10000,"station_id":"ce4bhqp2rcd13ifvqhog","pricing_plan_id":"cebpf4jnsgd1na2vs0mg"},{"bike_id":"5139116d-9424-4cef-93b3-b66d7928b57c","system_id":"levelo_inurba_marseille","lat":43.292539,"lon":5.401279,"is_reserved":false,"is_disabled":true,"rental_uris":{"android":"levelo://app?vid=5139116d-9424-4cef-93b3-b66d7928b57c","ios":"levelo://app?vid=5139116d-9424-4cef-93b3-b66d7928b57c"},"vehicle_type_id":"4","last_reported":1753850101,"current_range_meters":10000,"station_id":"ce4bh312rcd13ifvqdk0","pricing_plan_id":"cebpf4jnsgd1na2vs0mg"},{"bike_id":"56d1ed2d-9c6f-4bd8-9c29-f6948ae0d806","system_id":"levelo_inurba_marseille","lat":43.27909,"lon":5.37998,"is_reserved":false,"is_disabled":false,"rental_uris":{"android":"levelo://app?vid=56d1ed2d-9c6f-4bd8-9c29-f6948ae0d806","ios":"levelo://app?vid=56d1ed2d-9c6f-4bd8-9c29-f6948ae0d806"},"vehicle_type_id":"4","last_reported":1753850101,"current_range_meters":10000,"station_id":"ce4bhf92rcd13ifvqf50","pricing_plan_id":"cebpf4jnsgd1na2vs0mg"},{"bike_id":"f73f8966-8b7e-457a-8b9d-c5b89ce65a5c","system_id":"levelo_inurba_marseille","lat":43.28434,"lon":5.34972,"is_reserved":false,"is_disabled":true,"rental_uris":{"android":"levelo://app?vid=f73f8966-8b7e-457a-8b9d-c5b89ce65a5c","ios":"levelo://app?vid=f73f8966-8b7e-457a-8b9d-c5b89ce65a5c"},"vehicle_type_id":"4","last_reported":1753850101,"current_range_meters":10000,"station_id":"ce4bhbh2rcd13ifvqepg","pricing_plan_id":"cebpf4jnsgd1na2vs0mg"},{"bike_id":"21cda18a-6622-4197-befa-7523a69dcfaf","system_id":"levelo_inurba_marseille","lat":43.281369,"lon":5.442037,"is_reserved":false,"is_disabled":false,"rental_uris":{"android":"levelo://app?vid=21cda18a-6622-4197-befa-7523a69dcfaf","ios":"levelo://app?vid=21cda18a-6622-4197-befa-7523a69dcfaf"},"vehicle_type_id":"4","last_reported":1753850101,"current_range_meters":10000,"station_id":"","pricing_plan_id":"cebpf4jnsgd1na2vs0mg"},{"bike_id":"5e5998bf-cceb-43f9-82ba-8abad7b416c1","system_id":"levelo_inurba_marseille","lat":43.29521,"lon":5.39407,"is_reserved":false,"is_disabled":false,"rental_uris":{"android":"levelo://app?vid=5e5998bf-cceb-43f9-82ba-8abad7b416c1","ios":"levelo://app?vid=5e5998bf-cceb-43f9-82ba-8abad7b416c1"},"vehicle_type_id":"4","last_reported":1753850101,"current_range_meters":10000,"station_id":"ce4bh292rcd13ifvqdf0","pricing_plan_id":"cebpf4jnsgd1na2vs0mg"},{"bike_id":"b0f2b2c1-b378-4164-a22b-6eceaa434acc","system_id":"levelo_inurba_marseille","lat":43.292271,"lon":5.426451,"is_reserved":false,"is_disabled":false,"rental_uris":{"android":"levelo://app?vid=b0f2b2c1-b378-4164-a22b-6eceaa434acc","ios":"levelo://app?vid=b0f2b2c1-b378-4164-a22b-6eceaa434acc"},"vehicle_type_id":"4","last_reported":1753850101,"current_range_meters":10000,"station_id":"","pricing_plan_id":"cebpf4jnsgd1na2vs0mg"},{"bike_id":"a5d21f19-a2f8-4c79-9341-84f97b97beb0","system_id":"levelo_inurba_marseille","lat":43.33394,"lon":5.40074,"is_reserved":false,"is_disabled":false,"rental_uris":{"android":"levelo://app?vid=a5d21f19-a2f8-4c79-9341-84f97b97beb0","ios":"levelo://app?vid=a5d21f19-a2f8-4c79-9341-84f97b97beb0"},"vehicle_type_id":"4","last_reported":1753850101,"current_range_meters":10000,"station_id":"","pricing_plan_id":"cebpf4jnsgd1na2vs0mg"},{"bike_id":"0dc99cab-1546-4588-8ef9-e9c6ae8e0a6f","system_id":"levelo_inurba_marseille","lat":43.23063,"lon":5.35487,"is_reserved":false,"is_disabled":false,"rental_uris":{"android":"levelo://app?vid=0dc99cab-1546-4588-8ef9-e9c6ae8e0a6f","ios":"levelo://app?vid=0dc99cab-1546-4588-8ef9-e9c6ae8e0a6f"},"vehicle_type_id":"4","last_reported":1753850101,"current_range_meters":10000,"station_id":"cpo3342slgdg3j2ifvpg","pricing_plan_id":"cebpf4jnsgd1na2vs0mg"},{"bike_id":"036b9385-ac6e-4636-91bb-e02909e77d53","system_id":"levelo_inurba_marseille","lat":43.321075,"lon":5.367722,"is_reserved":false,"is_disabled":false,"rental_uris":{"android":"levelo://app?vid=036b9385-ac6e-4636-91bb-e02909e77d53","ios":"levelo://app?vid=036b9385-ac6e-4636-91bb-e02909e77d53"},"vehicle_type_id":"4","last_reported":1753850101,"current_range_meters":10000,"station_id":"ce4bhrh2rcd13ifvqhug","pricing_plan_id":"cebpf4jnsgd1na2vs0mg"},{"bike_id":"fc953985-6909-4bec-91fd-cc8e6cb427b9","system_id":"levelo_inurba_marseille","lat":43.33721,"lon":5.39191,"is_reserved":false,"is_disabled":false,"rental_uris":{"android":"levelo://app?vid=fc953985-6909-4bec-91fd-cc8e6cb427b9","ios":"levelo://app?vid=fc953985-6909-4bec-91fd-cc8e6cb427b9"},"vehicle_type_id":"4","last_reported":1753850101,"current_range_meters":10000,"station_id":"ce4bhr92rcd13ifvqhsg","pricing_plan_id":"cebpf4jnsgd1na2vs0mg"},{"bike_id":"2f5a766e-3ece-4a36-9442-eef7b36a8a22","system_id":"levelo_inurba_marseille","lat":43.248159,"lon":5.374553,"is_reserved":false,"is_disabled":false,"rental_uris":{"android":"levelo://app?vid=2f5a766e-3ece-4a36-9442-eef7b36a8a22","ios":"levelo://app?vid=2f5a766e-3ece-4a36-9442-eef7b36a8a22"},"vehicle_type_id":"4","last_reported":1753850101,"current_range_meters":10800,"station_id":"ce4bhgh2rcd13ifvqfb0","pricing_plan_id":"cebpf4jnsgd1na2vs0mg"},{"bike_id":"413a38a6-da08-40e1-81c5-505fab518daf","system_id":"levelo_inurba_marseille","lat":43.29545,"lon":5.38542,"is_reserved":false,"is_disabled":false,"rental_uris":{"android":"levelo://app?vid=413a38a6-da08-40e1-81c5-505fab518daf","ios":"levelo://app?vid=413a38a6-da08-40e1-81c5-505fab518daf"},"vehicle_type_id":"4","last_reported":1753850101,"current_range_meters":10800,"station_id":"ce4bgih2rcd13ifvqba0","pricing_plan_id":"cebpf4jnsgd1na2vs0mg"},{"bike_id":"d53021e2-2be8-42a4-9d2b-388ec28737fe","system_id":"levelo_inurba_marseille","lat":43.25918,"lon":5.40909,"is_reserved":false,"is_disabled":false,"rental_uris":{"android":"levelo://app?vid=d53021e2-2be8-42a4-9d2b-388ec28737fe","ios":"levelo://app?vid=d53021e2-2be8-42a4-9d2b-388ec28737fe"},"vehicle_type_id":"4","last_reported":1753850101,"current_range_meters":10800,"station_id":"ce4bhm92rcd13ifvqglg","pricing_plan_id":"cebpf4jnsgd1na2vs0mg"},{"bike_id":"8f94ed7e-9e68-4024-9cb6-c46ff7707eb0","system_id":"levelo_inurba_marseille","lat":43.30811,"lon":5.38165,"is_reserved":false,"is_disabled":false,"rental_uris":{"android":"levelo://app?vid=8f94ed7e-9e68-4024-9cb6-c46ff7707eb0","ios":"levelo://app?vid=8f94ed7e-9e68-4024-9cb6-c46ff7707eb0"},"vehicle_type_id":"4","last_reported":1753850101,"current_range_meters":10800,"station_id":"ce4bgt12rcd13ifvqce0","pricing_plan_id":"cebpf4jnsgd1na2vs0mg"},{"bike_id":"bcf4de34-2c38-4ed7-93cc-b57b7799e34a","system_id":"levelo_inurba_marseille","lat":43.32362,"lon":5.38879,"is_reserved":false,"is_disabled":false,"rental_uris":{"android":"levelo://app?vid=bcf4de34-2c38-4ed7-93cc-b57b7799e34a","ios":"levelo://app?vid=bcf4de34-2c38-4ed7-93cc-b57b7799e34a"},"vehicle_type_id":"4","last_reported":1753850101,"current_range_meters":10800,"station_id":"ce4bhqp2rcd13ifvqhog","pricing_plan_id":"cebpf4jnsgd1na2vs0mg"},{"bike_id":"0c78749a-5428-4fb8-802b-98f57c51ba3d","system_id":"levelo_inurba_marseille","lat":43.30381,"lon":5.42496,"is_reserved":false,"is_disabled":false,"rental_uris":{"android":"levelo://app?vid=0c78749a-5428-4fb8-802b-98f57c51ba3d","ios":"levelo://app?vid=0c78749a-5428-4fb8-802b-98f57c51ba3d"},"vehicle_type_id":"4","last_reported":1753850101,"current_range_meters":10800,"station_id":"ce4bhoh2rcd13ifvqh6g","pricing_plan_id":"cebpf4jnsgd1na2vs0mg"},{"bike_id":"379c7f09-561d-4db9-a25a-8bd9b697a9df","system_id":"levelo_inurba_marseille","lat":43.2858,"lon":5.39485,"is_reserved":false,"is_disabled":false,"rental_uris":{"android":"levelo://app?vid=379c7f09-561d-4db9-a25a-8bd9b697a9df","ios":"levelo://app?vid=379c7f09-561d-4db9-a25a-8bd9b697a9df"},"vehicle_type_id":"4","last_reported":1753850101,"current_range_meters":10800,"station_id":"ce4bh292rcd13ifvqdg0","pricing_plan_id":"cebpf4jnsgd1na2vs0mg"},{"bike_id":"e9624a09-b572-4bcb-944b-ef4683557984","system_id":"levelo_inurba_marseille","lat":43.23084,"lon":5.35493,"is_reserved":false,"is_disabled":false,"rental_uris":{"android":"levelo://app?vid=e9624a09-b572-4bcb-944b-ef4683557984","ios":"levelo://app?vid=e9624a09-b572-4bcb-944b-ef4683557984"},"vehicle_type_id":"4","last_reported":1753850101,"current_range_meters":10800,"station_id":"cpo3342slgdg3j2ifvpg","pricing_plan_id":"cebpf4jnsgd1na2vs0mg"},{"bike_id":"b9b447f4-afe9-4e23-aaf0-b35a30289b9a","system_id":"levelo_inurba_marseille","lat":43.274951,"lon":5.424544,"is_reserved":false,"is_disabled":false,"rental_uris":{"android":"levelo://app?vid=b9b447f4-afe9-4e23-aaf0-b35a30289b9a","ios":"levelo://app?vid=b9b447f4-afe9-4e23-aaf0-b35a30289b9a"},"vehicle_type_id":"4","last_reported":1753850101,"current_range_meters":10800,"station_id":"ce4bhn92rcd13ifvqgrg","pricing_plan_id":"cebpf4jnsgd1na2vs0mg"},{"bike_id":"3f2e4588-2f11-45a0-9570-5e81f866b02f","system_id":"levelo_inurba_marseille","lat":43.31692,"lon":5.37963,"is_reserved":false,"is_disabled":false,"rental_uris":{"android":"levelo://app?vid=3f2e4588-2f11-45a0-9570-5e81f866b02f","ios":"levelo://app?vid=3f2e4588-2f11-45a0-9570-5e81f866b02f"},"vehicle_type_id":"4","last_reported":1753850101,"current_range_meters":11200,"station_id":"ce4bgth2rcd13ifvqch0","pricing_plan_id":"cebpf4jnsgd1na2vs0mg"},{"bike_id":"b7234136-bf62-4ef1-9964-a9c43529d354","system_id":"levelo_inurba_marseille","lat":43.318376,"lon":5.393868,"is_reserved":false,"is_disabled":false,"rental_uris":{"android":"levelo://app?vid=b7234136-bf62-4ef1-9964-a9c43529d354","ios":"levelo://app?vid=b7234136-bf62-4ef1-9964-a9c43529d354"},"vehicle_type_id":"4","last_reported":1753850101,"current_range_meters":11200,"station_id":"","pricing_plan_id":"cebpf4jnsgd1na2vs0mg"},{"bike_id":"b93ce78a-91c6-4fce-9307-3a583d277b06","system_id":"levelo_inurba_marseille","lat":43.28726,"lon":5.37943,"is_reserved":false,"is_disabled":true,"rental_uris":{"android":"levelo://app?vid=b93ce78a-91c6-4fce-9307-3a583d277b06","ios":"levelo://app?vid=b93ce78a-91c6-4fce-9307-3a583d277b06"},"vehicle_type_id":"4","last_reported":1753850101,"current_range_meters":11200,"station_id":"ce4bh9p2rcd13ifvqec0","pricing_plan_id":"cebpf4jnsgd1na2vs0mg"},{"bike_id":"65d35f57-f19e-4542-be24-6bcd4d29001d","system_id":"levelo_inurba_marseille","lat":43.269442,"lon":5.402587,"is_reserved":false,"is_disabled":false,"rental_uris":{"android":"levelo://app?vid=65d35f57-f19e-4542-be24-6bcd4d29001d","ios":"levelo://app?vid=65d35f57-f19e-4542-be24-6bcd4d29001d"},"vehicle_type_id":"4","last_reported":1753850101,"current_range_meters":11200,"station_id":"cjm6bp8fraef2m0cb0m0","pricing_plan_id":"cebpf4jnsgd1na2vs0mg"},{"bike_id":"e137dc03-26cf-440c-b3ea-1ea522645199","system_id":"levelo_inurba_marseille","lat":43.280815,"lon":5.396626,"is_reserved":false,"is_disabled":false,"rental_uris":{"android":"levelo://app?vid=e137dc03-26cf-440c-b3ea-1ea522645199","ios":"levelo://app?vid=e137dc03-26cf-440c-b3ea-1ea522645199"},"vehicle_type_id":"4","last_reported":1753850101,"current_range_meters":11200,"station_id":"","pricing_plan_id":"cebpf4jnsgd1na2vs0mg"},{"bike_id":"1ae5d7eb-1e99-401d-bdff-f20d11a3625e","system_id":"levelo_inurba_marseille","lat":43.30326,"lon":5.40448,"is_reserved":false,"is_disabled":true,"rental_uris":{"android":"levelo://app?vid=1ae5d7eb-1e99-401d-bdff-f20d11a3625e","ios":"levelo://app?vid=1ae5d7eb-1e99-401d-bdff-f20d11a3625e"},"vehicle_type_id":"4","last_reported":1753850101,"current_range_meters":11200,"station_id":"ce4bh012rcd13ifvqd10","pricing_plan_id":"cebpf4jnsgd1na2vs0mg"},{"bike_id":"d29b62cf-4142-4fac-87d5-e64841551607","system_id":"levelo_inurba_marseille","lat":43.25088,"lon":5.39533,"is_reserved":false,"is_disabled":false,"rental_uris":{"android":"levelo://app?vid=d29b62cf-4142-4fac-87d5-e64841551607","ios":"levelo://app?vid=d29b62cf-4142-4fac-87d5-e64841551607"},"vehicle_type_id":"4","last_reported":1753850101,"current_range_meters":11600,"station_id":"ce4bhm12rcd13ifvqgkg","pricing_plan_id":"cebpf4jnsgd1na2vs0mg"},{"bike_id":"ab666d87-3e70-4814-9ff2-9c4c5eb8d522","system_id":"levelo_inurba_marseille","lat":43.3213,"lon":5.36778,"is_reserved":false,"is_disabled":false,"rental_uris":{"android":"levelo://app?vid=ab666d87-3e70-4814-9ff2-9c4c5eb8d522","ios":"levelo://app?vid=ab666d87-3e70-4814-9ff2-9c4c5eb8d522"},"vehicle_type_id":"4","last_reported":1753850101,"current_range_meters":11600,"station_id":"ce4bhrh2rcd13ifvqhug","pricing_plan_id":"cebpf4jnsgd1na2vs0mg"},{"bike_id":"6f9e6bbb-593d-4070-9a34-8bc5260eae69","system_id":"levelo_inurba_marseille","lat":43.30324,"lon":5.40446,"is_reserved":false,"is_disabled":false,"rental_uris":{"android":"levelo://app?vid=6f9e6bbb-593d-4070-9a34-8bc5260eae69","ios":"levelo://app?vid=6f9e6bbb-593d-4070-9a34-8bc5260eae69"},"vehicle_type_id":"4","last_reported":1753850101,"current_range_meters":11600,"station_id":"ce4bh012rcd13ifvqd10","pricing_plan_id":"cebpf4jnsgd1na2vs0mg"},{"bike_id":"a027973f-c8c9-4811-a512-806c935b4c27","system_id":"levelo_inurba_marseille","lat":43.21194,"lon":5.35072,"is_reserved":false,"is_disabled":true,"rental_uris":{"android":"levelo://app?vid=a027973f-c8c9-4811-a512-806c935b4c27","ios":"levelo://app?vid=a027973f-c8c9-4811-a512-806c935b4c27"},"vehicle_type_id":"4","last_reported":1753850101,"current_range_meters":11600,"station_id":"st_cvj6sg6p6f1abm77japg","pricing_plan_id":"cebpf4jnsgd1na2vs0mg"},{"bike_id":"d4262456-4f90-44b0-beb5-c32eea029bc0","system_id":"levelo_inurba_marseille","lat":43.23184,"lon":5.39995,"is_reserved":false,"is_disabled":false,"rental_uris":{"android":"levelo://app?vid=d4262456-4f90-44b0-beb5-c32eea029bc0","ios":"levelo://app?vid=d4262456-4f90-44b0-beb5-c32eea029bc0"},"vehicle_type_id":"4","last_reported":1753850101,"current_range_meters":11600,"station_id":"ce4bhn12rcd13ifvqgqg","pricing_plan_id":"cebpf4jnsgd1na2vs0mg"},{"bike_id":"2ed28334-e2e8-4399-8505-80cc232e6b4b","system_id":"levelo_inurba_marseille","lat":43.28461,"lon":5.3753,"is_reserved":false,"is_disabled":false,"rental_uris":{"android":"levelo://app?vid=2ed28334-e2e8-4399-8505-80cc232e6b4b","ios":"levelo://app?vid=2ed28334-e2e8-4399-8505-80cc232e6b4b"},"vehicle_type_id":"4","last_reported":1753850101,"current_range_meters":11600,"station_id":"","pricing_plan_id":"cebpf4jnsgd1na2vs0mg"},{"bike_id":"df12338b-d013-4f63-ab4c-a73a6173c766","system_id":"levelo_inurba_marseille","lat":43.2897,"lon":5.37828,"is_reserved":false,"is_disabled":false,"rental_uris":{"android":"levelo://app?vid=df12338b-d013-4f63-ab4c-a73a6173c766","ios":"levelo://app?vid=df12338b-d013-4f63-ab4c-a73a6173c766"},"vehicle_type_id":"4","last_reported":1753850101,"current_range_meters":11600,"station_id":"ce4bh9p2rcd13ifvqed0","pricing_plan_id":"cebpf4jnsgd1na2vs0mg"},{"bike_id":"ed2653a8-cef8-419b-b19a-e1a7f6058aa9","system_id":"levelo_inurba_marseille","lat":43.23206,"lon":5.35556,"is_reserved":false,"is_disabled":false,"rental_uris":{"android":"levelo://app?vid=ed2653a8-cef8-419b-b19a-e1a7f6058aa9","ios":"levelo://app?vid=ed2653a8-cef8-419b-b19a-e1a7f6058aa9"},"vehicle_type_id":"4","last_reported":1753850101,"current_range_meters":12000,"station_id":"ce4bhu92rcd13ifvqi70","pricing_plan_id":"cebpf4jnsgd1na2vs0mg"},{"bike_id":"a3dee983-3a57-4c3f-81b3-946d59684355","system_id":"levelo_inurba_marseille","lat":43.30958,"lon":5.39035,"is_reserved":false,"is_disabled":false,"rental_uris":{"android":"levelo://app?vid=a3dee983-3a57-4c3f-81b3-946d59684355","ios":"levelo://app?vid=a3dee983-3a57-4c3f-81b3-946d59684355"},"vehicle_type_id":"4","last_reported":1753850101,"current_range_meters":12000,"station_id":"ce4bgup2rcd13ifvqco0","pricing_plan_id":"cebpf4jnsgd1na2vs0mg"},{"bike_id":"e8a0c05d-7272-4138-a1f4-e9de17058e9b","system_id":"levelo_inurba_marseille","lat":43.282716,"lon":5.350543,"is_reserved":false,"is_disabled":true,"rental_uris":{"android":"levelo://app?vid=e8a0c05d-7272-4138-a1f4-e9de17058e9b","ios":"levelo://app?vid=e8a0c05d-7272-4138-a1f4-e9de17058e9b"},"vehicle_type_id":"4","last_reported":1753850101,"current_range_meters":12000,"station_id":"ce4bhbp2rcd13ifvqerg","pricing_plan_id":"cebpf4jnsgd1na2vs0mg"},{"bike_id":"3e632e67-e785-475b-93e1-b0a668624c02","system_id":"levelo_inurba_marseille","lat":43.281619,"lon":5.426197,"is_reserved":false,"is_disabled":false,"rental_uris":{"android":"levelo://app?vid=3e632e67-e785-475b-93e1-b0a668624c02","ios":"levelo://app?vid=3e632e67-e785-475b-93e1-b0a668624c02"},"vehicle_type_id":"4","last_reported":1753850101,"current_range_meters":12000,"station_id":"ce4bhnh2rcd13ifvqgug","pricing_plan_id":"cebpf4jnsgd1na2vs0mg"},{"bike_id":"ef65f066-de96-432a-a3bf-b1b3ad0e62a1","system_id":"levelo_inurba_marseille","lat":43.321015,"lon":5.367645,"is_reserved":false,"is_disabled":false,"rental_uris":{"android":"levelo://app?vid=ef65f066-de96-432a-a3bf-b1b3ad0e62a1","ios":"levelo://app?vid=ef65f066-de96-432a-a3bf-b1b3ad0e62a1"},"vehicle_type_id":"4","last_reported":1753850101,"current_range_meters":12000,"station_id":"ce4bhrh2rcd13ifvqhug","pricing_plan_id":"cebpf4jnsgd1na2vs0mg"},{"bike_id":"5af96fbf-8e7d-48b2-940d-ad1702f3b7c6","system_id":"levelo_inurba_marseille","lat":43.28609,"lon":5.37054,"is_reserved":false,"is_disabled":false,"rental_uris":{"android":"levelo://app?vid=5af96fbf-8e7d-48b2-940d-ad1702f3b7c6","ios":"levelo://app?vid=5af96fbf-8e7d-48b2-940d-ad1702f3b7c6"},"vehicle_type_id":"4","last_reported":1753850101,"current_range_meters":12400,"station_id":"ce4bht12rcd13ifvqi60","pricing_plan_id":"cebpf4jnsgd1na2vs0mg"},{"bike_id":"b48f5dd0-6dba-4454-bab2-8fe0e77c0439","system_id":"levelo_inurba_marseille","lat":43.24175,"lon":5.36408,"is_reserved":false,"is_disabled":false,"rental_uris":{"android":"levelo://app?vid=b48f5dd0-6dba-4454-bab2-8fe0e77c0439","ios":"levelo://app?vid=b48f5dd0-6dba-4454-bab2-8fe0e77c0439"},"vehicle_type_id":"4","last_reported":1753850101,"current_range_meters":12400,"station_id":"cpo36qri1sfpv3e86is0","pricing_plan_id":"cebpf4jnsgd1na2vs0mg"},{"bike_id":"938becca-5de5-4c97-bb97-3e45de7eff02","system_id":"levelo_inurba_marseille","lat":43.23197,"lon":5.39987,"is_reserved":false,"is_disabled":false,"rental_uris":{"android":"levelo://app?vid=938becca-5de5-4c97-bb97-3e45de7eff02","ios":"levelo://app?vid=938becca-5de5-4c97-bb97-3e45de7eff02"},"vehicle_type_id":"4","last_reported":1753850101,"current_range_meters":12400,"station_id":"ce4bhn12rcd13ifvqgqg","pricing_plan_id":"cebpf4jnsgd1na2vs0mg"},{"bike_id":"91e673d4-c8d9-4e81-a0e8-9221155bd169","system_id":"levelo_inurba_marseille","lat":43.292791,"lon":5.401313,"is_reserved":false,"is_disabled":false,"rental_uris":{"android":"levelo://app?vid=91e673d4-c8d9-4e81-a0e8-9221155bd169","ios":"levelo://app?vid=91e673d4-c8d9-4e81-a0e8-9221155bd169"},"vehicle_type_id":"4","last_reported":1753850101,"current_range_meters":12400,"station_id":"ce4bh312rcd13ifvqdk0","pricing_plan_id":"cebpf4jnsgd1na2vs0mg"},{"bike_id":"00de3457-bb26-4f86-be97-d29604933a4d","system_id":"levelo_inurba_marseille","lat":43.28641,"lon":5.37186,"is_reserved":false,"is_disabled":false,"rental_uris":{"android":"levelo://app?vid=00de3457-bb26-4f86-be97-d29604933a4d","ios":"levelo://app?vid=00de3457-bb26-4f86-be97-d29604933a4d"},"vehicle_type_id":"4","last_reported":1753850101,"current_range_meters":12400,"station_id":"","pricing_plan_id":"cebpf4jnsgd1na2vs0mg"},{"bike_id":"ab9c577b-9cc3-4d9b-9e71-2ee231744295","system_id":"levelo_inurba_marseille","lat":43.281013,"lon":5.383179,"is_reserved":false,"is_disabled":false,"rental_uris":{"android":"levelo://app?vid=ab9c577b-9cc3-4d9b-9e71-2ee231744295","ios":"levelo://app?vid=ab9c577b-9cc3-4d9b-9e71-2ee231744295"},"vehicle_type_id":"4","last_reported":1753850101,"current_range_meters":12800,"station_id":"","pricing_plan_id":"cebpf4jnsgd1na2vs0mg"},{"bike_id":"7affa337-61a5-473f-b69b-b897050ac690","system_id":"levelo_inurba_marseille","lat":43.28741,"lon":5.36109,"is_reserved":false,"is_disabled":false,"rental_uris":{"android":"levelo://app?vid=7affa337-61a5-473f-b69b-b897050ac690","ios":"levelo://app?vid=7affa337-61a5-473f-b69b-b897050ac690"},"vehicle_type_id":"4","last_reported":1753850101,"current_range_meters":12800,"station_id":"cki0cbj6b192h4jlfktg","pricing_plan_id":"cebpf4jnsgd1na2vs0mg"},{"bike_id":"74a75414-a993-47e8-9f4a-1404e33b13ef","system_id":"levelo_inurba_marseille","lat":43.24072,"lon":5.37741,"is_reserved":false,"is_disabled":false,"rental_uris":{"android":"levelo://app?vid=74a75414-a993-47e8-9f4a-1404e33b13ef","ios":"levelo://app?vid=74a75414-a993-47e8-9f4a-1404e33b13ef"},"vehicle_type_id":"4","last_reported":1753850101,"current_range_meters":12800,"station_id":"ce4bhnp2rcd13ifvqgvg","pricing_plan_id":"cebpf4jnsgd1na2vs0mg"},{"bike_id":"cb30d5a1-6776-4ffa-b252-5340200d88d2","system_id":"levelo_inurba_marseille","lat":43.25119,"lon":5.40324,"is_reserved":false,"is_disabled":false,"rental_uris":{"android":"levelo://app?vid=cb30d5a1-6776-4ffa-b252-5340200d88d2","ios":"levelo://app?vid=cb30d5a1-6776-4ffa-b252-5340200d88d2"},"vehicle_type_id":"4","last_reported":1753850101,"current_range_meters":12800,"station_id":"ce4bhlh2rcd13ifvqgig","pricing_plan_id":"cebpf4jnsgd1na2vs0mg"},{"bike_id":"8e636ccc-6fcd-4bdc-8a89-ed20c26deba9","system_id":"levelo_inurba_marseille","lat":43.231971,"lon":5.355516,"is_reserved":false,"is_disabled":false,"rental_uris":{"android":"levelo://app?vid=8e636ccc-6fcd-4bdc-8a89-ed20c26deba9","ios":"levelo://app?vid=8e636ccc-6fcd-4bdc-8a89-ed20c26deba9"},"vehicle_type_id":"4","last_reported":1753850101,"current_range_meters":12800,"station_id":"ce4bhu92rcd13ifvqi70","pricing_plan_id":"cebpf4jnsgd1na2vs0mg"},{"bike_id":"6e3a33cf-6db8-41ba-afc9-c1d2b182f000","system_id":"levelo_inurba_marseille","lat":43.28698,"lon":5.39979,"is_reserved":false,"is_disabled":false,"rental_uris":{"android":"levelo://app?vid=6e3a33cf-6db8-41ba-afc9-c1d2b182f000","ios":"levelo://app?vid=6e3a33cf-6db8-41ba-afc9-c1d2b182f000"},"vehicle_type_id":"4","last_reported":1753850101,"current_range_meters":13600,"station_id":"ce4bho92rcd13ifvqh3g","pricing_plan_id":"cebpf4jnsgd1na2vs0mg"},{"bike_id":"3c65e3a4-d98b-4db2-8d36-951b9612ba65","system_id":"levelo_inurba_marseille","lat":43.23198,"lon":5.35556,"is_reserved":false,"is_disabled":false,"rental_uris":{"android":"levelo://app?vid=3c65e3a4-d98b-4db2-8d36-951b9612ba65","ios":"levelo://app?vid=3c65e3a4-d98b-4db2-8d36-951b9612ba65"},"vehicle_type_id":"4","last_reported":1753850101,"current_range_meters":13600,"station_id":"ce4bhu92rcd13ifvqi70","pricing_plan_id":"cebpf4jnsgd1na2vs0mg"},{"bike_id":"58d60ef7-501e-48a0-a97f-c0e09ff3aab0","system_id":"levelo_inurba_marseille","lat":43.222792,"lon":5.345958,"is_reserved":false,"is_disabled":false,"rental_uris":{"android":"levelo://app?vid=58d60ef7-501e-48a0-a97f-c0e09ff3aab0","ios":"levelo://app?vid=58d60ef7-501e-48a0-a97f-c0e09ff3aab0"},"vehicle_type_id":"4","last_reported":1753850101,"current_range_meters":13600,"station_id":"ce4bhp92rcd13ifvqhag","pricing_plan_id":"cebpf4jnsgd1na2vs0mg"},{"bike_id":"de0d17df-be84-4879-a59f-baa4ec3324c5","system_id":"levelo_inurba_marseille","lat":43.308791,"lon":5.396515,"is_reserved":false,"is_disabled":false,"rental_uris":{"android":"levelo://app?vid=de0d17df-be84-4879-a59f-baa4ec3324c5","ios":"levelo://app?vid=de0d17df-be84-4879-a59f-baa4ec3324c5"},"vehicle_type_id":"4","last_reported":1753850101,"current_range_meters":13600,"station_id":"ce4bh012rcd13ifvqcv0","pricing_plan_id":"cebpf4jnsgd1na2vs0mg"},{"bike_id":"135ab1ea-fc9a-4785-9240-6bfa3adf7c7c","system_id":"levelo_inurba_marseille","lat":43.32354,"lon":5.36719,"is_reserved":false,"is_disabled":false,"rental_uris":{"android":"levelo://app?vid=135ab1ea-fc9a-4785-9240-6bfa3adf7c7c","ios":"levelo://app?vid=135ab1ea-fc9a-4785-9240-6bfa3adf7c7c"},"vehicle_type_id":"4","last_reported":1753850101,"current_range_meters":14000,"station_id":"ce4bhsh2rcd13ifvqi2g","pricing_plan_id":"cebpf4jnsgd1na2vs0mg"},{"bike_id":"22a76ee8-f553-454b-8e2c-89c9a43fef04","system_id":"levelo_inurba_marseille","lat":43.25818,"lon":5.39427,"is_reserved":false,"is_disabled":false,"rental_uris":{"android":"levelo://app?vid=22a76ee8-f553-454b-8e2c-89c9a43fef04","ios":"levelo://app?vid=22a76ee8-f553-454b-8e2c-89c9a43fef04"},"vehicle_type_id":"4","last_reported":1753850101,"current_range_meters":14000,"station_id":"ce4bhip2rcd13ifvqft0","pricing_plan_id":"cebpf4jnsgd1na2vs0mg"},{"bike_id":"e835e740-02a8-4b55-b83d-8f7e332e158e","system_id":"levelo_inurba_marseille","lat":43.2306,"lon":5.35488,"is_reserved":false,"is_disabled":false,"rental_uris":{"android":"levelo://app?vid=e835e740-02a8-4b55-b83d-8f7e332e158e","ios":"levelo://app?vid=e835e740-02a8-4b55-b83d-8f7e332e158e"},"vehicle_type_id":"4","last_reported":1753850101,"current_range_meters":14000,"station_id":"cpo3342slgdg3j2ifvpg","pricing_plan_id":"cebpf4jnsgd1na2vs0mg"},{"bike_id":"671701a9-7243-46ba-9df9-fa49b6935265","system_id":"levelo_inurba_marseille","lat":43.25986,"lon":5.37235,"is_reserved":false,"is_disabled":false,"rental_uris":{"android":"levelo://app?vid=671701a9-7243-46ba-9df9-fa49b6935265","ios":"levelo://app?vid=671701a9-7243-46ba-9df9-fa49b6935265"},"vehicle_type_id":"4","last_reported":1753850101,"current_range_meters":14000,"station_id":"","pricing_plan_id":"cebpf4jnsgd1na2vs0mg"},{"bike_id":"f129605f-c561-462b-9dd8-38b1fae764e6","system_id":"levelo_inurba_marseille","lat":43.323589,"lon":5.367605,"is_reserved":false,"is_disabled":false,"rental_uris":{"android":"levelo://app?vid=f129605f-c561-462b-9dd8-38b1fae764e6","ios":"levelo://app?vid=f129605f-c561-462b-9dd8-38b1fae764e6"},"vehicle_type_id":"4","last_reported":1753850101,"current_range_meters":14000,"station_id":"ce4bhsh2rcd13ifvqi2g","pricing_plan_id":"cebpf4jnsgd1na2vs0mg"},{"bike_id":"aafc3bc1-c1be-40f5-91e7-c27bec18fc48","system_id":"levelo_inurba_marseille","lat":43.2721,"lon":5.41012,"is_reserved":false,"is_disabled":false,"rental_uris":{"android":"levelo://app?vid=aafc3bc1-c1be-40f5-91e7-c27bec18fc48","ios":"levelo://app?vid=aafc3bc1-c1be-40f5-91e7-c27bec18fc48"},"vehicle_type_id":"4","last_reported":1753850101,"current_range_meters":14000,"station_id":"ce4bhl12rcd13ifvqgf0","pricing_plan_id":"cebpf4jnsgd1na2vs0mg"},{"bike_id":"b88aa36c-4795-4c3e-b696-59169e52bcb0","system_id":"levelo_inurba_marseille","lat":43.30156,"lon":5.3808,"is_reserved":false,"is_disabled":false,"rental_uris":{"android":"levelo://app?vid=b88aa36c-4795-4c3e-b696-59169e52bcb0","ios":"levelo://app?vid=b88aa36c-4795-4c3e-b696-59169e52bcb0"},"vehicle_type_id":"4","last_reported":1753850101,"current_range_meters":14000,"station_id":"ce4bgjp2rcd13ifvqbh0","pricing_plan_id":"cebpf4jnsgd1na2vs0mg"},{"bike_id":"07011de4-93e6-44b9-910b-3084325b7fe4","system_id":"levelo_inurba_marseille","lat":43.326906,"lon":5.395548,"is_reserved":false,"is_disabled":false,"rental_uris":{"android":"levelo://app?vid=07011de4-93e6-44b9-910b-3084325b7fe4","ios":"levelo://app?vid=07011de4-93e6-44b9-910b-3084325b7fe4"},"vehicle_type_id":"4","last_reported":1753850101,"current_range_meters":14000,"station_id":"","pricing_plan_id":"cebpf4jnsgd1na2vs0mg"},{"bike_id":"bcba03fc-3275-4c0b-9227-f96dc3dc2c55","system_id":"levelo_inurba_marseille","lat":43.305904,"lon":5.39354,"is_reserved":false,"is_disabled":false,"rental_uris":{"android":"levelo://app?vid=bcba03fc-3275-4c0b-9227-f96dc3dc2c55","ios":"levelo://app?vid=bcba03fc-3275-4c0b-9227-f96dc3dc2c55"},"vehicle_type_id":"4","last_reported":1753850101,"current_range_meters":14000,"station_id":"ce4bh0p2rcd13ifvqd80","pricing_plan_id":"cebpf4jnsgd1na2vs0mg"},{"bike_id":"259beaaa-a448-46d7-a981-9571b80c18c3","system_id":"levelo_inurba_marseille","lat":43.26581,"lon":5.39022,"is_reserved":false,"is_disabled":false,"rental_uris":{"android":"levelo://app?vid=259beaaa-a448-46d7-a981-9571b80c18c3","ios":"levelo://app?vid=259beaaa-a448-46d7-a981-9571b80c18c3"},"vehicle_type_id":"4","last_reported":1753850101,"current_range_meters":14000,"station_id":"ce4bhe12rcd13ifvqf30","pricing_plan_id":"cebpf4jnsgd1na2vs0mg"},{"bike_id":"006989d0-e964-4aa4-ad1e-5b81a65c337e","system_id":"levelo_inurba_marseille","lat":43.30803,"lon":5.38158,"is_reserved":false,"is_disabled":true,"rental_uris":{"android":"levelo://app?vid=006989d0-e964-4aa4-ad1e-5b81a65c337e","ios":"levelo://app?vid=006989d0-e964-4aa4-ad1e-5b81a65c337e"},"vehicle_type_id":"4","last_reported":1753850101,"current_range_meters":14000,"station_id":"ce4bgt12rcd13ifvqce0","pricing_plan_id":"cebpf4jnsgd1na2vs0mg"},{"bike_id":"b6779396-67bd-4011-85e1-0c4683200eb0","system_id":"levelo_inurba_marseille","lat":43.270607,"lon":5.402587,"is_reserved":false,"is_disabled":false,"rental_uris":{"android":"levelo://app?vid=b6779396-67bd-4011-85e1-0c4683200eb0","ios":"levelo://app?vid=b6779396-67bd-4011-85e1-0c4683200eb0"},"vehicle_type_id":"4","last_reported":1753850101,"current_range_meters":14400,"station_id":"ce4bhk92rcd13ifvqgc0","pricing_plan_id":"cebpf4jnsgd1na2vs0mg"},{"bike_id":"7ae9a301-af81-4c61-b264-f97fbac78c92","system_id":"levelo_inurba_marseille","lat":43.248186,"lon":5.374582,"is_reserved":false,"is_disabled":false,"rental_uris":{"android":"levelo://app?vid=7ae9a301-af81-4c61-b264-f97fbac78c92","ios":"levelo://app?vid=7ae9a301-af81-4c61-b264-f97fbac78c92"},"vehicle_type_id":"4","last_reported":1753850101,"current_range_meters":14400,"station_id":"ce4bhgh2rcd13ifvqfb0","pricing_plan_id":"cebpf4jnsgd1na2vs0mg"},{"bike_id":"d21cf85e-93be-41cf-89bc-b6d8451767e4","system_id":"levelo_inurba_marseille","lat":43.26239,"lon":5.40425,"is_reserved":false,"is_disabled":false,"rental_uris":{"android":"levelo://app?vid=d21cf85e-93be-41cf-89bc-b6d8451767e4","ios":"levelo://app?vid=d21cf85e-93be-41cf-89bc-b6d8451767e4"},"vehicle_type_id":"4","last_reported":1753850101,"current_range_meters":14400,"station_id":"ce4bhmh2rcd13ifvqgmg","pricing_plan_id":"cebpf4jnsgd1na2vs0mg"},{"bike_id":"2c96482c-7c37-44ec-b62d-de8f2cc1df2e","system_id":"levelo_inurba_marseille","lat":43.28703,"lon":5.39975,"is_reserved":false,"is_disabled":false,"rental_uris":{"android":"levelo://app?vid=2c96482c-7c37-44ec-b62d-de8f2cc1df2e","ios":"levelo://app?vid=2c96482c-7c37-44ec-b62d-de8f2cc1df2e"},"vehicle_type_id":"4","last_reported":1753850101,"current_range_meters":14400,"station_id":"ce4bho92rcd13ifvqh3g","pricing_plan_id":"cebpf4jnsgd1na2vs0mg"},{"bike_id":"78360323-48b6-4c4e-b563-a9abfd01f51a","system_id":"levelo_inurba_marseille","lat":43.308875,"lon":5.396328,"is_reserved":false,"is_disabled":false,"rental_uris":{"android":"levelo://app?vid=78360323-48b6-4c4e-b563-a9abfd01f51a","ios":"levelo://app?vid=78360323-48b6-4c4e-b563-a9abfd01f51a"},"vehicle_type_id":"4","last_reported":1753850101,"current_range_meters":14400,"station_id":"ce4bh012rcd13ifvqcv0","pricing_plan_id":"cebpf4jnsgd1na2vs0mg"},{"bike_id":"056e4f3d-4ab7-42da-9834-2ca05b8a0f52","system_id":"levelo_inurba_marseille","lat":43.31475,"lon":5.36867,"is_reserved":false,"is_disabled":false,"rental_uris":{"android":"levelo://app?vid=056e4f3d-4ab7-42da-9834-2ca05b8a0f52","ios":"levelo://app?vid=056e4f3d-4ab7-42da-9834-2ca05b8a0f52"},"vehicle_type_id":"4","last_reported":1753850101,"current_range_meters":14400,"station_id":"","pricing_plan_id":"cebpf4jnsgd1na2vs0mg"},{"bike_id":"3d54e97c-ec3a-42f4-bf86-812f072159e8","system_id":"levelo_inurba_marseille","lat":43.28153,"lon":5.42618,"is_reserved":false,"is_disabled":false,"rental_uris":{"android":"levelo://app?vid=3d54e97c-ec3a-42f4-bf86-812f072159e8","ios":"levelo://app?vid=3d54e97c-ec3a-42f4-bf86-812f072159e8"},"vehicle_type_id":"4","last_reported":1753850101,"current_range_meters":14400,"station_id":"ce4bhnh2rcd13ifvqgug","pricing_plan_id":"cebpf4jnsgd1na2vs0mg"},{"bike_id":"f21fcc95-c903-468e-b7e9-10c54a09d878","system_id":"levelo_inurba_marseille","lat":43.29523,"lon":5.394,"is_reserved":false,"is_disabled":false,"rental_uris":{"android":"levelo://app?vid=f21fcc95-c903-468e-b7e9-10c54a09d878","ios":"levelo://app?vid=f21fcc95-c903-468e-b7e9-10c54a09d878"},"vehicle_type_id":"4","last_reported":1753850101,"current_range_meters":14400,"station_id":"ce4bh292rcd13ifvqdf0","pricing_plan_id":"cebpf4jnsgd1na2vs0mg"},{"bike_id":"51c9e8b5-716b-4aa5-bdbe-ae32f107bfbc","system_id":"levelo_inurba_marseille","lat":43.23206,"lon":5.35547,"is_reserved":false,"is_disabled":false,"rental_uris":{"android":"levelo://app?vid=51c9e8b5-716b-4aa5-bdbe-ae32f107bfbc","ios":"levelo://app?vid=51c9e8b5-716b-4aa5-bdbe-ae32f107bfbc"},"vehicle_type_id":"4","last_reported":1753850101,"current_range_meters":14800,"station_id":"ce4bhu92rcd13ifvqi70","pricing_plan_id":"cebpf4jnsgd1na2vs0mg"},{"bike_id":"8347bd29-03c6-4a32-a906-fc1337104bd5","system_id":"levelo_inurba_marseille","lat":43.30904,"lon":5.39676,"is_reserved":false,"is_disabled":false,"rental_uris":{"android":"levelo://app?vid=8347bd29-03c6-4a32-a906-fc1337104bd5","ios":"levelo://app?vid=8347bd29-03c6-4a32-a906-fc1337104bd5"},"vehicle_type_id":"4","last_reported":1753850101,"current_range_meters":14800,"station_id":"ce4bh012rcd13ifvqcv0","pricing_plan_id":"cebpf4jnsgd1na2vs0mg"},{"bike_id":"27121016-03d3-4670-9ce6-a156435b86ae","system_id":"levelo_inurba_marseille","lat":43.32342,"lon":5.40615,"is_reserved":false,"is_disabled":true,"rental_uris":{"android":"levelo://app?vid=27121016-03d3-4670-9ce6-a156435b86ae","ios":"levelo://app?vid=27121016-03d3-4670-9ce6-a156435b86ae"},"vehicle_type_id":"4","last_reported":1753850101,"current_range_meters":14800,"station_id":"ce4bhq92rcd13ifvqhjg","pricing_plan_id":"cebpf4jnsgd1na2vs0mg"},{"bike_id":"23cb5642-15b1-4dff-8751-77349dab4204","system_id":"levelo_inurba_marseille","lat":43.22947,"lon":5.35373,"is_reserved":false,"is_disabled":false,"rental_uris":{"android":"levelo://app?vid=23cb5642-15b1-4dff-8751-77349dab4204","ios":"levelo://app?vid=23cb5642-15b1-4dff-8751-77349dab4204"},"vehicle_type_id":"4","last_reported":1753850101,"current_range_meters":14800,"station_id":"cpo3532slgdg3j2ikp40","pricing_plan_id":"cebpf4jnsgd1na2vs0mg"},{"bike_id":"85d95a9a-bae1-4127-a50f-dff98ce29fd5","system_id":"levelo_inurba_marseille","lat":43.32473,"lon":5.37384,"is_reserved":false,"is_disabled":false,"rental_uris":{"android":"levelo://app?vid=85d95a9a-bae1-4127-a50f-dff98ce29fd5","ios":"levelo://app?vid=85d95a9a-bae1-4127-a50f-dff98ce29fd5"},"vehicle_type_id":"4","last_reported":1753850101,"current_range_meters":14800,"station_id":"","pricing_plan_id":"cebpf4jnsgd1na2vs0mg"},{"bike_id":"dad691be-fd3e-4d02-8c0f-f9e1b77bb50e","system_id":"levelo_inurba_marseille","lat":43.28415,"lon":5.37523,"is_reserved":false,"is_disabled":false,"rental_uris":{"android":"levelo://app?vid=dad691be-fd3e-4d02-8c0f-f9e1b77bb50e","ios":"levelo://app?vid=dad691be-fd3e-4d02-8c0f-f9e1b77bb50e"},"vehicle_type_id":"4","last_reported":1753850101,"current_range_meters":14800,"station_id":"ce4bh412rcd13ifvqds0","pricing_plan_id":"cebpf4jnsgd1na2vs0mg"},{"bike_id":"24ddc855-9db1-447b-8cc7-fb33f85a47fb","system_id":"levelo_inurba_marseille","lat":43.30595,"lon":5.37213,"is_reserved":false,"is_disabled":false,"rental_uris":{"android":"levelo://app?vid=24ddc855-9db1-447b-8cc7-fb33f85a47fb","ios":"levelo://app?vid=24ddc855-9db1-447b-8cc7-fb33f85a47fb"},"vehicle_type_id":"4","last_reported":1753850101,"current_range_meters":14800,"station_id":"ce4bgqh2rcd13ifvqc4g","pricing_plan_id":"cebpf4jnsgd1na2vs0mg"},{"bike_id":"7a2e82e0-8302-4549-adc9-89b5e6842920","system_id":"levelo_inurba_marseille","lat":43.32367,"lon":5.38871,"is_reserved":false,"is_disabled":false,"rental_uris":{"android":"levelo://app?vid=7a2e82e0-8302-4549-adc9-89b5e6842920","ios":"levelo://app?vid=7a2e82e0-8302-4549-adc9-89b5e6842920"},"vehicle_type_id":"4","last_reported":1753850101,"current_range_meters":14800,"station_id":"ce4bhqp2rcd13ifvqhog","pricing_plan_id":"cebpf4jnsgd1na2vs0mg"},{"bike_id":"a6a46ae2-d764-44ee-baf2-a76e49bd9084","system_id":"levelo_inurba_marseille","lat":43.26986,"lon":5.40248,"is_reserved":false,"is_disabled":false,"rental_uris":{"android":"levelo://app?vid=a6a46ae2-d764-44ee-baf2-a76e49bd9084","ios":"levelo://app?vid=a6a46ae2-d764-44ee-baf2-a76e49bd9084"},"vehicle_type_id":"4","last_reported":1753850101,"current_range_meters":14800,"station_id":"cjm6bp8fraef2m0cb0m0","pricing_plan_id":"cebpf4jnsgd1na2vs0mg"},{"bike_id":"c686771c-e4d6-4ee5-934b-f3ca190b833e","system_id":"levelo_inurba_marseille","lat":43.32765,"lon":5.39204,"is_reserved":false,"is_disabled":false,"rental_uris":{"android":"levelo://app?vid=c686771c-e4d6-4ee5-934b-f3ca190b833e","ios":"levelo://app?vid=c686771c-e4d6-4ee5-934b-f3ca190b833e"},"vehicle_type_id":"4","last_reported":1753850101,"current_range_meters":14800,"station_id":"","pricing_plan_id":"cebpf4jnsgd1na2vs0mg"},{"bike_id":"8ccd8114-1f0e-4b9c-85de-37a1f9beaba2","system_id":"levelo_inurba_marseille","lat":43.32384,"lon":5.40631,"is_reserved":false,"is_disabled":false,"rental_uris":{"android":"levelo://app?vid=8ccd8114-1f0e-4b9c-85de-37a1f9beaba2","ios":"levelo://app?vid=8ccd8114-1f0e-4b9c-85de-37a1f9beaba2"},"vehicle_type_id":"4","last_reported":1753850101,"current_range_meters":14800,"station_id":"ce4bhq92rcd13ifvqhjg","pricing_plan_id":"cebpf4jnsgd1na2vs0mg"},{"bike_id":"b3981504-66de-4d4d-88a4-7f2a1ee4eb0b","system_id":"levelo_inurba_marseille","lat":43.279642,"lon":5.387144,"is_reserved":false,"is_disabled":false,"rental_uris":{"android":"levelo://app?vid=b3981504-66de-4d4d-88a4-7f2a1ee4eb0b","ios":"levelo://app?vid=b3981504-66de-4d4d-88a4-7f2a1ee4eb0b"},"vehicle_type_id":"4","last_reported":1753850101,"current_range_meters":15200,"station_id":"ce4bhg12rcd13ifvqf80","pricing_plan_id":"cebpf4jnsgd1na2vs0mg"},{"bike_id":"2fad1b6f-d0b7-4211-9b9d-661d7c090096","system_id":"levelo_inurba_marseille","lat":43.29733,"lon":5.43194,"is_reserved":false,"is_disabled":false,"rental_uris":{"android":"levelo://app?vid=2fad1b6f-d0b7-4211-9b9d-661d7c090096","ios":"levelo://app?vid=2fad1b6f-d0b7-4211-9b9d-661d7c090096"},"vehicle_type_id":"4","last_reported":1753850101,"current_range_meters":15200,"station_id":"","pricing_plan_id":"cebpf4jnsgd1na2vs0mg"},{"bike_id":"2bba2e40-05a7-435a-b68f-75a0bcbf63b4","system_id":"levelo_inurba_marseille","lat":43.286973,"lon":5.399862,"is_reserved":false,"is_disabled":false,"rental_uris":{"android":"levelo://app?vid=2bba2e40-05a7-435a-b68f-75a0bcbf63b4","ios":"levelo://app?vid=2bba2e40-05a7-435a-b68f-75a0bcbf63b4"},"vehicle_type_id":"4","last_reported":1753850101,"current_range_meters":15200,"station_id":"ce4bho92rcd13ifvqh3g","pricing_plan_id":"cebpf4jnsgd1na2vs0mg"},{"bike_id":"2002cc2c-a47c-4777-8dac-3a5e369cf994","system_id":"levelo_inurba_marseille","lat":43.24697,"lon":5.38154,"is_reserved":false,"is_disabled":false,"rental_uris":{"android":"levelo://app?vid=2002cc2c-a47c-4777-8dac-3a5e369cf994","ios":"levelo://app?vid=2002cc2c-a47c-4777-8dac-3a5e369cf994"},"vehicle_type_id":"4","last_reported":1753850101,"current_range_meters":15200,"station_id":"ce4bhih2rcd13ifvqfr0","pricing_plan_id":"cebpf4jnsgd1na2vs0mg"},{"bike_id":"a36bd7ba-074a-442d-8f4e-bb3cc65a52a2","system_id":"levelo_inurba_marseille","lat":43.29222,"lon":5.39548,"is_reserved":false,"is_disabled":false,"rental_uris":{"android":"levelo://app?vid=a36bd7ba-074a-442d-8f4e-bb3cc65a52a2","ios":"levelo://app?vid=a36bd7ba-074a-442d-8f4e-bb3cc65a52a2"},"vehicle_type_id":"4","last_reported":1753850101,"current_range_meters":15200,"station_id":"","pricing_plan_id":"cebpf4jnsgd1na2vs0mg"},{"bike_id":"915513aa-2ef0-4e1b-9aa3-73608a47efab","system_id":"levelo_inurba_marseille","lat":43.22514,"lon":5.34768,"is_reserved":false,"is_disabled":false,"rental_uris":{"android":"levelo://app?vid=915513aa-2ef0-4e1b-9aa3-73608a47efab","ios":"levelo://app?vid=915513aa-2ef0-4e1b-9aa3-73608a47efab"},"vehicle_type_id":"4","last_reported":1753850101,"current_range_meters":15200,"station_id":"st_cvj5dfep6f1abm77gieg","pricing_plan_id":"cebpf4jnsgd1na2vs0mg"},{"bike_id":"48cc8468-c160-4e61-b081-29c69922da7e","system_id":"levelo_inurba_marseille","lat":43.295305,"lon":5.385364,"is_reserved":false,"is_disabled":false,"rental_uris":{"android":"levelo://app?vid=48cc8468-c160-4e61-b081-29c69922da7e","ios":"levelo://app?vid=48cc8468-c160-4e61-b081-29c69922da7e"},"vehicle_type_id":"4","last_reported":1753850101,"current_range_meters":16000,"station_id":"ce4bgih2rcd13ifvqba0","pricing_plan_id":"cebpf4jnsgd1na2vs0mg"},{"bike_id":"3d60e95a-8706-4e13-b31f-ac7a913f607a","system_id":"levelo_inurba_marseille","lat":43.22941,"lon":5.35412,"is_reserved":false,"is_disabled":false,"rental_uris":{"android":"levelo://app?vid=3d60e95a-8706-4e13-b31f-ac7a913f607a","ios":"levelo://app?vid=3d60e95a-8706-4e13-b31f-ac7a913f607a"},"vehicle_type_id":"4","last_reported":1753850101,"current_range_meters":16000,"station_id":"cpo3532slgdg3j2ikp40","pricing_plan_id":"cebpf4jnsgd1na2vs0mg"},{"bike_id":"3b0fc468-0f53-43b2-bdc9-2accbf6297e5","system_id":"levelo_inurba_marseille","lat":43.2965,"lon":5.37953,"is_reserved":false,"is_disabled":false,"rental_uris":{"android":"levelo://app?vid=3b0fc468-0f53-43b2-bdc9-2accbf6297e5","ios":"levelo://app?vid=3b0fc468-0f53-43b2-bdc9-2accbf6297e5"},"vehicle_type_id":"4","last_reported":1753850101,"current_range_meters":16000,"station_id":"","pricing_plan_id":"cebpf4jnsgd1na2vs0mg"},{"bike_id":"886bb3e8-befe-4194-bad0-5ad77f5653c8","system_id":"levelo_inurba_marseille","lat":43.24392,"lon":5.37059,"is_reserved":false,"is_disabled":true,"rental_uris":{"android":"levelo://app?vid=886bb3e8-befe-4194-bad0-5ad77f5653c8","ios":"levelo://app?vid=886bb3e8-befe-4194-bad0-5ad77f5653c8"},"vehicle_type_id":"4","last_reported":1753850101,"current_range_meters":16000,"station_id":"ce4bhhh2rcd13ifvqfk0","pricing_plan_id":"cebpf4jnsgd1na2vs0mg"},{"bike_id":"ae6c8428-e39e-40be-9df7-f418521aa777","system_id":"levelo_inurba_marseille","lat":43.22921,"lon":5.3538,"is_reserved":false,"is_disabled":false,"rental_uris":{"android":"levelo://app?vid=ae6c8428-e39e-40be-9df7-f418521aa777","ios":"levelo://app?vid=ae6c8428-e39e-40be-9df7-f418521aa777"},"vehicle_type_id":"4","last_reported":1753850101,"current_range_meters":16000,"station_id":"cpo3532slgdg3j2ikp40","pricing_plan_id":"cebpf4jnsgd1na2vs0mg"},{"bike_id":"b28ad17b-d26a-458a-b690-9100105ac419","system_id":"levelo_inurba_marseille","lat":43.30556,"lon":5.3844,"is_reserved":false,"is_disabled":false,"rental_uris":{"android":"levelo://app?vid=b28ad17b-d26a-458a-b690-9100105ac419","ios":"levelo://app?vid=b28ad17b-d26a-458a-b690-9100105ac419"},"vehicle_type_id":"4","last_reported":1753850101,"current_range_meters":16000,"station_id":"ce4bgg92rcd13ifvqb30","pricing_plan_id":"cebpf4jnsgd1na2vs0mg"},{"bike_id":"504cdefb-b23a-495e-b8a2-e174ca9ca716","system_id":"levelo_inurba_marseille","lat":43.31711,"lon":5.40436,"is_reserved":false,"is_disabled":false,"rental_uris":{"android":"levelo://app?vid=504cdefb-b23a-495e-b8a2-e174ca9ca716","ios":"levelo://app?vid=504cdefb-b23a-495e-b8a2-e174ca9ca716"},"vehicle_type_id":"4","last_reported":1753850101,"current_range_meters":16000,"station_id":"ce4bh012rcd13ifvqd00","pricing_plan_id":"cebpf4jnsgd1na2vs0mg"},{"bike_id":"96e3ef03-ebd1-4704-94c5-7f685f92d4dc","system_id":"levelo_inurba_marseille","lat":43.284072,"lon":5.375124,"is_reserved":false,"is_disabled":false,"rental_uris":{"android":"levelo://app?vid=96e3ef03-ebd1-4704-94c5-7f685f92d4dc","ios":"levelo://app?vid=96e3ef03-ebd1-4704-94c5-7f685f92d4dc"},"vehicle_type_id":"4","last_reported":1753850101,"current_range_meters":16000,"station_id":"ce4bh412rcd13ifvqds0","pricing_plan_id":"cebpf4jnsgd1na2vs0mg"},{"bike_id":"5ff7b424-be72-460e-9279-c80ac3b388ac","system_id":"levelo_inurba_marseille","lat":43.231826,"lon":5.39996,"is_reserved":false,"is_disabled":false,"rental_uris":{"android":"levelo://app?vid=5ff7b424-be72-460e-9279-c80ac3b388ac","ios":"levelo://app?vid=5ff7b424-be72-460e-9279-c80ac3b388ac"},"vehicle_type_id":"4","last_reported":1753850101,"current_range_meters":16000,"station_id":"ce4bhn12rcd13ifvqgqg","pricing_plan_id":"cebpf4jnsgd1na2vs0mg"},{"bike_id":"a5c4949a-9ef4-4776-a3f1-318fb7180b06","system_id":"levelo_inurba_marseille","lat":43.29809,"lon":5.39343,"is_reserved":false,"is_disabled":false,"rental_uris":{"android":"levelo://app?vid=a5c4949a-9ef4-4776-a3f1-318fb7180b06","ios":"levelo://app?vid=a5c4949a-9ef4-4776-a3f1-318fb7180b06"},"vehicle_type_id":"4","last_reported":1753850101,"current_range_meters":16000,"station_id":"chh1huq6cuj3fo74tm60","pricing_plan_id":"cebpf4jnsgd1na2vs0mg"},{"bike_id":"c6d2b353-b586-43d5-b1f7-22e236419d03","system_id":"levelo_inurba_marseille","lat":43.28453,"lon":5.35883,"is_reserved":false,"is_disabled":false,"rental_uris":{"android":"levelo://app?vid=c6d2b353-b586-43d5-b1f7-22e236419d03","ios":"levelo://app?vid=c6d2b353-b586-43d5-b1f7-22e236419d03"},"vehicle_type_id":"4","last_reported":1753850101,"current_range_meters":16000,"station_id":"ce4bhah2rcd13ifvqei0","pricing_plan_id":"cebpf4jnsgd1na2vs0mg"},{"bike_id":"9d009a5c-6f67-42c3-9e25-d85aa67efa67","system_id":"levelo_inurba_marseille","lat":43.239672,"lon":5.366253,"is_reserved":false,"is_disabled":false,"rental_uris":{"android":"levelo://app?vid=9d009a5c-6f67-42c3-9e25-d85aa67efa67","ios":"levelo://app?vid=9d009a5c-6f67-42c3-9e25-d85aa67efa67"},"vehicle_type_id":"4","last_reported":1753850101,"current_range_meters":16400,"station_id":"ce4bhi12rcd13ifvqfp0","pricing_plan_id":"cebpf4jnsgd1na2vs0mg"},{"bike_id":"7328b1c8-d06f-4d17-a31e-7808097b10f3","system_id":"levelo_inurba_marseille","lat":43.28945,"lon":5.36642,"is_reserved":false,"is_disabled":false,"rental_uris":{"android":"levelo://app?vid=7328b1c8-d06f-4d17-a31e-7808097b10f3","ios":"levelo://app?vid=7328b1c8-d06f-4d17-a31e-7808097b10f3"},"vehicle_type_id":"4","last_reported":1753850101,"current_range_meters":16400,"station_id":"ce4bhap2rcd13ifvqek0","pricing_plan_id":"cebpf4jnsgd1na2vs0mg"},{"bike_id":"b44d763b-4f92-4731-b76a-85ebcd91acd5","system_id":"levelo_inurba_marseille","lat":43.30203,"lon":5.37157,"is_reserved":false,"is_disabled":false,"rental_uris":{"android":"levelo://app?vid=b44d763b-4f92-4731-b76a-85ebcd91acd5","ios":"levelo://app?vid=b44d763b-4f92-4731-b76a-85ebcd91acd5"},"vehicle_type_id":"4","last_reported":1753850101,"current_range_meters":16400,"station_id":"","pricing_plan_id":"cebpf4jnsgd1na2vs0mg"},{"bike_id":"0aa3d069-0b2c-4ad8-afcb-33ace28f6be3","system_id":"levelo_inurba_marseille","lat":43.319994,"lon":5.38166,"is_reserved":false,"is_disabled":false,"rental_uris":{"android":"levelo://app?vid=0aa3d069-0b2c-4ad8-afcb-33ace28f6be3","ios":"levelo://app?vid=0aa3d069-0b2c-4ad8-afcb-33ace28f6be3"},"vehicle_type_id":"4","last_reported":1753850101,"current_range_meters":16400,"station_id":"ce4bhr12rcd13ifvqhpg","pricing_plan_id":"cebpf4jnsgd1na2vs0mg"},{"bike_id":"5f72df66-2d68-4c6e-a917-44e1dcfede98","system_id":"levelo_inurba_marseille","lat":43.22953,"lon":5.35371,"is_reserved":false,"is_disabled":false,"rental_uris":{"android":"levelo://app?vid=5f72df66-2d68-4c6e-a917-44e1dcfede98","ios":"levelo://app?vid=5f72df66-2d68-4c6e-a917-44e1dcfede98"},"vehicle_type_id":"4","last_reported":1753850101,"current_range_meters":16400,"station_id":"cpo3532slgdg3j2ikp40","pricing_plan_id":"cebpf4jnsgd1na2vs0mg"},{"bike_id":"6a664d4b-940c-4c07-9452-a9104589cf3a","system_id":"levelo_inurba_marseille","lat":43.295515,"lon":5.422844,"is_reserved":false,"is_disabled":true,"rental_uris":{"android":"levelo://app?vid=6a664d4b-940c-4c07-9452-a9104589cf3a","ios":"levelo://app?vid=6a664d4b-940c-4c07-9452-a9104589cf3a"},"vehicle_type_id":"4","last_reported":1753850101,"current_range_meters":16400,"station_id":"ce4bhph2rcd13ifvqhdg","pricing_plan_id":"cebpf4jnsgd1na2vs0mg"},{"bike_id":"0bdbae00-c3b8-4601-960f-1c9eb444ba0a","system_id":"levelo_inurba_marseille","lat":43.292796,"lon":5.401202,"is_reserved":false,"is_disabled":false,"rental_uris":{"android":"levelo://app?vid=0bdbae00-c3b8-4601-960f-1c9eb444ba0a","ios":"levelo://app?vid=0bdbae00-c3b8-4601-960f-1c9eb444ba0a"},"vehicle_type_id":"4","last_reported":1753850101,"current_range_meters":16400,"station_id":"ce4bh312rcd13ifvqdk0","pricing_plan_id":"cebpf4jnsgd1na2vs0mg"},{"bike_id":"cd172c79-5f9d-4139-99ef-b3c76db361b6","system_id":"levelo_inurba_marseille","lat":43.29868,"lon":5.39759,"is_reserved":false,"is_disabled":false,"rental_uris":{"android":"levelo://app?vid=cd172c79-5f9d-4139-99ef-b3c76db361b6","ios":"levelo://app?vid=cd172c79-5f9d-4139-99ef-b3c76db361b6"},"vehicle_type_id":"4","last_reported":1753850101,"current_range_meters":16400,"station_id":"ce4bh0h2rcd13ifvqd50","pricing_plan_id":"cebpf4jnsgd1na2vs0mg"},{"bike_id":"daabd21d-fe72-4bef-9caa-c5886e1b6fe4","system_id":"levelo_inurba_marseille","lat":43.319994,"lon":5.374569,"is_reserved":false,"is_disabled":false,"rental_uris":{"android":"levelo://app?vid=daabd21d-fe72-4bef-9caa-c5886e1b6fe4","ios":"levelo://app?vid=daabd21d-fe72-4bef-9caa-c5886e1b6fe4"},"vehicle_type_id":"4","last_reported":1753850101,"current_range_meters":16400,"station_id":"","pricing_plan_id":"cebpf4jnsgd1na2vs0mg"},{"bike_id":"2e1bdbd1-042c-4bf4-b623-908b6301c20d","system_id":"levelo_inurba_marseille","lat":43.281376,"lon":5.441941,"is_reserved":false,"is_disabled":false,"rental_uris":{"android":"levelo://app?vid=2e1bdbd1-042c-4bf4-b623-908b6301c20d","ios":"levelo://app?vid=2e1bdbd1-042c-4bf4-b623-908b6301c20d"},"vehicle_type_id":"4","last_reported":1753850101,"current_range_meters":16400,"station_id":"","pricing_plan_id":"cebpf4jnsgd1na2vs0mg"},{"bike_id":"bba660a4-64e7-41bf-a51f-980ab0eacd81","system_id":"levelo_inurba_marseille","lat":43.28698,"lon":5.37392,"is_reserved":false,"is_disabled":true,"rental_uris":{"android":"levelo://app?vid=bba660a4-64e7-41bf-a51f-980ab0eacd81","ios":"levelo://app?vid=bba660a4-64e7-41bf-a51f-980ab0eacd81"},"vehicle_type_id":"4","last_reported":1753850101,"current_range_meters":16400,"station_id":"ce4bh3p2rcd13ifvqdq0","pricing_plan_id":"cebpf4jnsgd1na2vs0mg"},{"bike_id":"746c3209-aa97-4d6e-bb69-2a85cdd5ec72","system_id":"levelo_inurba_marseille","lat":43.22538,"lon":5.34783,"is_reserved":false,"is_disabled":false,"rental_uris":{"android":"levelo://app?vid=746c3209-aa97-4d6e-bb69-2a85cdd5ec72","ios":"levelo://app?vid=746c3209-aa97-4d6e-bb69-2a85cdd5ec72"},"vehicle_type_id":"4","last_reported":1753850101,"current_range_meters":16400,"station_id":"st_cvj5dfep6f1abm77gieg","pricing_plan_id":"cebpf4jnsgd1na2vs0mg"},{"bike_id":"2c639bc2-f81d-441f-97b4-28c3af2e23ab","system_id":"levelo_inurba_marseille","lat":43.246517,"lon":5.38893,"is_reserved":false,"is_disabled":false,"rental_uris":{"android":"levelo://app?vid=2c639bc2-f81d-441f-97b4-28c3af2e23ab","ios":"levelo://app?vid=2c639bc2-f81d-441f-97b4-28c3af2e23ab"},"vehicle_type_id":"4","last_reported":1753850101,"current_range_meters":16400,"station_id":"ce4bhg12rcd13ifvqf60","pricing_plan_id":"cebpf4jnsgd1na2vs0mg"},{"bike_id":"189ffb50-6abf-43b3-bc9c-489863d3d195","system_id":"levelo_inurba_marseille","lat":43.2987,"lon":5.38901,"is_reserved":false,"is_disabled":false,"rental_uris":{"android":"levelo://app?vid=189ffb50-6abf-43b3-bc9c-489863d3d195","ios":"levelo://app?vid=189ffb50-6abf-43b3-bc9c-489863d3d195"},"vehicle_type_id":"4","last_reported":1753850101,"current_range_meters":16800,"station_id":"ce4bh392rcd13ifvqdl0","pricing_plan_id":"cebpf4jnsgd1na2vs0mg"},{"bike_id":"19295018-235d-4f62-9c12-0203c908e699","system_id":"levelo_inurba_marseille","lat":43.22924,"lon":5.3538,"is_reserved":false,"is_disabled":false,"rental_uris":{"android":"levelo://app?vid=19295018-235d-4f62-9c12-0203c908e699","ios":"levelo://app?vid=19295018-235d-4f62-9c12-0203c908e699"},"vehicle_type_id":"4","last_reported":1753850101,"current_range_meters":16800,"station_id":"cpo3532slgdg3j2ikp40","pricing_plan_id":"cebpf4jnsgd1na2vs0mg"},{"bike_id":"db724b4f-15a2-416f-90c8-2fb4dcb81e35","system_id":"levelo_inurba_marseille","lat":43.30906,"lon":5.3966,"is_reserved":false,"is_disabled":false,"rental_uris":{"android":"levelo://app?vid=db724b4f-15a2-416f-90c8-2fb4dcb81e35","ios":"levelo://app?vid=db724b4f-15a2-416f-90c8-2fb4dcb81e35"},"vehicle_type_id":"4","last_reported":1753850101,"current_range_meters":16800,"station_id":"ce4bh012rcd13ifvqcv0","pricing_plan_id":"cebpf4jnsgd1na2vs0mg"},{"bike_id":"a980803c-c257-435f-9398-5373366cd1fc","system_id":"levelo_inurba_marseille","lat":43.26224,"lon":5.40446,"is_reserved":false,"is_disabled":false,"rental_uris":{"android":"levelo://app?vid=a980803c-c257-435f-9398-5373366cd1fc","ios":"levelo://app?vid=a980803c-c257-435f-9398-5373366cd1fc"},"vehicle_type_id":"4","last_reported":1753850101,"current_range_meters":16800,"station_id":"ce4bhmh2rcd13ifvqgmg","pricing_plan_id":"cebpf4jnsgd1na2vs0mg"},{"bike_id":"05b79db3-f0fb-414e-9f53-32e4bb665b59","system_id":"levelo_inurba_marseille","lat":43.26568,"lon":5.39,"is_reserved":false,"is_disabled":false,"rental_uris":{"android":"levelo://app?vid=05b79db3-f0fb-414e-9f53-32e4bb665b59","ios":"levelo://app?vid=05b79db3-f0fb-414e-9f53-32e4bb665b59"},"vehicle_type_id":"4","last_reported":1753850101,"current_range_meters":16800,"station_id":"ce4bhe12rcd13ifvqf30","pricing_plan_id":"cebpf4jnsgd1na2vs0mg"},{"bike_id":"441278bf-caa7-49ad-9c25-18de6801ac47","system_id":"levelo_inurba_marseille","lat":43.292775,"lon":5.401304,"is_reserved":false,"is_disabled":false,"rental_uris":{"android":"levelo://app?vid=441278bf-caa7-49ad-9c25-18de6801ac47","ios":"levelo://app?vid=441278bf-caa7-49ad-9c25-18de6801ac47"},"vehicle_type_id":"4","last_reported":1753850101,"current_range_meters":16800,"station_id":"ce4bh312rcd13ifvqdk0","pricing_plan_id":"cebpf4jnsgd1na2vs0mg"},{"bike_id":"cc13585f-f7f0-47dc-8db0-d401fc430042","system_id":"levelo_inurba_marseille","lat":43.31086,"lon":5.38385,"is_reserved":false,"is_disabled":false,"rental_uris":{"android":"levelo://app?vid=cc13585f-f7f0-47dc-8db0-d401fc430042","ios":"levelo://app?vid=cc13585f-f7f0-47dc-8db0-d401fc430042"},"vehicle_type_id":"4","last_reported":1753850101,"current_range_meters":16800,"station_id":"ce4bgv92rcd13ifvqcr0","pricing_plan_id":"cebpf4jnsgd1na2vs0mg"},{"bike_id":"b1e61992-1436-4e72-82d0-0529c813fc3f","system_id":"levelo_inurba_marseille","lat":43.29904,"lon":5.38908,"is_reserved":false,"is_disabled":false,"rental_uris":{"android":"levelo://app?vid=b1e61992-1436-4e72-82d0-0529c813fc3f","ios":"levelo://app?vid=b1e61992-1436-4e72-82d0-0529c813fc3f"},"vehicle_type_id":"4","last_reported":1753850101,"current_range_meters":16800,"station_id":"ce4bh392rcd13ifvqdl0","pricing_plan_id":"cebpf4jnsgd1na2vs0mg"},{"bike_id":"6b5a8423-59e6-41e0-9800-c3f91ce1824a","system_id":"levelo_inurba_marseille","lat":43.24705,"lon":5.38174,"is_reserved":false,"is_disabled":true,"rental_uris":{"android":"levelo://app?vid=6b5a8423-59e6-41e0-9800-c3f91ce1824a","ios":"levelo://app?vid=6b5a8423-59e6-41e0-9800-c3f91ce1824a"},"vehicle_type_id":"4","last_reported":1753850101,"current_range_meters":16800,"station_id":"ce4bhih2rcd13ifvqfr0","pricing_plan_id":"cebpf4jnsgd1na2vs0mg"},{"bike_id":"8a338025-906d-4ff3-a059-654a30a36aed","system_id":"levelo_inurba_marseille","lat":43.3059,"lon":5.39358,"is_reserved":false,"is_disabled":false,"rental_uris":{"android":"levelo://app?vid=8a338025-906d-4ff3-a059-654a30a36aed","ios":"levelo://app?vid=8a338025-906d-4ff3-a059-654a30a36aed"},"vehicle_type_id":"4","last_reported":1753850101,"current_range_meters":16800,"station_id":"ce4bh0p2rcd13ifvqd80","pricing_plan_id":"cebpf4jnsgd1na2vs0mg"},{"bike_id":"0642bec0-d5df-45d1-8f24-13fa0bd6adc2","system_id":"levelo_inurba_marseille","lat":43.278203,"lon":5.407129,"is_reserved":false,"is_disabled":false,"rental_uris":{"android":"levelo://app?vid=0642bec0-d5df-45d1-8f24-13fa0bd6adc2","ios":"levelo://app?vid=0642bec0-d5df-45d1-8f24-13fa0bd6adc2"},"vehicle_type_id":"4","last_reported":1753850101,"current_range_meters":16800,"station_id":"ce4bhnh2rcd13ifvqgtg","pricing_plan_id":"cebpf4jnsgd1na2vs0mg"},{"bike_id":"6acd1382-76b9-4953-8ac7-895907157f31","system_id":"levelo_inurba_marseille","lat":43.25002,"lon":5.3895,"is_reserved":false,"is_disabled":false,"rental_uris":{"android":"levelo://app?vid=6acd1382-76b9-4953-8ac7-895907157f31","ios":"levelo://app?vid=6acd1382-76b9-4953-8ac7-895907157f31"},"vehicle_type_id":"4","last_reported":1753850101,"current_range_meters":16800,"station_id":"ce4bhgp2rcd13ifvqfd0","pricing_plan_id":"cebpf4jnsgd1na2vs0mg"},{"bike_id":"4a85ab03-afe8-4509-b5da-4ba0f7e36fe9","system_id":"levelo_inurba_marseille","lat":43.26684,"lon":5.38271,"is_reserved":false,"is_disabled":true,"rental_uris":{"android":"levelo://app?vid=4a85ab03-afe8-4509-b5da-4ba0f7e36fe9","ios":"levelo://app?vid=4a85ab03-afe8-4509-b5da-4ba0f7e36fe9"},"vehicle_type_id":"4","last_reported":1753850101,"current_range_meters":17200,"station_id":"ce4bhg92rcd13ifvqf90","pricing_plan_id":"cebpf4jnsgd1na2vs0mg"},{"bike_id":"8f2c2194-56a7-4a04-8742-1123e870981c","system_id":"levelo_inurba_marseille","lat":43.284049,"lon":5.375391,"is_reserved":false,"is_disabled":false,"rental_uris":{"android":"levelo://app?vid=8f2c2194-56a7-4a04-8742-1123e870981c","ios":"levelo://app?vid=8f2c2194-56a7-4a04-8742-1123e870981c"},"vehicle_type_id":"4","last_reported":1753850101,"current_range_meters":17200,"station_id":"ce4bh412rcd13ifvqds0","pricing_plan_id":"cebpf4jnsgd1na2vs0mg"},{"bike_id":"a0c39c92-9886-40fc-8df6-6abd5f00f0de","system_id":"levelo_inurba_marseille","lat":43.27703,"lon":5.42247,"is_reserved":false,"is_disabled":false,"rental_uris":{"android":"levelo://app?vid=a0c39c92-9886-40fc-8df6-6abd5f00f0de","ios":"levelo://app?vid=a0c39c92-9886-40fc-8df6-6abd5f00f0de"},"vehicle_type_id":"4","last_reported":1753850101,"current_range_meters":17200,"station_id":"","pricing_plan_id":"cebpf4jnsgd1na2vs0mg"},{"bike_id":"45758c97-459f-44bf-b540-43210b346d88","system_id":"levelo_inurba_marseille","lat":43.29904,"lon":5.43677,"is_reserved":false,"is_disabled":false,"rental_uris":{"android":"levelo://app?vid=45758c97-459f-44bf-b540-43210b346d88","ios":"levelo://app?vid=45758c97-459f-44bf-b540-43210b346d88"},"vehicle_type_id":"4","last_reported":1753850101,"current_range_meters":17200,"station_id":"ce4bhpp2rcd13ifvqhfg","pricing_plan_id":"cebpf4jnsgd1na2vs0mg"},{"bike_id":"6590494b-43e7-43e0-b312-c754fd5ea433","system_id":"levelo_inurba_marseille","lat":43.29022,"lon":5.42999,"is_reserved":false,"is_disabled":false,"rental_uris":{"android":"levelo://app?vid=6590494b-43e7-43e0-b312-c754fd5ea433","ios":"levelo://app?vid=6590494b-43e7-43e0-b312-c754fd5ea433"},"vehicle_type_id":"4","last_reported":1753850101,"current_range_meters":17200,"station_id":"","pricing_plan_id":"cebpf4jnsgd1na2vs0mg"},{"bike_id":"7db6160a-39e9-46b7-a3ea-f432669ebc4e","system_id":"levelo_inurba_marseille","lat":43.27939,"lon":5.41039,"is_reserved":false,"is_disabled":false,"rental_uris":{"android":"levelo://app?vid=7db6160a-39e9-46b7-a3ea-f432669ebc4e","ios":"levelo://app?vid=7db6160a-39e9-46b7-a3ea-f432669ebc4e"},"vehicle_type_id":"4","last_reported":1753850101,"current_range_meters":17200,"station_id":"ce4bhnp2rcd13ifvqh0g","pricing_plan_id":"cebpf4jnsgd1na2vs0mg"},{"bike_id":"039afcc9-554e-46c7-986f-df0551137072","system_id":"levelo_inurba_marseille","lat":43.29275,"lon":5.38465,"is_reserved":false,"is_disabled":true,"rental_uris":{"android":"levelo://app?vid=039afcc9-554e-46c7-986f-df0551137072","ios":"levelo://app?vid=039afcc9-554e-46c7-986f-df0551137072"},"vehicle_type_id":"4","last_reported":1753850101,"current_range_meters":17200,"station_id":"ce4bh692rcd13ifvqea0","pricing_plan_id":"cebpf4jnsgd1na2vs0mg"},{"bike_id":"1a0ca16f-4b93-4052-acd5-440501907ad3","system_id":"levelo_inurba_marseille","lat":43.23197,"lon":5.35543,"is_reserved":false,"is_disabled":false,"rental_uris":{"android":"levelo://app?vid=1a0ca16f-4b93-4052-acd5-440501907ad3","ios":"levelo://app?vid=1a0ca16f-4b93-4052-acd5-440501907ad3"},"vehicle_type_id":"4","last_reported":1753850101,"current_range_meters":17200,"station_id":"ce4bhu92rcd13ifvqi70","pricing_plan_id":"cebpf4jnsgd1na2vs0mg"},{"bike_id":"b89ad748-f7c1-4685-8c85-3009b186b7d0","system_id":"levelo_inurba_marseille","lat":43.24812,"lon":5.37466,"is_reserved":false,"is_disabled":false,"rental_uris":{"android":"levelo://app?vid=b89ad748-f7c1-4685-8c85-3009b186b7d0","ios":"levelo://app?vid=b89ad748-f7c1-4685-8c85-3009b186b7d0"},"vehicle_type_id":"4","last_reported":1753850101,"current_range_meters":17200,"station_id":"ce4bhgh2rcd13ifvqfb0","pricing_plan_id":"cebpf4jnsgd1na2vs0mg"},{"bike_id":"caff1f9f-56f3-4e3f-95f6-14738c858867","system_id":"levelo_inurba_marseille","lat":43.24814,"lon":5.3746,"is_reserved":false,"is_disabled":false,"rental_uris":{"android":"levelo://app?vid=caff1f9f-56f3-4e3f-95f6-14738c858867","ios":"levelo://app?vid=caff1f9f-56f3-4e3f-95f6-14738c858867"},"vehicle_type_id":"4","last_reported":1753850101,"current_range_meters":17600,"station_id":"ce4bhgh2rcd13ifvqfb0","pricing_plan_id":"cebpf4jnsgd1na2vs0mg"},{"bike_id":"f0e49fed-f5f3-4122-92f2-15270f110caa","system_id":"levelo_inurba_marseille","lat":43.26233,"lon":5.40429,"is_reserved":false,"is_disabled":false,"rental_uris":{"android":"levelo://app?vid=f0e49fed-f5f3-4122-92f2-15270f110caa","ios":"levelo://app?vid=f0e49fed-f5f3-4122-92f2-15270f110caa"},"vehicle_type_id":"4","last_reported":1753850101,"current_range_meters":17600,"station_id":"ce4bhmh2rcd13ifvqgmg","pricing_plan_id":"cebpf4jnsgd1na2vs0mg"},{"bike_id":"2c4400c7-2bd6-4d8f-805d-b1037b3fe518","system_id":"levelo_inurba_marseille","lat":43.22509,"lon":5.34787,"is_reserved":false,"is_disabled":false,"rental_uris":{"android":"levelo://app?vid=2c4400c7-2bd6-4d8f-805d-b1037b3fe518","ios":"levelo://app?vid=2c4400c7-2bd6-4d8f-805d-b1037b3fe518"},"vehicle_type_id":"4","last_reported":1753850101,"current_range_meters":17600,"station_id":"st_cvj5dfep6f1abm77gieg","pricing_plan_id":"cebpf4jnsgd1na2vs0mg"},{"bike_id":"5aa14f50-4f32-42e0-b2ba-d87cd3b23d1f","system_id":"levelo_inurba_marseille","lat":43.30896,"lon":5.39665,"is_reserved":false,"is_disabled":false,"rental_uris":{"android":"levelo://app?vid=5aa14f50-4f32-42e0-b2ba-d87cd3b23d1f","ios":"levelo://app?vid=5aa14f50-4f32-42e0-b2ba-d87cd3b23d1f"},"vehicle_type_id":"4","last_reported":1753850101,"current_range_meters":18000,"station_id":"ce4bh012rcd13ifvqcv0","pricing_plan_id":"cebpf4jnsgd1na2vs0mg"},{"bike_id":"9230ad69-c610-491e-946e-73a28385337c","system_id":"levelo_inurba_marseille","lat":43.295268,"lon":5.385433,"is_reserved":false,"is_disabled":true,"rental_uris":{"android":"levelo://app?vid=9230ad69-c610-491e-946e-73a28385337c","ios":"levelo://app?vid=9230ad69-c610-491e-946e-73a28385337c"},"vehicle_type_id":"4","last_reported":1753850101,"current_range_meters":18000,"station_id":"ce4bgih2rcd13ifvqba0","pricing_plan_id":"cebpf4jnsgd1na2vs0mg"},{"bike_id":"01b02198-efa4-4afa-bea9-dd31abad9f4a","system_id":"levelo_inurba_marseille","lat":43.295758,"lon":5.399767,"is_reserved":false,"is_disabled":false,"rental_uris":{"android":"levelo://app?vid=01b02198-efa4-4afa-bea9-dd31abad9f4a","ios":"levelo://app?vid=01b02198-efa4-4afa-bea9-dd31abad9f4a"},"vehicle_type_id":"4","last_reported":1753850101,"current_range_meters":18000,"station_id":"ce4bh312rcd13ifvqdj0","pricing_plan_id":"cebpf4jnsgd1na2vs0mg"},{"bike_id":"cd135ec5-1f0e-488f-a7bf-0e94c2e06e6f","system_id":"levelo_inurba_marseille","lat":43.21219,"lon":5.35067,"is_reserved":false,"is_disabled":false,"rental_uris":{"android":"levelo://app?vid=cd135ec5-1f0e-488f-a7bf-0e94c2e06e6f","ios":"levelo://app?vid=cd135ec5-1f0e-488f-a7bf-0e94c2e06e6f"},"vehicle_type_id":"4","last_reported":1753850101,"current_range_meters":18000,"station_id":"st_cvj6sg6p6f1abm77japg","pricing_plan_id":"cebpf4jnsgd1na2vs0mg"},{"bike_id":"52aa1d0d-4466-44b5-a116-ec1102c8f422","system_id":"levelo_inurba_marseille","lat":43.32891,"lon":5.36043,"is_reserved":false,"is_disabled":false,"rental_uris":{"android":"levelo://app?vid=52aa1d0d-4466-44b5-a116-ec1102c8f422","ios":"levelo://app?vid=52aa1d0d-4466-44b5-a116-ec1102c8f422"},"vehicle_type_id":"4","last_reported":1753850101,"current_range_meters":18000,"station_id":"","pricing_plan_id":"cebpf4jnsgd1na2vs0mg"},{"bike_id":"aff1c2a6-2116-45b8-9d9e-2b8797d6e9ec","system_id":"levelo_inurba_marseille","lat":43.28706,"lon":5.37402,"is_reserved":false,"is_disabled":false,"rental_uris":{"android":"levelo://app?vid=aff1c2a6-2116-45b8-9d9e-2b8797d6e9ec","ios":"levelo://app?vid=aff1c2a6-2116-45b8-9d9e-2b8797d6e9ec"},"vehicle_type_id":"4","last_reported":1753850101,"current_range_meters":18800,"station_id":"ce4bh3p2rcd13ifvqdq0","pricing_plan_id":"cebpf4jnsgd1na2vs0mg"},{"bike_id":"347541b0-e2f3-42c7-96f4-367904768e18","system_id":"levelo_inurba_marseille","lat":43.274961,"lon":5.424684,"is_reserved":false,"is_disabled":false,"rental_uris":{"android":"levelo://app?vid=347541b0-e2f3-42c7-96f4-367904768e18","ios":"levelo://app?vid=347541b0-e2f3-42c7-96f4-367904768e18"},"vehicle_type_id":"4","last_reported":1753850101,"current_range_meters":18800,"station_id":"ce4bhn92rcd13ifvqgrg","pricing_plan_id":"cebpf4jnsgd1na2vs0mg"},{"bike_id":"d1ef298e-87b7-47a5-aaec-79fd9c0baa71","system_id":"levelo_inurba_marseille","lat":43.24801,"lon":5.37461,"is_reserved":false,"is_disabled":false,"rental_uris":{"android":"levelo://app?vid=d1ef298e-87b7-47a5-aaec-79fd9c0baa71","ios":"levelo://app?vid=d1ef298e-87b7-47a5-aaec-79fd9c0baa71"},"vehicle_type_id":"4","last_reported":1753850101,"current_range_meters":18800,"station_id":"ce4bhgh2rcd13ifvqfb0","pricing_plan_id":"cebpf4jnsgd1na2vs0mg"},{"bike_id":"8ac436b6-9454-4c4b-83cb-9f82f9051bda","system_id":"levelo_inurba_marseille","lat":43.29798,"lon":5.39342,"is_reserved":false,"is_disabled":false,"rental_uris":{"android":"levelo://app?vid=8ac436b6-9454-4c4b-83cb-9f82f9051bda","ios":"levelo://app?vid=8ac436b6-9454-4c4b-83cb-9f82f9051bda"},"vehicle_type_id":"4","last_reported":1753850101,"current_range_meters":18800,"station_id":"chh1huq6cuj3fo74tm60","pricing_plan_id":"cebpf4jnsgd1na2vs0mg"},{"bike_id":"3dc94204-2f3e-4b8d-a98a-2eebdfcaff10","system_id":"levelo_inurba_marseille","lat":43.22473,"lon":5.34808,"is_reserved":false,"is_disabled":false,"rental_uris":{"android":"levelo://app?vid=3dc94204-2f3e-4b8d-a98a-2eebdfcaff10","ios":"levelo://app?vid=3dc94204-2f3e-4b8d-a98a-2eebdfcaff10"},"vehicle_type_id":"4","last_reported":1753850101,"current_range_meters":18800,"station_id":"st_cvj5dfep6f1abm77gieg","pricing_plan_id":"cebpf4jnsgd1na2vs0mg"},{"bike_id":"34be742c-6e59-4c4c-a509-950f8293f589","system_id":"levelo_inurba_marseille","lat":43.22945,"lon":5.3537,"is_reserved":false,"is_disabled":false,"rental_uris":{"android":"levelo://app?vid=34be742c-6e59-4c4c-a509-950f8293f589","ios":"levelo://app?vid=34be742c-6e59-4c4c-a509-950f8293f589"},"vehicle_type_id":"4","last_reported":1753850101,"current_range_meters":18800,"station_id":"cpo3532slgdg3j2ikp40","pricing_plan_id":"cebpf4jnsgd1na2vs0mg"},{"bike_id":"17b835b0-8d87-4807-964d-7df4ce9a697a","system_id":"levelo_inurba_marseille","lat":43.30141,"lon":5.38066,"is_reserved":false,"is_disabled":false,"rental_uris":{"android":"levelo://app?vid=17b835b0-8d87-4807-964d-7df4ce9a697a","ios":"levelo://app?vid=17b835b0-8d87-4807-964d-7df4ce9a697a"},"vehicle_type_id":"4","last_reported":1753850101,"current_range_meters":19200,"station_id":"ce4bgjp2rcd13ifvqbh0","pricing_plan_id":"cebpf4jnsgd1na2vs0mg"},{"bike_id":"d126d3e6-8f43-4d1e-929c-1f29f5f64def","system_id":"levelo_inurba_marseille","lat":43.323668,"lon":5.388875,"is_reserved":false,"is_disabled":false,"rental_uris":{"android":"levelo://app?vid=d126d3e6-8f43-4d1e-929c-1f29f5f64def","ios":"levelo://app?vid=d126d3e6-8f43-4d1e-929c-1f29f5f64def"},"vehicle_type_id":"4","last_reported":1753850101,"current_range_meters":19200,"station_id":"ce4bhqp2rcd13ifvqhog","pricing_plan_id":"cebpf4jnsgd1na2vs0mg"},{"bike_id":"ef78c143-b205-417b-acc1-1942b5f1c63d","system_id":"levelo_inurba_marseille","lat":43.2815,"lon":5.42664,"is_reserved":false,"is_disabled":false,"rental_uris":{"android":"levelo://app?vid=ef78c143-b205-417b-acc1-1942b5f1c63d","ios":"levelo://app?vid=ef78c143-b205-417b-acc1-1942b5f1c63d"},"vehicle_type_id":"4","last_reported":1753850101,"current_range_meters":19200,"station_id":"ce4bhnh2rcd13ifvqgug","pricing_plan_id":"cebpf4jnsgd1na2vs0mg"},{"bike_id":"e40c3280-49b0-490b-abb0-b04091477816","system_id":"levelo_inurba_marseille","lat":43.280356,"lon":5.369439,"is_reserved":false,"is_disabled":false,"rental_uris":{"android":"levelo://app?vid=e40c3280-49b0-490b-abb0-b04091477816","ios":"levelo://app?vid=e40c3280-49b0-490b-abb0-b04091477816"},"vehicle_type_id":"4","last_reported":1753850101,"current_range_meters":19200,"station_id":"ce4bha12rcd13ifvqef0","pricing_plan_id":"cebpf4jnsgd1na2vs0mg"},{"bike_id":"f19cead5-4530-4f1b-a2f3-648d887b3b8c","system_id":"levelo_inurba_marseille","lat":43.3038,"lon":5.40146,"is_reserved":false,"is_disabled":false,"rental_uris":{"android":"levelo://app?vid=f19cead5-4530-4f1b-a2f3-648d887b3b8c","ios":"levelo://app?vid=f19cead5-4530-4f1b-a2f3-648d887b3b8c"},"vehicle_type_id":"4","last_reported":1753850101,"current_range_meters":19200,"station_id":"","pricing_plan_id":"cebpf4jnsgd1na2vs0mg"},{"bike_id":"923e3f83-5daf-458c-8690-5b610f57a243","system_id":"levelo_inurba_marseille","lat":43.279334,"lon":5.395666,"is_reserved":false,"is_disabled":false,"rental_uris":{"android":"levelo://app?vid=923e3f83-5daf-458c-8690-5b610f57a243","ios":"levelo://app?vid=923e3f83-5daf-458c-8690-5b610f57a243"},"vehicle_type_id":"4","last_reported":1753850101,"current_range_meters":19200,"station_id":"ce4bhf92rcd13ifvqf40","pricing_plan_id":"cebpf4jnsgd1na2vs0mg"},{"bike_id":"a99a59e0-b52e-4275-ba24-f8ec5457bdd9","system_id":"levelo_inurba_marseille","lat":43.32047,"lon":5.41568,"is_reserved":false,"is_disabled":false,"rental_uris":{"android":"levelo://app?vid=a99a59e0-b52e-4275-ba24-f8ec5457bdd9","ios":"levelo://app?vid=a99a59e0-b52e-4275-ba24-f8ec5457bdd9"},"vehicle_type_id":"4","last_reported":1753850101,"current_range_meters":19200,"station_id":"ce4bhq92rcd13ifvqhkg","pricing_plan_id":"cebpf4jnsgd1na2vs0mg"},{"bike_id":"a35b2685-ed75-4906-9123-b3dadd434193","system_id":"levelo_inurba_marseille","lat":43.29046,"lon":5.35872,"is_reserved":false,"is_disabled":false,"rental_uris":{"android":"levelo://app?vid=a35b2685-ed75-4906-9123-b3dadd434193","ios":"levelo://app?vid=a35b2685-ed75-4906-9123-b3dadd434193"},"vehicle_type_id":"4","last_reported":1753850101,"current_range_meters":19200,"station_id":"ce4bha92rcd13ifvqeg0","pricing_plan_id":"cebpf4jnsgd1na2vs0mg"},{"bike_id":"a9803eff-5eb6-4126-8486-9418abacff17","system_id":"levelo_inurba_marseille","lat":43.29523,"lon":5.39419,"is_reserved":false,"is_disabled":false,"rental_uris":{"android":"levelo://app?vid=a9803eff-5eb6-4126-8486-9418abacff17","ios":"levelo://app?vid=a9803eff-5eb6-4126-8486-9418abacff17"},"vehicle_type_id":"4","last_reported":1753850101,"current_range_meters":19200,"station_id":"ce4bh292rcd13ifvqdf0","pricing_plan_id":"cebpf4jnsgd1na2vs0mg"},{"bike_id":"faf3f5b8-082c-4f7a-b588-86cdf114a8e7","system_id":"levelo_inurba_marseille","lat":43.26595,"lon":5.39017,"is_reserved":false,"is_disabled":false,"rental_uris":{"android":"levelo://app?vid=faf3f5b8-082c-4f7a-b588-86cdf114a8e7","ios":"levelo://app?vid=faf3f5b8-082c-4f7a-b588-86cdf114a8e7"},"vehicle_type_id":"4","last_reported":1753850101,"current_range_meters":19200,"station_id":"ce4bhe12rcd13ifvqf30","pricing_plan_id":"cebpf4jnsgd1na2vs0mg"},{"bike_id":"6f945904-e30e-4baa-be01-1bd0424776dc","system_id":"levelo_inurba_marseille","lat":43.231926,"lon":5.355594,"is_reserved":false,"is_disabled":false,"rental_uris":{"android":"levelo://app?vid=6f945904-e30e-4baa-be01-1bd0424776dc","ios":"levelo://app?vid=6f945904-e30e-4baa-be01-1bd0424776dc"},"vehicle_type_id":"4","last_reported":1753850101,"current_range_meters":19200,"station_id":"ce4bhu92rcd13ifvqi70","pricing_plan_id":"cebpf4jnsgd1na2vs0mg"},{"bike_id":"82421548-9820-4ad4-b3c2-dfb64180eb25","system_id":"levelo_inurba_marseille","lat":43.212015,"lon":5.350748,"is_reserved":false,"is_disabled":false,"rental_uris":{"android":"levelo://app?vid=82421548-9820-4ad4-b3c2-dfb64180eb25","ios":"levelo://app?vid=82421548-9820-4ad4-b3c2-dfb64180eb25"},"vehicle_type_id":"4","last_reported":1753850101,"current_range_meters":19200,"station_id":"st_cvj6sg6p6f1abm77japg","pricing_plan_id":"cebpf4jnsgd1na2vs0mg"},