{"last_updated":1751808060,"ttl":60,"version":"2.2","data":{"bikes":[{"bike_id":"3da29fb8-fc97-44c6-b9ac-31dd456b2fd4","system_id":"levelo_inurba_marseille","lat":43.33771,"lon":5.37424,"is_reserved":false,"is_disabled":true,"rental_uris":{"android":"levelo://app?vid=3da29fb8-fc97-44c6-b9ac-31dd456b2fd4","ios":"levelo://app?vid=3da29fb8-fc97-44c6-b9ac-31dd456b2fd4"},"vehicle_type_id":"4","last_reported":1751808060,"current_range_meters":0,"station_id":"","pricing_plan_id":"cebpf4jnsgd1na2vs0mg"},{"bike_id":"01861ad8-a8d7-4be6-816e-651927c87584","system_id":"levelo_inurba_marseille","lat":43.33751,"lon":5.37456,"is_reserved":false,"is_disabled":true,"rental_uris":{"android":"levelo://app?vid=01861ad8-a8d7-4be6-816e-651927c87584","ios":"levelo://app?vid=01861ad8-a8d7-4be6-816e-651927c87584"},"vehicle_type_id":"4","last_reported":1751808060,"current_range_meters":0,"station_id":"","pricing_plan_id":"cebpf4jnsgd1na2vs0mg"},{"bike_id":"c1af52b7-f892-4de0-adb4-fb0c70d1c4e6","system_id":"levelo_inurba_marseille","lat":43.32252,"lon":5.44015,"is_reserved":false,"is_disabled":true,"rental_uris":{"android":"levelo://app?vid=c1af52b7-f892-4de0-adb4-fb0c70d1c4e6","ios":"levelo://app?vid=c1af52b7-f892-4de0-adb4-fb0c70d1c4e6"},"vehicle_type_id":"4","last_reported":1751808060,"current_range_meters":0,"station_id":"","pricing_plan_id":"cebpf4jnsgd1na2vs0mg"},{"bike_id":"1ad7dec6-0d72-44b8-8a91-8bff1291b188","system_id":"levelo_inurba_marseille","lat":43.28879,"lon":5.46045,"is_reserved":false,"is_disabled":true,"rental_uris":{"android":"levelo://app?vid=1ad7dec6-0d72-44b8-8a91-8bff1291b188","ios":"levelo://app?vid=1ad7dec6-0d72-44b8-8a91-8bff1291b188"},"vehicle_type_id":"4","last_reported":1751808060,"current_range_meters":0,"station_id":"","pricing_plan_id":"cebpf4jnsgd1na2vs0mg"},{"bike_id":"46170bb5-555c-4c84-8187-d738f3934636","system_id":"levelo_inurba_marseille","lat":43.292725,"lon":5.384355,"is_reserved":false,"is_disabled":true,"rental_uris":{"android":"levelo://app?vid=46170bb5-555c-4c84-8187-d738f3934636","ios":"levelo://app?vid=46170bb5-555c-4c84-8187-d738f3934636"},"vehicle_type_id":"4","last_reported":1751808060,"current_range_meters":0,"station_id":"","pricing_plan_id":"cebpf4jnsgd1na2vs0mg"},{"bike_id":"5e4fccb6-1c76-4083-a352-a6af734b928a","system_id":"levelo_inurba_marseille","lat":43.32206,"lon":5.44054,"is_reserved":false,"is_disabled":true,"rental_uris":{"android":"levelo://app?vid=5e4fccb6-1c76-4083-a352-a6af734b928a","ios":"levelo://app?vid=5e4fccb6-1c76-4083-a352-a6af734b928a"},"vehicle_type_id":"4","last_reported":1751808060,"current_range_meters":0,"station_id":"","pricing_plan_id":"cebpf4jnsgd1na2vs0mg"},{"bike_id":"8652339f-9d11-400b-929d-c2312323370f","system_id":"levelo_inurba_marseille","lat":43.32714,"lon":5.42377,"is_reserved":false,"is_disabled":true,"rental_uris":{"android":"levelo://app?vid=8652339f-9d11-400b-929d-c2312323370f","ios":"levelo://app?vid=8652339f-9d11-400b-929d-c2312323370f"},"vehicle_type_id":"4","last_reported":1751808060,"current_range_meters":0,"station_id":"","pricing_plan_id":"cebpf4jnsgd1na2vs0mg"},{"bike_id":"1c57a3c7-1fe2-49b4-93b2-29842e960d9b","system_id":"levelo_inurba_marseille","lat":43.25421,"lon":5.38135,"is_reserved":false,"is_disabled":true,"rental_uris":{"android":"levelo://app?vid=1c57a3c7-1fe2-49b4-93b2-29842e960d9b","ios":"levelo://app?vid=1c57a3c7-1fe2-49b4-93b2-29842e960d9b"},"vehicle_type_id":"4","last_reported":1751808060,"current_range_meters":0,"station_id":"","pricing_plan_id":"cebpf4jnsgd1na2vs0mg"},{"bike_id":"7dcd7a07-5f87-4c92-963d-06318b468193","system_id":"levelo_inurba_marseille","lat":43.29614,"lon":5.37726,"is_reserved":false,"is_disabled":true,"rental_uris":{"android":"levelo://app?vid=7dcd7a07-5f87-4c92-963d-06318b468193","ios":"levelo://app?vid=7dcd7a07-5f87-4c92-963d-06318b468193"},"vehicle_type_id":"4","last_reported":1751808060,"current_range_meters":0,"station_id":"ce4bgi92rcd13ifvqb90","pricing_plan_id":"cebpf4jnsgd1na2vs0mg"},{"bike_id":"13450f72-f319-4a45-b4f7-832ace0e8c53","system_id":"levelo_inurba_marseille","lat":43.29598,"lon":5.38102,"is_reserved":false,"is_disabled":true,"rental_uris":{"android":"levelo://app?vid=13450f72-f319-4a45-b4f7-832ace0e8c53","ios":"levelo://app?vid=13450f72-f319-4a45-b4f7-832ace0e8c53"},"vehicle_type_id":"4","last_reported":1751808060,"current_range_meters":0,"station_id":"ce4bgl12rcd13ifvqbo0","pricing_plan_id":"cebpf4jnsgd1na2vs0mg"},{"bike_id":"cda68521-7c9e-4f75-99fa-2df8a8f7eff0","system_id":"levelo_inurba_marseille","lat":43.30922,"lon":5.40151,"is_reserved":false,"is_disabled":true,"rental_uris":{"android":"levelo://app?vid=cda68521-7c9e-4f75-99fa-2df8a8f7eff0","ios":"levelo://app?vid=cda68521-7c9e-4f75-99fa-2df8a8f7eff0"},"vehicle_type_id":"4","last_reported":1751808060,"current_range_meters":0,"station_id":"ce4bgvp2rcd13ifvqct0","pricing_plan_id":"cebpf4jnsgd1na2vs0mg"},{"bike_id":"3b1ae5d9-9675-4c5d-bf57-e6a91f296fe2","system_id":"levelo_inurba_marseille","lat":43.28714,"lon":5.37932,"is_reserved":false,"is_disabled":true,"rental_uris":{"android":"levelo://app?vid=3b1ae5d9-9675-4c5d-bf57-e6a91f296fe2","ios":"levelo://app?vid=3b1ae5d9-9675-4c5d-bf57-e6a91f296fe2"},"vehicle_type_id":"4","last_reported":1751808060,"current_range_meters":0,"station_id":"ce4bh9p2rcd13ifvqec0","pricing_plan_id":"cebpf4jnsgd1na2vs0mg"},{"bike_id":"9d465cd6-e712-4172-8579-ea78fd4af927","system_id":"levelo_inurba_marseille","lat":43.28039,"lon":5.36936,"is_reserved":false,"is_disabled":true,"rental_uris":{"android":"levelo://app?vid=9d465cd6-e712-4172-8579-ea78fd4af927","ios":"levelo://app?vid=9d465cd6-e712-4172-8579-ea78fd4af927"},"vehicle_type_id":"4","last_reported":1751808060,"current_range_meters":0,"station_id":"ce4bha12rcd13ifvqef0","pricing_plan_id":"cebpf4jnsgd1na2vs0mg"},{"bike_id":"2520035a-a3ab-4c9e-b086-445faa706efb","system_id":"levelo_inurba_marseille","lat":43.29003,"lon":5.35611,"is_reserved":false,"is_disabled":true,"rental_uris":{"android":"levelo://app?vid=2520035a-a3ab-4c9e-b086-445faa706efb","ios":"levelo://app?vid=2520035a-a3ab-4c9e-b086-445faa706efb"},"vehicle_type_id":"4","last_reported":1751808060,"current_range_meters":0,"station_id":"ce4bhb92rcd13ifvqen0","pricing_plan_id":"cebpf4jnsgd1na2vs0mg"},{"bike_id":"02794ab8-7068-4d2b-9d31-b6c09f96b055","system_id":"levelo_inurba_marseille","lat":43.26022,"lon":5.37558,"is_reserved":false,"is_disabled":true,"rental_uris":{"android":"levelo://app?vid=02794ab8-7068-4d2b-9d31-b6c09f96b055","ios":"levelo://app?vid=02794ab8-7068-4d2b-9d31-b6c09f96b055"},"vehicle_type_id":"4","last_reported":1751808060,"current_range_meters":0,"station_id":"ce4bhgh2rcd13ifvqfa0","pricing_plan_id":"cebpf4jnsgd1na2vs0mg"},{"bike_id":"9660879f-aef8-43dc-ae0d-26cc59732c9f","system_id":"levelo_inurba_marseille","lat":43.25495,"lon":5.37653,"is_reserved":false,"is_disabled":true,"rental_uris":{"android":"levelo://app?vid=9660879f-aef8-43dc-ae0d-26cc59732c9f","ios":"levelo://app?vid=9660879f-aef8-43dc-ae0d-26cc59732c9f"},"vehicle_type_id":"4","last_reported":1751808060,"current_range_meters":0,"station_id":"ce4bhh12rcd13ifvqff0","pricing_plan_id":"cebpf4jnsgd1na2vs0mg"},{"bike_id":"b1d4cc18-a9a3-4a78-9e23-e098d3fbf686","system_id":"levelo_inurba_marseille","lat":43.303734,"lon":5.424918,"is_reserved":false,"is_disabled":true,"rental_uris":{"android":"levelo://app?vid=b1d4cc18-a9a3-4a78-9e23-e098d3fbf686","ios":"levelo://app?vid=b1d4cc18-a9a3-4a78-9e23-e098d3fbf686"},"vehicle_type_id":"4","last_reported":1751808060,"current_range_meters":0,"station_id":"ce4bhoh2rcd13ifvqh6g","pricing_plan_id":"cebpf4jnsgd1na2vs0mg"},{"bike_id":"228c2141-1ea2-4307-b204-f508148ec2d0","system_id":"levelo_inurba_marseille","lat":43.298933,"lon":5.4367,"is_reserved":false,"is_disabled":true,"rental_uris":{"android":"levelo://app?vid=228c2141-1ea2-4307-b204-f508148ec2d0","ios":"levelo://app?vid=228c2141-1ea2-4307-b204-f508148ec2d0"},"vehicle_type_id":"4","last_reported":1751808060,"current_range_meters":0,"station_id":"ce4bhpp2rcd13ifvqhfg","pricing_plan_id":"cebpf4jnsgd1na2vs0mg"},{"bike_id":"d1444e94-489f-4fa9-9e06-4bdf6ba47149","system_id":"levelo_inurba_marseille","lat":43.22515,"lon":5.34777,"is_reserved":false,"is_disabled":true,"rental_uris":{"android":"levelo://app?vid=d1444e94-489f-4fa9-9e06-4bdf6ba47149","ios":"levelo://app?vid=d1444e94-489f-4fa9-9e06-4bdf6ba47149"},"vehicle_type_id":"4","last_reported":1751808060,"current_range_meters":0,"station_id":"st_cvj5dfep6f1abm77gieg","pricing_plan_id":"cebpf4jnsgd1na2vs0mg"},{"bike_id":"8e705061-bdf0-422d-b178-e50353401331","system_id":"levelo_inurba_marseille","lat":43.21747,"lon":5.345967,"is_reserved":false,"is_disabled":true,"rental_uris":{"android":"levelo://app?vid=8e705061-bdf0-422d-b178-e50353401331","ios":"levelo://app?vid=8e705061-bdf0-422d-b178-e50353401331"},"vehicle_type_id":"4","last_reported":1751808060,"current_range_meters":0,"station_id":"st_cvj6r9ubvosntc0bgbag","pricing_plan_id":"cebpf4jnsgd1na2vs0mg"},{"bike_id":"cd1b69f3-983e-4e3a-b585-8a68b3780105","system_id":"levelo_inurba_marseille","lat":43.21766,"lon":5.34606,"is_reserved":false,"is_disabled":true,"rental_uris":{"android":"levelo://app?vid=cd1b69f3-983e-4e3a-b585-8a68b3780105","ios":"levelo://app?vid=cd1b69f3-983e-4e3a-b585-8a68b3780105"},"vehicle_type_id":"4","last_reported":1751808060,"current_range_meters":0,"station_id":"st_cvj6r9ubvosntc0bgbag","pricing_plan_id":"cebpf4jnsgd1na2vs0mg"},{"bike_id":"01e7b5f2-8f67-4e49-aba6-db3c1b32897d","system_id":"levelo_inurba_marseille","lat":43.21206,"lon":5.35079,"is_reserved":false,"is_disabled":true,"rental_uris":{"android":"levelo://app?vid=01e7b5f2-8f67-4e49-aba6-db3c1b32897d","ios":"levelo://app?vid=01e7b5f2-8f67-4e49-aba6-db3c1b32897d"},"vehicle_type_id":"4","last_reported":1751808060,"current_range_meters":0,"station_id":"st_cvj6sg6p6f1abm77japg","pricing_plan_id":"cebpf4jnsgd1na2vs0mg"},{"bike_id":"c8c4de1a-846f-4f5b-aace-9fb14bf7ad52","system_id":"levelo_inurba_marseille","lat":43.21181,"lon":5.35091,"is_reserved":false,"is_disabled":true,"rental_uris":{"android":"levelo://app?vid=c8c4de1a-846f-4f5b-aace-9fb14bf7ad52","ios":"levelo://app?vid=c8c4de1a-846f-4f5b-aace-9fb14bf7ad52"},"vehicle_type_id":"4","last_reported":1751808060,"current_range_meters":0,"station_id":"st_cvj6sg6p6f1abm77japg","pricing_plan_id":"cebpf4jnsgd1na2vs0mg"},{"bike_id":"e86ba8c9-208d-482c-a826-4c100938472a","system_id":"levelo_inurba_marseille","lat":43.21201,"lon":5.35079,"is_reserved":false,"is_disabled":true,"rental_uris":{"android":"levelo://app?vid=e86ba8c9-208d-482c-a826-4c100938472a","ios":"levelo://app?vid=e86ba8c9-208d-482c-a826-4c100938472a"},"vehicle_type_id":"4","last_reported":1751808060,"current_range_meters":0,"station_id":"st_cvj6sg6p6f1abm77japg","pricing_plan_id":"cebpf4jnsgd1na2vs0mg"},{"bike_id":"9f0b80db-4f7e-4445-895a-28171363da30","system_id":"levelo_inurba_marseille","lat":43.32609,"lon":5.42357,"is_reserved":false,"is_disabled":true,"rental_uris":{"android":"levelo://app?vid=9f0b80db-4f7e-4445-895a-28171363da30","ios":"levelo://app?vid=9f0b80db-4f7e-4445-895a-28171363da30"},"vehicle_type_id":"4","last_reported":1751808060,"current_range_meters":400,"station_id":"","pricing_plan_id":"cebpf4jnsgd1na2vs0mg"},{"bike_id":"1cfd0373-3bf0-41a6-adf1-e5676c804161","system_id":"levelo_inurba_marseille","lat":43.29842,"lon":5.36276,"is_reserved":false,"is_disabled":true,"rental_uris":{"android":"levelo://app?vid=1cfd0373-3bf0-41a6-adf1-e5676c804161","ios":"levelo://app?vid=1cfd0373-3bf0-41a6-adf1-e5676c804161"},"vehicle_type_id":"4","last_reported":1751808060,"current_range_meters":400,"station_id":"ce4bgpp2rcd13ifvqc3g","pricing_plan_id":"cebpf4jnsgd1na2vs0mg"},{"bike_id":"bb141b4b-c046-4385-9b39-cd4349d3365e","system_id":"levelo_inurba_marseille","lat":43.29273,"lon":5.38439,"is_reserved":false,"is_disabled":true,"rental_uris":{"android":"levelo://app?vid=bb141b4b-c046-4385-9b39-cd4349d3365e","ios":"levelo://app?vid=bb141b4b-c046-4385-9b39-cd4349d3365e"},"vehicle_type_id":"4","last_reported":1751808060,"current_range_meters":800,"station_id":"ce4bh692rcd13ifvqea0","pricing_plan_id":"cebpf4jnsgd1na2vs0mg"},{"bike_id":"8cb064d4-0049-4c07-b43e-86eed088e49c","system_id":"levelo_inurba_marseille","lat":43.24799,"lon":5.37453,"is_reserved":false,"is_disabled":true,"rental_uris":{"android":"levelo://app?vid=8cb064d4-0049-4c07-b43e-86eed088e49c","ios":"levelo://app?vid=8cb064d4-0049-4c07-b43e-86eed088e49c"},"vehicle_type_id":"4","last_reported":1751808060,"current_range_meters":800,"station_id":"ce4bhgh2rcd13ifvqfb0","pricing_plan_id":"cebpf4jnsgd1na2vs0mg"},{"bike_id":"5660da20-3aee-4b96-9b3c-27d18df1fbba","system_id":"levelo_inurba_marseille","lat":43.30369,"lon":5.42501,"is_reserved":false,"is_disabled":true,"rental_uris":{"android":"levelo://app?vid=5660da20-3aee-4b96-9b3c-27d18df1fbba","ios":"levelo://app?vid=5660da20-3aee-4b96-9b3c-27d18df1fbba"},"vehicle_type_id":"4","last_reported":1751808060,"current_range_meters":800,"station_id":"ce4bhoh2rcd13ifvqh6g","pricing_plan_id":"cebpf4jnsgd1na2vs0mg"},{"bike_id":"e8fe788c-41b7-4711-b181-1176002fa206","system_id":"levelo_inurba_marseille","lat":43.24394,"lon":5.37059,"is_reserved":false,"is_disabled":true,"rental_uris":{"android":"levelo://app?vid=e8fe788c-41b7-4711-b181-1176002fa206","ios":"levelo://app?vid=e8fe788c-41b7-4711-b181-1176002fa206"},"vehicle_type_id":"4","last_reported":1751808060,"current_range_meters":1200,"station_id":"ce4bhhh2rcd13ifvqfk0","pricing_plan_id":"cebpf4jnsgd1na2vs0mg"},{"bike_id":"8000400f-b075-4f44-890e-2641b9a985b4","system_id":"levelo_inurba_marseille","lat":43.3267,"lon":5.40995,"is_reserved":false,"is_disabled":true,"rental_uris":{"android":"levelo://app?vid=8000400f-b075-4f44-890e-2641b9a985b4","ios":"levelo://app?vid=8000400f-b075-4f44-890e-2641b9a985b4"},"vehicle_type_id":"4","last_reported":1751808060,"current_range_meters":1200,"station_id":"ce4bhpp2rcd13ifvqhgg","pricing_plan_id":"cebpf4jnsgd1na2vs0mg"},{"bike_id":"295abeb8-ea64-4ee0-b702-fff9be07fd0e","system_id":"levelo_inurba_marseille","lat":43.28605,"lon":5.37064,"is_reserved":false,"is_disabled":true,"rental_uris":{"android":"levelo://app?vid=295abeb8-ea64-4ee0-b702-fff9be07fd0e","ios":"levelo://app?vid=295abeb8-ea64-4ee0-b702-fff9be07fd0e"},"vehicle_type_id":"4","last_reported":1751808060,"current_range_meters":1600,"station_id":"ce4bht12rcd13ifvqi60","pricing_plan_id":"cebpf4jnsgd1na2vs0mg"},{"bike_id":"ad0cd0f9-bee8-4154-8ca0-356acc2fabce","system_id":"levelo_inurba_marseille","lat":43.21751,"lon":5.3458,"is_reserved":false,"is_disabled":true,"rental_uris":{"android":"levelo://app?vid=ad0cd0f9-bee8-4154-8ca0-356acc2fabce","ios":"levelo://app?vid=ad0cd0f9-bee8-4154-8ca0-356acc2fabce"},"vehicle_type_id":"4","last_reported":1751808060,"current_range_meters":1600,"station_id":"st_cvj6r9ubvosntc0bgbag","pricing_plan_id":"cebpf4jnsgd1na2vs0mg"},{"bike_id":"c9832678-9c8e-4b93-bdc3-ae9ff745c746","system_id":"levelo_inurba_marseille","lat":43.2737,"lon":5.3626,"is_reserved":false,"is_disabled":true,"rental_uris":{"android":"levelo://app?vid=c9832678-9c8e-4b93-bdc3-ae9ff745c746","ios":"levelo://app?vid=c9832678-9c8e-4b93-bdc3-ae9ff745c746"},"vehicle_type_id":"4","last_reported":1751808060,"current_range_meters":2000,"station_id":"ce4bhbh2rcd13ifvqeo0","pricing_plan_id":"cebpf4jnsgd1na2vs0mg"},{"bike_id":"b80ffb4a-cff0-4dc9-95a4-8ee44760a9f0","system_id":"levelo_inurba_marseille","lat":43.2927,"lon":5.36844,"is_reserved":false,"is_disabled":true,"rental_uris":{"android":"levelo://app?vid=b80ffb4a-cff0-4dc9-95a4-8ee44760a9f0","ios":"levelo://app?vid=b80ffb4a-cff0-4dc9-95a4-8ee44760a9f0"},"vehicle_type_id":"4","last_reported":1751808060,"current_range_meters":2000,"station_id":"ce4bhbp2rcd13ifvqesg","pricing_plan_id":"cebpf4jnsgd1na2vs0mg"},{"bike_id":"bb3b72e2-bc95-4193-a1a0-65531be0d84f","system_id":"levelo_inurba_marseille","lat":43.255,"lon":5.37649,"is_reserved":false,"is_disabled":false,"rental_uris":{"android":"levelo://app?vid=bb3b72e2-bc95-4193-a1a0-65531be0d84f","ios":"levelo://app?vid=bb3b72e2-bc95-4193-a1a0-65531be0d84f"},"vehicle_type_id":"4","last_reported":1751808060,"current_range_meters":2000,"station_id":"ce4bhh12rcd13ifvqff0","pricing_plan_id":"cebpf4jnsgd1na2vs0mg"},{"bike_id":"b87f02d0-36f9-4491-9a56-7eee4899a2de","system_id":"levelo_inurba_marseille","lat":43.25496,"lon":5.37651,"is_reserved":false,"is_disabled":true,"rental_uris":{"android":"levelo://app?vid=b87f02d0-36f9-4491-9a56-7eee4899a2de","ios":"levelo://app?vid=b87f02d0-36f9-4491-9a56-7eee4899a2de"},"vehicle_type_id":"4","last_reported":1751808060,"current_range_meters":2000,"station_id":"ce4bhh12rcd13ifvqff0","pricing_plan_id":"cebpf4jnsgd1na2vs0mg"},{"bike_id":"013ac8ab-92cb-441b-9ba6-c0296074631c","system_id":"levelo_inurba_marseille","lat":43.30664,"lon":5.39646,"is_reserved":false,"is_disabled":false,"rental_uris":{"android":"levelo://app?vid=013ac8ab-92cb-441b-9ba6-c0296074631c","ios":"levelo://app?vid=013ac8ab-92cb-441b-9ba6-c0296074631c"},"vehicle_type_id":"4","last_reported":1751808060,"current_range_meters":2800,"station_id":"","pricing_plan_id":"cebpf4jnsgd1na2vs0mg"},{"bike_id":"0c4b7fdb-b39e-49b3-a2b0-ae3d0f43e89d","system_id":"levelo_inurba_marseille","lat":43.32891,"lon":5.40573,"is_reserved":false,"is_disabled":false,"rental_uris":{"android":"levelo://app?vid=0c4b7fdb-b39e-49b3-a2b0-ae3d0f43e89d","ios":"levelo://app?vid=0c4b7fdb-b39e-49b3-a2b0-ae3d0f43e89d"},"vehicle_type_id":"4","last_reported":1751808060,"current_range_meters":2800,"station_id":"","pricing_plan_id":"cebpf4jnsgd1na2vs0mg"},{"bike_id":"ef5cf987-184e-4185-aad2-2a62d4f44f87","system_id":"levelo_inurba_marseille","lat":43.29787,"lon":5.38108,"is_reserved":false,"is_disabled":false,"rental_uris":{"android":"levelo://app?vid=ef5cf987-184e-4185-aad2-2a62d4f44f87","ios":"levelo://app?vid=ef5cf987-184e-4185-aad2-2a62d4f44f87"},"vehicle_type_id":"4","last_reported":1751808060,"current_range_meters":2800,"station_id":"ce4bgip2rcd13ifvqbb0","pricing_plan_id":"cebpf4jnsgd1na2vs0mg"},{"bike_id":"c998bc94-f45b-46fd-a8dc-5f7aaf82538b","system_id":"levelo_inurba_marseille","lat":43.302859,"lon":5.391592,"is_reserved":false,"is_disabled":false,"rental_uris":{"android":"levelo://app?vid=c998bc94-f45b-46fd-a8dc-5f7aaf82538b","ios":"levelo://app?vid=c998bc94-f45b-46fd-a8dc-5f7aaf82538b"},"vehicle_type_id":"4","last_reported":1751808060,"current_range_meters":2800,"station_id":"ce4bgkh2rcd13ifvqbk0","pricing_plan_id":"cebpf4jnsgd1na2vs0mg"},{"bike_id":"3eca1727-9e10-4aee-932b-6eeb74a98517","system_id":"levelo_inurba_marseille","lat":43.29774,"lon":5.39333,"is_reserved":false,"is_disabled":false,"rental_uris":{"android":"levelo://app?vid=3eca1727-9e10-4aee-932b-6eeb74a98517","ios":"levelo://app?vid=3eca1727-9e10-4aee-932b-6eeb74a98517"},"vehicle_type_id":"4","last_reported":1751808060,"current_range_meters":2800,"station_id":"chh1huq6cuj3fo74tm60","pricing_plan_id":"cebpf4jnsgd1na2vs0mg"},{"bike_id":"ba154a12-11bd-42a5-958a-5992f5d043d1","system_id":"levelo_inurba_marseille","lat":43.30505,"lon":5.37094,"is_reserved":false,"is_disabled":false,"rental_uris":{"android":"levelo://app?vid=ba154a12-11bd-42a5-958a-5992f5d043d1","ios":"levelo://app?vid=ba154a12-11bd-42a5-958a-5992f5d043d1"},"vehicle_type_id":"4","last_reported":1751808060,"current_range_meters":3200,"station_id":"","pricing_plan_id":"cebpf4jnsgd1na2vs0mg"},{"bike_id":"a0f724b6-606d-4c45-9b25-f59b5dd36493","system_id":"levelo_inurba_marseille","lat":43.28668,"lon":5.3635,"is_reserved":false,"is_disabled":false,"rental_uris":{"android":"levelo://app?vid=a0f724b6-606d-4c45-9b25-f59b5dd36493","ios":"levelo://app?vid=a0f724b6-606d-4c45-9b25-f59b5dd36493"},"vehicle_type_id":"4","last_reported":1751808060,"current_range_meters":3200,"station_id":"ce4bhah2rcd13ifvqej0","pricing_plan_id":"cebpf4jnsgd1na2vs0mg"},{"bike_id":"5dcd7a7b-966e-478b-9b52-4aaa142836a4","system_id":"levelo_inurba_marseille","lat":43.2737,"lon":5.36261,"is_reserved":false,"is_disabled":false,"rental_uris":{"android":"levelo://app?vid=5dcd7a7b-966e-478b-9b52-4aaa142836a4","ios":"levelo://app?vid=5dcd7a7b-966e-478b-9b52-4aaa142836a4"},"vehicle_type_id":"4","last_reported":1751808060,"current_range_meters":3200,"station_id":"ce4bhbh2rcd13ifvqeo0","pricing_plan_id":"cebpf4jnsgd1na2vs0mg"},{"bike_id":"c0c4bc17-a673-4f98-a48f-b94787ad359d","system_id":"levelo_inurba_marseille","lat":43.23962,"lon":5.36629,"is_reserved":false,"is_disabled":false,"rental_uris":{"android":"levelo://app?vid=c0c4bc17-a673-4f98-a48f-b94787ad359d","ios":"levelo://app?vid=c0c4bc17-a673-4f98-a48f-b94787ad359d"},"vehicle_type_id":"4","last_reported":1751808060,"current_range_meters":3200,"station_id":"ce4bhi12rcd13ifvqfp0","pricing_plan_id":"cebpf4jnsgd1na2vs0mg"},{"bike_id":"6aec5a00-168a-4dcb-9ebc-17d8acd32256","system_id":"levelo_inurba_marseille","lat":43.31535,"lon":5.37437,"is_reserved":false,"is_disabled":false,"rental_uris":{"android":"levelo://app?vid=6aec5a00-168a-4dcb-9ebc-17d8acd32256","ios":"levelo://app?vid=6aec5a00-168a-4dcb-9ebc-17d8acd32256"},"vehicle_type_id":"4","last_reported":1751808060,"current_range_meters":3600,"station_id":"","pricing_plan_id":"cebpf4jnsgd1na2vs0mg"},{"bike_id":"883a31b2-32d0-40ae-abfb-0a8cad9f140f","system_id":"levelo_inurba_marseille","lat":43.30907,"lon":5.38666,"is_reserved":false,"is_disabled":false,"rental_uris":{"android":"levelo://app?vid=883a31b2-32d0-40ae-abfb-0a8cad9f140f","ios":"levelo://app?vid=883a31b2-32d0-40ae-abfb-0a8cad9f140f"},"vehicle_type_id":"4","last_reported":1751808060,"current_range_meters":3600,"station_id":"","pricing_plan_id":"cebpf4jnsgd1na2vs0mg"},{"bike_id":"c3843864-7407-479c-a298-6ff665df3343","system_id":"levelo_inurba_marseille","lat":43.29529,"lon":5.3854,"is_reserved":false,"is_disabled":true,"rental_uris":{"android":"levelo://app?vid=c3843864-7407-479c-a298-6ff665df3343","ios":"levelo://app?vid=c3843864-7407-479c-a298-6ff665df3343"},"vehicle_type_id":"4","last_reported":1751808060,"current_range_meters":3600,"station_id":"ce4bgih2rcd13ifvqba0","pricing_plan_id":"cebpf4jnsgd1na2vs0mg"},{"bike_id":"2a4c83ba-5f52-4267-8b29-e88c69772435","system_id":"levelo_inurba_marseille","lat":43.26207,"lon":5.37429,"is_reserved":false,"is_disabled":false,"rental_uris":{"android":"levelo://app?vid=2a4c83ba-5f52-4267-8b29-e88c69772435","ios":"levelo://app?vid=2a4c83ba-5f52-4267-8b29-e88c69772435"},"vehicle_type_id":"4","last_reported":1751808060,"current_range_meters":3600,"station_id":"ce4bhgp2rcd13ifvqfc0","pricing_plan_id":"cebpf4jnsgd1na2vs0mg"},{"bike_id":"3a19dce4-8b25-430c-894d-824d52089677","system_id":"levelo_inurba_marseille","lat":43.30322,"lon":5.40445,"is_reserved":false,"is_disabled":false,"rental_uris":{"android":"levelo://app?vid=3a19dce4-8b25-430c-894d-824d52089677","ios":"levelo://app?vid=3a19dce4-8b25-430c-894d-824d52089677"},"vehicle_type_id":"4","last_reported":1751808060,"current_range_meters":4400,"station_id":"ce4bh012rcd13ifvqd10","pricing_plan_id":"cebpf4jnsgd1na2vs0mg"},{"bike_id":"1896188e-0d37-42ad-a704-0d8ae4bc51f5","system_id":"levelo_inurba_marseille","lat":43.24809,"lon":5.37445,"is_reserved":false,"is_disabled":false,"rental_uris":{"android":"levelo://app?vid=1896188e-0d37-42ad-a704-0d8ae4bc51f5","ios":"levelo://app?vid=1896188e-0d37-42ad-a704-0d8ae4bc51f5"},"vehicle_type_id":"4","last_reported":1751808060,"current_range_meters":4400,"station_id":"ce4bhgh2rcd13ifvqfb0","pricing_plan_id":"cebpf4jnsgd1na2vs0mg"},{"bike_id":"5efd10bc-ed7d-40b8-a577-183effb5f65a","system_id":"levelo_inurba_marseille","lat":43.26191,"lon":5.37458,"is_reserved":false,"is_disabled":false,"rental_uris":{"android":"levelo://app?vid=5efd10bc-ed7d-40b8-a577-183effb5f65a","ios":"levelo://app?vid=5efd10bc-ed7d-40b8-a577-183effb5f65a"},"vehicle_type_id":"4","last_reported":1751808060,"current_range_meters":4400,"station_id":"ce4bhgp2rcd13ifvqfc0","pricing_plan_id":"cebpf4jnsgd1na2vs0mg"},{"bike_id":"72aa21d6-9c40-47a4-9789-d661c2bd248f","system_id":"levelo_inurba_marseille","lat":43.23964,"lon":5.36629,"is_reserved":false,"is_disabled":false,"rental_uris":{"android":"levelo://app?vid=72aa21d6-9c40-47a4-9789-d661c2bd248f","ios":"levelo://app?vid=72aa21d6-9c40-47a4-9789-d661c2bd248f"},"vehicle_type_id":"4","last_reported":1751808060,"current_range_meters":4400,"station_id":"ce4bhi12rcd13ifvqfp0","pricing_plan_id":"cebpf4jnsgd1na2vs0mg"},{"bike_id":"75172bd6-617a-4c7d-9cbc-33121c9d42ab","system_id":"levelo_inurba_marseille","lat":43.28716,"lon":5.39993,"is_reserved":false,"is_disabled":false,"rental_uris":{"android":"levelo://app?vid=75172bd6-617a-4c7d-9cbc-33121c9d42ab","ios":"levelo://app?vid=75172bd6-617a-4c7d-9cbc-33121c9d42ab"},"vehicle_type_id":"4","last_reported":1751808060,"current_range_meters":4400,"station_id":"ce4bho92rcd13ifvqh3g","pricing_plan_id":"cebpf4jnsgd1na2vs0mg"},{"bike_id":"e332016a-eed1-4e58-bb37-6a7fd0151114","system_id":"levelo_inurba_marseille","lat":43.2176,"lon":5.34596,"is_reserved":false,"is_disabled":true,"rental_uris":{"android":"levelo://app?vid=e332016a-eed1-4e58-bb37-6a7fd0151114","ios":"levelo://app?vid=e332016a-eed1-4e58-bb37-6a7fd0151114"},"vehicle_type_id":"4","last_reported":1751808060,"current_range_meters":4400,"station_id":"st_cvj6r9ubvosntc0bgbag","pricing_plan_id":"cebpf4jnsgd1na2vs0mg"},{"bike_id":"b26fae72-751e-4090-a9c4-76ff5de1ad66","system_id":"levelo_inurba_marseille","lat":43.33241,"lon":5.38024,"is_reserved":false,"is_disabled":false,"rental_uris":{"android":"levelo://app?vid=b26fae72-751e-4090-a9c4-76ff5de1ad66","ios":"levelo://app?vid=b26fae72-751e-4090-a9c4-76ff5de1ad66"},"vehicle_type_id":"4","last_reported":1751808060,"current_range_meters":5600,"station_id":"","pricing_plan_id":"cebpf4jnsgd1na2vs0mg"},{"bike_id":"b1dfee67-8f6b-4742-9496-10e6367dacab","system_id":"levelo_inurba_marseille","lat":43.28729,"lon":5.3794,"is_reserved":false,"is_disabled":false,"rental_uris":{"android":"levelo://app?vid=b1dfee67-8f6b-4742-9496-10e6367dacab","ios":"levelo://app?vid=b1dfee67-8f6b-4742-9496-10e6367dacab"},"vehicle_type_id":"4","last_reported":1751808060,"current_range_meters":5600,"station_id":"ce4bh9p2rcd13ifvqec0","pricing_plan_id":"cebpf4jnsgd1na2vs0mg"},{"bike_id":"74326e1e-dd5c-458f-b91d-dd1c3b31389c","system_id":"levelo_inurba_marseille","lat":43.28607,"lon":5.37063,"is_reserved":false,"is_disabled":false,"rental_uris":{"android":"levelo://app?vid=74326e1e-dd5c-458f-b91d-dd1c3b31389c","ios":"levelo://app?vid=74326e1e-dd5c-458f-b91d-dd1c3b31389c"},"vehicle_type_id":"4","last_reported":1751808060,"current_range_meters":5600,"station_id":"ce4bht12rcd13ifvqi60","pricing_plan_id":"cebpf4jnsgd1na2vs0mg"},{"bike_id":"f0a19a9e-f150-4c1e-bcc6-db3195370cac","system_id":"levelo_inurba_marseille","lat":43.32692,"lon":5.43138,"is_reserved":false,"is_disabled":false,"rental_uris":{"android":"levelo://app?vid=f0a19a9e-f150-4c1e-bcc6-db3195370cac","ios":"levelo://app?vid=f0a19a9e-f150-4c1e-bcc6-db3195370cac"},"vehicle_type_id":"4","last_reported":1751808060,"current_range_meters":6000,"station_id":"","pricing_plan_id":"cebpf4jnsgd1na2vs0mg"},{"bike_id":"1c8ab180-05fd-405f-9922-b2b2c2d5142f","system_id":"levelo_inurba_marseille","lat":43.33786,"lon":5.381199,"is_reserved":false,"is_disabled":false,"rental_uris":{"android":"levelo://app?vid=1c8ab180-05fd-405f-9922-b2b2c2d5142f","ios":"levelo://app?vid=1c8ab180-05fd-405f-9922-b2b2c2d5142f"},"vehicle_type_id":"4","last_reported":1751808060,"current_range_meters":6000,"station_id":"","pricing_plan_id":"cebpf4jnsgd1na2vs0mg"},{"bike_id":"8205bdf4-ee83-4bb6-bcbe-d476b17ea327","system_id":"levelo_inurba_marseille","lat":43.31999,"lon":5.41335,"is_reserved":false,"is_disabled":false,"rental_uris":{"android":"levelo://app?vid=8205bdf4-ee83-4bb6-bcbe-d476b17ea327","ios":"levelo://app?vid=8205bdf4-ee83-4bb6-bcbe-d476b17ea327"},"vehicle_type_id":"4","last_reported":1751808060,"current_range_meters":6000,"station_id":"","pricing_plan_id":"cebpf4jnsgd1na2vs0mg"},{"bike_id":"dea9c372-5d48-4c4e-b95a-cae34c496c31","system_id":"levelo_inurba_marseille","lat":43.30557,"lon":5.36557,"is_reserved":false,"is_disabled":false,"rental_uris":{"android":"levelo://app?vid=dea9c372-5d48-4c4e-b95a-cae34c496c31","ios":"levelo://app?vid=dea9c372-5d48-4c4e-b95a-cae34c496c31"},"vehicle_type_id":"4","last_reported":1751808060,"current_range_meters":6000,"station_id":"ce4bgs12rcd13ifvqcag","pricing_plan_id":"cebpf4jnsgd1na2vs0mg"},{"bike_id":"3aacb8b5-6624-4fd8-bb2c-56d014ff52a5","system_id":"levelo_inurba_marseille","lat":43.268109,"lon":5.402697,"is_reserved":false,"is_disabled":false,"rental_uris":{"android":"levelo://app?vid=3aacb8b5-6624-4fd8-bb2c-56d014ff52a5","ios":"levelo://app?vid=3aacb8b5-6624-4fd8-bb2c-56d014ff52a5"},"vehicle_type_id":"4","last_reported":1751808060,"current_range_meters":6000,"station_id":"ce501612rcd8frsf0b60","pricing_plan_id":"cebpf4jnsgd1na2vs0mg"},{"bike_id":"5b5f700f-840d-4b36-a729-edeff9a1d9ca","system_id":"levelo_inurba_marseille","lat":43.2781,"lon":5.40711,"is_reserved":false,"is_disabled":false,"rental_uris":{"android":"levelo://app?vid=5b5f700f-840d-4b36-a729-edeff9a1d9ca","ios":"levelo://app?vid=5b5f700f-840d-4b36-a729-edeff9a1d9ca"},"vehicle_type_id":"4","last_reported":1751808060,"current_range_meters":6400,"station_id":"ce4bhnh2rcd13ifvqgtg","pricing_plan_id":"cebpf4jnsgd1na2vs0mg"},{"bike_id":"4b8da722-ee9e-48a4-a5e5-3a8a10364708","system_id":"levelo_inurba_marseille","lat":43.31228,"lon":5.37821,"is_reserved":false,"is_disabled":false,"rental_uris":{"android":"levelo://app?vid=4b8da722-ee9e-48a4-a5e5-3a8a10364708","ios":"levelo://app?vid=4b8da722-ee9e-48a4-a5e5-3a8a10364708"},"vehicle_type_id":"4","last_reported":1751808060,"current_range_meters":6800,"station_id":"","pricing_plan_id":"cebpf4jnsgd1na2vs0mg"},{"bike_id":"69c2280d-9883-47db-99f2-c073a6babae6","system_id":"levelo_inurba_marseille","lat":43.30845,"lon":5.37025,"is_reserved":false,"is_disabled":false,"rental_uris":{"android":"levelo://app?vid=69c2280d-9883-47db-99f2-c073a6babae6","ios":"levelo://app?vid=69c2280d-9883-47db-99f2-c073a6babae6"},"vehicle_type_id":"4","last_reported":1751808060,"current_range_meters":6800,"station_id":"","pricing_plan_id":"cebpf4jnsgd1na2vs0mg"},{"bike_id":"a98eb4a2-6e71-4a5a-9ce4-06812b3fc548","system_id":"levelo_inurba_marseille","lat":43.28355,"lon":5.38106,"is_reserved":false,"is_disabled":false,"rental_uris":{"android":"levelo://app?vid=a98eb4a2-6e71-4a5a-9ce4-06812b3fc548","ios":"levelo://app?vid=a98eb4a2-6e71-4a5a-9ce4-06812b3fc548"},"vehicle_type_id":"4","last_reported":1751808060,"current_range_meters":6800,"station_id":"ce4bh412rcd13ifvqdr0","pricing_plan_id":"cebpf4jnsgd1na2vs0mg"},{"bike_id":"106b7466-5c16-41f6-aa47-a9014c503c3a","system_id":"levelo_inurba_marseille","lat":43.28266,"lon":5.35073,"is_reserved":false,"is_disabled":false,"rental_uris":{"android":"levelo://app?vid=106b7466-5c16-41f6-aa47-a9014c503c3a","ios":"levelo://app?vid=106b7466-5c16-41f6-aa47-a9014c503c3a"},"vehicle_type_id":"4","last_reported":1751808060,"current_range_meters":6800,"station_id":"ce4bhbp2rcd13ifvqerg","pricing_plan_id":"cebpf4jnsgd1na2vs0mg"},{"bike_id":"c3039e0b-f2aa-4656-9a2f-27eb16abc715","system_id":"levelo_inurba_marseille","lat":43.29273,"lon":5.3684,"is_reserved":false,"is_disabled":false,"rental_uris":{"android":"levelo://app?vid=c3039e0b-f2aa-4656-9a2f-27eb16abc715","ios":"levelo://app?vid=c3039e0b-f2aa-4656-9a2f-27eb16abc715"},"vehicle_type_id":"4","last_reported":1751808060,"current_range_meters":6800,"station_id":"ce4bhbp2rcd13ifvqesg","pricing_plan_id":"cebpf4jnsgd1na2vs0mg"},{"bike_id":"6c88be23-c34e-446d-b733-ddb98a28f7a2","system_id":"levelo_inurba_marseille","lat":43.26055,"lon":5.39409,"is_reserved":false,"is_disabled":false,"rental_uris":{"android":"levelo://app?vid=6c88be23-c34e-446d-b733-ddb98a28f7a2","ios":"levelo://app?vid=6c88be23-c34e-446d-b733-ddb98a28f7a2"},"vehicle_type_id":"4","last_reported":1751808060,"current_range_meters":6800,"station_id":"ce4bhh92rcd13ifvqfj0","pricing_plan_id":"cebpf4jnsgd1na2vs0mg"},{"bike_id":"71ae1b96-3c87-47f6-84c1-eb797576bd71","system_id":"levelo_inurba_marseille","lat":43.31545,"lon":5.38381,"is_reserved":false,"is_disabled":false,"rental_uris":{"android":"levelo://app?vid=71ae1b96-3c87-47f6-84c1-eb797576bd71","ios":"levelo://app?vid=71ae1b96-3c87-47f6-84c1-eb797576bd71"},"vehicle_type_id":"4","last_reported":1751808060,"current_range_meters":7200,"station_id":"","pricing_plan_id":"cebpf4jnsgd1na2vs0mg"},{"bike_id":"fce11d80-77eb-474f-9ca1-d94124035584","system_id":"levelo_inurba_marseille","lat":43.24994,"lon":5.38931,"is_reserved":false,"is_disabled":false,"rental_uris":{"android":"levelo://app?vid=fce11d80-77eb-474f-9ca1-d94124035584","ios":"levelo://app?vid=fce11d80-77eb-474f-9ca1-d94124035584"},"vehicle_type_id":"4","last_reported":1751808060,"current_range_meters":7200,"station_id":"ce4bhgp2rcd13ifvqfd0","pricing_plan_id":"cebpf4jnsgd1na2vs0mg"},{"bike_id":"1c50ab30-656a-4830-a84d-40fcc4d23f93","system_id":"levelo_inurba_marseille","lat":43.27996,"lon":5.40011,"is_reserved":false,"is_disabled":false,"rental_uris":{"android":"levelo://app?vid=1c50ab30-656a-4830-a84d-40fcc4d23f93","ios":"levelo://app?vid=1c50ab30-656a-4830-a84d-40fcc4d23f93"},"vehicle_type_id":"4","last_reported":1751808060,"current_range_meters":7200,"station_id":"ce4bho92rcd13ifvqh4g","pricing_plan_id":"cebpf4jnsgd1na2vs0mg"},{"bike_id":"1e04b9e2-27c6-4b30-b902-6c81e18716e2","system_id":"levelo_inurba_marseille","lat":43.31186,"lon":5.37749,"is_reserved":false,"is_disabled":false,"rental_uris":{"android":"levelo://app?vid=1e04b9e2-27c6-4b30-b902-6c81e18716e2","ios":"levelo://app?vid=1e04b9e2-27c6-4b30-b902-6c81e18716e2"},"vehicle_type_id":"4","last_reported":1751808060,"current_range_meters":8000,"station_id":"","pricing_plan_id":"cebpf4jnsgd1na2vs0mg"},{"bike_id":"380b227f-5cdc-4922-ab69-b78dd9d9af9e","system_id":"levelo_inurba_marseille","lat":43.29195,"lon":5.39311,"is_reserved":false,"is_disabled":false,"rental_uris":{"android":"levelo://app?vid=380b227f-5cdc-4922-ab69-b78dd9d9af9e","ios":"levelo://app?vid=380b227f-5cdc-4922-ab69-b78dd9d9af9e"},"vehicle_type_id":"4","last_reported":1751808060,"current_range_meters":8000,"station_id":"ce4bh192rcd13ifvqdd0","pricing_plan_id":"cebpf4jnsgd1na2vs0mg"},{"bike_id":"bec7d59b-155b-47a0-a6c5-cf1b4da290ea","system_id":"levelo_inurba_marseille","lat":43.29527,"lon":5.39029,"is_reserved":false,"is_disabled":false,"rental_uris":{"android":"levelo://app?vid=bec7d59b-155b-47a0-a6c5-cf1b4da290ea","ios":"levelo://app?vid=bec7d59b-155b-47a0-a6c5-cf1b4da290ea"},"vehicle_type_id":"4","last_reported":1751808060,"current_range_meters":8000,"station_id":"ce4bh3p2rcd13ifvqdp0","pricing_plan_id":"cebpf4jnsgd1na2vs0mg"},{"bike_id":"0fad0e94-d83e-456e-b2df-665694d6794f","system_id":"levelo_inurba_marseille","lat":43.281036,"lon":5.378411,"is_reserved":false,"is_disabled":false,"rental_uris":{"android":"levelo://app?vid=0fad0e94-d83e-456e-b2df-665694d6794f","ios":"levelo://app?vid=0fad0e94-d83e-456e-b2df-665694d6794f"},"vehicle_type_id":"4","last_reported":1751808060,"current_range_meters":8000,"station_id":"ce4bha12rcd13ifvqee0","pricing_plan_id":"cebpf4jnsgd1na2vs0mg"},{"bike_id":"2434764e-acd2-410c-a7b7-12268fa29ddf","system_id":"levelo_inurba_marseille","lat":43.21182,"lon":5.35079,"is_reserved":false,"is_disabled":false,"rental_uris":{"android":"levelo://app?vid=2434764e-acd2-410c-a7b7-12268fa29ddf","ios":"levelo://app?vid=2434764e-acd2-410c-a7b7-12268fa29ddf"},"vehicle_type_id":"4","last_reported":1751808060,"current_range_meters":8000,"station_id":"st_cvj6sg6p6f1abm77japg","pricing_plan_id":"cebpf4jnsgd1na2vs0mg"},{"bike_id":"54df9dcd-66a5-4129-a596-297ff7a0cf4a","system_id":"levelo_inurba_marseille","lat":43.29018,"lon":5.35923,"is_reserved":false,"is_disabled":false,"rental_uris":{"android":"levelo://app?vid=54df9dcd-66a5-4129-a596-297ff7a0cf4a","ios":"levelo://app?vid=54df9dcd-66a5-4129-a596-297ff7a0cf4a"},"vehicle_type_id":"4","last_reported":1751808060,"current_range_meters":8400,"station_id":"ce4bha92rcd13ifvqeg0","pricing_plan_id":"cebpf4jnsgd1na2vs0mg"},{"bike_id":"e6de16b3-ae1d-40b3-a96e-1aff1907d183","system_id":"levelo_inurba_marseille","lat":43.24164,"lon":5.36396,"is_reserved":false,"is_disabled":false,"rental_uris":{"android":"levelo://app?vid=e6de16b3-ae1d-40b3-a96e-1aff1907d183","ios":"levelo://app?vid=e6de16b3-ae1d-40b3-a96e-1aff1907d183"},"vehicle_type_id":"4","last_reported":1751808060,"current_range_meters":8400,"station_id":"cpo36qri1sfpv3e86is0","pricing_plan_id":"cebpf4jnsgd1na2vs0mg"},{"bike_id":"452e8211-4f44-45d0-814a-3e9e25b8c44e","system_id":"levelo_inurba_marseille","lat":43.2119,"lon":5.35081,"is_reserved":false,"is_disabled":false,"rental_uris":{"android":"levelo://app?vid=452e8211-4f44-45d0-814a-3e9e25b8c44e","ios":"levelo://app?vid=452e8211-4f44-45d0-814a-3e9e25b8c44e"},"vehicle_type_id":"4","last_reported":1751808060,"current_range_meters":8400,"station_id":"st_cvj6sg6p6f1abm77japg","pricing_plan_id":"cebpf4jnsgd1na2vs0mg"},{"bike_id":"8eb283fe-44c7-4bb1-836e-cde6c55f1adf","system_id":"levelo_inurba_marseille","lat":43.318015,"lon":5.368206,"is_reserved":false,"is_disabled":false,"rental_uris":{"android":"levelo://app?vid=8eb283fe-44c7-4bb1-836e-cde6c55f1adf","ios":"levelo://app?vid=8eb283fe-44c7-4bb1-836e-cde6c55f1adf"},"vehicle_type_id":"4","last_reported":1751808060,"current_range_meters":8800,"station_id":"","pricing_plan_id":"cebpf4jnsgd1na2vs0mg"},{"bike_id":"a435dcd2-70c6-4f09-a39c-ceb041b198a3","system_id":"levelo_inurba_marseille","lat":43.30558,"lon":5.36539,"is_reserved":false,"is_disabled":false,"rental_uris":{"android":"levelo://app?vid=a435dcd2-70c6-4f09-a39c-ceb041b198a3","ios":"levelo://app?vid=a435dcd2-70c6-4f09-a39c-ceb041b198a3"},"vehicle_type_id":"4","last_reported":1751808060,"current_range_meters":8800,"station_id":"ce4bgs12rcd13ifvqcag","pricing_plan_id":"cebpf4jnsgd1na2vs0mg"},{"bike_id":"121f58ac-89c4-4ee6-840c-2dce725dae99","system_id":"levelo_inurba_marseille","lat":43.24807,"lon":5.37457,"is_reserved":false,"is_disabled":false,"rental_uris":{"android":"levelo://app?vid=121f58ac-89c4-4ee6-840c-2dce725dae99","ios":"levelo://app?vid=121f58ac-89c4-4ee6-840c-2dce725dae99"},"vehicle_type_id":"4","last_reported":1751808060,"current_range_meters":8800,"station_id":"ce4bhgh2rcd13ifvqfb0","pricing_plan_id":"cebpf4jnsgd1na2vs0mg"},{"bike_id":"4d59d020-ea15-4b32-a9d3-4489e240b788","system_id":"levelo_inurba_marseille","lat":43.2175,"lon":5.34608,"is_reserved":false,"is_disabled":false,"rental_uris":{"android":"levelo://app?vid=4d59d020-ea15-4b32-a9d3-4489e240b788","ios":"levelo://app?vid=4d59d020-ea15-4b32-a9d3-4489e240b788"},"vehicle_type_id":"4","last_reported":1751808060,"current_range_meters":8800,"station_id":"st_cvj6r9ubvosntc0bgbag","pricing_plan_id":"cebpf4jnsgd1na2vs0mg"},{"bike_id":"36f9c75b-5d6c-412a-b395-ad8ffc2d771a","system_id":"levelo_inurba_marseille","lat":43.26017,"lon":5.41734,"is_reserved":false,"is_disabled":false,"rental_uris":{"android":"levelo://app?vid=36f9c75b-5d6c-412a-b395-ad8ffc2d771a","ios":"levelo://app?vid=36f9c75b-5d6c-412a-b395-ad8ffc2d771a"},"vehicle_type_id":"4","last_reported":1751808060,"current_range_meters":9200,"station_id":"","pricing_plan_id":"cebpf4jnsgd1na2vs0mg"},{"bike_id":"b1d40197-e49c-4962-8cd8-0babe05d31a6","system_id":"levelo_inurba_marseille","lat":43.21293,"lon":5.35277,"is_reserved":false,"is_disabled":false,"rental_uris":{"android":"levelo://app?vid=b1d40197-e49c-4962-8cd8-0babe05d31a6","ios":"levelo://app?vid=b1d40197-e49c-4962-8cd8-0babe05d31a6"},"vehicle_type_id":"4","last_reported":1751808060,"current_range_meters":9600,"station_id":"","pricing_plan_id":"cebpf4jnsgd1na2vs0mg"},{"bike_id":"86c92dc1-b4da-49d9-acb8-ba390f939865","system_id":"levelo_inurba_marseille","lat":43.33022,"lon":5.39244,"is_reserved":false,"is_disabled":false,"rental_uris":{"android":"levelo://app?vid=86c92dc1-b4da-49d9-acb8-ba390f939865","ios":"levelo://app?vid=86c92dc1-b4da-49d9-acb8-ba390f939865"},"vehicle_type_id":"4","last_reported":1751808060,"current_range_meters":9600,"station_id":"","pricing_plan_id":"cebpf4jnsgd1na2vs0mg"},{"bike_id":"0805f50b-40fd-45ef-be93-ff0e9245bfa6","system_id":"levelo_inurba_marseille","lat":43.28407,"lon":5.34998,"is_reserved":false,"is_disabled":false,"rental_uris":{"android":"levelo://app?vid=0805f50b-40fd-45ef-be93-ff0e9245bfa6","ios":"levelo://app?vid=0805f50b-40fd-45ef-be93-ff0e9245bfa6"},"vehicle_type_id":"4","last_reported":1751808060,"current_range_meters":9600,"station_id":"ce4bhbh2rcd13ifvqepg","pricing_plan_id":"cebpf4jnsgd1na2vs0mg"},{"bike_id":"5f65328a-0e1b-40a2-9ceb-eabe560de112","system_id":"levelo_inurba_marseille","lat":43.28261,"lon":5.35065,"is_reserved":false,"is_disabled":false,"rental_uris":{"android":"levelo://app?vid=5f65328a-0e1b-40a2-9ceb-eabe560de112","ios":"levelo://app?vid=5f65328a-0e1b-40a2-9ceb-eabe560de112"},"vehicle_type_id":"4","last_reported":1751808060,"current_range_meters":9600,"station_id":"ce4bhbp2rcd13ifvqerg","pricing_plan_id":"cebpf4jnsgd1na2vs0mg"},{"bike_id":"005403d4-2869-4ca9-937c-5790939e0bb5","system_id":"levelo_inurba_marseille","lat":43.32028,"lon":5.41577,"is_reserved":false,"is_disabled":false,"rental_uris":{"android":"levelo://app?vid=005403d4-2869-4ca9-937c-5790939e0bb5","ios":"levelo://app?vid=005403d4-2869-4ca9-937c-5790939e0bb5"},"vehicle_type_id":"4","last_reported":1751808060,"current_range_meters":9600,"station_id":"ce4bhq92rcd13ifvqhkg","pricing_plan_id":"cebpf4jnsgd1na2vs0mg"},{"bike_id":"d858b784-4fd9-41d7-8169-6d2f7e176251","system_id":"levelo_inurba_marseille","lat":43.3006,"lon":5.37834,"is_reserved":false,"is_disabled":false,"rental_uris":{"android":"levelo://app?vid=d858b784-4fd9-41d7-8169-6d2f7e176251","ios":"levelo://app?vid=d858b784-4fd9-41d7-8169-6d2f7e176251"},"vehicle_type_id":"4","last_reported":1751808060,"current_range_meters":10000,"station_id":"","pricing_plan_id":"cebpf4jnsgd1na2vs0mg"},{"bike_id":"adf1d38d-1f03-40cf-9b57-0a8f15f62b2d","system_id":"levelo_inurba_marseille","lat":43.329222,"lon":5.36409,"is_reserved":false,"is_disabled":false,"rental_uris":{"android":"levelo://app?vid=adf1d38d-1f03-40cf-9b57-0a8f15f62b2d","ios":"levelo://app?vid=adf1d38d-1f03-40cf-9b57-0a8f15f62b2d"},"vehicle_type_id":"4","last_reported":1751808060,"current_range_meters":10000,"station_id":"","pricing_plan_id":"cebpf4jnsgd1na2vs0mg"},{"bike_id":"af49b832-1416-49c0-89a1-fdae241b06f6","system_id":"levelo_inurba_marseille","lat":43.29896,"lon":5.43649,"is_reserved":false,"is_disabled":false,"rental_uris":{"android":"levelo://app?vid=af49b832-1416-49c0-89a1-fdae241b06f6","ios":"levelo://app?vid=af49b832-1416-49c0-89a1-fdae241b06f6"},"vehicle_type_id":"4","last_reported":1751808060,"current_range_meters":10000,"station_id":"ce4bhpp2rcd13ifvqhfg","pricing_plan_id":"cebpf4jnsgd1na2vs0mg"},{"bike_id":"fe8ee84c-fdfc-40aa-a1c2-6e36409c0740","system_id":"levelo_inurba_marseille","lat":43.2682,"lon":5.39055,"is_reserved":false,"is_disabled":false,"rental_uris":{"android":"levelo://app?vid=fe8ee84c-fdfc-40aa-a1c2-6e36409c0740","ios":"levelo://app?vid=fe8ee84c-fdfc-40aa-a1c2-6e36409c0740"},"vehicle_type_id":"4","last_reported":1751808060,"current_range_meters":10800,"station_id":"","pricing_plan_id":"cebpf4jnsgd1na2vs0mg"},{"bike_id":"39b4c99f-c990-4db3-b0ea-5b11c8b40c2f","system_id":"levelo_inurba_marseille","lat":43.30545,"lon":5.365601,"is_reserved":false,"is_disabled":false,"rental_uris":{"android":"levelo://app?vid=39b4c99f-c990-4db3-b0ea-5b11c8b40c2f","ios":"levelo://app?vid=39b4c99f-c990-4db3-b0ea-5b11c8b40c2f"},"vehicle_type_id":"4","last_reported":1751808060,"current_range_meters":10800,"station_id":"ce4bgs12rcd13ifvqcag","pricing_plan_id":"cebpf4jnsgd1na2vs0mg"},{"bike_id":"a09c1531-84b1-48a4-a178-d5468b9b4219","system_id":"levelo_inurba_marseille","lat":43.30461,"lon":5.37908,"is_reserved":false,"is_disabled":false,"rental_uris":{"android":"levelo://app?vid=a09c1531-84b1-48a4-a178-d5468b9b4219","ios":"levelo://app?vid=a09c1531-84b1-48a4-a178-d5468b9b4219"},"vehicle_type_id":"4","last_reported":1751808060,"current_range_meters":10800,"station_id":"ce4bgup2rcd13ifvqcn0","pricing_plan_id":"cebpf4jnsgd1na2vs0mg"},{"bike_id":"5d5b5474-8b7d-4b7f-9421-ff8174e47d0c","system_id":"levelo_inurba_marseille","lat":43.30456,"lon":5.37901,"is_reserved":false,"is_disabled":false,"rental_uris":{"android":"levelo://app?vid=5d5b5474-8b7d-4b7f-9421-ff8174e47d0c","ios":"levelo://app?vid=5d5b5474-8b7d-4b7f-9421-ff8174e47d0c"},"vehicle_type_id":"4","last_reported":1751808060,"current_range_meters":10800,"station_id":"ce4bgup2rcd13ifvqcn0","pricing_plan_id":"cebpf4jnsgd1na2vs0mg"},{"bike_id":"2dfe9a6c-c017-4c3c-b211-38be4ceaca18","system_id":"levelo_inurba_marseille","lat":43.25067,"lon":5.3951,"is_reserved":false,"is_disabled":false,"rental_uris":{"android":"levelo://app?vid=2dfe9a6c-c017-4c3c-b211-38be4ceaca18","ios":"levelo://app?vid=2dfe9a6c-c017-4c3c-b211-38be4ceaca18"},"vehicle_type_id":"4","last_reported":1751808060,"current_range_meters":10800,"station_id":"ce4bhm12rcd13ifvqgkg","pricing_plan_id":"cebpf4jnsgd1na2vs0mg"},{"bike_id":"84229d79-63a9-417f-9ad3-2f0ab7956b45","system_id":"levelo_inurba_marseille","lat":43.2407,"lon":5.37766,"is_reserved":false,"is_disabled":false,"rental_uris":{"android":"levelo://app?vid=84229d79-63a9-417f-9ad3-2f0ab7956b45","ios":"levelo://app?vid=84229d79-63a9-417f-9ad3-2f0ab7956b45"},"vehicle_type_id":"4","last_reported":1751808060,"current_range_meters":10800,"station_id":"ce4bhnp2rcd13ifvqgvg","pricing_plan_id":"cebpf4jnsgd1na2vs0mg"},{"bike_id":"3e0f8be8-dba9-42cd-8520-71f7b019883a","system_id":"levelo_inurba_marseille","lat":43.22932,"lon":5.3537,"is_reserved":false,"is_disabled":false,"rental_uris":{"android":"levelo://app?vid=3e0f8be8-dba9-42cd-8520-71f7b019883a","ios":"levelo://app?vid=3e0f8be8-dba9-42cd-8520-71f7b019883a"},"vehicle_type_id":"4","last_reported":1751808060,"current_range_meters":10800,"station_id":"cpo3532slgdg3j2ikp40","pricing_plan_id":"cebpf4jnsgd1na2vs0mg"},{"bike_id":"242b724f-fe88-483c-89a3-315957136a70","system_id":"levelo_inurba_marseille","lat":43.21742,"lon":5.34619,"is_reserved":false,"is_disabled":false,"rental_uris":{"android":"levelo://app?vid=242b724f-fe88-483c-89a3-315957136a70","ios":"levelo://app?vid=242b724f-fe88-483c-89a3-315957136a70"},"vehicle_type_id":"4","last_reported":1751808060,"current_range_meters":10800,"station_id":"st_cvj6r9ubvosntc0bgbag","pricing_plan_id":"cebpf4jnsgd1na2vs0mg"},{"bike_id":"f24de232-65c7-4be7-9e98-e4a9a828fd58","system_id":"levelo_inurba_marseille","lat":43.2424,"lon":5.38902,"is_reserved":false,"is_disabled":false,"rental_uris":{"android":"levelo://app?vid=f24de232-65c7-4be7-9e98-e4a9a828fd58","ios":"levelo://app?vid=f24de232-65c7-4be7-9e98-e4a9a828fd58"},"vehicle_type_id":"4","last_reported":1751808060,"current_range_meters":11200,"station_id":"","pricing_plan_id":"cebpf4jnsgd1na2vs0mg"},{"bike_id":"d712008c-4f25-4a2b-bf71-9d59dbc29da6","system_id":"levelo_inurba_marseille","lat":43.2573,"lon":5.41107,"is_reserved":false,"is_disabled":false,"rental_uris":{"android":"levelo://app?vid=d712008c-4f25-4a2b-bf71-9d59dbc29da6","ios":"levelo://app?vid=d712008c-4f25-4a2b-bf71-9d59dbc29da6"},"vehicle_type_id":"4","last_reported":1751808060,"current_range_meters":11200,"station_id":"","pricing_plan_id":"cebpf4jnsgd1na2vs0mg"},{"bike_id":"72f51475-1458-430b-a65f-6c528af5773e","system_id":"levelo_inurba_marseille","lat":43.26194,"lon":5.37927,"is_reserved":false,"is_disabled":false,"rental_uris":{"android":"levelo://app?vid=72f51475-1458-430b-a65f-6c528af5773e","ios":"levelo://app?vid=72f51475-1458-430b-a65f-6c528af5773e"},"vehicle_type_id":"4","last_reported":1751808060,"current_range_meters":11200,"station_id":"ce4bhjp2rcd13ifvqg90","pricing_plan_id":"cebpf4jnsgd1na2vs0mg"},{"bike_id":"33bb925f-9d93-46d2-97e9-4dc1aed65782","system_id":"levelo_inurba_marseille","lat":43.25104,"lon":5.40339,"is_reserved":false,"is_disabled":false,"rental_uris":{"android":"levelo://app?vid=33bb925f-9d93-46d2-97e9-4dc1aed65782","ios":"levelo://app?vid=33bb925f-9d93-46d2-97e9-4dc1aed65782"},"vehicle_type_id":"4","last_reported":1751808060,"current_range_meters":11200,"station_id":"ce4bhlh2rcd13ifvqgig","pricing_plan_id":"cebpf4jnsgd1na2vs0mg"},{"bike_id":"5721378a-4fab-4eae-86af-0685cd9383f4","system_id":"levelo_inurba_marseille","lat":43.21755,"lon":5.3459,"is_reserved":false,"is_disabled":false,"rental_uris":{"android":"levelo://app?vid=5721378a-4fab-4eae-86af-0685cd9383f4","ios":"levelo://app?vid=5721378a-4fab-4eae-86af-0685cd9383f4"},"vehicle_type_id":"4","last_reported":1751808060,"current_range_meters":11200,"station_id":"st_cvj6r9ubvosntc0bgbag","pricing_plan_id":"cebpf4jnsgd1na2vs0mg"},{"bike_id":"f7e66efb-218a-4929-9b38-ff5ef5597c0d","system_id":"levelo_inurba_marseille","lat":43.24386,"lon":5.37056,"is_reserved":false,"is_disabled":false,"rental_uris":{"android":"levelo://app?vid=f7e66efb-218a-4929-9b38-ff5ef5597c0d","ios":"levelo://app?vid=f7e66efb-218a-4929-9b38-ff5ef5597c0d"},"vehicle_type_id":"4","last_reported":1751808060,"current_range_meters":11600,"station_id":"ce4bhhh2rcd13ifvqfk0","pricing_plan_id":"cebpf4jnsgd1na2vs0mg"},{"bike_id":"c4ff648a-f214-4632-8118-32b7fd04476a","system_id":"levelo_inurba_marseille","lat":43.3153,"lon":5.38005,"is_reserved":false,"is_disabled":false,"rental_uris":{"android":"levelo://app?vid=c4ff648a-f214-4632-8118-32b7fd04476a","ios":"levelo://app?vid=c4ff648a-f214-4632-8118-32b7fd04476a"},"vehicle_type_id":"4","last_reported":1751808060,"current_range_meters":11600,"station_id":"ce4bhsp2rcd13ifvqi50","pricing_plan_id":"cebpf4jnsgd1na2vs0mg"},{"bike_id":"fac56a05-e7f3-49d8-9bed-2f9b887d0999","system_id":"levelo_inurba_marseille","lat":43.28348,"lon":5.38099,"is_reserved":false,"is_disabled":false,"rental_uris":{"android":"levelo://app?vid=fac56a05-e7f3-49d8-9bed-2f9b887d0999","ios":"levelo://app?vid=fac56a05-e7f3-49d8-9bed-2f9b887d0999"},"vehicle_type_id":"4","last_reported":1751808060,"current_range_meters":12000,"station_id":"ce4bh412rcd13ifvqdr0","pricing_plan_id":"cebpf4jnsgd1na2vs0mg"},{"bike_id":"e934df3a-55ad-4287-be0e-970eb81a614c","system_id":"levelo_inurba_marseille","lat":43.33734,"lon":5.39188,"is_reserved":false,"is_disabled":false,"rental_uris":{"android":"levelo://app?vid=e934df3a-55ad-4287-be0e-970eb81a614c","ios":"levelo://app?vid=e934df3a-55ad-4287-be0e-970eb81a614c"},"vehicle_type_id":"4","last_reported":1751808060,"current_range_meters":12000,"station_id":"ce4bhr92rcd13ifvqhsg","pricing_plan_id":"cebpf4jnsgd1na2vs0mg"},{"bike_id":"44fb599a-6863-4515-8980-c3fee289691d","system_id":"levelo_inurba_marseille","lat":43.27983,"lon":5.41676,"is_reserved":false,"is_disabled":false,"rental_uris":{"android":"levelo://app?vid=44fb599a-6863-4515-8980-c3fee289691d","ios":"levelo://app?vid=44fb599a-6863-4515-8980-c3fee289691d"},"vehicle_type_id":"4","last_reported":1751808060,"current_range_meters":12800,"station_id":"ce4bho12rcd13ifvqh1g","pricing_plan_id":"cebpf4jnsgd1na2vs0mg"},{"bike_id":"c5b266b7-54bc-4aa0-a0a0-58c96d50c8d6","system_id":"levelo_inurba_marseille","lat":43.28412,"lon":5.34986,"is_reserved":false,"is_disabled":false,"rental_uris":{"android":"levelo://app?vid=c5b266b7-54bc-4aa0-a0a0-58c96d50c8d6","ios":"levelo://app?vid=c5b266b7-54bc-4aa0-a0a0-58c96d50c8d6"},"vehicle_type_id":"4","last_reported":1751808060,"current_range_meters":13600,"station_id":"ce4bhbh2rcd13ifvqepg","pricing_plan_id":"cebpf4jnsgd1na2vs0mg"},{"bike_id":"f0f5480c-40ba-4897-b55b-fcab9ada1fbe","system_id":"levelo_inurba_marseille","lat":43.27936,"lon":5.41045,"is_reserved":false,"is_disabled":false,"rental_uris":{"android":"levelo://app?vid=f0f5480c-40ba-4897-b55b-fcab9ada1fbe","ios":"levelo://app?vid=f0f5480c-40ba-4897-b55b-fcab9ada1fbe"},"vehicle_type_id":"4","last_reported":1751808060,"current_range_meters":13600,"station_id":"ce4bhnp2rcd13ifvqh0g","pricing_plan_id":"cebpf4jnsgd1na2vs0mg"},{"bike_id":"44c5d8b4-a09b-481c-b3d7-d51bb5029874","system_id":"levelo_inurba_marseille","lat":43.21746,"lon":5.34618,"is_reserved":false,"is_disabled":false,"rental_uris":{"android":"levelo://app?vid=44c5d8b4-a09b-481c-b3d7-d51bb5029874","ios":"levelo://app?vid=44c5d8b4-a09b-481c-b3d7-d51bb5029874"},"vehicle_type_id":"4","last_reported":1751808060,"current_range_meters":13600,"station_id":"st_cvj6r9ubvosntc0bgbag","pricing_plan_id":"cebpf4jnsgd1na2vs0mg"},{"bike_id":"cca64af8-c499-4e6a-b472-0789576435e2","system_id":"levelo_inurba_marseille","lat":43.239283,"lon":5.365945,"is_reserved":false,"is_disabled":false,"rental_uris":{"android":"levelo://app?vid=cca64af8-c499-4e6a-b472-0789576435e2","ios":"levelo://app?vid=cca64af8-c499-4e6a-b472-0789576435e2"},"vehicle_type_id":"4","last_reported":1751808060,"current_range_meters":14000,"station_id":"","pricing_plan_id":"cebpf4jnsgd1na2vs0mg"},{"bike_id":"af059159-7f2e-4844-a622-d7cb95993abb","system_id":"levelo_inurba_marseille","lat":43.2953,"lon":5.37497,"is_reserved":false,"is_disabled":false,"rental_uris":{"android":"levelo://app?vid=af059159-7f2e-4844-a622-d7cb95993abb","ios":"levelo://app?vid=af059159-7f2e-4844-a622-d7cb95993abb"},"vehicle_type_id":"4","last_reported":1751808060,"current_range_meters":14000,"station_id":"ce4bgkp2rcd13ifvqbmg","pricing_plan_id":"cebpf4jnsgd1na2vs0mg"},{"bike_id":"b0403483-74f8-489a-9c69-b45960f1d06d","system_id":"levelo_inurba_marseille","lat":43.31482,"lon":5.37305,"is_reserved":false,"is_disabled":false,"rental_uris":{"android":"levelo://app?vid=b0403483-74f8-489a-9c69-b45960f1d06d","ios":"levelo://app?vid=b0403483-74f8-489a-9c69-b45960f1d06d"},"vehicle_type_id":"4","last_reported":1751808060,"current_range_meters":14000,"station_id":"ce4bgt12rcd13ifvqcd0","pricing_plan_id":"cebpf4jnsgd1na2vs0mg"},{"bike_id":"7333bdd4-fd05-455b-a6d8-c408def5a917","system_id":"levelo_inurba_marseille","lat":43.28002,"lon":5.41663,"is_reserved":false,"is_disabled":false,"rental_uris":{"android":"levelo://app?vid=7333bdd4-fd05-455b-a6d8-c408def5a917","ios":"levelo://app?vid=7333bdd4-fd05-455b-a6d8-c408def5a917"},"vehicle_type_id":"4","last_reported":1751808060,"current_range_meters":14000,"station_id":"ce4bho12rcd13ifvqh1g","pricing_plan_id":"cebpf4jnsgd1na2vs0mg"},{"bike_id":"aca47642-4ceb-4a40-bae0-66b7f0d6dee2","system_id":"levelo_inurba_marseille","lat":43.22495,"lon":5.34787,"is_reserved":false,"is_disabled":false,"rental_uris":{"android":"levelo://app?vid=aca47642-4ceb-4a40-bae0-66b7f0d6dee2","ios":"levelo://app?vid=aca47642-4ceb-4a40-bae0-66b7f0d6dee2"},"vehicle_type_id":"4","last_reported":1751808060,"current_range_meters":14000,"station_id":"st_cvj5dfep6f1abm77gieg","pricing_plan_id":"cebpf4jnsgd1na2vs0mg"},{"bike_id":"e55cea4f-26d4-4f9c-bf7a-025fd9a4a22d","system_id":"levelo_inurba_marseille","lat":43.23436,"lon":5.35938,"is_reserved":false,"is_disabled":false,"rental_uris":{"android":"levelo://app?vid=e55cea4f-26d4-4f9c-bf7a-025fd9a4a22d","ios":"levelo://app?vid=e55cea4f-26d4-4f9c-bf7a-025fd9a4a22d"},"vehicle_type_id":"4","last_reported":1751808060,"current_range_meters":14400,"station_id":"","pricing_plan_id":"cebpf4jnsgd1na2vs0mg"},{"bike_id":"994815cf-43e6-438e-bfae-b5de2bd8f666","system_id":"levelo_inurba_marseille","lat":43.23062,"lon":5.35488,"is_reserved":false,"is_disabled":false,"rental_uris":{"android":"levelo://app?vid=994815cf-43e6-438e-bfae-b5de2bd8f666","ios":"levelo://app?vid=994815cf-43e6-438e-bfae-b5de2bd8f666"},"vehicle_type_id":"4","last_reported":1751808060,"current_range_meters":14400,"station_id":"cpo3342slgdg3j2ifvpg","pricing_plan_id":"cebpf4jnsgd1na2vs0mg"},{"bike_id":"8ae4b4aa-597a-41eb-a714-3e7e375236cf","system_id":"levelo_inurba_marseille","lat":43.284072,"lon":5.349731,"is_reserved":false,"is_disabled":false,"rental_uris":{"android":"levelo://app?vid=8ae4b4aa-597a-41eb-a714-3e7e375236cf","ios":"levelo://app?vid=8ae4b4aa-597a-41eb-a714-3e7e375236cf"},"vehicle_type_id":"4","last_reported":1751808060,"current_range_meters":14800,"station_id":"ce4bhbh2rcd13ifvqepg","pricing_plan_id":"cebpf4jnsgd1na2vs0mg"},{"bike_id":"cd6f91d4-bdaf-4e38-b4f5-14f6e83055e8","system_id":"levelo_inurba_marseille","lat":43.21189,"lon":5.35072,"is_reserved":false,"is_disabled":false,"rental_uris":{"android":"levelo://app?vid=cd6f91d4-bdaf-4e38-b4f5-14f6e83055e8","ios":"levelo://app?vid=cd6f91d4-bdaf-4e38-b4f5-14f6e83055e8"},"vehicle_type_id":"4","last_reported":1751808060,"current_range_meters":14800,"station_id":"st_cvj6sg6p6f1abm77japg","pricing_plan_id":"cebpf4jnsgd1na2vs0mg"},{"bike_id":"1eaad0c1-d201-4deb-ba8b-0452c4123114","system_id":"levelo_inurba_marseille","lat":43.29113,"lon":5.36809,"is_reserved":false,"is_disabled":false,"rental_uris":{"android":"levelo://app?vid=1eaad0c1-d201-4deb-ba8b-0452c4123114","ios":"levelo://app?vid=1eaad0c1-d201-4deb-ba8b-0452c4123114"},"vehicle_type_id":"4","last_reported":1751808060,"current_range_meters":15200,"station_id":"","pricing_plan_id":"cebpf4jnsgd1na2vs0mg"},{"bike_id":"18e903c3-bd69-4cad-bc4b-fefd2f289489","system_id":"levelo_inurba_marseille","lat":43.26209,"lon":5.40447,"is_reserved":false,"is_disabled":false,"rental_uris":{"android":"levelo://app?vid=18e903c3-bd69-4cad-bc4b-fefd2f289489","ios":"levelo://app?vid=18e903c3-bd69-4cad-bc4b-fefd2f289489"},"vehicle_type_id":"4","last_reported":1751808060,"current_range_meters":15200,"station_id":"ce4bhmh2rcd13ifvqgmg","pricing_plan_id":"cebpf4jnsgd1na2vs0mg"},{"bike_id":"fd0c40bb-13af-456a-83c0-b62ac6fc7ee4","system_id":"levelo_inurba_marseille","lat":43.28399,"lon":5.35002,"is_reserved":false,"is_disabled":false,"rental_uris":{"android":"levelo://app?vid=fd0c40bb-13af-456a-83c0-b62ac6fc7ee4","ios":"levelo://app?vid=fd0c40bb-13af-456a-83c0-b62ac6fc7ee4"},"vehicle_type_id":"4","last_reported":1751808060,"current_range_meters":16000,"station_id":"ce4bhbh2rcd13ifvqepg","pricing_plan_id":"cebpf4jnsgd1na2vs0mg"},{"bike_id":"d77d9f44-3927-43ab-a6ef-3fbea8696914","system_id":"levelo_inurba_marseille","lat":43.2558,"lon":5.38232,"is_reserved":false,"is_disabled":false,"rental_uris":{"android":"levelo://app?vid=d77d9f44-3927-43ab-a6ef-3fbea8696914","ios":"levelo://app?vid=d77d9f44-3927-43ab-a6ef-3fbea8696914"},"vehicle_type_id":"4","last_reported":1751808060,"current_range_meters":16000,"station_id":"ce4bhih2rcd13ifvqfs0","pricing_plan_id":"cebpf4jnsgd1na2vs0mg"},{"bike_id":"e113175a-26c2-4709-bd2e-8b90ec8dd3ee","system_id":"levelo_inurba_marseille","lat":43.274924,"lon":5.424601,"is_reserved":false,"is_disabled":false,"rental_uris":{"android":"levelo://app?vid=e113175a-26c2-4709-bd2e-8b90ec8dd3ee","ios":"levelo://app?vid=e113175a-26c2-4709-bd2e-8b90ec8dd3ee"},"vehicle_type_id":"4","last_reported":1751808060,"current_range_meters":16000,"station_id":"ce4bhn92rcd13ifvqgrg","pricing_plan_id":"cebpf4jnsgd1na2vs0mg"},{"bike_id":"7fbe4325-9f3f-4695-972a-53bbf1a31ef7","system_id":"levelo_inurba_marseille","lat":43.21194,"lon":5.3508,"is_reserved":false,"is_disabled":false,"rental_uris":{"android":"levelo://app?vid=7fbe4325-9f3f-4695-972a-53bbf1a31ef7","ios":"levelo://app?vid=7fbe4325-9f3f-4695-972a-53bbf1a31ef7"},"vehicle_type_id":"4","last_reported":1751808060,"current_range_meters":16000,"station_id":"st_cvj6sg6p6f1abm77japg","pricing_plan_id":"cebpf4jnsgd1na2vs0mg"},{"bike_id":"3b22f952-d0bc-4c00-8fd3-7e27b88aea23","system_id":"levelo_inurba_marseille","lat":43.29659,"lon":5.36245,"is_reserved":false,"is_disabled":false,"rental_uris":{"android":"levelo://app?vid=3b22f952-d0bc-4c00-8fd3-7e27b88aea23","ios":"levelo://app?vid=3b22f952-d0bc-4c00-8fd3-7e27b88aea23"},"vehicle_type_id":"4","last_reported":1751808060,"current_range_meters":16400,"station_id":"","pricing_plan_id":"cebpf4jnsgd1na2vs0mg"},{"bike_id":"1c12da94-d788-4db7-bea9-aa04743baa20","system_id":"levelo_inurba_marseille","lat":43.26197,"lon":5.37417,"is_reserved":false,"is_disabled":false,"rental_uris":{"android":"levelo://app?vid=1c12da94-d788-4db7-bea9-aa04743baa20","ios":"levelo://app?vid=1c12da94-d788-4db7-bea9-aa04743baa20"},"vehicle_type_id":"4","last_reported":1751808060,"current_range_meters":16400,"station_id":"ce4bhgp2rcd13ifvqfc0","pricing_plan_id":"cebpf4jnsgd1na2vs0mg"},{"bike_id":"a1392210-8d87-4d7e-8043-178803ddcc0f","system_id":"levelo_inurba_marseille","lat":43.23967,"lon":5.36636,"is_reserved":false,"is_disabled":false,"rental_uris":{"android":"levelo://app?vid=a1392210-8d87-4d7e-8043-178803ddcc0f","ios":"levelo://app?vid=a1392210-8d87-4d7e-8043-178803ddcc0f"},"vehicle_type_id":"4","last_reported":1751808060,"current_range_meters":16400,"station_id":"ce4bhi12rcd13ifvqfp0","pricing_plan_id":"cebpf4jnsgd1na2vs0mg"},{"bike_id":"001c84d9-0c03-4f27-9212-9eb28e27f49d","system_id":"levelo_inurba_marseille","lat":43.251226,"lon":5.403156,"is_reserved":false,"is_disabled":false,"rental_uris":{"android":"levelo://app?vid=001c84d9-0c03-4f27-9212-9eb28e27f49d","ios":"levelo://app?vid=001c84d9-0c03-4f27-9212-9eb28e27f49d"},"vehicle_type_id":"4","last_reported":1751808060,"current_range_meters":16400,"station_id":"ce4bhlh2rcd13ifvqgig","pricing_plan_id":"cebpf4jnsgd1na2vs0mg"},{"bike_id":"37f2becd-23f9-4f13-a711-38b8024eeec7","system_id":"levelo_inurba_marseille","lat":43.33768,"lon":5.37516,"is_reserved":false,"is_disabled":false,"rental_uris":{"android":"levelo://app?vid=37f2becd-23f9-4f13-a711-38b8024eeec7","ios":"levelo://app?vid=37f2becd-23f9-4f13-a711-38b8024eeec7"},"vehicle_type_id":"4","last_reported":1751808060,"current_range_meters":16800,"station_id":"","pricing_plan_id":"cebpf4jnsgd1na2vs0mg"},{"bike_id":"80955d0f-8669-4c02-b90f-c6fe20790c37","system_id":"levelo_inurba_marseille","lat":43.23182,"lon":5.35054,"is_reserved":false,"is_disabled":false,"rental_uris":{"android":"levelo://app?vid=80955d0f-8669-4c02-b90f-c6fe20790c37","ios":"levelo://app?vid=80955d0f-8669-4c02-b90f-c6fe20790c37"},"vehicle_type_id":"4","last_reported":1751808060,"current_range_meters":16800,"station_id":"","pricing_plan_id":"cebpf4jnsgd1na2vs0mg"},{"bike_id":"f42f98c9-20f3-4983-9012-66778be5a7a6","system_id":"levelo_inurba_marseille","lat":43.30526,"lon":5.36713,"is_reserved":false,"is_disabled":false,"rental_uris":{"android":"levelo://app?vid=f42f98c9-20f3-4983-9012-66778be5a7a6","ios":"levelo://app?vid=f42f98c9-20f3-4983-9012-66778be5a7a6"},"vehicle_type_id":"4","last_reported":1751808060,"current_range_meters":16800,"station_id":"ce4bgrp2rcd13ifvqc9g","pricing_plan_id":"cebpf4jnsgd1na2vs0mg"},{"bike_id":"0509d1c8-16bc-44f6-9b17-208f37f23fcf","system_id":"levelo_inurba_marseille","lat":43.24804,"lon":5.37452,"is_reserved":false,"is_disabled":false,"rental_uris":{"android":"levelo://app?vid=0509d1c8-16bc-44f6-9b17-208f37f23fcf","ios":"levelo://app?vid=0509d1c8-16bc-44f6-9b17-208f37f23fcf"},"vehicle_type_id":"4","last_reported":1751808060,"current_range_meters":16800,"station_id":"ce4bhgh2rcd13ifvqfb0","pricing_plan_id":"cebpf4jnsgd1na2vs0mg"},{"bike_id":"680ee95d-9c1e-41c3-8af6-acd7ca043aca","system_id":"levelo_inurba_marseille","lat":43.30416,"lon":5.41278,"is_reserved":false,"is_disabled":false,"rental_uris":{"android":"levelo://app?vid=680ee95d-9c1e-41c3-8af6-acd7ca043aca","ios":"levelo://app?vid=680ee95d-9c1e-41c3-8af6-acd7ca043aca"},"vehicle_type_id":"4","last_reported":1751808060,"current_range_meters":16800,"station_id":"ce4bhop2rcd13ifvqh8g","pricing_plan_id":"cebpf4jnsgd1na2vs0mg"},{"bike_id":"012f017c-008b-423f-b69f-c7a8a0d02116","system_id":"levelo_inurba_marseille","lat":43.29553,"lon":5.42291,"is_reserved":false,"is_disabled":false,"rental_uris":{"android":"levelo://app?vid=012f017c-008b-423f-b69f-c7a8a0d02116","ios":"levelo://app?vid=012f017c-008b-423f-b69f-c7a8a0d02116"},"vehicle_type_id":"4","last_reported":1751808060,"current_range_meters":16800,"station_id":"ce4bhph2rcd13ifvqhdg","pricing_plan_id":"cebpf4jnsgd1na2vs0mg"},{"bike_id":"f658a814-1441-47a0-8738-7d54af2d97a6","system_id":"levelo_inurba_marseille","lat":43.34158,"lon":5.40915,"is_reserved":false,"is_disabled":false,"rental_uris":{"android":"levelo://app?vid=f658a814-1441-47a0-8738-7d54af2d97a6","ios":"levelo://app?vid=f658a814-1441-47a0-8738-7d54af2d97a6"},"vehicle_type_id":"4","last_reported":1751808060,"current_range_meters":16800,"station_id":"ce4bhqh2rcd13ifvqhlg","pricing_plan_id":"cebpf4jnsgd1na2vs0mg"},{"bike_id":"aa8f61d8-323f-47e5-890f-90ad80dab82c","system_id":"levelo_inurba_marseille","lat":43.33756,"lon":5.39206,"is_reserved":false,"is_disabled":false,"rental_uris":{"android":"levelo://app?vid=aa8f61d8-323f-47e5-890f-90ad80dab82c","ios":"levelo://app?vid=aa8f61d8-323f-47e5-890f-90ad80dab82c"},"vehicle_type_id":"4","last_reported":1751808060,"current_range_meters":16800,"station_id":"ce4bhr92rcd13ifvqhsg","pricing_plan_id":"cebpf4jnsgd1na2vs0mg"},{"bike_id":"7d3ff233-0eee-4c35-bb3b-478bf2bec50c","system_id":"levelo_inurba_marseille","lat":43.2177,"lon":5.34607,"is_reserved":false,"is_disabled":false,"rental_uris":{"android":"levelo://app?vid=7d3ff233-0eee-4c35-bb3b-478bf2bec50c","ios":"levelo://app?vid=7d3ff233-0eee-4c35-bb3b-478bf2bec50c"},"vehicle_type_id":"4","last_reported":1751808060,"current_range_meters":16800,"station_id":"st_cvj6r9ubvosntc0bgbag","pricing_plan_id":"cebpf4jnsgd1na2vs0mg"},{"bike_id":"7b6120de-7b13-47a6-97f0-486439cc110c","system_id":"levelo_inurba_marseille","lat":43.21775,"lon":5.34598,"is_reserved":false,"is_disabled":false,"rental_uris":{"android":"levelo://app?vid=7b6120de-7b13-47a6-97f0-486439cc110c","ios":"levelo://app?vid=7b6120de-7b13-47a6-97f0-486439cc110c"},"vehicle_type_id":"4","last_reported":1751808060,"current_range_meters":16800,"station_id":"st_cvj6r9ubvosntc0bgbag","pricing_plan_id":"cebpf4jnsgd1na2vs0mg"},{"bike_id":"7b527f00-f6ea-4963-b59d-8da04a2feedb","system_id":"levelo_inurba_marseille","lat":43.320825,"lon":5.401212,"is_reserved":false,"is_disabled":false,"rental_uris":{"android":"levelo://app?vid=7b527f00-f6ea-4963-b59d-8da04a2feedb","ios":"levelo://app?vid=7b527f00-f6ea-4963-b59d-8da04a2feedb"},"vehicle_type_id":"4","last_reported":1751808060,"current_range_meters":17200,"station_id":"","pricing_plan_id":"cebpf4jnsgd1na2vs0mg"},{"bike_id":"fbb6eb26-f5ee-4d8b-a185-17f748b796b4","system_id":"levelo_inurba_marseille","lat":43.32288,"lon":5.44017,"is_reserved":false,"is_disabled":false,"rental_uris":{"android":"levelo://app?vid=fbb6eb26-f5ee-4d8b-a185-17f748b796b4","ios":"levelo://app?vid=fbb6eb26-f5ee-4d8b-a185-17f748b796b4"},"vehicle_type_id":"4","last_reported":1751808060,"current_range_meters":17200,"station_id":"","pricing_plan_id":"cebpf4jnsgd1na2vs0mg"},{"bike_id":"fe020bd0-384e-4d40-a813-aaa565456716","system_id":"levelo_inurba_marseille","lat":43.26057,"lon":5.39396,"is_reserved":false,"is_disabled":false,"rental_uris":{"android":"levelo://app?vid=fe020bd0-384e-4d40-a813-aaa565456716","ios":"levelo://app?vid=fe020bd0-384e-4d40-a813-aaa565456716"},"vehicle_type_id":"4","last_reported":1751808060,"current_range_meters":17200,"station_id":"ce4bhh92rcd13ifvqfj0","pricing_plan_id":"cebpf4jnsgd1na2vs0mg"},{"bike_id":"94a38e64-8dd8-4e2e-bcd6-3aa7bd281314","system_id":"levelo_inurba_marseille","lat":43.25126,"lon":5.40318,"is_reserved":false,"is_disabled":false,"rental_uris":{"android":"levelo://app?vid=94a38e64-8dd8-4e2e-bcd6-3aa7bd281314","ios":"levelo://app?vid=94a38e64-8dd8-4e2e-bcd6-3aa7bd281314"},"vehicle_type_id":"4","last_reported":1751808060,"current_range_meters":17200,"station_id":"ce4bhlh2rcd13ifvqgig","pricing_plan_id":"cebpf4jnsgd1na2vs0mg"},{"bike_id":"cbfb6bf4-71bd-40d3-9cd6-8ff492cc9789","system_id":"levelo_inurba_marseille","lat":43.3035,"lon":5.41886,"is_reserved":false,"is_disabled":false,"rental_uris":{"android":"levelo://app?vid=cbfb6bf4-71bd-40d3-9cd6-8ff492cc9789","ios":"levelo://app?vid=cbfb6bf4-71bd-40d3-9cd6-8ff492cc9789"},"vehicle_type_id":"4","last_reported":1751808060,"current_range_meters":17200,"station_id":"ce4bhop2rcd13ifvqh7g","pricing_plan_id":"cebpf4jnsgd1na2vs0mg"},{"bike_id":"e8d7fcf5-14a0-430b-a247-ddceafd06b95","system_id":"levelo_inurba_marseille","lat":43.22503,"lon":5.3481,"is_reserved":false,"is_disabled":false,"rental_uris":{"android":"levelo://app?vid=e8d7fcf5-14a0-430b-a247-ddceafd06b95","ios":"levelo://app?vid=e8d7fcf5-14a0-430b-a247-ddceafd06b95"},"vehicle_type_id":"4","last_reported":1751808060,"current_range_meters":17200,"station_id":"st_cvj5dfep6f1abm77gieg","pricing_plan_id":"cebpf4jnsgd1na2vs0mg"},{"bike_id":"c7397c87-5738-4812-9f4b-0d531a6f59f6","system_id":"levelo_inurba_marseille","lat":43.27998,"lon":5.40016,"is_reserved":false,"is_disabled":false,"rental_uris":{"android":"levelo://app?vid=c7397c87-5738-4812-9f4b-0d531a6f59f6","ios":"levelo://app?vid=c7397c87-5738-4812-9f4b-0d531a6f59f6"},"vehicle_type_id":"4","last_reported":1751808060,"current_range_meters":18000,"station_id":"","pricing_plan_id":"cebpf4jnsgd1na2vs0mg"},{"bike_id":"d69cb3c4-8ef5-41e6-a892-4642a6a073ab","system_id":"levelo_inurba_marseille","lat":43.250038,"lon":5.389323,"is_reserved":false,"is_disabled":false,"rental_uris":{"android":"levelo://app?vid=d69cb3c4-8ef5-41e6-a892-4642a6a073ab","ios":"levelo://app?vid=d69cb3c4-8ef5-41e6-a892-4642a6a073ab"},"vehicle_type_id":"4","last_reported":1751808060,"current_range_meters":18000,"station_id":"ce4bhgp2rcd13ifvqfd0","pricing_plan_id":"cebpf4jnsgd1na2vs0mg"},{"bike_id":"a14d83b1-9bad-46fe-a7e6-f9ded602c941","system_id":"levelo_inurba_marseille","lat":43.23967,"lon":5.36631,"is_reserved":false,"is_disabled":false,"rental_uris":{"android":"levelo://app?vid=a14d83b1-9bad-46fe-a7e6-f9ded602c941","ios":"levelo://app?vid=a14d83b1-9bad-46fe-a7e6-f9ded602c941"},"vehicle_type_id":"4","last_reported":1751808060,"current_range_meters":18000,"station_id":"ce4bhi12rcd13ifvqfp0","pricing_plan_id":"cebpf4jnsgd1na2vs0mg"},{"bike_id":"ea24d803-00e8-4349-98fc-2a8c1f23be7c","system_id":"levelo_inurba_marseille","lat":43.29954,"lon":5.41314,"is_reserved":false,"is_disabled":false,"rental_uris":{"android":"levelo://app?vid=ea24d803-00e8-4349-98fc-2a8c1f23be7c","ios":"levelo://app?vid=ea24d803-00e8-4349-98fc-2a8c1f23be7c"},"vehicle_type_id":"4","last_reported":1751808060,"current_range_meters":18000,"station_id":"ce4bhp12rcd13ifvqh9g","pricing_plan_id":"cebpf4jnsgd1na2vs0mg"},{"bike_id":"e7137259-a8cc-465f-80c9-301193a6bbc3","system_id":"levelo_inurba_marseille","lat":43.21203,"lon":5.35048,"is_reserved":false,"is_disabled":false,"rental_uris":{"android":"levelo://app?vid=e7137259-a8cc-465f-80c9-301193a6bbc3","ios":"levelo://app?vid=e7137259-a8cc-465f-80c9-301193a6bbc3"},"vehicle_type_id":"4","last_reported":1751808060,"current_range_meters":18000,"station_id":"st_cvj6sg6p6f1abm77japg","pricing_plan_id":"cebpf4jnsgd1na2vs0mg"},{"bike_id":"d5ef770d-9759-47e3-b3a5-7d2785ef76db","system_id":"levelo_inurba_marseille","lat":43.32933,"lon":5.39011,"is_reserved":false,"is_disabled":false,"rental_uris":{"android":"levelo://app?vid=d5ef770d-9759-47e3-b3a5-7d2785ef76db","ios":"levelo://app?vid=d5ef770d-9759-47e3-b3a5-7d2785ef76db"},"vehicle_type_id":"4","last_reported":1751808060,"current_range_meters":18800,"station_id":"","pricing_plan_id":"cebpf4jnsgd1na2vs0mg"},{"bike_id":"369c8dd5-1813-419d-a4e5-23b99d5734f3","system_id":"levelo_inurba_marseille","lat":43.21222,"lon":5.3505,"is_reserved":false,"is_disabled":false,"rental_uris":{"android":"levelo://app?vid=369c8dd5-1813-419d-a4e5-23b99d5734f3","ios":"levelo://app?vid=369c8dd5-1813-419d-a4e5-23b99d5734f3"},"vehicle_type_id":"4","last_reported":1751808060,"current_range_meters":18800,"station_id":"","pricing_plan_id":"cebpf4jnsgd1na2vs0mg"},{"bike_id":"eb1b3936-1617-4634-b68c-e88d891bf2de","system_id":"levelo_inurba_marseille","lat":43.27619,"lon":5.36103,"is_reserved":false,"is_disabled":false,"rental_uris":{"android":"levelo://app?vid=eb1b3936-1617-4634-b68c-e88d891bf2de","ios":"levelo://app?vid=eb1b3936-1617-4634-b68c-e88d891bf2de"},"vehicle_type_id":"4","last_reported":1751808060,"current_range_meters":18800,"station_id":"ce4bgj92rcd13ifvqbe0","pricing_plan_id":"cebpf4jnsgd1na2vs0mg"},{"bike_id":"80427f4b-024c-46ef-a4dc-e16a6117480d","system_id":"levelo_inurba_marseille","lat":43.28074,"lon":5.39666,"is_reserved":false,"is_disabled":false,"rental_uris":{"android":"levelo://app?vid=80427f4b-024c-46ef-a4dc-e16a6117480d","ios":"levelo://app?vid=80427f4b-024c-46ef-a4dc-e16a6117480d"},"vehicle_type_id":"4","last_reported":1751808060,"current_range_meters":18800,"station_id":"ce4bho12rcd13ifvqh2g","pricing_plan_id":"cebpf4jnsgd1na2vs0mg"},{"bike_id":"5739b485-dfc0-446a-84ba-de9ecf210af2","system_id":"levelo_inurba_marseille","lat":43.21189,"lon":5.35069,"is_reserved":false,"is_disabled":false,"rental_uris":{"android":"levelo://app?vid=5739b485-dfc0-446a-84ba-de9ecf210af2","ios":"levelo://app?vid=5739b485-dfc0-446a-84ba-de9ecf210af2"},"vehicle_type_id":"4","last_reported":1751808060,"current_range_meters":18800,"station_id":"st_cvj6sg6p6f1abm77japg","pricing_plan_id":"cebpf4jnsgd1na2vs0mg"},{"bike_id":"bdcf12d9-a7e2-4c36-8902-9ba4d8e15882","system_id":"levelo_inurba_marseille","lat":43.29368,"lon":5.37825,"is_reserved":false,"is_disabled":false,"rental_uris":{"android":"levelo://app?vid=bdcf12d9-a7e2-4c36-8902-9ba4d8e15882","ios":"levelo://app?vid=bdcf12d9-a7e2-4c36-8902-9ba4d8e15882"},"vehicle_type_id":"4","last_reported":1751808060,"current_range_meters":19200,"station_id":"ce4bgjh2rcd13ifvqbf0","pricing_plan_id":"cebpf4jnsgd1na2vs0mg"},{"bike_id":"5f22506e-f57d-48f1-99cc-23ad0b080983","system_id":"levelo_inurba_marseille","lat":43.270702,"lon":5.422913,"is_reserved":false,"is_disabled":false,"rental_uris":{"android":"levelo://app?vid=5f22506e-f57d-48f1-99cc-23ad0b080983","ios":"levelo://app?vid=5f22506e-f57d-48f1-99cc-23ad0b080983"},"vehicle_type_id":"4","last_reported":1751808060,"current_range_meters":19200,"station_id":"ce4bhk92rcd13ifvqgb0","pricing_plan_id":"cebpf4jnsgd1na2vs0mg"},{"bike_id":"afc8216a-338e-4995-aa5e-894b2c093ddf","system_id":"levelo_inurba_marseille","lat":43.25085,"lon":5.39526,"is_reserved":false,"is_disabled":false,"rental_uris":{"android":"levelo://app?vid=afc8216a-338e-4995-aa5e-894b2c093ddf","ios":"levelo://app?vid=afc8216a-338e-4995-aa5e-894b2c093ddf"},"vehicle_type_id":"4","last_reported":1751808060,"current_range_meters":19200,"station_id":"ce4bhm12rcd13ifvqgkg","pricing_plan_id":"cebpf4jnsgd1na2vs0mg"},{"bike_id":"e7af0a00-6167-4e68-bd0f-3f5a807e7848","system_id":"levelo_inurba_marseille","lat":43.323762,"lon":5.38876,"is_reserved":false,"is_disabled":false,"rental_uris":{"android":"levelo://app?vid=e7af0a00-6167-4e68-bd0f-3f5a807e7848","ios":"levelo://app?vid=e7af0a00-6167-4e68-bd0f-3f5a807e7848"},"vehicle_type_id":"4","last_reported":1751808060,"current_range_meters":19200,"station_id":"ce4bhqp2rcd13ifvqhog","pricing_plan_id":"cebpf4jnsgd1na2vs0mg"},{"bike_id":"60a65829-8569-43a4-8bac-b873797c9955","system_id":"levelo_inurba_marseille","lat":43.22926,"lon":5.35378,"is_reserved":false,"is_disabled":false,"rental_uris":{"android":"levelo://app?vid=60a65829-8569-43a4-8bac-b873797c9955","ios":"levelo://app?vid=60a65829-8569-43a4-8bac-b873797c9955"},"vehicle_type_id":"4","last_reported":1751808060,"current_range_meters":19200,"station_id":"cpo3532slgdg3j2ikp40","pricing_plan_id":"cebpf4jnsgd1na2vs0mg"},{"bike_id":"89e2352f-f58b-4095-8a03-e2b9f796df9d","system_id":"levelo_inurba_marseille","lat":43.30536,"lon":5.36557,"is_reserved":false,"is_disabled":false,"rental_uris":{"android":"levelo://app?vid=89e2352f-f58b-4095-8a03-e2b9f796df9d","ios":"levelo://app?vid=89e2352f-f58b-4095-8a03-e2b9f796df9d"},"vehicle_type_id":"4","last_reported":1751808060,"current_range_meters":19600,"station_id":"ce4bgs12rcd13ifvqcag","pricing_plan_id":"cebpf4jnsgd1na2vs0mg"},{"bike_id":"bd8a145b-9cdf-495a-882c-75faf0131677","system_id":"levelo_inurba_marseille","lat":43.30137,"lon":5.39857,"is_reserved":false,"is_disabled":false,"rental_uris":{"android":"levelo://app?vid=bd8a145b-9cdf-495a-882c-75faf0131677","ios":"levelo://app?vid=bd8a145b-9cdf-495a-882c-75faf0131677"},"vehicle_type_id":"4","last_reported":1751808060,"current_range_meters":19600,"station_id":"ce4bh0h2rcd13ifvqd40","pricing_plan_id":"cebpf4jnsgd1na2vs0mg"},{"bike_id":"e3dd042b-63d4-41f0-a954-a6779524ad5f","system_id":"levelo_inurba_marseille","lat":43.28418,"lon":5.35009,"is_reserved":false,"is_disabled":false,"rental_uris":{"android":"levelo://app?vid=e3dd042b-63d4-41f0-a954-a6779524ad5f","ios":"levelo://app?vid=e3dd042b-63d4-41f0-a954-a6779524ad5f"},"vehicle_type_id":"4","last_reported":1751808060,"current_range_meters":19600,"station_id":"ce4bhbh2rcd13ifvqepg","pricing_plan_id":"cebpf4jnsgd1na2vs0mg"},{"bike_id":"b332d9a8-0e01-46de-a12b-26a783fcc7d6","system_id":"levelo_inurba_marseille","lat":43.27805,"lon":5.40713,"is_reserved":false,"is_disabled":false,"rental_uris":{"android":"levelo://app?vid=b332d9a8-0e01-46de-a12b-26a783fcc7d6","ios":"levelo://app?vid=b332d9a8-0e01-46de-a12b-26a783fcc7d6"},"vehicle_type_id":"4","last_reported":1751808060,"current_range_meters":19600,"station_id":"ce4bhnh2rcd13ifvqgtg","pricing_plan_id":"cebpf4jnsgd1na2vs0mg"},{"bike_id":"a768c01a-cb3b-4f30-a642-cb6aa6a87890","system_id":"levelo_inurba_marseille","lat":43.22925,"lon":5.35373,"is_reserved":false,"is_disabled":false,"rental_uris":{"android":"levelo://app?vid=a768c01a-cb3b-4f30-a642-cb6aa6a87890","ios":"levelo://app?vid=a768c01a-cb3b-4f30-a642-cb6aa6a87890"},"vehicle_type_id":"4","last_reported":1751808060,"current_range_meters":19600,"station_id":"cpo3532slgdg3j2ikp40","pricing_plan_id":"cebpf4jnsgd1na2vs0mg"},{"bike_id":"2ba89e04-9389-46c0-8332-f71ab425c714","system_id":"levelo_inurba_marseille","lat":43.22504,"lon":5.34788,"is_reserved":false,"is_disabled":false,"rental_uris":{"android":"levelo://app?vid=2ba89e04-9389-46c0-8332-f71ab425c714","ios":"levelo://app?vid=2ba89e04-9389-46c0-8332-f71ab425c714"},"vehicle_type_id":"4","last_reported":1751808060,"current_range_meters":19600,"station_id":"st_cvj5dfep6f1abm77gieg","pricing_plan_id":"cebpf4jnsgd1na2vs0mg"},{"bike_id":"46becf28-4829-40d7-b039-9d88b6d09367","system_id":"levelo_inurba_marseille","lat":43.21767,"lon":5.34595,"is_reserved":false,"is_disabled":false,"rental_uris":{"android":"levelo://app?vid=46becf28-4829-40d7-b039-9d88b6d09367","ios":"levelo://app?vid=46becf28-4829-40d7-b039-9d88b6d09367"},"vehicle_type_id":"4","last_reported":1751808060,"current_range_meters":19600,"station_id":"st_cvj6r9ubvosntc0bgbag","pricing_plan_id":"cebpf4jnsgd1na2vs0mg"},{"bike_id":"f819da31-36b8-4850-b126-da7286b0e109","system_id":"levelo_inurba_marseille","lat":43.24787,"lon":5.37468,"is_reserved":false,"is_disabled":false,"rental_uris":{"android":"levelo://app?vid=f819da31-36b8-4850-b126-da7286b0e109","ios":"levelo://app?vid=f819da31-36b8-4850-b126-da7286b0e109"},"vehicle_type_id":"4","last_reported":1751808060,"current_range_meters":20000,"station_id":"ce4bhgh2rcd13ifvqfb0","pricing_plan_id":"cebpf4jnsgd1na2vs0mg"},{"bike_id":"8f066635-8faf-4fe9-9787-930b155e412e","system_id":"levelo_inurba_marseille","lat":43.23965,"lon":5.36632,"is_reserved":false,"is_disabled":false,"rental_uris":{"android":"levelo://app?vid=8f066635-8faf-4fe9-9787-930b155e412e","ios":"levelo://app?vid=8f066635-8faf-4fe9-9787-930b155e412e"},"vehicle_type_id":"4","last_reported":1751808060,"current_range_meters":20000,"station_id":"ce4bhi12rcd13ifvqfp0","pricing_plan_id":"cebpf4jnsgd1na2vs0mg"},{"bike_id":"cc47cd4d-b526-4f51-b64b-782b3e8a473a","system_id":"levelo_inurba_marseille","lat":43.27941,"lon":5.41048,"is_reserved":false,"is_disabled":false,"rental_uris":{"android":"levelo://app?vid=cc47cd4d-b526-4f51-b64b-782b3e8a473a","ios":"levelo://app?vid=cc47cd4d-b526-4f51-b64b-782b3e8a473a"},"vehicle_type_id":"4","last_reported":1751808060,"current_range_meters":20000,"station_id":"ce4bhnp2rcd13ifvqh0g","pricing_plan_id":"cebpf4jnsgd1na2vs0mg"},{"bike_id":"9879207b-4b19-4093-a6d7-7649c1af8249","system_id":"levelo_inurba_marseille","lat":43.24164,"lon":5.36402,"is_reserved":false,"is_disabled":false,"rental_uris":{"android":"levelo://app?vid=9879207b-4b19-4093-a6d7-7649c1af8249","ios":"levelo://app?vid=9879207b-4b19-4093-a6d7-7649c1af8249"},"vehicle_type_id":"4","last_reported":1751808060,"current_range_meters":20000,"station_id":"cpo36qri1sfpv3e86is0","pricing_plan_id":"cebpf4jnsgd1na2vs0mg"},{"bike_id":"914ae700-95a7-4f0c-8373-6bc0de3d183a","system_id":"levelo_inurba_marseille","lat":43.29327,"lon":5.37093,"is_reserved":false,"is_disabled":false,"rental_uris":{"android":"levelo://app?vid=914ae700-95a7-4f0c-8373-6bc0de3d183a","ios":"levelo://app?vid=914ae700-95a7-4f0c-8373-6bc0de3d183a"},"vehicle_type_id":"4","last_reported":1751808060,"current_range_meters":20400,"station_id":"","pricing_plan_id":"cebpf4jnsgd1na2vs0mg"},{"bike_id":"bae41396-847a-4ec0-9dba-24aa9ed7c701","system_id":"levelo_inurba_marseille","lat":43.28263,"lon":5.35074,"is_reserved":false,"is_disabled":false,"rental_uris":{"android":"levelo://app?vid=bae41396-847a-4ec0-9dba-24aa9ed7c701","ios":"levelo://app?vid=bae41396-847a-4ec0-9dba-24aa9ed7c701"},"vehicle_type_id":"4","last_reported":1751808060,"current_range_meters":20400,"station_id":"ce4bhbp2rcd13ifvqerg","pricing_plan_id":"cebpf4jnsgd1na2vs0mg"},{"bike_id":"0ce95632-4154-4bce-a3be-c43d2c582498","system_id":"levelo_inurba_marseille","lat":43.28622,"lon":5.35083,"is_reserved":false,"is_disabled":false,"rental_uris":{"android":"levelo://app?vid=0ce95632-4154-4bce-a3be-c43d2c582498","ios":"levelo://app?vid=0ce95632-4154-4bce-a3be-c43d2c582498"},"vehicle_type_id":"4","last_reported":1751808060,"current_range_meters":20400,"station_id":"ce4bhch2rcd13ifvqeug","pricing_plan_id":"cebpf4jnsgd1na2vs0mg"},{"bike_id":"3ec150ac-741c-4766-bf0e-2bee1754afa5","system_id":"levelo_inurba_marseille","lat":43.27907,"lon":5.380201,"is_reserved":false,"is_disabled":false,"rental_uris":{"android":"levelo://app?vid=3ec150ac-741c-4766-bf0e-2bee1754afa5","ios":"levelo://app?vid=3ec150ac-741c-4766-bf0e-2bee1754afa5"},"vehicle_type_id":"4","last_reported":1751808060,"current_range_meters":20400,"station_id":"ce4bhf92rcd13ifvqf50","pricing_plan_id":"cebpf4jnsgd1na2vs0mg"},{"bike_id":"735776f9-6c59-407a-9f44-6cabaf38677d","system_id":"levelo_inurba_marseille","lat":43.24381,"lon":5.37058,"is_reserved":false,"is_disabled":false,"rental_uris":{"android":"levelo://app?vid=735776f9-6c59-407a-9f44-6cabaf38677d","ios":"levelo://app?vid=735776f9-6c59-407a-9f44-6cabaf38677d"},"vehicle_type_id":"4","last_reported":1751808060,"current_range_meters":20400,"station_id":"ce4bhhh2rcd13ifvqfk0","pricing_plan_id":"cebpf4jnsgd1na2vs0mg"},{"bike_id":"b85b1c43-2a92-4e8a-888c-f159a903f72d","system_id":"levelo_inurba_marseille","lat":43.27285,"lon":5.41629,"is_reserved":false,"is_disabled":false,"rental_uris":{"android":"levelo://app?vid=b85b1c43-2a92-4e8a-888c-f159a903f72d","ios":"levelo://app?vid=b85b1c43-2a92-4e8a-888c-f159a903f72d"},"vehicle_type_id":"4","last_reported":1751808060,"current_range_meters":20800,"station_id":"","pricing_plan_id":"cebpf4jnsgd1na2vs0mg"},{"bike_id":"25b7c751-361f-47e6-9d7b-2f9f83808cb9","system_id":"levelo_inurba_marseille","lat":43.28262,"lon":5.35073,"is_reserved":false,"is_disabled":false,"rental_uris":{"android":"levelo://app?vid=25b7c751-361f-47e6-9d7b-2f9f83808cb9","ios":"levelo://app?vid=25b7c751-361f-47e6-9d7b-2f9f83808cb9"},"vehicle_type_id":"4","last_reported":1751808060,"current_range_meters":20800,"station_id":"ce4bhbp2rcd13ifvqerg","pricing_plan_id":"cebpf4jnsgd1na2vs0mg"},{"bike_id":"2967b838-ced9-48b0-927b-6b933420072a","system_id":"levelo_inurba_marseille","lat":43.25711,"lon":5.41101,"is_reserved":false,"is_disabled":false,"rental_uris":{"android":"levelo://app?vid=2967b838-ced9-48b0-927b-6b933420072a","ios":"levelo://app?vid=2967b838-ced9-48b0-927b-6b933420072a"},"vehicle_type_id":"4","last_reported":1751808060,"current_range_meters":20800,"station_id":"ce4bhkp2rcd13ifvqgd0","pricing_plan_id":"cebpf4jnsgd1na2vs0mg"},{"bike_id":"e66a4e0b-c6f1-432f-bebc-2f10128f1b1d","system_id":"levelo_inurba_marseille","lat":43.24073,"lon":5.37761,"is_reserved":false,"is_disabled":false,"rental_uris":{"android":"levelo://app?vid=e66a4e0b-c6f1-432f-bebc-2f10128f1b1d","ios":"levelo://app?vid=e66a4e0b-c6f1-432f-bebc-2f10128f1b1d"},"vehicle_type_id":"4","last_reported":1751808060,"current_range_meters":20800,"station_id":"ce4bhnp2rcd13ifvqgvg","pricing_plan_id":"cebpf4jnsgd1na2vs0mg"},{"bike_id":"615ffa74-bec0-40f0-b151-33dcd4713509","system_id":"levelo_inurba_marseille","lat":43.275074,"lon":5.42464,"is_reserved":false,"is_disabled":false,"rental_uris":{"android":"levelo://app?vid=615ffa74-bec0-40f0-b151-33dcd4713509","ios":"levelo://app?vid=615ffa74-bec0-40f0-b151-33dcd4713509"},"vehicle_type_id":"4","last_reported":1751808060,"current_range_meters":21600,"station_id":"ce4bhn92rcd13ifvqgrg","pricing_plan_id":"cebpf4jnsgd1na2vs0mg"},{"bike_id":"ec3f65cf-8046-4295-9468-2979cb218118","system_id":"levelo_inurba_marseille","lat":43.21606,"lon":5.34668,"is_reserved":false,"is_disabled":false,"rental_uris":{"android":"levelo://app?vid=ec3f65cf-8046-4295-9468-2979cb218118","ios":"levelo://app?vid=ec3f65cf-8046-4295-9468-2979cb218118"},"vehicle_type_id":"4","last_reported":1751808060,"current_range_meters":22000,"station_id":"","pricing_plan_id":"cebpf4jnsgd1na2vs0mg"},{"bike_id":"23746e0a-2909-43bc-8a6d-4bf5e9fffd57","system_id":"levelo_inurba_marseille","lat":43.24171,"lon":5.39769,"is_reserved":false,"is_disabled":false,"rental_uris":{"android":"levelo://app?vid=23746e0a-2909-43bc-8a6d-4bf5e9fffd57","ios":"levelo://app?vid=23746e0a-2909-43bc-8a6d-4bf5e9fffd57"},"vehicle_type_id":"4","last_reported":1751808060,"current_range_meters":22000,"station_id":"ce4bhn12rcd13ifvqgpg","pricing_plan_id":"cebpf4jnsgd1na2vs0mg"},{"bike_id":"2bffccdd-c62d-43a1-9651-97c1136b0ee3","system_id":"levelo_inurba_marseille","lat":43.28609,"lon":5.37062,"is_reserved":false,"is_disabled":false,"rental_uris":{"android":"levelo://app?vid=2bffccdd-c62d-43a1-9651-97c1136b0ee3","ios":"levelo://app?vid=2bffccdd-c62d-43a1-9651-97c1136b0ee3"},"vehicle_type_id":"4","last_reported":1751808060,"current_range_meters":22000,"station_id":"ce4bht12rcd13ifvqi60","pricing_plan_id":"cebpf4jnsgd1na2vs0mg"},{"bike_id":"c9d4b074-a657-42e4-a289-d2302d03c2ca","system_id":"levelo_inurba_marseille","lat":43.28721,"lon":5.43235,"is_reserved":false,"is_disabled":false,"rental_uris":{"android":"levelo://app?vid=c9d4b074-a657-42e4-a289-d2302d03c2ca","ios":"levelo://app?vid=c9d4b074-a657-42e4-a289-d2302d03c2ca"},"vehicle_type_id":"4","last_reported":1751808060,"current_range_meters":22400,"station_id":"","pricing_plan_id":"cebpf4jnsgd1na2vs0mg"},{"bike_id":"6a3a3e65-1839-43d5-b574-3a73e4e32dac","system_id":"levelo_inurba_marseille","lat":43.32321,"lon":5.3887,"is_reserved":false,"is_disabled":false,"rental_uris":{"android":"levelo://app?vid=6a3a3e65-1839-43d5-b574-3a73e4e32dac","ios":"levelo://app?vid=6a3a3e65-1839-43d5-b574-3a73e4e32dac"},"vehicle_type_id":"4","last_reported":1751808060,"current_range_meters":22400,"station_id":"","pricing_plan_id":"cebpf4jnsgd1na2vs0mg"},{"bike_id":"cfddacc6-f20a-4b8f-9483-cc95be1400ce","system_id":"levelo_inurba_marseille","lat":43.28613,"lon":5.35099,"is_reserved":false,"is_disabled":false,"rental_uris":{"android":"levelo://app?vid=cfddacc6-f20a-4b8f-9483-cc95be1400ce","ios":"levelo://app?vid=cfddacc6-f20a-4b8f-9483-cc95be1400ce"},"vehicle_type_id":"4","last_reported":1751808060,"current_range_meters":22400,"station_id":"ce4bhch2rcd13ifvqeug","pricing_plan_id":"cebpf4jnsgd1na2vs0mg"},{"bike_id":"e6329591-0376-489f-9047-757692b71897","system_id":"levelo_inurba_marseille","lat":43.27807,"lon":5.40709,"is_reserved":false,"is_disabled":false,"rental_uris":{"android":"levelo://app?vid=e6329591-0376-489f-9047-757692b71897","ios":"levelo://app?vid=e6329591-0376-489f-9047-757692b71897"},"vehicle_type_id":"4","last_reported":1751808060,"current_range_meters":22400,"station_id":"ce4bhnh2rcd13ifvqgtg","pricing_plan_id":"cebpf4jnsgd1na2vs0mg"},{"bike_id":"d40dded5-2a66-486c-830e-ded2ed9ebfd0","system_id":"levelo_inurba_marseille","lat":43.27997,"lon":5.40014,"is_reserved":false,"is_disabled":false,"rental_uris":{"android":"levelo://app?vid=d40dded5-2a66-486c-830e-ded2ed9ebfd0","ios":"levelo://app?vid=d40dded5-2a66-486c-830e-ded2ed9ebfd0"},"vehicle_type_id":"4","last_reported":1751808060,"current_range_meters":22400,"station_id":"ce4bho92rcd13ifvqh4g","pricing_plan_id":"cebpf4jnsgd1na2vs0mg"},{"bike_id":"84f31162-6263-4c79-91c6-d77898781c49","system_id":"levelo_inurba_marseille","lat":43.32054,"lon":5.41572,"is_reserved":false,"is_disabled":false,"rental_uris":{"android":"levelo://app?vid=84f31162-6263-4c79-91c6-d77898781c49","ios":"levelo://app?vid=84f31162-6263-4c79-91c6-d77898781c49"},"vehicle_type_id":"4","last_reported":1751808060,"current_range_meters":22400,"station_id":"ce4bhq92rcd13ifvqhkg","pricing_plan_id":"cebpf4jnsgd1na2vs0mg"},{"bike_id":"17a227eb-dbe3-4194-bdc3-7a968d1b8def","system_id":"levelo_inurba_marseille","lat":43.26027,"lon":5.37541,"is_reserved":false,"is_disabled":false,"rental_uris":{"android":"levelo://app?vid=17a227eb-dbe3-4194-bdc3-7a968d1b8def","ios":"levelo://app?vid=17a227eb-dbe3-4194-bdc3-7a968d1b8def"},"vehicle_type_id":"4","last_reported":1751808060,"current_range_meters":22800,"station_id":"ce4bhgh2rcd13ifvqfa0","pricing_plan_id":"cebpf4jnsgd1na2vs0mg"},{"bike_id":"ae945228-b89e-4162-83c6-65e35b9526bb","system_id":"levelo_inurba_marseille","lat":43.248081,"lon":5.374575,"is_reserved":false,"is_disabled":false,"rental_uris":{"android":"levelo://app?vid=ae945228-b89e-4162-83c6-65e35b9526bb","ios":"levelo://app?vid=ae945228-b89e-4162-83c6-65e35b9526bb"},"vehicle_type_id":"4","last_reported":1751808060,"current_range_meters":22800,"station_id":"ce4bhgh2rcd13ifvqfb0","pricing_plan_id":"cebpf4jnsgd1na2vs0mg"},{"bike_id":"5bfcbd45-3511-4299-9759-063e139169d9","system_id":"levelo_inurba_marseille","lat":43.27057,"lon":5.40257,"is_reserved":false,"is_disabled":false,"rental_uris":{"android":"levelo://app?vid=5bfcbd45-3511-4299-9759-063e139169d9","ios":"levelo://app?vid=5bfcbd45-3511-4299-9759-063e139169d9"},"vehicle_type_id":"4","last_reported":1751808060,"current_range_meters":22800,"station_id":"ce4bhk92rcd13ifvqgc0","pricing_plan_id":"cebpf4jnsgd1na2vs0mg"},{"bike_id":"6fe224a1-e28a-4dd4-ac0b-e0b679fa313b","system_id":"levelo_inurba_marseille","lat":43.29909,"lon":5.43644,"is_reserved":false,"is_disabled":false,"rental_uris":{"android":"levelo://app?vid=6fe224a1-e28a-4dd4-ac0b-e0b679fa313b","ios":"levelo://app?vid=6fe224a1-e28a-4dd4-ac0b-e0b679fa313b"},"vehicle_type_id":"4","last_reported":1751808060,"current_range_meters":22800,"station_id":"ce4bhpp2rcd13ifvqhfg","pricing_plan_id":"cebpf4jnsgd1na2vs0mg"},{"bike_id":"c38d67ec-67d4-4081-b5a2-29f284ff6ad2","system_id":"levelo_inurba_marseille","lat":43.23196,"lon":5.35552,"is_reserved":false,"is_disabled":false,"rental_uris":{"android":"levelo://app?vid=c38d67ec-67d4-4081-b5a2-29f284ff6ad2","ios":"levelo://app?vid=c38d67ec-67d4-4081-b5a2-29f284ff6ad2"},"vehicle_type_id":"4","last_reported":1751808060,"current_range_meters":22800,"station_id":"ce4bhu92rcd13ifvqi70","pricing_plan_id":"cebpf4jnsgd1na2vs0mg"},{"bike_id":"c2fb0d5f-790f-46eb-ae9e-e6015526241b","system_id":"levelo_inurba_marseille","lat":43.21188,"lon":5.35095,"is_reserved":false,"is_disabled":false,"rental_uris":{"android":"levelo://app?vid=c2fb0d5f-790f-46eb-ae9e-e6015526241b","ios":"levelo://app?vid=c2fb0d5f-790f-46eb-ae9e-e6015526241b"},"vehicle_type_id":"4","last_reported":1751808060,"current_range_meters":22800,"station_id":"st_cvj6sg6p6f1abm77japg","pricing_plan_id":"cebpf4jnsgd1na2vs0mg"},{"bike_id":"5a66d250-2a08-40f3-826e-ff3217e04cec","system_id":"levelo_inurba_marseille","lat":43.26815,"lon":5.41116,"is_reserved":false,"is_disabled":false,"rental_uris":{"android":"levelo://app?vid=5a66d250-2a08-40f3-826e-ff3217e04cec","ios":"levelo://app?vid=5a66d250-2a08-40f3-826e-ff3217e04cec"},"vehicle_type_id":"4","last_reported":1751808060,"current_range_meters":23200,"station_id":"","pricing_plan_id":"cebpf4jnsgd1na2vs0mg"},{"bike_id":"21c232a3-8c74-443e-82bc-0bdde1e8ba6b","system_id":"levelo_inurba_marseille","lat":43.287163,"lon":5.37938,"is_reserved":false,"is_disabled":false,"rental_uris":{"android":"levelo://app?vid=21c232a3-8c74-443e-82bc-0bdde1e8ba6b","ios":"levelo://app?vid=21c232a3-8c74-443e-82bc-0bdde1e8ba6b"},"vehicle_type_id":"4","last_reported":1751808060,"current_range_meters":23200,"station_id":"ce4bh9p2rcd13ifvqec0","pricing_plan_id":"cebpf4jnsgd1na2vs0mg"},{"bike_id":"194140aa-2f79-4f5d-aef3-aca451bc71e0","system_id":"levelo_inurba_marseille","lat":43.28406,"lon":5.34992,"is_reserved":false,"is_disabled":false,"rental_uris":{"android":"levelo://app?vid=194140aa-2f79-4f5d-aef3-aca451bc71e0","ios":"levelo://app?vid=194140aa-2f79-4f5d-aef3-aca451bc71e0"},"vehicle_type_id":"4","last_reported":1751808060,"current_range_meters":23200,"station_id":"ce4bhbh2rcd13ifvqepg","pricing_plan_id":"cebpf4jnsgd1na2vs0mg"},{"bike_id":"a837b7dc-5abc-4375-8484-2d8b61115bc3","system_id":"levelo_inurba_marseille","lat":43.28266,"lon":5.350614,"is_reserved":false,"is_disabled":false,"rental_uris":{"android":"levelo://app?vid=a837b7dc-5abc-4375-8484-2d8b61115bc3","ios":"levelo://app?vid=a837b7dc-5abc-4375-8484-2d8b61115bc3"},"vehicle_type_id":"4","last_reported":1751808060,"current_range_meters":23200,"station_id":"ce4bhbp2rcd13ifvqerg","pricing_plan_id":"cebpf4jnsgd1na2vs0mg"},{"bike_id":"0c793d3c-7b1f-43aa-8ab8-559a84a10121","system_id":"levelo_inurba_marseille","lat":43.26206,"lon":5.37429,"is_reserved":false,"is_disabled":false,"rental_uris":{"android":"levelo://app?vid=0c793d3c-7b1f-43aa-8ab8-559a84a10121","ios":"levelo://app?vid=0c793d3c-7b1f-43aa-8ab8-559a84a10121"},"vehicle_type_id":"4","last_reported":1751808060,"current_range_meters":23200,"station_id":"ce4bhgp2rcd13ifvqfc0","pricing_plan_id":"cebpf4jnsgd1na2vs0mg"},{"bike_id":"b0d55032-6351-4ef8-a430-58335ed08aaf","system_id":"levelo_inurba_marseille","lat":43.262223,"lon":5.404396,"is_reserved":false,"is_disabled":false,"rental_uris":{"android":"levelo://app?vid=b0d55032-6351-4ef8-a430-58335ed08aaf","ios":"levelo://app?vid=b0d55032-6351-4ef8-a430-58335ed08aaf"},"vehicle_type_id":"4","last_reported":1751808060,"current_range_meters":23200,"station_id":"ce4bhmh2rcd13ifvqgmg","pricing_plan_id":"cebpf4jnsgd1na2vs0mg"},{"bike_id":"7c950583-8bac-4742-862c-e657874b2760","system_id":"levelo_inurba_marseille","lat":43.32365,"lon":5.4061,"is_reserved":false,"is_disabled":false,"rental_uris":{"android":"levelo://app?vid=7c950583-8bac-4742-862c-e657874b2760","ios":"levelo://app?vid=7c950583-8bac-4742-862c-e657874b2760"},"vehicle_type_id":"4","last_reported":1751808060,"current_range_meters":23200,"station_id":"ce4bhq92rcd13ifvqhjg","pricing_plan_id":"cebpf4jnsgd1na2vs0mg"},{"bike_id":"a42842ea-77df-4c6a-8842-c866a4c0bc55","system_id":"levelo_inurba_marseille","lat":43.21745,"lon":5.34619,"is_reserved":false,"is_disabled":false,"rental_uris":{"android":"levelo://app?vid=a42842ea-77df-4c6a-8842-c866a4c0bc55","ios":"levelo://app?vid=a42842ea-77df-4c6a-8842-c866a4c0bc55"},"vehicle_type_id":"4","last_reported":1751808060,"current_range_meters":23200,"station_id":"st_cvj6r9ubvosntc0bgbag","pricing_plan_id":"cebpf4jnsgd1na2vs0mg"},{"bike_id":"8f03969b-3e6d-45a2-920d-cd715a38fc69","system_id":"levelo_inurba_marseille","lat":43.21208,"lon":5.35089,"is_reserved":false,"is_disabled":false,"rental_uris":{"android":"levelo://app?vid=8f03969b-3e6d-45a2-920d-cd715a38fc69","ios":"levelo://app?vid=8f03969b-3e6d-45a2-920d-cd715a38fc69"},"vehicle_type_id":"4","last_reported":1751808060,"current_range_meters":23200,"station_id":"st_cvj6sg6p6f1abm77japg","pricing_plan_id":"cebpf4jnsgd1na2vs0mg"},{"bike_id":"9bfc7d3d-4e60-4f8a-9c32-ef3d0e77ec5b","system_id":"levelo_inurba_marseille","lat":43.21196,"lon":5.35072,"is_reserved":false,"is_disabled":false,"rental_uris":{"android":"levelo://app?vid=9bfc7d3d-4e60-4f8a-9c32-ef3d0e77ec5b","ios":"levelo://app?vid=9bfc7d3d-4e60-4f8a-9c32-ef3d0e77ec5b"},"vehicle_type_id":"4","last_reported":1751808060,"current_range_meters":23200,"station_id":"st_cvj6sg6p6f1abm77japg","pricing_plan_id":"cebpf4jnsgd1na2vs0mg"},{"bike_id":"7d43a9ca-ef5c-4c5a-9fb7-68a13ba78113","system_id":"levelo_inurba_marseille","lat":43.28859,"lon":5.35912,"is_reserved":false,"is_disabled":false,"rental_uris":{"android":"levelo://app?vid=7d43a9ca-ef5c-4c5a-9fb7-68a13ba78113","ios":"levelo://app?vid=7d43a9ca-ef5c-4c5a-9fb7-68a13ba78113"},"vehicle_type_id":"4","last_reported":1751808060,"current_range_meters":24000,"station_id":"","pricing_plan_id":"cebpf4jnsgd1na2vs0mg"},{"bike_id":"87c2d236-4978-4760-be77-27d7f5a212e4","system_id":"levelo_inurba_marseille","lat":43.29644,"lon":5.36205,"is_reserved":false,"is_disabled":false,"rental_uris":{"android":"levelo://app?vid=87c2d236-4978-4760-be77-27d7f5a212e4","ios":"levelo://app?vid=87c2d236-4978-4760-be77-27d7f5a212e4"},"vehicle_type_id":"4","last_reported":1751808060,"current_range_meters":24000,"station_id":"","pricing_plan_id":"cebpf4jnsgd1na2vs0mg"},{"bike_id":"0984473e-59cf-4f12-a598-7b378699d33a","system_id":"levelo_inurba_marseille","lat":43.2862,"lon":5.35115,"is_reserved":false,"is_disabled":false,"rental_uris":{"android":"levelo://app?vid=0984473e-59cf-4f12-a598-7b378699d33a","ios":"levelo://app?vid=0984473e-59cf-4f12-a598-7b378699d33a"},"vehicle_type_id":"4","last_reported":1751808060,"current_range_meters":24000,"station_id":"ce4bhch2rcd13ifvqeug","pricing_plan_id":"cebpf4jnsgd1na2vs0mg"},{"bike_id":"f1f4a8d9-de8e-4453-b6d2-3582ca9658e8","system_id":"levelo_inurba_marseille","lat":43.25574,"lon":5.38253,"is_reserved":false,"is_disabled":false,"rental_uris":{"android":"levelo://app?vid=f1f4a8d9-de8e-4453-b6d2-3582ca9658e8","ios":"levelo://app?vid=f1f4a8d9-de8e-4453-b6d2-3582ca9658e8"},"vehicle_type_id":"4","last_reported":1751808060,"current_range_meters":24000,"station_id":"ce4bhih2rcd13ifvqfs0","pricing_plan_id":"cebpf4jnsgd1na2vs0mg"},{"bike_id":"4ce9a064-53fd-4eb5-852c-d7f976265e16","system_id":"levelo_inurba_marseille","lat":43.30539,"lon":5.36545,"is_reserved":false,"is_disabled":false,"rental_uris":{"android":"levelo://app?vid=4ce9a064-53fd-4eb5-852c-d7f976265e16","ios":"levelo://app?vid=4ce9a064-53fd-4eb5-852c-d7f976265e16"},"vehicle_type_id":"4","last_reported":1751808060,"current_range_meters":24400,"station_id":"","pricing_plan_id":"cebpf4jnsgd1na2vs0mg"},{"bike_id":"eae3072a-083c-446c-b94d-6ebd932515fc","system_id":"levelo_inurba_marseille","lat":43.28423,"lon":5.35004,"is_reserved":false,"is_disabled":false,"rental_uris":{"android":"levelo://app?vid=eae3072a-083c-446c-b94d-6ebd932515fc","ios":"levelo://app?vid=eae3072a-083c-446c-b94d-6ebd932515fc"},"vehicle_type_id":"4","last_reported":1751808060,"current_range_meters":24400,"station_id":"ce4bhbh2rcd13ifvqepg","pricing_plan_id":"cebpf4jnsgd1na2vs0mg"},{"bike_id":"14d545fb-910e-499d-b5b2-ef8991fbf0fe","system_id":"levelo_inurba_marseille","lat":43.26032,"lon":5.37566,"is_reserved":false,"is_disabled":false,"rental_uris":{"android":"levelo://app?vid=14d545fb-910e-499d-b5b2-ef8991fbf0fe","ios":"levelo://app?vid=14d545fb-910e-499d-b5b2-ef8991fbf0fe"},"vehicle_type_id":"4","last_reported":1751808060,"current_range_meters":24400,"station_id":"ce4bhgh2rcd13ifvqfa0","pricing_plan_id":"cebpf4jnsgd1na2vs0mg"},{"bike_id":"46ddd263-a897-4ac9-ab9f-8986bb8eca66","system_id":"levelo_inurba_marseille","lat":43.24392,"lon":5.37042,"is_reserved":false,"is_disabled":false,"rental_uris":{"android":"levelo://app?vid=46ddd263-a897-4ac9-ab9f-8986bb8eca66","ios":"levelo://app?vid=46ddd263-a897-4ac9-ab9f-8986bb8eca66"},"vehicle_type_id":"4","last_reported":1751808060,"current_range_meters":24400,"station_id":"ce4bhhh2rcd13ifvqfk0","pricing_plan_id":"cebpf4jnsgd1na2vs0mg"},{"bike_id":"77618724-5e01-4eec-ae66-bf33a0aefe0a","system_id":"levelo_inurba_marseille","lat":43.25574,"lon":5.38227,"is_reserved":false,"is_disabled":false,"rental_uris":{"android":"levelo://app?vid=77618724-5e01-4eec-ae66-bf33a0aefe0a","ios":"levelo://app?vid=77618724-5e01-4eec-ae66-bf33a0aefe0a"},"vehicle_type_id":"4","last_reported":1751808060,"current_range_meters":24400,"station_id":"ce4bhih2rcd13ifvqfs0","pricing_plan_id":"cebpf4jnsgd1na2vs0mg"},