{"last_updated":1702976850,"ttl":30,"version":"2.2","data":{"bikes":[{"bike_id":"7565ac83-2152-4b1e-94c3-27227871203b","system_id":"levelo_inurba_marseille","lat":43.31341,"lon":5.367098,"is_reserved":false,"is_disabled":false,"rental_uris":{"android":"levelo://app?vid=7565ac83-2152-4b1e-94c3-27227871203b","ios":"levelo://app?vid=7565ac83-2152-4b1e-94c3-27227871203b"},"vehicle_type_id":"4","last_reported":1702976850,"current_range_meters":16000,"station_id":"ce4bgr92rcd13ifvqc6g","pricing_plan_id":"free"},{"bike_id":"e1232045-5eec-4d5d-81e4-6dbc0bc67eb6","system_id":"levelo_inurba_marseille","lat":43.31341,"lon":5.367098,"is_reserved":false,"is_disabled":false,"rental_uris":{"android":"levelo://app?vid=e1232045-5eec-4d5d-81e4-6dbc0bc67eb6","ios":"levelo://app?vid=e1232045-5eec-4d5d-81e4-6dbc0bc67eb6"},"vehicle_type_id":"4","last_reported":1702976850,"current_range_meters":14000,"station_id":"ce4bgr92rcd13ifvqc6g","pricing_plan_id":"free"},{"bike_id":"2be214aa-d228-498e-8f9a-b728cc90bc44","system_id":"levelo_inurba_marseille","lat":43.313391,"lon":5.36706,"is_reserved":false,"is_disabled":false,"rental_uris":{"android":"levelo://app?vid=2be214aa-d228-498e-8f9a-b728cc90bc44","ios":"levelo://app?vid=2be214aa-d228-498e-8f9a-b728cc90bc44"},"vehicle_type_id":"4","last_reported":1702976850,"current_range_meters":30400,"station_id":"ce4bgr92rcd13ifvqc6g","pricing_plan_id":"free"},{"bike_id":"38ea9026-d94f-439b-957d-2a62b82157ba","system_id":"levelo_inurba_marseille","lat":43.31341,"lon":5.367098,"is_reserved":false,"is_disabled":false,"rental_uris":{"android":"levelo://app?vid=38ea9026-d94f-439b-957d-2a62b82157ba","ios":"levelo://app?vid=38ea9026-d94f-439b-957d-2a62b82157ba"},"vehicle_type_id":"4","last_reported":1702976850,"current_range_meters":14000,"station_id":"ce4bgr92rcd13ifvqc6g","pricing_plan_id":"free"},{"bike_id":"20b9a23e-e8dc-45a6-ba34-652c0fc08184","system_id":"levelo_inurba_marseille","lat":43.31341,"lon":5.367098,"is_reserved":false,"is_disabled":false,"rental_uris":{"android":"levelo://app?vid=20b9a23e-e8dc-45a6-ba34-652c0fc08184","ios":"levelo://app?vid=20b9a23e-e8dc-45a6-ba34-652c0fc08184"},"vehicle_type_id":"4","last_reported":1702976850,"current_range_meters":32000,"station_id":"ce4bgr92rcd13ifvqc6g","pricing_plan_id":"free"},{"bike_id":"60a8ef75-9e0e-4b58-8487-6c8f20bd7000","system_id":"levelo_inurba_marseille","lat":43.313391,"lon":5.36706,"is_reserved":false,"is_disabled":false,"rental_uris":{"android":"levelo://app?vid=60a8ef75-9e0e-4b58-8487-6c8f20bd7000","ios":"levelo://app?vid=60a8ef75-9e0e-4b58-8487-6c8f20bd7000"},"vehicle_type_id":"4","last_reported":1702976850,"current_range_meters":30800,"station_id":"ce4bgr92rcd13ifvqc6g","pricing_plan_id":"free"},{"bike_id":"85b1292c-66ec-43d6-b77a-70010a7a3113","system_id":"levelo_inurba_marseille","lat":43.31341,"lon":5.367098,"is_reserved":false,"is_disabled":false,"rental_uris":{"android":"levelo://app?vid=85b1292c-66ec-43d6-b77a-70010a7a3113","ios":"levelo://app?vid=85b1292c-66ec-43d6-b77a-70010a7a3113"},"vehicle_type_id":"4","last_reported":1702976850,"current_range_meters":19200,"station_id":"ce4bgr92rcd13ifvqc6g","pricing_plan_id":"free"},{"bike_id":"a6516d1d-2676-4f1d-b129-a39b7b9814c3","system_id":"levelo_inurba_marseille","lat":43.31341,"lon":5.367098,"is_reserved":false,"is_disabled":false,"rental_uris":{"android":"levelo://app?vid=a6516d1d-2676-4f1d-b129-a39b7b9814c3","ios":"levelo://app?vid=a6516d1d-2676-4f1d-b129-a39b7b9814c3"},"vehicle_type_id":"4","last_reported":1702976850,"current_range_meters":26400,"station_id":"ce4bgr92rcd13ifvqc6g","pricing_plan_id":"free"},{"bike_id":"87254678-dbfd-4456-a9c1-23d7d30ec87a","system_id":"levelo_inurba_marseille","lat":43.313391,"lon":5.36706,"is_reserved":false,"is_disabled":false,"rental_uris":{"android":"levelo://app?vid=87254678-dbfd-4456-a9c1-23d7d30ec87a","ios":"levelo://app?vid=87254678-dbfd-4456-a9c1-23d7d30ec87a"},"vehicle_type_id":"4","last_reported":1702976850,"current_range_meters":21600,"station_id":"ce4bgr92rcd13ifvqc6g","pricing_plan_id":"free"},{"bike_id":"00a1914f-bad6-4efa-8400-c1cdf7615f26","system_id":"levelo_inurba_marseille","lat":43.31341,"lon":5.367098,"is_reserved":false,"is_disabled":false,"rental_uris":{"android":"levelo://app?vid=00a1914f-bad6-4efa-8400-c1cdf7615f26","ios":"levelo://app?vid=00a1914f-bad6-4efa-8400-c1cdf7615f26"},"vehicle_type_id":"4","last_reported":1702976850,"current_range_meters":22400,"station_id":"ce4bgr92rcd13ifvqc6g","pricing_plan_id":"free"},{"bike_id":"7fc660bf-00b2-475b-896a-d19bf7596e33","system_id":"levelo_inurba_marseille","lat":43.312239,"lon":5.368562,"is_reserved":false,"is_disabled":false,"rental_uris":{"android":"levelo://app?vid=7fc660bf-00b2-475b-896a-d19bf7596e33","ios":"levelo://app?vid=7fc660bf-00b2-475b-896a-d19bf7596e33"},"vehicle_type_id":"4","last_reported":1702976850,"current_range_meters":26800,"station_id":"ce4bgl92rcd13ifvqbq0","pricing_plan_id":"free"},{"bike_id":"c715b015-30fc-402b-bf0c-c1cade3ce502","system_id":"levelo_inurba_marseille","lat":43.312239,"lon":5.368562,"is_reserved":false,"is_disabled":false,"rental_uris":{"android":"levelo://app?vid=c715b015-30fc-402b-bf0c-c1cade3ce502","ios":"levelo://app?vid=c715b015-30fc-402b-bf0c-c1cade3ce502"},"vehicle_type_id":"4","last_reported":1702976850,"current_range_meters":18800,"station_id":"ce4bgl92rcd13ifvqbq0","pricing_plan_id":"free"},{"bike_id":"08b630a1-c332-4042-9566-0dcfa263e3f6","system_id":"levelo_inurba_marseille","lat":43.312239,"lon":5.368562,"is_reserved":false,"is_disabled":false,"rental_uris":{"android":"levelo://app?vid=08b630a1-c332-4042-9566-0dcfa263e3f6","ios":"levelo://app?vid=08b630a1-c332-4042-9566-0dcfa263e3f6"},"vehicle_type_id":"4","last_reported":1702976850,"current_range_meters":26400,"station_id":"ce4bgl92rcd13ifvqbq0","pricing_plan_id":"free"},{"bike_id":"65cf7538-beb8-49e0-8e37-450fc8be71a7","system_id":"levelo_inurba_marseille","lat":43.312239,"lon":5.368562,"is_reserved":false,"is_disabled":false,"rental_uris":{"android":"levelo://app?vid=65cf7538-beb8-49e0-8e37-450fc8be71a7","ios":"levelo://app?vid=65cf7538-beb8-49e0-8e37-450fc8be71a7"},"vehicle_type_id":"4","last_reported":1702976850,"current_range_meters":31600,"station_id":"ce4bgl92rcd13ifvqbq0","pricing_plan_id":"free"},{"bike_id":"21fcc476-574b-4298-84a7-b531a16acac0","system_id":"levelo_inurba_marseille","lat":43.312239,"lon":5.368562,"is_reserved":false,"is_disabled":false,"rental_uris":{"android":"levelo://app?vid=21fcc476-574b-4298-84a7-b531a16acac0","ios":"levelo://app?vid=21fcc476-574b-4298-84a7-b531a16acac0"},"vehicle_type_id":"4","last_reported":1702976850,"current_range_meters":25600,"station_id":"ce4bgl92rcd13ifvqbq0","pricing_plan_id":"free"},{"bike_id":"faef1354-2906-47c4-9b47-28fccd65652d","system_id":"levelo_inurba_marseille","lat":43.312239,"lon":5.368562,"is_reserved":false,"is_disabled":false,"rental_uris":{"android":"levelo://app?vid=faef1354-2906-47c4-9b47-28fccd65652d","ios":"levelo://app?vid=faef1354-2906-47c4-9b47-28fccd65652d"},"vehicle_type_id":"4","last_reported":1702976850,"current_range_meters":31200,"station_id":"ce4bgl92rcd13ifvqbq0","pricing_plan_id":"free"},{"bike_id":"0959ee72-75c4-44db-9b97-0ce0b9ddb9c2","system_id":"levelo_inurba_marseille","lat":43.312239,"lon":5.368562,"is_reserved":false,"is_disabled":false,"rental_uris":{"android":"levelo://app?vid=0959ee72-75c4-44db-9b97-0ce0b9ddb9c2","ios":"levelo://app?vid=0959ee72-75c4-44db-9b97-0ce0b9ddb9c2"},"vehicle_type_id":"4","last_reported":1702976850,"current_range_meters":27600,"station_id":"ce4bgl92rcd13ifvqbq0","pricing_plan_id":"free"},{"bike_id":"c6fa8f52-4c81-4ee7-903f-6c94dbeb9953","system_id":"levelo_inurba_marseille","lat":43.309076,"lon":5.368465,"is_reserved":false,"is_disabled":false,"rental_uris":{"android":"levelo://app?vid=c6fa8f52-4c81-4ee7-903f-6c94dbeb9953","ios":"levelo://app?vid=c6fa8f52-4c81-4ee7-903f-6c94dbeb9953"},"vehicle_type_id":"4","last_reported":1702976850,"current_range_meters":27600,"station_id":"ce4bgn92rcd13ifvqbvg","pricing_plan_id":"free"},{"bike_id":"70113bc6-f4b5-4546-91e9-ad8865fea9b8","system_id":"levelo_inurba_marseille","lat":43.309076,"lon":5.368465,"is_reserved":false,"is_disabled":false,"rental_uris":{"android":"levelo://app?vid=70113bc6-f4b5-4546-91e9-ad8865fea9b8","ios":"levelo://app?vid=70113bc6-f4b5-4546-91e9-ad8865fea9b8"},"vehicle_type_id":"4","last_reported":1702976850,"current_range_meters":26400,"station_id":"ce4bgn92rcd13ifvqbvg","pricing_plan_id":"free"},{"bike_id":"41d65d69-db9c-410b-b29d-fe2b3a028e9f","system_id":"levelo_inurba_marseille","lat":43.309076,"lon":5.368465,"is_reserved":false,"is_disabled":false,"rental_uris":{"android":"levelo://app?vid=41d65d69-db9c-410b-b29d-fe2b3a028e9f","ios":"levelo://app?vid=41d65d69-db9c-410b-b29d-fe2b3a028e9f"},"vehicle_type_id":"4","last_reported":1702976850,"current_range_meters":30400,"station_id":"ce4bgn92rcd13ifvqbvg","pricing_plan_id":"free"},{"bike_id":"c2b15e57-5ad3-4e7a-827b-b126dc707367","system_id":"levelo_inurba_marseille","lat":43.309076,"lon":5.368465,"is_reserved":false,"is_disabled":false,"rental_uris":{"android":"levelo://app?vid=c2b15e57-5ad3-4e7a-827b-b126dc707367","ios":"levelo://app?vid=c2b15e57-5ad3-4e7a-827b-b126dc707367"},"vehicle_type_id":"4","last_reported":1702976850,"current_range_meters":31200,"station_id":"ce4bgn92rcd13ifvqbvg","pricing_plan_id":"free"},{"bike_id":"b564ba57-2f8d-4f45-b4f3-ed32f9f69b8f","system_id":"levelo_inurba_marseille","lat":43.309039,"lon":5.371797,"is_reserved":false,"is_disabled":false,"rental_uris":{"android":"levelo://app?vid=b564ba57-2f8d-4f45-b4f3-ed32f9f69b8f","ios":"levelo://app?vid=b564ba57-2f8d-4f45-b4f3-ed32f9f69b8f"},"vehicle_type_id":"4","last_reported":1702976850,"current_range_meters":30800,"station_id":"ce4bguh2rcd13ifvqckg","pricing_plan_id":"free"},{"bike_id":"a2494202-3dab-48dc-9aa0-89157b3cab2f","system_id":"levelo_inurba_marseille","lat":43.309039,"lon":5.371797,"is_reserved":false,"is_disabled":false,"rental_uris":{"android":"levelo://app?vid=a2494202-3dab-48dc-9aa0-89157b3cab2f","ios":"levelo://app?vid=a2494202-3dab-48dc-9aa0-89157b3cab2f"},"vehicle_type_id":"4","last_reported":1702976850,"current_range_meters":9200,"station_id":"ce4bguh2rcd13ifvqckg","pricing_plan_id":"free"},{"bike_id":"2d8cc8c5-0d89-4b61-88d5-a541a830bc2c","system_id":"levelo_inurba_marseille","lat":43.30537,"lon":5.367345,"is_reserved":false,"is_disabled":false,"rental_uris":{"android":"levelo://app?vid=2d8cc8c5-0d89-4b61-88d5-a541a830bc2c","ios":"levelo://app?vid=2d8cc8c5-0d89-4b61-88d5-a541a830bc2c"},"vehicle_type_id":"4","last_reported":1702976850,"current_range_meters":29600,"station_id":"ce4bgrp2rcd13ifvqc9g","pricing_plan_id":"free"},{"bike_id":"56f8a1ac-127d-4b5b-aca5-08afffa8effd","system_id":"levelo_inurba_marseille","lat":43.30537,"lon":5.367345,"is_reserved":false,"is_disabled":false,"rental_uris":{"android":"levelo://app?vid=56f8a1ac-127d-4b5b-aca5-08afffa8effd","ios":"levelo://app?vid=56f8a1ac-127d-4b5b-aca5-08afffa8effd"},"vehicle_type_id":"4","last_reported":1702976850,"current_range_meters":25600,"station_id":"ce4bgrp2rcd13ifvqc9g","pricing_plan_id":"free"},{"bike_id":"293e8745-e127-4333-85dd-fa0fb52fbf36","system_id":"levelo_inurba_marseille","lat":43.305712,"lon":5.365641,"is_reserved":false,"is_disabled":false,"rental_uris":{"android":"levelo://app?vid=293e8745-e127-4333-85dd-fa0fb52fbf36","ios":"levelo://app?vid=293e8745-e127-4333-85dd-fa0fb52fbf36"},"vehicle_type_id":"4","last_reported":1702976850,"current_range_meters":22800,"station_id":"ce4bgs12rcd13ifvqcag","pricing_plan_id":"free"},{"bike_id":"85db37dc-19a7-4473-8f50-fe00d18c535c","system_id":"levelo_inurba_marseille","lat":43.305368,"lon":5.367343,"is_reserved":false,"is_disabled":false,"rental_uris":{"android":"levelo://app?vid=85db37dc-19a7-4473-8f50-fe00d18c535c","ios":"levelo://app?vid=85db37dc-19a7-4473-8f50-fe00d18c535c"},"vehicle_type_id":"4","last_reported":1702976850,"current_range_meters":22000,"station_id":"ce4bgrp2rcd13ifvqc9g","pricing_plan_id":"free"},{"bike_id":"81a92fd7-ee18-40d0-a3e2-cc270f4b09f1","system_id":"levelo_inurba_marseille","lat":43.305712,"lon":5.365641,"is_reserved":false,"is_disabled":false,"rental_uris":{"android":"levelo://app?vid=81a92fd7-ee18-40d0-a3e2-cc270f4b09f1","ios":"levelo://app?vid=81a92fd7-ee18-40d0-a3e2-cc270f4b09f1"},"vehicle_type_id":"4","last_reported":1702976850,"current_range_meters":28400,"station_id":"ce4bgs12rcd13ifvqcag","pricing_plan_id":"free"},{"bike_id":"8a0145cf-b6bf-4ebd-a2f2-380ad43fdbc4","system_id":"levelo_inurba_marseille","lat":43.305712,"lon":5.365641,"is_reserved":false,"is_disabled":false,"rental_uris":{"android":"levelo://app?vid=8a0145cf-b6bf-4ebd-a2f2-380ad43fdbc4","ios":"levelo://app?vid=8a0145cf-b6bf-4ebd-a2f2-380ad43fdbc4"},"vehicle_type_id":"4","last_reported":1702976850,"current_range_meters":21600,"station_id":"ce4bgs12rcd13ifvqcag","pricing_plan_id":"free"},{"bike_id":"abb384e8-c51f-4f89-add3-0fd5bf42dc3e","system_id":"levelo_inurba_marseille","lat":43.305368,"lon":5.367343,"is_reserved":false,"is_disabled":false,"rental_uris":{"android":"levelo://app?vid=abb384e8-c51f-4f89-add3-0fd5bf42dc3e","ios":"levelo://app?vid=abb384e8-c51f-4f89-add3-0fd5bf42dc3e"},"vehicle_type_id":"4","last_reported":1702976850,"current_range_meters":23600,"station_id":"ce4bgrp2rcd13ifvqc9g","pricing_plan_id":"free"},{"bike_id":"190bb94a-8dd4-4249-8948-cef756ef4849","system_id":"levelo_inurba_marseille","lat":43.305712,"lon":5.365641,"is_reserved":false,"is_disabled":false,"rental_uris":{"android":"levelo://app?vid=190bb94a-8dd4-4249-8948-cef756ef4849","ios":"levelo://app?vid=190bb94a-8dd4-4249-8948-cef756ef4849"},"vehicle_type_id":"4","last_reported":1702976850,"current_range_meters":31600,"station_id":"ce4bgs12rcd13ifvqcag","pricing_plan_id":"free"},{"bike_id":"39ff088a-68cb-4dc4-aa61-51995e813043","system_id":"levelo_inurba_marseille","lat":43.284538,"lon":5.358657,"is_reserved":false,"is_disabled":false,"rental_uris":{"android":"levelo://app?vid=39ff088a-68cb-4dc4-aa61-51995e813043","ios":"levelo://app?vid=39ff088a-68cb-4dc4-aa61-51995e813043"},"vehicle_type_id":"4","last_reported":1702976850,"current_range_meters":22000,"station_id":"ce4bhah2rcd13ifvqei0","pricing_plan_id":"free"},{"bike_id":"78d3550c-c4b7-4213-92a5-d48cb6557658","system_id":"levelo_inurba_marseille","lat":43.305706,"lon":5.365654,"is_reserved":false,"is_disabled":false,"rental_uris":{"android":"levelo://app?vid=78d3550c-c4b7-4213-92a5-d48cb6557658","ios":"levelo://app?vid=78d3550c-c4b7-4213-92a5-d48cb6557658"},"vehicle_type_id":"4","last_reported":1702976850,"current_range_meters":7200,"station_id":"ce4bgs12rcd13ifvqcag","pricing_plan_id":"free"},{"bike_id":"7aeb448b-1750-4e30-9524-3a9ec2ea6519","system_id":"levelo_inurba_marseille","lat":43.305714,"lon":5.365633,"is_reserved":false,"is_disabled":false,"rental_uris":{"android":"levelo://app?vid=7aeb448b-1750-4e30-9524-3a9ec2ea6519","ios":"levelo://app?vid=7aeb448b-1750-4e30-9524-3a9ec2ea6519"},"vehicle_type_id":"4","last_reported":1702976850,"current_range_meters":27600,"station_id":"ce4bgs12rcd13ifvqcag","pricing_plan_id":"free"},{"bike_id":"813ca2fd-0d5c-482f-b28d-09c5c84a7853","system_id":"levelo_inurba_marseille","lat":43.305368,"lon":5.367343,"is_reserved":false,"is_disabled":false,"rental_uris":{"android":"levelo://app?vid=813ca2fd-0d5c-482f-b28d-09c5c84a7853","ios":"levelo://app?vid=813ca2fd-0d5c-482f-b28d-09c5c84a7853"},"vehicle_type_id":"4","last_reported":1702976850,"current_range_meters":29600,"station_id":"ce4bgrp2rcd13ifvqc9g","pricing_plan_id":"free"},{"bike_id":"d3b97062-8fd7-46c4-a27c-46444171065a","system_id":"levelo_inurba_marseille","lat":43.305368,"lon":5.367343,"is_reserved":false,"is_disabled":false,"rental_uris":{"android":"levelo://app?vid=d3b97062-8fd7-46c4-a27c-46444171065a","ios":"levelo://app?vid=d3b97062-8fd7-46c4-a27c-46444171065a"},"vehicle_type_id":"4","last_reported":1702976850,"current_range_meters":20800,"station_id":"ce4bgrp2rcd13ifvqc9g","pricing_plan_id":"free"},{"bike_id":"7bd256cf-ac99-45f8-934a-6d72a53556dd","system_id":"levelo_inurba_marseille","lat":43.305706,"lon":5.365654,"is_reserved":false,"is_disabled":false,"rental_uris":{"android":"levelo://app?vid=7bd256cf-ac99-45f8-934a-6d72a53556dd","ios":"levelo://app?vid=7bd256cf-ac99-45f8-934a-6d72a53556dd"},"vehicle_type_id":"4","last_reported":1702976850,"current_range_meters":10800,"station_id":"ce4bgs12rcd13ifvqcag","pricing_plan_id":"free"},{"bike_id":"daac3644-21e2-4179-a1c8-1302acbeb72c","system_id":"levelo_inurba_marseille","lat":43.305706,"lon":5.365654,"is_reserved":false,"is_disabled":false,"rental_uris":{"android":"levelo://app?vid=daac3644-21e2-4179-a1c8-1302acbeb72c","ios":"levelo://app?vid=daac3644-21e2-4179-a1c8-1302acbeb72c"},"vehicle_type_id":"4","last_reported":1702976850,"current_range_meters":4800,"station_id":"ce4bgs12rcd13ifvqcag","pricing_plan_id":"free"},{"bike_id":"1116e87c-ffc1-4009-a215-2b1e00e745f2","system_id":"levelo_inurba_marseille","lat":43.3053,"lon":5.36692,"is_reserved":false,"is_disabled":false,"rental_uris":{"android":"levelo://app?vid=1116e87c-ffc1-4009-a215-2b1e00e745f2","ios":"levelo://app?vid=1116e87c-ffc1-4009-a215-2b1e00e745f2"},"vehicle_type_id":"4","last_reported":1702976850,"current_range_meters":26400,"station_id":"","pricing_plan_id":"free"},{"bike_id":"274dcdb0-d28c-4362-960b-f13b02ff3ff8","system_id":"levelo_inurba_marseille","lat":43.305706,"lon":5.365654,"is_reserved":false,"is_disabled":false,"rental_uris":{"android":"levelo://app?vid=274dcdb0-d28c-4362-960b-f13b02ff3ff8","ios":"levelo://app?vid=274dcdb0-d28c-4362-960b-f13b02ff3ff8"},"vehicle_type_id":"4","last_reported":1702976850,"current_range_meters":28400,"station_id":"ce4bgs12rcd13ifvqcag","pricing_plan_id":"free"},{"bike_id":"6aaff536-15fe-46ef-8fc0-cda3c9b0f850","system_id":"levelo_inurba_marseille","lat":43.307945,"lon":5.376487,"is_reserved":false,"is_disabled":false,"rental_uris":{"android":"levelo://app?vid=6aaff536-15fe-46ef-8fc0-cda3c9b0f850","ios":"levelo://app?vid=6aaff536-15fe-46ef-8fc0-cda3c9b0f850"},"vehicle_type_id":"4","last_reported":1702976850,"current_range_meters":25200,"station_id":"ce4bgv92rcd13ifvqcq0","pricing_plan_id":"free"},{"bike_id":"57fb8f5b-e00a-497d-93fd-6736f87a05bc","system_id":"levelo_inurba_marseille","lat":43.30304,"lon":5.368987,"is_reserved":false,"is_disabled":false,"rental_uris":{"android":"levelo://app?vid=57fb8f5b-e00a-497d-93fd-6736f87a05bc","ios":"levelo://app?vid=57fb8f5b-e00a-497d-93fd-6736f87a05bc"},"vehicle_type_id":"4","last_reported":1702976850,"current_range_meters":27600,"station_id":"ce4bgqh2rcd13ifvqc5g","pricing_plan_id":"free"},{"bike_id":"8e70b9d5-c338-4a84-bc3e-9072db7f0759","system_id":"levelo_inurba_marseille","lat":43.301939,"lon":5.366286,"is_reserved":false,"is_disabled":false,"rental_uris":{"android":"levelo://app?vid=8e70b9d5-c338-4a84-bc3e-9072db7f0759","ios":"levelo://app?vid=8e70b9d5-c338-4a84-bc3e-9072db7f0759"},"vehicle_type_id":"4","last_reported":1702976850,"current_range_meters":29600,"station_id":"ce4bgrh2rcd13ifvqc8g","pricing_plan_id":"free"},{"bike_id":"fa4995b0-4917-42ae-be5a-bf643a82089b","system_id":"levelo_inurba_marseille","lat":43.301939,"lon":5.366286,"is_reserved":false,"is_disabled":false,"rental_uris":{"android":"levelo://app?vid=fa4995b0-4917-42ae-be5a-bf643a82089b","ios":"levelo://app?vid=fa4995b0-4917-42ae-be5a-bf643a82089b"},"vehicle_type_id":"4","last_reported":1702976850,"current_range_meters":28400,"station_id":"ce4bgrh2rcd13ifvqc8g","pricing_plan_id":"free"},{"bike_id":"21b09448-a7ee-40f7-99bc-c3e0b8a49faa","system_id":"levelo_inurba_marseille","lat":43.30176,"lon":5.36614,"is_reserved":false,"is_disabled":false,"rental_uris":{"android":"levelo://app?vid=21b09448-a7ee-40f7-99bc-c3e0b8a49faa","ios":"levelo://app?vid=21b09448-a7ee-40f7-99bc-c3e0b8a49faa"},"vehicle_type_id":"4","last_reported":1702976850,"current_range_meters":17200,"station_id":"ce4bgrh2rcd13ifvqc8g","pricing_plan_id":"free"},{"bike_id":"c97da268-2ce2-4f15-b2c5-d6fcbe5db83a","system_id":"levelo_inurba_marseille","lat":43.304679,"lon":5.37898,"is_reserved":false,"is_disabled":false,"rental_uris":{"android":"levelo://app?vid=c97da268-2ce2-4f15-b2c5-d6fcbe5db83a","ios":"levelo://app?vid=c97da268-2ce2-4f15-b2c5-d6fcbe5db83a"},"vehicle_type_id":"4","last_reported":1702976850,"current_range_meters":19200,"station_id":"ce4bgup2rcd13ifvqcn0","pricing_plan_id":"free"},{"bike_id":"edc6328f-72a9-49d7-8ad5-71ed18b32afa","system_id":"levelo_inurba_marseille","lat":43.324771,"lon":5.36557,"is_reserved":false,"is_disabled":false,"rental_uris":{"android":"levelo://app?vid=edc6328f-72a9-49d7-8ad5-71ed18b32afa","ios":"levelo://app?vid=edc6328f-72a9-49d7-8ad5-71ed18b32afa"},"vehicle_type_id":"4","last_reported":1702976850,"current_range_meters":22000,"station_id":"ce4bhs12rcd13ifvqhvg","pricing_plan_id":"free"},{"bike_id":"33f0b5e6-70ed-4e2e-a102-21e0d9571c2c","system_id":"levelo_inurba_marseille","lat":43.324771,"lon":5.36557,"is_reserved":false,"is_disabled":false,"rental_uris":{"android":"levelo://app?vid=33f0b5e6-70ed-4e2e-a102-21e0d9571c2c","ios":"levelo://app?vid=33f0b5e6-70ed-4e2e-a102-21e0d9571c2c"},"vehicle_type_id":"4","last_reported":1702976850,"current_range_meters":12800,"station_id":"ce4bhs12rcd13ifvqhvg","pricing_plan_id":"free"},{"bike_id":"2b58bf50-356e-4d40-bda8-a2be25040aa2","system_id":"levelo_inurba_marseille","lat":43.302784,"lon":5.377158,"is_reserved":false,"is_disabled":false,"rental_uris":{"android":"levelo://app?vid=2b58bf50-356e-4d40-bda8-a2be25040aa2","ios":"levelo://app?vid=2b58bf50-356e-4d40-bda8-a2be25040aa2"},"vehicle_type_id":"4","last_reported":1702976850,"current_range_meters":27200,"station_id":"ce4bguh2rcd13ifvqcj0","pricing_plan_id":"free"},{"bike_id":"5feedf98-455c-4e4a-b3fd-4ebbc6a413cb","system_id":"levelo_inurba_marseille","lat":43.302784,"lon":5.377158,"is_reserved":false,"is_disabled":false,"rental_uris":{"android":"levelo://app?vid=5feedf98-455c-4e4a-b3fd-4ebbc6a413cb","ios":"levelo://app?vid=5feedf98-455c-4e4a-b3fd-4ebbc6a413cb"},"vehicle_type_id":"4","last_reported":1702976850,"current_range_meters":10800,"station_id":"ce4bguh2rcd13ifvqcj0","pricing_plan_id":"free"},{"bike_id":"4fbb90fd-8787-4a2f-bee5-871a5a1c19a8","system_id":"levelo_inurba_marseille","lat":43.302784,"lon":5.377158,"is_reserved":false,"is_disabled":false,"rental_uris":{"android":"levelo://app?vid=4fbb90fd-8787-4a2f-bee5-871a5a1c19a8","ios":"levelo://app?vid=4fbb90fd-8787-4a2f-bee5-871a5a1c19a8"},"vehicle_type_id":"4","last_reported":1702976850,"current_range_meters":22000,"station_id":"ce4bguh2rcd13ifvqcj0","pricing_plan_id":"free"},{"bike_id":"242d3970-15e0-4463-9f0a-902581b3522a","system_id":"levelo_inurba_marseille","lat":43.30142,"lon":5.37398,"is_reserved":false,"is_disabled":false,"rental_uris":{"android":"levelo://app?vid=242d3970-15e0-4463-9f0a-902581b3522a","ios":"levelo://app?vid=242d3970-15e0-4463-9f0a-902581b3522a"},"vehicle_type_id":"4","last_reported":1702976850,"current_range_meters":23200,"station_id":"ce4bgs92rcd13ifvqcc0","pricing_plan_id":"free"},{"bike_id":"126a5ca1-7a16-4283-a5e7-600e3c957491","system_id":"levelo_inurba_marseille","lat":43.30141,"lon":5.37406,"is_reserved":false,"is_disabled":false,"rental_uris":{"android":"levelo://app?vid=126a5ca1-7a16-4283-a5e7-600e3c957491","ios":"levelo://app?vid=126a5ca1-7a16-4283-a5e7-600e3c957491"},"vehicle_type_id":"4","last_reported":1702976850,"current_range_meters":24800,"station_id":"ce4bgs92rcd13ifvqcc0","pricing_plan_id":"free"},{"bike_id":"929fd223-35aa-49af-8c66-1a2df1620a55","system_id":"levelo_inurba_marseille","lat":43.30144,"lon":5.37416,"is_reserved":false,"is_disabled":false,"rental_uris":{"android":"levelo://app?vid=929fd223-35aa-49af-8c66-1a2df1620a55","ios":"levelo://app?vid=929fd223-35aa-49af-8c66-1a2df1620a55"},"vehicle_type_id":"4","last_reported":1702976850,"current_range_meters":22000,"station_id":"ce4bgs92rcd13ifvqcc0","pricing_plan_id":"free"},{"bike_id":"c2e4c9a0-68f0-4f31-b3e7-889be6c1e0de","system_id":"levelo_inurba_marseille","lat":43.30141,"lon":5.37411,"is_reserved":false,"is_disabled":false,"rental_uris":{"android":"levelo://app?vid=c2e4c9a0-68f0-4f31-b3e7-889be6c1e0de","ios":"levelo://app?vid=c2e4c9a0-68f0-4f31-b3e7-889be6c1e0de"},"vehicle_type_id":"4","last_reported":1702976850,"current_range_meters":5200,"station_id":"ce4bgs92rcd13ifvqcc0","pricing_plan_id":"free"},{"bike_id":"7e2dadc9-b095-49b8-8a6e-4c37229b8003","system_id":"levelo_inurba_marseille","lat":43.30143,"lon":5.37413,"is_reserved":false,"is_disabled":false,"rental_uris":{"android":"levelo://app?vid=7e2dadc9-b095-49b8-8a6e-4c37229b8003","ios":"levelo://app?vid=7e2dadc9-b095-49b8-8a6e-4c37229b8003"},"vehicle_type_id":"4","last_reported":1702976850,"current_range_meters":24400,"station_id":"ce4bgs92rcd13ifvqcc0","pricing_plan_id":"free"},{"bike_id":"d881cd7f-8df8-43e8-af3b-b8f60eea9e81","system_id":"levelo_inurba_marseille","lat":43.30132,"lon":5.37391,"is_reserved":false,"is_disabled":false,"rental_uris":{"android":"levelo://app?vid=d881cd7f-8df8-43e8-af3b-b8f60eea9e81","ios":"levelo://app?vid=d881cd7f-8df8-43e8-af3b-b8f60eea9e81"},"vehicle_type_id":"4","last_reported":1702976850,"current_range_meters":22800,"station_id":"ce4bgs92rcd13ifvqcc0","pricing_plan_id":"free"},{"bike_id":"d75605e7-261d-4811-bda9-9427769b961a","system_id":"levelo_inurba_marseille","lat":43.30141,"lon":5.37421,"is_reserved":false,"is_disabled":false,"rental_uris":{"android":"levelo://app?vid=d75605e7-261d-4811-bda9-9427769b961a","ios":"levelo://app?vid=d75605e7-261d-4811-bda9-9427769b961a"},"vehicle_type_id":"4","last_reported":1702976850,"current_range_meters":28800,"station_id":"ce4bgs92rcd13ifvqcc0","pricing_plan_id":"free"},{"bike_id":"24dd4f14-03b9-45e8-8e02-b2ea78e1cf94","system_id":"levelo_inurba_marseille","lat":43.313571,"lon":5.384829,"is_reserved":false,"is_disabled":false,"rental_uris":{"android":"levelo://app?vid=24dd4f14-03b9-45e8-8e02-b2ea78e1cf94","ios":"levelo://app?vid=24dd4f14-03b9-45e8-8e02-b2ea78e1cf94"},"vehicle_type_id":"4","last_reported":1702976850,"current_range_meters":24800,"station_id":"ce4bgt92rcd13ifvqcf0","pricing_plan_id":"free"},{"bike_id":"f707ff02-dfd2-4390-9dab-bb9c3381bc08","system_id":"levelo_inurba_marseille","lat":43.313571,"lon":5.384829,"is_reserved":false,"is_disabled":false,"rental_uris":{"android":"levelo://app?vid=f707ff02-dfd2-4390-9dab-bb9c3381bc08","ios":"levelo://app?vid=f707ff02-dfd2-4390-9dab-bb9c3381bc08"},"vehicle_type_id":"4","last_reported":1702976850,"current_range_meters":28800,"station_id":"ce4bgt92rcd13ifvqcf0","pricing_plan_id":"free"},{"bike_id":"dee260d6-3bbc-4aba-9dc3-76ad09b3b3e1","system_id":"levelo_inurba_marseille","lat":43.299222,"lon":5.365554,"is_reserved":false,"is_disabled":false,"rental_uris":{"android":"levelo://app?vid=dee260d6-3bbc-4aba-9dc3-76ad09b3b3e1","ios":"levelo://app?vid=dee260d6-3bbc-4aba-9dc3-76ad09b3b3e1"},"vehicle_type_id":"4","last_reported":1702976850,"current_range_meters":20800,"station_id":"ce4bgm92rcd13ifvqbr0","pricing_plan_id":"free"},{"bike_id":"c3c40d24-a2fd-43e1-aeb5-2e8f0393e1d9","system_id":"levelo_inurba_marseille","lat":43.313571,"lon":5.384829,"is_reserved":false,"is_disabled":false,"rental_uris":{"android":"levelo://app?vid=c3c40d24-a2fd-43e1-aeb5-2e8f0393e1d9","ios":"levelo://app?vid=c3c40d24-a2fd-43e1-aeb5-2e8f0393e1d9"},"vehicle_type_id":"4","last_reported":1702976850,"current_range_meters":19200,"station_id":"ce4bgt92rcd13ifvqcf0","pricing_plan_id":"free"},{"bike_id":"8afff5a6-ecf3-4744-b84a-eb88fddbfe3b","system_id":"levelo_inurba_marseille","lat":43.298433,"lon":5.362774,"is_reserved":false,"is_disabled":false,"rental_uris":{"android":"levelo://app?vid=8afff5a6-ecf3-4744-b84a-eb88fddbfe3b","ios":"levelo://app?vid=8afff5a6-ecf3-4744-b84a-eb88fddbfe3b"},"vehicle_type_id":"4","last_reported":1702976850,"current_range_meters":21200,"station_id":"ce4bgpp2rcd13ifvqc3g","pricing_plan_id":"free"},{"bike_id":"ca0834b0-077b-48e5-8d61-d563b65c06e3","system_id":"levelo_inurba_marseille","lat":43.305434,"lon":5.384359,"is_reserved":false,"is_disabled":false,"rental_uris":{"android":"levelo://app?vid=ca0834b0-077b-48e5-8d61-d563b65c06e3","ios":"levelo://app?vid=ca0834b0-077b-48e5-8d61-d563b65c06e3"},"vehicle_type_id":"4","last_reported":1702976850,"current_range_meters":4000,"station_id":"ce4bgg92rcd13ifvqb30","pricing_plan_id":"free"},{"bike_id":"86503b02-3c5e-442e-850d-8b3333defd07","system_id":"levelo_inurba_marseille","lat":43.311722,"lon":5.387247,"is_reserved":false,"is_disabled":false,"rental_uris":{"android":"levelo://app?vid=86503b02-3c5e-442e-850d-8b3333defd07","ios":"levelo://app?vid=86503b02-3c5e-442e-850d-8b3333defd07"},"vehicle_type_id":"4","last_reported":1702976850,"current_range_meters":14400,"station_id":"ce4bgv12rcd13ifvqcp0","pricing_plan_id":"free"},{"bike_id":"ee5c0e2c-4f04-481f-838e-b1ede6632684","system_id":"levelo_inurba_marseille","lat":43.29783,"lon":5.37112,"is_reserved":false,"is_disabled":false,"rental_uris":{"android":"levelo://app?vid=ee5c0e2c-4f04-481f-838e-b1ede6632684","ios":"levelo://app?vid=ee5c0e2c-4f04-481f-838e-b1ede6632684"},"vehicle_type_id":"4","last_reported":1702976850,"current_range_meters":28000,"station_id":"ce4bgop2rcd13ifvqc1g","pricing_plan_id":"free"},{"bike_id":"e634940c-1ae4-4771-a219-f87b156a8c65","system_id":"levelo_inurba_marseille","lat":43.322872,"lon":5.382756,"is_reserved":false,"is_disabled":false,"rental_uris":{"android":"levelo://app?vid=e634940c-1ae4-4771-a219-f87b156a8c65","ios":"levelo://app?vid=e634940c-1ae4-4771-a219-f87b156a8c65"},"vehicle_type_id":"4","last_reported":1702976850,"current_range_meters":23600,"station_id":"ce4bhr12rcd13ifvqhqg","pricing_plan_id":"free"},{"bike_id":"d83fbae2-5f8f-42f4-8ccf-5b712fffb999","system_id":"levelo_inurba_marseille","lat":43.328371,"lon":5.366909,"is_reserved":false,"is_disabled":false,"rental_uris":{"android":"levelo://app?vid=d83fbae2-5f8f-42f4-8ccf-5b712fffb999","ios":"levelo://app?vid=d83fbae2-5f8f-42f4-8ccf-5b712fffb999"},"vehicle_type_id":"4","last_reported":1702976850,"current_range_meters":27600,"station_id":"ce4bhs92rcd13ifvqi0g","pricing_plan_id":"free"},{"bike_id":"203ccf9d-d45a-4d8f-9dc1-5faac8a137a6","system_id":"levelo_inurba_marseille","lat":43.29712,"lon":5.37204,"is_reserved":false,"is_disabled":false,"rental_uris":{"android":"levelo://app?vid=203ccf9d-d45a-4d8f-9dc1-5faac8a137a6","ios":"levelo://app?vid=203ccf9d-d45a-4d8f-9dc1-5faac8a137a6"},"vehicle_type_id":"4","last_reported":1702976850,"current_range_meters":23200,"station_id":"","pricing_plan_id":"free"},{"bike_id":"51e9f541-3208-497a-8a70-1667a1e7d9d4","system_id":"levelo_inurba_marseille","lat":43.309589,"lon":5.390258,"is_reserved":false,"is_disabled":false,"rental_uris":{"android":"levelo://app?vid=51e9f541-3208-497a-8a70-1667a1e7d9d4","ios":"levelo://app?vid=51e9f541-3208-497a-8a70-1667a1e7d9d4"},"vehicle_type_id":"4","last_reported":1702976850,"current_range_meters":22000,"station_id":"ce4bgup2rcd13ifvqco0","pricing_plan_id":"free"},{"bike_id":"71133c9c-8938-46ab-9034-73e4b89679cb","system_id":"levelo_inurba_marseille","lat":43.309589,"lon":5.390258,"is_reserved":false,"is_disabled":false,"rental_uris":{"android":"levelo://app?vid=71133c9c-8938-46ab-9034-73e4b89679cb","ios":"levelo://app?vid=71133c9c-8938-46ab-9034-73e4b89679cb"},"vehicle_type_id":"4","last_reported":1702976850,"current_range_meters":30000,"station_id":"ce4bgup2rcd13ifvqco0","pricing_plan_id":"free"},{"bike_id":"32a85c6f-a6b1-48cb-8e38-806811c173ef","system_id":"levelo_inurba_marseille","lat":43.309589,"lon":5.390258,"is_reserved":false,"is_disabled":false,"rental_uris":{"android":"levelo://app?vid=32a85c6f-a6b1-48cb-8e38-806811c173ef","ios":"levelo://app?vid=32a85c6f-a6b1-48cb-8e38-806811c173ef"},"vehicle_type_id":"4","last_reported":1702976850,"current_range_meters":22400,"station_id":"ce4bgup2rcd13ifvqco0","pricing_plan_id":"free"},{"bike_id":"4467ea74-2a71-430b-b530-68c7d7d8ee97","system_id":"levelo_inurba_marseille","lat":43.309589,"lon":5.390258,"is_reserved":false,"is_disabled":false,"rental_uris":{"android":"levelo://app?vid=4467ea74-2a71-430b-b530-68c7d7d8ee97","ios":"levelo://app?vid=4467ea74-2a71-430b-b530-68c7d7d8ee97"},"vehicle_type_id":"4","last_reported":1702976850,"current_range_meters":16000,"station_id":"ce4bgup2rcd13ifvqco0","pricing_plan_id":"free"},{"bike_id":"5b719a94-9275-43e1-a9b1-788b139c8334","system_id":"levelo_inurba_marseille","lat":43.309589,"lon":5.390258,"is_reserved":false,"is_disabled":false,"rental_uris":{"android":"levelo://app?vid=5b719a94-9275-43e1-a9b1-788b139c8334","ios":"levelo://app?vid=5b719a94-9275-43e1-a9b1-788b139c8334"},"vehicle_type_id":"4","last_reported":1702976850,"current_range_meters":1200,"station_id":"ce4bgup2rcd13ifvqco0","pricing_plan_id":"free"},{"bike_id":"c8ec15a0-c1cb-4e05-b09a-d8a6c03904b2","system_id":"levelo_inurba_marseille","lat":43.317557,"lon":5.390173,"is_reserved":false,"is_disabled":false,"rental_uris":{"android":"levelo://app?vid=c8ec15a0-c1cb-4e05-b09a-d8a6c03904b2","ios":"levelo://app?vid=c8ec15a0-c1cb-4e05-b09a-d8a6c03904b2"},"vehicle_type_id":"4","last_reported":1702976850,"current_range_meters":4800,"station_id":"ce4bhqp2rcd13ifvqhng","pricing_plan_id":"free"},{"bike_id":"40554fe8-87bf-41d5-b75a-7fd0e2ec929c","system_id":"levelo_inurba_marseille","lat":43.317533,"lon":5.39024,"is_reserved":false,"is_disabled":false,"rental_uris":{"android":"levelo://app?vid=40554fe8-87bf-41d5-b75a-7fd0e2ec929c","ios":"levelo://app?vid=40554fe8-87bf-41d5-b75a-7fd0e2ec929c"},"vehicle_type_id":"4","last_reported":1702976850,"current_range_meters":30400,"station_id":"ce4bhqp2rcd13ifvqhng","pricing_plan_id":"free"},{"bike_id":"2894bc93-aa1b-4d29-b902-bc148f4f1a0a","system_id":"levelo_inurba_marseille","lat":43.29796,"lon":5.38092,"is_reserved":false,"is_disabled":false,"rental_uris":{"android":"levelo://app?vid=2894bc93-aa1b-4d29-b902-bc148f4f1a0a","ios":"levelo://app?vid=2894bc93-aa1b-4d29-b902-bc148f4f1a0a"},"vehicle_type_id":"4","last_reported":1702976850,"current_range_meters":2000,"station_id":"ce4bgip2rcd13ifvqbb0","pricing_plan_id":"free"},{"bike_id":"122f376f-b398-4826-8c9d-84a08e036473","system_id":"levelo_inurba_marseille","lat":43.295748,"lon":5.37522,"is_reserved":false,"is_disabled":false,"rental_uris":{"android":"levelo://app?vid=122f376f-b398-4826-8c9d-84a08e036473","ios":"levelo://app?vid=122f376f-b398-4826-8c9d-84a08e036473"},"vehicle_type_id":"4","last_reported":1702976850,"current_range_meters":5600,"station_id":"ce4bgh92rcd13ifvqb50","pricing_plan_id":"free"},{"bike_id":"aaea506b-4be7-47cc-bbb7-7b015494fff0","system_id":"levelo_inurba_marseille","lat":43.295748,"lon":5.37522,"is_reserved":false,"is_disabled":false,"rental_uris":{"android":"levelo://app?vid=aaea506b-4be7-47cc-bbb7-7b015494fff0","ios":"levelo://app?vid=aaea506b-4be7-47cc-bbb7-7b015494fff0"},"vehicle_type_id":"4","last_reported":1702976850,"current_range_meters":13600,"station_id":"ce4bgh92rcd13ifvqb50","pricing_plan_id":"free"},{"bike_id":"f973ff4e-3006-46ba-b5f8-52fa382ade49","system_id":"levelo_inurba_marseille","lat":43.296263,"lon":5.377094,"is_reserved":false,"is_disabled":false,"rental_uris":{"android":"levelo://app?vid=f973ff4e-3006-46ba-b5f8-52fa382ade49","ios":"levelo://app?vid=f973ff4e-3006-46ba-b5f8-52fa382ade49"},"vehicle_type_id":"4","last_reported":1702976850,"current_range_meters":17600,"station_id":"ce4bgi92rcd13ifvqb90","pricing_plan_id":"free"},{"bike_id":"027f642c-cab5-42d0-9951-095228f3d0c4","system_id":"levelo_inurba_marseille","lat":43.297858,"lon":5.381125,"is_reserved":false,"is_disabled":false,"rental_uris":{"android":"levelo://app?vid=027f642c-cab5-42d0-9951-095228f3d0c4","ios":"levelo://app?vid=027f642c-cab5-42d0-9951-095228f3d0c4"},"vehicle_type_id":"4","last_reported":1702976850,"current_range_meters":12400,"station_id":"","pricing_plan_id":"free"},{"bike_id":"e57d003e-92fa-4821-9f7e-2bb02d835daa","system_id":"levelo_inurba_marseille","lat":43.295279,"lon":5.375048,"is_reserved":false,"is_disabled":false,"rental_uris":{"android":"levelo://app?vid=e57d003e-92fa-4821-9f7e-2bb02d835daa","ios":"levelo://app?vid=e57d003e-92fa-4821-9f7e-2bb02d835daa"},"vehicle_type_id":"4","last_reported":1702976850,"current_range_meters":18800,"station_id":"ce4bgkp2rcd13ifvqbmg","pricing_plan_id":"free"},{"bike_id":"555e72ff-6e18-4272-8e93-8bff72f6466a","system_id":"levelo_inurba_marseille","lat":43.32367,"lon":5.388836,"is_reserved":false,"is_disabled":false,"rental_uris":{"android":"levelo://app?vid=555e72ff-6e18-4272-8e93-8bff72f6466a","ios":"levelo://app?vid=555e72ff-6e18-4272-8e93-8bff72f6466a"},"vehicle_type_id":"4","last_reported":1702976850,"current_range_meters":16000,"station_id":"ce4bhqp2rcd13ifvqhog","pricing_plan_id":"free"},{"bike_id":"67a579e1-4bf9-4fa1-bfdd-d0c6cfc4791a","system_id":"levelo_inurba_marseille","lat":43.32367,"lon":5.388836,"is_reserved":false,"is_disabled":false,"rental_uris":{"android":"levelo://app?vid=67a579e1-4bf9-4fa1-bfdd-d0c6cfc4791a","ios":"levelo://app?vid=67a579e1-4bf9-4fa1-bfdd-d0c6cfc4791a"},"vehicle_type_id":"4","last_reported":1702976850,"current_range_meters":4400,"station_id":"ce4bhqp2rcd13ifvqhog","pricing_plan_id":"free"},{"bike_id":"ee72810e-d5d7-4225-8a40-bc95af9e5fce","system_id":"levelo_inurba_marseille","lat":43.292749,"lon":5.368402,"is_reserved":false,"is_disabled":false,"rental_uris":{"android":"levelo://app?vid=ee72810e-d5d7-4225-8a40-bc95af9e5fce","ios":"levelo://app?vid=ee72810e-d5d7-4225-8a40-bc95af9e5fce"},"vehicle_type_id":"4","last_reported":1702976850,"current_range_meters":11600,"station_id":"ce4bhbp2rcd13ifvqesg","pricing_plan_id":"free"},{"bike_id":"18fb5fba-e240-41a6-b073-b30f4f675b13","system_id":"levelo_inurba_marseille","lat":43.293259,"lon":5.371586,"is_reserved":false,"is_disabled":false,"rental_uris":{"android":"levelo://app?vid=18fb5fba-e240-41a6-b073-b30f4f675b13","ios":"levelo://app?vid=18fb5fba-e240-41a6-b073-b30f4f675b13"},"vehicle_type_id":"4","last_reported":1702976850,"current_range_meters":21600,"station_id":"ce4bgh92rcd13ifvqb40","pricing_plan_id":"free"},{"bike_id":"889c4e50-dc0b-438b-b3ed-840370ec433a","system_id":"levelo_inurba_marseille","lat":43.293009,"lon":5.374584,"is_reserved":false,"is_disabled":false,"rental_uris":{"android":"levelo://app?vid=889c4e50-dc0b-438b-b3ed-840370ec433a","ios":"levelo://app?vid=889c4e50-dc0b-438b-b3ed-840370ec433a"},"vehicle_type_id":"4","last_reported":1702976850,"current_range_meters":20800,"station_id":"ce4bgi12rcd13ifvqb70","pricing_plan_id":"free"},{"bike_id":"460e7fa8-ca26-4800-9797-07cf8e61751f","system_id":"levelo_inurba_marseille","lat":43.29379,"lon":5.37851,"is_reserved":false,"is_disabled":false,"rental_uris":{"android":"levelo://app?vid=460e7fa8-ca26-4800-9797-07cf8e61751f","ios":"levelo://app?vid=460e7fa8-ca26-4800-9797-07cf8e61751f"},"vehicle_type_id":"4","last_reported":1702976850,"current_range_meters":15600,"station_id":"ce4bgjh2rcd13ifvqbf0","pricing_plan_id":"free"},{"bike_id":"05d6f30a-91d3-46f1-8c3c-8d6f904a86c3","system_id":"levelo_inurba_marseille","lat":43.29372,"lon":5.37839,"is_reserved":false,"is_disabled":false,"rental_uris":{"android":"levelo://app?vid=05d6f30a-91d3-46f1-8c3c-8d6f904a86c3","ios":"levelo://app?vid=05d6f30a-91d3-46f1-8c3c-8d6f904a86c3"},"vehicle_type_id":"4","last_reported":1702976850,"current_range_meters":28400,"station_id":"ce4bgjh2rcd13ifvqbf0","pricing_plan_id":"free"},{"bike_id":"7e169213-5f76-426c-9633-4c460bbe8177","system_id":"levelo_inurba_marseille","lat":43.29375,"lon":5.37858,"is_reserved":false,"is_disabled":false,"rental_uris":{"android":"levelo://app?vid=7e169213-5f76-426c-9633-4c460bbe8177","ios":"levelo://app?vid=7e169213-5f76-426c-9633-4c460bbe8177"},"vehicle_type_id":"4","last_reported":1702976850,"current_range_meters":11600,"station_id":"ce4bgjh2rcd13ifvqbf0","pricing_plan_id":"free"},{"bike_id":"2a07e3b9-5114-40ea-a3de-a116c1a3d6ff","system_id":"levelo_inurba_marseille","lat":43.2936,"lon":5.37835,"is_reserved":false,"is_disabled":false,"rental_uris":{"android":"levelo://app?vid=2a07e3b9-5114-40ea-a3de-a116c1a3d6ff","ios":"levelo://app?vid=2a07e3b9-5114-40ea-a3de-a116c1a3d6ff"},"vehicle_type_id":"4","last_reported":1702976850,"current_range_meters":31200,"station_id":"ce4bgjh2rcd13ifvqbf0","pricing_plan_id":"free"},{"bike_id":"0c1b3797-1947-447f-9dbf-326aae477ac1","system_id":"levelo_inurba_marseille","lat":43.29365,"lon":5.37851,"is_reserved":false,"is_disabled":false,"rental_uris":{"android":"levelo://app?vid=0c1b3797-1947-447f-9dbf-326aae477ac1","ios":"levelo://app?vid=0c1b3797-1947-447f-9dbf-326aae477ac1"},"vehicle_type_id":"4","last_reported":1702976850,"current_range_meters":0,"station_id":"ce4bgjh2rcd13ifvqbf0","pricing_plan_id":"free"},{"bike_id":"521dfe58-d2a9-40e9-b615-12280b8f6b26","system_id":"levelo_inurba_marseille","lat":43.300852,"lon":5.390859,"is_reserved":false,"is_disabled":false,"rental_uris":{"android":"levelo://app?vid=521dfe58-d2a9-40e9-b615-12280b8f6b26","ios":"levelo://app?vid=521dfe58-d2a9-40e9-b615-12280b8f6b26"},"vehicle_type_id":"4","last_reported":1702976850,"current_range_meters":16000,"station_id":"ce4bh192rcd13ifvqdb0","pricing_plan_id":"free"},{"bike_id":"c6c2e409-89ef-45ee-a14f-3a31d87f8c47","system_id":"levelo_inurba_marseille","lat":43.300961,"lon":5.390836,"is_reserved":false,"is_disabled":false,"rental_uris":{"android":"levelo://app?vid=c6c2e409-89ef-45ee-a14f-3a31d87f8c47","ios":"levelo://app?vid=c6c2e409-89ef-45ee-a14f-3a31d87f8c47"},"vehicle_type_id":"4","last_reported":1702976850,"current_range_meters":29200,"station_id":"","pricing_plan_id":"free"},{"bike_id":"25316a88-7dca-484d-a1be-38f3e58c4dd1","system_id":"levelo_inurba_marseille","lat":43.298707,"lon":5.38902,"is_reserved":false,"is_disabled":false,"rental_uris":{"android":"levelo://app?vid=25316a88-7dca-484d-a1be-38f3e58c4dd1","ios":"levelo://app?vid=25316a88-7dca-484d-a1be-38f3e58c4dd1"},"vehicle_type_id":"4","last_reported":1702976850,"current_range_meters":18400,"station_id":"","pricing_plan_id":"free"},{"bike_id":"d29baec5-e309-4ea8-85f6-2782cfeceb15","system_id":"levelo_inurba_marseille","lat":43.289468,"lon":5.363719,"is_reserved":false,"is_disabled":false,"rental_uris":{"android":"levelo://app?vid=d29baec5-e309-4ea8-85f6-2782cfeceb15","ios":"levelo://app?vid=d29baec5-e309-4ea8-85f6-2782cfeceb15"},"vehicle_type_id":"4","last_reported":1702976850,"current_range_meters":14400,"station_id":"ce4bhc92rcd13ifvqetg","pricing_plan_id":"free"},{"bike_id":"0dca9e7c-accb-48e2-bccc-e99c4cf075bc","system_id":"levelo_inurba_marseille","lat":43.289184,"lon":5.366408,"is_reserved":false,"is_disabled":false,"rental_uris":{"android":"levelo://app?vid=0dca9e7c-accb-48e2-bccc-e99c4cf075bc","ios":"levelo://app?vid=0dca9e7c-accb-48e2-bccc-e99c4cf075bc"},"vehicle_type_id":"4","last_reported":1702976850,"current_range_meters":15200,"station_id":"ce4bhap2rcd13ifvqek0","pricing_plan_id":"free"},{"bike_id":"8f486bd6-d807-4dfd-adbf-9ba37a9aa742","system_id":"levelo_inurba_marseille","lat":43.294162,"lon":5.386292,"is_reserved":false,"is_disabled":false,"rental_uris":{"android":"levelo://app?vid=8f486bd6-d807-4dfd-adbf-9ba37a9aa742","ios":"levelo://app?vid=8f486bd6-d807-4dfd-adbf-9ba37a9aa742"},"vehicle_type_id":"4","last_reported":1702976850,"current_range_meters":25200,"station_id":"ce4bh2h2rcd13ifvqdh0","pricing_plan_id":"free"},{"bike_id":"ae513706-63e1-48f7-9815-13e25e92ba4c","system_id":"levelo_inurba_marseille","lat":43.289184,"lon":5.366408,"is_reserved":false,"is_disabled":false,"rental_uris":{"android":"levelo://app?vid=ae513706-63e1-48f7-9815-13e25e92ba4c","ios":"levelo://app?vid=ae513706-63e1-48f7-9815-13e25e92ba4c"},"vehicle_type_id":"4","last_reported":1702976850,"current_range_meters":1600,"station_id":"ce4bhap2rcd13ifvqek0","pricing_plan_id":"free"},{"bike_id":"75e10717-a105-40ed-9bfe-0506ae59c570","system_id":"levelo_inurba_marseille","lat":43.292642,"lon":5.384254,"is_reserved":false,"is_disabled":false,"rental_uris":{"android":"levelo://app?vid=75e10717-a105-40ed-9bfe-0506ae59c570","ios":"levelo://app?vid=75e10717-a105-40ed-9bfe-0506ae59c570"},"vehicle_type_id":"4","last_reported":1702976850,"current_range_meters":18000,"station_id":"ce4bh692rcd13ifvqea0","pricing_plan_id":"free"},{"bike_id":"fb541042-ca34-42cc-9403-1629f61ffdf5","system_id":"levelo_inurba_marseille","lat":43.33045,"lon":5.38918,"is_reserved":false,"is_disabled":false,"rental_uris":{"android":"levelo://app?vid=fb541042-ca34-42cc-9403-1629f61ffdf5","ios":"levelo://app?vid=fb541042-ca34-42cc-9403-1629f61ffdf5"},"vehicle_type_id":"4","last_reported":1702976850,"current_range_meters":29200,"station_id":"ce4bhr92rcd13ifvqhrg","pricing_plan_id":"free"},{"bike_id":"85a5df67-94b7-4738-af27-a350133fe5d9","system_id":"levelo_inurba_marseille","lat":43.290995,"lon":5.381361,"is_reserved":false,"is_disabled":false,"rental_uris":{"android":"levelo://app?vid=85a5df67-94b7-4738-af27-a350133fe5d9","ios":"levelo://app?vid=85a5df67-94b7-4738-af27-a350133fe5d9"},"vehicle_type_id":"4","last_reported":1702976850,"current_range_meters":24400,"station_id":"ce4bh512rcd13ifvqe2g","pricing_plan_id":"free"},{"bike_id":"6e094542-be52-4863-a77f-69694ca1d258","system_id":"levelo_inurba_marseille","lat":43.29526,"lon":5.39042,"is_reserved":false,"is_disabled":false,"rental_uris":{"android":"levelo://app?vid=6e094542-be52-4863-a77f-69694ca1d258","ios":"levelo://app?vid=6e094542-be52-4863-a77f-69694ca1d258"},"vehicle_type_id":"4","last_reported":1702976850,"current_range_meters":29200,"station_id":"ce4bh3p2rcd13ifvqdp0","pricing_plan_id":"free"},{"bike_id":"cee021f2-bc66-4c85-87f2-49c5ed44b53d","system_id":"levelo_inurba_marseille","lat":43.290094,"lon":5.381264,"is_reserved":false,"is_disabled":false,"rental_uris":{"android":"levelo://app?vid=cee021f2-bc66-4c85-87f2-49c5ed44b53d","ios":"levelo://app?vid=cee021f2-bc66-4c85-87f2-49c5ed44b53d"},"vehicle_type_id":"4","last_reported":1702976850,"current_range_meters":20800,"station_id":"ce4bh4p2rcd13ifvqe1g","pricing_plan_id":"free"},{"bike_id":"fecb420b-1c0e-4a6f-bfbb-50d8d717b877","system_id":"levelo_inurba_marseille","lat":43.28856,"lon":5.358371,"is_reserved":false,"is_disabled":false,"rental_uris":{"android":"levelo://app?vid=fecb420b-1c0e-4a6f-bfbb-50d8d717b877","ios":"levelo://app?vid=fecb420b-1c0e-4a6f-bfbb-50d8d717b877"},"vehicle_type_id":"4","last_reported":1702976850,"current_range_meters":5600,"station_id":"ce4bhb12rcd13ifvqem0","pricing_plan_id":"free"},{"bike_id":"f16a7363-728e-46ee-bfc7-dae640cce21b","system_id":"levelo_inurba_marseille","lat":43.30951,"lon":5.40135,"is_reserved":false,"is_disabled":false,"rental_uris":{"android":"levelo://app?vid=f16a7363-728e-46ee-bfc7-dae640cce21b","ios":"levelo://app?vid=f16a7363-728e-46ee-bfc7-dae640cce21b"},"vehicle_type_id":"4","last_reported":1702976850,"current_range_meters":28400,"station_id":"","pricing_plan_id":"free"},{"bike_id":"c3c3cbbb-aa08-4874-94d9-d40777882ceb","system_id":"levelo_inurba_marseille","lat":43.33766,"lon":5.37422,"is_reserved":false,"is_disabled":false,"rental_uris":{"android":"levelo://app?vid=c3c3cbbb-aa08-4874-94d9-d40777882ceb","ios":"levelo://app?vid=c3c3cbbb-aa08-4874-94d9-d40777882ceb"},"vehicle_type_id":"4","last_reported":1702976850,"current_range_meters":10000,"station_id":"","pricing_plan_id":"free"},{"bike_id":"79e66907-0d78-46a9-b55e-8a479a34682c","system_id":"levelo_inurba_marseille","lat":43.301117,"lon":5.398795,"is_reserved":false,"is_disabled":false,"rental_uris":{"android":"levelo://app?vid=79e66907-0d78-46a9-b55e-8a479a34682c","ios":"levelo://app?vid=79e66907-0d78-46a9-b55e-8a479a34682c"},"vehicle_type_id":"4","last_reported":1702976850,"current_range_meters":17600,"station_id":"ce4bh0h2rcd13ifvqd40","pricing_plan_id":"free"},{"bike_id":"48853714-9f16-4e2c-958b-7282c8c942aa","system_id":"levelo_inurba_marseille","lat":43.301117,"lon":5.398795,"is_reserved":false,"is_disabled":false,"rental_uris":{"android":"levelo://app?vid=48853714-9f16-4e2c-958b-7282c8c942aa","ios":"levelo://app?vid=48853714-9f16-4e2c-958b-7282c8c942aa"},"vehicle_type_id":"4","last_reported":1702976850,"current_range_meters":24400,"station_id":"ce4bh0h2rcd13ifvqd40","pricing_plan_id":"free"},{"bike_id":"a3471cde-b2d0-4c99-a7aa-01e82a978512","system_id":"levelo_inurba_marseille","lat":43.298681,"lon":5.397225,"is_reserved":false,"is_disabled":false,"rental_uris":{"android":"levelo://app?vid=a3471cde-b2d0-4c99-a7aa-01e82a978512","ios":"levelo://app?vid=a3471cde-b2d0-4c99-a7aa-01e82a978512"},"vehicle_type_id":"4","last_reported":1702976850,"current_range_meters":24800,"station_id":"ce4bh0h2rcd13ifvqd50","pricing_plan_id":"free"},{"bike_id":"eedc3f8b-7506-4ef2-bff0-ec6f640b99ea","system_id":"levelo_inurba_marseille","lat":43.286961,"lon":5.373785,"is_reserved":false,"is_disabled":false,"rental_uris":{"android":"levelo://app?vid=eedc3f8b-7506-4ef2-bff0-ec6f640b99ea","ios":"levelo://app?vid=eedc3f8b-7506-4ef2-bff0-ec6f640b99ea"},"vehicle_type_id":"4","last_reported":1702976850,"current_range_meters":18000,"station_id":"ce4bh3p2rcd13ifvqdq0","pricing_plan_id":"free"},{"bike_id":"5b8d6b3c-5ba1-47d8-ad7e-b9eb1fd2cdc4","system_id":"levelo_inurba_marseille","lat":43.286961,"lon":5.373785,"is_reserved":false,"is_disabled":false,"rental_uris":{"android":"levelo://app?vid=5b8d6b3c-5ba1-47d8-ad7e-b9eb1fd2cdc4","ios":"levelo://app?vid=5b8d6b3c-5ba1-47d8-ad7e-b9eb1fd2cdc4"},"vehicle_type_id":"4","last_reported":1702976850,"current_range_meters":25600,"station_id":"ce4bh3p2rcd13ifvqdq0","pricing_plan_id":"free"},{"bike_id":"5ab5a184-1509-43d2-ae2d-8396b8cdc8cc","system_id":"levelo_inurba_marseille","lat":43.289307,"lon":5.38406,"is_reserved":false,"is_disabled":false,"rental_uris":{"android":"levelo://app?vid=5ab5a184-1509-43d2-ae2d-8396b8cdc8cc","ios":"levelo://app?vid=5ab5a184-1509-43d2-ae2d-8396b8cdc8cc"},"vehicle_type_id":"4","last_reported":1702976850,"current_range_meters":25200,"station_id":"ce4bh612rcd13ifvqe6g","pricing_plan_id":"free"},{"bike_id":"7d68eac5-1bca-4a09-bf11-b2dfc85d8675","system_id":"levelo_inurba_marseille","lat":43.29027,"lon":5.38652,"is_reserved":false,"is_disabled":false,"rental_uris":{"android":"levelo://app?vid=7d68eac5-1bca-4a09-bf11-b2dfc85d8675","ios":"levelo://app?vid=7d68eac5-1bca-4a09-bf11-b2dfc85d8675"},"vehicle_type_id":"4","last_reported":1702976850,"current_range_meters":0,"station_id":"","pricing_plan_id":"free"},{"bike_id":"41501bbc-b034-45ad-b316-c32409342290","system_id":"levelo_inurba_marseille","lat":43.286039,"lon":5.370679,"is_reserved":false,"is_disabled":false,"rental_uris":{"android":"levelo://app?vid=41501bbc-b034-45ad-b316-c32409342290","ios":"levelo://app?vid=41501bbc-b034-45ad-b316-c32409342290"},"vehicle_type_id":"4","last_reported":1702976850,"current_range_meters":30400,"station_id":"ce4bht12rcd13ifvqi60","pricing_plan_id":"free"},{"bike_id":"0cfbccd5-9da6-4492-8402-e21c2e0ee4dc","system_id":"levelo_inurba_marseille","lat":43.283998,"lon":5.375062,"is_reserved":false,"is_disabled":false,"rental_uris":{"android":"levelo://app?vid=0cfbccd5-9da6-4492-8402-e21c2e0ee4dc","ios":"levelo://app?vid=0cfbccd5-9da6-4492-8402-e21c2e0ee4dc"},"vehicle_type_id":"4","last_reported":1702976850,"current_range_meters":30400,"station_id":"ce4bh412rcd13ifvqds0","pricing_plan_id":"free"},{"bike_id":"8538e6dd-dbef-4a5a-a119-9a857fd021ad","system_id":"levelo_inurba_marseille","lat":43.33218,"lon":5.397067,"is_reserved":false,"is_disabled":false,"rental_uris":{"android":"levelo://app?vid=8538e6dd-dbef-4a5a-a119-9a857fd021ad","ios":"levelo://app?vid=8538e6dd-dbef-4a5a-a119-9a857fd021ad"},"vehicle_type_id":"4","last_reported":1702976850,"current_range_meters":2000,"station_id":"","pricing_plan_id":"free"},{"bike_id":"563cd68b-70db-4eab-9fea-fca85b6df077","system_id":"levelo_inurba_marseille","lat":43.286595,"lon":5.386795,"is_reserved":false,"is_disabled":false,"rental_uris":{"android":"levelo://app?vid=563cd68b-70db-4eab-9fea-fca85b6df077","ios":"levelo://app?vid=563cd68b-70db-4eab-9fea-fca85b6df077"},"vehicle_type_id":"4","last_reported":1702976850,"current_range_meters":17600,"station_id":"ce4bh492rcd13ifvqdug","pricing_plan_id":"free"},{"bike_id":"6ef61fad-a186-4f16-b238-060b73663567","system_id":"levelo_inurba_marseille","lat":43.323464,"lon":5.406297,"is_reserved":false,"is_disabled":false,"rental_uris":{"android":"levelo://app?vid=6ef61fad-a186-4f16-b238-060b73663567","ios":"levelo://app?vid=6ef61fad-a186-4f16-b238-060b73663567"},"vehicle_type_id":"4","last_reported":1702976850,"current_range_meters":31200,"station_id":"ce4bhq92rcd13ifvqhjg","pricing_plan_id":"free"},{"bike_id":"18e7facd-1023-4c6b-85b7-81049600964e","system_id":"levelo_inurba_marseille","lat":43.323464,"lon":5.406297,"is_reserved":false,"is_disabled":false,"rental_uris":{"android":"levelo://app?vid=18e7facd-1023-4c6b-85b7-81049600964e","ios":"levelo://app?vid=18e7facd-1023-4c6b-85b7-81049600964e"},"vehicle_type_id":"4","last_reported":1702976850,"current_range_meters":31200,"station_id":"ce4bhq92rcd13ifvqhjg","pricing_plan_id":"free"},{"bike_id":"cb8da506-0c61-4efc-a37a-fcf8db806d53","system_id":"levelo_inurba_marseille","lat":43.337168,"lon":5.391825,"is_reserved":false,"is_disabled":false,"rental_uris":{"android":"levelo://app?vid=cb8da506-0c61-4efc-a37a-fcf8db806d53","ios":"levelo://app?vid=cb8da506-0c61-4efc-a37a-fcf8db806d53"},"vehicle_type_id":"4","last_reported":1702976850,"current_range_meters":27600,"station_id":"ce4bhr92rcd13ifvqhsg","pricing_plan_id":"free"},{"bike_id":"4b9d4509-62ec-44e9-9b7c-0bcdfbd4bcb5","system_id":"levelo_inurba_marseille","lat":43.284793,"lon":5.384113,"is_reserved":false,"is_disabled":false,"rental_uris":{"android":"levelo://app?vid=4b9d4509-62ec-44e9-9b7c-0bcdfbd4bcb5","ios":"levelo://app?vid=4b9d4509-62ec-44e9-9b7c-0bcdfbd4bcb5"},"vehicle_type_id":"4","last_reported":1702976850,"current_range_meters":28400,"station_id":"ce4bh512rcd13ifvqe3g","pricing_plan_id":"free"},{"bike_id":"b016f593-e207-4d4b-8a04-f24cb23bf525","system_id":"levelo_inurba_marseille","lat":43.284793,"lon":5.384113,"is_reserved":false,"is_disabled":false,"rental_uris":{"android":"levelo://app?vid=b016f593-e207-4d4b-8a04-f24cb23bf525","ios":"levelo://app?vid=b016f593-e207-4d4b-8a04-f24cb23bf525"},"vehicle_type_id":"4","last_reported":1702976850,"current_range_meters":28400,"station_id":"ce4bh512rcd13ifvqe3g","pricing_plan_id":"free"},{"bike_id":"ee4eb5d8-1f9e-4110-80ff-1c9666dc8343","system_id":"levelo_inurba_marseille","lat":43.284793,"lon":5.384119,"is_reserved":false,"is_disabled":false,"rental_uris":{"android":"levelo://app?vid=ee4eb5d8-1f9e-4110-80ff-1c9666dc8343","ios":"levelo://app?vid=ee4eb5d8-1f9e-4110-80ff-1c9666dc8343"},"vehicle_type_id":"4","last_reported":1702976850,"current_range_meters":22400,"station_id":"ce4bh512rcd13ifvqe3g","pricing_plan_id":"free"},{"bike_id":"836b9d28-e887-4e99-8264-d9906b920159","system_id":"levelo_inurba_marseille","lat":43.284793,"lon":5.384113,"is_reserved":false,"is_disabled":false,"rental_uris":{"android":"levelo://app?vid=836b9d28-e887-4e99-8264-d9906b920159","ios":"levelo://app?vid=836b9d28-e887-4e99-8264-d9906b920159"},"vehicle_type_id":"4","last_reported":1702976850,"current_range_meters":29200,"station_id":"ce4bh512rcd13ifvqe3g","pricing_plan_id":"free"},{"bike_id":"08fd7405-f0ee-4f4f-8a8b-089e1b1c5a25","system_id":"levelo_inurba_marseille","lat":43.284793,"lon":5.384113,"is_reserved":false,"is_disabled":false,"rental_uris":{"android":"levelo://app?vid=08fd7405-f0ee-4f4f-8a8b-089e1b1c5a25","ios":"levelo://app?vid=08fd7405-f0ee-4f4f-8a8b-089e1b1c5a25"},"vehicle_type_id":"4","last_reported":1702976850,"current_range_meters":0,"station_id":"ce4bh512rcd13ifvqe3g","pricing_plan_id":"free"},{"bike_id":"f5332b34-8259-4323-952e-7bd465eb247c","system_id":"levelo_inurba_marseille","lat":43.29795,"lon":5.404086,"is_reserved":false,"is_disabled":false,"rental_uris":{"android":"levelo://app?vid=f5332b34-8259-4323-952e-7bd465eb247c","ios":"levelo://app?vid=f5332b34-8259-4323-952e-7bd465eb247c"},"vehicle_type_id":"4","last_reported":1702976850,"current_range_meters":1600,"station_id":"ce4bh112rcd13ifvqd90","pricing_plan_id":"free"},{"bike_id":"6df29a6e-83f4-43b9-8c4c-8188c73d504c","system_id":"levelo_inurba_marseille","lat":43.283498,"lon":5.380948,"is_reserved":false,"is_disabled":false,"rental_uris":{"android":"levelo://app?vid=6df29a6e-83f4-43b9-8c4c-8188c73d504c","ios":"levelo://app?vid=6df29a6e-83f4-43b9-8c4c-8188c73d504c"},"vehicle_type_id":"4","last_reported":1702976850,"current_range_meters":20400,"station_id":"ce4bh412rcd13ifvqdr0","pricing_plan_id":"free"},{"bike_id":"35e5c977-c3ec-4302-85e4-7f44ba15ca6f","system_id":"levelo_inurba_marseille","lat":43.306412,"lon":5.401035,"is_reserved":false,"is_disabled":false,"rental_uris":{"android":"levelo://app?vid=35e5c977-c3ec-4302-85e4-7f44ba15ca6f","ios":"levelo://app?vid=35e5c977-c3ec-4302-85e4-7f44ba15ca6f"},"vehicle_type_id":"4","last_reported":1702976850,"current_range_meters":23600,"station_id":"ce4bh112rcd13ifvqda0","pricing_plan_id":"free"},{"bike_id":"042a5212-e3eb-4cc4-8927-0aa4e5a51d2d","system_id":"levelo_inurba_marseille","lat":43.289363,"lon":5.396322,"is_reserved":false,"is_disabled":false,"rental_uris":{"android":"levelo://app?vid=042a5212-e3eb-4cc4-8927-0aa4e5a51d2d","ios":"levelo://app?vid=042a5212-e3eb-4cc4-8927-0aa4e5a51d2d"},"vehicle_type_id":"4","last_reported":1702976850,"current_range_meters":16000,"station_id":"ce4bh3h2rcd13ifvqdn0","pricing_plan_id":"free"},{"bike_id":"38655510-f7cf-4172-8f8a-c1979076fb66","system_id":"levelo_inurba_marseille","lat":43.292724,"lon":5.401131,"is_reserved":false,"is_disabled":false,"rental_uris":{"android":"levelo://app?vid=38655510-f7cf-4172-8f8a-c1979076fb66","ios":"levelo://app?vid=38655510-f7cf-4172-8f8a-c1979076fb66"},"vehicle_type_id":"4","last_reported":1702976850,"current_range_meters":21200,"station_id":"ce4bh312rcd13ifvqdk0","pricing_plan_id":"free"},{"bike_id":"1e76f530-84e7-4786-8580-a2ed5595a4ab","system_id":"levelo_inurba_marseille","lat":43.28039,"lon":5.369297,"is_reserved":false,"is_disabled":false,"rental_uris":{"android":"levelo://app?vid=1e76f530-84e7-4786-8580-a2ed5595a4ab","ios":"levelo://app?vid=1e76f530-84e7-4786-8580-a2ed5595a4ab"},"vehicle_type_id":"4","last_reported":1702976850,"current_range_meters":22800,"station_id":"ce4bha12rcd13ifvqef0","pricing_plan_id":"free"},{"bike_id":"17ba3008-de70-4cce-bc61-a8da4bb2b22b","system_id":"levelo_inurba_marseille","lat":43.284462,"lon":5.392121,"is_reserved":false,"is_disabled":false,"rental_uris":{"android":"levelo://app?vid=17ba3008-de70-4cce-bc61-a8da4bb2b22b","ios":"levelo://app?vid=17ba3008-de70-4cce-bc61-a8da4bb2b22b"},"vehicle_type_id":"4","last_reported":1702976850,"current_range_meters":3200,"station_id":"ce4bhoh2rcd13ifvqh5g","pricing_plan_id":"free"},{"bike_id":"d4eb9cec-ba0e-4085-b737-27e4ef7d809d","system_id":"levelo_inurba_marseille","lat":43.320045,"lon":5.415048,"is_reserved":false,"is_disabled":false,"rental_uris":{"android":"levelo://app?vid=d4eb9cec-ba0e-4085-b737-27e4ef7d809d","ios":"levelo://app?vid=d4eb9cec-ba0e-4085-b737-27e4ef7d809d"},"vehicle_type_id":"4","last_reported":1702976850,"current_range_meters":16800,"station_id":"ce4bhq92rcd13ifvqhkg","pricing_plan_id":"free"},{"bike_id":"89508d0f-e74e-43de-9316-936ef4bd1896","system_id":"levelo_inurba_marseille","lat":43.299579,"lon":5.413255,"is_reserved":false,"is_disabled":false,"rental_uris":{"android":"levelo://app?vid=89508d0f-e74e-43de-9316-936ef4bd1896","ios":"levelo://app?vid=89508d0f-e74e-43de-9316-936ef4bd1896"},"vehicle_type_id":"4","last_reported":1702976850,"current_range_meters":31200,"station_id":"ce4bhp12rcd13ifvqh9g","pricing_plan_id":"free"},{"bike_id":"4b51e2f0-9a23-43c9-9325-2808d270ca6d","system_id":"levelo_inurba_marseille","lat":43.279742,"lon":5.38744,"is_reserved":false,"is_disabled":false,"rental_uris":{"android":"levelo://app?vid=4b51e2f0-9a23-43c9-9325-2808d270ca6d","ios":"levelo://app?vid=4b51e2f0-9a23-43c9-9325-2808d270ca6d"},"vehicle_type_id":"4","last_reported":1702976850,"current_range_meters":20400,"station_id":"ce4bhg12rcd13ifvqf80","pricing_plan_id":"free"},{"bike_id":"bdec3685-3e7c-43e5-9a07-26a2ada5ac26","system_id":"levelo_inurba_marseille","lat":43.325233,"lon":5.414318,"is_reserved":false,"is_disabled":false,"rental_uris":{"android":"levelo://app?vid=bdec3685-3e7c-43e5-9a07-26a2ada5ac26","ios":"levelo://app?vid=bdec3685-3e7c-43e5-9a07-26a2ada5ac26"},"vehicle_type_id":"4","last_reported":1702976850,"current_range_meters":17200,"station_id":"ce4bhq12rcd13ifvqhhg","pricing_plan_id":"free"},{"bike_id":"0782afe0-0e9d-4c32-ba17-a19fed66c39e","system_id":"levelo_inurba_marseille","lat":43.325233,"lon":5.414318,"is_reserved":false,"is_disabled":false,"rental_uris":{"android":"levelo://app?vid=0782afe0-0e9d-4c32-ba17-a19fed66c39e","ios":"levelo://app?vid=0782afe0-0e9d-4c32-ba17-a19fed66c39e"},"vehicle_type_id":"4","last_reported":1702976850,"current_range_meters":24800,"station_id":"ce4bhq12rcd13ifvqhhg","pricing_plan_id":"free"},{"bike_id":"ed71d5f9-6cc6-4d00-bea0-c804e97bb284","system_id":"levelo_inurba_marseille","lat":43.325233,"lon":5.414318,"is_reserved":false,"is_disabled":false,"rental_uris":{"android":"levelo://app?vid=ed71d5f9-6cc6-4d00-bea0-c804e97bb284","ios":"levelo://app?vid=ed71d5f9-6cc6-4d00-bea0-c804e97bb284"},"vehicle_type_id":"4","last_reported":1702976850,"current_range_meters":18800,"station_id":"ce4bhq12rcd13ifvqhhg","pricing_plan_id":"free"},{"bike_id":"6e049b7d-9668-4bb3-aeb8-0f15bafba83e","system_id":"levelo_inurba_marseille","lat":43.292569,"lon":5.409107,"is_reserved":false,"is_disabled":false,"rental_uris":{"android":"levelo://app?vid=6e049b7d-9668-4bb3-aeb8-0f15bafba83e","ios":"levelo://app?vid=6e049b7d-9668-4bb3-aeb8-0f15bafba83e"},"vehicle_type_id":"4","last_reported":1702976850,"current_range_meters":24400,"station_id":"ce4bh192rcd13ifvqdc0","pricing_plan_id":"free"},{"bike_id":"032ab50a-e8ed-46eb-a784-ec24434ca4e9","system_id":"levelo_inurba_marseille","lat":43.325233,"lon":5.414318,"is_reserved":false,"is_disabled":false,"rental_uris":{"android":"levelo://app?vid=032ab50a-e8ed-46eb-a784-ec24434ca4e9","ios":"levelo://app?vid=032ab50a-e8ed-46eb-a784-ec24434ca4e9"},"vehicle_type_id":"4","last_reported":1702976850,"current_range_meters":27200,"station_id":"ce4bhq12rcd13ifvqhhg","pricing_plan_id":"free"},{"bike_id":"40686c10-84a4-405a-9cd7-375127e2b02d","system_id":"levelo_inurba_marseille","lat":43.325233,"lon":5.414318,"is_reserved":false,"is_disabled":false,"rental_uris":{"android":"levelo://app?vid=40686c10-84a4-405a-9cd7-375127e2b02d","ios":"levelo://app?vid=40686c10-84a4-405a-9cd7-375127e2b02d"},"vehicle_type_id":"4","last_reported":1702976850,"current_range_meters":24000,"station_id":"ce4bhq12rcd13ifvqhhg","pricing_plan_id":"free"},{"bike_id":"c56ff55c-8635-4931-8b08-4cbc1bcd04da","system_id":"levelo_inurba_marseille","lat":43.325233,"lon":5.414318,"is_reserved":false,"is_disabled":false,"rental_uris":{"android":"levelo://app?vid=c56ff55c-8635-4931-8b08-4cbc1bcd04da","ios":"levelo://app?vid=c56ff55c-8635-4931-8b08-4cbc1bcd04da"},"vehicle_type_id":"4","last_reported":1702976850,"current_range_meters":17600,"station_id":"ce4bhq12rcd13ifvqhhg","pricing_plan_id":"free"},{"bike_id":"b17036d7-f6cc-4478-9cbd-c21adf17ee99","system_id":"levelo_inurba_marseille","lat":43.325243,"lon":5.414326,"is_reserved":false,"is_disabled":false,"rental_uris":{"android":"levelo://app?vid=b17036d7-f6cc-4478-9cbd-c21adf17ee99","ios":"levelo://app?vid=b17036d7-f6cc-4478-9cbd-c21adf17ee99"},"vehicle_type_id":"4","last_reported":1702976850,"current_range_meters":24400,"station_id":"ce4bhq12rcd13ifvqhhg","pricing_plan_id":"free"},{"bike_id":"b73b1dc9-66f1-4f8b-9dc1-65b99e7137a5","system_id":"levelo_inurba_marseille","lat":43.325233,"lon":5.414318,"is_reserved":false,"is_disabled":false,"rental_uris":{"android":"levelo://app?vid=b73b1dc9-66f1-4f8b-9dc1-65b99e7137a5","ios":"levelo://app?vid=b73b1dc9-66f1-4f8b-9dc1-65b99e7137a5"},"vehicle_type_id":"4","last_reported":1702976850,"current_range_meters":31600,"station_id":"ce4bhq12rcd13ifvqhhg","pricing_plan_id":"free"},{"bike_id":"286c371e-c496-4b87-a77b-643f76e6e75d","system_id":"levelo_inurba_marseille","lat":43.280784,"lon":5.396622,"is_reserved":false,"is_disabled":false,"rental_uris":{"android":"levelo://app?vid=286c371e-c496-4b87-a77b-643f76e6e75d","ios":"levelo://app?vid=286c371e-c496-4b87-a77b-643f76e6e75d"},"vehicle_type_id":"4","last_reported":1702976850,"current_range_meters":28400,"station_id":"ce4bho12rcd13ifvqh2g","pricing_plan_id":"free"},{"bike_id":"175508af-eec8-4668-bae1-1bdc4eea0891","system_id":"levelo_inurba_marseille","lat":43.303837,"lon":5.418724,"is_reserved":false,"is_disabled":false,"rental_uris":{"android":"levelo://app?vid=175508af-eec8-4668-bae1-1bdc4eea0891","ios":"levelo://app?vid=175508af-eec8-4668-bae1-1bdc4eea0891"},"vehicle_type_id":"4","last_reported":1702976850,"current_range_meters":6400,"station_id":"ce4bhop2rcd13ifvqh7g","pricing_plan_id":"free"},{"bike_id":"03938582-37be-4145-be06-33b64dc45c66","system_id":"levelo_inurba_marseille","lat":43.275625,"lon":5.384392,"is_reserved":false,"is_disabled":false,"rental_uris":{"android":"levelo://app?vid=03938582-37be-4145-be06-33b64dc45c66","ios":"levelo://app?vid=03938582-37be-4145-be06-33b64dc45c66"},"vehicle_type_id":"4","last_reported":1702976850,"current_range_meters":23600,"station_id":"ce4bhh92rcd13ifvqfi0","pricing_plan_id":"free"},{"bike_id":"ead7d26f-f599-442b-af00-bef9bca986bc","system_id":"levelo_inurba_marseille","lat":43.336074,"lon":5.410356,"is_reserved":false,"is_disabled":false,"rental_uris":{"android":"levelo://app?vid=ead7d26f-f599-442b-af00-bef9bca986bc","ios":"levelo://app?vid=ead7d26f-f599-442b-af00-bef9bca986bc"},"vehicle_type_id":"4","last_reported":1702976850,"current_range_meters":15600,"station_id":"","pricing_plan_id":"free"},{"bike_id":"a4f38d5d-0c88-4084-9267-284c31e90b81","system_id":"levelo_inurba_marseille","lat":43.276769,"lon":5.388787,"is_reserved":false,"is_disabled":false,"rental_uris":{"android":"levelo://app?vid=a4f38d5d-0c88-4084-9267-284c31e90b81","ios":"levelo://app?vid=a4f38d5d-0c88-4084-9267-284c31e90b81"},"vehicle_type_id":"4","last_reported":1702976850,"current_range_meters":12800,"station_id":"ce4bhi12rcd13ifvqfo0","pricing_plan_id":"free"},{"bike_id":"cca1506e-65e8-4a64-88c4-bcd8ea312bca","system_id":"levelo_inurba_marseille","lat":43.336148,"lon":5.410349,"is_reserved":false,"is_disabled":false,"rental_uris":{"android":"levelo://app?vid=cca1506e-65e8-4a64-88c4-bcd8ea312bca","ios":"levelo://app?vid=cca1506e-65e8-4a64-88c4-bcd8ea312bca"},"vehicle_type_id":"4","last_reported":1702976850,"current_range_meters":22400,"station_id":"ce4bhqh2rcd13ifvqhmg","pricing_plan_id":"free"},{"bike_id":"caa47a55-c9dc-4a2e-81f8-11961b89c7ff","system_id":"levelo_inurba_marseille","lat":43.279952,"lon":5.400085,"is_reserved":false,"is_disabled":false,"rental_uris":{"android":"levelo://app?vid=caa47a55-c9dc-4a2e-81f8-11961b89c7ff","ios":"levelo://app?vid=caa47a55-c9dc-4a2e-81f8-11961b89c7ff"},"vehicle_type_id":"4","last_reported":1702976850,"current_range_meters":23200,"station_id":"ce4bho92rcd13ifvqh4g","pricing_plan_id":"free"},{"bike_id":"7d7af902-848c-49ee-93ed-e5f9352444cd","system_id":"levelo_inurba_marseille","lat":43.279952,"lon":5.400085,"is_reserved":false,"is_disabled":false,"rental_uris":{"android":"levelo://app?vid=7d7af902-848c-49ee-93ed-e5f9352444cd","ios":"levelo://app?vid=7d7af902-848c-49ee-93ed-e5f9352444cd"},"vehicle_type_id":"4","last_reported":1702976850,"current_range_meters":26400,"station_id":"ce4bho92rcd13ifvqh4g","pricing_plan_id":"free"},{"bike_id":"e2c24c56-9d8f-46ce-a6c8-1041ef786684","system_id":"levelo_inurba_marseille","lat":43.317121,"lon":5.423936,"is_reserved":false,"is_disabled":false,"rental_uris":{"android":"levelo://app?vid=e2c24c56-9d8f-46ce-a6c8-1041ef786684","ios":"levelo://app?vid=e2c24c56-9d8f-46ce-a6c8-1041ef786684"},"vehicle_type_id":"4","last_reported":1702976850,"current_range_meters":30000,"station_id":"ce4bhp92rcd13ifvqhbg","pricing_plan_id":"free"},{"bike_id":"57a0e10b-8d39-4adb-840e-be68d499fb17","system_id":"levelo_inurba_marseille","lat":43.310785,"lon":5.424305,"is_reserved":false,"is_disabled":false,"rental_uris":{"android":"levelo://app?vid=57a0e10b-8d39-4adb-840e-be68d499fb17","ios":"levelo://app?vid=57a0e10b-8d39-4adb-840e-be68d499fb17"},"vehicle_type_id":"4","last_reported":1702976850,"current_range_meters":13600,"station_id":"ce4bhp92rcd13ifvqhag","pricing_plan_id":"free"},{"bike_id":"98897705-e379-456b-8e8d-859b88963fa2","system_id":"levelo_inurba_marseille","lat":43.340804,"lon":5.410219,"is_reserved":false,"is_disabled":false,"rental_uris":{"android":"levelo://app?vid=98897705-e379-456b-8e8d-859b88963fa2","ios":"levelo://app?vid=98897705-e379-456b-8e8d-859b88963fa2"},"vehicle_type_id":"4","last_reported":1702976850,"current_range_meters":4000,"station_id":"ce4bhqh2rcd13ifvqhlg","pricing_plan_id":"free"},{"bike_id":"974dc7db-ff3c-4554-8964-132f9db52d9b","system_id":"levelo_inurba_marseille","lat":43.276092,"lon":5.395289,"is_reserved":false,"is_disabled":false,"rental_uris":{"android":"levelo://app?vid=974dc7db-ff3c-4554-8964-132f9db52d9b","ios":"levelo://app?vid=974dc7db-ff3c-4554-8964-132f9db52d9b"},"vehicle_type_id":"4","last_reported":1702976850,"current_range_meters":8000,"station_id":"","pricing_plan_id":"free"},{"bike_id":"e5b7a2d9-fc55-4322-8994-c8d343151691","system_id":"levelo_inurba_marseille","lat":43.273125,"lon":5.390731,"is_reserved":false,"is_disabled":false,"rental_uris":{"android":"levelo://app?vid=e5b7a2d9-fc55-4322-8994-c8d343151691","ios":"levelo://app?vid=e5b7a2d9-fc55-4322-8994-c8d343151691"},"vehicle_type_id":"4","last_reported":1702976850,"current_range_meters":28400,"station_id":"ce4bhgp2rcd13ifvqfe0","pricing_plan_id":"free"},{"bike_id":"9151ee39-97b2-470f-a9e5-2bb2d293eb8a","system_id":"levelo_inurba_marseille","lat":43.273125,"lon":5.390731,"is_reserved":false,"is_disabled":false,"rental_uris":{"android":"levelo://app?vid=9151ee39-97b2-470f-a9e5-2bb2d293eb8a","ios":"levelo://app?vid=9151ee39-97b2-470f-a9e5-2bb2d293eb8a"},"vehicle_type_id":"4","last_reported":1702976850,"current_range_meters":24800,"station_id":"ce4bhgp2rcd13ifvqfe0","pricing_plan_id":"free"},{"bike_id":"2755fe9a-bc69-4c41-9efe-2a4360021a1d","system_id":"levelo_inurba_marseille","lat":43.273125,"lon":5.390731,"is_reserved":false,"is_disabled":false,"rental_uris":{"android":"levelo://app?vid=2755fe9a-bc69-4c41-9efe-2a4360021a1d","ios":"levelo://app?vid=2755fe9a-bc69-4c41-9efe-2a4360021a1d"},"vehicle_type_id":"4","last_reported":1702976850,"current_range_meters":13600,"station_id":"ce4bhgp2rcd13ifvqfe0","pricing_plan_id":"free"},{"bike_id":"c2d01cf4-416b-479a-8195-73cfbf290ea6","system_id":"levelo_inurba_marseille","lat":43.304096,"lon":5.425385,"is_reserved":false,"is_disabled":false,"rental_uris":{"android":"levelo://app?vid=c2d01cf4-416b-479a-8195-73cfbf290ea6","ios":"levelo://app?vid=c2d01cf4-416b-479a-8195-73cfbf290ea6"},"vehicle_type_id":"4","last_reported":1702976850,"current_range_meters":30400,"station_id":"ce4bhoh2rcd13ifvqh6g","pricing_plan_id":"free"},{"bike_id":"bbc1dded-28d0-40d2-98b9-c718a84b2b55","system_id":"levelo_inurba_marseille","lat":43.304096,"lon":5.425385,"is_reserved":false,"is_disabled":false,"rental_uris":{"android":"levelo://app?vid=bbc1dded-28d0-40d2-98b9-c718a84b2b55","ios":"levelo://app?vid=bbc1dded-28d0-40d2-98b9-c718a84b2b55"},"vehicle_type_id":"4","last_reported":1702976850,"current_range_meters":18000,"station_id":"ce4bhoh2rcd13ifvqh6g","pricing_plan_id":"free"},{"bike_id":"5259d34a-d8f2-47e1-9b2f-e2f2c6ed23b7","system_id":"levelo_inurba_marseille","lat":43.30416,"lon":5.42545,"is_reserved":false,"is_disabled":false,"rental_uris":{"android":"levelo://app?vid=5259d34a-d8f2-47e1-9b2f-e2f2c6ed23b7","ios":"levelo://app?vid=5259d34a-d8f2-47e1-9b2f-e2f2c6ed23b7"},"vehicle_type_id":"4","last_reported":1702976850,"current_range_meters":27200,"station_id":"ce4bhoh2rcd13ifvqh6g","pricing_plan_id":"free"},{"bike_id":"3cfccba8-f3c6-422f-bec0-1d7a4825ad24","system_id":"levelo_inurba_marseille","lat":43.304096,"lon":5.425385,"is_reserved":false,"is_disabled":false,"rental_uris":{"android":"levelo://app?vid=3cfccba8-f3c6-422f-bec0-1d7a4825ad24","ios":"levelo://app?vid=3cfccba8-f3c6-422f-bec0-1d7a4825ad24"},"vehicle_type_id":"4","last_reported":1702976850,"current_range_meters":30400,"station_id":"ce4bhoh2rcd13ifvqh6g","pricing_plan_id":"free"},{"bike_id":"b39b2c6a-d523-479b-be2d-3409c3d2b582","system_id":"levelo_inurba_marseille","lat":43.279465,"lon":5.410561,"is_reserved":false,"is_disabled":false,"rental_uris":{"android":"levelo://app?vid=b39b2c6a-d523-479b-be2d-3409c3d2b582","ios":"levelo://app?vid=b39b2c6a-d523-479b-be2d-3409c3d2b582"},"vehicle_type_id":"4","last_reported":1702976850,"current_range_meters":20000,"station_id":"ce4bhnp2rcd13ifvqh0g","pricing_plan_id":"free"},{"bike_id":"f0d927f9-4d81-4a61-9e75-257d4a0281cb","system_id":"levelo_inurba_marseille","lat":43.29552,"lon":5.42277,"is_reserved":false,"is_disabled":false,"rental_uris":{"android":"levelo://app?vid=f0d927f9-4d81-4a61-9e75-257d4a0281cb","ios":"levelo://app?vid=f0d927f9-4d81-4a61-9e75-257d4a0281cb"},"vehicle_type_id":"4","last_reported":1702976850,"current_range_meters":24000,"station_id":"ce4bhph2rcd13ifvqhdg","pricing_plan_id":"free"},{"bike_id":"04abe4ce-c306-49a3-9b90-d0dedcef4fb2","system_id":"levelo_inurba_marseille","lat":43.295511,"lon":5.422926,"is_reserved":false,"is_disabled":false,"rental_uris":{"android":"levelo://app?vid=04abe4ce-c306-49a3-9b90-d0dedcef4fb2","ios":"levelo://app?vid=04abe4ce-c306-49a3-9b90-d0dedcef4fb2"},"vehicle_type_id":"4","last_reported":1702976850,"current_range_meters":31200,"station_id":"ce4bhph2rcd13ifvqhdg","pricing_plan_id":"free"},{"bike_id":"ca314493-3848-477b-95b3-e1722a7aef04","system_id":"levelo_inurba_marseille","lat":43.295181,"lon":5.422631,"is_reserved":false,"is_disabled":false,"rental_uris":{"android":"levelo://app?vid=ca314493-3848-477b-95b3-e1722a7aef04","ios":"levelo://app?vid=ca314493-3848-477b-95b3-e1722a7aef04"},"vehicle_type_id":"4","last_reported":1702976850,"current_range_meters":16800,"station_id":"ce4bhph2rcd13ifvqhdg","pricing_plan_id":"free"},{"bike_id":"1aaeade2-16f7-4c2d-b598-dfecd6c04985","system_id":"levelo_inurba_marseille","lat":43.29552,"lon":5.42288,"is_reserved":false,"is_disabled":false,"rental_uris":{"android":"levelo://app?vid=1aaeade2-16f7-4c2d-b598-dfecd6c04985","ios":"levelo://app?vid=1aaeade2-16f7-4c2d-b598-dfecd6c04985"},"vehicle_type_id":"4","last_reported":1702976850,"current_range_meters":20000,"station_id":"ce4bhph2rcd13ifvqhdg","pricing_plan_id":"free"},{"bike_id":"b52ed3b8-5e6b-469c-9a28-752d38c3f626","system_id":"levelo_inurba_marseille","lat":43.295523,"lon":5.422926,"is_reserved":false,"is_disabled":false,"rental_uris":{"android":"levelo://app?vid=b52ed3b8-5e6b-469c-9a28-752d38c3f626","ios":"levelo://app?vid=b52ed3b8-5e6b-469c-9a28-752d38c3f626"},"vehicle_type_id":"4","last_reported":1702976850,"current_range_meters":26800,"station_id":"ce4bhph2rcd13ifvqhdg","pricing_plan_id":"free"},{"bike_id":"8134bdea-97d9-45ed-a62e-7aa6b1295011","system_id":"levelo_inurba_marseille","lat":43.27188,"lon":5.39224,"is_reserved":false,"is_disabled":false,"rental_uris":{"android":"levelo://app?vid=8134bdea-97d9-45ed-a62e-7aa6b1295011","ios":"levelo://app?vid=8134bdea-97d9-45ed-a62e-7aa6b1295011"},"vehicle_type_id":"4","last_reported":1702976850,"current_range_meters":10800,"station_id":"ce4bhhp2rcd13ifvqfm0","pricing_plan_id":"free"},{"bike_id":"9516b638-b510-4b7a-900d-e7b8c20d2532","system_id":"levelo_inurba_marseille","lat":43.269467,"lon":5.386439,"is_reserved":false,"is_disabled":false,"rental_uris":{"android":"levelo://app?vid=9516b638-b510-4b7a-900d-e7b8c20d2532","ios":"levelo://app?vid=9516b638-b510-4b7a-900d-e7b8c20d2532"},"vehicle_type_id":"4","last_reported":1702976850,"current_range_meters":30000,"station_id":"ce4bhh92rcd13ifvqfh0","pricing_plan_id":"free"},{"bike_id":"a8246e0b-77ae-4381-b0b4-6f31eced4fb3","system_id":"levelo_inurba_marseille","lat":43.269467,"lon":5.386439,"is_reserved":false,"is_disabled":false,"rental_uris":{"android":"levelo://app?vid=a8246e0b-77ae-4381-b0b4-6f31eced4fb3","ios":"levelo://app?vid=a8246e0b-77ae-4381-b0b4-6f31eced4fb3"},"vehicle_type_id":"4","last_reported":1702976850,"current_range_meters":26000,"station_id":"ce4bhh92rcd13ifvqfh0","pricing_plan_id":"free"},{"bike_id":"0ab9359b-4a84-4f5e-877e-67d4583fcec1","system_id":"levelo_inurba_marseille","lat":43.269467,"lon":5.386439,"is_reserved":false,"is_disabled":false,"rental_uris":{"android":"levelo://app?vid=0ab9359b-4a84-4f5e-877e-67d4583fcec1","ios":"levelo://app?vid=0ab9359b-4a84-4f5e-877e-67d4583fcec1"},"vehicle_type_id":"4","last_reported":1702976850,"current_range_meters":29600,"station_id":"ce4bhh92rcd13ifvqfh0","pricing_plan_id":"free"},{"bike_id":"af34b4d7-2562-4121-b9bd-f6791bf377fc","system_id":"levelo_inurba_marseille","lat":43.26955,"lon":5.3863,"is_reserved":false,"is_disabled":false,"rental_uris":{"android":"levelo://app?vid=af34b4d7-2562-4121-b9bd-f6791bf377fc","ios":"levelo://app?vid=af34b4d7-2562-4121-b9bd-f6791bf377fc"},"vehicle_type_id":"4","last_reported":1702976850,"current_range_meters":20000,"station_id":"ce4bhh92rcd13ifvqfh0","pricing_plan_id":"free"},{"bike_id":"633aacc7-068b-4bd9-9a72-c0992b8660c5","system_id":"levelo_inurba_marseille","lat":43.269467,"lon":5.386439,"is_reserved":false,"is_disabled":false,"rental_uris":{"android":"levelo://app?vid=633aacc7-068b-4bd9-9a72-c0992b8660c5","ios":"levelo://app?vid=633aacc7-068b-4bd9-9a72-c0992b8660c5"},"vehicle_type_id":"4","last_reported":1702976850,"current_range_meters":27600,"station_id":"ce4bhh92rcd13ifvqfh0","pricing_plan_id":"free"},{"bike_id":"0d795cad-1242-4055-a53a-3a16b53415a7","system_id":"levelo_inurba_marseille","lat":43.26952,"lon":5.38623,"is_reserved":false,"is_disabled":false,"rental_uris":{"android":"levelo://app?vid=0d795cad-1242-4055-a53a-3a16b53415a7","ios":"levelo://app?vid=0d795cad-1242-4055-a53a-3a16b53415a7"},"vehicle_type_id":"4","last_reported":1702976850,"current_range_meters":0,"station_id":"ce4bhh92rcd13ifvqfh0","pricing_plan_id":"free"},{"bike_id":"04bf6c66-6dad-4f89-9fa2-45cc729a40df","system_id":"levelo_inurba_marseille","lat":43.269467,"lon":5.386439,"is_reserved":false,"is_disabled":false,"rental_uris":{"android":"levelo://app?vid=04bf6c66-6dad-4f89-9fa2-45cc729a40df","ios":"levelo://app?vid=04bf6c66-6dad-4f89-9fa2-45cc729a40df"},"vehicle_type_id":"4","last_reported":1702976850,"current_range_meters":30800,"station_id":"ce4bhh92rcd13ifvqfh0","pricing_plan_id":"free"},{"bike_id":"c6eab633-e206-40c8-9187-9ea22d3ad7a9","system_id":"levelo_inurba_marseille","lat":43.269319,"lon":5.389397,"is_reserved":false,"is_disabled":false,"rental_uris":{"android":"levelo://app?vid=c6eab633-e206-40c8-9187-9ea22d3ad7a9","ios":"levelo://app?vid=c6eab633-e206-40c8-9187-9ea22d3ad7a9"},"vehicle_type_id":"4","last_reported":1702976850,"current_range_meters":15200,"station_id":"ce4bhhh2rcd13ifvqfl0","pricing_plan_id":"free"},{"bike_id":"978b7d74-a254-4b15-b161-6f739bcc0e22","system_id":"levelo_inurba_marseille","lat":43.269319,"lon":5.389397,"is_reserved":false,"is_disabled":false,"rental_uris":{"android":"levelo://app?vid=978b7d74-a254-4b15-b161-6f739bcc0e22","ios":"levelo://app?vid=978b7d74-a254-4b15-b161-6f739bcc0e22"},"vehicle_type_id":"4","last_reported":1702976850,"current_range_meters":25200,"station_id":"ce4bhhh2rcd13ifvqfl0","pricing_plan_id":"free"},{"bike_id":"53d37eec-24f8-4192-a229-9f60791c182d","system_id":"levelo_inurba_marseille","lat":43.269273,"lon":5.389057,"is_reserved":false,"is_disabled":false,"rental_uris":{"android":"levelo://app?vid=53d37eec-24f8-4192-a229-9f60791c182d","ios":"levelo://app?vid=53d37eec-24f8-4192-a229-9f60791c182d"},"vehicle_type_id":"4","last_reported":1702976850,"current_range_meters":17200,"station_id":"ce4bhhh2rcd13ifvqfl0","pricing_plan_id":"free"},{"bike_id":"ea1e624c-1c65-4876-907b-dfab7dc64823","system_id":"levelo_inurba_marseille","lat":43.26681,"lon":5.382694,"is_reserved":false,"is_disabled":false,"rental_uris":{"android":"levelo://app?vid=ea1e624c-1c65-4876-907b-dfab7dc64823","ios":"levelo://app?vid=ea1e624c-1c65-4876-907b-dfab7dc64823"},"vehicle_type_id":"4","last_reported":1702976850,"current_range_meters":17200,"station_id":"ce4bhg92rcd13ifvqf90","pricing_plan_id":"free"},{"bike_id":"a30270aa-6149-4043-bdb5-78431470d13d","system_id":"levelo_inurba_marseille","lat":43.26681,"lon":5.382694,"is_reserved":false,"is_disabled":false,"rental_uris":{"android":"levelo://app?vid=a30270aa-6149-4043-bdb5-78431470d13d","ios":"levelo://app?vid=a30270aa-6149-4043-bdb5-78431470d13d"},"vehicle_type_id":"4","last_reported":1702976850,"current_range_meters":19600,"station_id":"ce4bhg92rcd13ifvqf90","pricing_plan_id":"free"},{"bike_id":"02b1d3f0-c498-44d6-93a0-0a038898d815","system_id":"levelo_inurba_marseille","lat":43.26681,"lon":5.382694,"is_reserved":false,"is_disabled":false,"rental_uris":{"android":"levelo://app?vid=02b1d3f0-c498-44d6-93a0-0a038898d815","ios":"levelo://app?vid=02b1d3f0-c498-44d6-93a0-0a038898d815"},"vehicle_type_id":"4","last_reported":1702976850,"current_range_meters":31200,"station_id":"ce4bhg92rcd13ifvqf90","pricing_plan_id":"free"},{"bike_id":"414560b1-f0ba-4575-8cb2-76f272e8ab22","system_id":"levelo_inurba_marseille","lat":43.26681,"lon":5.382694,"is_reserved":false,"is_disabled":false,"rental_uris":{"android":"levelo://app?vid=414560b1-f0ba-4575-8cb2-76f272e8ab22","ios":"levelo://app?vid=414560b1-f0ba-4575-8cb2-76f272e8ab22"},"vehicle_type_id":"4","last_reported":1702976850,"current_range_meters":23200,"station_id":"ce4bhg92rcd13ifvqf90","pricing_plan_id":"free"},{"bike_id":"4332ea30-0649-4a88-a8f9-46d7928b6f43","system_id":"levelo_inurba_marseille","lat":43.26681,"lon":5.382694,"is_reserved":false,"is_disabled":false,"rental_uris":{"android":"levelo://app?vid=4332ea30-0649-4a88-a8f9-46d7928b6f43","ios":"levelo://app?vid=4332ea30-0649-4a88-a8f9-46d7928b6f43"},"vehicle_type_id":"4","last_reported":1702976850,"current_range_meters":31200,"station_id":"ce4bhg92rcd13ifvqf90","pricing_plan_id":"free"},{"bike_id":"06b7b265-d935-43f7-a456-7363db57abf8","system_id":"levelo_inurba_marseille","lat":43.26681,"lon":5.382694,"is_reserved":false,"is_disabled":false,"rental_uris":{"android":"levelo://app?vid=06b7b265-d935-43f7-a456-7363db57abf8","ios":"levelo://app?vid=06b7b265-d935-43f7-a456-7363db57abf8"},"vehicle_type_id":"4","last_reported":1702976850,"current_range_meters":22800,"station_id":"ce4bhg92rcd13ifvqf90","pricing_plan_id":"free"},{"bike_id":"81bcf634-dc0c-4104-980b-2d893f59e14a","system_id":"levelo_inurba_marseille","lat":43.26681,"lon":5.382694,"is_reserved":false,"is_disabled":false,"rental_uris":{"android":"levelo://app?vid=81bcf634-dc0c-4104-980b-2d893f59e14a","ios":"levelo://app?vid=81bcf634-dc0c-4104-980b-2d893f59e14a"},"vehicle_type_id":"4","last_reported":1702976850,"current_range_meters":22800,"station_id":"ce4bhg92rcd13ifvqf90","pricing_plan_id":"free"},{"bike_id":"b2b1f3ac-cb36-4abf-b35b-81035c4fb25d","system_id":"levelo_inurba_marseille","lat":43.265714,"lon":5.372891,"is_reserved":false,"is_disabled":false,"rental_uris":{"android":"levelo://app?vid=b2b1f3ac-cb36-4abf-b35b-81035c4fb25d","ios":"levelo://app?vid=b2b1f3ac-cb36-4abf-b35b-81035c4fb25d"},"vehicle_type_id":"4","last_reported":1702976850,"current_range_meters":23600,"station_id":"ce4bhg12rcd13ifvqf70","pricing_plan_id":"free"},{"bike_id":"d040d53f-bf65-407f-9276-ca3609a61713","system_id":"levelo_inurba_marseille","lat":43.26681,"lon":5.382694,"is_reserved":false,"is_disabled":false,"rental_uris":{"android":"levelo://app?vid=d040d53f-bf65-407f-9276-ca3609a61713","ios":"levelo://app?vid=d040d53f-bf65-407f-9276-ca3609a61713"},"vehicle_type_id":"4","last_reported":1702976850,"current_range_meters":31200,"station_id":"ce4bhg92rcd13ifvqf90","pricing_plan_id":"free"},{"bike_id":"ac8d2520-91cc-4adc-97cd-0b51dabb02dc","system_id":"levelo_inurba_marseille","lat":43.265714,"lon":5.372891,"is_reserved":false,"is_disabled":false,"rental_uris":{"android":"levelo://app?vid=ac8d2520-91cc-4adc-97cd-0b51dabb02dc","ios":"levelo://app?vid=ac8d2520-91cc-4adc-97cd-0b51dabb02dc"},"vehicle_type_id":"4","last_reported":1702976850,"current_range_meters":16800,"station_id":"ce4bhg12rcd13ifvqf70","pricing_plan_id":"free"},{"bike_id":"982a2668-8eed-4af6-8bde-2c353c40ba51","system_id":"levelo_inurba_marseille","lat":43.265571,"lon":5.390032,"is_reserved":false,"is_disabled":false,"rental_uris":{"android":"levelo://app?vid=982a2668-8eed-4af6-8bde-2c353c40ba51","ios":"levelo://app?vid=982a2668-8eed-4af6-8bde-2c353c40ba51"},"vehicle_type_id":"4","last_reported":1702976850,"current_range_meters":20000,"station_id":"ce4bhe12rcd13ifvqf30","pricing_plan_id":"free"},{"bike_id":"d81d979c-3ff2-4af2-b73f-384a6a63b028","system_id":"levelo_inurba_marseille","lat":43.265571,"lon":5.390032,"is_reserved":false,"is_disabled":false,"rental_uris":{"android":"levelo://app?vid=d81d979c-3ff2-4af2-b73f-384a6a63b028","ios":"levelo://app?vid=d81d979c-3ff2-4af2-b73f-384a6a63b028"},"vehicle_type_id":"4","last_reported":1702976850,"current_range_meters":9600,"station_id":"ce4bhe12rcd13ifvqf30","pricing_plan_id":"free"},{"bike_id":"0f41d3f0-f862-4474-86e3-f64b37b364dc","system_id":"levelo_inurba_marseille","lat":43.265569,"lon":5.390047,"is_reserved":false,"is_disabled":false,"rental_uris":{"android":"levelo://app?vid=0f41d3f0-f862-4474-86e3-f64b37b364dc","ios":"levelo://app?vid=0f41d3f0-f862-4474-86e3-f64b37b364dc"},"vehicle_type_id":"4","last_reported":1702976850,"current_range_meters":16400,"station_id":"ce4bhe12rcd13ifvqf30","pricing_plan_id":"free"},{"bike_id":"7374ef88-6f05-482f-89c0-c8bd213ca304","system_id":"levelo_inurba_marseille","lat":43.26193,"lon":5.3744,"is_reserved":false,"is_disabled":false,"rental_uris":{"android":"levelo://app?vid=7374ef88-6f05-482f-89c0-c8bd213ca304","ios":"levelo://app?vid=7374ef88-6f05-482f-89c0-c8bd213ca304"},"vehicle_type_id":"4","last_reported":1702976850,"current_range_meters":30400,"station_id":"ce4bhgp2rcd13ifvqfc0","pricing_plan_id":"free"},{"bike_id":"7ff8ad28-d7f6-45d2-8bef-ef8e4f332996","system_id":"levelo_inurba_marseille","lat":43.261782,"lon":5.374515,"is_reserved":false,"is_disabled":false,"rental_uris":{"android":"levelo://app?vid=7ff8ad28-d7f6-45d2-8bef-ef8e4f332996","ios":"levelo://app?vid=7ff8ad28-d7f6-45d2-8bef-ef8e4f332996"},"vehicle_type_id":"4","last_reported":1702976850,"current_range_meters":14800,"station_id":"ce4bhgp2rcd13ifvqfc0","pricing_plan_id":"free"},{"bike_id":"067df923-1955-42a0-8ba4-79c36454123d","system_id":"levelo_inurba_marseille","lat":43.261782,"lon":5.374515,"is_reserved":false,"is_disabled":false,"rental_uris":{"android":"levelo://app?vid=067df923-1955-42a0-8ba4-79c36454123d","ios":"levelo://app?vid=067df923-1955-42a0-8ba4-79c36454123d"},"vehicle_type_id":"4","last_reported":1702976850,"current_range_meters":23200,"station_id":"ce4bhgp2rcd13ifvqfc0","pricing_plan_id":"free"},{"bike_id":"03005a26-e14a-4f11-96f1-489357628a6a","system_id":"levelo_inurba_marseille","lat":43.261782,"lon":5.374515,"is_reserved":false,"is_disabled":false,"rental_uris":{"android":"levelo://app?vid=03005a26-e14a-4f11-96f1-489357628a6a","ios":"levelo://app?vid=03005a26-e14a-4f11-96f1-489357628a6a"},"vehicle_type_id":"4","last_reported":1702976850,"current_range_meters":19600,"station_id":"ce4bhgp2rcd13ifvqfc0","pricing_plan_id":"free"},{"bike_id":"80910aa8-0b36-46c5-b32e-6fd4fcf175d5","system_id":"levelo_inurba_marseille","lat":43.261782,"lon":5.374515,"is_reserved":false,"is_disabled":false,"rental_uris":{"android":"levelo://app?vid=80910aa8-0b36-46c5-b32e-6fd4fcf175d5","ios":"levelo://app?vid=80910aa8-0b36-46c5-b32e-6fd4fcf175d5"},"vehicle_type_id":"4","last_reported":1702976850,"current_range_meters":31200,"station_id":"ce4bhgp2rcd13ifvqfc0","pricing_plan_id":"free"},{"bike_id":"fe7fbba6-f7b0-46f1-badd-9c6008265dd2","system_id":"levelo_inurba_marseille","lat":43.271388,"lon":5.409269,"is_reserved":false,"is_disabled":false,"rental_uris":{"android":"levelo://app?vid=fe7fbba6-f7b0-46f1-badd-9c6008265dd2","ios":"levelo://app?vid=fe7fbba6-f7b0-46f1-badd-9c6008265dd2"},"vehicle_type_id":"4","last_reported":1702976850,"current_range_meters":27600,"station_id":"ce4bhl12rcd13ifvqgf0","pricing_plan_id":"free"},{"bike_id":"d9946238-8a56-44ae-a6b0-689cec9fb42b","system_id":"levelo_inurba_marseille","lat":43.271368,"lon":5.40928,"is_reserved":false,"is_disabled":false,"rental_uris":{"android":"levelo://app?vid=d9946238-8a56-44ae-a6b0-689cec9fb42b","ios":"levelo://app?vid=d9946238-8a56-44ae-a6b0-689cec9fb42b"},"vehicle_type_id":"4","last_reported":1702976850,"current_range_meters":31200,"station_id":"ce4bhl12rcd13ifvqgf0","pricing_plan_id":"free"},{"bike_id":"af773fba-0514-4085-aaa6-9a24022684ec","system_id":"levelo_inurba_marseille","lat":43.271388,"lon":5.409269,"is_reserved":false,"is_disabled":false,"rental_uris":{"android":"levelo://app?vid=af773fba-0514-4085-aaa6-9a24022684ec","ios":"levelo://app?vid=af773fba-0514-4085-aaa6-9a24022684ec"},"vehicle_type_id":"4","last_reported":1702976850,"current_range_meters":31200,"station_id":"ce4bhl12rcd13ifvqgf0","pricing_plan_id":"free"},{"bike_id":"22b00ea4-0b90-4a61-b231-9bab5814359f","system_id":"levelo_inurba_marseille","lat":43.26496,"lon":5.39537,"is_reserved":false,"is_disabled":false,"rental_uris":{"android":"levelo://app?vid=22b00ea4-0b90-4a61-b231-9bab5814359f","ios":"levelo://app?vid=22b00ea4-0b90-4a61-b231-9bab5814359f"},"vehicle_type_id":"4","last_reported":1702976850,"current_range_meters":400,"station_id":"","pricing_plan_id":"free"},{"bike_id":"2177bc73-907b-4508-94ac-ac23516a52e3","system_id":"levelo_inurba_marseille","lat":43.298768,"lon":5.43643,"is_reserved":false,"is_disabled":false,"rental_uris":{"android":"levelo://app?vid=2177bc73-907b-4508-94ac-ac23516a52e3","ios":"levelo://app?vid=2177bc73-907b-4508-94ac-ac23516a52e3"},"vehicle_type_id":"4","last_reported":1702976850,"current_range_meters":22800,"station_id":"ce4bhpp2rcd13ifvqhfg","pricing_plan_id":"free"},{"bike_id":"3f1f1e7d-4ff2-49fd-85bf-4cb4257e3933","system_id":"levelo_inurba_marseille","lat":43.298768,"lon":5.43643,"is_reserved":false,"is_disabled":false,"rental_uris":{"android":"levelo://app?vid=3f1f1e7d-4ff2-49fd-85bf-4cb4257e3933","ios":"levelo://app?vid=3f1f1e7d-4ff2-49fd-85bf-4cb4257e3933"},"vehicle_type_id":"4","last_reported":1702976850,"current_range_meters":31200,"station_id":"ce4bhpp2rcd13ifvqhfg","pricing_plan_id":"free"},{"bike_id":"b328f603-749e-41e5-80d8-8c652f40eb62","system_id":"levelo_inurba_marseille","lat":43.298768,"lon":5.43643,"is_reserved":false,"is_disabled":false,"rental_uris":{"android":"levelo://app?vid=b328f603-749e-41e5-80d8-8c652f40eb62","ios":"levelo://app?vid=b328f603-749e-41e5-80d8-8c652f40eb62"},"vehicle_type_id":"4","last_reported":1702976850,"current_range_meters":28800,"station_id":"ce4bhpp2rcd13ifvqhfg","pricing_plan_id":"free"},{"bike_id":"3061b944-e364-4bd4-9165-05958e1477c1","system_id":"levelo_inurba_marseille","lat":43.260219,"lon":5.37546,"is_reserved":false,"is_disabled":false,"rental_uris":{"android":"levelo://app?vid=3061b944-e364-4bd4-9165-05958e1477c1","ios":"levelo://app?vid=3061b944-e364-4bd4-9165-05958e1477c1"},"vehicle_type_id":"4","last_reported":1702976850,"current_range_meters":24800,"station_id":"ce4bhgh2rcd13ifvqfa0","pricing_plan_id":"free"},{"bike_id":"01d52fe5-e724-4d3f-8d25-930773ddd944","system_id":"levelo_inurba_marseille","lat":43.281548,"lon":5.42643,"is_reserved":false,"is_disabled":false,"rental_uris":{"android":"levelo://app?vid=01d52fe5-e724-4d3f-8d25-930773ddd944","ios":"levelo://app?vid=01d52fe5-e724-4d3f-8d25-930773ddd944"},"vehicle_type_id":"4","last_reported":1702976850,"current_range_meters":13600,"station_id":"ce4bhnh2rcd13ifvqgug","pricing_plan_id":"free"},{"bike_id":"c00dbaf6-4899-44dd-8769-6733f45bbde4","system_id":"levelo_inurba_marseille","lat":43.2606,"lon":5.39393,"is_reserved":false,"is_disabled":false,"rental_uris":{"android":"levelo://app?vid=c00dbaf6-4899-44dd-8769-6733f45bbde4","ios":"levelo://app?vid=c00dbaf6-4899-44dd-8769-6733f45bbde4"},"vehicle_type_id":"4","last_reported":1702976850,"current_range_meters":18400,"station_id":"ce4bhh92rcd13ifvqfj0","pricing_plan_id":"free"},{"bike_id":"f17e4890-ea95-4741-8982-be112139a49e","system_id":"levelo_inurba_marseille","lat":43.2607,"lon":5.393983,"is_reserved":false,"is_disabled":false,"rental_uris":{"android":"levelo://app?vid=f17e4890-ea95-4741-8982-be112139a49e","ios":"levelo://app?vid=f17e4890-ea95-4741-8982-be112139a49e"},"vehicle_type_id":"4","last_reported":1702976850,"current_range_meters":26800,"station_id":"ce4bhh92rcd13ifvqfj0","pricing_plan_id":"free"},{"bike_id":"f27de55b-24dc-49f6-a978-077789efb37d","system_id":"levelo_inurba_marseille","lat":43.275027,"lon":5.424467,"is_reserved":false,"is_disabled":false,"rental_uris":{"android":"levelo://app?vid=f27de55b-24dc-49f6-a978-077789efb37d","ios":"levelo://app?vid=f27de55b-24dc-49f6-a978-077789efb37d"},"vehicle_type_id":"4","last_reported":1702976850,"current_range_meters":28400,"station_id":"ce4bhn92rcd13ifvqgrg","pricing_plan_id":"free"},{"bike_id":"af809f71-baf7-433c-aa94-c56af5637932","system_id":"levelo_inurba_marseille","lat":43.275028,"lon":5.424534,"is_reserved":false,"is_disabled":false,"rental_uris":{"android":"levelo://app?vid=af809f71-baf7-433c-aa94-c56af5637932","ios":"levelo://app?vid=af809f71-baf7-433c-aa94-c56af5637932"},"vehicle_type_id":"4","last_reported":1702976850,"current_range_meters":16800,"station_id":"ce4bhn92rcd13ifvqgrg","pricing_plan_id":"free"},{"bike_id":"c0304c10-42b7-4fa4-b6c8-caae3b7a8e3e","system_id":"levelo_inurba_marseille","lat":43.275028,"lon":5.424534,"is_reserved":false,"is_disabled":false,"rental_uris":{"android":"levelo://app?vid=c0304c10-42b7-4fa4-b6c8-caae3b7a8e3e","ios":"levelo://app?vid=c0304c10-42b7-4fa4-b6c8-caae3b7a8e3e"},"vehicle_type_id":"4","last_reported":1702976850,"current_range_meters":31200,"station_id":"ce4bhn92rcd13ifvqgrg","pricing_plan_id":"free"},{"bike_id":"3b3f4c5c-2522-4a5c-a457-891155ce9028","system_id":"levelo_inurba_marseille","lat":43.27497,"lon":5.42446,"is_reserved":false,"is_disabled":false,"rental_uris":{"android":"levelo://app?vid=3b3f4c5c-2522-4a5c-a457-891155ce9028","ios":"levelo://app?vid=3b3f4c5c-2522-4a5c-a457-891155ce9028"},"vehicle_type_id":"4","last_reported":1702976850,"current_range_meters":21200,"station_id":"ce4bhn92rcd13ifvqgrg","pricing_plan_id":"free"},{"bike_id":"e5c0e845-5529-4741-88ec-85be98a6be97","system_id":"levelo_inurba_marseille","lat":43.275028,"lon":5.424534,"is_reserved":false,"is_disabled":false,"rental_uris":{"android":"levelo://app?vid=e5c0e845-5529-4741-88ec-85be98a6be97","ios":"levelo://app?vid=e5c0e845-5529-4741-88ec-85be98a6be97"},"vehicle_type_id":"4","last_reported":1702976850,"current_range_meters":25200,"station_id":"ce4bhn92rcd13ifvqgrg","pricing_plan_id":"free"},{"bike_id":"8dbc6cb1-e83e-4f58-be99-bea93c26cda5","system_id":"levelo_inurba_marseille","lat":43.27497,"lon":5.42448,"is_reserved":false,"is_disabled":false,"rental_uris":{"android":"levelo://app?vid=8dbc6cb1-e83e-4f58-be99-bea93c26cda5","ios":"levelo://app?vid=8dbc6cb1-e83e-4f58-be99-bea93c26cda5"},"vehicle_type_id":"4","last_reported":1702976850,"current_range_meters":22000,"station_id":"ce4bhn92rcd13ifvqgrg","pricing_plan_id":"free"},{"bike_id":"c4473f4c-d6b6-4314-9df6-434f3f1f360e","system_id":"levelo_inurba_marseille","lat":43.275028,"lon":5.424534,"is_reserved":false,"is_disabled":false,"rental_uris":{"android":"levelo://app?vid=c4473f4c-d6b6-4314-9df6-434f3f1f360e","ios":"levelo://app?vid=c4473f4c-d6b6-4314-9df6-434f3f1f360e"},"vehicle_type_id":"4","last_reported":1702976850,"current_range_meters":25600,"station_id":"ce4bhn92rcd13ifvqgrg","pricing_plan_id":"free"},{"bike_id":"ff337f60-e3c1-479e-9850-09ad5e0221a6","system_id":"levelo_inurba_marseille","lat":43.275028,"lon":5.424534,"is_reserved":false,"is_disabled":false,"rental_uris":{"android":"levelo://app?vid=ff337f60-e3c1-479e-9850-09ad5e0221a6","ios":"levelo://app?vid=ff337f60-e3c1-479e-9850-09ad5e0221a6"},"vehicle_type_id":"4","last_reported":1702976850,"current_range_meters":25600,"station_id":"ce4bhn92rcd13ifvqgrg","pricing_plan_id":"free"},{"bike_id":"0ac78daa-80e0-4da7-9421-091ef36057c7","system_id":"levelo_inurba_marseille","lat":43.275028,"lon":5.424534,"is_reserved":false,"is_disabled":false,"rental_uris":{"android":"levelo://app?vid=0ac78daa-80e0-4da7-9421-091ef36057c7","ios":"levelo://app?vid=0ac78daa-80e0-4da7-9421-091ef36057c7"},"vehicle_type_id":"4","last_reported":1702976850,"current_range_meters":20800,"station_id":"ce4bhn92rcd13ifvqgrg","pricing_plan_id":"free"},{"bike_id":"cd475cf1-8ce7-4ca4-903c-fc74d1b5eb8d","system_id":"levelo_inurba_marseille","lat":43.275028,"lon":5.424534,"is_reserved":false,"is_disabled":false,"rental_uris":{"android":"levelo://app?vid=cd475cf1-8ce7-4ca4-903c-fc74d1b5eb8d","ios":"levelo://app?vid=cd475cf1-8ce7-4ca4-903c-fc74d1b5eb8d"},"vehicle_type_id":"4","last_reported":1702976850,"current_range_meters":21600,"station_id":"ce4bhn92rcd13ifvqgrg","pricing_plan_id":"free"},{"bike_id":"56c2608f-2a8c-44b0-a8f0-1e8a7e1b3c92","system_id":"levelo_inurba_marseille","lat":43.275028,"lon":5.424534,"is_reserved":false,"is_disabled":false,"rental_uris":{"android":"levelo://app?vid=56c2608f-2a8c-44b0-a8f0-1e8a7e1b3c92","ios":"levelo://app?vid=56c2608f-2a8c-44b0-a8f0-1e8a7e1b3c92"},"vehicle_type_id":"4","last_reported":1702976850,"current_range_meters":22000,"station_id":"ce4bhn92rcd13ifvqgrg","pricing_plan_id":"free"},{"bike_id":"d6f435ba-4bf8-46a2-8514-9e919c5ff01a","system_id":"levelo_inurba_marseille","lat":43.275028,"lon":5.424534,"is_reserved":false,"is_disabled":false,"rental_uris":{"android":"levelo://app?vid=d6f435ba-4bf8-46a2-8514-9e919c5ff01a","ios":"levelo://app?vid=d6f435ba-4bf8-46a2-8514-9e919c5ff01a"},"vehicle_type_id":"4","last_reported":1702976850,"current_range_meters":30000,"station_id":"ce4bhn92rcd13ifvqgrg","pricing_plan_id":"free"},{"bike_id":"1c1f9cf6-f7a1-45f2-8f68-fad4c454897f","system_id":"levelo_inurba_marseille","lat":43.275028,"lon":5.424534,"is_reserved":false,"is_disabled":false,"rental_uris":{"android":"levelo://app?vid=1c1f9cf6-f7a1-45f2-8f68-fad4c454897f","ios":"levelo://app?vid=1c1f9cf6-f7a1-45f2-8f68-fad4c454897f"},"vehicle_type_id":"4","last_reported":1702976850,"current_range_meters":2800,"station_id":"ce4bhn92rcd13ifvqgrg","pricing_plan_id":"free"},{"bike_id":"da5181a2-1978-4690-8ffc-fc742df4b2aa","system_id":"levelo_inurba_marseille","lat":43.27492,"lon":5.42449,"is_reserved":false,"is_disabled":false,"rental_uris":{"android":"levelo://app?vid=da5181a2-1978-4690-8ffc-fc742df4b2aa","ios":"levelo://app?vid=da5181a2-1978-4690-8ffc-fc742df4b2aa"},"vehicle_type_id":"4","last_reported":1702976850,"current_range_meters":12000,"station_id":"ce4bhn92rcd13ifvqgrg","pricing_plan_id":"free"},{"bike_id":"f77d9d90-53d5-4f34-87d1-a95b6a5a07f5","system_id":"levelo_inurba_marseille","lat":43.275028,"lon":5.424534,"is_reserved":false,"is_disabled":false,"rental_uris":{"android":"levelo://app?vid=f77d9d90-53d5-4f34-87d1-a95b6a5a07f5","ios":"levelo://app?vid=f77d9d90-53d5-4f34-87d1-a95b6a5a07f5"},"vehicle_type_id":"4","last_reported":1702976850,"current_range_meters":9200,"station_id":"ce4bhn92rcd13ifvqgrg","pricing_plan_id":"free"},{"bike_id":"8522c370-1ba4-40c4-baef-01b0b19354a8","system_id":"levelo_inurba_marseille","lat":43.275028,"lon":5.424534,"is_reserved":false,"is_disabled":false,"rental_uris":{"android":"levelo://app?vid=8522c370-1ba4-40c4-baef-01b0b19354a8","ios":"levelo://app?vid=8522c370-1ba4-40c4-baef-01b0b19354a8"},"vehicle_type_id":"4","last_reported":1702976850,"current_range_meters":21200,"station_id":"ce4bhn92rcd13ifvqgrg","pricing_plan_id":"free"},