{"last_updated":1737670091,"ttl":60,"version":"2.2","data":{"bikes":[{"bike_id":"71025e83-daff-40eb-8f70-b8e1fc9300fb","system_id":"levelo_inurba_marseille","lat":43.2293,"lon":5.35372,"is_reserved":false,"is_disabled":false,"rental_uris":{"android":"levelo://app?vid=71025e83-daff-40eb-8f70-b8e1fc9300fb","ios":"levelo://app?vid=71025e83-daff-40eb-8f70-b8e1fc9300fb"},"vehicle_type_id":"4","last_reported":1737670091,"current_range_meters":38000,"station_id":"cpo3532slgdg3j2ikp40","pricing_plan_id":"cebpf4jnsgd1na2vs0mg"},{"bike_id":"10bc401f-3887-44dc-a9ac-580507b30748","system_id":"levelo_inurba_marseille","lat":43.28462,"lon":5.35884,"is_reserved":false,"is_disabled":false,"rental_uris":{"android":"levelo://app?vid=10bc401f-3887-44dc-a9ac-580507b30748","ios":"levelo://app?vid=10bc401f-3887-44dc-a9ac-580507b30748"},"vehicle_type_id":"4","last_reported":1737670091,"current_range_meters":32800,"station_id":"ce4bhah2rcd13ifvqei0","pricing_plan_id":"cebpf4jnsgd1na2vs0mg"},{"bike_id":"9c7eaa63-fad9-42a1-ac6c-648c1755a7f5","system_id":"levelo_inurba_marseille","lat":43.30087,"lon":5.37292,"is_reserved":false,"is_disabled":false,"rental_uris":{"android":"levelo://app?vid=9c7eaa63-fad9-42a1-ac6c-648c1755a7f5","ios":"levelo://app?vid=9c7eaa63-fad9-42a1-ac6c-648c1755a7f5"},"vehicle_type_id":"4","last_reported":1737670091,"current_range_meters":34000,"station_id":"","pricing_plan_id":"cebpf4jnsgd1na2vs0mg"},{"bike_id":"f4b2b55b-5c56-48b4-ada1-6e2639258558","system_id":"levelo_inurba_marseille","lat":43.243835,"lon":5.43865,"is_reserved":false,"is_disabled":false,"rental_uris":{"android":"levelo://app?vid=f4b2b55b-5c56-48b4-ada1-6e2639258558","ios":"levelo://app?vid=f4b2b55b-5c56-48b4-ada1-6e2639258558"},"vehicle_type_id":"4","last_reported":1737670091,"current_range_meters":34000,"station_id":"ce4bhmp2rcd13ifvqgog","pricing_plan_id":"cebpf4jnsgd1na2vs0mg"},{"bike_id":"eccf0d1b-bc05-4442-912e-9450590b779a","system_id":"levelo_inurba_marseille","lat":43.32005,"lon":5.3814,"is_reserved":false,"is_disabled":false,"rental_uris":{"android":"levelo://app?vid=eccf0d1b-bc05-4442-912e-9450590b779a","ios":"levelo://app?vid=eccf0d1b-bc05-4442-912e-9450590b779a"},"vehicle_type_id":"4","last_reported":1737670091,"current_range_meters":16800,"station_id":"ce4bhr12rcd13ifvqhpg","pricing_plan_id":"cebpf4jnsgd1na2vs0mg"},{"bike_id":"bb837106-5fe6-4c19-83c9-a4ca3cad7964","system_id":"levelo_inurba_marseille","lat":43.29215,"lon":5.36085,"is_reserved":false,"is_disabled":false,"rental_uris":{"android":"levelo://app?vid=bb837106-5fe6-4c19-83c9-a4ca3cad7964","ios":"levelo://app?vid=bb837106-5fe6-4c19-83c9-a4ca3cad7964"},"vehicle_type_id":"4","last_reported":1737670091,"current_range_meters":24800,"station_id":"ce4bhbh2rcd13ifvqeqg","pricing_plan_id":"cebpf4jnsgd1na2vs0mg"},{"bike_id":"095316ea-421f-4437-9a4e-da54ce664166","system_id":"levelo_inurba_marseille","lat":43.28098,"lon":5.37888,"is_reserved":false,"is_disabled":false,"rental_uris":{"android":"levelo://app?vid=095316ea-421f-4437-9a4e-da54ce664166","ios":"levelo://app?vid=095316ea-421f-4437-9a4e-da54ce664166"},"vehicle_type_id":"4","last_reported":1737670091,"current_range_meters":30400,"station_id":"ce4bha12rcd13ifvqee0","pricing_plan_id":"cebpf4jnsgd1na2vs0mg"},{"bike_id":"ef8b265c-0230-4cc5-b1c1-c914a6a4d51e","system_id":"levelo_inurba_marseille","lat":43.29261,"lon":5.40904,"is_reserved":false,"is_disabled":false,"rental_uris":{"android":"levelo://app?vid=ef8b265c-0230-4cc5-b1c1-c914a6a4d51e","ios":"levelo://app?vid=ef8b265c-0230-4cc5-b1c1-c914a6a4d51e"},"vehicle_type_id":"4","last_reported":1737670091,"current_range_meters":27200,"station_id":"ce4bh192rcd13ifvqdc0","pricing_plan_id":"cebpf4jnsgd1na2vs0mg"},{"bike_id":"d5e872fd-88ad-4d26-bf6b-08aaaf1253ee","system_id":"levelo_inurba_marseille","lat":43.28459,"lon":5.35889,"is_reserved":false,"is_disabled":false,"rental_uris":{"android":"levelo://app?vid=d5e872fd-88ad-4d26-bf6b-08aaaf1253ee","ios":"levelo://app?vid=d5e872fd-88ad-4d26-bf6b-08aaaf1253ee"},"vehicle_type_id":"4","last_reported":1737670091,"current_range_meters":17200,"station_id":"ce4bhah2rcd13ifvqei0","pricing_plan_id":"cebpf4jnsgd1na2vs0mg"},{"bike_id":"b5cb07e6-6ffd-4db4-8954-0084503b2aef","system_id":"levelo_inurba_marseille","lat":43.33018,"lon":5.39028,"is_reserved":false,"is_disabled":false,"rental_uris":{"android":"levelo://app?vid=b5cb07e6-6ffd-4db4-8954-0084503b2aef","ios":"levelo://app?vid=b5cb07e6-6ffd-4db4-8954-0084503b2aef"},"vehicle_type_id":"4","last_reported":1737670091,"current_range_meters":38800,"station_id":"ce4bhr92rcd13ifvqhrg","pricing_plan_id":"cebpf4jnsgd1na2vs0mg"},{"bike_id":"c71bbc0d-9aef-4e5d-8186-791e46cd2b58","system_id":"levelo_inurba_marseille","lat":43.26192,"lon":5.37452,"is_reserved":false,"is_disabled":true,"rental_uris":{"android":"levelo://app?vid=c71bbc0d-9aef-4e5d-8186-791e46cd2b58","ios":"levelo://app?vid=c71bbc0d-9aef-4e5d-8186-791e46cd2b58"},"vehicle_type_id":"4","last_reported":1737670091,"current_range_meters":36800,"station_id":"ce4bhgp2rcd13ifvqfc0","pricing_plan_id":"cebpf4jnsgd1na2vs0mg"},{"bike_id":"4a081956-cbf5-4d73-bd8f-6f5096af4df8","system_id":"levelo_inurba_marseille","lat":43.24803,"lon":5.37445,"is_reserved":false,"is_disabled":false,"rental_uris":{"android":"levelo://app?vid=4a081956-cbf5-4d73-bd8f-6f5096af4df8","ios":"levelo://app?vid=4a081956-cbf5-4d73-bd8f-6f5096af4df8"},"vehicle_type_id":"4","last_reported":1737670091,"current_range_meters":38000,"station_id":"ce4bhgh2rcd13ifvqfb0","pricing_plan_id":"cebpf4jnsgd1na2vs0mg"},{"bike_id":"fa235921-264c-45fa-9486-36940e44284c","system_id":"levelo_inurba_marseille","lat":43.25573,"lon":5.38243,"is_reserved":false,"is_disabled":false,"rental_uris":{"android":"levelo://app?vid=fa235921-264c-45fa-9486-36940e44284c","ios":"levelo://app?vid=fa235921-264c-45fa-9486-36940e44284c"},"vehicle_type_id":"4","last_reported":1737670091,"current_range_meters":19600,"station_id":"ce4bhih2rcd13ifvqfs0","pricing_plan_id":"cebpf4jnsgd1na2vs0mg"},{"bike_id":"169ecae1-c3c7-456b-beb7-b62287b76c83","system_id":"levelo_inurba_marseille","lat":43.31328,"lon":5.39702,"is_reserved":false,"is_disabled":false,"rental_uris":{"android":"levelo://app?vid=169ecae1-c3c7-456b-beb7-b62287b76c83","ios":"levelo://app?vid=169ecae1-c3c7-456b-beb7-b62287b76c83"},"vehicle_type_id":"4","last_reported":1737670091,"current_range_meters":9600,"station_id":"ce4bgvp2rcd13ifvqcu0","pricing_plan_id":"cebpf4jnsgd1na2vs0mg"},{"bike_id":"1a092bf7-35e4-40a3-a6a3-f4c3e6f23ce6","system_id":"levelo_inurba_marseille","lat":43.282645,"lon":5.35065,"is_reserved":false,"is_disabled":false,"rental_uris":{"android":"levelo://app?vid=1a092bf7-35e4-40a3-a6a3-f4c3e6f23ce6","ios":"levelo://app?vid=1a092bf7-35e4-40a3-a6a3-f4c3e6f23ce6"},"vehicle_type_id":"4","last_reported":1737670091,"current_range_meters":22400,"station_id":"ce4bhbp2rcd13ifvqerg","pricing_plan_id":"cebpf4jnsgd1na2vs0mg"},{"bike_id":"2bdb348d-ebfc-4fd5-a8f6-4500a8748716","system_id":"levelo_inurba_marseille","lat":43.29038,"lon":5.35911,"is_reserved":false,"is_disabled":false,"rental_uris":{"android":"levelo://app?vid=2bdb348d-ebfc-4fd5-a8f6-4500a8748716","ios":"levelo://app?vid=2bdb348d-ebfc-4fd5-a8f6-4500a8748716"},"vehicle_type_id":"4","last_reported":1737670091,"current_range_meters":38800,"station_id":"ce4bha92rcd13ifvqeg0","pricing_plan_id":"cebpf4jnsgd1na2vs0mg"},{"bike_id":"e21a3a38-0931-49da-bd00-54e3f3f67b09","system_id":"levelo_inurba_marseille","lat":43.3065,"lon":5.4006,"is_reserved":false,"is_disabled":false,"rental_uris":{"android":"levelo://app?vid=e21a3a38-0931-49da-bd00-54e3f3f67b09","ios":"levelo://app?vid=e21a3a38-0931-49da-bd00-54e3f3f67b09"},"vehicle_type_id":"4","last_reported":1737670091,"current_range_meters":15200,"station_id":"ce4bh112rcd13ifvqda0","pricing_plan_id":"cebpf4jnsgd1na2vs0mg"},{"bike_id":"055cbe76-7eb6-4f07-bfe5-ee90b4dc3d97","system_id":"levelo_inurba_marseille","lat":43.29316,"lon":5.37161,"is_reserved":false,"is_disabled":false,"rental_uris":{"android":"levelo://app?vid=055cbe76-7eb6-4f07-bfe5-ee90b4dc3d97","ios":"levelo://app?vid=055cbe76-7eb6-4f07-bfe5-ee90b4dc3d97"},"vehicle_type_id":"4","last_reported":1737670091,"current_range_meters":31200,"station_id":"ce4bgh92rcd13ifvqb40","pricing_plan_id":"cebpf4jnsgd1na2vs0mg"},{"bike_id":"ba173b37-2ceb-44d1-bb38-40842354bce6","system_id":"levelo_inurba_marseille","lat":43.28957,"lon":5.36401,"is_reserved":false,"is_disabled":false,"rental_uris":{"android":"levelo://app?vid=ba173b37-2ceb-44d1-bb38-40842354bce6","ios":"levelo://app?vid=ba173b37-2ceb-44d1-bb38-40842354bce6"},"vehicle_type_id":"4","last_reported":1737670091,"current_range_meters":19200,"station_id":"ce4bhc92rcd13ifvqetg","pricing_plan_id":"cebpf4jnsgd1na2vs0mg"},{"bike_id":"fb25aff4-7712-412a-885d-4665f45586cc","system_id":"levelo_inurba_marseille","lat":43.24664,"lon":5.38156,"is_reserved":false,"is_disabled":false,"rental_uris":{"android":"levelo://app?vid=fb25aff4-7712-412a-885d-4665f45586cc","ios":"levelo://app?vid=fb25aff4-7712-412a-885d-4665f45586cc"},"vehicle_type_id":"4","last_reported":1737670091,"current_range_meters":38800,"station_id":"ce4bhih2rcd13ifvqfr0","pricing_plan_id":"cebpf4jnsgd1na2vs0mg"},{"bike_id":"34526bcc-aa0c-42d5-808f-8eaf3d28d8ec","system_id":"levelo_inurba_marseille","lat":43.25112,"lon":5.40323,"is_reserved":false,"is_disabled":false,"rental_uris":{"android":"levelo://app?vid=34526bcc-aa0c-42d5-808f-8eaf3d28d8ec","ios":"levelo://app?vid=34526bcc-aa0c-42d5-808f-8eaf3d28d8ec"},"vehicle_type_id":"4","last_reported":1737670091,"current_range_meters":37600,"station_id":"ce4bhlh2rcd13ifvqgig","pricing_plan_id":"cebpf4jnsgd1na2vs0mg"},{"bike_id":"9d529299-51ae-467e-b33e-bc4a3c9c50db","system_id":"levelo_inurba_marseille","lat":43.30585,"lon":5.39326,"is_reserved":false,"is_disabled":false,"rental_uris":{"android":"levelo://app?vid=9d529299-51ae-467e-b33e-bc4a3c9c50db","ios":"levelo://app?vid=9d529299-51ae-467e-b33e-bc4a3c9c50db"},"vehicle_type_id":"4","last_reported":1737670091,"current_range_meters":21600,"station_id":"ce4bh0p2rcd13ifvqd80","pricing_plan_id":"cebpf4jnsgd1na2vs0mg"},{"bike_id":"8306911c-1b49-4f25-b658-2afe8ce20858","system_id":"levelo_inurba_marseille","lat":43.28452,"lon":5.35908,"is_reserved":false,"is_disabled":false,"rental_uris":{"android":"levelo://app?vid=8306911c-1b49-4f25-b658-2afe8ce20858","ios":"levelo://app?vid=8306911c-1b49-4f25-b658-2afe8ce20858"},"vehicle_type_id":"4","last_reported":1737670091,"current_range_meters":30400,"station_id":"ce4bhah2rcd13ifvqei0","pricing_plan_id":"cebpf4jnsgd1na2vs0mg"},{"bike_id":"5ab3e1f2-7151-43c7-b2fc-70daf0c89688","system_id":"levelo_inurba_marseille","lat":43.28347,"lon":5.38099,"is_reserved":false,"is_disabled":false,"rental_uris":{"android":"levelo://app?vid=5ab3e1f2-7151-43c7-b2fc-70daf0c89688","ios":"levelo://app?vid=5ab3e1f2-7151-43c7-b2fc-70daf0c89688"},"vehicle_type_id":"4","last_reported":1737670091,"current_range_meters":30800,"station_id":"ce4bh412rcd13ifvqdr0","pricing_plan_id":"cebpf4jnsgd1na2vs0mg"},{"bike_id":"1a87f163-95aa-44fd-b2d0-ded4d159ad4c","system_id":"levelo_inurba_marseille","lat":43.29528,"lon":5.39056,"is_reserved":false,"is_disabled":false,"rental_uris":{"android":"levelo://app?vid=1a87f163-95aa-44fd-b2d0-ded4d159ad4c","ios":"levelo://app?vid=1a87f163-95aa-44fd-b2d0-ded4d159ad4c"},"vehicle_type_id":"4","last_reported":1737670091,"current_range_meters":38800,"station_id":"ce4bh3p2rcd13ifvqdp0","pricing_plan_id":"cebpf4jnsgd1na2vs0mg"},{"bike_id":"644e1c08-c502-4c85-94d4-d4a064391ff0","system_id":"levelo_inurba_marseille","lat":43.31237,"lon":5.3796,"is_reserved":false,"is_disabled":false,"rental_uris":{"android":"levelo://app?vid=644e1c08-c502-4c85-94d4-d4a064391ff0","ios":"levelo://app?vid=644e1c08-c502-4c85-94d4-d4a064391ff0"},"vehicle_type_id":"4","last_reported":1737670091,"current_range_meters":6800,"station_id":"","pricing_plan_id":"cebpf4jnsgd1na2vs0mg"},{"bike_id":"60d6bd6c-3c1e-4ed7-aea1-57024152bec1","system_id":"levelo_inurba_marseille","lat":43.29811,"lon":5.40423,"is_reserved":false,"is_disabled":false,"rental_uris":{"android":"levelo://app?vid=60d6bd6c-3c1e-4ed7-aea1-57024152bec1","ios":"levelo://app?vid=60d6bd6c-3c1e-4ed7-aea1-57024152bec1"},"vehicle_type_id":"4","last_reported":1737670091,"current_range_meters":38800,"station_id":"ce4bh112rcd13ifvqd90","pricing_plan_id":"cebpf4jnsgd1na2vs0mg"},{"bike_id":"2e1961ea-cc50-4ce5-bd0e-43fe5c2fb5e3","system_id":"levelo_inurba_marseille","lat":43.25864,"lon":5.39906,"is_reserved":false,"is_disabled":false,"rental_uris":{"android":"levelo://app?vid=2e1961ea-cc50-4ce5-bd0e-43fe5c2fb5e3","ios":"levelo://app?vid=2e1961ea-cc50-4ce5-bd0e-43fe5c2fb5e3"},"vehicle_type_id":"4","last_reported":1737670091,"current_range_meters":28800,"station_id":"ce4bhl92rcd13ifvqghg","pricing_plan_id":"cebpf4jnsgd1na2vs0mg"},{"bike_id":"553e4976-b27f-47dc-8e32-f79d8de69447","system_id":"levelo_inurba_marseille","lat":43.29003,"lon":5.35606,"is_reserved":false,"is_disabled":false,"rental_uris":{"android":"levelo://app?vid=553e4976-b27f-47dc-8e32-f79d8de69447","ios":"levelo://app?vid=553e4976-b27f-47dc-8e32-f79d8de69447"},"vehicle_type_id":"4","last_reported":1737670091,"current_range_meters":38800,"station_id":"ce4bhb92rcd13ifvqen0","pricing_plan_id":"cebpf4jnsgd1na2vs0mg"},{"bike_id":"775b7427-1c9f-417e-b10a-ff4a0678835f","system_id":"levelo_inurba_marseille","lat":43.29777,"lon":5.37111,"is_reserved":false,"is_disabled":false,"rental_uris":{"android":"levelo://app?vid=775b7427-1c9f-417e-b10a-ff4a0678835f","ios":"levelo://app?vid=775b7427-1c9f-417e-b10a-ff4a0678835f"},"vehicle_type_id":"4","last_reported":1737670091,"current_range_meters":4800,"station_id":"ce4bgop2rcd13ifvqc1g","pricing_plan_id":"cebpf4jnsgd1na2vs0mg"},{"bike_id":"820d236e-1578-4ddc-b946-1dd3b5ad3eb4","system_id":"levelo_inurba_marseille","lat":43.30867,"lon":5.3965,"is_reserved":false,"is_disabled":false,"rental_uris":{"android":"levelo://app?vid=820d236e-1578-4ddc-b946-1dd3b5ad3eb4","ios":"levelo://app?vid=820d236e-1578-4ddc-b946-1dd3b5ad3eb4"},"vehicle_type_id":"4","last_reported":1737670091,"current_range_meters":38800,"station_id":"ce4bh012rcd13ifvqcv0","pricing_plan_id":"cebpf4jnsgd1na2vs0mg"},{"bike_id":"f27da538-742f-40fb-9043-c63b4de121a2","system_id":"levelo_inurba_marseille","lat":43.29201,"lon":5.39309,"is_reserved":false,"is_disabled":false,"rental_uris":{"android":"levelo://app?vid=f27da538-742f-40fb-9043-c63b4de121a2","ios":"levelo://app?vid=f27da538-742f-40fb-9043-c63b4de121a2"},"vehicle_type_id":"4","last_reported":1737670091,"current_range_meters":10800,"station_id":"ce4bh192rcd13ifvqdd0","pricing_plan_id":"cebpf4jnsgd1na2vs0mg"},{"bike_id":"b71530b0-8fac-4747-935b-b26b2c8641e1","system_id":"levelo_inurba_marseille","lat":43.27602,"lon":5.3841,"is_reserved":false,"is_disabled":false,"rental_uris":{"android":"levelo://app?vid=b71530b0-8fac-4747-935b-b26b2c8641e1","ios":"levelo://app?vid=b71530b0-8fac-4747-935b-b26b2c8641e1"},"vehicle_type_id":"4","last_reported":1737670091,"current_range_meters":8800,"station_id":"ce4bhh92rcd13ifvqfi0","pricing_plan_id":"cebpf4jnsgd1na2vs0mg"},{"bike_id":"abc60fff-dd66-4aec-926e-90acfc4baba7","system_id":"levelo_inurba_marseille","lat":43.29025,"lon":5.38656,"is_reserved":false,"is_disabled":false,"rental_uris":{"android":"levelo://app?vid=abc60fff-dd66-4aec-926e-90acfc4baba7","ios":"levelo://app?vid=abc60fff-dd66-4aec-926e-90acfc4baba7"},"vehicle_type_id":"4","last_reported":1737670091,"current_range_meters":38000,"station_id":"ce4bh4p2rcd13ifvqe0g","pricing_plan_id":"cebpf4jnsgd1na2vs0mg"},{"bike_id":"1fbcfb52-8929-4f0c-a9d8-51ffbe3630c4","system_id":"levelo_inurba_marseille","lat":43.31331,"lon":5.39705,"is_reserved":false,"is_disabled":false,"rental_uris":{"android":"levelo://app?vid=1fbcfb52-8929-4f0c-a9d8-51ffbe3630c4","ios":"levelo://app?vid=1fbcfb52-8929-4f0c-a9d8-51ffbe3630c4"},"vehicle_type_id":"4","last_reported":1737670091,"current_range_meters":32800,"station_id":"ce4bgvp2rcd13ifvqcu0","pricing_plan_id":"cebpf4jnsgd1na2vs0mg"},{"bike_id":"545ed6e3-0d7c-44d7-afc3-19d942ccdead","system_id":"levelo_inurba_marseille","lat":43.28265,"lon":5.35081,"is_reserved":false,"is_disabled":false,"rental_uris":{"android":"levelo://app?vid=545ed6e3-0d7c-44d7-afc3-19d942ccdead","ios":"levelo://app?vid=545ed6e3-0d7c-44d7-afc3-19d942ccdead"},"vehicle_type_id":"4","last_reported":1737670091,"current_range_meters":25200,"station_id":"ce4bhbp2rcd13ifvqerg","pricing_plan_id":"cebpf4jnsgd1na2vs0mg"},{"bike_id":"0af6d497-19c9-433b-9557-19fa7238658c","system_id":"levelo_inurba_marseille","lat":43.27972,"lon":5.38741,"is_reserved":false,"is_disabled":true,"rental_uris":{"android":"levelo://app?vid=0af6d497-19c9-433b-9557-19fa7238658c","ios":"levelo://app?vid=0af6d497-19c9-433b-9557-19fa7238658c"},"vehicle_type_id":"4","last_reported":1737670091,"current_range_meters":37600,"station_id":"ce4bhg12rcd13ifvqf80","pricing_plan_id":"cebpf4jnsgd1na2vs0mg"},{"bike_id":"de20accc-6af8-4084-b9d0-4b5a517d8a91","system_id":"levelo_inurba_marseille","lat":43.32998,"lon":5.39062,"is_reserved":false,"is_disabled":false,"rental_uris":{"android":"levelo://app?vid=de20accc-6af8-4084-b9d0-4b5a517d8a91","ios":"levelo://app?vid=de20accc-6af8-4084-b9d0-4b5a517d8a91"},"vehicle_type_id":"4","last_reported":1737670091,"current_range_meters":36400,"station_id":"ce4bhr92rcd13ifvqhrg","pricing_plan_id":"cebpf4jnsgd1na2vs0mg"},{"bike_id":"fa398863-c594-49cb-b76e-13c5de6b4efe","system_id":"levelo_inurba_marseille","lat":43.30665,"lon":5.38177,"is_reserved":false,"is_disabled":false,"rental_uris":{"android":"levelo://app?vid=fa398863-c594-49cb-b76e-13c5de6b4efe","ios":"levelo://app?vid=fa398863-c594-49cb-b76e-13c5de6b4efe"},"vehicle_type_id":"4","last_reported":1737670091,"current_range_meters":36800,"station_id":"","pricing_plan_id":"cebpf4jnsgd1na2vs0mg"},{"bike_id":"bfc7c4c8-160f-422f-88d7-f1006cae57bb","system_id":"levelo_inurba_marseille","lat":43.31124,"lon":5.37763,"is_reserved":false,"is_disabled":false,"rental_uris":{"android":"levelo://app?vid=bfc7c4c8-160f-422f-88d7-f1006cae57bb","ios":"levelo://app?vid=bfc7c4c8-160f-422f-88d7-f1006cae57bb"},"vehicle_type_id":"4","last_reported":1737670091,"current_range_meters":10000,"station_id":"ce4bgt92rcd13ifvqcg0","pricing_plan_id":"cebpf4jnsgd1na2vs0mg"},{"bike_id":"a97bd20e-fb6e-42d8-8c93-7c1bb4f2b31d","system_id":"levelo_inurba_marseille","lat":43.30929,"lon":5.40149,"is_reserved":false,"is_disabled":false,"rental_uris":{"android":"levelo://app?vid=a97bd20e-fb6e-42d8-8c93-7c1bb4f2b31d","ios":"levelo://app?vid=a97bd20e-fb6e-42d8-8c93-7c1bb4f2b31d"},"vehicle_type_id":"4","last_reported":1737670091,"current_range_meters":21600,"station_id":"ce4bgvp2rcd13ifvqct0","pricing_plan_id":"cebpf4jnsgd1na2vs0mg"},{"bike_id":"cddfddb2-750c-4eb5-81cb-d5e65f4765d7","system_id":"levelo_inurba_marseille","lat":43.24683,"lon":5.42457,"is_reserved":false,"is_disabled":true,"rental_uris":{"android":"levelo://app?vid=cddfddb2-750c-4eb5-81cb-d5e65f4765d7","ios":"levelo://app?vid=cddfddb2-750c-4eb5-81cb-d5e65f4765d7"},"vehicle_type_id":"4","last_reported":1737670091,"current_range_meters":0,"station_id":"","pricing_plan_id":"cebpf4jnsgd1na2vs0mg"},{"bike_id":"bbdfc660-e997-4a11-9591-bbb56c89be46","system_id":"levelo_inurba_marseille","lat":43.33024,"lon":5.39051,"is_reserved":false,"is_disabled":false,"rental_uris":{"android":"levelo://app?vid=bbdfc660-e997-4a11-9591-bbb56c89be46","ios":"levelo://app?vid=bbdfc660-e997-4a11-9591-bbb56c89be46"},"vehicle_type_id":"4","last_reported":1737670091,"current_range_meters":36800,"station_id":"ce4bhr92rcd13ifvqhrg","pricing_plan_id":"cebpf4jnsgd1na2vs0mg"},{"bike_id":"5e75dd30-ab3b-44d3-8dcb-cb5fd4a0eb65","system_id":"levelo_inurba_marseille","lat":43.2463,"lon":5.389,"is_reserved":false,"is_disabled":false,"rental_uris":{"android":"levelo://app?vid=5e75dd30-ab3b-44d3-8dcb-cb5fd4a0eb65","ios":"levelo://app?vid=5e75dd30-ab3b-44d3-8dcb-cb5fd4a0eb65"},"vehicle_type_id":"4","last_reported":1737670091,"current_range_meters":36800,"station_id":"ce4bhg12rcd13ifvqf60","pricing_plan_id":"cebpf4jnsgd1na2vs0mg"},{"bike_id":"abd4593b-aafd-4812-a0f3-dcbeff089b75","system_id":"levelo_inurba_marseille","lat":43.30907,"lon":5.36851,"is_reserved":false,"is_disabled":false,"rental_uris":{"android":"levelo://app?vid=abd4593b-aafd-4812-a0f3-dcbeff089b75","ios":"levelo://app?vid=abd4593b-aafd-4812-a0f3-dcbeff089b75"},"vehicle_type_id":"4","last_reported":1737670091,"current_range_meters":36000,"station_id":"ce4bgn92rcd13ifvqbvg","pricing_plan_id":"cebpf4jnsgd1na2vs0mg"},{"bike_id":"61a6fd35-8230-406d-9c91-96dcbb32f3bd","system_id":"levelo_inurba_marseille","lat":43.28679,"lon":5.37375,"is_reserved":false,"is_disabled":false,"rental_uris":{"android":"levelo://app?vid=61a6fd35-8230-406d-9c91-96dcbb32f3bd","ios":"levelo://app?vid=61a6fd35-8230-406d-9c91-96dcbb32f3bd"},"vehicle_type_id":"4","last_reported":1737670091,"current_range_meters":24000,"station_id":"ce4bh3p2rcd13ifvqdq0","pricing_plan_id":"cebpf4jnsgd1na2vs0mg"},{"bike_id":"b82a8ee9-b7f6-4bbf-a3f0-fec2dc7b2b9f","system_id":"levelo_inurba_marseille","lat":43.3025,"lon":5.40086,"is_reserved":false,"is_disabled":false,"rental_uris":{"android":"levelo://app?vid=b82a8ee9-b7f6-4bbf-a3f0-fec2dc7b2b9f","ios":"levelo://app?vid=b82a8ee9-b7f6-4bbf-a3f0-fec2dc7b2b9f"},"vehicle_type_id":"4","last_reported":1737670091,"current_range_meters":38800,"station_id":"ce4bgvh2rcd13ifvqcs0","pricing_plan_id":"cebpf4jnsgd1na2vs0mg"},{"bike_id":"1f4cc9a1-a6f1-42ee-8f62-d3fd1b2849a6","system_id":"levelo_inurba_marseille","lat":43.23181,"lon":5.39992,"is_reserved":false,"is_disabled":false,"rental_uris":{"android":"levelo://app?vid=1f4cc9a1-a6f1-42ee-8f62-d3fd1b2849a6","ios":"levelo://app?vid=1f4cc9a1-a6f1-42ee-8f62-d3fd1b2849a6"},"vehicle_type_id":"4","last_reported":1737670091,"current_range_meters":6800,"station_id":"ce4bhn12rcd13ifvqgqg","pricing_plan_id":"cebpf4jnsgd1na2vs0mg"},{"bike_id":"c7863ce0-dc59-43d2-86a1-2bd2b57f2c06","system_id":"levelo_inurba_marseille","lat":43.29631,"lon":5.40602,"is_reserved":false,"is_disabled":false,"rental_uris":{"android":"levelo://app?vid=c7863ce0-dc59-43d2-86a1-2bd2b57f2c06","ios":"levelo://app?vid=c7863ce0-dc59-43d2-86a1-2bd2b57f2c06"},"vehicle_type_id":"4","last_reported":1737670091,"current_range_meters":20800,"station_id":"ce4bh0h2rcd13ifvqd60","pricing_plan_id":"cebpf4jnsgd1na2vs0mg"},{"bike_id":"77a12100-d260-4f7f-997e-94d8d05bfd42","system_id":"levelo_inurba_marseille","lat":43.28037,"lon":5.36937,"is_reserved":false,"is_disabled":false,"rental_uris":{"android":"levelo://app?vid=77a12100-d260-4f7f-997e-94d8d05bfd42","ios":"levelo://app?vid=77a12100-d260-4f7f-997e-94d8d05bfd42"},"vehicle_type_id":"4","last_reported":1737670091,"current_range_meters":11600,"station_id":"ce4bha12rcd13ifvqef0","pricing_plan_id":"cebpf4jnsgd1na2vs0mg"},{"bike_id":"9838cc78-2b53-49d3-ae13-82df62c4fd64","system_id":"levelo_inurba_marseille","lat":43.28425,"lon":5.4093,"is_reserved":false,"is_disabled":false,"rental_uris":{"android":"levelo://app?vid=9838cc78-2b53-49d3-ae13-82df62c4fd64","ios":"levelo://app?vid=9838cc78-2b53-49d3-ae13-82df62c4fd64"},"vehicle_type_id":"4","last_reported":1737670091,"current_range_meters":4400,"station_id":"","pricing_plan_id":"cebpf4jnsgd1na2vs0mg"},{"bike_id":"d9d67e50-ff60-4024-bb97-06b4cc192a7e","system_id":"levelo_inurba_marseille","lat":43.30226,"lon":5.37513,"is_reserved":false,"is_disabled":true,"rental_uris":{"android":"levelo://app?vid=d9d67e50-ff60-4024-bb97-06b4cc192a7e","ios":"levelo://app?vid=d9d67e50-ff60-4024-bb97-06b4cc192a7e"},"vehicle_type_id":"4","last_reported":1737670091,"current_range_meters":38000,"station_id":"","pricing_plan_id":"cebpf4jnsgd1na2vs0mg"},{"bike_id":"73d834fb-e5b5-46db-8e60-2e0f290ea695","system_id":"levelo_inurba_marseille","lat":43.29535,"lon":5.39056,"is_reserved":false,"is_disabled":false,"rental_uris":{"android":"levelo://app?vid=73d834fb-e5b5-46db-8e60-2e0f290ea695","ios":"levelo://app?vid=73d834fb-e5b5-46db-8e60-2e0f290ea695"},"vehicle_type_id":"4","last_reported":1737670091,"current_range_meters":38400,"station_id":"ce4bh3p2rcd13ifvqdp0","pricing_plan_id":"cebpf4jnsgd1na2vs0mg"},{"bike_id":"1cd34acd-7820-4884-9d33-5f477e633809","system_id":"levelo_inurba_marseille","lat":43.32337,"lon":5.40622,"is_reserved":false,"is_disabled":true,"rental_uris":{"android":"levelo://app?vid=1cd34acd-7820-4884-9d33-5f477e633809","ios":"levelo://app?vid=1cd34acd-7820-4884-9d33-5f477e633809"},"vehicle_type_id":"4","last_reported":1737670091,"current_range_meters":2000,"station_id":"ce4bhq92rcd13ifvqhjg","pricing_plan_id":"cebpf4jnsgd1na2vs0mg"},{"bike_id":"bf096a89-ee72-4f37-85bd-7b3cf9f0cb41","system_id":"levelo_inurba_marseille","lat":43.3194,"lon":5.37886,"is_reserved":false,"is_disabled":false,"rental_uris":{"android":"levelo://app?vid=bf096a89-ee72-4f37-85bd-7b3cf9f0cb41","ios":"levelo://app?vid=bf096a89-ee72-4f37-85bd-7b3cf9f0cb41"},"vehicle_type_id":"4","last_reported":1737670091,"current_range_meters":36800,"station_id":"","pricing_plan_id":"cebpf4jnsgd1na2vs0mg"},{"bike_id":"81a1ee1f-b7a3-487f-abfc-c81babfe5d0a","system_id":"levelo_inurba_marseille","lat":43.23191,"lon":5.39984,"is_reserved":false,"is_disabled":false,"rental_uris":{"android":"levelo://app?vid=81a1ee1f-b7a3-487f-abfc-c81babfe5d0a","ios":"levelo://app?vid=81a1ee1f-b7a3-487f-abfc-c81babfe5d0a"},"vehicle_type_id":"4","last_reported":1737670091,"current_range_meters":8000,"station_id":"ce4bhn12rcd13ifvqgqg","pricing_plan_id":"cebpf4jnsgd1na2vs0mg"},{"bike_id":"3dfe1bd8-4d86-4892-a7a7-e22d89828c1f","system_id":"levelo_inurba_marseille","lat":43.29273,"lon":5.40149,"is_reserved":false,"is_disabled":true,"rental_uris":{"android":"levelo://app?vid=3dfe1bd8-4d86-4892-a7a7-e22d89828c1f","ios":"levelo://app?vid=3dfe1bd8-4d86-4892-a7a7-e22d89828c1f"},"vehicle_type_id":"4","last_reported":1737670091,"current_range_meters":1200,"station_id":"ce4bh312rcd13ifvqdk0","pricing_plan_id":"cebpf4jnsgd1na2vs0mg"},{"bike_id":"634d56c1-a2c0-4178-97ec-f77ccc52b51c","system_id":"levelo_inurba_marseille","lat":43.23197,"lon":5.39961,"is_reserved":false,"is_disabled":false,"rental_uris":{"android":"levelo://app?vid=634d56c1-a2c0-4178-97ec-f77ccc52b51c","ios":"levelo://app?vid=634d56c1-a2c0-4178-97ec-f77ccc52b51c"},"vehicle_type_id":"4","last_reported":1737670091,"current_range_meters":34000,"station_id":"ce4bhn12rcd13ifvqgqg","pricing_plan_id":"cebpf4jnsgd1na2vs0mg"},{"bike_id":"7da2dc43-ec86-444b-b170-22e5a144ea03","system_id":"levelo_inurba_marseille","lat":43.28549,"lon":5.39485,"is_reserved":false,"is_disabled":false,"rental_uris":{"android":"levelo://app?vid=7da2dc43-ec86-444b-b170-22e5a144ea03","ios":"levelo://app?vid=7da2dc43-ec86-444b-b170-22e5a144ea03"},"vehicle_type_id":"4","last_reported":1737670091,"current_range_meters":38400,"station_id":"ce4bh292rcd13ifvqdg0","pricing_plan_id":"cebpf4jnsgd1na2vs0mg"},{"bike_id":"240c0390-b4df-424b-921a-a7ec169797ac","system_id":"levelo_inurba_marseille","lat":43.31123,"lon":5.37764,"is_reserved":false,"is_disabled":false,"rental_uris":{"android":"levelo://app?vid=240c0390-b4df-424b-921a-a7ec169797ac","ios":"levelo://app?vid=240c0390-b4df-424b-921a-a7ec169797ac"},"vehicle_type_id":"4","last_reported":1737670091,"current_range_meters":33600,"station_id":"ce4bgt92rcd13ifvqcg0","pricing_plan_id":"cebpf4jnsgd1na2vs0mg"},{"bike_id":"086594ac-1917-4e29-9481-5033dfc657fa","system_id":"levelo_inurba_marseille","lat":43.29029,"lon":5.38649,"is_reserved":false,"is_disabled":false,"rental_uris":{"android":"levelo://app?vid=086594ac-1917-4e29-9481-5033dfc657fa","ios":"levelo://app?vid=086594ac-1917-4e29-9481-5033dfc657fa"},"vehicle_type_id":"4","last_reported":1737670091,"current_range_meters":38400,"station_id":"ce4bh4p2rcd13ifvqe0g","pricing_plan_id":"cebpf4jnsgd1na2vs0mg"},{"bike_id":"1eda1911-cf75-473e-a1cb-875255a8e555","system_id":"levelo_inurba_marseille","lat":43.29689,"lon":5.36662,"is_reserved":false,"is_disabled":false,"rental_uris":{"android":"levelo://app?vid=1eda1911-cf75-473e-a1cb-875255a8e555","ios":"levelo://app?vid=1eda1911-cf75-473e-a1cb-875255a8e555"},"vehicle_type_id":"4","last_reported":1737670091,"current_range_meters":14400,"station_id":"ce4bgn12rcd13ifvqbt0","pricing_plan_id":"cebpf4jnsgd1na2vs0mg"},{"bike_id":"a79c1454-a618-4883-baba-55f13f06650c","system_id":"levelo_inurba_marseille","lat":43.3065,"lon":5.40054,"is_reserved":false,"is_disabled":false,"rental_uris":{"android":"levelo://app?vid=a79c1454-a618-4883-baba-55f13f06650c","ios":"levelo://app?vid=a79c1454-a618-4883-baba-55f13f06650c"},"vehicle_type_id":"4","last_reported":1737670091,"current_range_meters":34000,"station_id":"ce4bh112rcd13ifvqda0","pricing_plan_id":"cebpf4jnsgd1na2vs0mg"},{"bike_id":"bf232eb6-ff63-4ac8-9eb0-5e3d769ec9cd","system_id":"levelo_inurba_marseille","lat":43.31341,"lon":5.36708,"is_reserved":false,"is_disabled":false,"rental_uris":{"android":"levelo://app?vid=bf232eb6-ff63-4ac8-9eb0-5e3d769ec9cd","ios":"levelo://app?vid=bf232eb6-ff63-4ac8-9eb0-5e3d769ec9cd"},"vehicle_type_id":"4","last_reported":1737670091,"current_range_meters":35200,"station_id":"ce4bgr92rcd13ifvqc6g","pricing_plan_id":"cebpf4jnsgd1na2vs0mg"},{"bike_id":"1f9e9dd7-f28f-4cb0-aff0-74dd18ed4c57","system_id":"levelo_inurba_marseille","lat":43.23959,"lon":5.36642,"is_reserved":false,"is_disabled":false,"rental_uris":{"android":"levelo://app?vid=1f9e9dd7-f28f-4cb0-aff0-74dd18ed4c57","ios":"levelo://app?vid=1f9e9dd7-f28f-4cb0-aff0-74dd18ed4c57"},"vehicle_type_id":"4","last_reported":1737670091,"current_range_meters":10800,"station_id":"ce4bhi12rcd13ifvqfp0","pricing_plan_id":"cebpf4jnsgd1na2vs0mg"},{"bike_id":"c07daaab-5cd3-4726-b9af-478660773ad5","system_id":"levelo_inurba_marseille","lat":43.30642,"lon":5.40091,"is_reserved":false,"is_disabled":false,"rental_uris":{"android":"levelo://app?vid=c07daaab-5cd3-4726-b9af-478660773ad5","ios":"levelo://app?vid=c07daaab-5cd3-4726-b9af-478660773ad5"},"vehicle_type_id":"4","last_reported":1737670091,"current_range_meters":35600,"station_id":"ce4bh112rcd13ifvqda0","pricing_plan_id":"cebpf4jnsgd1na2vs0mg"},{"bike_id":"58e04e08-346e-461f-85c7-12eadb78d927","system_id":"levelo_inurba_marseille","lat":43.31332,"lon":5.39691,"is_reserved":false,"is_disabled":false,"rental_uris":{"android":"levelo://app?vid=58e04e08-346e-461f-85c7-12eadb78d927","ios":"levelo://app?vid=58e04e08-346e-461f-85c7-12eadb78d927"},"vehicle_type_id":"4","last_reported":1737670091,"current_range_meters":38800,"station_id":"ce4bgvp2rcd13ifvqcu0","pricing_plan_id":"cebpf4jnsgd1na2vs0mg"},{"bike_id":"536484ed-d967-41c5-8f88-22ed70378acb","system_id":"levelo_inurba_marseille","lat":43.275023,"lon":5.397542,"is_reserved":false,"is_disabled":false,"rental_uris":{"android":"levelo://app?vid=536484ed-d967-41c5-8f88-22ed70378acb","ios":"levelo://app?vid=536484ed-d967-41c5-8f88-22ed70378acb"},"vehicle_type_id":"4","last_reported":1737670091,"current_range_meters":7200,"station_id":"","pricing_plan_id":"cebpf4jnsgd1na2vs0mg"},{"bike_id":"e3f96e7a-23eb-45fe-9920-f6ed2a39d29c","system_id":"levelo_inurba_marseille","lat":43.31317,"lon":5.39711,"is_reserved":false,"is_disabled":false,"rental_uris":{"android":"levelo://app?vid=e3f96e7a-23eb-45fe-9920-f6ed2a39d29c","ios":"levelo://app?vid=e3f96e7a-23eb-45fe-9920-f6ed2a39d29c"},"vehicle_type_id":"4","last_reported":1737670091,"current_range_meters":29600,"station_id":"ce4bgvp2rcd13ifvqcu0","pricing_plan_id":"cebpf4jnsgd1na2vs0mg"},{"bike_id":"a48a1d35-3f13-45af-a2ef-e29bf30d3d17","system_id":"levelo_inurba_marseille","lat":43.30828,"lon":5.4351,"is_reserved":false,"is_disabled":false,"rental_uris":{"android":"levelo://app?vid=a48a1d35-3f13-45af-a2ef-e29bf30d3d17","ios":"levelo://app?vid=a48a1d35-3f13-45af-a2ef-e29bf30d3d17"},"vehicle_type_id":"4","last_reported":1737670091,"current_range_meters":9200,"station_id":"ce4bhph2rcd13ifvqheg","pricing_plan_id":"cebpf4jnsgd1na2vs0mg"},{"bike_id":"43554216-5b65-4b78-a805-db76eef8eee0","system_id":"levelo_inurba_marseille","lat":43.29042,"lon":5.38697,"is_reserved":false,"is_disabled":false,"rental_uris":{"android":"levelo://app?vid=43554216-5b65-4b78-a805-db76eef8eee0","ios":"levelo://app?vid=43554216-5b65-4b78-a805-db76eef8eee0"},"vehicle_type_id":"4","last_reported":1737670091,"current_range_meters":38800,"station_id":"ce4bh4p2rcd13ifvqe0g","pricing_plan_id":"cebpf4jnsgd1na2vs0mg"},{"bike_id":"050bd42b-0fa4-4ea3-8a02-3c1196960ece","system_id":"levelo_inurba_marseille","lat":43.31665,"lon":5.37418,"is_reserved":false,"is_disabled":false,"rental_uris":{"android":"levelo://app?vid=050bd42b-0fa4-4ea3-8a02-3c1196960ece","ios":"levelo://app?vid=050bd42b-0fa4-4ea3-8a02-3c1196960ece"},"vehicle_type_id":"4","last_reported":1737670091,"current_range_meters":26000,"station_id":"","pricing_plan_id":"cebpf4jnsgd1na2vs0mg"},{"bike_id":"3a59db95-3ba3-45d9-9d51-35faeb1e0f2b","system_id":"levelo_inurba_marseille","lat":43.25113,"lon":5.40324,"is_reserved":false,"is_disabled":false,"rental_uris":{"android":"levelo://app?vid=3a59db95-3ba3-45d9-9d51-35faeb1e0f2b","ios":"levelo://app?vid=3a59db95-3ba3-45d9-9d51-35faeb1e0f2b"},"vehicle_type_id":"4","last_reported":1737670091,"current_range_meters":28800,"station_id":"ce4bhlh2rcd13ifvqgig","pricing_plan_id":"cebpf4jnsgd1na2vs0mg"},{"bike_id":"0ad149d9-6e33-405d-aa3c-5e42e0c0ed7d","system_id":"levelo_inurba_marseille","lat":43.28145,"lon":5.42661,"is_reserved":false,"is_disabled":true,"rental_uris":{"android":"levelo://app?vid=0ad149d9-6e33-405d-aa3c-5e42e0c0ed7d","ios":"levelo://app?vid=0ad149d9-6e33-405d-aa3c-5e42e0c0ed7d"},"vehicle_type_id":"4","last_reported":1737670091,"current_range_meters":800,"station_id":"ce4bhnh2rcd13ifvqgug","pricing_plan_id":"cebpf4jnsgd1na2vs0mg"},{"bike_id":"2f4fa984-4c44-4974-abb6-1d4b539de1f0","system_id":"levelo_inurba_marseille","lat":43.28688,"lon":5.38661,"is_reserved":false,"is_disabled":true,"rental_uris":{"android":"levelo://app?vid=2f4fa984-4c44-4974-abb6-1d4b539de1f0","ios":"levelo://app?vid=2f4fa984-4c44-4974-abb6-1d4b539de1f0"},"vehicle_type_id":"4","last_reported":1737670091,"current_range_meters":35200,"station_id":"ce4bh492rcd13ifvqdug","pricing_plan_id":"cebpf4jnsgd1na2vs0mg"},{"bike_id":"347dd29e-9a9e-4a37-8ddd-6e2050aaff03","system_id":"levelo_inurba_marseille","lat":43.33745,"lon":5.39198,"is_reserved":false,"is_disabled":false,"rental_uris":{"android":"levelo://app?vid=347dd29e-9a9e-4a37-8ddd-6e2050aaff03","ios":"levelo://app?vid=347dd29e-9a9e-4a37-8ddd-6e2050aaff03"},"vehicle_type_id":"4","last_reported":1737670091,"current_range_meters":38800,"station_id":"ce4bhr92rcd13ifvqhsg","pricing_plan_id":"cebpf4jnsgd1na2vs0mg"},{"bike_id":"e171ea3d-34a7-4bed-9418-eb3dcd6fd5da","system_id":"levelo_inurba_marseille","lat":43.30161,"lon":5.38107,"is_reserved":false,"is_disabled":true,"rental_uris":{"android":"levelo://app?vid=e171ea3d-34a7-4bed-9418-eb3dcd6fd5da","ios":"levelo://app?vid=e171ea3d-34a7-4bed-9418-eb3dcd6fd5da"},"vehicle_type_id":"4","last_reported":1737670091,"current_range_meters":0,"station_id":"ce4bgjp2rcd13ifvqbh0","pricing_plan_id":"cebpf4jnsgd1na2vs0mg"},{"bike_id":"33bdb648-9d21-4884-aef8-a671389b4fbb","system_id":"levelo_inurba_marseille","lat":43.29267,"lon":5.36846,"is_reserved":false,"is_disabled":false,"rental_uris":{"android":"levelo://app?vid=33bdb648-9d21-4884-aef8-a671389b4fbb","ios":"levelo://app?vid=33bdb648-9d21-4884-aef8-a671389b4fbb"},"vehicle_type_id":"4","last_reported":1737670091,"current_range_meters":38800,"station_id":"ce4bhbp2rcd13ifvqesg","pricing_plan_id":"cebpf4jnsgd1na2vs0mg"},{"bike_id":"a71d48fb-0e6d-4ab5-aa6d-78375a31d0e8","system_id":"levelo_inurba_marseille","lat":43.28728,"lon":5.36084,"is_reserved":false,"is_disabled":false,"rental_uris":{"android":"levelo://app?vid=a71d48fb-0e6d-4ab5-aa6d-78375a31d0e8","ios":"levelo://app?vid=a71d48fb-0e6d-4ab5-aa6d-78375a31d0e8"},"vehicle_type_id":"4","last_reported":1737670091,"current_range_meters":16800,"station_id":"cki0cbj6b192h4jlfktg","pricing_plan_id":"cebpf4jnsgd1na2vs0mg"},{"bike_id":"0f29d1f4-f2e5-4e89-bd55-62e38b10dc53","system_id":"levelo_inurba_marseille","lat":43.28269,"lon":5.35082,"is_reserved":false,"is_disabled":false,"rental_uris":{"android":"levelo://app?vid=0f29d1f4-f2e5-4e89-bd55-62e38b10dc53","ios":"levelo://app?vid=0f29d1f4-f2e5-4e89-bd55-62e38b10dc53"},"vehicle_type_id":"4","last_reported":1737670091,"current_range_meters":9600,"station_id":"ce4bhbp2rcd13ifvqerg","pricing_plan_id":"cebpf4jnsgd1na2vs0mg"},{"bike_id":"7a3566c1-6a8b-4504-b323-59be69feed6d","system_id":"levelo_inurba_marseille","lat":43.31121,"lon":5.3777,"is_reserved":false,"is_disabled":false,"rental_uris":{"android":"levelo://app?vid=7a3566c1-6a8b-4504-b323-59be69feed6d","ios":"levelo://app?vid=7a3566c1-6a8b-4504-b323-59be69feed6d"},"vehicle_type_id":"4","last_reported":1737670091,"current_range_meters":14800,"station_id":"ce4bgt92rcd13ifvqcg0","pricing_plan_id":"cebpf4jnsgd1na2vs0mg"},{"bike_id":"90b8a1b1-ad54-458d-9362-f5197bbdf048","system_id":"levelo_inurba_marseille","lat":43.22932,"lon":5.35376,"is_reserved":false,"is_disabled":false,"rental_uris":{"android":"levelo://app?vid=90b8a1b1-ad54-458d-9362-f5197bbdf048","ios":"levelo://app?vid=90b8a1b1-ad54-458d-9362-f5197bbdf048"},"vehicle_type_id":"4","last_reported":1737670091,"current_range_meters":38800,"station_id":"cpo3532slgdg3j2ikp40","pricing_plan_id":"cebpf4jnsgd1na2vs0mg"},{"bike_id":"a75f5e55-2434-4577-aea6-4fb68eba1fa4","system_id":"levelo_inurba_marseille","lat":43.24664,"lon":5.38163,"is_reserved":false,"is_disabled":false,"rental_uris":{"android":"levelo://app?vid=a75f5e55-2434-4577-aea6-4fb68eba1fa4","ios":"levelo://app?vid=a75f5e55-2434-4577-aea6-4fb68eba1fa4"},"vehicle_type_id":"4","last_reported":1737670091,"current_range_meters":34800,"station_id":"ce4bhih2rcd13ifvqfr0","pricing_plan_id":"cebpf4jnsgd1na2vs0mg"},{"bike_id":"f8c6f012-709c-4d1f-9969-bb54cb3e2705","system_id":"levelo_inurba_marseille","lat":43.311226,"lon":5.377546,"is_reserved":false,"is_disabled":false,"rental_uris":{"android":"levelo://app?vid=f8c6f012-709c-4d1f-9969-bb54cb3e2705","ios":"levelo://app?vid=f8c6f012-709c-4d1f-9969-bb54cb3e2705"},"vehicle_type_id":"4","last_reported":1737670091,"current_range_meters":33600,"station_id":"ce4bgt92rcd13ifvqcg0","pricing_plan_id":"cebpf4jnsgd1na2vs0mg"},{"bike_id":"7293a0c3-ee6b-42db-acab-0bf077a9eef9","system_id":"levelo_inurba_marseille","lat":43.33609,"lon":5.41032,"is_reserved":false,"is_disabled":false,"rental_uris":{"android":"levelo://app?vid=7293a0c3-ee6b-42db-acab-0bf077a9eef9","ios":"levelo://app?vid=7293a0c3-ee6b-42db-acab-0bf077a9eef9"},"vehicle_type_id":"4","last_reported":1737670091,"current_range_meters":21600,"station_id":"ce4bhqh2rcd13ifvqhmg","pricing_plan_id":"cebpf4jnsgd1na2vs0mg"},{"bike_id":"8c8cb352-8c74-4cec-bcc2-7d4dacf23e9e","system_id":"levelo_inurba_marseille","lat":43.28616,"lon":5.37098,"is_reserved":false,"is_disabled":false,"rental_uris":{"android":"levelo://app?vid=8c8cb352-8c74-4cec-bcc2-7d4dacf23e9e","ios":"levelo://app?vid=8c8cb352-8c74-4cec-bcc2-7d4dacf23e9e"},"vehicle_type_id":"4","last_reported":1737670091,"current_range_meters":30400,"station_id":"ce4bht12rcd13ifvqi60","pricing_plan_id":"cebpf4jnsgd1na2vs0mg"},{"bike_id":"62069f6c-3dd9-4b79-9f44-941214b1a57f","system_id":"levelo_inurba_marseille","lat":43.299442,"lon":5.36539,"is_reserved":false,"is_disabled":false,"rental_uris":{"android":"levelo://app?vid=62069f6c-3dd9-4b79-9f44-941214b1a57f","ios":"levelo://app?vid=62069f6c-3dd9-4b79-9f44-941214b1a57f"},"vehicle_type_id":"4","last_reported":1737670091,"current_range_meters":38800,"station_id":"ce4bgm92rcd13ifvqbr0","pricing_plan_id":"cebpf4jnsgd1na2vs0mg"},{"bike_id":"1c521484-0b29-41a9-9bd2-15ebb17b6cb5","system_id":"levelo_inurba_marseille","lat":43.27619,"lon":5.36131,"is_reserved":false,"is_disabled":false,"rental_uris":{"android":"levelo://app?vid=1c521484-0b29-41a9-9bd2-15ebb17b6cb5","ios":"levelo://app?vid=1c521484-0b29-41a9-9bd2-15ebb17b6cb5"},"vehicle_type_id":"4","last_reported":1737670091,"current_range_meters":38800,"station_id":"ce4bgj92rcd13ifvqbe0","pricing_plan_id":"cebpf4jnsgd1na2vs0mg"},{"bike_id":"ce90fea6-ff2a-4d0b-bd4f-45ced0acf4c0","system_id":"levelo_inurba_marseille","lat":43.32396,"lon":5.36603,"is_reserved":false,"is_disabled":false,"rental_uris":{"android":"levelo://app?vid=ce90fea6-ff2a-4d0b-bd4f-45ced0acf4c0","ios":"levelo://app?vid=ce90fea6-ff2a-4d0b-bd4f-45ced0acf4c0"},"vehicle_type_id":"4","last_reported":1737670091,"current_range_meters":9600,"station_id":"ce4bhs12rcd13ifvqhvg","pricing_plan_id":"cebpf4jnsgd1na2vs0mg"},{"bike_id":"ab13439f-1c4b-4b83-ac72-9f4e6d1f64cb","system_id":"levelo_inurba_marseille","lat":43.31244,"lon":5.379738,"is_reserved":false,"is_disabled":true,"rental_uris":{"android":"levelo://app?vid=ab13439f-1c4b-4b83-ac72-9f4e6d1f64cb","ios":"levelo://app?vid=ab13439f-1c4b-4b83-ac72-9f4e6d1f64cb"},"vehicle_type_id":"4","last_reported":1737670091,"current_range_meters":9200,"station_id":"","pricing_plan_id":"cebpf4jnsgd1na2vs0mg"},{"bike_id":"02394dc5-85af-47df-a8e1-31c154c9e2cc","system_id":"levelo_inurba_marseille","lat":43.231902,"lon":5.399795,"is_reserved":false,"is_disabled":false,"rental_uris":{"android":"levelo://app?vid=02394dc5-85af-47df-a8e1-31c154c9e2cc","ios":"levelo://app?vid=02394dc5-85af-47df-a8e1-31c154c9e2cc"},"vehicle_type_id":"4","last_reported":1737670091,"current_range_meters":36400,"station_id":"ce4bhn12rcd13ifvqgqg","pricing_plan_id":"cebpf4jnsgd1na2vs0mg"},{"bike_id":"48555a19-9927-46f2-ab55-dddb364d57a8","system_id":"levelo_inurba_marseille","lat":43.28732,"lon":5.36082,"is_reserved":false,"is_disabled":false,"rental_uris":{"android":"levelo://app?vid=48555a19-9927-46f2-ab55-dddb364d57a8","ios":"levelo://app?vid=48555a19-9927-46f2-ab55-dddb364d57a8"},"vehicle_type_id":"4","last_reported":1737670091,"current_range_meters":34000,"station_id":"cki0cbj6b192h4jlfktg","pricing_plan_id":"cebpf4jnsgd1na2vs0mg"},{"bike_id":"f727cadd-b012-439d-9f69-5c90e77b0085","system_id":"levelo_inurba_marseille","lat":43.31765,"lon":5.39011,"is_reserved":false,"is_disabled":false,"rental_uris":{"android":"levelo://app?vid=f727cadd-b012-439d-9f69-5c90e77b0085","ios":"levelo://app?vid=f727cadd-b012-439d-9f69-5c90e77b0085"},"vehicle_type_id":"4","last_reported":1737670091,"current_range_meters":10800,"station_id":"ce4bhqp2rcd13ifvqhng","pricing_plan_id":"cebpf4jnsgd1na2vs0mg"},{"bike_id":"f229ba1c-4045-410e-ba3a-0fbe3831e58d","system_id":"levelo_inurba_marseille","lat":43.29061,"lon":5.37159,"is_reserved":false,"is_disabled":false,"rental_uris":{"android":"levelo://app?vid=f229ba1c-4045-410e-ba3a-0fbe3831e58d","ios":"levelo://app?vid=f229ba1c-4045-410e-ba3a-0fbe3831e58d"},"vehicle_type_id":"4","last_reported":1737670091,"current_range_meters":24800,"station_id":"ce4bh5p2rcd13ifvqe4g","pricing_plan_id":"cebpf4jnsgd1na2vs0mg"},{"bike_id":"34a64207-f109-41b2-b0f3-d6654aa633cb","system_id":"levelo_inurba_marseille","lat":43.29521,"lon":5.38529,"is_reserved":false,"is_disabled":false,"rental_uris":{"android":"levelo://app?vid=34a64207-f109-41b2-b0f3-d6654aa633cb","ios":"levelo://app?vid=34a64207-f109-41b2-b0f3-d6654aa633cb"},"vehicle_type_id":"4","last_reported":1737670091,"current_range_meters":17200,"station_id":"ce4bgih2rcd13ifvqba0","pricing_plan_id":"cebpf4jnsgd1na2vs0mg"},{"bike_id":"78b03264-0c2d-45b5-9b0a-cf7cc454c0c6","system_id":"levelo_inurba_marseille","lat":43.3249,"lon":5.36568,"is_reserved":false,"is_disabled":false,"rental_uris":{"android":"levelo://app?vid=78b03264-0c2d-45b5-9b0a-cf7cc454c0c6","ios":"levelo://app?vid=78b03264-0c2d-45b5-9b0a-cf7cc454c0c6"},"vehicle_type_id":"4","last_reported":1737670091,"current_range_meters":3600,"station_id":"ce4bhs12rcd13ifvqhvg","pricing_plan_id":"cebpf4jnsgd1na2vs0mg"},{"bike_id":"852c4b2c-ff0b-4349-b1ad-8f4566913b6c","system_id":"levelo_inurba_marseille","lat":43.29717,"lon":5.37688,"is_reserved":false,"is_disabled":true,"rental_uris":{"android":"levelo://app?vid=852c4b2c-ff0b-4349-b1ad-8f4566913b6c","ios":"levelo://app?vid=852c4b2c-ff0b-4349-b1ad-8f4566913b6c"},"vehicle_type_id":"4","last_reported":1737670091,"current_range_meters":0,"station_id":"ce4bgkh2rcd13ifvqbl0","pricing_plan_id":"cebpf4jnsgd1na2vs0mg"},{"bike_id":"78fdab03-275f-4f4e-89ae-49e9a29fa9c1","system_id":"levelo_inurba_marseille","lat":43.24176,"lon":5.39723,"is_reserved":false,"is_disabled":false,"rental_uris":{"android":"levelo://app?vid=78fdab03-275f-4f4e-89ae-49e9a29fa9c1","ios":"levelo://app?vid=78fdab03-275f-4f4e-89ae-49e9a29fa9c1"},"vehicle_type_id":"4","last_reported":1737670091,"current_range_meters":12800,"station_id":"ce4bhn12rcd13ifvqgpg","pricing_plan_id":"cebpf4jnsgd1na2vs0mg"},{"bike_id":"b8550e7f-e67a-426d-971e-735c0b3eceb3","system_id":"levelo_inurba_marseille","lat":43.32287,"lon":5.38278,"is_reserved":false,"is_disabled":false,"rental_uris":{"android":"levelo://app?vid=b8550e7f-e67a-426d-971e-735c0b3eceb3","ios":"levelo://app?vid=b8550e7f-e67a-426d-971e-735c0b3eceb3"},"vehicle_type_id":"4","last_reported":1737670091,"current_range_meters":33600,"station_id":"ce4bhr12rcd13ifvqhqg","pricing_plan_id":"cebpf4jnsgd1na2vs0mg"},{"bike_id":"1e1afe17-2cd3-47e7-be31-b7bd53e50a97","system_id":"levelo_inurba_marseille","lat":43.28718,"lon":5.3793,"is_reserved":false,"is_disabled":false,"rental_uris":{"android":"levelo://app?vid=1e1afe17-2cd3-47e7-be31-b7bd53e50a97","ios":"levelo://app?vid=1e1afe17-2cd3-47e7-be31-b7bd53e50a97"},"vehicle_type_id":"4","last_reported":1737670091,"current_range_meters":38400,"station_id":"ce4bh9p2rcd13ifvqec0","pricing_plan_id":"cebpf4jnsgd1na2vs0mg"},{"bike_id":"a6589423-f81d-43db-8547-4d93d0a4d5b1","system_id":"levelo_inurba_marseille","lat":43.3092,"lon":5.40197,"is_reserved":false,"is_disabled":false,"rental_uris":{"android":"levelo://app?vid=a6589423-f81d-43db-8547-4d93d0a4d5b1","ios":"levelo://app?vid=a6589423-f81d-43db-8547-4d93d0a4d5b1"},"vehicle_type_id":"4","last_reported":1737670091,"current_range_meters":38400,"station_id":"ce4bgvp2rcd13ifvqct0","pricing_plan_id":"cebpf4jnsgd1na2vs0mg"},{"bike_id":"d9116d70-9fe4-4bfa-813f-a05c0ef23908","system_id":"levelo_inurba_marseille","lat":43.28575,"lon":5.39515,"is_reserved":false,"is_disabled":false,"rental_uris":{"android":"levelo://app?vid=d9116d70-9fe4-4bfa-813f-a05c0ef23908","ios":"levelo://app?vid=d9116d70-9fe4-4bfa-813f-a05c0ef23908"},"vehicle_type_id":"4","last_reported":1737670091,"current_range_meters":38800,"station_id":"ce4bh292rcd13ifvqdg0","pricing_plan_id":"cebpf4jnsgd1na2vs0mg"},{"bike_id":"ce8f1cb6-0493-4046-a4eb-2ab4d191046d","system_id":"levelo_inurba_marseille","lat":43.32361,"lon":5.38888,"is_reserved":false,"is_disabled":false,"rental_uris":{"android":"levelo://app?vid=ce8f1cb6-0493-4046-a4eb-2ab4d191046d","ios":"levelo://app?vid=ce8f1cb6-0493-4046-a4eb-2ab4d191046d"},"vehicle_type_id":"4","last_reported":1737670091,"current_range_meters":38800,"station_id":"ce4bhqp2rcd13ifvqhog","pricing_plan_id":"cebpf4jnsgd1na2vs0mg"},{"bike_id":"ee89b6e2-23cc-4264-9831-ca60870e078c","system_id":"levelo_inurba_marseille","lat":43.27995,"lon":5.40014,"is_reserved":false,"is_disabled":false,"rental_uris":{"android":"levelo://app?vid=ee89b6e2-23cc-4264-9831-ca60870e078c","ios":"levelo://app?vid=ee89b6e2-23cc-4264-9831-ca60870e078c"},"vehicle_type_id":"4","last_reported":1737670091,"current_range_meters":38800,"station_id":"ce4bho92rcd13ifvqh4g","pricing_plan_id":"cebpf4jnsgd1na2vs0mg"},{"bike_id":"d90fa84e-7c68-41a7-ad7b-dfeefc6268f3","system_id":"levelo_inurba_marseille","lat":43.30297,"lon":5.39221,"is_reserved":false,"is_disabled":true,"rental_uris":{"android":"levelo://app?vid=d90fa84e-7c68-41a7-ad7b-dfeefc6268f3","ios":"levelo://app?vid=d90fa84e-7c68-41a7-ad7b-dfeefc6268f3"},"vehicle_type_id":"4","last_reported":1737670091,"current_range_meters":400,"station_id":"ce4bgkh2rcd13ifvqbk0","pricing_plan_id":"cebpf4jnsgd1na2vs0mg"},{"bike_id":"91a93a6a-90c2-4b55-8bfa-a5975747e452","system_id":"levelo_inurba_marseille","lat":43.231846,"lon":5.399794,"is_reserved":false,"is_disabled":false,"rental_uris":{"android":"levelo://app?vid=91a93a6a-90c2-4b55-8bfa-a5975747e452","ios":"levelo://app?vid=91a93a6a-90c2-4b55-8bfa-a5975747e452"},"vehicle_type_id":"4","last_reported":1737670091,"current_range_meters":25200,"station_id":"ce4bhn12rcd13ifvqgqg","pricing_plan_id":"cebpf4jnsgd1na2vs0mg"},{"bike_id":"6032d31a-4e3a-42c5-acd4-3d1bb747d316","system_id":"levelo_inurba_marseille","lat":43.29595,"lon":5.38081,"is_reserved":false,"is_disabled":false,"rental_uris":{"android":"levelo://app?vid=6032d31a-4e3a-42c5-acd4-3d1bb747d316","ios":"levelo://app?vid=6032d31a-4e3a-42c5-acd4-3d1bb747d316"},"vehicle_type_id":"4","last_reported":1737670091,"current_range_meters":18800,"station_id":"ce4bgl12rcd13ifvqbo0","pricing_plan_id":"cebpf4jnsgd1na2vs0mg"},{"bike_id":"1cf55402-87c5-435d-85af-2c6c0e9ef152","system_id":"levelo_inurba_marseille","lat":43.32468,"lon":5.36578,"is_reserved":false,"is_disabled":false,"rental_uris":{"android":"levelo://app?vid=1cf55402-87c5-435d-85af-2c6c0e9ef152","ios":"levelo://app?vid=1cf55402-87c5-435d-85af-2c6c0e9ef152"},"vehicle_type_id":"4","last_reported":1737670091,"current_range_meters":6800,"station_id":"ce4bhs12rcd13ifvqhvg","pricing_plan_id":"cebpf4jnsgd1na2vs0mg"},{"bike_id":"85c4b304-0a15-4fc1-b75d-cfc16b5afe60","system_id":"levelo_inurba_marseille","lat":43.22932,"lon":5.35372,"is_reserved":false,"is_disabled":false,"rental_uris":{"android":"levelo://app?vid=85c4b304-0a15-4fc1-b75d-cfc16b5afe60","ios":"levelo://app?vid=85c4b304-0a15-4fc1-b75d-cfc16b5afe60"},"vehicle_type_id":"4","last_reported":1737670091,"current_range_meters":38800,"station_id":"cpo3532slgdg3j2ikp40","pricing_plan_id":"cebpf4jnsgd1na2vs0mg"},{"bike_id":"cd23e38c-f391-4edb-bf49-24eaaa5ac3a4","system_id":"levelo_inurba_marseille","lat":43.28487,"lon":5.3842,"is_reserved":false,"is_disabled":false,"rental_uris":{"android":"levelo://app?vid=cd23e38c-f391-4edb-bf49-24eaaa5ac3a4","ios":"levelo://app?vid=cd23e38c-f391-4edb-bf49-24eaaa5ac3a4"},"vehicle_type_id":"4","last_reported":1737670091,"current_range_meters":24000,"station_id":"ce4bh512rcd13ifvqe3g","pricing_plan_id":"cebpf4jnsgd1na2vs0mg"},{"bike_id":"f7f20ea8-ac89-40b3-bd17-c73f31722701","system_id":"levelo_inurba_marseille","lat":43.29899,"lon":5.43701,"is_reserved":false,"is_disabled":false,"rental_uris":{"android":"levelo://app?vid=f7f20ea8-ac89-40b3-bd17-c73f31722701","ios":"levelo://app?vid=f7f20ea8-ac89-40b3-bd17-c73f31722701"},"vehicle_type_id":"4","last_reported":1737670091,"current_range_meters":38800,"station_id":"","pricing_plan_id":"cebpf4jnsgd1na2vs0mg"},{"bike_id":"0e553e26-2ebb-4e33-ac27-ae31df0f1b3c","system_id":"levelo_inurba_marseille","lat":43.29779,"lon":5.39332,"is_reserved":false,"is_disabled":false,"rental_uris":{"android":"levelo://app?vid=0e553e26-2ebb-4e33-ac27-ae31df0f1b3c","ios":"levelo://app?vid=0e553e26-2ebb-4e33-ac27-ae31df0f1b3c"},"vehicle_type_id":"4","last_reported":1737670091,"current_range_meters":38800,"station_id":"chh1huq6cuj3fo74tm60","pricing_plan_id":"cebpf4jnsgd1na2vs0mg"},{"bike_id":"9accdf80-761a-4bfd-99f3-9b1a99e34469","system_id":"levelo_inurba_marseille","lat":43.30655,"lon":5.40095,"is_reserved":false,"is_disabled":false,"rental_uris":{"android":"levelo://app?vid=9accdf80-761a-4bfd-99f3-9b1a99e34469","ios":"levelo://app?vid=9accdf80-761a-4bfd-99f3-9b1a99e34469"},"vehicle_type_id":"4","last_reported":1737670091,"current_range_meters":17600,"station_id":"ce4bh112rcd13ifvqda0","pricing_plan_id":"cebpf4jnsgd1na2vs0mg"},{"bike_id":"c537f252-0890-4a63-9d2d-85a625140a90","system_id":"levelo_inurba_marseille","lat":43.2954,"lon":5.38547,"is_reserved":false,"is_disabled":false,"rental_uris":{"android":"levelo://app?vid=c537f252-0890-4a63-9d2d-85a625140a90","ios":"levelo://app?vid=c537f252-0890-4a63-9d2d-85a625140a90"},"vehicle_type_id":"4","last_reported":1737670091,"current_range_meters":10800,"station_id":"ce4bgih2rcd13ifvqba0","pricing_plan_id":"cebpf4jnsgd1na2vs0mg"},{"bike_id":"57ce499e-d4f7-4b47-be4a-ba8113d200a0","system_id":"levelo_inurba_marseille","lat":43.27996,"lon":5.41651,"is_reserved":false,"is_disabled":false,"rental_uris":{"android":"levelo://app?vid=57ce499e-d4f7-4b47-be4a-ba8113d200a0","ios":"levelo://app?vid=57ce499e-d4f7-4b47-be4a-ba8113d200a0"},"vehicle_type_id":"4","last_reported":1737670091,"current_range_meters":37600,"station_id":"ce4bho12rcd13ifvqh1g","pricing_plan_id":"cebpf4jnsgd1na2vs0mg"},{"bike_id":"599afb41-b8cd-484a-8674-cf40b4cd7f0e","system_id":"levelo_inurba_marseille","lat":43.27996,"lon":5.4003,"is_reserved":false,"is_disabled":false,"rental_uris":{"android":"levelo://app?vid=599afb41-b8cd-484a-8674-cf40b4cd7f0e","ios":"levelo://app?vid=599afb41-b8cd-484a-8674-cf40b4cd7f0e"},"vehicle_type_id":"4","last_reported":1737670091,"current_range_meters":38800,"station_id":"ce4bho92rcd13ifvqh4g","pricing_plan_id":"cebpf4jnsgd1na2vs0mg"},{"bike_id":"3722d080-34a9-4c77-92b9-d1cdfbdee58b","system_id":"levelo_inurba_marseille","lat":43.29203,"lon":5.35805,"is_reserved":false,"is_disabled":false,"rental_uris":{"android":"levelo://app?vid=3722d080-34a9-4c77-92b9-d1cdfbdee58b","ios":"levelo://app?vid=3722d080-34a9-4c77-92b9-d1cdfbdee58b"},"vehicle_type_id":"4","last_reported":1737670091,"current_range_meters":38800,"station_id":"ce4bhb12rcd13ifvqel0","pricing_plan_id":"cebpf4jnsgd1na2vs0mg"},{"bike_id":"2a9b189e-7a98-44c5-a378-7702209d6cd8","system_id":"levelo_inurba_marseille","lat":43.25711,"lon":5.41098,"is_reserved":false,"is_disabled":false,"rental_uris":{"android":"levelo://app?vid=2a9b189e-7a98-44c5-a378-7702209d6cd8","ios":"levelo://app?vid=2a9b189e-7a98-44c5-a378-7702209d6cd8"},"vehicle_type_id":"4","last_reported":1737670091,"current_range_meters":28400,"station_id":"ce4bhkp2rcd13ifvqgd0","pricing_plan_id":"cebpf4jnsgd1na2vs0mg"},{"bike_id":"b85a6b72-aac2-4a2b-98d9-b6bbd2bc9c99","system_id":"levelo_inurba_marseille","lat":43.30434,"lon":5.39745,"is_reserved":false,"is_disabled":false,"rental_uris":{"android":"levelo://app?vid=b85a6b72-aac2-4a2b-98d9-b6bbd2bc9c99","ios":"levelo://app?vid=b85a6b72-aac2-4a2b-98d9-b6bbd2bc9c99"},"vehicle_type_id":"4","last_reported":1737670091,"current_range_meters":17200,"station_id":"ce4bh092rcd13ifvqd20","pricing_plan_id":"cebpf4jnsgd1na2vs0mg"},{"bike_id":"5313c709-9144-4842-8043-5a78449adbeb","system_id":"levelo_inurba_marseille","lat":43.3022,"lon":5.39469,"is_reserved":false,"is_disabled":false,"rental_uris":{"android":"levelo://app?vid=5313c709-9144-4842-8043-5a78449adbeb","ios":"levelo://app?vid=5313c709-9144-4842-8043-5a78449adbeb"},"vehicle_type_id":"4","last_reported":1737670091,"current_range_meters":37600,"station_id":"ce4bh0p2rcd13ifvqd70","pricing_plan_id":"cebpf4jnsgd1na2vs0mg"},{"bike_id":"7a55f28a-5a5b-4ca4-9825-dee123c17d08","system_id":"levelo_inurba_marseille","lat":43.32087,"lon":5.36812,"is_reserved":false,"is_disabled":false,"rental_uris":{"android":"levelo://app?vid=7a55f28a-5a5b-4ca4-9825-dee123c17d08","ios":"levelo://app?vid=7a55f28a-5a5b-4ca4-9825-dee123c17d08"},"vehicle_type_id":"4","last_reported":1737670091,"current_range_meters":38400,"station_id":"ce4bhrh2rcd13ifvqhug","pricing_plan_id":"cebpf4jnsgd1na2vs0mg"},{"bike_id":"89a10f52-54c0-4dd3-bbe4-12fe195fccb6","system_id":"levelo_inurba_marseille","lat":43.23966,"lon":5.36629,"is_reserved":false,"is_disabled":false,"rental_uris":{"android":"levelo://app?vid=89a10f52-54c0-4dd3-bbe4-12fe195fccb6","ios":"levelo://app?vid=89a10f52-54c0-4dd3-bbe4-12fe195fccb6"},"vehicle_type_id":"4","last_reported":1737670091,"current_range_meters":14800,"station_id":"ce4bhi12rcd13ifvqfp0","pricing_plan_id":"cebpf4jnsgd1na2vs0mg"},{"bike_id":"95eb5782-f129-4048-839b-b75fb484b557","system_id":"levelo_inurba_marseille","lat":43.25112,"lon":5.40321,"is_reserved":false,"is_disabled":false,"rental_uris":{"android":"levelo://app?vid=95eb5782-f129-4048-839b-b75fb484b557","ios":"levelo://app?vid=95eb5782-f129-4048-839b-b75fb484b557"},"vehicle_type_id":"4","last_reported":1737670091,"current_range_meters":36000,"station_id":"ce4bhlh2rcd13ifvqgig","pricing_plan_id":"cebpf4jnsgd1na2vs0mg"},{"bike_id":"a6889195-fae0-432b-8461-f68180197b6f","system_id":"levelo_inurba_marseille","lat":43.2885,"lon":5.39316,"is_reserved":false,"is_disabled":false,"rental_uris":{"android":"levelo://app?vid=a6889195-fae0-432b-8461-f68180197b6f","ios":"levelo://app?vid=a6889195-fae0-432b-8461-f68180197b6f"},"vehicle_type_id":"4","last_reported":1737670091,"current_range_meters":38000,"station_id":"ce4bh2p2rcd13ifvqdi0","pricing_plan_id":"cebpf4jnsgd1na2vs0mg"},{"bike_id":"553fb1e9-2cc4-4af4-b989-6ce7ea1c8a84","system_id":"levelo_inurba_marseille","lat":43.2847,"lon":5.35858,"is_reserved":false,"is_disabled":false,"rental_uris":{"android":"levelo://app?vid=553fb1e9-2cc4-4af4-b989-6ce7ea1c8a84","ios":"levelo://app?vid=553fb1e9-2cc4-4af4-b989-6ce7ea1c8a84"},"vehicle_type_id":"4","last_reported":1737670091,"current_range_meters":38800,"station_id":"ce4bhah2rcd13ifvqei0","pricing_plan_id":"cebpf4jnsgd1na2vs0mg"},{"bike_id":"7ae57d4a-987c-4a94-bf67-7089b41c8d83","system_id":"levelo_inurba_marseille","lat":43.27609,"lon":5.36108,"is_reserved":false,"is_disabled":false,"rental_uris":{"android":"levelo://app?vid=7ae57d4a-987c-4a94-bf67-7089b41c8d83","ios":"levelo://app?vid=7ae57d4a-987c-4a94-bf67-7089b41c8d83"},"vehicle_type_id":"4","last_reported":1737670091,"current_range_meters":38800,"station_id":"ce4bgj92rcd13ifvqbe0","pricing_plan_id":"cebpf4jnsgd1na2vs0mg"},{"bike_id":"30179832-5a65-44ae-a5a5-1af37f487ed1","system_id":"levelo_inurba_marseille","lat":43.315057,"lon":5.372918,"is_reserved":false,"is_disabled":false,"rental_uris":{"android":"levelo://app?vid=30179832-5a65-44ae-a5a5-1af37f487ed1","ios":"levelo://app?vid=30179832-5a65-44ae-a5a5-1af37f487ed1"},"vehicle_type_id":"4","last_reported":1737670091,"current_range_meters":38800,"station_id":"ce4bgt12rcd13ifvqcd0","pricing_plan_id":"cebpf4jnsgd1na2vs0mg"},{"bike_id":"acc9e968-42f2-443f-bb58-cd32856c66f2","system_id":"levelo_inurba_marseille","lat":43.28423,"lon":5.37499,"is_reserved":false,"is_disabled":false,"rental_uris":{"android":"levelo://app?vid=acc9e968-42f2-443f-bb58-cd32856c66f2","ios":"levelo://app?vid=acc9e968-42f2-443f-bb58-cd32856c66f2"},"vehicle_type_id":"4","last_reported":1737670091,"current_range_meters":28000,"station_id":"ce4bh412rcd13ifvqds0","pricing_plan_id":"cebpf4jnsgd1na2vs0mg"},{"bike_id":"f1b19ba9-1aee-4f83-a0b6-487206541ea1","system_id":"levelo_inurba_marseille","lat":43.30946,"lon":5.39038,"is_reserved":false,"is_disabled":false,"rental_uris":{"android":"levelo://app?vid=f1b19ba9-1aee-4f83-a0b6-487206541ea1","ios":"levelo://app?vid=f1b19ba9-1aee-4f83-a0b6-487206541ea1"},"vehicle_type_id":"4","last_reported":1737670091,"current_range_meters":38800,"station_id":"ce4bgup2rcd13ifvqco0","pricing_plan_id":"cebpf4jnsgd1na2vs0mg"},{"bike_id":"df8b68b0-a61c-401e-bc1c-616ed6cec7e0","system_id":"levelo_inurba_marseille","lat":43.26949,"lon":5.38639,"is_reserved":false,"is_disabled":true,"rental_uris":{"android":"levelo://app?vid=df8b68b0-a61c-401e-bc1c-616ed6cec7e0","ios":"levelo://app?vid=df8b68b0-a61c-401e-bc1c-616ed6cec7e0"},"vehicle_type_id":"4","last_reported":1737670091,"current_range_meters":38800,"station_id":"ce4bhh92rcd13ifvqfh0","pricing_plan_id":"cebpf4jnsgd1na2vs0mg"},{"bike_id":"35614ed7-a0df-4792-bca2-a1978fcd9fab","system_id":"levelo_inurba_marseille","lat":43.30813,"lon":5.43513,"is_reserved":false,"is_disabled":false,"rental_uris":{"android":"levelo://app?vid=35614ed7-a0df-4792-bca2-a1978fcd9fab","ios":"levelo://app?vid=35614ed7-a0df-4792-bca2-a1978fcd9fab"},"vehicle_type_id":"4","last_reported":1737670091,"current_range_meters":39200,"station_id":"ce4bhph2rcd13ifvqheg","pricing_plan_id":"cebpf4jnsgd1na2vs0mg"},{"bike_id":"59330309-df9a-48c4-9235-796da7a2782d","system_id":"levelo_inurba_marseille","lat":43.30817,"lon":5.43516,"is_reserved":false,"is_disabled":false,"rental_uris":{"android":"levelo://app?vid=59330309-df9a-48c4-9235-796da7a2782d","ios":"levelo://app?vid=59330309-df9a-48c4-9235-796da7a2782d"},"vehicle_type_id":"4","last_reported":1737670091,"current_range_meters":38800,"station_id":"ce4bhph2rcd13ifvqheg","pricing_plan_id":"cebpf4jnsgd1na2vs0mg"},{"bike_id":"990d1058-776b-4b2d-8bec-7e949b9a7cbb","system_id":"levelo_inurba_marseille","lat":43.30639,"lon":5.4009,"is_reserved":false,"is_disabled":false,"rental_uris":{"android":"levelo://app?vid=990d1058-776b-4b2d-8bec-7e949b9a7cbb","ios":"levelo://app?vid=990d1058-776b-4b2d-8bec-7e949b9a7cbb"},"vehicle_type_id":"4","last_reported":1737670091,"current_range_meters":8000,"station_id":"ce4bh112rcd13ifvqda0","pricing_plan_id":"cebpf4jnsgd1na2vs0mg"},{"bike_id":"8661b5e3-5c50-41b5-9990-f6cea7332865","system_id":"levelo_inurba_marseille","lat":43.29183,"lon":5.35775,"is_reserved":false,"is_disabled":false,"rental_uris":{"android":"levelo://app?vid=8661b5e3-5c50-41b5-9990-f6cea7332865","ios":"levelo://app?vid=8661b5e3-5c50-41b5-9990-f6cea7332865"},"vehicle_type_id":"4","last_reported":1737670091,"current_range_meters":38400,"station_id":"ce4bhb12rcd13ifvqel0","pricing_plan_id":"cebpf4jnsgd1na2vs0mg"},{"bike_id":"16af0a60-a75d-4ed1-bd4c-af3594ac1168","system_id":"levelo_inurba_marseille","lat":43.30882,"lon":5.37228,"is_reserved":false,"is_disabled":false,"rental_uris":{"android":"levelo://app?vid=16af0a60-a75d-4ed1-bd4c-af3594ac1168","ios":"levelo://app?vid=16af0a60-a75d-4ed1-bd4c-af3594ac1168"},"vehicle_type_id":"4","last_reported":1737670091,"current_range_meters":23200,"station_id":"ce4bguh2rcd13ifvqckg","pricing_plan_id":"cebpf4jnsgd1na2vs0mg"},{"bike_id":"5e0169dd-cfb6-4345-b9e5-59ab64e75e4d","system_id":"levelo_inurba_marseille","lat":43.32274,"lon":5.38275,"is_reserved":false,"is_disabled":false,"rental_uris":{"android":"levelo://app?vid=5e0169dd-cfb6-4345-b9e5-59ab64e75e4d","ios":"levelo://app?vid=5e0169dd-cfb6-4345-b9e5-59ab64e75e4d"},"vehicle_type_id":"4","last_reported":1737670091,"current_range_meters":38800,"station_id":"ce4bhr12rcd13ifvqhqg","pricing_plan_id":"cebpf4jnsgd1na2vs0mg"},{"bike_id":"bf49bae2-9c26-4641-9558-b17e1f3df312","system_id":"levelo_inurba_marseille","lat":43.23176,"lon":5.39993,"is_reserved":false,"is_disabled":false,"rental_uris":{"android":"levelo://app?vid=bf49bae2-9c26-4641-9558-b17e1f3df312","ios":"levelo://app?vid=bf49bae2-9c26-4641-9558-b17e1f3df312"},"vehicle_type_id":"4","last_reported":1737670091,"current_range_meters":38800,"station_id":"ce4bhn12rcd13ifvqgqg","pricing_plan_id":"cebpf4jnsgd1na2vs0mg"},{"bike_id":"96bd9e64-ec79-445f-af92-f8aeeeeb8575","system_id":"levelo_inurba_marseille","lat":43.28395,"lon":5.37548,"is_reserved":false,"is_disabled":false,"rental_uris":{"android":"levelo://app?vid=96bd9e64-ec79-445f-af92-f8aeeeeb8575","ios":"levelo://app?vid=96bd9e64-ec79-445f-af92-f8aeeeeb8575"},"vehicle_type_id":"4","last_reported":1737670091,"current_range_meters":9600,"station_id":"ce4bh412rcd13ifvqds0","pricing_plan_id":"cebpf4jnsgd1na2vs0mg"},{"bike_id":"70009611-9695-4789-a3b7-f2e32344818a","system_id":"levelo_inurba_marseille","lat":43.2954,"lon":5.38551,"is_reserved":false,"is_disabled":false,"rental_uris":{"android":"levelo://app?vid=70009611-9695-4789-a3b7-f2e32344818a","ios":"levelo://app?vid=70009611-9695-4789-a3b7-f2e32344818a"},"vehicle_type_id":"4","last_reported":1737670091,"current_range_meters":38400,"station_id":"ce4bgih2rcd13ifvqba0","pricing_plan_id":"cebpf4jnsgd1na2vs0mg"},{"bike_id":"eb3ca7ae-a1ea-4fc7-908d-1a734718f0d6","system_id":"levelo_inurba_marseille","lat":43.2841,"lon":5.37502,"is_reserved":false,"is_disabled":false,"rental_uris":{"android":"levelo://app?vid=eb3ca7ae-a1ea-4fc7-908d-1a734718f0d6","ios":"levelo://app?vid=eb3ca7ae-a1ea-4fc7-908d-1a734718f0d6"},"vehicle_type_id":"4","last_reported":1737670091,"current_range_meters":10000,"station_id":"ce4bh412rcd13ifvqds0","pricing_plan_id":"cebpf4jnsgd1na2vs0mg"},{"bike_id":"3abc84dd-86cf-4034-92ad-673ed5b01f02","system_id":"levelo_inurba_marseille","lat":43.30134,"lon":5.38789,"is_reserved":false,"is_disabled":false,"rental_uris":{"android":"levelo://app?vid=3abc84dd-86cf-4034-92ad-673ed5b01f02","ios":"levelo://app?vid=3abc84dd-86cf-4034-92ad-673ed5b01f02"},"vehicle_type_id":"4","last_reported":1737670091,"current_range_meters":32800,"station_id":"ce4bhoh2rcd13ifvqh6g","pricing_plan_id":"cebpf4jnsgd1na2vs0mg"},{"bike_id":"0835fdee-96cd-4bac-a68b-50000a930abe","system_id":"levelo_inurba_marseille","lat":43.29882,"lon":5.36311,"is_reserved":false,"is_disabled":false,"rental_uris":{"android":"levelo://app?vid=0835fdee-96cd-4bac-a68b-50000a930abe","ios":"levelo://app?vid=0835fdee-96cd-4bac-a68b-50000a930abe"},"vehicle_type_id":"4","last_reported":1737670091,"current_range_meters":38400,"station_id":"ce4bgpp2rcd13ifvqc3g","pricing_plan_id":"cebpf4jnsgd1na2vs0mg"},{"bike_id":"61e72528-5de1-4c6b-b1a4-02485f947e82","system_id":"levelo_inurba_marseille","lat":43.30885,"lon":5.3962,"is_reserved":false,"is_disabled":false,"rental_uris":{"android":"levelo://app?vid=61e72528-5de1-4c6b-b1a4-02485f947e82","ios":"levelo://app?vid=61e72528-5de1-4c6b-b1a4-02485f947e82"},"vehicle_type_id":"4","last_reported":1737670091,"current_range_meters":37600,"station_id":"ce4bh012rcd13ifvqcv0","pricing_plan_id":"cebpf4jnsgd1na2vs0mg"},{"bike_id":"730a19d7-8638-4500-9d66-b33219f24537","system_id":"levelo_inurba_marseille","lat":43.30801,"lon":5.4353,"is_reserved":false,"is_disabled":false,"rental_uris":{"android":"levelo://app?vid=730a19d7-8638-4500-9d66-b33219f24537","ios":"levelo://app?vid=730a19d7-8638-4500-9d66-b33219f24537"},"vehicle_type_id":"4","last_reported":1737670091,"current_range_meters":24400,"station_id":"ce4bhph2rcd13ifvqheg","pricing_plan_id":"cebpf4jnsgd1na2vs0mg"},{"bike_id":"d2b4ed73-d7f8-4c49-bef7-db3f88698c80","system_id":"levelo_inurba_marseille","lat":43.30316,"lon":5.40447,"is_reserved":false,"is_disabled":false,"rental_uris":{"android":"levelo://app?vid=d2b4ed73-d7f8-4c49-bef7-db3f88698c80","ios":"levelo://app?vid=d2b4ed73-d7f8-4c49-bef7-db3f88698c80"},"vehicle_type_id":"4","last_reported":1737670091,"current_range_meters":38800,"station_id":"ce4bh012rcd13ifvqd10","pricing_plan_id":"cebpf4jnsgd1na2vs0mg"},{"bike_id":"f2a423d2-541a-4d27-98b1-bbdc8f11174c","system_id":"levelo_inurba_marseille","lat":43.30602,"lon":5.39355,"is_reserved":false,"is_disabled":false,"rental_uris":{"android":"levelo://app?vid=f2a423d2-541a-4d27-98b1-bbdc8f11174c","ios":"levelo://app?vid=f2a423d2-541a-4d27-98b1-bbdc8f11174c"},"vehicle_type_id":"4","last_reported":1737670091,"current_range_meters":38400,"station_id":"ce4bh0p2rcd13ifvqd80","pricing_plan_id":"cebpf4jnsgd1na2vs0mg"},{"bike_id":"90562b19-8802-4e76-a682-f90dad6ec469","system_id":"levelo_inurba_marseille","lat":43.29545,"lon":5.38542,"is_reserved":false,"is_disabled":true,"rental_uris":{"android":"levelo://app?vid=90562b19-8802-4e76-a682-f90dad6ec469","ios":"levelo://app?vid=90562b19-8802-4e76-a682-f90dad6ec469"},"vehicle_type_id":"4","last_reported":1737670091,"current_range_meters":400,"station_id":"ce4bgih2rcd13ifvqba0","pricing_plan_id":"cebpf4jnsgd1na2vs0mg"},{"bike_id":"9863b7f9-4316-4322-9f6c-3cc66b0448e2","system_id":"levelo_inurba_marseille","lat":43.279439,"lon":5.389008,"is_reserved":false,"is_disabled":true,"rental_uris":{"android":"levelo://app?vid=9863b7f9-4316-4322-9f6c-3cc66b0448e2","ios":"levelo://app?vid=9863b7f9-4316-4322-9f6c-3cc66b0448e2"},"vehicle_type_id":"4","last_reported":1737670091,"current_range_meters":22800,"station_id":"","pricing_plan_id":"cebpf4jnsgd1na2vs0mg"},{"bike_id":"4f941221-8603-4861-be77-745234c6becc","system_id":"levelo_inurba_marseille","lat":43.23183,"lon":5.3999,"is_reserved":false,"is_disabled":false,"rental_uris":{"android":"levelo://app?vid=4f941221-8603-4861-be77-745234c6becc","ios":"levelo://app?vid=4f941221-8603-4861-be77-745234c6becc"},"vehicle_type_id":"4","last_reported":1737670091,"current_range_meters":26800,"station_id":"ce4bhn12rcd13ifvqgqg","pricing_plan_id":"cebpf4jnsgd1na2vs0mg"},{"bike_id":"ab927040-bfc3-4782-b1b3-ffbf9d71bc34","system_id":"levelo_inurba_marseille","lat":43.26698,"lon":5.38278,"is_reserved":false,"is_disabled":true,"rental_uris":{"android":"levelo://app?vid=ab927040-bfc3-4782-b1b3-ffbf9d71bc34","ios":"levelo://app?vid=ab927040-bfc3-4782-b1b3-ffbf9d71bc34"},"vehicle_type_id":"4","last_reported":1737670091,"current_range_meters":38800,"station_id":"ce4bhg92rcd13ifvqf90","pricing_plan_id":"cebpf4jnsgd1na2vs0mg"},{"bike_id":"6d570f07-45b0-4350-9582-78bd3be393cf","system_id":"levelo_inurba_marseille","lat":43.29628,"lon":5.37183,"is_reserved":false,"is_disabled":false,"rental_uris":{"android":"levelo://app?vid=6d570f07-45b0-4350-9582-78bd3be393cf","ios":"levelo://app?vid=6d570f07-45b0-4350-9582-78bd3be393cf"},"vehicle_type_id":"4","last_reported":1737670091,"current_range_meters":35600,"station_id":"ce4bgnh2rcd13ifvqc0g","pricing_plan_id":"cebpf4jnsgd1na2vs0mg"},{"bike_id":"4f5324e4-4921-49ab-8713-0ebe7437aba1","system_id":"levelo_inurba_marseille","lat":43.28691,"lon":5.3738,"is_reserved":false,"is_disabled":false,"rental_uris":{"android":"levelo://app?vid=4f5324e4-4921-49ab-8713-0ebe7437aba1","ios":"levelo://app?vid=4f5324e4-4921-49ab-8713-0ebe7437aba1"},"vehicle_type_id":"4","last_reported":1737670091,"current_range_meters":10000,"station_id":"ce4bh3p2rcd13ifvqdq0","pricing_plan_id":"cebpf4jnsgd1na2vs0mg"},{"bike_id":"e11d5e25-e272-47e7-bd8a-065bf108edeb","system_id":"levelo_inurba_marseille","lat":43.29287,"lon":5.38451,"is_reserved":false,"is_disabled":true,"rental_uris":{"android":"levelo://app?vid=e11d5e25-e272-47e7-bd8a-065bf108edeb","ios":"levelo://app?vid=e11d5e25-e272-47e7-bd8a-065bf108edeb"},"vehicle_type_id":"4","last_reported":1737670091,"current_range_meters":17200,"station_id":"ce4bh692rcd13ifvqea0","pricing_plan_id":"cebpf4jnsgd1na2vs0mg"},{"bike_id":"e3da0c61-152e-4b90-a420-82400cdfe415","system_id":"levelo_inurba_marseille","lat":43.28846,"lon":5.35833,"is_reserved":false,"is_disabled":false,"rental_uris":{"android":"levelo://app?vid=e3da0c61-152e-4b90-a420-82400cdfe415","ios":"levelo://app?vid=e3da0c61-152e-4b90-a420-82400cdfe415"},"vehicle_type_id":"4","last_reported":1737670091,"current_range_meters":24400,"station_id":"ce4bhb12rcd13ifvqem0","pricing_plan_id":"cebpf4jnsgd1na2vs0mg"},{"bike_id":"4f5f5256-4484-429c-92dc-c790881aa830","system_id":"levelo_inurba_marseille","lat":43.25084,"lon":5.39495,"is_reserved":false,"is_disabled":false,"rental_uris":{"android":"levelo://app?vid=4f5f5256-4484-429c-92dc-c790881aa830","ios":"levelo://app?vid=4f5f5256-4484-429c-92dc-c790881aa830"},"vehicle_type_id":"4","last_reported":1737670091,"current_range_meters":8000,"station_id":"ce4bhm12rcd13ifvqgkg","pricing_plan_id":"cebpf4jnsgd1na2vs0mg"},{"bike_id":"4dd035c2-8bfe-47d6-9f60-337813e84467","system_id":"levelo_inurba_marseille","lat":43.31085,"lon":5.38336,"is_reserved":false,"is_disabled":false,"rental_uris":{"android":"levelo://app?vid=4dd035c2-8bfe-47d6-9f60-337813e84467","ios":"levelo://app?vid=4dd035c2-8bfe-47d6-9f60-337813e84467"},"vehicle_type_id":"4","last_reported":1737670091,"current_range_meters":32800,"station_id":"ce4bgv92rcd13ifvqcr0","pricing_plan_id":"cebpf4jnsgd1na2vs0mg"},{"bike_id":"89755512-a191-4337-a2e9-b7f75b594ae4","system_id":"levelo_inurba_marseille","lat":43.297825,"lon":5.393265,"is_reserved":false,"is_disabled":false,"rental_uris":{"android":"levelo://app?vid=89755512-a191-4337-a2e9-b7f75b594ae4","ios":"levelo://app?vid=89755512-a191-4337-a2e9-b7f75b594ae4"},"vehicle_type_id":"4","last_reported":1737670091,"current_range_meters":38800,"station_id":"chh1huq6cuj3fo74tm60","pricing_plan_id":"cebpf4jnsgd1na2vs0mg"},{"bike_id":"3c2e08d8-61dc-48d1-a5b2-8e18420ecf7c","system_id":"levelo_inurba_marseille","lat":43.30299,"lon":5.37704,"is_reserved":false,"is_disabled":true,"rental_uris":{"android":"levelo://app?vid=3c2e08d8-61dc-48d1-a5b2-8e18420ecf7c","ios":"levelo://app?vid=3c2e08d8-61dc-48d1-a5b2-8e18420ecf7c"},"vehicle_type_id":"4","last_reported":1737670091,"current_range_meters":0,"station_id":"ce4bguh2rcd13ifvqcj0","pricing_plan_id":"cebpf4jnsgd1na2vs0mg"},{"bike_id":"de0b815b-0972-42a1-b5c0-b465f84342ac","system_id":"levelo_inurba_marseille","lat":43.23968,"lon":5.36628,"is_reserved":false,"is_disabled":false,"rental_uris":{"android":"levelo://app?vid=de0b815b-0972-42a1-b5c0-b465f84342ac","ios":"levelo://app?vid=de0b815b-0972-42a1-b5c0-b465f84342ac"},"vehicle_type_id":"4","last_reported":1737670091,"current_range_meters":28000,"station_id":"ce4bhi12rcd13ifvqfp0","pricing_plan_id":"cebpf4jnsgd1na2vs0mg"},{"bike_id":"88c68bd3-ae6d-44f9-8c55-92579b0843ad","system_id":"levelo_inurba_marseille","lat":43.31997,"lon":5.3815,"is_reserved":false,"is_disabled":false,"rental_uris":{"android":"levelo://app?vid=88c68bd3-ae6d-44f9-8c55-92579b0843ad","ios":"levelo://app?vid=88c68bd3-ae6d-44f9-8c55-92579b0843ad"},"vehicle_type_id":"4","last_reported":1737670091,"current_range_meters":38800,"station_id":"ce4bhr12rcd13ifvqhpg","pricing_plan_id":"cebpf4jnsgd1na2vs0mg"},{"bike_id":"4f55d06d-86a5-4457-9f9b-0d66dd972c6a","system_id":"levelo_inurba_marseille","lat":43.25005,"lon":5.38931,"is_reserved":false,"is_disabled":false,"rental_uris":{"android":"levelo://app?vid=4f55d06d-86a5-4457-9f9b-0d66dd972c6a","ios":"levelo://app?vid=4f55d06d-86a5-4457-9f9b-0d66dd972c6a"},"vehicle_type_id":"4","last_reported":1737670091,"current_range_meters":25600,"station_id":"ce4bhgp2rcd13ifvqfd0","pricing_plan_id":"cebpf4jnsgd1na2vs0mg"},{"bike_id":"7f1953fa-e75d-4180-817f-fad6975a8888","system_id":"levelo_inurba_marseille","lat":43.28463,"lon":5.35878,"is_reserved":false,"is_disabled":false,"rental_uris":{"android":"levelo://app?vid=7f1953fa-e75d-4180-817f-fad6975a8888","ios":"levelo://app?vid=7f1953fa-e75d-4180-817f-fad6975a8888"},"vehicle_type_id":"4","last_reported":1737670091,"current_range_meters":24400,"station_id":"ce4bhah2rcd13ifvqei0","pricing_plan_id":"cebpf4jnsgd1na2vs0mg"},{"bike_id":"b1ad8785-7662-4e91-8fb4-75c4cccca7cd","system_id":"levelo_inurba_marseille","lat":43.30774,"lon":5.37658,"is_reserved":false,"is_disabled":false,"rental_uris":{"android":"levelo://app?vid=b1ad8785-7662-4e91-8fb4-75c4cccca7cd","ios":"levelo://app?vid=b1ad8785-7662-4e91-8fb4-75c4cccca7cd"},"vehicle_type_id":"4","last_reported":1737670091,"current_range_meters":34000,"station_id":"ce4bgv92rcd13ifvqcq0","pricing_plan_id":"cebpf4jnsgd1na2vs0mg"},{"bike_id":"53b4d0d2-1b7e-46d0-a241-fdc99cdf5a94","system_id":"levelo_inurba_marseille","lat":43.29259,"lon":5.40896,"is_reserved":false,"is_disabled":false,"rental_uris":{"android":"levelo://app?vid=53b4d0d2-1b7e-46d0-a241-fdc99cdf5a94","ios":"levelo://app?vid=53b4d0d2-1b7e-46d0-a241-fdc99cdf5a94"},"vehicle_type_id":"4","last_reported":1737670091,"current_range_meters":11600,"station_id":"ce4bh192rcd13ifvqdc0","pricing_plan_id":"cebpf4jnsgd1na2vs0mg"},{"bike_id":"e8e3328c-c400-4d7f-abab-6dd462c7dcf5","system_id":"levelo_inurba_marseille","lat":43.29522,"lon":5.39052,"is_reserved":false,"is_disabled":false,"rental_uris":{"android":"levelo://app?vid=e8e3328c-c400-4d7f-abab-6dd462c7dcf5","ios":"levelo://app?vid=e8e3328c-c400-4d7f-abab-6dd462c7dcf5"},"vehicle_type_id":"4","last_reported":1737670091,"current_range_meters":38800,"station_id":"ce4bh3p2rcd13ifvqdp0","pricing_plan_id":"cebpf4jnsgd1na2vs0mg"},{"bike_id":"be48aa8d-21b2-4ab9-89b3-9ea8a82b40a8","system_id":"levelo_inurba_marseille","lat":43.27949,"lon":5.41036,"is_reserved":false,"is_disabled":false,"rental_uris":{"android":"levelo://app?vid=be48aa8d-21b2-4ab9-89b3-9ea8a82b40a8","ios":"levelo://app?vid=be48aa8d-21b2-4ab9-89b3-9ea8a82b40a8"},"vehicle_type_id":"4","last_reported":1737670091,"current_range_meters":38800,"station_id":"ce4bhnp2rcd13ifvqh0g","pricing_plan_id":"cebpf4jnsgd1na2vs0mg"},{"bike_id":"1c74e60d-95e9-498b-89ce-197500271d91","system_id":"levelo_inurba_marseille","lat":43.29533,"lon":5.38548,"is_reserved":false,"is_disabled":false,"rental_uris":{"android":"levelo://app?vid=1c74e60d-95e9-498b-89ce-197500271d91","ios":"levelo://app?vid=1c74e60d-95e9-498b-89ce-197500271d91"},"vehicle_type_id":"4","last_reported":1737670091,"current_range_meters":22800,"station_id":"ce4bgih2rcd13ifvqba0","pricing_plan_id":"cebpf4jnsgd1na2vs0mg"},{"bike_id":"7c78a755-c7f5-4f07-a96b-621451d47948","system_id":"levelo_inurba_marseille","lat":43.29915,"lon":5.43607,"is_reserved":false,"is_disabled":false,"rental_uris":{"android":"levelo://app?vid=7c78a755-c7f5-4f07-a96b-621451d47948","ios":"levelo://app?vid=7c78a755-c7f5-4f07-a96b-621451d47948"},"vehicle_type_id":"4","last_reported":1737670091,"current_range_meters":9600,"station_id":"ce4bhpp2rcd13ifvqhfg","pricing_plan_id":"cebpf4jnsgd1na2vs0mg"},{"bike_id":"6b1f402c-ffbf-4a31-9191-fd823e9a6878","system_id":"levelo_inurba_marseille","lat":43.30886,"lon":5.39659,"is_reserved":false,"is_disabled":false,"rental_uris":{"android":"levelo://app?vid=6b1f402c-ffbf-4a31-9191-fd823e9a6878","ios":"levelo://app?vid=6b1f402c-ffbf-4a31-9191-fd823e9a6878"},"vehicle_type_id":"4","last_reported":1737670091,"current_range_meters":18800,"station_id":"ce4bh012rcd13ifvqcv0","pricing_plan_id":"cebpf4jnsgd1na2vs0mg"},{"bike_id":"7610bd40-27eb-48ba-8532-89715990a4fa","system_id":"levelo_inurba_marseille","lat":43.2926,"lon":5.40916,"is_reserved":false,"is_disabled":false,"rental_uris":{"android":"levelo://app?vid=7610bd40-27eb-48ba-8532-89715990a4fa","ios":"levelo://app?vid=7610bd40-27eb-48ba-8532-89715990a4fa"},"vehicle_type_id":"4","last_reported":1737670091,"current_range_meters":3600,"station_id":"ce4bh192rcd13ifvqdc0","pricing_plan_id":"cebpf4jnsgd1na2vs0mg"},{"bike_id":"52e3375d-f2b1-471c-bdfe-8428c026fbdc","system_id":"levelo_inurba_marseille","lat":43.29267,"lon":5.3845,"is_reserved":false,"is_disabled":true,"rental_uris":{"android":"levelo://app?vid=52e3375d-f2b1-471c-bdfe-8428c026fbdc","ios":"levelo://app?vid=52e3375d-f2b1-471c-bdfe-8428c026fbdc"},"vehicle_type_id":"4","last_reported":1737670091,"current_range_meters":38800,"station_id":"ce4bh692rcd13ifvqea0","pricing_plan_id":"cebpf4jnsgd1na2vs0mg"},{"bike_id":"b01fce57-63c8-454c-9252-5518a237155b","system_id":"levelo_inurba_marseille","lat":43.23206,"lon":5.40078,"is_reserved":false,"is_disabled":false,"rental_uris":{"android":"levelo://app?vid=b01fce57-63c8-454c-9252-5518a237155b","ios":"levelo://app?vid=b01fce57-63c8-454c-9252-5518a237155b"},"vehicle_type_id":"4","last_reported":1737670091,"current_range_meters":18000,"station_id":"","pricing_plan_id":"cebpf4jnsgd1na2vs0mg"},{"bike_id":"9c45686f-f590-453b-ac55-f16438195cf9","system_id":"levelo_inurba_marseille","lat":43.28418,"lon":5.37516,"is_reserved":false,"is_disabled":false,"rental_uris":{"android":"levelo://app?vid=9c45686f-f590-453b-ac55-f16438195cf9","ios":"levelo://app?vid=9c45686f-f590-453b-ac55-f16438195cf9"},"vehicle_type_id":"4","last_reported":1737670091,"current_range_meters":6400,"station_id":"ce4bh412rcd13ifvqds0","pricing_plan_id":"cebpf4jnsgd1na2vs0mg"},{"bike_id":"cd1680d3-9e89-4add-921b-b8e7af2be884","system_id":"levelo_inurba_marseille","lat":43.27998,"lon":5.40025,"is_reserved":false,"is_disabled":false,"rental_uris":{"android":"levelo://app?vid=cd1680d3-9e89-4add-921b-b8e7af2be884","ios":"levelo://app?vid=cd1680d3-9e89-4add-921b-b8e7af2be884"},"vehicle_type_id":"4","last_reported":1737670091,"current_range_meters":30400,"station_id":"ce4bho92rcd13ifvqh4g","pricing_plan_id":"cebpf4jnsgd1na2vs0mg"},{"bike_id":"be81e2f7-9a8e-4339-b1b5-551a0a5db6fc","system_id":"levelo_inurba_marseille","lat":43.23194,"lon":5.39989,"is_reserved":false,"is_disabled":false,"rental_uris":{"android":"levelo://app?vid=be81e2f7-9a8e-4339-b1b5-551a0a5db6fc","ios":"levelo://app?vid=be81e2f7-9a8e-4339-b1b5-551a0a5db6fc"},"vehicle_type_id":"4","last_reported":1737670091,"current_range_meters":30000,"station_id":"ce4bhn12rcd13ifvqgqg","pricing_plan_id":"cebpf4jnsgd1na2vs0mg"},{"bike_id":"c21b8509-0449-432a-adff-5b762998f84b","system_id":"levelo_inurba_marseille","lat":43.30239,"lon":5.40063,"is_reserved":false,"is_disabled":false,"rental_uris":{"android":"levelo://app?vid=c21b8509-0449-432a-adff-5b762998f84b","ios":"levelo://app?vid=c21b8509-0449-432a-adff-5b762998f84b"},"vehicle_type_id":"4","last_reported":1737670091,"current_range_meters":35200,"station_id":"ce4bgvh2rcd13ifvqcs0","pricing_plan_id":"cebpf4jnsgd1na2vs0mg"},{"bike_id":"e834d110-9757-4aa5-8921-77cbfa7c7c6e","system_id":"levelo_inurba_marseille","lat":43.28574,"lon":5.39482,"is_reserved":false,"is_disabled":true,"rental_uris":{"android":"levelo://app?vid=e834d110-9757-4aa5-8921-77cbfa7c7c6e","ios":"levelo://app?vid=e834d110-9757-4aa5-8921-77cbfa7c7c6e"},"vehicle_type_id":"4","last_reported":1737670091,"current_range_meters":32400,"station_id":"ce4bh292rcd13ifvqdg0","pricing_plan_id":"cebpf4jnsgd1na2vs0mg"},{"bike_id":"6fb05643-ee64-4b0a-8020-4ca9de6b3966","system_id":"levelo_inurba_marseille","lat":43.29518,"lon":5.39394,"is_reserved":false,"is_disabled":false,"rental_uris":{"android":"levelo://app?vid=6fb05643-ee64-4b0a-8020-4ca9de6b3966","ios":"levelo://app?vid=6fb05643-ee64-4b0a-8020-4ca9de6b3966"},"vehicle_type_id":"4","last_reported":1737670091,"current_range_meters":38400,"station_id":"ce4bh292rcd13ifvqdf0","pricing_plan_id":"cebpf4jnsgd1na2vs0mg"},{"bike_id":"7291e108-5d0f-436f-8ab9-9bc10cda3fc5","system_id":"levelo_inurba_marseille","lat":43.29055,"lon":5.35913,"is_reserved":false,"is_disabled":false,"rental_uris":{"android":"levelo://app?vid=7291e108-5d0f-436f-8ab9-9bc10cda3fc5","ios":"levelo://app?vid=7291e108-5d0f-436f-8ab9-9bc10cda3fc5"},"vehicle_type_id":"4","last_reported":1737670091,"current_range_meters":16800,"station_id":"ce4bha92rcd13ifvqeg0","pricing_plan_id":"cebpf4jnsgd1na2vs0mg"},{"bike_id":"b950cc4f-ccdd-492f-b523-853a0e8ec42a","system_id":"levelo_inurba_marseille","lat":43.30252,"lon":5.40056,"is_reserved":false,"is_disabled":false,"rental_uris":{"android":"levelo://app?vid=b950cc4f-ccdd-492f-b523-853a0e8ec42a","ios":"levelo://app?vid=b950cc4f-ccdd-492f-b523-853a0e8ec42a"},"vehicle_type_id":"4","last_reported":1737670091,"current_range_meters":38800,"station_id":"ce4bgvh2rcd13ifvqcs0","pricing_plan_id":"cebpf4jnsgd1na2vs0mg"},{"bike_id":"8091da5a-cc04-462d-bb09-ae380ca5e4ce","system_id":"levelo_inurba_marseille","lat":43.23182,"lon":5.39988,"is_reserved":false,"is_disabled":false,"rental_uris":{"android":"levelo://app?vid=8091da5a-cc04-462d-bb09-ae380ca5e4ce","ios":"levelo://app?vid=8091da5a-cc04-462d-bb09-ae380ca5e4ce"},"vehicle_type_id":"4","last_reported":1737670091,"current_range_meters":9200,"station_id":"ce4bhn12rcd13ifvqgqg","pricing_plan_id":"cebpf4jnsgd1na2vs0mg"},{"bike_id":"a33b274c-21ae-4303-b7be-9ae00bb12c0a","system_id":"levelo_inurba_marseille","lat":43.29273,"lon":5.40116,"is_reserved":false,"is_disabled":false,"rental_uris":{"android":"levelo://app?vid=a33b274c-21ae-4303-b7be-9ae00bb12c0a","ios":"levelo://app?vid=a33b274c-21ae-4303-b7be-9ae00bb12c0a"},"vehicle_type_id":"4","last_reported":1737670091,"current_range_meters":8400,"station_id":"ce4bh312rcd13ifvqdk0","pricing_plan_id":"cebpf4jnsgd1na2vs0mg"},{"bike_id":"bb0d6a47-36d5-4d38-9ea0-8de29b3c251a","system_id":"levelo_inurba_marseille","lat":43.31123,"lon":5.37764,"is_reserved":false,"is_disabled":false,"rental_uris":{"android":"levelo://app?vid=bb0d6a47-36d5-4d38-9ea0-8de29b3c251a","ios":"levelo://app?vid=bb0d6a47-36d5-4d38-9ea0-8de29b3c251a"},"vehicle_type_id":"4","last_reported":1737670091,"current_range_meters":38000,"station_id":"ce4bgt92rcd13ifvqcg0","pricing_plan_id":"cebpf4jnsgd1na2vs0mg"},{"bike_id":"7e916c70-1472-4e6d-89ea-6d1e635df53b","system_id":"levelo_inurba_marseille","lat":43.27818,"lon":5.40716,"is_reserved":false,"is_disabled":false,"rental_uris":{"android":"levelo://app?vid=7e916c70-1472-4e6d-89ea-6d1e635df53b","ios":"levelo://app?vid=7e916c70-1472-4e6d-89ea-6d1e635df53b"},"vehicle_type_id":"4","last_reported":1737670091,"current_range_meters":37600,"station_id":"ce4bhnh2rcd13ifvqgtg","pricing_plan_id":"cebpf4jnsgd1na2vs0mg"},{"bike_id":"72428ff6-b760-4407-bd52-28cdb9f11441","system_id":"levelo_inurba_marseille","lat":43.27387,"lon":5.36273,"is_reserved":false,"is_disabled":false,"rental_uris":{"android":"levelo://app?vid=72428ff6-b760-4407-bd52-28cdb9f11441","ios":"levelo://app?vid=72428ff6-b760-4407-bd52-28cdb9f11441"},"vehicle_type_id":"4","last_reported":1737670091,"current_range_meters":21600,"station_id":"ce4bhbh2rcd13ifvqeo0","pricing_plan_id":"cebpf4jnsgd1na2vs0mg"},{"bike_id":"51b693ec-6376-489f-b989-9f78de29a1f3","system_id":"levelo_inurba_marseille","lat":43.24166,"lon":5.36394,"is_reserved":false,"is_disabled":false,"rental_uris":{"android":"levelo://app?vid=51b693ec-6376-489f-b989-9f78de29a1f3","ios":"levelo://app?vid=51b693ec-6376-489f-b989-9f78de29a1f3"},"vehicle_type_id":"4","last_reported":1737670091,"current_range_meters":20400,"station_id":"cpo36qri1sfpv3e86is0","pricing_plan_id":"cebpf4jnsgd1na2vs0mg"},{"bike_id":"145191d5-f39c-46b8-b037-c8e765df34c6","system_id":"levelo_inurba_marseille","lat":43.29055,"lon":5.39974,"is_reserved":false,"is_disabled":false,"rental_uris":{"android":"levelo://app?vid=145191d5-f39c-46b8-b037-c8e765df34c6","ios":"levelo://app?vid=145191d5-f39c-46b8-b037-c8e765df34c6"},"vehicle_type_id":"4","last_reported":1737670091,"current_range_meters":27200,"station_id":"ce4bh392rcd13ifvqdm0","pricing_plan_id":"cebpf4jnsgd1na2vs0mg"},{"bike_id":"13ff516e-16cf-4543-8540-9030b8b296b4","system_id":"levelo_inurba_marseille","lat":43.23194,"lon":5.35563,"is_reserved":false,"is_disabled":false,"rental_uris":{"android":"levelo://app?vid=13ff516e-16cf-4543-8540-9030b8b296b4","ios":"levelo://app?vid=13ff516e-16cf-4543-8540-9030b8b296b4"},"vehicle_type_id":"4","last_reported":1737670091,"current_range_meters":28000,"station_id":"ce4bhu92rcd13ifvqi70","pricing_plan_id":"cebpf4jnsgd1na2vs0mg"},{"bike_id":"59fc33a9-dd29-48f5-bd39-d87f80d80550","system_id":"levelo_inurba_marseille","lat":43.30436,"lon":5.39743,"is_reserved":false,"is_disabled":false,"rental_uris":{"android":"levelo://app?vid=59fc33a9-dd29-48f5-bd39-d87f80d80550","ios":"levelo://app?vid=59fc33a9-dd29-48f5-bd39-d87f80d80550"},"vehicle_type_id":"4","last_reported":1737670091,"current_range_meters":14800,"station_id":"ce4bh092rcd13ifvqd20","pricing_plan_id":"cebpf4jnsgd1na2vs0mg"},{"bike_id":"382b1d8c-119f-472b-8efe-763a8ffd1020","system_id":"levelo_inurba_marseille","lat":43.27956,"lon":5.41026,"is_reserved":false,"is_disabled":false,"rental_uris":{"android":"levelo://app?vid=382b1d8c-119f-472b-8efe-763a8ffd1020","ios":"levelo://app?vid=382b1d8c-119f-472b-8efe-763a8ffd1020"},"vehicle_type_id":"4","last_reported":1737670091,"current_range_meters":38800,"station_id":"ce4bhnp2rcd13ifvqh0g","pricing_plan_id":"cebpf4jnsgd1na2vs0mg"},{"bike_id":"8a151ccc-edf6-40ab-a6a3-42b4ac96f698","system_id":"levelo_inurba_marseille","lat":43.28262,"lon":5.35074,"is_reserved":false,"is_disabled":true,"rental_uris":{"android":"levelo://app?vid=8a151ccc-edf6-40ab-a6a3-42b4ac96f698","ios":"levelo://app?vid=8a151ccc-edf6-40ab-a6a3-42b4ac96f698"},"vehicle_type_id":"4","last_reported":1737670091,"current_range_meters":26000,"station_id":"ce4bhbp2rcd13ifvqerg","pricing_plan_id":"cebpf4jnsgd1na2vs0mg"},{"bike_id":"7f0b73c5-af9a-4c10-9ae6-a4a4e527bef1","system_id":"levelo_inurba_marseille","lat":43.2558,"lon":5.38232,"is_reserved":false,"is_disabled":false,"rental_uris":{"android":"levelo://app?vid=7f0b73c5-af9a-4c10-9ae6-a4a4e527bef1","ios":"levelo://app?vid=7f0b73c5-af9a-4c10-9ae6-a4a4e527bef1"},"vehicle_type_id":"4","last_reported":1737670091,"current_range_meters":27600,"station_id":"ce4bhih2rcd13ifvqfs0","pricing_plan_id":"cebpf4jnsgd1na2vs0mg"},{"bike_id":"33fc7b30-e6a6-4512-b196-f2bfbfe45eb3","system_id":"levelo_inurba_marseille","lat":43.29169,"lon":5.37138,"is_reserved":false,"is_disabled":false,"rental_uris":{"android":"levelo://app?vid=33fc7b30-e6a6-4512-b196-f2bfbfe45eb3","ios":"levelo://app?vid=33fc7b30-e6a6-4512-b196-f2bfbfe45eb3"},"vehicle_type_id":"4","last_reported":1737670091,"current_range_meters":18000,"station_id":"ce4bha92rcd13ifvqeh0","pricing_plan_id":"cebpf4jnsgd1na2vs0mg"},{"bike_id":"5cefcaef-c8d0-426e-85a3-d6a61a1b5e27","system_id":"levelo_inurba_marseille","lat":43.27836,"lon":5.40683,"is_reserved":false,"is_disabled":false,"rental_uris":{"android":"levelo://app?vid=5cefcaef-c8d0-426e-85a3-d6a61a1b5e27","ios":"levelo://app?vid=5cefcaef-c8d0-426e-85a3-d6a61a1b5e27"},"vehicle_type_id":"4","last_reported":1737670091,"current_range_meters":36400,"station_id":"ce4bhnh2rcd13ifvqgtg","pricing_plan_id":"cebpf4jnsgd1na2vs0mg"},{"bike_id":"5ba89a38-2294-4a3f-a884-84d53abdc93f","system_id":"levelo_inurba_marseille","lat":43.30869,"lon":5.39647,"is_reserved":false,"is_disabled":false,"rental_uris":{"android":"levelo://app?vid=5ba89a38-2294-4a3f-a884-84d53abdc93f","ios":"levelo://app?vid=5ba89a38-2294-4a3f-a884-84d53abdc93f"},"vehicle_type_id":"4","last_reported":1737670091,"current_range_meters":36400,"station_id":"ce4bh012rcd13ifvqcv0","pricing_plan_id":"cebpf4jnsgd1na2vs0mg"},{"bike_id":"a7a5e5ac-a8ef-4955-b1ae-1d314c428a63","system_id":"levelo_inurba_marseille","lat":43.31712,"lon":5.37704,"is_reserved":false,"is_disabled":false,"rental_uris":{"android":"levelo://app?vid=a7a5e5ac-a8ef-4955-b1ae-1d314c428a63","ios":"levelo://app?vid=a7a5e5ac-a8ef-4955-b1ae-1d314c428a63"},"vehicle_type_id":"4","last_reported":1737670091,"current_range_meters":38800,"station_id":"ce4bgth2rcd13ifvqch0","pricing_plan_id":"cebpf4jnsgd1na2vs0mg"},{"bike_id":"caa30493-616a-4890-af9b-1f4a106c82f0","system_id":"levelo_inurba_marseille","lat":43.30936,"lon":5.40178,"is_reserved":false,"is_disabled":false,"rental_uris":{"android":"levelo://app?vid=caa30493-616a-4890-af9b-1f4a106c82f0","ios":"levelo://app?vid=caa30493-616a-4890-af9b-1f4a106c82f0"},"vehicle_type_id":"4","last_reported":1737670091,"current_range_meters":20400,"station_id":"ce4bgvp2rcd13ifvqct0","pricing_plan_id":"cebpf4jnsgd1na2vs0mg"},{"bike_id":"506e52ea-9df5-47f1-9e6f-a24e5183a959","system_id":"levelo_inurba_marseille","lat":43.3013,"lon":5.38797,"is_reserved":false,"is_disabled":false,"rental_uris":{"android":"levelo://app?vid=506e52ea-9df5-47f1-9e6f-a24e5183a959","ios":"levelo://app?vid=506e52ea-9df5-47f1-9e6f-a24e5183a959"},"vehicle_type_id":"4","last_reported":1737670091,"current_range_meters":38800,"station_id":"ce4bghh2rcd13ifvqb60","pricing_plan_id":"cebpf4jnsgd1na2vs0mg"},{"bike_id":"e1cd9866-5b4a-4efe-a8a6-5860705b5fe2","system_id":"levelo_inurba_marseille","lat":43.25142,"lon":5.40325,"is_reserved":false,"is_disabled":false,"rental_uris":{"android":"levelo://app?vid=e1cd9866-5b4a-4efe-a8a6-5860705b5fe2","ios":"levelo://app?vid=e1cd9866-5b4a-4efe-a8a6-5860705b5fe2"},"vehicle_type_id":"4","last_reported":1737670091,"current_range_meters":38800,"station_id":"ce4bhlh2rcd13ifvqgig","pricing_plan_id":"cebpf4jnsgd1na2vs0mg"},{"bike_id":"19d887ae-ab27-4a38-b7c2-f64dc5349e85","system_id":"levelo_inurba_marseille","lat":43.28559,"lon":5.39503,"is_reserved":false,"is_disabled":false,"rental_uris":{"android":"levelo://app?vid=19d887ae-ab27-4a38-b7c2-f64dc5349e85","ios":"levelo://app?vid=19d887ae-ab27-4a38-b7c2-f64dc5349e85"},"vehicle_type_id":"4","last_reported":1737670091,"current_range_meters":37600,"station_id":"ce4bh292rcd13ifvqdg0","pricing_plan_id":"cebpf4jnsgd1na2vs0mg"},{"bike_id":"8cec88b6-5987-4fdd-a71c-a36410e8b4a8","system_id":"levelo_inurba_marseille","lat":43.30928,"lon":5.40152,"is_reserved":false,"is_disabled":false,"rental_uris":{"android":"levelo://app?vid=8cec88b6-5987-4fdd-a71c-a36410e8b4a8","ios":"levelo://app?vid=8cec88b6-5987-4fdd-a71c-a36410e8b4a8"},"vehicle_type_id":"4","last_reported":1737670091,"current_range_meters":11600,"station_id":"ce4bgvp2rcd13ifvqct0","pricing_plan_id":"cebpf4jnsgd1na2vs0mg"},{"bike_id":"421d447e-f137-48f8-b50a-3cef6ba73d00","system_id":"levelo_inurba_marseille","lat":43.32361,"lon":5.36767,"is_reserved":false,"is_disabled":false,"rental_uris":{"android":"levelo://app?vid=421d447e-f137-48f8-b50a-3cef6ba73d00","ios":"levelo://app?vid=421d447e-f137-48f8-b50a-3cef6ba73d00"},"vehicle_type_id":"4","last_reported":1737670091,"current_range_meters":12400,"station_id":"ce4bhsh2rcd13ifvqi2g","pricing_plan_id":"cebpf4jnsgd1na2vs0mg"},{"bike_id":"75208fea-e4c3-48f8-b6e1-d73e822fb61e","system_id":"levelo_inurba_marseille","lat":43.28274,"lon":5.35078,"is_reserved":false,"is_disabled":false,"rental_uris":{"android":"levelo://app?vid=75208fea-e4c3-48f8-b6e1-d73e822fb61e","ios":"levelo://app?vid=75208fea-e4c3-48f8-b6e1-d73e822fb61e"},"vehicle_type_id":"4","last_reported":1737670091,"current_range_meters":8800,"station_id":"ce4bhbp2rcd13ifvqerg","pricing_plan_id":"cebpf4jnsgd1na2vs0mg"},{"bike_id":"4384d240-dc41-4658-97ee-153ff9a044f8","system_id":"levelo_inurba_marseille","lat":43.30886,"lon":5.39653,"is_reserved":false,"is_disabled":false,"rental_uris":{"android":"levelo://app?vid=4384d240-dc41-4658-97ee-153ff9a044f8","ios":"levelo://app?vid=4384d240-dc41-4658-97ee-153ff9a044f8"},"vehicle_type_id":"4","last_reported":1737670091,"current_range_meters":4400,"station_id":"ce4bh012rcd13ifvqcv0","pricing_plan_id":"cebpf4jnsgd1na2vs0mg"},{"bike_id":"f38f63fd-8f6f-4b91-9c49-8b65f256ffe9","system_id":"levelo_inurba_marseille","lat":43.29836,"lon":5.36286,"is_reserved":false,"is_disabled":true,"rental_uris":{"android":"levelo://app?vid=f38f63fd-8f6f-4b91-9c49-8b65f256ffe9","ios":"levelo://app?vid=f38f63fd-8f6f-4b91-9c49-8b65f256ffe9"},"vehicle_type_id":"4","last_reported":1737670091,"current_range_meters":38000,"station_id":"ce4bgpp2rcd13ifvqc3g","pricing_plan_id":"cebpf4jnsgd1na2vs0mg"},{"bike_id":"f78360e8-7068-4642-b875-4cd7f8f281ec","system_id":"levelo_inurba_marseille","lat":43.29195,"lon":5.35802,"is_reserved":false,"is_disabled":false,"rental_uris":{"android":"levelo://app?vid=f78360e8-7068-4642-b875-4cd7f8f281ec","ios":"levelo://app?vid=f78360e8-7068-4642-b875-4cd7f8f281ec"},"vehicle_type_id":"4","last_reported":1737670091,"current_range_meters":28800,"station_id":"ce4bhb12rcd13ifvqel0","pricing_plan_id":"cebpf4jnsgd1na2vs0mg"},{"bike_id":"75495e7c-20bd-4569-84c6-35df34ab244d","system_id":"levelo_inurba_marseille","lat":43.29892,"lon":5.43659,"is_reserved":false,"is_disabled":true,"rental_uris":{"android":"levelo://app?vid=75495e7c-20bd-4569-84c6-35df34ab244d","ios":"levelo://app?vid=75495e7c-20bd-4569-84c6-35df34ab244d"},"vehicle_type_id":"4","last_reported":1737670091,"current_range_meters":1200,"station_id":"ce4bhpp2rcd13ifvqhfg","pricing_plan_id":"cebpf4jnsgd1na2vs0mg"},{"bike_id":"954b0541-3978-4c85-ab09-b536a1c2e3bf","system_id":"levelo_inurba_marseille","lat":43.28444,"lon":5.39204,"is_reserved":false,"is_disabled":false,"rental_uris":{"android":"levelo://app?vid=954b0541-3978-4c85-ab09-b536a1c2e3bf","ios":"levelo://app?vid=954b0541-3978-4c85-ab09-b536a1c2e3bf"},"vehicle_type_id":"4","last_reported":1737670091,"current_range_meters":26000,"station_id":"ce4bhoh2rcd13ifvqh5g","pricing_plan_id":"cebpf4jnsgd1na2vs0mg"},{"bike_id":"5c6dd2ff-5977-45ea-9ab6-79ed70b4ade5","system_id":"levelo_inurba_marseille","lat":43.29407,"lon":5.38616,"is_reserved":false,"is_disabled":true,"rental_uris":{"android":"levelo://app?vid=5c6dd2ff-5977-45ea-9ab6-79ed70b4ade5","ios":"levelo://app?vid=5c6dd2ff-5977-45ea-9ab6-79ed70b4ade5"},"vehicle_type_id":"4","last_reported":1737670091,"current_range_meters":5600,"station_id":"ce4bh2h2rcd13ifvqdh0","pricing_plan_id":"cebpf4jnsgd1na2vs0mg"},{"bike_id":"2693e099-578a-4462-b03c-cb6a658dc0f3","system_id":"levelo_inurba_marseille","lat":43.29901,"lon":5.43667,"is_reserved":false,"is_disabled":false,"rental_uris":{"android":"levelo://app?vid=2693e099-578a-4462-b03c-cb6a658dc0f3","ios":"levelo://app?vid=2693e099-578a-4462-b03c-cb6a658dc0f3"},"vehicle_type_id":"4","last_reported":1737670091,"current_range_meters":38800,"station_id":"ce4bhpp2rcd13ifvqhfg","pricing_plan_id":"cebpf4jnsgd1na2vs0mg"},{"bike_id":"f15a3926-03ea-4c4b-9f1b-6e7324acfe94","system_id":"levelo_inurba_marseille","lat":43.2873,"lon":5.37641,"is_reserved":false,"is_disabled":true,"rental_uris":{"android":"levelo://app?vid=f15a3926-03ea-4c4b-9f1b-6e7324acfe94","ios":"levelo://app?vid=f15a3926-03ea-4c4b-9f1b-6e7324acfe94"},"vehicle_type_id":"4","last_reported":1737670091,"current_range_meters":8800,"station_id":"","pricing_plan_id":"cebpf4jnsgd1na2vs0mg"},{"bike_id":"952f2716-3580-4e73-8439-e26a960aea39","system_id":"levelo_inurba_marseille","lat":43.25819,"lon":5.39438,"is_reserved":false,"is_disabled":false,"rental_uris":{"android":"levelo://app?vid=952f2716-3580-4e73-8439-e26a960aea39","ios":"levelo://app?vid=952f2716-3580-4e73-8439-e26a960aea39"},"vehicle_type_id":"4","last_reported":1737670091,"current_range_meters":31200,"station_id":"ce4bhip2rcd13ifvqft0","pricing_plan_id":"cebpf4jnsgd1na2vs0mg"},{"bike_id":"a56f2924-b886-4ce9-8044-10d731e10f15","system_id":"levelo_inurba_marseille","lat":43.28404,"lon":5.37516,"is_reserved":false,"is_disabled":false,"rental_uris":{"android":"levelo://app?vid=a56f2924-b886-4ce9-8044-10d731e10f15","ios":"levelo://app?vid=a56f2924-b886-4ce9-8044-10d731e10f15"},"vehicle_type_id":"4","last_reported":1737670091,"current_range_meters":2800,"station_id":"ce4bh412rcd13ifvqds0","pricing_plan_id":"cebpf4jnsgd1na2vs0mg"},{"bike_id":"0683b8fa-bf66-4a85-b23f-305b1ef8e2c5","system_id":"levelo_inurba_marseille","lat":43.29894,"lon":5.43651,"is_reserved":false,"is_disabled":false,"rental_uris":{"android":"levelo://app?vid=0683b8fa-bf66-4a85-b23f-305b1ef8e2c5","ios":"levelo://app?vid=0683b8fa-bf66-4a85-b23f-305b1ef8e2c5"},"vehicle_type_id":"4","last_reported":1737670091,"current_range_meters":12400,"station_id":"ce4bhpp2rcd13ifvqhfg","pricing_plan_id":"cebpf4jnsgd1na2vs0mg"},{"bike_id":"d0d02fac-1b91-488c-a00c-3c5546b762fe","system_id":"levelo_inurba_marseille","lat":43.3088,"lon":5.39651,"is_reserved":false,"is_disabled":false,"rental_uris":{"android":"levelo://app?vid=d0d02fac-1b91-488c-a00c-3c5546b762fe","ios":"levelo://app?vid=d0d02fac-1b91-488c-a00c-3c5546b762fe"},"vehicle_type_id":"4","last_reported":1737670091,"current_range_meters":35200,"station_id":"ce4bh012rcd13ifvqcv0","pricing_plan_id":"cebpf4jnsgd1na2vs0mg"},{"bike_id":"10161fde-ed89-472a-a6f6-a457225f9e9a","system_id":"levelo_inurba_marseille","lat":43.23962,"lon":5.36626,"is_reserved":false,"is_disabled":false,"rental_uris":{"android":"levelo://app?vid=10161fde-ed89-472a-a6f6-a457225f9e9a","ios":"levelo://app?vid=10161fde-ed89-472a-a6f6-a457225f9e9a"},"vehicle_type_id":"4","last_reported":1737670091,"current_range_meters":21600,"station_id":"ce4bhi12rcd13ifvqfp0","pricing_plan_id":"cebpf4jnsgd1na2vs0mg"},{"bike_id":"91c9227c-1225-43df-a52d-ca1477eeac62","system_id":"levelo_inurba_marseille","lat":43.30893,"lon":5.37198,"is_reserved":false,"is_disabled":false,"rental_uris":{"android":"levelo://app?vid=91c9227c-1225-43df-a52d-ca1477eeac62","ios":"levelo://app?vid=91c9227c-1225-43df-a52d-ca1477eeac62"},"vehicle_type_id":"4","last_reported":1737670091,"current_range_meters":38000,"station_id":"ce4bguh2rcd13ifvqckg","pricing_plan_id":"cebpf4jnsgd1na2vs0mg"},{"bike_id":"ce9b6775-622a-4006-8fb5-f269869a0dfc","system_id":"levelo_inurba_marseille","lat":43.31361,"lon":5.38523,"is_reserved":false,"is_disabled":true,"rental_uris":{"android":"levelo://app?vid=ce9b6775-622a-4006-8fb5-f269869a0dfc","ios":"levelo://app?vid=ce9b6775-622a-4006-8fb5-f269869a0dfc"},"vehicle_type_id":"4","last_reported":1737670091,"current_range_meters":28800,"station_id":"ce4bgt92rcd13ifvqcf0","pricing_plan_id":"cebpf4jnsgd1na2vs0mg"},{"bike_id":"4c0b0c47-76a5-4440-8f04-6e85e1d81bd2","system_id":"levelo_inurba_marseille","lat":43.2894,"lon":5.36636,"is_reserved":false,"is_disabled":false,"rental_uris":{"android":"levelo://app?vid=4c0b0c47-76a5-4440-8f04-6e85e1d81bd2","ios":"levelo://app?vid=4c0b0c47-76a5-4440-8f04-6e85e1d81bd2"},"vehicle_type_id":"4","last_reported":1737670091,"current_range_meters":14000,"station_id":"ce4bhap2rcd13ifvqek0","pricing_plan_id":"cebpf4jnsgd1na2vs0mg"},