{"last_updated":1727691000,"ttl":60,"version":"2.2","data":{"bikes":[{"bike_id":"62fc52b3-3b91-4ea9-83fc-ed19e9b9a873","system_id":"levelo_inurba_marseille","lat":43.286316,"lon":5.363108,"is_reserved":false,"is_disabled":false,"rental_uris":{"android":"levelo://app?vid=62fc52b3-3b91-4ea9-83fc-ed19e9b9a873","ios":"levelo://app?vid=62fc52b3-3b91-4ea9-83fc-ed19e9b9a873"},"vehicle_type_id":"4","last_reported":1727691000,"current_range_meters":23200,"station_id":"ce4bhah2rcd13ifvqej0","pricing_plan_id":"cebpf4jnsgd1na2vs0mg"},{"bike_id":"2b72ee12-5a63-4b84-bbdd-c08fc988cbb2","system_id":"levelo_inurba_marseille","lat":43.27214,"lon":5.39181,"is_reserved":false,"is_disabled":false,"rental_uris":{"android":"levelo://app?vid=2b72ee12-5a63-4b84-bbdd-c08fc988cbb2","ios":"levelo://app?vid=2b72ee12-5a63-4b84-bbdd-c08fc988cbb2"},"vehicle_type_id":"4","last_reported":1727691000,"current_range_meters":24800,"station_id":"ce4bhhp2rcd13ifvqfm0","pricing_plan_id":"cebpf4jnsgd1na2vs0mg"},{"bike_id":"36d4ee2c-da80-42b6-9d23-c04c834f2ce2","system_id":"levelo_inurba_marseille","lat":43.29924,"lon":5.38162,"is_reserved":false,"is_disabled":false,"rental_uris":{"android":"levelo://app?vid=36d4ee2c-da80-42b6-9d23-c04c834f2ce2","ios":"levelo://app?vid=36d4ee2c-da80-42b6-9d23-c04c834f2ce2"},"vehicle_type_id":"4","last_reported":1727691000,"current_range_meters":12400,"station_id":"ce4bgj12rcd13ifvqbc0","pricing_plan_id":"cebpf4jnsgd1na2vs0mg"},{"bike_id":"a64d2604-8992-49e7-bfbe-4c73da1546c0","system_id":"levelo_inurba_marseille","lat":43.30523,"lon":5.36542,"is_reserved":false,"is_disabled":false,"rental_uris":{"android":"levelo://app?vid=a64d2604-8992-49e7-bfbe-4c73da1546c0","ios":"levelo://app?vid=a64d2604-8992-49e7-bfbe-4c73da1546c0"},"vehicle_type_id":"4","last_reported":1727691000,"current_range_meters":25200,"station_id":"ce4bgs12rcd13ifvqcag","pricing_plan_id":"cebpf4jnsgd1na2vs0mg"},{"bike_id":"2fcabd06-e9c6-4b55-8682-6a50f758e31d","system_id":"levelo_inurba_marseille","lat":43.28076,"lon":5.39667,"is_reserved":false,"is_disabled":false,"rental_uris":{"android":"levelo://app?vid=2fcabd06-e9c6-4b55-8682-6a50f758e31d","ios":"levelo://app?vid=2fcabd06-e9c6-4b55-8682-6a50f758e31d"},"vehicle_type_id":"4","last_reported":1727691000,"current_range_meters":8000,"station_id":"ce4bho12rcd13ifvqh2g","pricing_plan_id":"cebpf4jnsgd1na2vs0mg"},{"bike_id":"653363e3-7d15-401c-bdb9-226d1631149e","system_id":"levelo_inurba_marseille","lat":43.28101,"lon":5.37856,"is_reserved":false,"is_disabled":false,"rental_uris":{"android":"levelo://app?vid=653363e3-7d15-401c-bdb9-226d1631149e","ios":"levelo://app?vid=653363e3-7d15-401c-bdb9-226d1631149e"},"vehicle_type_id":"4","last_reported":1727691000,"current_range_meters":38800,"station_id":"ce4bha12rcd13ifvqee0","pricing_plan_id":"cebpf4jnsgd1na2vs0mg"},{"bike_id":"3f0986f7-9d97-4bd8-9f16-f59dbfa8c299","system_id":"levelo_inurba_marseille","lat":43.25823,"lon":5.39443,"is_reserved":false,"is_disabled":false,"rental_uris":{"android":"levelo://app?vid=3f0986f7-9d97-4bd8-9f16-f59dbfa8c299","ios":"levelo://app?vid=3f0986f7-9d97-4bd8-9f16-f59dbfa8c299"},"vehicle_type_id":"4","last_reported":1727691000,"current_range_meters":36400,"station_id":"ce4bhip2rcd13ifvqft0","pricing_plan_id":"cebpf4jnsgd1na2vs0mg"},{"bike_id":"43defcf7-27fa-4722-b56f-e45a1dfc2de3","system_id":"levelo_inurba_marseille","lat":43.32194,"lon":5.38761,"is_reserved":false,"is_disabled":false,"rental_uris":{"android":"levelo://app?vid=43defcf7-27fa-4722-b56f-e45a1dfc2de3","ios":"levelo://app?vid=43defcf7-27fa-4722-b56f-e45a1dfc2de3"},"vehicle_type_id":"4","last_reported":1727691000,"current_range_meters":21600,"station_id":"","pricing_plan_id":"cebpf4jnsgd1na2vs0mg"},{"bike_id":"df2b664d-5bac-465f-88e7-ae06dcb5ed98","system_id":"levelo_inurba_marseille","lat":43.24171,"lon":5.36405,"is_reserved":false,"is_disabled":false,"rental_uris":{"android":"levelo://app?vid=df2b664d-5bac-465f-88e7-ae06dcb5ed98","ios":"levelo://app?vid=df2b664d-5bac-465f-88e7-ae06dcb5ed98"},"vehicle_type_id":"4","last_reported":1727691000,"current_range_meters":21600,"station_id":"cpo36qri1sfpv3e86is0","pricing_plan_id":"cebpf4jnsgd1na2vs0mg"},{"bike_id":"b4b45ec5-28c4-4e2c-9ac2-fc598eed97ab","system_id":"levelo_inurba_marseille","lat":43.32484,"lon":5.36556,"is_reserved":false,"is_disabled":false,"rental_uris":{"android":"levelo://app?vid=b4b45ec5-28c4-4e2c-9ac2-fc598eed97ab","ios":"levelo://app?vid=b4b45ec5-28c4-4e2c-9ac2-fc598eed97ab"},"vehicle_type_id":"4","last_reported":1727691000,"current_range_meters":6000,"station_id":"ce4bhs12rcd13ifvqhvg","pricing_plan_id":"cebpf4jnsgd1na2vs0mg"},{"bike_id":"7c7310d8-0ff7-4710-8fc2-acd5e5e9e782","system_id":"levelo_inurba_marseille","lat":43.23148,"lon":5.43735,"is_reserved":false,"is_disabled":false,"rental_uris":{"android":"levelo://app?vid=7c7310d8-0ff7-4710-8fc2-acd5e5e9e782","ios":"levelo://app?vid=7c7310d8-0ff7-4710-8fc2-acd5e5e9e782"},"vehicle_type_id":"4","last_reported":1727691000,"current_range_meters":39200,"station_id":"ce4bhmp2rcd13ifvqgog","pricing_plan_id":"cebpf4jnsgd1na2vs0mg"},{"bike_id":"3bf0a32a-7e32-422e-bdd4-82164e871c17","system_id":"levelo_inurba_marseille","lat":43.31223,"lon":5.36856,"is_reserved":false,"is_disabled":false,"rental_uris":{"android":"levelo://app?vid=3bf0a32a-7e32-422e-bdd4-82164e871c17","ios":"levelo://app?vid=3bf0a32a-7e32-422e-bdd4-82164e871c17"},"vehicle_type_id":"4","last_reported":1727691000,"current_range_meters":39200,"station_id":"ce4bgl92rcd13ifvqbq0","pricing_plan_id":"cebpf4jnsgd1na2vs0mg"},{"bike_id":"365dfba5-918f-44ac-8c71-9138dda11f13","system_id":"levelo_inurba_marseille","lat":43.28271,"lon":5.35071,"is_reserved":false,"is_disabled":false,"rental_uris":{"android":"levelo://app?vid=365dfba5-918f-44ac-8c71-9138dda11f13","ios":"levelo://app?vid=365dfba5-918f-44ac-8c71-9138dda11f13"},"vehicle_type_id":"4","last_reported":1727691000,"current_range_meters":19200,"station_id":"ce4bhbp2rcd13ifvqerg","pricing_plan_id":"cebpf4jnsgd1na2vs0mg"},{"bike_id":"4798dc33-18d1-48f3-be17-43706c2021fe","system_id":"levelo_inurba_marseille","lat":43.30914,"lon":5.36851,"is_reserved":false,"is_disabled":false,"rental_uris":{"android":"levelo://app?vid=4798dc33-18d1-48f3-be17-43706c2021fe","ios":"levelo://app?vid=4798dc33-18d1-48f3-be17-43706c2021fe"},"vehicle_type_id":"4","last_reported":1727691000,"current_range_meters":38800,"station_id":"ce4bgn92rcd13ifvqbvg","pricing_plan_id":"cebpf4jnsgd1na2vs0mg"},{"bike_id":"4de859a6-9250-4050-9a09-013a7afcb720","system_id":"levelo_inurba_marseille","lat":43.30547,"lon":5.36537,"is_reserved":false,"is_disabled":false,"rental_uris":{"android":"levelo://app?vid=4de859a6-9250-4050-9a09-013a7afcb720","ios":"levelo://app?vid=4de859a6-9250-4050-9a09-013a7afcb720"},"vehicle_type_id":"4","last_reported":1727691000,"current_range_meters":33200,"station_id":"ce4bgs12rcd13ifvqcag","pricing_plan_id":"cebpf4jnsgd1na2vs0mg"},{"bike_id":"950f0ed1-e694-4a3a-b1c7-4108814836c9","system_id":"levelo_inurba_marseille","lat":43.26683,"lon":5.38272,"is_reserved":false,"is_disabled":false,"rental_uris":{"android":"levelo://app?vid=950f0ed1-e694-4a3a-b1c7-4108814836c9","ios":"levelo://app?vid=950f0ed1-e694-4a3a-b1c7-4108814836c9"},"vehicle_type_id":"4","last_reported":1727691000,"current_range_meters":30000,"station_id":"ce4bhg92rcd13ifvqf90","pricing_plan_id":"cebpf4jnsgd1na2vs0mg"},{"bike_id":"5789d26f-c54c-4c9c-81e1-1be4cef1ff6b","system_id":"levelo_inurba_marseille","lat":43.29843,"lon":5.36271,"is_reserved":false,"is_disabled":false,"rental_uris":{"android":"levelo://app?vid=5789d26f-c54c-4c9c-81e1-1be4cef1ff6b","ios":"levelo://app?vid=5789d26f-c54c-4c9c-81e1-1be4cef1ff6b"},"vehicle_type_id":"4","last_reported":1727691000,"current_range_meters":25200,"station_id":"ce4bgpp2rcd13ifvqc3g","pricing_plan_id":"cebpf4jnsgd1na2vs0mg"},{"bike_id":"46a997d6-131c-401e-8315-0cd45c14137b","system_id":"levelo_inurba_marseille","lat":43.29891,"lon":5.38902,"is_reserved":false,"is_disabled":false,"rental_uris":{"android":"levelo://app?vid=46a997d6-131c-401e-8315-0cd45c14137b","ios":"levelo://app?vid=46a997d6-131c-401e-8315-0cd45c14137b"},"vehicle_type_id":"4","last_reported":1727691000,"current_range_meters":32400,"station_id":"ce4bh392rcd13ifvqdl0","pricing_plan_id":"cebpf4jnsgd1na2vs0mg"},{"bike_id":"d034dda5-a9b5-4448-8d8b-85e2dfe80aa7","system_id":"levelo_inurba_marseille","lat":43.26936,"lon":5.38917,"is_reserved":false,"is_disabled":false,"rental_uris":{"android":"levelo://app?vid=d034dda5-a9b5-4448-8d8b-85e2dfe80aa7","ios":"levelo://app?vid=d034dda5-a9b5-4448-8d8b-85e2dfe80aa7"},"vehicle_type_id":"4","last_reported":1727691000,"current_range_meters":22000,"station_id":"ce4bhhh2rcd13ifvqfl0","pricing_plan_id":"cebpf4jnsgd1na2vs0mg"},{"bike_id":"380892d5-0c07-4382-989e-ba79e6cba25e","system_id":"levelo_inurba_marseille","lat":43.28021,"lon":5.36084,"is_reserved":false,"is_disabled":false,"rental_uris":{"android":"levelo://app?vid=380892d5-0c07-4382-989e-ba79e6cba25e","ios":"levelo://app?vid=380892d5-0c07-4382-989e-ba79e6cba25e"},"vehicle_type_id":"4","last_reported":1727691000,"current_range_meters":19200,"station_id":"","pricing_plan_id":"cebpf4jnsgd1na2vs0mg"},{"bike_id":"60c6857c-f0b6-4506-9956-2e4069b07806","system_id":"levelo_inurba_marseille","lat":43.25122,"lon":5.40318,"is_reserved":false,"is_disabled":false,"rental_uris":{"android":"levelo://app?vid=60c6857c-f0b6-4506-9956-2e4069b07806","ios":"levelo://app?vid=60c6857c-f0b6-4506-9956-2e4069b07806"},"vehicle_type_id":"4","last_reported":1727691000,"current_range_meters":19200,"station_id":"ce4bhlh2rcd13ifvqgig","pricing_plan_id":"cebpf4jnsgd1na2vs0mg"},{"bike_id":"98846a64-6c39-4e5f-b5cd-cb5585578d9d","system_id":"levelo_inurba_marseille","lat":43.2749,"lon":5.42457,"is_reserved":false,"is_disabled":false,"rental_uris":{"android":"levelo://app?vid=98846a64-6c39-4e5f-b5cd-cb5585578d9d","ios":"levelo://app?vid=98846a64-6c39-4e5f-b5cd-cb5585578d9d"},"vehicle_type_id":"4","last_reported":1727691000,"current_range_meters":32400,"station_id":"ce4bhn92rcd13ifvqgrg","pricing_plan_id":"cebpf4jnsgd1na2vs0mg"},{"bike_id":"01963af6-4af8-448e-9473-5feca8b7d30b","system_id":"levelo_inurba_marseille","lat":43.2749,"lon":5.42462,"is_reserved":false,"is_disabled":false,"rental_uris":{"android":"levelo://app?vid=01963af6-4af8-448e-9473-5feca8b7d30b","ios":"levelo://app?vid=01963af6-4af8-448e-9473-5feca8b7d30b"},"vehicle_type_id":"4","last_reported":1727691000,"current_range_meters":10800,"station_id":"ce4bhn92rcd13ifvqgrg","pricing_plan_id":"cebpf4jnsgd1na2vs0mg"},{"bike_id":"21986cb2-abd1-4472-b46c-8751ecc77084","system_id":"levelo_inurba_marseille","lat":43.32486,"lon":5.36574,"is_reserved":false,"is_disabled":false,"rental_uris":{"android":"levelo://app?vid=21986cb2-abd1-4472-b46c-8751ecc77084","ios":"levelo://app?vid=21986cb2-abd1-4472-b46c-8751ecc77084"},"vehicle_type_id":"4","last_reported":1727691000,"current_range_meters":39200,"station_id":"ce4bhs12rcd13ifvqhvg","pricing_plan_id":"cebpf4jnsgd1na2vs0mg"},{"bike_id":"2781c9d5-86e8-43d9-a819-20df714453ba","system_id":"levelo_inurba_marseille","lat":43.25716,"lon":5.41109,"is_reserved":false,"is_disabled":false,"rental_uris":{"android":"levelo://app?vid=2781c9d5-86e8-43d9-a819-20df714453ba","ios":"levelo://app?vid=2781c9d5-86e8-43d9-a819-20df714453ba"},"vehicle_type_id":"4","last_reported":1727691000,"current_range_meters":36000,"station_id":"ce4bhkp2rcd13ifvqgd0","pricing_plan_id":"cebpf4jnsgd1na2vs0mg"},{"bike_id":"4c44f3c8-e4e3-47d7-a87b-7f388f52da43","system_id":"levelo_inurba_marseille","lat":43.29501,"lon":5.37514,"is_reserved":false,"is_disabled":false,"rental_uris":{"android":"levelo://app?vid=4c44f3c8-e4e3-47d7-a87b-7f388f52da43","ios":"levelo://app?vid=4c44f3c8-e4e3-47d7-a87b-7f388f52da43"},"vehicle_type_id":"4","last_reported":1727691000,"current_range_meters":34000,"station_id":"ce4bgkp2rcd13ifvqbmg","pricing_plan_id":"cebpf4jnsgd1na2vs0mg"},{"bike_id":"06c365e2-ada5-4784-b552-01f94928c737","system_id":"levelo_inurba_marseille","lat":43.326975,"lon":5.375053,"is_reserved":false,"is_disabled":false,"rental_uris":{"android":"levelo://app?vid=06c365e2-ada5-4784-b552-01f94928c737","ios":"levelo://app?vid=06c365e2-ada5-4784-b552-01f94928c737"},"vehicle_type_id":"4","last_reported":1727691000,"current_range_meters":12400,"station_id":"","pricing_plan_id":"cebpf4jnsgd1na2vs0mg"},{"bike_id":"a6521d38-fb59-4188-8c6c-d41dca2fa2ad","system_id":"levelo_inurba_marseille","lat":43.317212,"lon":5.436378,"is_reserved":false,"is_disabled":false,"rental_uris":{"android":"levelo://app?vid=a6521d38-fb59-4188-8c6c-d41dca2fa2ad","ios":"levelo://app?vid=a6521d38-fb59-4188-8c6c-d41dca2fa2ad"},"vehicle_type_id":"4","last_reported":1727691000,"current_range_meters":14000,"station_id":"","pricing_plan_id":"cebpf4jnsgd1na2vs0mg"},{"bike_id":"70dd0683-9f88-4097-b4b2-cf64d3c853c0","system_id":"levelo_inurba_marseille","lat":43.29232,"lon":5.36071,"is_reserved":false,"is_disabled":false,"rental_uris":{"android":"levelo://app?vid=70dd0683-9f88-4097-b4b2-cf64d3c853c0","ios":"levelo://app?vid=70dd0683-9f88-4097-b4b2-cf64d3c853c0"},"vehicle_type_id":"4","last_reported":1727691000,"current_range_meters":32400,"station_id":"ce4bhbh2rcd13ifvqeqg","pricing_plan_id":"cebpf4jnsgd1na2vs0mg"},{"bike_id":"8ed4c341-6332-4ad0-8cfa-70edafc99da1","system_id":"levelo_inurba_marseille","lat":43.30557,"lon":5.3655,"is_reserved":false,"is_disabled":false,"rental_uris":{"android":"levelo://app?vid=8ed4c341-6332-4ad0-8cfa-70edafc99da1","ios":"levelo://app?vid=8ed4c341-6332-4ad0-8cfa-70edafc99da1"},"vehicle_type_id":"4","last_reported":1727691000,"current_range_meters":23200,"station_id":"ce4bgs12rcd13ifvqcag","pricing_plan_id":"cebpf4jnsgd1na2vs0mg"},{"bike_id":"7f65494c-bb0c-463b-b3a3-c11c60597589","system_id":"levelo_inurba_marseille","lat":43.24386,"lon":5.37067,"is_reserved":false,"is_disabled":false,"rental_uris":{"android":"levelo://app?vid=7f65494c-bb0c-463b-b3a3-c11c60597589","ios":"levelo://app?vid=7f65494c-bb0c-463b-b3a3-c11c60597589"},"vehicle_type_id":"4","last_reported":1727691000,"current_range_meters":38000,"station_id":"ce4bhhh2rcd13ifvqfk0","pricing_plan_id":"cebpf4jnsgd1na2vs0mg"},{"bike_id":"918a76fa-3501-4977-94c9-aac2efae816d","system_id":"levelo_inurba_marseille","lat":43.32476,"lon":5.36554,"is_reserved":false,"is_disabled":false,"rental_uris":{"android":"levelo://app?vid=918a76fa-3501-4977-94c9-aac2efae816d","ios":"levelo://app?vid=918a76fa-3501-4977-94c9-aac2efae816d"},"vehicle_type_id":"4","last_reported":1727691000,"current_range_meters":22000,"station_id":"ce4bhs12rcd13ifvqhvg","pricing_plan_id":"cebpf4jnsgd1na2vs0mg"},{"bike_id":"cb8cf734-671c-4f47-b0f4-d393479ca476","system_id":"levelo_inurba_marseille","lat":43.29554,"lon":5.42288,"is_reserved":false,"is_disabled":false,"rental_uris":{"android":"levelo://app?vid=cb8cf734-671c-4f47-b0f4-d393479ca476","ios":"levelo://app?vid=cb8cf734-671c-4f47-b0f4-d393479ca476"},"vehicle_type_id":"4","last_reported":1727691000,"current_range_meters":4000,"station_id":"ce4bhph2rcd13ifvqhdg","pricing_plan_id":"cebpf4jnsgd1na2vs0mg"},{"bike_id":"e6691595-8854-499f-92a4-3cd36469e6a7","system_id":"levelo_inurba_marseille","lat":43.31178,"lon":5.38698,"is_reserved":false,"is_disabled":false,"rental_uris":{"android":"levelo://app?vid=e6691595-8854-499f-92a4-3cd36469e6a7","ios":"levelo://app?vid=e6691595-8854-499f-92a4-3cd36469e6a7"},"vehicle_type_id":"4","last_reported":1727691000,"current_range_meters":9200,"station_id":"ce4bgv12rcd13ifvqcp0","pricing_plan_id":"cebpf4jnsgd1na2vs0mg"},{"bike_id":"e4c87299-6d8f-4787-b5bc-86df60e6a46e","system_id":"levelo_inurba_marseille","lat":43.24582,"lon":5.42232,"is_reserved":false,"is_disabled":false,"rental_uris":{"android":"levelo://app?vid=e4c87299-6d8f-4787-b5bc-86df60e6a46e","ios":"levelo://app?vid=e4c87299-6d8f-4787-b5bc-86df60e6a46e"},"vehicle_type_id":"4","last_reported":1727691000,"current_range_meters":8800,"station_id":"ce4bhlh2rcd13ifvqgig","pricing_plan_id":"cebpf4jnsgd1na2vs0mg"},{"bike_id":"136c7014-ba30-4c97-9047-e44ae4501841","system_id":"levelo_inurba_marseille","lat":43.272,"lon":5.3919,"is_reserved":false,"is_disabled":false,"rental_uris":{"android":"levelo://app?vid=136c7014-ba30-4c97-9047-e44ae4501841","ios":"levelo://app?vid=136c7014-ba30-4c97-9047-e44ae4501841"},"vehicle_type_id":"4","last_reported":1727691000,"current_range_meters":8400,"station_id":"ce4bhhp2rcd13ifvqfm0","pricing_plan_id":"cebpf4jnsgd1na2vs0mg"},{"bike_id":"7a550194-ce9c-4cb5-bc1b-55aad3449840","system_id":"levelo_inurba_marseille","lat":43.27986,"lon":5.4166,"is_reserved":false,"is_disabled":false,"rental_uris":{"android":"levelo://app?vid=7a550194-ce9c-4cb5-bc1b-55aad3449840","ios":"levelo://app?vid=7a550194-ce9c-4cb5-bc1b-55aad3449840"},"vehicle_type_id":"4","last_reported":1727691000,"current_range_meters":12800,"station_id":"ce4bho12rcd13ifvqh1g","pricing_plan_id":"cebpf4jnsgd1na2vs0mg"},{"bike_id":"85a2b123-b4c7-4702-9893-f369c3a5517b","system_id":"levelo_inurba_marseille","lat":43.23148,"lon":5.43719,"is_reserved":false,"is_disabled":false,"rental_uris":{"android":"levelo://app?vid=85a2b123-b4c7-4702-9893-f369c3a5517b","ios":"levelo://app?vid=85a2b123-b4c7-4702-9893-f369c3a5517b"},"vehicle_type_id":"4","last_reported":1727691000,"current_range_meters":12400,"station_id":"ce4bhmp2rcd13ifvqgog","pricing_plan_id":"cebpf4jnsgd1na2vs0mg"},{"bike_id":"680f5edc-c922-43cc-ade0-414e3a347732","system_id":"levelo_inurba_marseille","lat":43.2408,"lon":5.37741,"is_reserved":false,"is_disabled":false,"rental_uris":{"android":"levelo://app?vid=680f5edc-c922-43cc-ade0-414e3a347732","ios":"levelo://app?vid=680f5edc-c922-43cc-ade0-414e3a347732"},"vehicle_type_id":"4","last_reported":1727691000,"current_range_meters":24000,"station_id":"ce4bhnp2rcd13ifvqgvg","pricing_plan_id":"cebpf4jnsgd1na2vs0mg"},{"bike_id":"95f864cd-3d33-4a22-9e76-46c0e49460f2","system_id":"levelo_inurba_marseille","lat":43.30537,"lon":5.36544,"is_reserved":false,"is_disabled":false,"rental_uris":{"android":"levelo://app?vid=95f864cd-3d33-4a22-9e76-46c0e49460f2","ios":"levelo://app?vid=95f864cd-3d33-4a22-9e76-46c0e49460f2"},"vehicle_type_id":"4","last_reported":1727691000,"current_range_meters":8400,"station_id":"ce4bgs12rcd13ifvqcag","pricing_plan_id":"cebpf4jnsgd1na2vs0mg"},{"bike_id":"65b81cad-d8c4-4688-a851-db55e68aac95","system_id":"levelo_inurba_marseille","lat":43.31365,"lon":5.36682,"is_reserved":false,"is_disabled":false,"rental_uris":{"android":"levelo://app?vid=65b81cad-d8c4-4688-a851-db55e68aac95","ios":"levelo://app?vid=65b81cad-d8c4-4688-a851-db55e68aac95"},"vehicle_type_id":"4","last_reported":1727691000,"current_range_meters":30000,"station_id":"ce4bgr92rcd13ifvqc6g","pricing_plan_id":"cebpf4jnsgd1na2vs0mg"},{"bike_id":"43c06965-23b9-4d30-b7e8-7a5ba49ffbec","system_id":"levelo_inurba_marseille","lat":43.32313,"lon":5.38301,"is_reserved":false,"is_disabled":false,"rental_uris":{"android":"levelo://app?vid=43c06965-23b9-4d30-b7e8-7a5ba49ffbec","ios":"levelo://app?vid=43c06965-23b9-4d30-b7e8-7a5ba49ffbec"},"vehicle_type_id":"4","last_reported":1727691000,"current_range_meters":33600,"station_id":"ce4bhr12rcd13ifvqhqg","pricing_plan_id":"cebpf4jnsgd1na2vs0mg"},{"bike_id":"e75cb3a6-6837-4f38-aef8-3c66ad5de77c","system_id":"levelo_inurba_marseille","lat":43.29839,"lon":5.36267,"is_reserved":false,"is_disabled":false,"rental_uris":{"android":"levelo://app?vid=e75cb3a6-6837-4f38-aef8-3c66ad5de77c","ios":"levelo://app?vid=e75cb3a6-6837-4f38-aef8-3c66ad5de77c"},"vehicle_type_id":"4","last_reported":1727691000,"current_range_meters":18800,"station_id":"ce4bgpp2rcd13ifvqc3g","pricing_plan_id":"cebpf4jnsgd1na2vs0mg"},{"bike_id":"9eaa9da9-0b99-4a8a-b1b2-eb50a7dc9d16","system_id":"levelo_inurba_marseille","lat":43.336,"lon":5.41032,"is_reserved":false,"is_disabled":false,"rental_uris":{"android":"levelo://app?vid=9eaa9da9-0b99-4a8a-b1b2-eb50a7dc9d16","ios":"levelo://app?vid=9eaa9da9-0b99-4a8a-b1b2-eb50a7dc9d16"},"vehicle_type_id":"4","last_reported":1727691000,"current_range_meters":33200,"station_id":"ce4bhqh2rcd13ifvqhmg","pricing_plan_id":"cebpf4jnsgd1na2vs0mg"},{"bike_id":"9f562c2d-59f6-470b-82a8-14c22df0cb81","system_id":"levelo_inurba_marseille","lat":43.30192,"lon":5.36621,"is_reserved":false,"is_disabled":false,"rental_uris":{"android":"levelo://app?vid=9f562c2d-59f6-470b-82a8-14c22df0cb81","ios":"levelo://app?vid=9f562c2d-59f6-470b-82a8-14c22df0cb81"},"vehicle_type_id":"4","last_reported":1727691000,"current_range_meters":7200,"station_id":"ce4bgrh2rcd13ifvqc8g","pricing_plan_id":"cebpf4jnsgd1na2vs0mg"},{"bike_id":"dac4e5df-9c4a-4dcc-a4e9-8000e2150fe4","system_id":"levelo_inurba_marseille","lat":43.29916,"lon":5.37491,"is_reserved":false,"is_disabled":false,"rental_uris":{"android":"levelo://app?vid=dac4e5df-9c4a-4dcc-a4e9-8000e2150fe4","ios":"levelo://app?vid=dac4e5df-9c4a-4dcc-a4e9-8000e2150fe4"},"vehicle_type_id":"4","last_reported":1727691000,"current_range_meters":38400,"station_id":"ce4bgjh2rcd13ifvqbg0","pricing_plan_id":"cebpf4jnsgd1na2vs0mg"},{"bike_id":"65ce3f0a-a302-4f26-b045-299417b1fe38","system_id":"levelo_inurba_marseille","lat":43.24184,"lon":5.39728,"is_reserved":false,"is_disabled":false,"rental_uris":{"android":"levelo://app?vid=65ce3f0a-a302-4f26-b045-299417b1fe38","ios":"levelo://app?vid=65ce3f0a-a302-4f26-b045-299417b1fe38"},"vehicle_type_id":"4","last_reported":1727691000,"current_range_meters":2000,"station_id":"ce4bhn12rcd13ifvqgpg","pricing_plan_id":"cebpf4jnsgd1na2vs0mg"},{"bike_id":"1b019db2-ef06-4c36-bae6-d19a82dfd8bc","system_id":"levelo_inurba_marseille","lat":43.24077,"lon":5.37746,"is_reserved":false,"is_disabled":false,"rental_uris":{"android":"levelo://app?vid=1b019db2-ef06-4c36-bae6-d19a82dfd8bc","ios":"levelo://app?vid=1b019db2-ef06-4c36-bae6-d19a82dfd8bc"},"vehicle_type_id":"4","last_reported":1727691000,"current_range_meters":12000,"station_id":"ce4bhnp2rcd13ifvqgvg","pricing_plan_id":"cebpf4jnsgd1na2vs0mg"},{"bike_id":"6ee2de4a-ddd1-4839-a49f-27e11835bf3d","system_id":"levelo_inurba_marseille","lat":43.30214,"lon":5.36616,"is_reserved":false,"is_disabled":false,"rental_uris":{"android":"levelo://app?vid=6ee2de4a-ddd1-4839-a49f-27e11835bf3d","ios":"levelo://app?vid=6ee2de4a-ddd1-4839-a49f-27e11835bf3d"},"vehicle_type_id":"4","last_reported":1727691000,"current_range_meters":25600,"station_id":"ce4bgrh2rcd13ifvqc8g","pricing_plan_id":"cebpf4jnsgd1na2vs0mg"},{"bike_id":"10e2c32c-87c7-4bf6-9209-122e9a389e13","system_id":"levelo_inurba_marseille","lat":43.27206,"lon":5.39185,"is_reserved":false,"is_disabled":false,"rental_uris":{"android":"levelo://app?vid=10e2c32c-87c7-4bf6-9209-122e9a389e13","ios":"levelo://app?vid=10e2c32c-87c7-4bf6-9209-122e9a389e13"},"vehicle_type_id":"4","last_reported":1727691000,"current_range_meters":29600,"station_id":"ce4bhhp2rcd13ifvqfm0","pricing_plan_id":"cebpf4jnsgd1na2vs0mg"},{"bike_id":"2dadae6c-624e-453c-9c9e-53a1814a9c2c","system_id":"levelo_inurba_marseille","lat":43.28435,"lon":5.34997,"is_reserved":false,"is_disabled":false,"rental_uris":{"android":"levelo://app?vid=2dadae6c-624e-453c-9c9e-53a1814a9c2c","ios":"levelo://app?vid=2dadae6c-624e-453c-9c9e-53a1814a9c2c"},"vehicle_type_id":"4","last_reported":1727691000,"current_range_meters":12400,"station_id":"ce4bhbh2rcd13ifvqepg","pricing_plan_id":"cebpf4jnsgd1na2vs0mg"},{"bike_id":"af8726ce-1f41-4136-ae0b-14a0449a0611","system_id":"levelo_inurba_marseille","lat":43.2397,"lon":5.36633,"is_reserved":false,"is_disabled":false,"rental_uris":{"android":"levelo://app?vid=af8726ce-1f41-4136-ae0b-14a0449a0611","ios":"levelo://app?vid=af8726ce-1f41-4136-ae0b-14a0449a0611"},"vehicle_type_id":"4","last_reported":1727691000,"current_range_meters":28400,"station_id":"ce4bhi12rcd13ifvqfp0","pricing_plan_id":"cebpf4jnsgd1na2vs0mg"},{"bike_id":"ddd5529b-15fe-4104-b216-2f96d37002e0","system_id":"levelo_inurba_marseille","lat":43.288973,"lon":5.398052,"is_reserved":false,"is_disabled":false,"rental_uris":{"android":"levelo://app?vid=ddd5529b-15fe-4104-b216-2f96d37002e0","ios":"levelo://app?vid=ddd5529b-15fe-4104-b216-2f96d37002e0"},"vehicle_type_id":"4","last_reported":1727691000,"current_range_meters":36800,"station_id":"ce4bh3h2rcd13ifvqdn0","pricing_plan_id":"cebpf4jnsgd1na2vs0mg"},{"bike_id":"bb0760b5-3961-4538-a8fe-4ea2a71c5a94","system_id":"levelo_inurba_marseille","lat":43.30141,"lon":5.37416,"is_reserved":false,"is_disabled":false,"rental_uris":{"android":"levelo://app?vid=bb0760b5-3961-4538-a8fe-4ea2a71c5a94","ios":"levelo://app?vid=bb0760b5-3961-4538-a8fe-4ea2a71c5a94"},"vehicle_type_id":"4","last_reported":1727691000,"current_range_meters":28800,"station_id":"ce4bgs92rcd13ifvqcc0","pricing_plan_id":"cebpf4jnsgd1na2vs0mg"},{"bike_id":"d42cd528-5e38-4ecd-8a58-0232649066d4","system_id":"levelo_inurba_marseille","lat":43.29898,"lon":5.43672,"is_reserved":false,"is_disabled":false,"rental_uris":{"android":"levelo://app?vid=d42cd528-5e38-4ecd-8a58-0232649066d4","ios":"levelo://app?vid=d42cd528-5e38-4ecd-8a58-0232649066d4"},"vehicle_type_id":"4","last_reported":1727691000,"current_range_meters":39200,"station_id":"ce4bhpp2rcd13ifvqhfg","pricing_plan_id":"cebpf4jnsgd1na2vs0mg"},{"bike_id":"74374d7d-7533-4be8-8f66-05dc0f5e80f5","system_id":"levelo_inurba_marseille","lat":43.33023,"lon":5.39041,"is_reserved":false,"is_disabled":false,"rental_uris":{"android":"levelo://app?vid=74374d7d-7533-4be8-8f66-05dc0f5e80f5","ios":"levelo://app?vid=74374d7d-7533-4be8-8f66-05dc0f5e80f5"},"vehicle_type_id":"4","last_reported":1727691000,"current_range_meters":16400,"station_id":"ce4bhr92rcd13ifvqhrg","pricing_plan_id":"cebpf4jnsgd1na2vs0mg"},{"bike_id":"65d237f4-d36e-4080-9b12-777d38a4e71c","system_id":"levelo_inurba_marseille","lat":43.255768,"lon":5.382205,"is_reserved":false,"is_disabled":false,"rental_uris":{"android":"levelo://app?vid=65d237f4-d36e-4080-9b12-777d38a4e71c","ios":"levelo://app?vid=65d237f4-d36e-4080-9b12-777d38a4e71c"},"vehicle_type_id":"4","last_reported":1727691000,"current_range_meters":34800,"station_id":"ce4bhih2rcd13ifvqfs0","pricing_plan_id":"cebpf4jnsgd1na2vs0mg"},{"bike_id":"62110c18-ba6e-4a54-8b88-fbfbaf57e32e","system_id":"levelo_inurba_marseille","lat":43.32549,"lon":5.41419,"is_reserved":false,"is_disabled":false,"rental_uris":{"android":"levelo://app?vid=62110c18-ba6e-4a54-8b88-fbfbaf57e32e","ios":"levelo://app?vid=62110c18-ba6e-4a54-8b88-fbfbaf57e32e"},"vehicle_type_id":"4","last_reported":1727691000,"current_range_meters":38800,"station_id":"ce4bhq12rcd13ifvqhhg","pricing_plan_id":"cebpf4jnsgd1na2vs0mg"},{"bike_id":"7c7f9508-a597-4ee9-8005-d6dfd41ea410","system_id":"levelo_inurba_marseille","lat":43.29574,"lon":5.37506,"is_reserved":false,"is_disabled":false,"rental_uris":{"android":"levelo://app?vid=7c7f9508-a597-4ee9-8005-d6dfd41ea410","ios":"levelo://app?vid=7c7f9508-a597-4ee9-8005-d6dfd41ea410"},"vehicle_type_id":"4","last_reported":1727691000,"current_range_meters":38800,"station_id":"ce4bgh92rcd13ifvqb50","pricing_plan_id":"cebpf4jnsgd1na2vs0mg"},{"bike_id":"d7b424d0-4372-4e4b-b71f-73399dd7267c","system_id":"levelo_inurba_marseille","lat":43.29294,"lon":5.37459,"is_reserved":false,"is_disabled":false,"rental_uris":{"android":"levelo://app?vid=d7b424d0-4372-4e4b-b71f-73399dd7267c","ios":"levelo://app?vid=d7b424d0-4372-4e4b-b71f-73399dd7267c"},"vehicle_type_id":"4","last_reported":1727691000,"current_range_meters":36800,"station_id":"ce4bgi12rcd13ifvqb70","pricing_plan_id":"cebpf4jnsgd1na2vs0mg"},{"bike_id":"1515e722-ccb9-459a-9de8-08d306755839","system_id":"levelo_inurba_marseille","lat":43.29231,"lon":5.42686,"is_reserved":false,"is_disabled":false,"rental_uris":{"android":"levelo://app?vid=1515e722-ccb9-459a-9de8-08d306755839","ios":"levelo://app?vid=1515e722-ccb9-459a-9de8-08d306755839"},"vehicle_type_id":"4","last_reported":1727691000,"current_range_meters":12800,"station_id":"ce4bhnh2rcd13ifvqgug","pricing_plan_id":"cebpf4jnsgd1na2vs0mg"},{"bike_id":"50cc9045-c373-4fcc-aba4-a9864b4039b5","system_id":"levelo_inurba_marseille","lat":43.29637,"lon":5.40587,"is_reserved":false,"is_disabled":false,"rental_uris":{"android":"levelo://app?vid=50cc9045-c373-4fcc-aba4-a9864b4039b5","ios":"levelo://app?vid=50cc9045-c373-4fcc-aba4-a9864b4039b5"},"vehicle_type_id":"4","last_reported":1727691000,"current_range_meters":4400,"station_id":"ce4bh0h2rcd13ifvqd60","pricing_plan_id":"cebpf4jnsgd1na2vs0mg"},{"bike_id":"dc0c1503-20e8-4fbf-9425-72d99823aade","system_id":"levelo_inurba_marseille","lat":43.33751,"lon":5.3744,"is_reserved":false,"is_disabled":false,"rental_uris":{"android":"levelo://app?vid=dc0c1503-20e8-4fbf-9425-72d99823aade","ios":"levelo://app?vid=dc0c1503-20e8-4fbf-9425-72d99823aade"},"vehicle_type_id":"4","last_reported":1727691000,"current_range_meters":29600,"station_id":"","pricing_plan_id":"cebpf4jnsgd1na2vs0mg"},{"bike_id":"da7a3b56-1db9-4112-975f-6c841a498430","system_id":"levelo_inurba_marseille","lat":43.30585,"lon":5.39356,"is_reserved":false,"is_disabled":false,"rental_uris":{"android":"levelo://app?vid=da7a3b56-1db9-4112-975f-6c841a498430","ios":"levelo://app?vid=da7a3b56-1db9-4112-975f-6c841a498430"},"vehicle_type_id":"4","last_reported":1727691000,"current_range_meters":9600,"station_id":"ce4bh0p2rcd13ifvqd80","pricing_plan_id":"cebpf4jnsgd1na2vs0mg"},{"bike_id":"74a7fb63-2532-44a6-8582-784dafeae200","system_id":"levelo_inurba_marseille","lat":43.26158,"lon":5.40388,"is_reserved":false,"is_disabled":false,"rental_uris":{"android":"levelo://app?vid=74a7fb63-2532-44a6-8582-784dafeae200","ios":"levelo://app?vid=74a7fb63-2532-44a6-8582-784dafeae200"},"vehicle_type_id":"4","last_reported":1727691000,"current_range_meters":27200,"station_id":"ce4bhih2rcd13ifvqfs0","pricing_plan_id":"cebpf4jnsgd1na2vs0mg"},{"bike_id":"44b3be37-5f9e-498a-a752-7653734d4ef1","system_id":"levelo_inurba_marseille","lat":43.24545,"lon":5.3953,"is_reserved":false,"is_disabled":false,"rental_uris":{"android":"levelo://app?vid=44b3be37-5f9e-498a-a752-7653734d4ef1","ios":"levelo://app?vid=44b3be37-5f9e-498a-a752-7653734d4ef1"},"vehicle_type_id":"4","last_reported":1727691000,"current_range_meters":24000,"station_id":"ce4bhlp2rcd13ifvqgjg","pricing_plan_id":"cebpf4jnsgd1na2vs0mg"},{"bike_id":"d97790a5-7828-4553-a790-f0576409763c","system_id":"levelo_inurba_marseille","lat":43.2594,"lon":5.40902,"is_reserved":false,"is_disabled":false,"rental_uris":{"android":"levelo://app?vid=d97790a5-7828-4553-a790-f0576409763c","ios":"levelo://app?vid=d97790a5-7828-4553-a790-f0576409763c"},"vehicle_type_id":"4","last_reported":1727691000,"current_range_meters":19200,"station_id":"ce4bhm92rcd13ifvqglg","pricing_plan_id":"cebpf4jnsgd1na2vs0mg"},{"bike_id":"5c1736b5-9f3e-4107-a81b-b9306fb2047f","system_id":"levelo_inurba_marseille","lat":43.31329,"lon":5.397,"is_reserved":false,"is_disabled":false,"rental_uris":{"android":"levelo://app?vid=5c1736b5-9f3e-4107-a81b-b9306fb2047f","ios":"levelo://app?vid=5c1736b5-9f3e-4107-a81b-b9306fb2047f"},"vehicle_type_id":"4","last_reported":1727691000,"current_range_meters":32800,"station_id":"ce4bgvp2rcd13ifvqcu0","pricing_plan_id":"cebpf4jnsgd1na2vs0mg"},{"bike_id":"e0c0aaea-b8b0-479d-b33f-e04073e44853","system_id":"levelo_inurba_marseille","lat":43.326337,"lon":5.410273,"is_reserved":false,"is_disabled":false,"rental_uris":{"android":"levelo://app?vid=e0c0aaea-b8b0-479d-b33f-e04073e44853","ios":"levelo://app?vid=e0c0aaea-b8b0-479d-b33f-e04073e44853"},"vehicle_type_id":"4","last_reported":1727691000,"current_range_meters":26800,"station_id":"ce4bhpp2rcd13ifvqhgg","pricing_plan_id":"cebpf4jnsgd1na2vs0mg"},{"bike_id":"560eec86-d20e-4632-be2b-0f04c3e3f7f0","system_id":"levelo_inurba_marseille","lat":43.27067,"lon":5.42271,"is_reserved":false,"is_disabled":false,"rental_uris":{"android":"levelo://app?vid=560eec86-d20e-4632-be2b-0f04c3e3f7f0","ios":"levelo://app?vid=560eec86-d20e-4632-be2b-0f04c3e3f7f0"},"vehicle_type_id":"4","last_reported":1727691000,"current_range_meters":29600,"station_id":"ce4bhk92rcd13ifvqgb0","pricing_plan_id":"cebpf4jnsgd1na2vs0mg"},{"bike_id":"791778cb-b9b1-46da-80e8-ce0940cdd61d","system_id":"levelo_inurba_marseille","lat":43.23198,"lon":5.35548,"is_reserved":false,"is_disabled":false,"rental_uris":{"android":"levelo://app?vid=791778cb-b9b1-46da-80e8-ce0940cdd61d","ios":"levelo://app?vid=791778cb-b9b1-46da-80e8-ce0940cdd61d"},"vehicle_type_id":"4","last_reported":1727691000,"current_range_meters":10800,"station_id":"ce4bhu92rcd13ifvqi70","pricing_plan_id":"cebpf4jnsgd1na2vs0mg"},{"bike_id":"0569ffd9-5d73-439a-979a-a1c88b9a1061","system_id":"levelo_inurba_marseille","lat":43.32914,"lon":5.39052,"is_reserved":false,"is_disabled":false,"rental_uris":{"android":"levelo://app?vid=0569ffd9-5d73-439a-979a-a1c88b9a1061","ios":"levelo://app?vid=0569ffd9-5d73-439a-979a-a1c88b9a1061"},"vehicle_type_id":"4","last_reported":1727691000,"current_range_meters":33600,"station_id":"","pricing_plan_id":"cebpf4jnsgd1na2vs0mg"},{"bike_id":"69b2e18e-fd83-4b7f-ad81-9184801096a7","system_id":"levelo_inurba_marseille","lat":43.28272,"lon":5.35078,"is_reserved":false,"is_disabled":false,"rental_uris":{"android":"levelo://app?vid=69b2e18e-fd83-4b7f-ad81-9184801096a7","ios":"levelo://app?vid=69b2e18e-fd83-4b7f-ad81-9184801096a7"},"vehicle_type_id":"4","last_reported":1727691000,"current_range_meters":7200,"station_id":"ce4bhbp2rcd13ifvqerg","pricing_plan_id":"cebpf4jnsgd1na2vs0mg"},{"bike_id":"95cf0907-9c98-4a72-aea0-72aef48ed79b","system_id":"levelo_inurba_marseille","lat":43.265045,"lon":5.395369,"is_reserved":false,"is_disabled":false,"rental_uris":{"android":"levelo://app?vid=95cf0907-9c98-4a72-aea0-72aef48ed79b","ios":"levelo://app?vid=95cf0907-9c98-4a72-aea0-72aef48ed79b"},"vehicle_type_id":"4","last_reported":1727691000,"current_range_meters":20800,"station_id":"ce4bhi12rcd13ifvqfq0","pricing_plan_id":"cebpf4jnsgd1na2vs0mg"},{"bike_id":"29d1f9f5-4709-42b4-b9a9-6ed7717f8124","system_id":"levelo_inurba_marseille","lat":43.29568,"lon":5.3752,"is_reserved":false,"is_disabled":false,"rental_uris":{"android":"levelo://app?vid=29d1f9f5-4709-42b4-b9a9-6ed7717f8124","ios":"levelo://app?vid=29d1f9f5-4709-42b4-b9a9-6ed7717f8124"},"vehicle_type_id":"4","last_reported":1727691000,"current_range_meters":39200,"station_id":"ce4bgh92rcd13ifvqb50","pricing_plan_id":"cebpf4jnsgd1na2vs0mg"},{"bike_id":"29cd1976-89d1-43cb-84d2-80e4439db4b1","system_id":"levelo_inurba_marseille","lat":43.31222,"lon":5.36855,"is_reserved":false,"is_disabled":false,"rental_uris":{"android":"levelo://app?vid=29cd1976-89d1-43cb-84d2-80e4439db4b1","ios":"levelo://app?vid=29cd1976-89d1-43cb-84d2-80e4439db4b1"},"vehicle_type_id":"4","last_reported":1727691000,"current_range_meters":39200,"station_id":"ce4bgl92rcd13ifvqbq0","pricing_plan_id":"cebpf4jnsgd1na2vs0mg"},{"bike_id":"8642a6ab-ca1b-4748-aad4-e0879f8a1734","system_id":"levelo_inurba_marseille","lat":43.24074,"lon":5.37759,"is_reserved":false,"is_disabled":false,"rental_uris":{"android":"levelo://app?vid=8642a6ab-ca1b-4748-aad4-e0879f8a1734","ios":"levelo://app?vid=8642a6ab-ca1b-4748-aad4-e0879f8a1734"},"vehicle_type_id":"4","last_reported":1727691000,"current_range_meters":38400,"station_id":"ce4bhnp2rcd13ifvqgvg","pricing_plan_id":"cebpf4jnsgd1na2vs0mg"},{"bike_id":"d044e20f-a831-4795-bd1f-b931acf962b4","system_id":"levelo_inurba_marseille","lat":43.26786,"lon":5.39421,"is_reserved":false,"is_disabled":false,"rental_uris":{"android":"levelo://app?vid=d044e20f-a831-4795-bd1f-b931acf962b4","ios":"levelo://app?vid=d044e20f-a831-4795-bd1f-b931acf962b4"},"vehicle_type_id":"4","last_reported":1727691000,"current_range_meters":35200,"station_id":"ce4bhh12rcd13ifvqfg0","pricing_plan_id":"cebpf4jnsgd1na2vs0mg"},{"bike_id":"bd86acbb-18ff-4457-8d99-e11793cb14a0","system_id":"levelo_inurba_marseille","lat":43.27069,"lon":5.42278,"is_reserved":false,"is_disabled":false,"rental_uris":{"android":"levelo://app?vid=bd86acbb-18ff-4457-8d99-e11793cb14a0","ios":"levelo://app?vid=bd86acbb-18ff-4457-8d99-e11793cb14a0"},"vehicle_type_id":"4","last_reported":1727691000,"current_range_meters":32000,"station_id":"ce4bhk92rcd13ifvqgb0","pricing_plan_id":"cebpf4jnsgd1na2vs0mg"},{"bike_id":"53b8b279-3e36-4185-b3b0-4688e1a414fb","system_id":"levelo_inurba_marseille","lat":43.28424,"lon":5.35,"is_reserved":false,"is_disabled":false,"rental_uris":{"android":"levelo://app?vid=53b8b279-3e36-4185-b3b0-4688e1a414fb","ios":"levelo://app?vid=53b8b279-3e36-4185-b3b0-4688e1a414fb"},"vehicle_type_id":"4","last_reported":1727691000,"current_range_meters":36800,"station_id":"ce4bhbh2rcd13ifvqepg","pricing_plan_id":"cebpf4jnsgd1na2vs0mg"},{"bike_id":"3ea05e8b-dcf6-4f60-a396-3d9a74f783ed","system_id":"levelo_inurba_marseille","lat":43.2315,"lon":5.43715,"is_reserved":false,"is_disabled":false,"rental_uris":{"android":"levelo://app?vid=3ea05e8b-dcf6-4f60-a396-3d9a74f783ed","ios":"levelo://app?vid=3ea05e8b-dcf6-4f60-a396-3d9a74f783ed"},"vehicle_type_id":"4","last_reported":1727691000,"current_range_meters":25200,"station_id":"ce4bhmp2rcd13ifvqgog","pricing_plan_id":"cebpf4jnsgd1na2vs0mg"},{"bike_id":"12db6ca1-efb1-4e4c-b73a-5e6760968fa9","system_id":"levelo_inurba_marseille","lat":43.31217,"lon":5.36861,"is_reserved":false,"is_disabled":false,"rental_uris":{"android":"levelo://app?vid=12db6ca1-efb1-4e4c-b73a-5e6760968fa9","ios":"levelo://app?vid=12db6ca1-efb1-4e4c-b73a-5e6760968fa9"},"vehicle_type_id":"4","last_reported":1727691000,"current_range_meters":18000,"station_id":"ce4bgl92rcd13ifvqbq0","pricing_plan_id":"cebpf4jnsgd1na2vs0mg"},{"bike_id":"ff4ab032-b736-4dcb-aaae-7074ae538479","system_id":"levelo_inurba_marseille","lat":43.30549,"lon":5.36712,"is_reserved":false,"is_disabled":false,"rental_uris":{"android":"levelo://app?vid=ff4ab032-b736-4dcb-aaae-7074ae538479","ios":"levelo://app?vid=ff4ab032-b736-4dcb-aaae-7074ae538479"},"vehicle_type_id":"4","last_reported":1727691000,"current_range_meters":16000,"station_id":"ce4bgrp2rcd13ifvqc9g","pricing_plan_id":"cebpf4jnsgd1na2vs0mg"},{"bike_id":"c467ee48-6d29-4a96-8f78-4e00962e5e77","system_id":"levelo_inurba_marseille","lat":43.27209,"lon":5.39175,"is_reserved":false,"is_disabled":false,"rental_uris":{"android":"levelo://app?vid=c467ee48-6d29-4a96-8f78-4e00962e5e77","ios":"levelo://app?vid=c467ee48-6d29-4a96-8f78-4e00962e5e77"},"vehicle_type_id":"4","last_reported":1727691000,"current_range_meters":20400,"station_id":"ce4bhhp2rcd13ifvqfm0","pricing_plan_id":"cebpf4jnsgd1na2vs0mg"},{"bike_id":"5081574a-6fac-48a3-b075-272186fe189f","system_id":"levelo_inurba_marseille","lat":43.2952,"lon":5.39042,"is_reserved":false,"is_disabled":false,"rental_uris":{"android":"levelo://app?vid=5081574a-6fac-48a3-b075-272186fe189f","ios":"levelo://app?vid=5081574a-6fac-48a3-b075-272186fe189f"},"vehicle_type_id":"4","last_reported":1727691000,"current_range_meters":39200,"station_id":"ce4bh3p2rcd13ifvqdp0","pricing_plan_id":"cebpf4jnsgd1na2vs0mg"},{"bike_id":"ce1f2de4-99b8-4e7f-9922-366b3d81cc6a","system_id":"levelo_inurba_marseille","lat":43.28553,"lon":5.38348,"is_reserved":false,"is_disabled":false,"rental_uris":{"android":"levelo://app?vid=ce1f2de4-99b8-4e7f-9922-366b3d81cc6a","ios":"levelo://app?vid=ce1f2de4-99b8-4e7f-9922-366b3d81cc6a"},"vehicle_type_id":"4","last_reported":1727691000,"current_range_meters":28800,"station_id":"ce4bh512rcd13ifvqe3g","pricing_plan_id":"cebpf4jnsgd1na2vs0mg"},{"bike_id":"fc5f5cdb-6ca2-47d3-91b8-480192cd30c7","system_id":"levelo_inurba_marseille","lat":43.26724,"lon":5.3722,"is_reserved":false,"is_disabled":false,"rental_uris":{"android":"levelo://app?vid=fc5f5cdb-6ca2-47d3-91b8-480192cd30c7","ios":"levelo://app?vid=fc5f5cdb-6ca2-47d3-91b8-480192cd30c7"},"vehicle_type_id":"4","last_reported":1727691000,"current_range_meters":8400,"station_id":"ce4bhbp2rcd13ifvqerg","pricing_plan_id":"cebpf4jnsgd1na2vs0mg"},{"bike_id":"fd78f16d-0556-40e5-bb50-30c97b6b3fc7","system_id":"levelo_inurba_marseille","lat":43.29566,"lon":5.37526,"is_reserved":false,"is_disabled":false,"rental_uris":{"android":"levelo://app?vid=fd78f16d-0556-40e5-bb50-30c97b6b3fc7","ios":"levelo://app?vid=fd78f16d-0556-40e5-bb50-30c97b6b3fc7"},"vehicle_type_id":"4","last_reported":1727691000,"current_range_meters":20400,"station_id":"ce4bgh92rcd13ifvqb50","pricing_plan_id":"cebpf4jnsgd1na2vs0mg"},{"bike_id":"01303090-9268-4f4b-add6-753de52aafd1","system_id":"levelo_inurba_marseille","lat":43.26933,"lon":5.38929,"is_reserved":false,"is_disabled":false,"rental_uris":{"android":"levelo://app?vid=01303090-9268-4f4b-add6-753de52aafd1","ios":"levelo://app?vid=01303090-9268-4f4b-add6-753de52aafd1"},"vehicle_type_id":"4","last_reported":1727691000,"current_range_meters":23200,"station_id":"ce4bhhh2rcd13ifvqfl0","pricing_plan_id":"cebpf4jnsgd1na2vs0mg"},{"bike_id":"133fb6b7-5e38-4c3d-aafc-569467201556","system_id":"levelo_inurba_marseille","lat":43.23154,"lon":5.43709,"is_reserved":false,"is_disabled":false,"rental_uris":{"android":"levelo://app?vid=133fb6b7-5e38-4c3d-aafc-569467201556","ios":"levelo://app?vid=133fb6b7-5e38-4c3d-aafc-569467201556"},"vehicle_type_id":"4","last_reported":1727691000,"current_range_meters":17600,"station_id":"ce4bhmp2rcd13ifvqgog","pricing_plan_id":"cebpf4jnsgd1na2vs0mg"},{"bike_id":"e20f59d4-4a2f-45f5-8f55-b006519a7083","system_id":"levelo_inurba_marseille","lat":43.23962,"lon":5.36632,"is_reserved":false,"is_disabled":false,"rental_uris":{"android":"levelo://app?vid=e20f59d4-4a2f-45f5-8f55-b006519a7083","ios":"levelo://app?vid=e20f59d4-4a2f-45f5-8f55-b006519a7083"},"vehicle_type_id":"4","last_reported":1727691000,"current_range_meters":15200,"station_id":"ce4bhi12rcd13ifvqfp0","pricing_plan_id":"cebpf4jnsgd1na2vs0mg"},{"bike_id":"d685ace2-a2e0-4d18-8c09-9a118586c91a","system_id":"levelo_inurba_marseille","lat":43.29801,"lon":5.40416,"is_reserved":false,"is_disabled":false,"rental_uris":{"android":"levelo://app?vid=d685ace2-a2e0-4d18-8c09-9a118586c91a","ios":"levelo://app?vid=d685ace2-a2e0-4d18-8c09-9a118586c91a"},"vehicle_type_id":"4","last_reported":1727691000,"current_range_meters":6000,"station_id":"","pricing_plan_id":"cebpf4jnsgd1na2vs0mg"},{"bike_id":"ffc0bde0-8df0-4099-9996-7fe6b9f1baaf","system_id":"levelo_inurba_marseille","lat":43.2455,"lon":5.39526,"is_reserved":false,"is_disabled":false,"rental_uris":{"android":"levelo://app?vid=ffc0bde0-8df0-4099-9996-7fe6b9f1baaf","ios":"levelo://app?vid=ffc0bde0-8df0-4099-9996-7fe6b9f1baaf"},"vehicle_type_id":"4","last_reported":1727691000,"current_range_meters":22800,"station_id":"ce4bhlp2rcd13ifvqgjg","pricing_plan_id":"cebpf4jnsgd1na2vs0mg"},{"bike_id":"82938b1a-17d9-415a-a06e-2bc87d35d274","system_id":"levelo_inurba_marseille","lat":43.23152,"lon":5.43706,"is_reserved":false,"is_disabled":false,"rental_uris":{"android":"levelo://app?vid=82938b1a-17d9-415a-a06e-2bc87d35d274","ios":"levelo://app?vid=82938b1a-17d9-415a-a06e-2bc87d35d274"},"vehicle_type_id":"4","last_reported":1727691000,"current_range_meters":27600,"station_id":"ce4bhmp2rcd13ifvqgog","pricing_plan_id":"cebpf4jnsgd1na2vs0mg"},{"bike_id":"7bd89c2a-5cd9-49ed-83ed-dd2d91ea9a0e","system_id":"levelo_inurba_marseille","lat":43.31229,"lon":5.36856,"is_reserved":false,"is_disabled":false,"rental_uris":{"android":"levelo://app?vid=7bd89c2a-5cd9-49ed-83ed-dd2d91ea9a0e","ios":"levelo://app?vid=7bd89c2a-5cd9-49ed-83ed-dd2d91ea9a0e"},"vehicle_type_id":"4","last_reported":1727691000,"current_range_meters":36800,"station_id":"ce4bgl92rcd13ifvqbq0","pricing_plan_id":"cebpf4jnsgd1na2vs0mg"},{"bike_id":"138dbff9-15d8-4b60-9b07-ff724636c35c","system_id":"levelo_inurba_marseille","lat":43.27564,"lon":5.39585,"is_reserved":false,"is_disabled":false,"rental_uris":{"android":"levelo://app?vid=138dbff9-15d8-4b60-9b07-ff724636c35c","ios":"levelo://app?vid=138dbff9-15d8-4b60-9b07-ff724636c35c"},"vehicle_type_id":"4","last_reported":1727691000,"current_range_meters":14800,"station_id":"","pricing_plan_id":"cebpf4jnsgd1na2vs0mg"},{"bike_id":"e254f4aa-e734-49b4-b53e-66b568232443","system_id":"levelo_inurba_marseille","lat":43.29902,"lon":5.43662,"is_reserved":false,"is_disabled":false,"rental_uris":{"android":"levelo://app?vid=e254f4aa-e734-49b4-b53e-66b568232443","ios":"levelo://app?vid=e254f4aa-e734-49b4-b53e-66b568232443"},"vehicle_type_id":"4","last_reported":1727691000,"current_range_meters":20000,"station_id":"ce4bhpp2rcd13ifvqhfg","pricing_plan_id":"cebpf4jnsgd1na2vs0mg"},{"bike_id":"a402e127-a7f1-443f-b76e-1652ca4fd85b","system_id":"levelo_inurba_marseille","lat":43.30153,"lon":5.38087,"is_reserved":false,"is_disabled":false,"rental_uris":{"android":"levelo://app?vid=a402e127-a7f1-443f-b76e-1652ca4fd85b","ios":"levelo://app?vid=a402e127-a7f1-443f-b76e-1652ca4fd85b"},"vehicle_type_id":"4","last_reported":1727691000,"current_range_meters":32800,"station_id":"ce4bgjp2rcd13ifvqbh0","pricing_plan_id":"cebpf4jnsgd1na2vs0mg"},{"bike_id":"e6795abb-4f59-4fcc-9f16-d1552c1d8030","system_id":"levelo_inurba_marseille","lat":43.305527,"lon":5.36554,"is_reserved":false,"is_disabled":false,"rental_uris":{"android":"levelo://app?vid=e6795abb-4f59-4fcc-9f16-d1552c1d8030","ios":"levelo://app?vid=e6795abb-4f59-4fcc-9f16-d1552c1d8030"},"vehicle_type_id":"4","last_reported":1727691000,"current_range_meters":38000,"station_id":"ce4bgs12rcd13ifvqcag","pricing_plan_id":"cebpf4jnsgd1na2vs0mg"},{"bike_id":"c39e0b86-fba2-4b6e-b09e-0cd0e67110cc","system_id":"levelo_inurba_marseille","lat":43.26947,"lon":5.38627,"is_reserved":false,"is_disabled":false,"rental_uris":{"android":"levelo://app?vid=c39e0b86-fba2-4b6e-b09e-0cd0e67110cc","ios":"levelo://app?vid=c39e0b86-fba2-4b6e-b09e-0cd0e67110cc"},"vehicle_type_id":"4","last_reported":1727691000,"current_range_meters":36000,"station_id":"ce4bhh92rcd13ifvqfh0","pricing_plan_id":"cebpf4jnsgd1na2vs0mg"},{"bike_id":"59e24958-b2d8-467b-a70f-e534d8add310","system_id":"levelo_inurba_marseille","lat":43.30316,"lon":5.36892,"is_reserved":false,"is_disabled":false,"rental_uris":{"android":"levelo://app?vid=59e24958-b2d8-467b-a70f-e534d8add310","ios":"levelo://app?vid=59e24958-b2d8-467b-a70f-e534d8add310"},"vehicle_type_id":"4","last_reported":1727691000,"current_range_meters":38800,"station_id":"ce4bgqh2rcd13ifvqc5g","pricing_plan_id":"cebpf4jnsgd1na2vs0mg"},{"bike_id":"137d478a-69d8-4b77-ad5f-e7af690c0925","system_id":"levelo_inurba_marseille","lat":43.24082,"lon":5.37744,"is_reserved":false,"is_disabled":false,"rental_uris":{"android":"levelo://app?vid=137d478a-69d8-4b77-ad5f-e7af690c0925","ios":"levelo://app?vid=137d478a-69d8-4b77-ad5f-e7af690c0925"},"vehicle_type_id":"4","last_reported":1727691000,"current_range_meters":8400,"station_id":"ce4bhnp2rcd13ifvqgvg","pricing_plan_id":"cebpf4jnsgd1na2vs0mg"},{"bike_id":"318262dc-85f7-4629-9884-6167fafac465","system_id":"levelo_inurba_marseille","lat":43.23155,"lon":5.43699,"is_reserved":false,"is_disabled":false,"rental_uris":{"android":"levelo://app?vid=318262dc-85f7-4629-9884-6167fafac465","ios":"levelo://app?vid=318262dc-85f7-4629-9884-6167fafac465"},"vehicle_type_id":"4","last_reported":1727691000,"current_range_meters":36800,"station_id":"ce4bhmp2rcd13ifvqgog","pricing_plan_id":"cebpf4jnsgd1na2vs0mg"},{"bike_id":"02060d19-1707-4676-95ca-18502fbfa97d","system_id":"levelo_inurba_marseille","lat":43.30775,"lon":5.37654,"is_reserved":false,"is_disabled":false,"rental_uris":{"android":"levelo://app?vid=02060d19-1707-4676-95ca-18502fbfa97d","ios":"levelo://app?vid=02060d19-1707-4676-95ca-18502fbfa97d"},"vehicle_type_id":"4","last_reported":1727691000,"current_range_meters":36800,"station_id":"ce4bgv92rcd13ifvqcq0","pricing_plan_id":"cebpf4jnsgd1na2vs0mg"},{"bike_id":"7977a9c9-5512-4fa7-9026-3e7c33952b44","system_id":"levelo_inurba_marseille","lat":43.25932,"lon":5.40905,"is_reserved":false,"is_disabled":false,"rental_uris":{"android":"levelo://app?vid=7977a9c9-5512-4fa7-9026-3e7c33952b44","ios":"levelo://app?vid=7977a9c9-5512-4fa7-9026-3e7c33952b44"},"vehicle_type_id":"4","last_reported":1727691000,"current_range_meters":19200,"station_id":"ce4bhm92rcd13ifvqglg","pricing_plan_id":"cebpf4jnsgd1na2vs0mg"},{"bike_id":"25a3371f-2f6a-436a-9934-217f2666092f","system_id":"levelo_inurba_marseille","lat":43.24545,"lon":5.39528,"is_reserved":false,"is_disabled":false,"rental_uris":{"android":"levelo://app?vid=25a3371f-2f6a-436a-9934-217f2666092f","ios":"levelo://app?vid=25a3371f-2f6a-436a-9934-217f2666092f"},"vehicle_type_id":"4","last_reported":1727691000,"current_range_meters":20000,"station_id":"ce4bhlp2rcd13ifvqgjg","pricing_plan_id":"cebpf4jnsgd1na2vs0mg"},{"bike_id":"a46feec0-773b-42c7-a261-509ccbf7a879","system_id":"levelo_inurba_marseille","lat":43.25857,"lon":5.39906,"is_reserved":false,"is_disabled":false,"rental_uris":{"android":"levelo://app?vid=a46feec0-773b-42c7-a261-509ccbf7a879","ios":"levelo://app?vid=a46feec0-773b-42c7-a261-509ccbf7a879"},"vehicle_type_id":"4","last_reported":1727691000,"current_range_meters":27600,"station_id":"ce4bhl92rcd13ifvqghg","pricing_plan_id":"cebpf4jnsgd1na2vs0mg"},{"bike_id":"8f12fac8-dd10-4c56-aafe-d5c06d0d2572","system_id":"levelo_inurba_marseille","lat":43.30528,"lon":5.36721,"is_reserved":false,"is_disabled":false,"rental_uris":{"android":"levelo://app?vid=8f12fac8-dd10-4c56-aafe-d5c06d0d2572","ios":"levelo://app?vid=8f12fac8-dd10-4c56-aafe-d5c06d0d2572"},"vehicle_type_id":"4","last_reported":1727691000,"current_range_meters":39200,"station_id":"ce4bgrp2rcd13ifvqc9g","pricing_plan_id":"cebpf4jnsgd1na2vs0mg"},{"bike_id":"64773acf-2ec7-4206-8fba-0532a5a266ea","system_id":"levelo_inurba_marseille","lat":43.33722,"lon":5.39175,"is_reserved":false,"is_disabled":false,"rental_uris":{"android":"levelo://app?vid=64773acf-2ec7-4206-8fba-0532a5a266ea","ios":"levelo://app?vid=64773acf-2ec7-4206-8fba-0532a5a266ea"},"vehicle_type_id":"4","last_reported":1727691000,"current_range_meters":26800,"station_id":"ce4bhr92rcd13ifvqhsg","pricing_plan_id":"cebpf4jnsgd1na2vs0mg"},{"bike_id":"908021a4-c1b6-4d63-8e7a-87eb8947eb54","system_id":"levelo_inurba_marseille","lat":43.24083,"lon":5.37749,"is_reserved":false,"is_disabled":false,"rental_uris":{"android":"levelo://app?vid=908021a4-c1b6-4d63-8e7a-87eb8947eb54","ios":"levelo://app?vid=908021a4-c1b6-4d63-8e7a-87eb8947eb54"},"vehicle_type_id":"4","last_reported":1727691000,"current_range_meters":6000,"station_id":"ce4bhnp2rcd13ifvqgvg","pricing_plan_id":"cebpf4jnsgd1na2vs0mg"},{"bike_id":"3a32db68-41f3-4de5-a2c6-e8b1c21d8113","system_id":"levelo_inurba_marseille","lat":43.29602,"lon":5.3811,"is_reserved":false,"is_disabled":false,"rental_uris":{"android":"levelo://app?vid=3a32db68-41f3-4de5-a2c6-e8b1c21d8113","ios":"levelo://app?vid=3a32db68-41f3-4de5-a2c6-e8b1c21d8113"},"vehicle_type_id":"4","last_reported":1727691000,"current_range_meters":27200,"station_id":"ce4bgl12rcd13ifvqbo0","pricing_plan_id":"cebpf4jnsgd1na2vs0mg"},{"bike_id":"b795d4dd-86fd-46c1-9e35-aa1bb843c076","system_id":"levelo_inurba_marseille","lat":43.24547,"lon":5.39526,"is_reserved":false,"is_disabled":false,"rental_uris":{"android":"levelo://app?vid=b795d4dd-86fd-46c1-9e35-aa1bb843c076","ios":"levelo://app?vid=b795d4dd-86fd-46c1-9e35-aa1bb843c076"},"vehicle_type_id":"4","last_reported":1727691000,"current_range_meters":16000,"station_id":"ce4bhlp2rcd13ifvqgjg","pricing_plan_id":"cebpf4jnsgd1na2vs0mg"},{"bike_id":"2a4f744d-4171-42a9-b0cb-dfb324aae8c3","system_id":"levelo_inurba_marseille","lat":43.2315,"lon":5.43718,"is_reserved":false,"is_disabled":false,"rental_uris":{"android":"levelo://app?vid=2a4f744d-4171-42a9-b0cb-dfb324aae8c3","ios":"levelo://app?vid=2a4f744d-4171-42a9-b0cb-dfb324aae8c3"},"vehicle_type_id":"4","last_reported":1727691000,"current_range_meters":26800,"station_id":"ce4bhmp2rcd13ifvqgog","pricing_plan_id":"cebpf4jnsgd1na2vs0mg"},{"bike_id":"908f7f69-cdfb-4e17-8d14-2368d3709128","system_id":"levelo_inurba_marseille","lat":43.32287,"lon":5.38265,"is_reserved":false,"is_disabled":false,"rental_uris":{"android":"levelo://app?vid=908f7f69-cdfb-4e17-8d14-2368d3709128","ios":"levelo://app?vid=908f7f69-cdfb-4e17-8d14-2368d3709128"},"vehicle_type_id":"4","last_reported":1727691000,"current_range_meters":38800,"station_id":"ce4bhr12rcd13ifvqhqg","pricing_plan_id":"cebpf4jnsgd1na2vs0mg"},{"bike_id":"43536f27-bb7a-463d-a346-f64368ff0e71","system_id":"levelo_inurba_marseille","lat":43.307739,"lon":5.376458,"is_reserved":false,"is_disabled":false,"rental_uris":{"android":"levelo://app?vid=43536f27-bb7a-463d-a346-f64368ff0e71","ios":"levelo://app?vid=43536f27-bb7a-463d-a346-f64368ff0e71"},"vehicle_type_id":"4","last_reported":1727691000,"current_range_meters":38000,"station_id":"ce4bgkp2rcd13ifvqbmg","pricing_plan_id":"cebpf4jnsgd1na2vs0mg"},{"bike_id":"e87a1725-8344-4e98-bd8e-0e9915d5fdea","system_id":"levelo_inurba_marseille","lat":43.24072,"lon":5.37761,"is_reserved":false,"is_disabled":false,"rental_uris":{"android":"levelo://app?vid=e87a1725-8344-4e98-bd8e-0e9915d5fdea","ios":"levelo://app?vid=e87a1725-8344-4e98-bd8e-0e9915d5fdea"},"vehicle_type_id":"4","last_reported":1727691000,"current_range_meters":34800,"station_id":"ce4bhnp2rcd13ifvqgvg","pricing_plan_id":"cebpf4jnsgd1na2vs0mg"},{"bike_id":"c3db6523-2007-470f-9c6c-621e48504553","system_id":"levelo_inurba_marseille","lat":43.30308,"lon":5.39209,"is_reserved":false,"is_disabled":false,"rental_uris":{"android":"levelo://app?vid=c3db6523-2007-470f-9c6c-621e48504553","ios":"levelo://app?vid=c3db6523-2007-470f-9c6c-621e48504553"},"vehicle_type_id":"4","last_reported":1727691000,"current_range_meters":28400,"station_id":"ce4bgkh2rcd13ifvqbk0","pricing_plan_id":"cebpf4jnsgd1na2vs0mg"},{"bike_id":"3ccef2c3-34ca-4350-8733-bdef0b66f68d","system_id":"levelo_inurba_marseille","lat":43.26685,"lon":5.38274,"is_reserved":false,"is_disabled":false,"rental_uris":{"android":"levelo://app?vid=3ccef2c3-34ca-4350-8733-bdef0b66f68d","ios":"levelo://app?vid=3ccef2c3-34ca-4350-8733-bdef0b66f68d"},"vehicle_type_id":"4","last_reported":1727691000,"current_range_meters":35200,"station_id":"ce4bhg92rcd13ifvqf90","pricing_plan_id":"cebpf4jnsgd1na2vs0mg"},{"bike_id":"757306db-bc8b-4147-85a6-62da2b338c0f","system_id":"levelo_inurba_marseille","lat":43.25725,"lon":5.41111,"is_reserved":false,"is_disabled":false,"rental_uris":{"android":"levelo://app?vid=757306db-bc8b-4147-85a6-62da2b338c0f","ios":"levelo://app?vid=757306db-bc8b-4147-85a6-62da2b338c0f"},"vehicle_type_id":"4","last_reported":1727691000,"current_range_meters":25200,"station_id":"ce4bhkp2rcd13ifvqgd0","pricing_plan_id":"cebpf4jnsgd1na2vs0mg"},{"bike_id":"cf467179-4c1e-4ae7-862b-f7031c39dfb6","system_id":"levelo_inurba_marseille","lat":43.29952,"lon":5.36535,"is_reserved":false,"is_disabled":false,"rental_uris":{"android":"levelo://app?vid=cf467179-4c1e-4ae7-862b-f7031c39dfb6","ios":"levelo://app?vid=cf467179-4c1e-4ae7-862b-f7031c39dfb6"},"vehicle_type_id":"4","last_reported":1727691000,"current_range_meters":38800,"station_id":"ce4bgm92rcd13ifvqbr0","pricing_plan_id":"cebpf4jnsgd1na2vs0mg"},{"bike_id":"d35014a8-6d8c-4cac-83b4-bdc23f9c8db1","system_id":"levelo_inurba_marseille","lat":43.34142,"lon":5.40906,"is_reserved":false,"is_disabled":false,"rental_uris":{"android":"levelo://app?vid=d35014a8-6d8c-4cac-83b4-bdc23f9c8db1","ios":"levelo://app?vid=d35014a8-6d8c-4cac-83b4-bdc23f9c8db1"},"vehicle_type_id":"4","last_reported":1727691000,"current_range_meters":37600,"station_id":"ce4bhqh2rcd13ifvqhlg","pricing_plan_id":"cebpf4jnsgd1na2vs0mg"},{"bike_id":"04c574aa-144c-414a-9314-3a6d905312f0","system_id":"levelo_inurba_marseille","lat":43.29965,"lon":5.41315,"is_reserved":false,"is_disabled":false,"rental_uris":{"android":"levelo://app?vid=04c574aa-144c-414a-9314-3a6d905312f0","ios":"levelo://app?vid=04c574aa-144c-414a-9314-3a6d905312f0"},"vehicle_type_id":"4","last_reported":1727691000,"current_range_meters":39200,"station_id":"ce4bhp12rcd13ifvqh9g","pricing_plan_id":"cebpf4jnsgd1na2vs0mg"},{"bike_id":"cf33b555-cac1-43f8-89f7-e84b64897cfd","system_id":"levelo_inurba_marseille","lat":43.28381,"lon":5.3729,"is_reserved":false,"is_disabled":false,"rental_uris":{"android":"levelo://app?vid=cf33b555-cac1-43f8-89f7-e84b64897cfd","ios":"levelo://app?vid=cf33b555-cac1-43f8-89f7-e84b64897cfd"},"vehicle_type_id":"4","last_reported":1727691000,"current_range_meters":6000,"station_id":"","pricing_plan_id":"cebpf4jnsgd1na2vs0mg"},{"bike_id":"775b821b-1e28-4064-a50b-b93c8b7ffd3b","system_id":"levelo_inurba_marseille","lat":43.24087,"lon":5.37746,"is_reserved":false,"is_disabled":false,"rental_uris":{"android":"levelo://app?vid=775b821b-1e28-4064-a50b-b93c8b7ffd3b","ios":"levelo://app?vid=775b821b-1e28-4064-a50b-b93c8b7ffd3b"},"vehicle_type_id":"4","last_reported":1727691000,"current_range_meters":38800,"station_id":"ce4bhnp2rcd13ifvqgvg","pricing_plan_id":"cebpf4jnsgd1na2vs0mg"},{"bike_id":"72e2b14d-d512-42a0-8892-c93a5dfa0b19","system_id":"levelo_inurba_marseille","lat":43.30138,"lon":5.3742,"is_reserved":false,"is_disabled":false,"rental_uris":{"android":"levelo://app?vid=72e2b14d-d512-42a0-8892-c93a5dfa0b19","ios":"levelo://app?vid=72e2b14d-d512-42a0-8892-c93a5dfa0b19"},"vehicle_type_id":"4","last_reported":1727691000,"current_range_meters":39200,"station_id":"ce4bgs92rcd13ifvqcc0","pricing_plan_id":"cebpf4jnsgd1na2vs0mg"},{"bike_id":"43535cac-7fe7-42f9-b5a9-0922d1ee70c0","system_id":"levelo_inurba_marseille","lat":43.31371,"lon":5.3851,"is_reserved":false,"is_disabled":false,"rental_uris":{"android":"levelo://app?vid=43535cac-7fe7-42f9-b5a9-0922d1ee70c0","ios":"levelo://app?vid=43535cac-7fe7-42f9-b5a9-0922d1ee70c0"},"vehicle_type_id":"4","last_reported":1727691000,"current_range_meters":27600,"station_id":"ce4bgt92rcd13ifvqcf0","pricing_plan_id":"cebpf4jnsgd1na2vs0mg"},{"bike_id":"f41e6ac7-d39b-432c-a205-b5e52984b1b4","system_id":"levelo_inurba_marseille","lat":43.33027,"lon":5.39371,"is_reserved":false,"is_disabled":false,"rental_uris":{"android":"levelo://app?vid=f41e6ac7-d39b-432c-a205-b5e52984b1b4","ios":"levelo://app?vid=f41e6ac7-d39b-432c-a205-b5e52984b1b4"},"vehicle_type_id":"4","last_reported":1727691000,"current_range_meters":36400,"station_id":"","pricing_plan_id":"cebpf4jnsgd1na2vs0mg"},{"bike_id":"bd4818fc-c3a3-49ae-88f0-5543b2bac4d1","system_id":"levelo_inurba_marseille","lat":43.2396,"lon":5.36633,"is_reserved":false,"is_disabled":false,"rental_uris":{"android":"levelo://app?vid=bd4818fc-c3a3-49ae-88f0-5543b2bac4d1","ios":"levelo://app?vid=bd4818fc-c3a3-49ae-88f0-5543b2bac4d1"},"vehicle_type_id":"4","last_reported":1727691000,"current_range_meters":39200,"station_id":"ce4bhi12rcd13ifvqfp0","pricing_plan_id":"cebpf4jnsgd1na2vs0mg"},{"bike_id":"269ac999-dad6-460a-aa43-d5c4c71dd1a3","system_id":"levelo_inurba_marseille","lat":43.23139,"lon":5.43716,"is_reserved":false,"is_disabled":false,"rental_uris":{"android":"levelo://app?vid=269ac999-dad6-460a-aa43-d5c4c71dd1a3","ios":"levelo://app?vid=269ac999-dad6-460a-aa43-d5c4c71dd1a3"},"vehicle_type_id":"4","last_reported":1727691000,"current_range_meters":16800,"station_id":"ce4bhmp2rcd13ifvqgog","pricing_plan_id":"cebpf4jnsgd1na2vs0mg"},{"bike_id":"e2d96cbd-5057-4d2f-9436-03670229e573","system_id":"levelo_inurba_marseille","lat":43.23153,"lon":5.43711,"is_reserved":false,"is_disabled":false,"rental_uris":{"android":"levelo://app?vid=e2d96cbd-5057-4d2f-9436-03670229e573","ios":"levelo://app?vid=e2d96cbd-5057-4d2f-9436-03670229e573"},"vehicle_type_id":"4","last_reported":1727691000,"current_range_meters":16000,"station_id":"ce4bhmp2rcd13ifvqgog","pricing_plan_id":"cebpf4jnsgd1na2vs0mg"},{"bike_id":"6b8929d5-ad92-409d-a69a-a9e49ae36445","system_id":"levelo_inurba_marseille","lat":43.24168,"lon":5.36395,"is_reserved":false,"is_disabled":false,"rental_uris":{"android":"levelo://app?vid=6b8929d5-ad92-409d-a69a-a9e49ae36445","ios":"levelo://app?vid=6b8929d5-ad92-409d-a69a-a9e49ae36445"},"vehicle_type_id":"4","last_reported":1727691000,"current_range_meters":8400,"station_id":"cpo36qri1sfpv3e86is0","pricing_plan_id":"cebpf4jnsgd1na2vs0mg"},{"bike_id":"643f0fff-e0cc-4b48-9922-6a4d5b83a6e1","system_id":"levelo_inurba_marseille","lat":43.28002,"lon":5.40009,"is_reserved":false,"is_disabled":false,"rental_uris":{"android":"levelo://app?vid=643f0fff-e0cc-4b48-9922-6a4d5b83a6e1","ios":"levelo://app?vid=643f0fff-e0cc-4b48-9922-6a4d5b83a6e1"},"vehicle_type_id":"4","last_reported":1727691000,"current_range_meters":39200,"station_id":"ce4bho92rcd13ifvqh4g","pricing_plan_id":"cebpf4jnsgd1na2vs0mg"},{"bike_id":"15eda207-0a01-479d-a2c7-73f7e615ddd7","system_id":"levelo_inurba_marseille","lat":43.30549,"lon":5.36537,"is_reserved":false,"is_disabled":false,"rental_uris":{"android":"levelo://app?vid=15eda207-0a01-479d-a2c7-73f7e615ddd7","ios":"levelo://app?vid=15eda207-0a01-479d-a2c7-73f7e615ddd7"},"vehicle_type_id":"4","last_reported":1727691000,"current_range_meters":21600,"station_id":"ce4bgs12rcd13ifvqcag","pricing_plan_id":"cebpf4jnsgd1na2vs0mg"},{"bike_id":"5bc1c1fa-d108-4ca9-92c6-52234bc518f7","system_id":"levelo_inurba_marseille","lat":43.25121,"lon":5.40316,"is_reserved":false,"is_disabled":false,"rental_uris":{"android":"levelo://app?vid=5bc1c1fa-d108-4ca9-92c6-52234bc518f7","ios":"levelo://app?vid=5bc1c1fa-d108-4ca9-92c6-52234bc518f7"},"vehicle_type_id":"4","last_reported":1727691000,"current_range_meters":18000,"station_id":"ce4bhlh2rcd13ifvqgig","pricing_plan_id":"cebpf4jnsgd1na2vs0mg"},{"bike_id":"d1a4e3ee-6415-46fb-989a-8ab06e589b76","system_id":"levelo_inurba_marseille","lat":43.30908,"lon":5.3685,"is_reserved":false,"is_disabled":false,"rental_uris":{"android":"levelo://app?vid=d1a4e3ee-6415-46fb-989a-8ab06e589b76","ios":"levelo://app?vid=d1a4e3ee-6415-46fb-989a-8ab06e589b76"},"vehicle_type_id":"4","last_reported":1727691000,"current_range_meters":39200,"station_id":"ce4bgn92rcd13ifvqbvg","pricing_plan_id":"cebpf4jnsgd1na2vs0mg"},{"bike_id":"12a71ddf-e9ad-4ed7-b04e-23f082ecaf78","system_id":"levelo_inurba_marseille","lat":43.2847,"lon":5.3841,"is_reserved":false,"is_disabled":false,"rental_uris":{"android":"levelo://app?vid=12a71ddf-e9ad-4ed7-b04e-23f082ecaf78","ios":"levelo://app?vid=12a71ddf-e9ad-4ed7-b04e-23f082ecaf78"},"vehicle_type_id":"4","last_reported":1727691000,"current_range_meters":13600,"station_id":"ce4bh512rcd13ifvqe3g","pricing_plan_id":"cebpf4jnsgd1na2vs0mg"},{"bike_id":"2b65f501-0efb-46d7-a95c-02a18c297410","system_id":"levelo_inurba_marseille","lat":43.24082,"lon":5.37753,"is_reserved":false,"is_disabled":false,"rental_uris":{"android":"levelo://app?vid=2b65f501-0efb-46d7-a95c-02a18c297410","ios":"levelo://app?vid=2b65f501-0efb-46d7-a95c-02a18c297410"},"vehicle_type_id":"4","last_reported":1727691000,"current_range_meters":11600,"station_id":"ce4bhnp2rcd13ifvqgvg","pricing_plan_id":"cebpf4jnsgd1na2vs0mg"},{"bike_id":"b668d458-c0f3-408a-ab34-c33d5b2703af","system_id":"levelo_inurba_marseille","lat":43.31712,"lon":5.377386,"is_reserved":false,"is_disabled":false,"rental_uris":{"android":"levelo://app?vid=b668d458-c0f3-408a-ab34-c33d5b2703af","ios":"levelo://app?vid=b668d458-c0f3-408a-ab34-c33d5b2703af"},"vehicle_type_id":"4","last_reported":1727691000,"current_range_meters":4000,"station_id":"ce4bgth2rcd13ifvqch0","pricing_plan_id":"cebpf4jnsgd1na2vs0mg"},{"bike_id":"67d29d84-7ed5-43ac-b0fa-c6bae26388e9","system_id":"levelo_inurba_marseille","lat":43.31365,"lon":5.385,"is_reserved":false,"is_disabled":false,"rental_uris":{"android":"levelo://app?vid=67d29d84-7ed5-43ac-b0fa-c6bae26388e9","ios":"levelo://app?vid=67d29d84-7ed5-43ac-b0fa-c6bae26388e9"},"vehicle_type_id":"4","last_reported":1727691000,"current_range_meters":38800,"station_id":"ce4bgt92rcd13ifvqcf0","pricing_plan_id":"cebpf4jnsgd1na2vs0mg"},{"bike_id":"f71b7f63-17f8-4803-ba81-e0aaab220a33","system_id":"levelo_inurba_marseille","lat":43.30545,"lon":5.36537,"is_reserved":false,"is_disabled":false,"rental_uris":{"android":"levelo://app?vid=f71b7f63-17f8-4803-ba81-e0aaab220a33","ios":"levelo://app?vid=f71b7f63-17f8-4803-ba81-e0aaab220a33"},"vehicle_type_id":"4","last_reported":1727691000,"current_range_meters":39200,"station_id":"ce4bgs12rcd13ifvqcag","pricing_plan_id":"cebpf4jnsgd1na2vs0mg"},{"bike_id":"ef59aed0-0171-46ae-b151-56d2849f6fdb","system_id":"levelo_inurba_marseille","lat":43.32368,"lon":5.38884,"is_reserved":false,"is_disabled":false,"rental_uris":{"android":"levelo://app?vid=ef59aed0-0171-46ae-b151-56d2849f6fdb","ios":"levelo://app?vid=ef59aed0-0171-46ae-b151-56d2849f6fdb"},"vehicle_type_id":"4","last_reported":1727691000,"current_range_meters":33200,"station_id":"ce4bhqp2rcd13ifvqhog","pricing_plan_id":"cebpf4jnsgd1na2vs0mg"},{"bike_id":"efafcf64-8eeb-4d07-99ee-7b626f843946","system_id":"levelo_inurba_marseille","lat":43.30904,"lon":5.36852,"is_reserved":false,"is_disabled":false,"rental_uris":{"android":"levelo://app?vid=efafcf64-8eeb-4d07-99ee-7b626f843946","ios":"levelo://app?vid=efafcf64-8eeb-4d07-99ee-7b626f843946"},"vehicle_type_id":"4","last_reported":1727691000,"current_range_meters":25200,"station_id":"ce4bgn92rcd13ifvqbvg","pricing_plan_id":"cebpf4jnsgd1na2vs0mg"},{"bike_id":"92a377c1-c83e-4ce0-8033-a37f64060b32","system_id":"levelo_inurba_marseille","lat":43.299,"lon":5.43677,"is_reserved":false,"is_disabled":false,"rental_uris":{"android":"levelo://app?vid=92a377c1-c83e-4ce0-8033-a37f64060b32","ios":"levelo://app?vid=92a377c1-c83e-4ce0-8033-a37f64060b32"},"vehicle_type_id":"4","last_reported":1727691000,"current_range_meters":24000,"station_id":"ce4bhpp2rcd13ifvqhfg","pricing_plan_id":"cebpf4jnsgd1na2vs0mg"},{"bike_id":"9a7c9827-d7aa-42f2-97d3-0bfeae819576","system_id":"levelo_inurba_marseille","lat":43.296844,"lon":5.377273,"is_reserved":false,"is_disabled":false,"rental_uris":{"android":"levelo://app?vid=9a7c9827-d7aa-42f2-97d3-0bfeae819576","ios":"levelo://app?vid=9a7c9827-d7aa-42f2-97d3-0bfeae819576"},"vehicle_type_id":"4","last_reported":1727691000,"current_range_meters":33600,"station_id":"ce4bh0h2rcd13ifvqd60","pricing_plan_id":"cebpf4jnsgd1na2vs0mg"},{"bike_id":"94a5039e-9ff6-465a-909f-52e8a347eb6f","system_id":"levelo_inurba_marseille","lat":43.27498,"lon":5.42456,"is_reserved":false,"is_disabled":false,"rental_uris":{"android":"levelo://app?vid=94a5039e-9ff6-465a-909f-52e8a347eb6f","ios":"levelo://app?vid=94a5039e-9ff6-465a-909f-52e8a347eb6f"},"vehicle_type_id":"4","last_reported":1727691000,"current_range_meters":24400,"station_id":"ce4bhn92rcd13ifvqgrg","pricing_plan_id":"cebpf4jnsgd1na2vs0mg"},{"bike_id":"66c626da-c5b2-4c5c-abb5-549a9ee9c938","system_id":"levelo_inurba_marseille","lat":43.27492,"lon":5.42453,"is_reserved":false,"is_disabled":false,"rental_uris":{"android":"levelo://app?vid=66c626da-c5b2-4c5c-abb5-549a9ee9c938","ios":"levelo://app?vid=66c626da-c5b2-4c5c-abb5-549a9ee9c938"},"vehicle_type_id":"4","last_reported":1727691000,"current_range_meters":23200,"station_id":"ce4bhn92rcd13ifvqgrg","pricing_plan_id":"cebpf4jnsgd1na2vs0mg"},{"bike_id":"a3c774c4-fd72-4b56-9ae2-8a187c6aa284","system_id":"levelo_inurba_marseille","lat":43.32286,"lon":5.38279,"is_reserved":false,"is_disabled":false,"rental_uris":{"android":"levelo://app?vid=a3c774c4-fd72-4b56-9ae2-8a187c6aa284","ios":"levelo://app?vid=a3c774c4-fd72-4b56-9ae2-8a187c6aa284"},"vehicle_type_id":"4","last_reported":1727691000,"current_range_meters":39200,"station_id":"ce4bhr12rcd13ifvqhqg","pricing_plan_id":"cebpf4jnsgd1na2vs0mg"},{"bike_id":"2073db94-fc34-49a8-9fdf-cd894ea8b59c","system_id":"levelo_inurba_marseille","lat":43.28707,"lon":5.39992,"is_reserved":false,"is_disabled":false,"rental_uris":{"android":"levelo://app?vid=2073db94-fc34-49a8-9fdf-cd894ea8b59c","ios":"levelo://app?vid=2073db94-fc34-49a8-9fdf-cd894ea8b59c"},"vehicle_type_id":"4","last_reported":1727691000,"current_range_meters":23200,"station_id":"ce4bho92rcd13ifvqh3g","pricing_plan_id":"cebpf4jnsgd1na2vs0mg"},{"bike_id":"6dc7b44d-9d0d-42f9-bc6f-4dff416c688a","system_id":"levelo_inurba_marseille","lat":43.31354,"lon":5.36696,"is_reserved":false,"is_disabled":false,"rental_uris":{"android":"levelo://app?vid=6dc7b44d-9d0d-42f9-bc6f-4dff416c688a","ios":"levelo://app?vid=6dc7b44d-9d0d-42f9-bc6f-4dff416c688a"},"vehicle_type_id":"4","last_reported":1727691000,"current_range_meters":18800,"station_id":"ce4bgr92rcd13ifvqc6g","pricing_plan_id":"cebpf4jnsgd1na2vs0mg"},{"bike_id":"a3aaac64-fffa-4c76-8ee4-bfceec847ce6","system_id":"levelo_inurba_marseille","lat":43.23153,"lon":5.43711,"is_reserved":false,"is_disabled":false,"rental_uris":{"android":"levelo://app?vid=a3aaac64-fffa-4c76-8ee4-bfceec847ce6","ios":"levelo://app?vid=a3aaac64-fffa-4c76-8ee4-bfceec847ce6"},"vehicle_type_id":"4","last_reported":1727691000,"current_range_meters":20800,"station_id":"ce4bhmp2rcd13ifvqgog","pricing_plan_id":"cebpf4jnsgd1na2vs0mg"},{"bike_id":"53b5e39f-9490-44fa-8efb-1d69aedd1975","system_id":"levelo_inurba_marseille","lat":43.30134,"lon":5.39863,"is_reserved":false,"is_disabled":false,"rental_uris":{"android":"levelo://app?vid=53b5e39f-9490-44fa-8efb-1d69aedd1975","ios":"levelo://app?vid=53b5e39f-9490-44fa-8efb-1d69aedd1975"},"vehicle_type_id":"4","last_reported":1727691000,"current_range_meters":36400,"station_id":"ce4bh0h2rcd13ifvqd40","pricing_plan_id":"cebpf4jnsgd1na2vs0mg"},{"bike_id":"c7bbc987-c2cf-49ce-813a-8c269ed3f6cc","system_id":"levelo_inurba_marseille","lat":43.300964,"lon":5.381732,"is_reserved":false,"is_disabled":false,"rental_uris":{"android":"levelo://app?vid=c7bbc987-c2cf-49ce-813a-8c269ed3f6cc","ios":"levelo://app?vid=c7bbc987-c2cf-49ce-813a-8c269ed3f6cc"},"vehicle_type_id":"4","last_reported":1727691000,"current_range_meters":28800,"station_id":"ce4bh3p2rcd13ifvqdp0","pricing_plan_id":"cebpf4jnsgd1na2vs0mg"},{"bike_id":"33590cbf-55bf-49ce-80c0-33962f86f44c","system_id":"levelo_inurba_marseille","lat":43.32001,"lon":5.3816,"is_reserved":false,"is_disabled":false,"rental_uris":{"android":"levelo://app?vid=33590cbf-55bf-49ce-80c0-33962f86f44c","ios":"levelo://app?vid=33590cbf-55bf-49ce-80c0-33962f86f44c"},"vehicle_type_id":"4","last_reported":1727691000,"current_range_meters":36800,"station_id":"ce4bhr12rcd13ifvqhpg","pricing_plan_id":"cebpf4jnsgd1na2vs0mg"},{"bike_id":"e4868d78-24b2-4ae4-b9c5-64f35a814473","system_id":"levelo_inurba_marseille","lat":43.292761,"lon":5.401276,"is_reserved":false,"is_disabled":false,"rental_uris":{"android":"levelo://app?vid=e4868d78-24b2-4ae4-b9c5-64f35a814473","ios":"levelo://app?vid=e4868d78-24b2-4ae4-b9c5-64f35a814473"},"vehicle_type_id":"4","last_reported":1727691000,"current_range_meters":35200,"station_id":"ce4bh312rcd13ifvqdk0","pricing_plan_id":"cebpf4jnsgd1na2vs0mg"},{"bike_id":"e881c4f7-44b5-4401-b3e9-c7a41d7ce25f","system_id":"levelo_inurba_marseille","lat":43.31359,"lon":5.36696,"is_reserved":false,"is_disabled":false,"rental_uris":{"android":"levelo://app?vid=e881c4f7-44b5-4401-b3e9-c7a41d7ce25f","ios":"levelo://app?vid=e881c4f7-44b5-4401-b3e9-c7a41d7ce25f"},"vehicle_type_id":"4","last_reported":1727691000,"current_range_meters":14800,"station_id":"ce4bgr92rcd13ifvqc6g","pricing_plan_id":"cebpf4jnsgd1na2vs0mg"},{"bike_id":"91c313de-faa0-4015-a828-af2fab7c16fc","system_id":"levelo_inurba_marseille","lat":43.27497,"lon":5.42449,"is_reserved":false,"is_disabled":false,"rental_uris":{"android":"levelo://app?vid=91c313de-faa0-4015-a828-af2fab7c16fc","ios":"levelo://app?vid=91c313de-faa0-4015-a828-af2fab7c16fc"},"vehicle_type_id":"4","last_reported":1727691000,"current_range_meters":30800,"station_id":"ce4bhn92rcd13ifvqgrg","pricing_plan_id":"cebpf4jnsgd1na2vs0mg"},{"bike_id":"8899af5b-9f62-4731-b7cd-121df8ac8752","system_id":"levelo_inurba_marseille","lat":43.30909,"lon":5.36861,"is_reserved":false,"is_disabled":false,"rental_uris":{"android":"levelo://app?vid=8899af5b-9f62-4731-b7cd-121df8ac8752","ios":"levelo://app?vid=8899af5b-9f62-4731-b7cd-121df8ac8752"},"vehicle_type_id":"4","last_reported":1727691000,"current_range_meters":30800,"station_id":"ce4bgn92rcd13ifvqbvg","pricing_plan_id":"cebpf4jnsgd1na2vs0mg"},{"bike_id":"bbfa4e14-7fa4-4aa7-91bf-e112b9082e51","system_id":"levelo_inurba_marseille","lat":43.23155,"lon":5.43711,"is_reserved":false,"is_disabled":false,"rental_uris":{"android":"levelo://app?vid=bbfa4e14-7fa4-4aa7-91bf-e112b9082e51","ios":"levelo://app?vid=bbfa4e14-7fa4-4aa7-91bf-e112b9082e51"},"vehicle_type_id":"4","last_reported":1727691000,"current_range_meters":24800,"station_id":"ce4bhmp2rcd13ifvqgog","pricing_plan_id":"cebpf4jnsgd1na2vs0mg"},{"bike_id":"c2e5f184-ee77-4d36-b81f-f770055d9fd9","system_id":"levelo_inurba_marseille","lat":43.27058,"lon":5.40258,"is_reserved":false,"is_disabled":false,"rental_uris":{"android":"levelo://app?vid=c2e5f184-ee77-4d36-b81f-f770055d9fd9","ios":"levelo://app?vid=c2e5f184-ee77-4d36-b81f-f770055d9fd9"},"vehicle_type_id":"4","last_reported":1727691000,"current_range_meters":18800,"station_id":"ce4bhk92rcd13ifvqgc0","pricing_plan_id":"cebpf4jnsgd1na2vs0mg"},{"bike_id":"e77a6832-303b-4dae-a5d4-a5e5d125c7f1","system_id":"levelo_inurba_marseille","lat":43.32286,"lon":5.38269,"is_reserved":false,"is_disabled":false,"rental_uris":{"android":"levelo://app?vid=e77a6832-303b-4dae-a5d4-a5e5d125c7f1","ios":"levelo://app?vid=e77a6832-303b-4dae-a5d4-a5e5d125c7f1"},"vehicle_type_id":"4","last_reported":1727691000,"current_range_meters":30000,"station_id":"ce4bhr12rcd13ifvqhqg","pricing_plan_id":"cebpf4jnsgd1na2vs0mg"},{"bike_id":"8490e44e-0aff-4d7e-8a96-481d57cd3987","system_id":"levelo_inurba_marseille","lat":43.28503,"lon":5.39115,"is_reserved":false,"is_disabled":false,"rental_uris":{"android":"levelo://app?vid=8490e44e-0aff-4d7e-8a96-481d57cd3987","ios":"levelo://app?vid=8490e44e-0aff-4d7e-8a96-481d57cd3987"},"vehicle_type_id":"4","last_reported":1727691000,"current_range_meters":24400,"station_id":"ce4bh3p2rcd13ifvqdp0","pricing_plan_id":"cebpf4jnsgd1na2vs0mg"},{"bike_id":"3b337b3a-c414-4f20-8fcb-8ca13ff3b77d","system_id":"levelo_inurba_marseille","lat":43.26785,"lon":5.39409,"is_reserved":false,"is_disabled":false,"rental_uris":{"android":"levelo://app?vid=3b337b3a-c414-4f20-8fcb-8ca13ff3b77d","ios":"levelo://app?vid=3b337b3a-c414-4f20-8fcb-8ca13ff3b77d"},"vehicle_type_id":"4","last_reported":1727691000,"current_range_meters":12400,"station_id":"ce4bhh12rcd13ifvqfg0","pricing_plan_id":"cebpf4jnsgd1na2vs0mg"},{"bike_id":"81766707-7478-4563-b73b-833a28b5fc00","system_id":"levelo_inurba_marseille","lat":43.287,"lon":5.3739,"is_reserved":false,"is_disabled":false,"rental_uris":{"android":"levelo://app?vid=81766707-7478-4563-b73b-833a28b5fc00","ios":"levelo://app?vid=81766707-7478-4563-b73b-833a28b5fc00"},"vehicle_type_id":"4","last_reported":1727691000,"current_range_meters":39200,"station_id":"ce4bh3p2rcd13ifvqdq0","pricing_plan_id":"cebpf4jnsgd1na2vs0mg"},{"bike_id":"8fb6bf64-8807-43c2-9de9-c819ad9a1803","system_id":"levelo_inurba_marseille","lat":43.27306,"lon":5.39092,"is_reserved":false,"is_disabled":false,"rental_uris":{"android":"levelo://app?vid=8fb6bf64-8807-43c2-9de9-c819ad9a1803","ios":"levelo://app?vid=8fb6bf64-8807-43c2-9de9-c819ad9a1803"},"vehicle_type_id":"4","last_reported":1727691000,"current_range_meters":35600,"station_id":"ce4bhgp2rcd13ifvqfe0","pricing_plan_id":"cebpf4jnsgd1na2vs0mg"},{"bike_id":"4b2049e4-6660-4826-95a1-9ee705924c44","system_id":"levelo_inurba_marseille","lat":43.31223,"lon":5.36867,"is_reserved":false,"is_disabled":false,"rental_uris":{"android":"levelo://app?vid=4b2049e4-6660-4826-95a1-9ee705924c44","ios":"levelo://app?vid=4b2049e4-6660-4826-95a1-9ee705924c44"},"vehicle_type_id":"4","last_reported":1727691000,"current_range_meters":25600,"station_id":"ce4bgl92rcd13ifvqbq0","pricing_plan_id":"cebpf4jnsgd1na2vs0mg"},{"bike_id":"8d0a4983-d6e5-4ba9-9fda-066c656bd402","system_id":"levelo_inurba_marseille","lat":43.30884,"lon":5.3966,"is_reserved":false,"is_disabled":false,"rental_uris":{"android":"levelo://app?vid=8d0a4983-d6e5-4ba9-9fda-066c656bd402","ios":"levelo://app?vid=8d0a4983-d6e5-4ba9-9fda-066c656bd402"},"vehicle_type_id":"4","last_reported":1727691000,"current_range_meters":25600,"station_id":"ce4bh012rcd13ifvqcv0","pricing_plan_id":"cebpf4jnsgd1na2vs0mg"},{"bike_id":"0b75458a-7ee2-4261-8ce3-6df87ef4ae4d","system_id":"levelo_inurba_marseille","lat":43.31224,"lon":5.3686,"is_reserved":false,"is_disabled":false,"rental_uris":{"android":"levelo://app?vid=0b75458a-7ee2-4261-8ce3-6df87ef4ae4d","ios":"levelo://app?vid=0b75458a-7ee2-4261-8ce3-6df87ef4ae4d"},"vehicle_type_id":"4","last_reported":1727691000,"current_range_meters":9600,"station_id":"ce4bgl92rcd13ifvqbq0","pricing_plan_id":"cebpf4jnsgd1na2vs0mg"},{"bike_id":"efe910ee-caf8-4121-9528-1b5b4d0ae123","system_id":"levelo_inurba_marseille","lat":43.33018,"lon":5.39034,"is_reserved":false,"is_disabled":false,"rental_uris":{"android":"levelo://app?vid=efe910ee-caf8-4121-9528-1b5b4d0ae123","ios":"levelo://app?vid=efe910ee-caf8-4121-9528-1b5b4d0ae123"},"vehicle_type_id":"4","last_reported":1727691000,"current_range_meters":33600,"station_id":"ce4bhr92rcd13ifvqhrg","pricing_plan_id":"cebpf4jnsgd1na2vs0mg"},{"bike_id":"f54334eb-2195-4db5-889a-3481da52f9df","system_id":"levelo_inurba_marseille","lat":43.322918,"lon":5.382617,"is_reserved":false,"is_disabled":false,"rental_uris":{"android":"levelo://app?vid=f54334eb-2195-4db5-889a-3481da52f9df","ios":"levelo://app?vid=f54334eb-2195-4db5-889a-3481da52f9df"},"vehicle_type_id":"4","last_reported":1727691000,"current_range_meters":38800,"station_id":"ce4bhr12rcd13ifvqhqg","pricing_plan_id":"cebpf4jnsgd1na2vs0mg"},{"bike_id":"5b8f26ab-6b51-4c9d-ac3e-b872a6071183","system_id":"levelo_inurba_marseille","lat":43.3121,"lon":5.36868,"is_reserved":false,"is_disabled":false,"rental_uris":{"android":"levelo://app?vid=5b8f26ab-6b51-4c9d-ac3e-b872a6071183","ios":"levelo://app?vid=5b8f26ab-6b51-4c9d-ac3e-b872a6071183"},"vehicle_type_id":"4","last_reported":1727691000,"current_range_meters":23200,"station_id":"ce4bgl92rcd13ifvqbq0","pricing_plan_id":"cebpf4jnsgd1na2vs0mg"},{"bike_id":"b33f1dd9-2e0f-40c6-a5a3-06d78477d445","system_id":"levelo_inurba_marseille","lat":43.33753,"lon":5.37459,"is_reserved":false,"is_disabled":false,"rental_uris":{"android":"levelo://app?vid=b33f1dd9-2e0f-40c6-a5a3-06d78477d445","ios":"levelo://app?vid=b33f1dd9-2e0f-40c6-a5a3-06d78477d445"},"vehicle_type_id":"4","last_reported":1727691000,"current_range_meters":36800,"station_id":"","pricing_plan_id":"cebpf4jnsgd1na2vs0mg"},{"bike_id":"c1385bc4-3442-4ce3-baed-9bed2e4260e1","system_id":"levelo_inurba_marseille","lat":43.27492,"lon":5.42456,"is_reserved":false,"is_disabled":false,"rental_uris":{"android":"levelo://app?vid=c1385bc4-3442-4ce3-baed-9bed2e4260e1","ios":"levelo://app?vid=c1385bc4-3442-4ce3-baed-9bed2e4260e1"},"vehicle_type_id":"4","last_reported":1727691000,"current_range_meters":3200,"station_id":"ce4bhn92rcd13ifvqgrg","pricing_plan_id":"cebpf4jnsgd1na2vs0mg"},{"bike_id":"cb7d4b66-d5f3-4e95-a48f-5f622a70edf4","system_id":"levelo_inurba_marseille","lat":43.27494,"lon":5.42453,"is_reserved":false,"is_disabled":false,"rental_uris":{"android":"levelo://app?vid=cb7d4b66-d5f3-4e95-a48f-5f622a70edf4","ios":"levelo://app?vid=cb7d4b66-d5f3-4e95-a48f-5f622a70edf4"},"vehicle_type_id":"4","last_reported":1727691000,"current_range_meters":30000,"station_id":"ce4bhn92rcd13ifvqgrg","pricing_plan_id":"cebpf4jnsgd1na2vs0mg"},{"bike_id":"5dfd9658-fa7f-46fc-b68f-ea8f76487a17","system_id":"levelo_inurba_marseille","lat":43.337444,"lon":5.374475,"is_reserved":false,"is_disabled":false,"rental_uris":{"android":"levelo://app?vid=5dfd9658-fa7f-46fc-b68f-ea8f76487a17","ios":"levelo://app?vid=5dfd9658-fa7f-46fc-b68f-ea8f76487a17"},"vehicle_type_id":"4","last_reported":1727691000,"current_range_meters":22000,"station_id":"","pricing_plan_id":"cebpf4jnsgd1na2vs0mg"},{"bike_id":"fed4f50b-6774-42e2-b203-0a1f14c6c96c","system_id":"levelo_inurba_marseille","lat":43.31345,"lon":5.36705,"is_reserved":false,"is_disabled":false,"rental_uris":{"android":"levelo://app?vid=fed4f50b-6774-42e2-b203-0a1f14c6c96c","ios":"levelo://app?vid=fed4f50b-6774-42e2-b203-0a1f14c6c96c"},"vehicle_type_id":"4","last_reported":1727691000,"current_range_meters":33600,"station_id":"ce4bgr92rcd13ifvqc6g","pricing_plan_id":"cebpf4jnsgd1na2vs0mg"},{"bike_id":"eab30390-0c07-449c-a891-cba8bee1096b","system_id":"levelo_inurba_marseille","lat":43.32309,"lon":5.383,"is_reserved":false,"is_disabled":false,"rental_uris":{"android":"levelo://app?vid=eab30390-0c07-449c-a891-cba8bee1096b","ios":"levelo://app?vid=eab30390-0c07-449c-a891-cba8bee1096b"},"vehicle_type_id":"4","last_reported":1727691000,"current_range_meters":37600,"station_id":"ce4bhr12rcd13ifvqhqg","pricing_plan_id":"cebpf4jnsgd1na2vs0mg"},{"bike_id":"fdef7ae9-ba96-44b0-b95b-7baf90afc649","system_id":"levelo_inurba_marseille","lat":43.23963,"lon":5.36628,"is_reserved":false,"is_disabled":false,"rental_uris":{"android":"levelo://app?vid=fdef7ae9-ba96-44b0-b95b-7baf90afc649","ios":"levelo://app?vid=fdef7ae9-ba96-44b0-b95b-7baf90afc649"},"vehicle_type_id":"4","last_reported":1727691000,"current_range_meters":24800,"station_id":"ce4bhi12rcd13ifvqfp0","pricing_plan_id":"cebpf4jnsgd1na2vs0mg"},{"bike_id":"70bbe475-7354-4fd0-a967-4db6f2d0544a","system_id":"levelo_inurba_marseille","lat":43.299925,"lon":5.371838,"is_reserved":false,"is_disabled":false,"rental_uris":{"android":"levelo://app?vid=70bbe475-7354-4fd0-a967-4db6f2d0544a","ios":"levelo://app?vid=70bbe475-7354-4fd0-a967-4db6f2d0544a"},"vehicle_type_id":"4","last_reported":1727691000,"current_range_meters":16400,"station_id":"ce4bgr92rcd13ifvqc7g","pricing_plan_id":"cebpf4jnsgd1na2vs0mg"},{"bike_id":"12b38438-2bf6-4cca-8ed2-a190ea38d96c","system_id":"levelo_inurba_marseille","lat":43.30772,"lon":5.37649,"is_reserved":false,"is_disabled":false,"rental_uris":{"android":"levelo://app?vid=12b38438-2bf6-4cca-8ed2-a190ea38d96c","ios":"levelo://app?vid=12b38438-2bf6-4cca-8ed2-a190ea38d96c"},"vehicle_type_id":"4","last_reported":1727691000,"current_range_meters":39200,"station_id":"ce4bgv92rcd13ifvqcq0","pricing_plan_id":"cebpf4jnsgd1na2vs0mg"},{"bike_id":"23fc95b3-0af2-4c3e-91fa-9027180437a4","system_id":"levelo_inurba_marseille","lat":43.34152,"lon":5.40911,"is_reserved":false,"is_disabled":false,"rental_uris":{"android":"levelo://app?vid=23fc95b3-0af2-4c3e-91fa-9027180437a4","ios":"levelo://app?vid=23fc95b3-0af2-4c3e-91fa-9027180437a4"},"vehicle_type_id":"4","last_reported":1727691000,"current_range_meters":32400,"station_id":"ce4bhqh2rcd13ifvqhlg","pricing_plan_id":"cebpf4jnsgd1na2vs0mg"},{"bike_id":"4738d962-55df-4319-86cb-804612b5415a","system_id":"levelo_inurba_marseille","lat":43.30541,"lon":5.36709,"is_reserved":false,"is_disabled":false,"rental_uris":{"android":"levelo://app?vid=4738d962-55df-4319-86cb-804612b5415a","ios":"levelo://app?vid=4738d962-55df-4319-86cb-804612b5415a"},"vehicle_type_id":"4","last_reported":1727691000,"current_range_meters":27600,"station_id":"ce4bgrp2rcd13ifvqc9g","pricing_plan_id":"cebpf4jnsgd1na2vs0mg"},{"bike_id":"5e69d1c8-83c0-4dd2-a9d2-679137d369c8","system_id":"levelo_inurba_marseille","lat":43.32377,"lon":5.3892,"is_reserved":false,"is_disabled":false,"rental_uris":{"android":"levelo://app?vid=5e69d1c8-83c0-4dd2-a9d2-679137d369c8","ios":"levelo://app?vid=5e69d1c8-83c0-4dd2-a9d2-679137d369c8"},"vehicle_type_id":"4","last_reported":1727691000,"current_range_meters":26000,"station_id":"ce4bhqp2rcd13ifvqhog","pricing_plan_id":"cebpf4jnsgd1na2vs0mg"},{"bike_id":"01d629c1-ccb8-4fdc-a8fc-d8e3c8ebc2d3","system_id":"levelo_inurba_marseille","lat":43.311746,"lon":5.387242,"is_reserved":false,"is_disabled":false,"rental_uris":{"android":"levelo://app?vid=01d629c1-ccb8-4fdc-a8fc-d8e3c8ebc2d3","ios":"levelo://app?vid=01d629c1-ccb8-4fdc-a8fc-d8e3c8ebc2d3"},"vehicle_type_id":"4","last_reported":1727691000,"current_range_meters":16400,"station_id":"ce4bgv12rcd13ifvqcp0","pricing_plan_id":"cebpf4jnsgd1na2vs0mg"},{"bike_id":"23778a06-d156-4187-9007-0beadfd0bde7","system_id":"levelo_inurba_marseille","lat":43.23729,"lon":5.36349,"is_reserved":false,"is_disabled":false,"rental_uris":{"android":"levelo://app?vid=23778a06-d156-4187-9007-0beadfd0bde7","ios":"levelo://app?vid=23778a06-d156-4187-9007-0beadfd0bde7"},"vehicle_type_id":"4","last_reported":1727691000,"current_range_meters":36800,"station_id":"","pricing_plan_id":"cebpf4jnsgd1na2vs0mg"},{"bike_id":"3e55ba01-0a53-432a-b932-1fdd7fd1663d","system_id":"levelo_inurba_marseille","lat":43.29575,"lon":5.37523,"is_reserved":false,"is_disabled":false,"rental_uris":{"android":"levelo://app?vid=3e55ba01-0a53-432a-b932-1fdd7fd1663d","ios":"levelo://app?vid=3e55ba01-0a53-432a-b932-1fdd7fd1663d"},"vehicle_type_id":"4","last_reported":1727691000,"current_range_meters":38800,"station_id":"ce4bgh92rcd13ifvqb50","pricing_plan_id":"cebpf4jnsgd1na2vs0mg"},{"bike_id":"6f2d35b1-0278-43da-99ef-8d608ea1f489","system_id":"levelo_inurba_marseille","lat":43.23151,"lon":5.43711,"is_reserved":false,"is_disabled":false,"rental_uris":{"android":"levelo://app?vid=6f2d35b1-0278-43da-99ef-8d608ea1f489","ios":"levelo://app?vid=6f2d35b1-0278-43da-99ef-8d608ea1f489"},"vehicle_type_id":"4","last_reported":1727691000,"current_range_meters":22400,"station_id":"ce4bhmp2rcd13ifvqgog","pricing_plan_id":"cebpf4jnsgd1na2vs0mg"},{"bike_id":"e754d1df-23cf-4d30-bd34-21b6d47d20cf","system_id":"levelo_inurba_marseille","lat":43.30138,"lon":5.37419,"is_reserved":false,"is_disabled":false,"rental_uris":{"android":"levelo://app?vid=e754d1df-23cf-4d30-bd34-21b6d47d20cf","ios":"levelo://app?vid=e754d1df-23cf-4d30-bd34-21b6d47d20cf"},"vehicle_type_id":"4","last_reported":1727691000,"current_range_meters":39200,"station_id":"ce4bgs92rcd13ifvqcc0","pricing_plan_id":"cebpf4jnsgd1na2vs0mg"},{"bike_id":"eb055b23-4f17-4633-8a2c-044659cf713a","system_id":"levelo_inurba_marseille","lat":43.29896,"lon":5.4367,"is_reserved":false,"is_disabled":false,"rental_uris":{"android":"levelo://app?vid=eb055b23-4f17-4633-8a2c-044659cf713a","ios":"levelo://app?vid=eb055b23-4f17-4633-8a2c-044659cf713a"},"vehicle_type_id":"4","last_reported":1727691000,"current_range_meters":39200,"station_id":"ce4bhpp2rcd13ifvqhfg","pricing_plan_id":"cebpf4jnsgd1na2vs0mg"},{"bike_id":"512bb4ed-c2e7-473f-aa47-7ed3f92d1436","system_id":"levelo_inurba_marseille","lat":43.27488,"lon":5.42461,"is_reserved":false,"is_disabled":false,"rental_uris":{"android":"levelo://app?vid=512bb4ed-c2e7-473f-aa47-7ed3f92d1436","ios":"levelo://app?vid=512bb4ed-c2e7-473f-aa47-7ed3f92d1436"},"vehicle_type_id":"4","last_reported":1727691000,"current_range_meters":35200,"station_id":"ce4bhn92rcd13ifvqgrg","pricing_plan_id":"cebpf4jnsgd1na2vs0mg"},{"bike_id":"3d4a77d3-467a-4481-ae96-87f59aa9d985","system_id":"levelo_inurba_marseille","lat":43.24177,"lon":5.39726,"is_reserved":false,"is_disabled":false,"rental_uris":{"android":"levelo://app?vid=3d4a77d3-467a-4481-ae96-87f59aa9d985","ios":"levelo://app?vid=3d4a77d3-467a-4481-ae96-87f59aa9d985"},"vehicle_type_id":"4","last_reported":1727691000,"current_range_meters":31200,"station_id":"ce4bhn12rcd13ifvqgpg","pricing_plan_id":"cebpf4jnsgd1na2vs0mg"},{"bike_id":"90a81fb7-f144-42fb-8f18-36f4dc14c1f9","system_id":"levelo_inurba_marseille","lat":43.28076,"lon":5.39669,"is_reserved":false,"is_disabled":false,"rental_uris":{"android":"levelo://app?vid=90a81fb7-f144-42fb-8f18-36f4dc14c1f9","ios":"levelo://app?vid=90a81fb7-f144-42fb-8f18-36f4dc14c1f9"},"vehicle_type_id":"4","last_reported":1727691000,"current_range_meters":17200,"station_id":"ce4bho12rcd13ifvqh2g","pricing_plan_id":"cebpf4jnsgd1na2vs0mg"},{"bike_id":"746ed673-5074-4937-8aad-1f54c9896744","system_id":"levelo_inurba_marseille","lat":43.31081,"lon":5.42441,"is_reserved":false,"is_disabled":false,"rental_uris":{"android":"levelo://app?vid=746ed673-5074-4937-8aad-1f54c9896744","ios":"levelo://app?vid=746ed673-5074-4937-8aad-1f54c9896744"},"vehicle_type_id":"4","last_reported":1727691000,"current_range_meters":37600,"station_id":"ce4bhp92rcd13ifvqhag","pricing_plan_id":"cebpf4jnsgd1na2vs0mg"},{"bike_id":"1ceb6c1b-9a81-47c6-bec6-41d91a82b052","system_id":"levelo_inurba_marseille","lat":43.28619,"lon":5.35099,"is_reserved":false,"is_disabled":false,"rental_uris":{"android":"levelo://app?vid=1ceb6c1b-9a81-47c6-bec6-41d91a82b052","ios":"levelo://app?vid=1ceb6c1b-9a81-47c6-bec6-41d91a82b052"},"vehicle_type_id":"4","last_reported":1727691000,"current_range_meters":18000,"station_id":"ce4bhch2rcd13ifvqeug","pricing_plan_id":"cebpf4jnsgd1na2vs0mg"},{"bike_id":"304bfe0c-c0f3-401c-95dc-d023af22de40","system_id":"levelo_inurba_marseille","lat":43.26059,"lon":5.39392,"is_reserved":false,"is_disabled":false,"rental_uris":{"android":"levelo://app?vid=304bfe0c-c0f3-401c-95dc-d023af22de40","ios":"levelo://app?vid=304bfe0c-c0f3-401c-95dc-d023af22de40"},"vehicle_type_id":"4","last_reported":1727691000,"current_range_meters":38400,"station_id":"ce4bhh92rcd13ifvqfj0","pricing_plan_id":"cebpf4jnsgd1na2vs0mg"},{"bike_id":"b54a9626-109e-4d4b-bfb3-41424061170c","system_id":"levelo_inurba_marseille","lat":43.2749,"lon":5.4246,"is_reserved":false,"is_disabled":false,"rental_uris":{"android":"levelo://app?vid=b54a9626-109e-4d4b-bfb3-41424061170c","ios":"levelo://app?vid=b54a9626-109e-4d4b-bfb3-41424061170c"},"vehicle_type_id":"4","last_reported":1727691000,"current_range_meters":28400,"station_id":"ce4bhn92rcd13ifvqgrg","pricing_plan_id":"cebpf4jnsgd1na2vs0mg"},{"bike_id":"5884459f-61ba-402d-8071-cb5f214cf664","system_id":"levelo_inurba_marseille","lat":43.30143,"lon":5.37425,"is_reserved":false,"is_disabled":false,"rental_uris":{"android":"levelo://app?vid=5884459f-61ba-402d-8071-cb5f214cf664","ios":"levelo://app?vid=5884459f-61ba-402d-8071-cb5f214cf664"},"vehicle_type_id":"4","last_reported":1727691000,"current_range_meters":38400,"station_id":"ce4bgs92rcd13ifvqcc0","pricing_plan_id":"cebpf4jnsgd1na2vs0mg"},{"bike_id":"50c76a16-1d0d-4ae2-8b7e-601442132bfd","system_id":"levelo_inurba_marseille","lat":43.27177,"lon":5.40991,"is_reserved":false,"is_disabled":false,"rental_uris":{"android":"levelo://app?vid=50c76a16-1d0d-4ae2-8b7e-601442132bfd","ios":"levelo://app?vid=50c76a16-1d0d-4ae2-8b7e-601442132bfd"},"vehicle_type_id":"4","last_reported":1727691000,"current_range_meters":2000,"station_id":"ce4bhl12rcd13ifvqgf0","pricing_plan_id":"cebpf4jnsgd1na2vs0mg"},{"bike_id":"fa963720-680e-4f4b-9df8-e97b2878add1","system_id":"levelo_inurba_marseille","lat":43.29812,"lon":5.381086,"is_reserved":false,"is_disabled":false,"rental_uris":{"android":"levelo://app?vid=fa963720-680e-4f4b-9df8-e97b2878add1","ios":"levelo://app?vid=fa963720-680e-4f4b-9df8-e97b2878add1"},"vehicle_type_id":"4","last_reported":1727691000,"current_range_meters":34800,"station_id":"ce4bgip2rcd13ifvqbb0","pricing_plan_id":"cebpf4jnsgd1na2vs0mg"},{"bike_id":"a6409f39-b477-4801-848d-7195b46675a8","system_id":"levelo_inurba_marseille","lat":43.30123,"lon":5.37383,"is_reserved":false,"is_disabled":false,"rental_uris":{"android":"levelo://app?vid=a6409f39-b477-4801-848d-7195b46675a8","ios":"levelo://app?vid=a6409f39-b477-4801-848d-7195b46675a8"},"vehicle_type_id":"4","last_reported":1727691000,"current_range_meters":39200,"station_id":"ce4bgs92rcd13ifvqcc0","pricing_plan_id":"cebpf4jnsgd1na2vs0mg"},{"bike_id":"064fbc96-87b4-421e-af03-f3f5f0c253eb","system_id":"levelo_inurba_marseille","lat":43.32111,"lon":5.36766,"is_reserved":false,"is_disabled":false,"rental_uris":{"android":"levelo://app?vid=064fbc96-87b4-421e-af03-f3f5f0c253eb","ios":"levelo://app?vid=064fbc96-87b4-421e-af03-f3f5f0c253eb"},"vehicle_type_id":"4","last_reported":1727691000,"current_range_meters":27200,"station_id":"ce4bhrh2rcd13ifvqhug","pricing_plan_id":"cebpf4jnsgd1na2vs0mg"},{"bike_id":"dcca5eb1-337d-4677-b150-3612f0c83882","system_id":"levelo_inurba_marseille","lat":43.31358,"lon":5.36695,"is_reserved":false,"is_disabled":false,"rental_uris":{"android":"levelo://app?vid=dcca5eb1-337d-4677-b150-3612f0c83882","ios":"levelo://app?vid=dcca5eb1-337d-4677-b150-3612f0c83882"},"vehicle_type_id":"4","last_reported":1727691000,"current_range_meters":30800,"station_id":"ce4bgr92rcd13ifvqc6g","pricing_plan_id":"cebpf4jnsgd1na2vs0mg"},{"bike_id":"ca6e1f1a-fa26-47c0-a825-d97d2ca58ee3","system_id":"levelo_inurba_marseille","lat":43.24803,"lon":5.37452,"is_reserved":false,"is_disabled":false,"rental_uris":{"android":"levelo://app?vid=ca6e1f1a-fa26-47c0-a825-d97d2ca58ee3","ios":"levelo://app?vid=ca6e1f1a-fa26-47c0-a825-d97d2ca58ee3"},"vehicle_type_id":"4","last_reported":1727691000,"current_range_meters":28400,"station_id":"ce4bhgh2rcd13ifvqfb0","pricing_plan_id":"cebpf4jnsgd1na2vs0mg"},{"bike_id":"ef125a7e-bc43-42a0-b359-ff1dc895f253","system_id":"levelo_inurba_marseille","lat":43.3055,"lon":5.36557,"is_reserved":false,"is_disabled":false,"rental_uris":{"android":"levelo://app?vid=ef125a7e-bc43-42a0-b359-ff1dc895f253","ios":"levelo://app?vid=ef125a7e-bc43-42a0-b359-ff1dc895f253"},"vehicle_type_id":"4","last_reported":1727691000,"current_range_meters":16400,"station_id":"ce4bgs12rcd13ifvqcag","pricing_plan_id":"cebpf4jnsgd1na2vs0mg"},{"bike_id":"fbed351f-b60b-4b1a-a53b-2842b11c19e6","system_id":"levelo_inurba_marseille","lat":43.301361,"lon":5.387587,"is_reserved":false,"is_disabled":false,"rental_uris":{"android":"levelo://app?vid=fbed351f-b60b-4b1a-a53b-2842b11c19e6","ios":"levelo://app?vid=fbed351f-b60b-4b1a-a53b-2842b11c19e6"},"vehicle_type_id":"4","last_reported":1727691000,"current_range_meters":22400,"station_id":"ce4bghh2rcd13ifvqb60","pricing_plan_id":"cebpf4jnsgd1na2vs0mg"},{"bike_id":"79e3b807-678c-4e9f-bcb7-05c9cb3c6740","system_id":"levelo_inurba_marseille","lat":43.32262,"lon":5.3828,"is_reserved":false,"is_disabled":false,"rental_uris":{"android":"levelo://app?vid=79e3b807-678c-4e9f-bcb7-05c9cb3c6740","ios":"levelo://app?vid=79e3b807-678c-4e9f-bcb7-05c9cb3c6740"},"vehicle_type_id":"4","last_reported":1727691000,"current_range_meters":7200,"station_id":"ce4bhr12rcd13ifvqhqg","pricing_plan_id":"cebpf4jnsgd1na2vs0mg"},{"bike_id":"c473d69b-4d27-4d1b-8afb-3e089d39cfb7","system_id":"levelo_inurba_marseille","lat":43.27731,"lon":5.35676,"is_reserved":false,"is_disabled":false,"rental_uris":{"android":"levelo://app?vid=c473d69b-4d27-4d1b-8afb-3e089d39cfb7","ios":"levelo://app?vid=c473d69b-4d27-4d1b-8afb-3e089d39cfb7"},"vehicle_type_id":"4","last_reported":1727691000,"current_range_meters":18800,"station_id":"ce4bhbp2rcd13ifvqerg","pricing_plan_id":"cebpf4jnsgd1na2vs0mg"},{"bike_id":"b09aa09f-e2ca-4f52-a96c-9ca3c9bd6e8c","system_id":"levelo_inurba_marseille","lat":43.25929,"lon":5.40914,"is_reserved":false,"is_disabled":false,"rental_uris":{"android":"levelo://app?vid=b09aa09f-e2ca-4f52-a96c-9ca3c9bd6e8c","ios":"levelo://app?vid=b09aa09f-e2ca-4f52-a96c-9ca3c9bd6e8c"},"vehicle_type_id":"4","last_reported":1727691000,"current_range_meters":20000,"station_id":"ce4bhm92rcd13ifvqglg","pricing_plan_id":"cebpf4jnsgd1na2vs0mg"},{"bike_id":"2aee5c26-c3e9-4b2b-9936-7edb98875e5e","system_id":"levelo_inurba_marseille","lat":43.29514,"lon":5.37513,"is_reserved":false,"is_disabled":false,"rental_uris":{"android":"levelo://app?vid=2aee5c26-c3e9-4b2b-9936-7edb98875e5e","ios":"levelo://app?vid=2aee5c26-c3e9-4b2b-9936-7edb98875e5e"},"vehicle_type_id":"4","last_reported":1727691000,"current_range_meters":36000,"station_id":"ce4bgkp2rcd13ifvqbmg","pricing_plan_id":"cebpf4jnsgd1na2vs0mg"},{"bike_id":"a1f07101-143c-4719-9b35-c3d0689e0d3d","system_id":"levelo_inurba_marseille","lat":43.28351,"lon":5.38106,"is_reserved":false,"is_disabled":false,"rental_uris":{"android":"levelo://app?vid=a1f07101-143c-4719-9b35-c3d0689e0d3d","ios":"levelo://app?vid=a1f07101-143c-4719-9b35-c3d0689e0d3d"},"vehicle_type_id":"4","last_reported":1727691000,"current_range_meters":30000,"station_id":"ce4bh412rcd13ifvqdr0","pricing_plan_id":"cebpf4jnsgd1na2vs0mg"},{"bike_id":"d57f9888-0cec-4b24-9202-cb2aaacdfa8b","system_id":"levelo_inurba_marseille","lat":43.25114,"lon":5.40324,"is_reserved":false,"is_disabled":false,"rental_uris":{"android":"levelo://app?vid=d57f9888-0cec-4b24-9202-cb2aaacdfa8b","ios":"levelo://app?vid=d57f9888-0cec-4b24-9202-cb2aaacdfa8b"},"vehicle_type_id":"4","last_reported":1727691000,"current_range_meters":6400,"station_id":"ce4bhlh2rcd13ifvqgig","pricing_plan_id":"cebpf4jnsgd1na2vs0mg"},{"bike_id":"d08e29bc-3d72-471e-abe1-d5f96f3668d7","system_id":"levelo_inurba_marseille","lat":43.31324,"lon":5.39699,"is_reserved":false,"is_disabled":false,"rental_uris":{"android":"levelo://app?vid=d08e29bc-3d72-471e-abe1-d5f96f3668d7","ios":"levelo://app?vid=d08e29bc-3d72-471e-abe1-d5f96f3668d7"},"vehicle_type_id":"4","last_reported":1727691000,"current_range_meters":37600,"station_id":"ce4bgvp2rcd13ifvqcu0","pricing_plan_id":"cebpf4jnsgd1na2vs0mg"},{"bike_id":"0711d1c2-e9d9-4f33-8d9e-7be59eefd32b","system_id":"levelo_inurba_marseille","lat":43.26682,"lon":5.3826,"is_reserved":false,"is_disabled":false,"rental_uris":{"android":"levelo://app?vid=0711d1c2-e9d9-4f33-8d9e-7be59eefd32b","ios":"levelo://app?vid=0711d1c2-e9d9-4f33-8d9e-7be59eefd32b"},"vehicle_type_id":"4","last_reported":1727691000,"current_range_meters":17600,"station_id":"ce4bhg92rcd13ifvqf90","pricing_plan_id":"cebpf4jnsgd1na2vs0mg"},{"bike_id":"6de1576a-d52b-41f1-a1ef-2d04e169f9f6","system_id":"levelo_inurba_marseille","lat":43.299927,"lon":5.371412,"is_reserved":false,"is_disabled":false,"rental_uris":{"android":"levelo://app?vid=6de1576a-d52b-41f1-a1ef-2d04e169f9f6","ios":"levelo://app?vid=6de1576a-d52b-41f1-a1ef-2d04e169f9f6"},"vehicle_type_id":"4","last_reported":1727691000,"current_range_meters":32000,"station_id":"ce4bgjh2rcd13ifvqbg0","pricing_plan_id":"cebpf4jnsgd1na2vs0mg"},{"bike_id":"0fc9dd2b-c151-49c9-bcbc-94784f9a915b","system_id":"levelo_inurba_marseille","lat":43.25716,"lon":5.41118,"is_reserved":false,"is_disabled":false,"rental_uris":{"android":"levelo://app?vid=0fc9dd2b-c151-49c9-bcbc-94784f9a915b","ios":"levelo://app?vid=0fc9dd2b-c151-49c9-bcbc-94784f9a915b"},"vehicle_type_id":"4","last_reported":1727691000,"current_range_meters":25200,"station_id":"ce4bhkp2rcd13ifvqgd0","pricing_plan_id":"cebpf4jnsgd1na2vs0mg"},{"bike_id":"c265604b-1b03-4659-ab21-944c98df0257","system_id":"levelo_inurba_marseille","lat":43.28475,"lon":5.38416,"is_reserved":false,"is_disabled":false,"rental_uris":{"android":"levelo://app?vid=c265604b-1b03-4659-ab21-944c98df0257","ios":"levelo://app?vid=c265604b-1b03-4659-ab21-944c98df0257"},"vehicle_type_id":"4","last_reported":1727691000,"current_range_meters":17200,"station_id":"ce4bh512rcd13ifvqe3g","pricing_plan_id":"cebpf4jnsgd1na2vs0mg"},{"bike_id":"9ed0bb96-7334-41ec-9ec7-5d7a14a6c307","system_id":"levelo_inurba_marseille","lat":43.24079,"lon":5.37752,"is_reserved":false,"is_disabled":false,"rental_uris":{"android":"levelo://app?vid=9ed0bb96-7334-41ec-9ec7-5d7a14a6c307","ios":"levelo://app?vid=9ed0bb96-7334-41ec-9ec7-5d7a14a6c307"},"vehicle_type_id":"4","last_reported":1727691000,"current_range_meters":34800,"station_id":"ce4bhnp2rcd13ifvqgvg","pricing_plan_id":"cebpf4jnsgd1na2vs0mg"},{"bike_id":"6fefae09-39db-48ee-8218-e67861a96a13","system_id":"levelo_inurba_marseille","lat":43.296722,"lon":5.371698,"is_reserved":false,"is_disabled":false,"rental_uris":{"android":"levelo://app?vid=6fefae09-39db-48ee-8218-e67861a96a13","ios":"levelo://app?vid=6fefae09-39db-48ee-8218-e67861a96a13"},"vehicle_type_id":"4","last_reported":1727691000,"current_range_meters":16400,"station_id":"","pricing_plan_id":"cebpf4jnsgd1na2vs0mg"},{"bike_id":"47a99317-4cd3-4728-968e-f2dc53f13cb7","system_id":"levelo_inurba_marseille","lat":43.2904,"lon":5.39972,"is_reserved":false,"is_disabled":false,"rental_uris":{"android":"levelo://app?vid=47a99317-4cd3-4728-968e-f2dc53f13cb7","ios":"levelo://app?vid=47a99317-4cd3-4728-968e-f2dc53f13cb7"},"vehicle_type_id":"4","last_reported":1727691000,"current_range_meters":34000,"station_id":"ce4bh392rcd13ifvqdm0","pricing_plan_id":"cebpf4jnsgd1na2vs0mg"},{"bike_id":"8dddc838-89b5-41e8-96f9-7d7f05e18f04","system_id":"levelo_inurba_marseille","lat":43.23143,"lon":5.43716,"is_reserved":false,"is_disabled":false,"rental_uris":{"android":"levelo://app?vid=8dddc838-89b5-41e8-96f9-7d7f05e18f04","ios":"levelo://app?vid=8dddc838-89b5-41e8-96f9-7d7f05e18f04"},"vehicle_type_id":"4","last_reported":1727691000,"current_range_meters":36800,"station_id":"ce4bhmp2rcd13ifvqgog","pricing_plan_id":"cebpf4jnsgd1na2vs0mg"},