{"last_updated":1735564552,"ttl":60,"version":"2.2","data":{"bikes":[{"bike_id":"65f4cc19-d3da-4f16-94a4-9f27da82bb5f","system_id":"levelo_inurba_marseille","lat":43.31502,"lon":5.37311,"is_reserved":false,"is_disabled":false,"rental_uris":{"android":"levelo://app?vid=65f4cc19-d3da-4f16-94a4-9f27da82bb5f","ios":"levelo://app?vid=65f4cc19-d3da-4f16-94a4-9f27da82bb5f"},"vehicle_type_id":"4","last_reported":1735564552,"current_range_meters":37600,"station_id":"ce4bgt12rcd13ifvqcd0","pricing_plan_id":"cebpf4jnsgd1na2vs0mg"},{"bike_id":"ef9814ee-b24d-4ca9-8670-9eaeb662f48d","system_id":"levelo_inurba_marseille","lat":43.29575,"lon":5.36786,"is_reserved":false,"is_disabled":false,"rental_uris":{"android":"levelo://app?vid=ef9814ee-b24d-4ca9-8670-9eaeb662f48d","ios":"levelo://app?vid=ef9814ee-b24d-4ca9-8670-9eaeb662f48d"},"vehicle_type_id":"4","last_reported":1735564552,"current_range_meters":37600,"station_id":"ce4bgph2rcd13ifvqc2g","pricing_plan_id":"cebpf4jnsgd1na2vs0mg"},{"bike_id":"b125795f-7d19-4680-a8d6-94e84290827f","system_id":"levelo_inurba_marseille","lat":43.30124,"lon":5.37436,"is_reserved":false,"is_disabled":false,"rental_uris":{"android":"levelo://app?vid=b125795f-7d19-4680-a8d6-94e84290827f","ios":"levelo://app?vid=b125795f-7d19-4680-a8d6-94e84290827f"},"vehicle_type_id":"4","last_reported":1735564552,"current_range_meters":38800,"station_id":"ce4bgs92rcd13ifvqcc0","pricing_plan_id":"cebpf4jnsgd1na2vs0mg"},{"bike_id":"92b731bd-5018-412b-882c-748ea846dc76","system_id":"levelo_inurba_marseille","lat":43.2731,"lon":5.39082,"is_reserved":false,"is_disabled":false,"rental_uris":{"android":"levelo://app?vid=92b731bd-5018-412b-882c-748ea846dc76","ios":"levelo://app?vid=92b731bd-5018-412b-882c-748ea846dc76"},"vehicle_type_id":"4","last_reported":1735564552,"current_range_meters":27200,"station_id":"ce4bhgp2rcd13ifvqfe0","pricing_plan_id":"cebpf4jnsgd1na2vs0mg"},{"bike_id":"b1e3d2fb-39b3-466a-8934-a01b3592fbe9","system_id":"levelo_inurba_marseille","lat":43.29862,"lon":5.36283,"is_reserved":false,"is_disabled":false,"rental_uris":{"android":"levelo://app?vid=b1e3d2fb-39b3-466a-8934-a01b3592fbe9","ios":"levelo://app?vid=b1e3d2fb-39b3-466a-8934-a01b3592fbe9"},"vehicle_type_id":"4","last_reported":1735564552,"current_range_meters":39200,"station_id":"ce4bgpp2rcd13ifvqc3g","pricing_plan_id":"cebpf4jnsgd1na2vs0mg"},{"bike_id":"219b65c7-24b7-4a0f-8b44-4c0a65913822","system_id":"levelo_inurba_marseille","lat":43.27322,"lon":5.39071,"is_reserved":false,"is_disabled":false,"rental_uris":{"android":"levelo://app?vid=219b65c7-24b7-4a0f-8b44-4c0a65913822","ios":"levelo://app?vid=219b65c7-24b7-4a0f-8b44-4c0a65913822"},"vehicle_type_id":"4","last_reported":1735564552,"current_range_meters":28800,"station_id":"ce4bhgp2rcd13ifvqfe0","pricing_plan_id":"cebpf4jnsgd1na2vs0mg"},{"bike_id":"0c4d407c-6cb3-4649-ac2d-959dc9dbd1fc","system_id":"levelo_inurba_marseille","lat":43.2793,"lon":5.41037,"is_reserved":false,"is_disabled":false,"rental_uris":{"android":"levelo://app?vid=0c4d407c-6cb3-4649-ac2d-959dc9dbd1fc","ios":"levelo://app?vid=0c4d407c-6cb3-4649-ac2d-959dc9dbd1fc"},"vehicle_type_id":"4","last_reported":1735564552,"current_range_meters":28000,"station_id":"ce4bhnp2rcd13ifvqh0g","pricing_plan_id":"cebpf4jnsgd1na2vs0mg"},{"bike_id":"08f8e4e3-e711-42f3-aa46-76b6985b3143","system_id":"levelo_inurba_marseille","lat":43.28444,"lon":5.39208,"is_reserved":false,"is_disabled":false,"rental_uris":{"android":"levelo://app?vid=08f8e4e3-e711-42f3-aa46-76b6985b3143","ios":"levelo://app?vid=08f8e4e3-e711-42f3-aa46-76b6985b3143"},"vehicle_type_id":"4","last_reported":1735564552,"current_range_meters":8000,"station_id":"ce4bhoh2rcd13ifvqh5g","pricing_plan_id":"cebpf4jnsgd1na2vs0mg"},{"bike_id":"3991aac2-ec7f-43c8-801f-23e11845f2d6","system_id":"levelo_inurba_marseille","lat":43.28136,"lon":5.42678,"is_reserved":false,"is_disabled":false,"rental_uris":{"android":"levelo://app?vid=3991aac2-ec7f-43c8-801f-23e11845f2d6","ios":"levelo://app?vid=3991aac2-ec7f-43c8-801f-23e11845f2d6"},"vehicle_type_id":"4","last_reported":1735564552,"current_range_meters":36800,"station_id":"ce4bhnh2rcd13ifvqgug","pricing_plan_id":"cebpf4jnsgd1na2vs0mg"},{"bike_id":"d323163e-a573-41ec-9af5-9b6ed79a7d45","system_id":"levelo_inurba_marseille","lat":43.29853,"lon":5.36281,"is_reserved":false,"is_disabled":false,"rental_uris":{"android":"levelo://app?vid=d323163e-a573-41ec-9af5-9b6ed79a7d45","ios":"levelo://app?vid=d323163e-a573-41ec-9af5-9b6ed79a7d45"},"vehicle_type_id":"4","last_reported":1735564552,"current_range_meters":26800,"station_id":"ce4bgpp2rcd13ifvqc3g","pricing_plan_id":"cebpf4jnsgd1na2vs0mg"},{"bike_id":"cec9e18d-3c65-4c89-bfa1-a30d4eb88df0","system_id":"levelo_inurba_marseille","lat":43.30927,"lon":5.40149,"is_reserved":false,"is_disabled":false,"rental_uris":{"android":"levelo://app?vid=cec9e18d-3c65-4c89-bfa1-a30d4eb88df0","ios":"levelo://app?vid=cec9e18d-3c65-4c89-bfa1-a30d4eb88df0"},"vehicle_type_id":"4","last_reported":1735564552,"current_range_meters":38800,"station_id":"ce4bgvp2rcd13ifvqct0","pricing_plan_id":"cebpf4jnsgd1na2vs0mg"},{"bike_id":"e0ccc8d0-06cc-4f4c-ba9f-5cac6c1b437f","system_id":"levelo_inurba_marseille","lat":43.30888,"lon":5.37195,"is_reserved":false,"is_disabled":false,"rental_uris":{"android":"levelo://app?vid=e0ccc8d0-06cc-4f4c-ba9f-5cac6c1b437f","ios":"levelo://app?vid=e0ccc8d0-06cc-4f4c-ba9f-5cac6c1b437f"},"vehicle_type_id":"4","last_reported":1735564552,"current_range_meters":34000,"station_id":"ce4bguh2rcd13ifvqckg","pricing_plan_id":"cebpf4jnsgd1na2vs0mg"},{"bike_id":"3b3d2c75-4195-4f81-af35-afa13ebc8eea","system_id":"levelo_inurba_marseille","lat":43.27385,"lon":5.36256,"is_reserved":false,"is_disabled":true,"rental_uris":{"android":"levelo://app?vid=3b3d2c75-4195-4f81-af35-afa13ebc8eea","ios":"levelo://app?vid=3b3d2c75-4195-4f81-af35-afa13ebc8eea"},"vehicle_type_id":"4","last_reported":1735564552,"current_range_meters":22800,"station_id":"ce4bhbh2rcd13ifvqeo0","pricing_plan_id":"cebpf4jnsgd1na2vs0mg"},{"bike_id":"a1a5f3fe-7f90-4223-b04a-63f973fe01fd","system_id":"levelo_inurba_marseille","lat":43.24087,"lon":5.3778,"is_reserved":false,"is_disabled":false,"rental_uris":{"android":"levelo://app?vid=a1a5f3fe-7f90-4223-b04a-63f973fe01fd","ios":"levelo://app?vid=a1a5f3fe-7f90-4223-b04a-63f973fe01fd"},"vehicle_type_id":"4","last_reported":1735564552,"current_range_meters":12400,"station_id":"ce4bhnp2rcd13ifvqgvg","pricing_plan_id":"cebpf4jnsgd1na2vs0mg"},{"bike_id":"ecf0e1df-bdc6-4c78-ae54-45aa3b911979","system_id":"levelo_inurba_marseille","lat":43.29071,"lon":5.37159,"is_reserved":false,"is_disabled":false,"rental_uris":{"android":"levelo://app?vid=ecf0e1df-bdc6-4c78-ae54-45aa3b911979","ios":"levelo://app?vid=ecf0e1df-bdc6-4c78-ae54-45aa3b911979"},"vehicle_type_id":"4","last_reported":1735564552,"current_range_meters":25200,"station_id":"ce4bh5p2rcd13ifvqe4g","pricing_plan_id":"cebpf4jnsgd1na2vs0mg"},{"bike_id":"99c6b87a-843d-4eac-96f7-03bb3144a23d","system_id":"levelo_inurba_marseille","lat":43.23193,"lon":5.35561,"is_reserved":false,"is_disabled":false,"rental_uris":{"android":"levelo://app?vid=99c6b87a-843d-4eac-96f7-03bb3144a23d","ios":"levelo://app?vid=99c6b87a-843d-4eac-96f7-03bb3144a23d"},"vehicle_type_id":"4","last_reported":1735564552,"current_range_meters":38400,"station_id":"ce4bhu92rcd13ifvqi70","pricing_plan_id":"cebpf4jnsgd1na2vs0mg"},{"bike_id":"4b2d39f3-d5d3-4cb8-a84c-a1c267b615dd","system_id":"levelo_inurba_marseille","lat":43.2828,"lon":5.35065,"is_reserved":false,"is_disabled":true,"rental_uris":{"android":"levelo://app?vid=4b2d39f3-d5d3-4cb8-a84c-a1c267b615dd","ios":"levelo://app?vid=4b2d39f3-d5d3-4cb8-a84c-a1c267b615dd"},"vehicle_type_id":"4","last_reported":1735564552,"current_range_meters":10800,"station_id":"ce4bhbp2rcd13ifvqerg","pricing_plan_id":"cebpf4jnsgd1na2vs0mg"},{"bike_id":"43d70a12-f23b-4eab-80ce-32f6ec951a07","system_id":"levelo_inurba_marseille","lat":43.27995,"lon":5.40028,"is_reserved":false,"is_disabled":false,"rental_uris":{"android":"levelo://app?vid=43d70a12-f23b-4eab-80ce-32f6ec951a07","ios":"levelo://app?vid=43d70a12-f23b-4eab-80ce-32f6ec951a07"},"vehicle_type_id":"4","last_reported":1735564552,"current_range_meters":4800,"station_id":"ce4bho92rcd13ifvqh4g","pricing_plan_id":"cebpf4jnsgd1na2vs0mg"},{"bike_id":"41ba500d-5f30-4a82-88c0-ab977351b437","system_id":"levelo_inurba_marseille","lat":43.28101,"lon":5.37836,"is_reserved":false,"is_disabled":false,"rental_uris":{"android":"levelo://app?vid=41ba500d-5f30-4a82-88c0-ab977351b437","ios":"levelo://app?vid=41ba500d-5f30-4a82-88c0-ab977351b437"},"vehicle_type_id":"4","last_reported":1735564552,"current_range_meters":32000,"station_id":"ce4bha12rcd13ifvqee0","pricing_plan_id":"cebpf4jnsgd1na2vs0mg"},{"bike_id":"91015cbb-e4a8-4a97-9981-4277c458cfe6","system_id":"levelo_inurba_marseille","lat":43.28456,"lon":5.38543,"is_reserved":false,"is_disabled":false,"rental_uris":{"android":"levelo://app?vid=91015cbb-e4a8-4a97-9981-4277c458cfe6","ios":"levelo://app?vid=91015cbb-e4a8-4a97-9981-4277c458cfe6"},"vehicle_type_id":"4","last_reported":1735564552,"current_range_meters":36800,"station_id":"ce4bh8p2rcd13ifvqeb0","pricing_plan_id":"cebpf4jnsgd1na2vs0mg"},{"bike_id":"f1c7a22d-ac2e-4471-b583-83a5f465e9b6","system_id":"levelo_inurba_marseille","lat":43.28488,"lon":5.38411,"is_reserved":false,"is_disabled":false,"rental_uris":{"android":"levelo://app?vid=f1c7a22d-ac2e-4471-b583-83a5f465e9b6","ios":"levelo://app?vid=f1c7a22d-ac2e-4471-b583-83a5f465e9b6"},"vehicle_type_id":"4","last_reported":1735564552,"current_range_meters":35600,"station_id":"ce4bh512rcd13ifvqe3g","pricing_plan_id":"cebpf4jnsgd1na2vs0mg"},{"bike_id":"c1cd00c9-dc90-4440-bc64-fb5ef058e9ee","system_id":"levelo_inurba_marseille","lat":43.29965,"lon":5.38497,"is_reserved":false,"is_disabled":false,"rental_uris":{"android":"levelo://app?vid=c1cd00c9-dc90-4440-bc64-fb5ef058e9ee","ios":"levelo://app?vid=c1cd00c9-dc90-4440-bc64-fb5ef058e9ee"},"vehicle_type_id":"4","last_reported":1735564552,"current_range_meters":32000,"station_id":"ce4bgj92rcd13ifvqbd0","pricing_plan_id":"cebpf4jnsgd1na2vs0mg"},{"bike_id":"4a19328a-efd2-4e7b-a1f8-3180989e8643","system_id":"levelo_inurba_marseille","lat":43.27847,"lon":5.39216,"is_reserved":false,"is_disabled":false,"rental_uris":{"android":"levelo://app?vid=4a19328a-efd2-4e7b-a1f8-3180989e8643","ios":"levelo://app?vid=4a19328a-efd2-4e7b-a1f8-3180989e8643"},"vehicle_type_id":"4","last_reported":1735564552,"current_range_meters":36400,"station_id":"ce4bhjp2rcd13ifvqga0","pricing_plan_id":"cebpf4jnsgd1na2vs0mg"},{"bike_id":"857344dd-6be1-4d34-90e7-6f62afbbef2e","system_id":"levelo_inurba_marseille","lat":43.32081,"lon":5.36769,"is_reserved":false,"is_disabled":false,"rental_uris":{"android":"levelo://app?vid=857344dd-6be1-4d34-90e7-6f62afbbef2e","ios":"levelo://app?vid=857344dd-6be1-4d34-90e7-6f62afbbef2e"},"vehicle_type_id":"4","last_reported":1735564552,"current_range_meters":24400,"station_id":"ce4bhrh2rcd13ifvqhug","pricing_plan_id":"cebpf4jnsgd1na2vs0mg"},{"bike_id":"67aa25b4-b604-4e3d-9eeb-70016d69d38c","system_id":"levelo_inurba_marseille","lat":43.27892,"lon":5.38013,"is_reserved":false,"is_disabled":false,"rental_uris":{"android":"levelo://app?vid=67aa25b4-b604-4e3d-9eeb-70016d69d38c","ios":"levelo://app?vid=67aa25b4-b604-4e3d-9eeb-70016d69d38c"},"vehicle_type_id":"4","last_reported":1735564552,"current_range_meters":30800,"station_id":"ce4bhf92rcd13ifvqf50","pricing_plan_id":"cebpf4jnsgd1na2vs0mg"},{"bike_id":"9534b71e-056e-4ad6-9f34-2aa3c1b8f655","system_id":"levelo_inurba_marseille","lat":43.30142,"lon":5.37437,"is_reserved":false,"is_disabled":false,"rental_uris":{"android":"levelo://app?vid=9534b71e-056e-4ad6-9f34-2aa3c1b8f655","ios":"levelo://app?vid=9534b71e-056e-4ad6-9f34-2aa3c1b8f655"},"vehicle_type_id":"4","last_reported":1735564552,"current_range_meters":22400,"station_id":"ce4bgs92rcd13ifvqcc0","pricing_plan_id":"cebpf4jnsgd1na2vs0mg"},{"bike_id":"1edb1b06-7009-43f4-8a60-6c218ae14d02","system_id":"levelo_inurba_marseille","lat":43.25502,"lon":5.37649,"is_reserved":false,"is_disabled":false,"rental_uris":{"android":"levelo://app?vid=1edb1b06-7009-43f4-8a60-6c218ae14d02","ios":"levelo://app?vid=1edb1b06-7009-43f4-8a60-6c218ae14d02"},"vehicle_type_id":"4","last_reported":1735564552,"current_range_meters":24400,"station_id":"ce4bhh12rcd13ifvqff0","pricing_plan_id":"cebpf4jnsgd1na2vs0mg"},{"bike_id":"9f2b9bba-3c4f-44b5-b426-31738094d189","system_id":"levelo_inurba_marseille","lat":43.30529,"lon":5.36703,"is_reserved":false,"is_disabled":false,"rental_uris":{"android":"levelo://app?vid=9f2b9bba-3c4f-44b5-b426-31738094d189","ios":"levelo://app?vid=9f2b9bba-3c4f-44b5-b426-31738094d189"},"vehicle_type_id":"4","last_reported":1735564552,"current_range_meters":29600,"station_id":"ce4bgrp2rcd13ifvqc9g","pricing_plan_id":"cebpf4jnsgd1na2vs0mg"},{"bike_id":"b4d130c6-4fa7-4fa3-83b8-3ae416781279","system_id":"levelo_inurba_marseille","lat":43.27449,"lon":5.39283,"is_reserved":false,"is_disabled":false,"rental_uris":{"android":"levelo://app?vid=b4d130c6-4fa7-4fa3-83b8-3ae416781279","ios":"levelo://app?vid=b4d130c6-4fa7-4fa3-83b8-3ae416781279"},"vehicle_type_id":"4","last_reported":1735564552,"current_range_meters":10000,"station_id":"","pricing_plan_id":"cebpf4jnsgd1na2vs0mg"},{"bike_id":"3ad6c34c-fb37-4ed4-89bc-d07998b58901","system_id":"levelo_inurba_marseille","lat":43.32377,"lon":5.38919,"is_reserved":false,"is_disabled":false,"rental_uris":{"android":"levelo://app?vid=3ad6c34c-fb37-4ed4-89bc-d07998b58901","ios":"levelo://app?vid=3ad6c34c-fb37-4ed4-89bc-d07998b58901"},"vehicle_type_id":"4","last_reported":1735564552,"current_range_meters":28800,"station_id":"ce4bhqp2rcd13ifvqhog","pricing_plan_id":"cebpf4jnsgd1na2vs0mg"},{"bike_id":"8da5d8d5-7736-4902-a2a3-2af73789a5b8","system_id":"levelo_inurba_marseille","lat":43.26487,"lon":5.39035,"is_reserved":false,"is_disabled":false,"rental_uris":{"android":"levelo://app?vid=8da5d8d5-7736-4902-a2a3-2af73789a5b8","ios":"levelo://app?vid=8da5d8d5-7736-4902-a2a3-2af73789a5b8"},"vehicle_type_id":"4","last_reported":1735564552,"current_range_meters":38800,"station_id":"","pricing_plan_id":"cebpf4jnsgd1na2vs0mg"},{"bike_id":"ff49d49a-53c3-499a-b296-89a67f332a8a","system_id":"levelo_inurba_marseille","lat":43.24164,"lon":5.36401,"is_reserved":false,"is_disabled":false,"rental_uris":{"android":"levelo://app?vid=ff49d49a-53c3-499a-b296-89a67f332a8a","ios":"levelo://app?vid=ff49d49a-53c3-499a-b296-89a67f332a8a"},"vehicle_type_id":"4","last_reported":1735564552,"current_range_meters":8800,"station_id":"cpo36qri1sfpv3e86is0","pricing_plan_id":"cebpf4jnsgd1na2vs0mg"},{"bike_id":"54c5766d-acbc-479a-b1d7-fc0b1eb9a1b6","system_id":"levelo_inurba_marseille","lat":43.2919,"lon":5.35805,"is_reserved":false,"is_disabled":false,"rental_uris":{"android":"levelo://app?vid=54c5766d-acbc-479a-b1d7-fc0b1eb9a1b6","ios":"levelo://app?vid=54c5766d-acbc-479a-b1d7-fc0b1eb9a1b6"},"vehicle_type_id":"4","last_reported":1735564552,"current_range_meters":17200,"station_id":"ce4bhb12rcd13ifvqel0","pricing_plan_id":"cebpf4jnsgd1na2vs0mg"},{"bike_id":"753fe1a2-6ec1-4d51-9513-13144401ea46","system_id":"levelo_inurba_marseille","lat":43.291661,"lon":5.37148,"is_reserved":false,"is_disabled":false,"rental_uris":{"android":"levelo://app?vid=753fe1a2-6ec1-4d51-9513-13144401ea46","ios":"levelo://app?vid=753fe1a2-6ec1-4d51-9513-13144401ea46"},"vehicle_type_id":"4","last_reported":1735564552,"current_range_meters":25600,"station_id":"ce4bha92rcd13ifvqeh0","pricing_plan_id":"cebpf4jnsgd1na2vs0mg"},{"bike_id":"68ce89d7-2c49-47a3-af51-4cee0b21d337","system_id":"levelo_inurba_marseille","lat":43.27935,"lon":5.38693,"is_reserved":false,"is_disabled":false,"rental_uris":{"android":"levelo://app?vid=68ce89d7-2c49-47a3-af51-4cee0b21d337","ios":"levelo://app?vid=68ce89d7-2c49-47a3-af51-4cee0b21d337"},"vehicle_type_id":"4","last_reported":1735564552,"current_range_meters":38000,"station_id":"","pricing_plan_id":"cebpf4jnsgd1na2vs0mg"},{"bike_id":"e103866f-14c7-4ded-8376-d3a94f2c98c3","system_id":"levelo_inurba_marseille","lat":43.31687,"lon":5.43701,"is_reserved":false,"is_disabled":true,"rental_uris":{"android":"levelo://app?vid=e103866f-14c7-4ded-8376-d3a94f2c98c3","ios":"levelo://app?vid=e103866f-14c7-4ded-8376-d3a94f2c98c3"},"vehicle_type_id":"4","last_reported":1735564552,"current_range_meters":18800,"station_id":"ce4bhp92rcd13ifvqhcg","pricing_plan_id":"cebpf4jnsgd1na2vs0mg"},{"bike_id":"294c14cb-577f-4c56-859e-2380db7a357a","system_id":"levelo_inurba_marseille","lat":43.23153,"lon":5.43722,"is_reserved":false,"is_disabled":true,"rental_uris":{"android":"levelo://app?vid=294c14cb-577f-4c56-859e-2380db7a357a","ios":"levelo://app?vid=294c14cb-577f-4c56-859e-2380db7a357a"},"vehicle_type_id":"4","last_reported":1735564552,"current_range_meters":2000,"station_id":"ce4bhmp2rcd13ifvqgog","pricing_plan_id":"cebpf4jnsgd1na2vs0mg"},{"bike_id":"b6559458-8701-4796-97db-d8dbe8701181","system_id":"levelo_inurba_marseille","lat":43.27315,"lon":5.39101,"is_reserved":false,"is_disabled":false,"rental_uris":{"android":"levelo://app?vid=b6559458-8701-4796-97db-d8dbe8701181","ios":"levelo://app?vid=b6559458-8701-4796-97db-d8dbe8701181"},"vehicle_type_id":"4","last_reported":1735564552,"current_range_meters":32800,"station_id":"ce4bhgp2rcd13ifvqfe0","pricing_plan_id":"cebpf4jnsgd1na2vs0mg"},{"bike_id":"13f84696-4405-43e0-b0f5-1a61d67abe32","system_id":"levelo_inurba_marseille","lat":43.27828,"lon":5.39217,"is_reserved":false,"is_disabled":false,"rental_uris":{"android":"levelo://app?vid=13f84696-4405-43e0-b0f5-1a61d67abe32","ios":"levelo://app?vid=13f84696-4405-43e0-b0f5-1a61d67abe32"},"vehicle_type_id":"4","last_reported":1735564552,"current_range_meters":18800,"station_id":"ce4bhjp2rcd13ifvqga0","pricing_plan_id":"cebpf4jnsgd1na2vs0mg"},{"bike_id":"8e262267-ba42-4e47-b22a-c75714b04500","system_id":"levelo_inurba_marseille","lat":43.240655,"lon":5.37763,"is_reserved":false,"is_disabled":false,"rental_uris":{"android":"levelo://app?vid=8e262267-ba42-4e47-b22a-c75714b04500","ios":"levelo://app?vid=8e262267-ba42-4e47-b22a-c75714b04500"},"vehicle_type_id":"4","last_reported":1735564552,"current_range_meters":39200,"station_id":"ce4bhnp2rcd13ifvqgvg","pricing_plan_id":"cebpf4jnsgd1na2vs0mg"},{"bike_id":"caab34a4-5264-4b72-a12f-e55159fe93b6","system_id":"levelo_inurba_marseille","lat":43.2706,"lon":5.42273,"is_reserved":false,"is_disabled":false,"rental_uris":{"android":"levelo://app?vid=caab34a4-5264-4b72-a12f-e55159fe93b6","ios":"levelo://app?vid=caab34a4-5264-4b72-a12f-e55159fe93b6"},"vehicle_type_id":"4","last_reported":1735564552,"current_range_meters":19600,"station_id":"ce4bhk92rcd13ifvqgb0","pricing_plan_id":"cebpf4jnsgd1na2vs0mg"},{"bike_id":"d86a61ac-ac4a-4f1b-95a9-369f24a491a0","system_id":"levelo_inurba_marseille","lat":43.23183,"lon":5.39992,"is_reserved":false,"is_disabled":false,"rental_uris":{"android":"levelo://app?vid=d86a61ac-ac4a-4f1b-95a9-369f24a491a0","ios":"levelo://app?vid=d86a61ac-ac4a-4f1b-95a9-369f24a491a0"},"vehicle_type_id":"4","last_reported":1735564552,"current_range_meters":14800,"station_id":"ce4bhn12rcd13ifvqgqg","pricing_plan_id":"cebpf4jnsgd1na2vs0mg"},{"bike_id":"6e5db83a-5344-41e8-810f-f7d07bc20b10","system_id":"levelo_inurba_marseille","lat":43.30129,"lon":5.39873,"is_reserved":false,"is_disabled":true,"rental_uris":{"android":"levelo://app?vid=6e5db83a-5344-41e8-810f-f7d07bc20b10","ios":"levelo://app?vid=6e5db83a-5344-41e8-810f-f7d07bc20b10"},"vehicle_type_id":"4","last_reported":1735564552,"current_range_meters":800,"station_id":"ce4bh0h2rcd13ifvqd40","pricing_plan_id":"cebpf4jnsgd1na2vs0mg"},{"bike_id":"fe302269-000b-46ac-81e4-46edf9df91df","system_id":"levelo_inurba_marseille","lat":43.27575,"lon":5.38434,"is_reserved":false,"is_disabled":false,"rental_uris":{"android":"levelo://app?vid=fe302269-000b-46ac-81e4-46edf9df91df","ios":"levelo://app?vid=fe302269-000b-46ac-81e4-46edf9df91df"},"vehicle_type_id":"4","last_reported":1735564552,"current_range_meters":24800,"station_id":"ce4bhh92rcd13ifvqfi0","pricing_plan_id":"cebpf4jnsgd1na2vs0mg"},{"bike_id":"2eaf5aab-e12e-4e93-a20d-88a34894165c","system_id":"levelo_inurba_marseille","lat":43.28472,"lon":5.35909,"is_reserved":false,"is_disabled":true,"rental_uris":{"android":"levelo://app?vid=2eaf5aab-e12e-4e93-a20d-88a34894165c","ios":"levelo://app?vid=2eaf5aab-e12e-4e93-a20d-88a34894165c"},"vehicle_type_id":"4","last_reported":1735564552,"current_range_meters":0,"station_id":"ce4bhah2rcd13ifvqei0","pricing_plan_id":"cebpf4jnsgd1na2vs0mg"},{"bike_id":"13fe1bae-d049-481a-8c66-fd974374cb6f","system_id":"levelo_inurba_marseille","lat":43.29586,"lon":5.37495,"is_reserved":false,"is_disabled":false,"rental_uris":{"android":"levelo://app?vid=13fe1bae-d049-481a-8c66-fd974374cb6f","ios":"levelo://app?vid=13fe1bae-d049-481a-8c66-fd974374cb6f"},"vehicle_type_id":"4","last_reported":1735564552,"current_range_meters":36400,"station_id":"ce4bgh92rcd13ifvqb50","pricing_plan_id":"cebpf4jnsgd1na2vs0mg"},{"bike_id":"aa866fa0-45d7-43d5-9d66-de3620e20eb0","system_id":"levelo_inurba_marseille","lat":43.330283,"lon":5.390385,"is_reserved":false,"is_disabled":true,"rental_uris":{"android":"levelo://app?vid=aa866fa0-45d7-43d5-9d66-de3620e20eb0","ios":"levelo://app?vid=aa866fa0-45d7-43d5-9d66-de3620e20eb0"},"vehicle_type_id":"4","last_reported":1735564552,"current_range_meters":0,"station_id":"ce4bhr92rcd13ifvqhrg","pricing_plan_id":"cebpf4jnsgd1na2vs0mg"},{"bike_id":"67ab3a4a-0935-4787-b880-e6c42bed574b","system_id":"levelo_inurba_marseille","lat":43.33721,"lon":5.39182,"is_reserved":false,"is_disabled":false,"rental_uris":{"android":"levelo://app?vid=67ab3a4a-0935-4787-b880-e6c42bed574b","ios":"levelo://app?vid=67ab3a4a-0935-4787-b880-e6c42bed574b"},"vehicle_type_id":"4","last_reported":1735564552,"current_range_meters":39200,"station_id":"ce4bhr92rcd13ifvqhsg","pricing_plan_id":"cebpf4jnsgd1na2vs0mg"},{"bike_id":"10328e97-3b3f-42b6-8efd-3406f4be98f7","system_id":"levelo_inurba_marseille","lat":43.2843,"lon":5.3499,"is_reserved":false,"is_disabled":false,"rental_uris":{"android":"levelo://app?vid=10328e97-3b3f-42b6-8efd-3406f4be98f7","ios":"levelo://app?vid=10328e97-3b3f-42b6-8efd-3406f4be98f7"},"vehicle_type_id":"4","last_reported":1735564552,"current_range_meters":35600,"station_id":"ce4bhbh2rcd13ifvqepg","pricing_plan_id":"cebpf4jnsgd1na2vs0mg"},{"bike_id":"52f55f42-526a-42ef-84de-cbde16106ef9","system_id":"levelo_inurba_marseille","lat":43.29284,"lon":5.38457,"is_reserved":false,"is_disabled":false,"rental_uris":{"android":"levelo://app?vid=52f55f42-526a-42ef-84de-cbde16106ef9","ios":"levelo://app?vid=52f55f42-526a-42ef-84de-cbde16106ef9"},"vehicle_type_id":"4","last_reported":1735564552,"current_range_meters":20000,"station_id":"ce4bh692rcd13ifvqea0","pricing_plan_id":"cebpf4jnsgd1na2vs0mg"},{"bike_id":"d57a055b-2f0b-4cb9-9899-a41382f63954","system_id":"levelo_inurba_marseille","lat":43.23195,"lon":5.35556,"is_reserved":false,"is_disabled":true,"rental_uris":{"android":"levelo://app?vid=d57a055b-2f0b-4cb9-9899-a41382f63954","ios":"levelo://app?vid=d57a055b-2f0b-4cb9-9899-a41382f63954"},"vehicle_type_id":"4","last_reported":1735564552,"current_range_meters":400,"station_id":"ce4bhu92rcd13ifvqi70","pricing_plan_id":"cebpf4jnsgd1na2vs0mg"},{"bike_id":"d225e49f-de10-470b-90af-648b3c15cce7","system_id":"levelo_inurba_marseille","lat":43.25722,"lon":5.41112,"is_reserved":false,"is_disabled":false,"rental_uris":{"android":"levelo://app?vid=d225e49f-de10-470b-90af-648b3c15cce7","ios":"levelo://app?vid=d225e49f-de10-470b-90af-648b3c15cce7"},"vehicle_type_id":"4","last_reported":1735564552,"current_range_meters":38800,"station_id":"ce4bhkp2rcd13ifvqgd0","pricing_plan_id":"cebpf4jnsgd1na2vs0mg"},{"bike_id":"3f0774c5-798c-4c10-9f58-9ef83d46e745","system_id":"levelo_inurba_marseille","lat":43.28273,"lon":5.35068,"is_reserved":false,"is_disabled":false,"rental_uris":{"android":"levelo://app?vid=3f0774c5-798c-4c10-9f58-9ef83d46e745","ios":"levelo://app?vid=3f0774c5-798c-4c10-9f58-9ef83d46e745"},"vehicle_type_id":"4","last_reported":1735564552,"current_range_meters":28000,"station_id":"ce4bhbp2rcd13ifvqerg","pricing_plan_id":"cebpf4jnsgd1na2vs0mg"},{"bike_id":"8499c959-998d-4486-a511-9d65f0b01fae","system_id":"levelo_inurba_marseille","lat":43.25701,"lon":5.41113,"is_reserved":false,"is_disabled":false,"rental_uris":{"android":"levelo://app?vid=8499c959-998d-4486-a511-9d65f0b01fae","ios":"levelo://app?vid=8499c959-998d-4486-a511-9d65f0b01fae"},"vehicle_type_id":"4","last_reported":1735564552,"current_range_meters":31200,"station_id":"ce4bhkp2rcd13ifvqgd0","pricing_plan_id":"cebpf4jnsgd1na2vs0mg"},{"bike_id":"14c526e1-5037-4934-8226-6240aab7d63f","system_id":"levelo_inurba_marseille","lat":43.27496,"lon":5.42457,"is_reserved":false,"is_disabled":true,"rental_uris":{"android":"levelo://app?vid=14c526e1-5037-4934-8226-6240aab7d63f","ios":"levelo://app?vid=14c526e1-5037-4934-8226-6240aab7d63f"},"vehicle_type_id":"4","last_reported":1735564552,"current_range_meters":2000,"station_id":"ce4bhn92rcd13ifvqgrg","pricing_plan_id":"cebpf4jnsgd1na2vs0mg"},{"bike_id":"c754264e-2257-42b1-89f9-0bf9a740ba42","system_id":"levelo_inurba_marseille","lat":43.27586,"lon":5.38414,"is_reserved":false,"is_disabled":false,"rental_uris":{"android":"levelo://app?vid=c754264e-2257-42b1-89f9-0bf9a740ba42","ios":"levelo://app?vid=c754264e-2257-42b1-89f9-0bf9a740ba42"},"vehicle_type_id":"4","last_reported":1735564552,"current_range_meters":35600,"station_id":"ce4bhh92rcd13ifvqfi0","pricing_plan_id":"cebpf4jnsgd1na2vs0mg"},{"bike_id":"edaeb765-1f3a-4ef6-bc06-b7260ec353b4","system_id":"levelo_inurba_marseille","lat":43.30169,"lon":5.38096,"is_reserved":false,"is_disabled":false,"rental_uris":{"android":"levelo://app?vid=edaeb765-1f3a-4ef6-bc06-b7260ec353b4","ios":"levelo://app?vid=edaeb765-1f3a-4ef6-bc06-b7260ec353b4"},"vehicle_type_id":"4","last_reported":1735564552,"current_range_meters":31200,"station_id":"ce4bgjp2rcd13ifvqbh0","pricing_plan_id":"cebpf4jnsgd1na2vs0mg"},{"bike_id":"ad1f966e-7373-4b01-ba56-a1f8ff1b4229","system_id":"levelo_inurba_marseille","lat":43.29227,"lon":5.36072,"is_reserved":false,"is_disabled":false,"rental_uris":{"android":"levelo://app?vid=ad1f966e-7373-4b01-ba56-a1f8ff1b4229","ios":"levelo://app?vid=ad1f966e-7373-4b01-ba56-a1f8ff1b4229"},"vehicle_type_id":"4","last_reported":1735564552,"current_range_meters":36800,"station_id":"ce4bhbh2rcd13ifvqeqg","pricing_plan_id":"cebpf4jnsgd1na2vs0mg"},{"bike_id":"a805e307-35f7-4061-8c24-0e26174a46d9","system_id":"levelo_inurba_marseille","lat":43.28486,"lon":5.38372,"is_reserved":false,"is_disabled":false,"rental_uris":{"android":"levelo://app?vid=a805e307-35f7-4061-8c24-0e26174a46d9","ios":"levelo://app?vid=a805e307-35f7-4061-8c24-0e26174a46d9"},"vehicle_type_id":"4","last_reported":1735564552,"current_range_meters":38800,"station_id":"ce4bh512rcd13ifvqe3g","pricing_plan_id":"cebpf4jnsgd1na2vs0mg"},{"bike_id":"a436c959-d38f-40f3-be70-87ab53d9388a","system_id":"levelo_inurba_marseille","lat":43.28265,"lon":5.35063,"is_reserved":false,"is_disabled":false,"rental_uris":{"android":"levelo://app?vid=a436c959-d38f-40f3-be70-87ab53d9388a","ios":"levelo://app?vid=a436c959-d38f-40f3-be70-87ab53d9388a"},"vehicle_type_id":"4","last_reported":1735564552,"current_range_meters":27600,"station_id":"ce4bhbp2rcd13ifvqerg","pricing_plan_id":"cebpf4jnsgd1na2vs0mg"},{"bike_id":"96a9fe38-f140-4702-a461-7ae9fae57cbf","system_id":"levelo_inurba_marseille","lat":43.31276,"lon":5.4017,"is_reserved":false,"is_disabled":false,"rental_uris":{"android":"levelo://app?vid=96a9fe38-f140-4702-a461-7ae9fae57cbf","ios":"levelo://app?vid=96a9fe38-f140-4702-a461-7ae9fae57cbf"},"vehicle_type_id":"4","last_reported":1735564552,"current_range_meters":37600,"station_id":"ce4bh092rcd13ifvqd30","pricing_plan_id":"cebpf4jnsgd1na2vs0mg"},{"bike_id":"022ee8df-8b7d-461c-b1b8-61bc2a2ca8ef","system_id":"levelo_inurba_marseille","lat":43.30911,"lon":5.3686,"is_reserved":false,"is_disabled":false,"rental_uris":{"android":"levelo://app?vid=022ee8df-8b7d-461c-b1b8-61bc2a2ca8ef","ios":"levelo://app?vid=022ee8df-8b7d-461c-b1b8-61bc2a2ca8ef"},"vehicle_type_id":"4","last_reported":1735564552,"current_range_meters":38800,"station_id":"ce4bgn92rcd13ifvqbvg","pricing_plan_id":"cebpf4jnsgd1na2vs0mg"},{"bike_id":"b8c97997-1ed1-4dde-a409-deecfb8321e5","system_id":"levelo_inurba_marseille","lat":43.29589,"lon":5.36735,"is_reserved":false,"is_disabled":false,"rental_uris":{"android":"levelo://app?vid=b8c97997-1ed1-4dde-a409-deecfb8321e5","ios":"levelo://app?vid=b8c97997-1ed1-4dde-a409-deecfb8321e5"},"vehicle_type_id":"4","last_reported":1735564552,"current_range_meters":38800,"station_id":"ce4bgph2rcd13ifvqc2g","pricing_plan_id":"cebpf4jnsgd1na2vs0mg"},{"bike_id":"e72c6d65-0b04-411e-bf0f-f72d15cad0d7","system_id":"levelo_inurba_marseille","lat":43.33725,"lon":5.39194,"is_reserved":false,"is_disabled":false,"rental_uris":{"android":"levelo://app?vid=e72c6d65-0b04-411e-bf0f-f72d15cad0d7","ios":"levelo://app?vid=e72c6d65-0b04-411e-bf0f-f72d15cad0d7"},"vehicle_type_id":"4","last_reported":1735564552,"current_range_meters":38800,"station_id":"ce4bhr92rcd13ifvqhsg","pricing_plan_id":"cebpf4jnsgd1na2vs0mg"},{"bike_id":"bb026ccd-d3aa-4c00-a992-d9f20432a24e","system_id":"levelo_inurba_marseille","lat":43.27669,"lon":5.3888,"is_reserved":false,"is_disabled":false,"rental_uris":{"android":"levelo://app?vid=bb026ccd-d3aa-4c00-a992-d9f20432a24e","ios":"levelo://app?vid=bb026ccd-d3aa-4c00-a992-d9f20432a24e"},"vehicle_type_id":"4","last_reported":1735564552,"current_range_meters":35600,"station_id":"ce4bhi12rcd13ifvqfo0","pricing_plan_id":"cebpf4jnsgd1na2vs0mg"},{"bike_id":"52821f80-86b1-40fc-9656-db3d03641f0b","system_id":"levelo_inurba_marseille","lat":43.29617,"lon":5.37189,"is_reserved":false,"is_disabled":false,"rental_uris":{"android":"levelo://app?vid=52821f80-86b1-40fc-9656-db3d03641f0b","ios":"levelo://app?vid=52821f80-86b1-40fc-9656-db3d03641f0b"},"vehicle_type_id":"4","last_reported":1735564552,"current_range_meters":39200,"station_id":"ce4bgnh2rcd13ifvqc0g","pricing_plan_id":"cebpf4jnsgd1na2vs0mg"},{"bike_id":"4576d215-1c20-4c5c-8681-2fd9b4be2c74","system_id":"levelo_inurba_marseille","lat":43.29587,"lon":5.3751,"is_reserved":false,"is_disabled":false,"rental_uris":{"android":"levelo://app?vid=4576d215-1c20-4c5c-8681-2fd9b4be2c74","ios":"levelo://app?vid=4576d215-1c20-4c5c-8681-2fd9b4be2c74"},"vehicle_type_id":"4","last_reported":1735564552,"current_range_meters":25600,"station_id":"ce4bgh92rcd13ifvqb50","pricing_plan_id":"cebpf4jnsgd1na2vs0mg"},{"bike_id":"2fdeab75-c3c7-44e1-8744-5eb7e97729bb","system_id":"levelo_inurba_marseille","lat":43.32086,"lon":5.36762,"is_reserved":false,"is_disabled":false,"rental_uris":{"android":"levelo://app?vid=2fdeab75-c3c7-44e1-8744-5eb7e97729bb","ios":"levelo://app?vid=2fdeab75-c3c7-44e1-8744-5eb7e97729bb"},"vehicle_type_id":"4","last_reported":1735564552,"current_range_meters":36800,"station_id":"ce4bhrh2rcd13ifvqhug","pricing_plan_id":"cebpf4jnsgd1na2vs0mg"},{"bike_id":"61554228-fef4-4b7e-a218-469ceb3eaefe","system_id":"levelo_inurba_marseille","lat":43.31718,"lon":5.4371,"is_reserved":false,"is_disabled":false,"rental_uris":{"android":"levelo://app?vid=61554228-fef4-4b7e-a218-469ceb3eaefe","ios":"levelo://app?vid=61554228-fef4-4b7e-a218-469ceb3eaefe"},"vehicle_type_id":"4","last_reported":1735564552,"current_range_meters":36800,"station_id":"ce4bhp92rcd13ifvqhcg","pricing_plan_id":"cebpf4jnsgd1na2vs0mg"},{"bike_id":"40d33d5a-b0d6-4ca7-b92a-5a5e00a2e584","system_id":"levelo_inurba_marseille","lat":43.273,"lon":5.39133,"is_reserved":false,"is_disabled":false,"rental_uris":{"android":"levelo://app?vid=40d33d5a-b0d6-4ca7-b92a-5a5e00a2e584","ios":"levelo://app?vid=40d33d5a-b0d6-4ca7-b92a-5a5e00a2e584"},"vehicle_type_id":"4","last_reported":1735564552,"current_range_meters":38800,"station_id":"ce4bhgp2rcd13ifvqfe0","pricing_plan_id":"cebpf4jnsgd1na2vs0mg"},{"bike_id":"6182e5fb-ff5d-457f-a251-8271ee797dae","system_id":"levelo_inurba_marseille","lat":43.27058,"lon":5.40262,"is_reserved":false,"is_disabled":false,"rental_uris":{"android":"levelo://app?vid=6182e5fb-ff5d-457f-a251-8271ee797dae","ios":"levelo://app?vid=6182e5fb-ff5d-457f-a251-8271ee797dae"},"vehicle_type_id":"4","last_reported":1735564552,"current_range_meters":28400,"station_id":"ce4bhk92rcd13ifvqgc0","pricing_plan_id":"cebpf4jnsgd1na2vs0mg"},{"bike_id":"57103b12-06fc-494b-9a1a-1903f8f245d5","system_id":"levelo_inurba_marseille","lat":43.279938,"lon":5.416542,"is_reserved":false,"is_disabled":false,"rental_uris":{"android":"levelo://app?vid=57103b12-06fc-494b-9a1a-1903f8f245d5","ios":"levelo://app?vid=57103b12-06fc-494b-9a1a-1903f8f245d5"},"vehicle_type_id":"4","last_reported":1735564552,"current_range_meters":11600,"station_id":"ce4bho12rcd13ifvqh1g","pricing_plan_id":"cebpf4jnsgd1na2vs0mg"},{"bike_id":"c93a8900-340a-4a6d-ac3e-8882057837af","system_id":"levelo_inurba_marseille","lat":43.27382,"lon":5.36261,"is_reserved":false,"is_disabled":false,"rental_uris":{"android":"levelo://app?vid=c93a8900-340a-4a6d-ac3e-8882057837af","ios":"levelo://app?vid=c93a8900-340a-4a6d-ac3e-8882057837af"},"vehicle_type_id":"4","last_reported":1735564552,"current_range_meters":32000,"station_id":"ce4bhbh2rcd13ifvqeo0","pricing_plan_id":"cebpf4jnsgd1na2vs0mg"},{"bike_id":"3370aa68-a7b2-4c9a-be44-443898e48ac8","system_id":"levelo_inurba_marseille","lat":43.312918,"lon":5.373968,"is_reserved":false,"is_disabled":false,"rental_uris":{"android":"levelo://app?vid=3370aa68-a7b2-4c9a-be44-443898e48ac8","ios":"levelo://app?vid=3370aa68-a7b2-4c9a-be44-443898e48ac8"},"vehicle_type_id":"4","last_reported":1735564552,"current_range_meters":28400,"station_id":"","pricing_plan_id":"cebpf4jnsgd1na2vs0mg"},{"bike_id":"d9d97985-8792-47a3-ab8c-09980f6a9900","system_id":"levelo_inurba_marseille","lat":43.29522,"lon":5.37511,"is_reserved":false,"is_disabled":false,"rental_uris":{"android":"levelo://app?vid=d9d97985-8792-47a3-ab8c-09980f6a9900","ios":"levelo://app?vid=d9d97985-8792-47a3-ab8c-09980f6a9900"},"vehicle_type_id":"4","last_reported":1735564552,"current_range_meters":37600,"station_id":"ce4bgkp2rcd13ifvqbmg","pricing_plan_id":"cebpf4jnsgd1na2vs0mg"},{"bike_id":"21af2eaf-0e4b-4d09-927b-ac5878ee9e70","system_id":"levelo_inurba_marseille","lat":43.27552,"lon":5.3844,"is_reserved":false,"is_disabled":false,"rental_uris":{"android":"levelo://app?vid=21af2eaf-0e4b-4d09-927b-ac5878ee9e70","ios":"levelo://app?vid=21af2eaf-0e4b-4d09-927b-ac5878ee9e70"},"vehicle_type_id":"4","last_reported":1735564552,"current_range_meters":38800,"station_id":"ce4bhh92rcd13ifvqfi0","pricing_plan_id":"cebpf4jnsgd1na2vs0mg"},{"bike_id":"0264fc9d-678e-4f71-a245-17e31abd426e","system_id":"levelo_inurba_marseille","lat":43.29608,"lon":5.37715,"is_reserved":false,"is_disabled":false,"rental_uris":{"android":"levelo://app?vid=0264fc9d-678e-4f71-a245-17e31abd426e","ios":"levelo://app?vid=0264fc9d-678e-4f71-a245-17e31abd426e"},"vehicle_type_id":"4","last_reported":1735564552,"current_range_meters":17200,"station_id":"ce4bgi92rcd13ifvqb90","pricing_plan_id":"cebpf4jnsgd1na2vs0mg"},{"bike_id":"1ffdc83c-8b0f-4adc-8d6e-759e337a8d87","system_id":"levelo_inurba_marseille","lat":43.337444,"lon":5.374475,"is_reserved":false,"is_disabled":false,"rental_uris":{"android":"levelo://app?vid=1ffdc83c-8b0f-4adc-8d6e-759e337a8d87","ios":"levelo://app?vid=1ffdc83c-8b0f-4adc-8d6e-759e337a8d87"},"vehicle_type_id":"4","last_reported":1735564552,"current_range_meters":23200,"station_id":"","pricing_plan_id":"cebpf4jnsgd1na2vs0mg"},{"bike_id":"14c11fb9-caa0-4e31-80e1-6eab38509593","system_id":"levelo_inurba_marseille","lat":43.26206,"lon":5.37917,"is_reserved":false,"is_disabled":false,"rental_uris":{"android":"levelo://app?vid=14c11fb9-caa0-4e31-80e1-6eab38509593","ios":"levelo://app?vid=14c11fb9-caa0-4e31-80e1-6eab38509593"},"vehicle_type_id":"4","last_reported":1735564552,"current_range_meters":38800,"station_id":"ce4bhjp2rcd13ifvqg90","pricing_plan_id":"cebpf4jnsgd1na2vs0mg"},{"bike_id":"482b0b80-c53d-4d05-aa82-218b22575b6c","system_id":"levelo_inurba_marseille","lat":43.23157,"lon":5.437,"is_reserved":false,"is_disabled":true,"rental_uris":{"android":"levelo://app?vid=482b0b80-c53d-4d05-aa82-218b22575b6c","ios":"levelo://app?vid=482b0b80-c53d-4d05-aa82-218b22575b6c"},"vehicle_type_id":"4","last_reported":1735564552,"current_range_meters":34800,"station_id":"ce4bhmp2rcd13ifvqgog","pricing_plan_id":"cebpf4jnsgd1na2vs0mg"},{"bike_id":"6cb07b32-4a1b-4242-9e78-2010cacf2fc8","system_id":"levelo_inurba_marseille","lat":43.29869,"lon":5.39741,"is_reserved":false,"is_disabled":true,"rental_uris":{"android":"levelo://app?vid=6cb07b32-4a1b-4242-9e78-2010cacf2fc8","ios":"levelo://app?vid=6cb07b32-4a1b-4242-9e78-2010cacf2fc8"},"vehicle_type_id":"4","last_reported":1735564552,"current_range_meters":38800,"station_id":"ce4bh0h2rcd13ifvqd50","pricing_plan_id":"cebpf4jnsgd1na2vs0mg"},{"bike_id":"968f8345-d048-4768-bf95-8ef9f2d80532","system_id":"levelo_inurba_marseille","lat":43.25087,"lon":5.39513,"is_reserved":false,"is_disabled":false,"rental_uris":{"android":"levelo://app?vid=968f8345-d048-4768-bf95-8ef9f2d80532","ios":"levelo://app?vid=968f8345-d048-4768-bf95-8ef9f2d80532"},"vehicle_type_id":"4","last_reported":1735564552,"current_range_meters":29600,"station_id":"ce4bhm12rcd13ifvqgkg","pricing_plan_id":"cebpf4jnsgd1na2vs0mg"},{"bike_id":"930f7ce6-e931-48ed-acea-dde57f1887ce","system_id":"levelo_inurba_marseille","lat":43.32107,"lon":5.36765,"is_reserved":false,"is_disabled":false,"rental_uris":{"android":"levelo://app?vid=930f7ce6-e931-48ed-acea-dde57f1887ce","ios":"levelo://app?vid=930f7ce6-e931-48ed-acea-dde57f1887ce"},"vehicle_type_id":"4","last_reported":1735564552,"current_range_meters":38000,"station_id":"ce4bhrh2rcd13ifvqhug","pricing_plan_id":"cebpf4jnsgd1na2vs0mg"},{"bike_id":"5d2018aa-7074-4fb0-bd19-46c785b0343c","system_id":"levelo_inurba_marseille","lat":43.27952,"lon":5.41047,"is_reserved":false,"is_disabled":false,"rental_uris":{"android":"levelo://app?vid=5d2018aa-7074-4fb0-bd19-46c785b0343c","ios":"levelo://app?vid=5d2018aa-7074-4fb0-bd19-46c785b0343c"},"vehicle_type_id":"4","last_reported":1735564552,"current_range_meters":6400,"station_id":"ce4bhnp2rcd13ifvqh0g","pricing_plan_id":"cebpf4jnsgd1na2vs0mg"},{"bike_id":"c21a444e-c313-43de-8930-8781fd633a42","system_id":"levelo_inurba_marseille","lat":43.2306,"lon":5.35495,"is_reserved":false,"is_disabled":false,"rental_uris":{"android":"levelo://app?vid=c21a444e-c313-43de-8930-8781fd633a42","ios":"levelo://app?vid=c21a444e-c313-43de-8930-8781fd633a42"},"vehicle_type_id":"4","last_reported":1735564552,"current_range_meters":38800,"station_id":"cpo3342slgdg3j2ifvpg","pricing_plan_id":"cebpf4jnsgd1na2vs0mg"},{"bike_id":"2bdfeaf2-9c8a-4186-b177-44b6d9429e1e","system_id":"levelo_inurba_marseille","lat":43.29958,"lon":5.38517,"is_reserved":false,"is_disabled":false,"rental_uris":{"android":"levelo://app?vid=2bdfeaf2-9c8a-4186-b177-44b6d9429e1e","ios":"levelo://app?vid=2bdfeaf2-9c8a-4186-b177-44b6d9429e1e"},"vehicle_type_id":"4","last_reported":1735564552,"current_range_meters":26800,"station_id":"ce4bgj92rcd13ifvqbd0","pricing_plan_id":"cebpf4jnsgd1na2vs0mg"},{"bike_id":"bc81e100-77c3-482d-b418-a4f2bd3d5bf6","system_id":"levelo_inurba_marseille","lat":43.30142,"lon":5.38075,"is_reserved":false,"is_disabled":false,"rental_uris":{"android":"levelo://app?vid=bc81e100-77c3-482d-b418-a4f2bd3d5bf6","ios":"levelo://app?vid=bc81e100-77c3-482d-b418-a4f2bd3d5bf6"},"vehicle_type_id":"4","last_reported":1735564552,"current_range_meters":22800,"station_id":"ce4bgjp2rcd13ifvqbh0","pricing_plan_id":"cebpf4jnsgd1na2vs0mg"},{"bike_id":"aa99bbfb-de18-46c6-947e-8cff17d37e2c","system_id":"levelo_inurba_marseille","lat":43.28266,"lon":5.35098,"is_reserved":false,"is_disabled":false,"rental_uris":{"android":"levelo://app?vid=aa99bbfb-de18-46c6-947e-8cff17d37e2c","ios":"levelo://app?vid=aa99bbfb-de18-46c6-947e-8cff17d37e2c"},"vehicle_type_id":"4","last_reported":1735564552,"current_range_meters":19600,"station_id":"ce4bhbp2rcd13ifvqerg","pricing_plan_id":"cebpf4jnsgd1na2vs0mg"},{"bike_id":"cf2f7e68-d703-4194-ae9c-03b471caeedf","system_id":"levelo_inurba_marseille","lat":43.28264,"lon":5.35065,"is_reserved":false,"is_disabled":false,"rental_uris":{"android":"levelo://app?vid=cf2f7e68-d703-4194-ae9c-03b471caeedf","ios":"levelo://app?vid=cf2f7e68-d703-4194-ae9c-03b471caeedf"},"vehicle_type_id":"4","last_reported":1735564552,"current_range_meters":8400,"station_id":"ce4bhbp2rcd13ifvqerg","pricing_plan_id":"cebpf4jnsgd1na2vs0mg"},{"bike_id":"42795d47-d62f-4f29-b59e-6d69fc9e7f52","system_id":"levelo_inurba_marseille","lat":43.30894,"lon":5.37211,"is_reserved":false,"is_disabled":false,"rental_uris":{"android":"levelo://app?vid=42795d47-d62f-4f29-b59e-6d69fc9e7f52","ios":"levelo://app?vid=42795d47-d62f-4f29-b59e-6d69fc9e7f52"},"vehicle_type_id":"4","last_reported":1735564552,"current_range_meters":37600,"station_id":"ce4bguh2rcd13ifvqckg","pricing_plan_id":"cebpf4jnsgd1na2vs0mg"},{"bike_id":"d124b3fa-f3a5-4c6d-bebc-2f7ad1a1004e","system_id":"levelo_inurba_marseille","lat":43.26958,"lon":5.38638,"is_reserved":false,"is_disabled":false,"rental_uris":{"android":"levelo://app?vid=d124b3fa-f3a5-4c6d-bebc-2f7ad1a1004e","ios":"levelo://app?vid=d124b3fa-f3a5-4c6d-bebc-2f7ad1a1004e"},"vehicle_type_id":"4","last_reported":1735564552,"current_range_meters":38000,"station_id":"ce4bhh92rcd13ifvqfh0","pricing_plan_id":"cebpf4jnsgd1na2vs0mg"},{"bike_id":"ec5d0c56-2c7f-428f-a6d9-17d57eccdf90","system_id":"levelo_inurba_marseille","lat":43.23206,"lon":5.35557,"is_reserved":false,"is_disabled":false,"rental_uris":{"android":"levelo://app?vid=ec5d0c56-2c7f-428f-a6d9-17d57eccdf90","ios":"levelo://app?vid=ec5d0c56-2c7f-428f-a6d9-17d57eccdf90"},"vehicle_type_id":"4","last_reported":1735564552,"current_range_meters":8800,"station_id":"ce4bhu92rcd13ifvqi70","pricing_plan_id":"cebpf4jnsgd1na2vs0mg"},{"bike_id":"474129a5-51c1-4d06-a881-1f71675bc781","system_id":"levelo_inurba_marseille","lat":43.30863,"lon":5.37195,"is_reserved":false,"is_disabled":false,"rental_uris":{"android":"levelo://app?vid=474129a5-51c1-4d06-a881-1f71675bc781","ios":"levelo://app?vid=474129a5-51c1-4d06-a881-1f71675bc781"},"vehicle_type_id":"4","last_reported":1735564552,"current_range_meters":30800,"station_id":"ce4bguh2rcd13ifvqckg","pricing_plan_id":"cebpf4jnsgd1na2vs0mg"},{"bike_id":"9f70dc23-753f-4308-b283-f58cd06517a9","system_id":"levelo_inurba_marseille","lat":43.28728,"lon":5.36102,"is_reserved":false,"is_disabled":false,"rental_uris":{"android":"levelo://app?vid=9f70dc23-753f-4308-b283-f58cd06517a9","ios":"levelo://app?vid=9f70dc23-753f-4308-b283-f58cd06517a9"},"vehicle_type_id":"4","last_reported":1735564552,"current_range_meters":26800,"station_id":"cki0cbj6b192h4jlfktg","pricing_plan_id":"cebpf4jnsgd1na2vs0mg"},{"bike_id":"d6205c4d-3834-4ed3-974d-2d1144189ec2","system_id":"levelo_inurba_marseille","lat":43.25718,"lon":5.41116,"is_reserved":false,"is_disabled":false,"rental_uris":{"android":"levelo://app?vid=d6205c4d-3834-4ed3-974d-2d1144189ec2","ios":"levelo://app?vid=d6205c4d-3834-4ed3-974d-2d1144189ec2"},"vehicle_type_id":"4","last_reported":1735564552,"current_range_meters":28000,"station_id":"ce4bhkp2rcd13ifvqgd0","pricing_plan_id":"cebpf4jnsgd1na2vs0mg"},{"bike_id":"3fc97f9e-7241-490f-b098-6efd7dd0f854","system_id":"levelo_inurba_marseille","lat":43.29714,"lon":5.36614,"is_reserved":false,"is_disabled":false,"rental_uris":{"android":"levelo://app?vid=3fc97f9e-7241-490f-b098-6efd7dd0f854","ios":"levelo://app?vid=3fc97f9e-7241-490f-b098-6efd7dd0f854"},"vehicle_type_id":"4","last_reported":1735564552,"current_range_meters":26800,"station_id":"ce4bgn12rcd13ifvqbt0","pricing_plan_id":"cebpf4jnsgd1na2vs0mg"},{"bike_id":"805b146d-680f-4010-8a1d-979f727ac65c","system_id":"levelo_inurba_marseille","lat":43.31358,"lon":5.36758,"is_reserved":false,"is_disabled":false,"rental_uris":{"android":"levelo://app?vid=805b146d-680f-4010-8a1d-979f727ac65c","ios":"levelo://app?vid=805b146d-680f-4010-8a1d-979f727ac65c"},"vehicle_type_id":"4","last_reported":1735564552,"current_range_meters":24800,"station_id":"ce4bgr92rcd13ifvqc6g","pricing_plan_id":"cebpf4jnsgd1na2vs0mg"},{"bike_id":"2a1b35da-daea-4a1d-a941-20b6a3a8bd98","system_id":"levelo_inurba_marseille","lat":43.29271,"lon":5.36853,"is_reserved":false,"is_disabled":false,"rental_uris":{"android":"levelo://app?vid=2a1b35da-daea-4a1d-a941-20b6a3a8bd98","ios":"levelo://app?vid=2a1b35da-daea-4a1d-a941-20b6a3a8bd98"},"vehicle_type_id":"4","last_reported":1735564552,"current_range_meters":36800,"station_id":"ce4bhbp2rcd13ifvqesg","pricing_plan_id":"cebpf4jnsgd1na2vs0mg"},{"bike_id":"32afc6cc-1544-4f88-ab5c-34496cc35b04","system_id":"levelo_inurba_marseille","lat":43.23068,"lon":5.35501,"is_reserved":false,"is_disabled":false,"rental_uris":{"android":"levelo://app?vid=32afc6cc-1544-4f88-ab5c-34496cc35b04","ios":"levelo://app?vid=32afc6cc-1544-4f88-ab5c-34496cc35b04"},"vehicle_type_id":"4","last_reported":1735564552,"current_range_meters":22400,"station_id":"cpo3342slgdg3j2ifvpg","pricing_plan_id":"cebpf4jnsgd1na2vs0mg"},{"bike_id":"ff27b50e-e127-48ea-a99c-ced35aad3637","system_id":"levelo_inurba_marseille","lat":43.2781,"lon":5.40741,"is_reserved":false,"is_disabled":false,"rental_uris":{"android":"levelo://app?vid=ff27b50e-e127-48ea-a99c-ced35aad3637","ios":"levelo://app?vid=ff27b50e-e127-48ea-a99c-ced35aad3637"},"vehicle_type_id":"4","last_reported":1735564552,"current_range_meters":30400,"station_id":"ce4bhnh2rcd13ifvqgtg","pricing_plan_id":"cebpf4jnsgd1na2vs0mg"},{"bike_id":"909f440c-cb07-4e90-ae06-2fd800ec689a","system_id":"levelo_inurba_marseille","lat":43.28464,"lon":5.38535,"is_reserved":false,"is_disabled":false,"rental_uris":{"android":"levelo://app?vid=909f440c-cb07-4e90-ae06-2fd800ec689a","ios":"levelo://app?vid=909f440c-cb07-4e90-ae06-2fd800ec689a"},"vehicle_type_id":"4","last_reported":1735564552,"current_range_meters":38800,"station_id":"ce4bh8p2rcd13ifvqeb0","pricing_plan_id":"cebpf4jnsgd1na2vs0mg"},{"bike_id":"3ac6afb2-eeca-4495-ae50-ead30fba6adf","system_id":"levelo_inurba_marseille","lat":43.29613,"lon":5.37731,"is_reserved":false,"is_disabled":false,"rental_uris":{"android":"levelo://app?vid=3ac6afb2-eeca-4495-ae50-ead30fba6adf","ios":"levelo://app?vid=3ac6afb2-eeca-4495-ae50-ead30fba6adf"},"vehicle_type_id":"4","last_reported":1735564552,"current_range_meters":12800,"station_id":"ce4bgi92rcd13ifvqb90","pricing_plan_id":"cebpf4jnsgd1na2vs0mg"},{"bike_id":"bf74f951-f40b-4827-8c73-094f626f6a21","system_id":"levelo_inurba_marseille","lat":43.25718,"lon":5.41113,"is_reserved":false,"is_disabled":false,"rental_uris":{"android":"levelo://app?vid=bf74f951-f40b-4827-8c73-094f626f6a21","ios":"levelo://app?vid=bf74f951-f40b-4827-8c73-094f626f6a21"},"vehicle_type_id":"4","last_reported":1735564552,"current_range_meters":28400,"station_id":"ce4bhkp2rcd13ifvqgd0","pricing_plan_id":"cebpf4jnsgd1na2vs0mg"},{"bike_id":"c28fdc5e-9227-482a-bcd3-9aae4cbe8138","system_id":"levelo_inurba_marseille","lat":43.30459,"lon":5.37902,"is_reserved":false,"is_disabled":false,"rental_uris":{"android":"levelo://app?vid=c28fdc5e-9227-482a-bcd3-9aae4cbe8138","ios":"levelo://app?vid=c28fdc5e-9227-482a-bcd3-9aae4cbe8138"},"vehicle_type_id":"4","last_reported":1735564552,"current_range_meters":38800,"station_id":"ce4bgup2rcd13ifvqcn0","pricing_plan_id":"cebpf4jnsgd1na2vs0mg"},{"bike_id":"c5c19b8a-5399-4764-95d4-d1576b2ddd8b","system_id":"levelo_inurba_marseille","lat":43.30893,"lon":5.37204,"is_reserved":false,"is_disabled":false,"rental_uris":{"android":"levelo://app?vid=c5c19b8a-5399-4764-95d4-d1576b2ddd8b","ios":"levelo://app?vid=c5c19b8a-5399-4764-95d4-d1576b2ddd8b"},"vehicle_type_id":"4","last_reported":1735564552,"current_range_meters":16800,"station_id":"ce4bguh2rcd13ifvqckg","pricing_plan_id":"cebpf4jnsgd1na2vs0mg"},{"bike_id":"2c154034-0bf1-46d1-99fe-0d3d110739bc","system_id":"levelo_inurba_marseille","lat":43.28502,"lon":5.38417,"is_reserved":false,"is_disabled":false,"rental_uris":{"android":"levelo://app?vid=2c154034-0bf1-46d1-99fe-0d3d110739bc","ios":"levelo://app?vid=2c154034-0bf1-46d1-99fe-0d3d110739bc"},"vehicle_type_id":"4","last_reported":1735564552,"current_range_meters":38000,"station_id":"ce4bh512rcd13ifvqe3g","pricing_plan_id":"cebpf4jnsgd1na2vs0mg"},{"bike_id":"35a9fea2-de1d-49ad-91be-237640bc548d","system_id":"levelo_inurba_marseille","lat":43.30534,"lon":5.36705,"is_reserved":false,"is_disabled":false,"rental_uris":{"android":"levelo://app?vid=35a9fea2-de1d-49ad-91be-237640bc548d","ios":"levelo://app?vid=35a9fea2-de1d-49ad-91be-237640bc548d"},"vehicle_type_id":"4","last_reported":1735564552,"current_range_meters":38800,"station_id":"ce4bgrp2rcd13ifvqc9g","pricing_plan_id":"cebpf4jnsgd1na2vs0mg"},{"bike_id":"c555ca4c-11f1-431d-8a50-f4a1100f526d","system_id":"levelo_inurba_marseille","lat":43.30887,"lon":5.372029,"is_reserved":false,"is_disabled":false,"rental_uris":{"android":"levelo://app?vid=c555ca4c-11f1-431d-8a50-f4a1100f526d","ios":"levelo://app?vid=c555ca4c-11f1-431d-8a50-f4a1100f526d"},"vehicle_type_id":"4","last_reported":1735564552,"current_range_meters":16800,"station_id":"ce4bguh2rcd13ifvqckg","pricing_plan_id":"cebpf4jnsgd1na2vs0mg"},{"bike_id":"fafee940-bb5c-40a2-b27e-b4883261f360","system_id":"levelo_inurba_marseille","lat":43.24173,"lon":5.39732,"is_reserved":false,"is_disabled":true,"rental_uris":{"android":"levelo://app?vid=fafee940-bb5c-40a2-b27e-b4883261f360","ios":"levelo://app?vid=fafee940-bb5c-40a2-b27e-b4883261f360"},"vehicle_type_id":"4","last_reported":1735564552,"current_range_meters":2000,"station_id":"ce4bhn12rcd13ifvqgpg","pricing_plan_id":"cebpf4jnsgd1na2vs0mg"},{"bike_id":"978527ac-9038-45b3-9b91-f9721ba3d3b5","system_id":"levelo_inurba_marseille","lat":43.25,"lon":5.38932,"is_reserved":false,"is_disabled":false,"rental_uris":{"android":"levelo://app?vid=978527ac-9038-45b3-9b91-f9721ba3d3b5","ios":"levelo://app?vid=978527ac-9038-45b3-9b91-f9721ba3d3b5"},"vehicle_type_id":"4","last_reported":1735564552,"current_range_meters":38800,"station_id":"ce4bhgp2rcd13ifvqfd0","pricing_plan_id":"cebpf4jnsgd1na2vs0mg"},{"bike_id":"a27b0db8-45c2-4065-ba44-a6d977613aae","system_id":"levelo_inurba_marseille","lat":43.27902,"lon":5.38013,"is_reserved":false,"is_disabled":false,"rental_uris":{"android":"levelo://app?vid=a27b0db8-45c2-4065-ba44-a6d977613aae","ios":"levelo://app?vid=a27b0db8-45c2-4065-ba44-a6d977613aae"},"vehicle_type_id":"4","last_reported":1735564552,"current_range_meters":35200,"station_id":"ce4bhf92rcd13ifvqf50","pricing_plan_id":"cebpf4jnsgd1na2vs0mg"},{"bike_id":"a2b6f045-2018-4060-b21b-95cdf5bdc373","system_id":"levelo_inurba_marseille","lat":43.275652,"lon":5.384277,"is_reserved":false,"is_disabled":false,"rental_uris":{"android":"levelo://app?vid=a2b6f045-2018-4060-b21b-95cdf5bdc373","ios":"levelo://app?vid=a2b6f045-2018-4060-b21b-95cdf5bdc373"},"vehicle_type_id":"4","last_reported":1735564552,"current_range_meters":23200,"station_id":"ce4bhh92rcd13ifvqfi0","pricing_plan_id":"cebpf4jnsgd1na2vs0mg"},{"bike_id":"5639f52b-1196-4558-b062-4f7891cec443","system_id":"levelo_inurba_marseille","lat":43.28435,"lon":5.37527,"is_reserved":false,"is_disabled":false,"rental_uris":{"android":"levelo://app?vid=5639f52b-1196-4558-b062-4f7891cec443","ios":"levelo://app?vid=5639f52b-1196-4558-b062-4f7891cec443"},"vehicle_type_id":"4","last_reported":1735564552,"current_range_meters":21600,"station_id":"ce4bh412rcd13ifvqds0","pricing_plan_id":"cebpf4jnsgd1na2vs0mg"},{"bike_id":"92ab72d2-3d79-4268-b458-7bc1009937ee","system_id":"levelo_inurba_marseille","lat":43.31223,"lon":5.36859,"is_reserved":false,"is_disabled":false,"rental_uris":{"android":"levelo://app?vid=92ab72d2-3d79-4268-b458-7bc1009937ee","ios":"levelo://app?vid=92ab72d2-3d79-4268-b458-7bc1009937ee"},"vehicle_type_id":"4","last_reported":1735564552,"current_range_meters":39200,"station_id":"ce4bgl92rcd13ifvqbq0","pricing_plan_id":"cebpf4jnsgd1na2vs0mg"},{"bike_id":"ef2b8e0d-f459-42fc-b0fa-07fcd6e1bc1a","system_id":"levelo_inurba_marseille","lat":43.27317,"lon":5.39083,"is_reserved":false,"is_disabled":false,"rental_uris":{"android":"levelo://app?vid=ef2b8e0d-f459-42fc-b0fa-07fcd6e1bc1a","ios":"levelo://app?vid=ef2b8e0d-f459-42fc-b0fa-07fcd6e1bc1a"},"vehicle_type_id":"4","last_reported":1735564552,"current_range_meters":38800,"station_id":"ce4bhgp2rcd13ifvqfe0","pricing_plan_id":"cebpf4jnsgd1na2vs0mg"},{"bike_id":"2a0ca933-1107-483c-82a8-2d563aae747e","system_id":"levelo_inurba_marseille","lat":43.28928,"lon":5.38403,"is_reserved":false,"is_disabled":false,"rental_uris":{"android":"levelo://app?vid=2a0ca933-1107-483c-82a8-2d563aae747e","ios":"levelo://app?vid=2a0ca933-1107-483c-82a8-2d563aae747e"},"vehicle_type_id":"4","last_reported":1735564552,"current_range_meters":27600,"station_id":"ce4bh612rcd13ifvqe6g","pricing_plan_id":"cebpf4jnsgd1na2vs0mg"},{"bike_id":"4ebba5cb-5c68-4e3e-ad19-e86b558df96e","system_id":"levelo_inurba_marseille","lat":43.29625,"lon":5.37725,"is_reserved":false,"is_disabled":false,"rental_uris":{"android":"levelo://app?vid=4ebba5cb-5c68-4e3e-ad19-e86b558df96e","ios":"levelo://app?vid=4ebba5cb-5c68-4e3e-ad19-e86b558df96e"},"vehicle_type_id":"4","last_reported":1735564552,"current_range_meters":16400,"station_id":"ce4bgi92rcd13ifvqb90","pricing_plan_id":"cebpf4jnsgd1na2vs0mg"},{"bike_id":"356fd92d-e963-40e6-b40e-58fc72ac9553","system_id":"levelo_inurba_marseille","lat":43.320989,"lon":5.367826,"is_reserved":false,"is_disabled":false,"rental_uris":{"android":"levelo://app?vid=356fd92d-e963-40e6-b40e-58fc72ac9553","ios":"levelo://app?vid=356fd92d-e963-40e6-b40e-58fc72ac9553"},"vehicle_type_id":"4","last_reported":1735564552,"current_range_meters":32800,"station_id":"ce4bhrh2rcd13ifvqhug","pricing_plan_id":"cebpf4jnsgd1na2vs0mg"},{"bike_id":"12b64bf2-4ce1-4146-af5b-eb3b72f8d5ae","system_id":"levelo_inurba_marseille","lat":43.25717,"lon":5.41103,"is_reserved":false,"is_disabled":false,"rental_uris":{"android":"levelo://app?vid=12b64bf2-4ce1-4146-af5b-eb3b72f8d5ae","ios":"levelo://app?vid=12b64bf2-4ce1-4146-af5b-eb3b72f8d5ae"},"vehicle_type_id":"4","last_reported":1735564552,"current_range_meters":38800,"station_id":"ce4bhkp2rcd13ifvqgd0","pricing_plan_id":"cebpf4jnsgd1na2vs0mg"},{"bike_id":"f6c3569e-efa4-4a1c-b75b-94ded8df3e64","system_id":"levelo_inurba_marseille","lat":43.27936,"lon":5.38668,"is_reserved":false,"is_disabled":false,"rental_uris":{"android":"levelo://app?vid=f6c3569e-efa4-4a1c-b75b-94ded8df3e64","ios":"levelo://app?vid=f6c3569e-efa4-4a1c-b75b-94ded8df3e64"},"vehicle_type_id":"4","last_reported":1735564552,"current_range_meters":36800,"station_id":"","pricing_plan_id":"cebpf4jnsgd1na2vs0mg"},{"bike_id":"817fe9b7-915b-4bba-967f-6ea369e5db67","system_id":"levelo_inurba_marseille","lat":43.26952,"lon":5.38638,"is_reserved":false,"is_disabled":false,"rental_uris":{"android":"levelo://app?vid=817fe9b7-915b-4bba-967f-6ea369e5db67","ios":"levelo://app?vid=817fe9b7-915b-4bba-967f-6ea369e5db67"},"vehicle_type_id":"4","last_reported":1735564552,"current_range_meters":24800,"station_id":"ce4bhh92rcd13ifvqfh0","pricing_plan_id":"cebpf4jnsgd1na2vs0mg"},{"bike_id":"5b0aed25-3a00-480b-8943-84ac3074319e","system_id":"levelo_inurba_marseille","lat":43.29708,"lon":5.36611,"is_reserved":false,"is_disabled":false,"rental_uris":{"android":"levelo://app?vid=5b0aed25-3a00-480b-8943-84ac3074319e","ios":"levelo://app?vid=5b0aed25-3a00-480b-8943-84ac3074319e"},"vehicle_type_id":"4","last_reported":1735564552,"current_range_meters":39200,"station_id":"ce4bgn12rcd13ifvqbt0","pricing_plan_id":"cebpf4jnsgd1na2vs0mg"},{"bike_id":"cbad41e3-cae3-4016-bec9-81045a974dff","system_id":"levelo_inurba_marseille","lat":43.29619,"lon":5.37727,"is_reserved":false,"is_disabled":false,"rental_uris":{"android":"levelo://app?vid=cbad41e3-cae3-4016-bec9-81045a974dff","ios":"levelo://app?vid=cbad41e3-cae3-4016-bec9-81045a974dff"},"vehicle_type_id":"4","last_reported":1735564552,"current_range_meters":33600,"station_id":"ce4bgi92rcd13ifvqb90","pricing_plan_id":"cebpf4jnsgd1na2vs0mg"},{"bike_id":"c95a0b40-0953-488c-a108-b3297657d742","system_id":"levelo_inurba_marseille","lat":43.2981,"lon":5.38098,"is_reserved":false,"is_disabled":false,"rental_uris":{"android":"levelo://app?vid=c95a0b40-0953-488c-a108-b3297657d742","ios":"levelo://app?vid=c95a0b40-0953-488c-a108-b3297657d742"},"vehicle_type_id":"4","last_reported":1735564552,"current_range_meters":28400,"station_id":"ce4bgip2rcd13ifvqbb0","pricing_plan_id":"cebpf4jnsgd1na2vs0mg"},{"bike_id":"4b60ec2f-6b0c-475e-bbec-54e5ecd15efd","system_id":"levelo_inurba_marseille","lat":43.2989,"lon":5.43669,"is_reserved":false,"is_disabled":false,"rental_uris":{"android":"levelo://app?vid=4b60ec2f-6b0c-475e-bbec-54e5ecd15efd","ios":"levelo://app?vid=4b60ec2f-6b0c-475e-bbec-54e5ecd15efd"},"vehicle_type_id":"4","last_reported":1735564552,"current_range_meters":38000,"station_id":"ce4bhpp2rcd13ifvqhfg","pricing_plan_id":"cebpf4jnsgd1na2vs0mg"},{"bike_id":"673ed0fe-3027-4e1f-9efc-2804b0e32190","system_id":"levelo_inurba_marseille","lat":43.26693,"lon":5.38274,"is_reserved":false,"is_disabled":false,"rental_uris":{"android":"levelo://app?vid=673ed0fe-3027-4e1f-9efc-2804b0e32190","ios":"levelo://app?vid=673ed0fe-3027-4e1f-9efc-2804b0e32190"},"vehicle_type_id":"4","last_reported":1735564552,"current_range_meters":36800,"station_id":"ce4bhg92rcd13ifvqf90","pricing_plan_id":"cebpf4jnsgd1na2vs0mg"},{"bike_id":"272e4175-fcb2-4a70-ba33-28c9346e73b7","system_id":"levelo_inurba_marseille","lat":43.27915,"lon":5.39581,"is_reserved":false,"is_disabled":true,"rental_uris":{"android":"levelo://app?vid=272e4175-fcb2-4a70-ba33-28c9346e73b7","ios":"levelo://app?vid=272e4175-fcb2-4a70-ba33-28c9346e73b7"},"vehicle_type_id":"4","last_reported":1735564552,"current_range_meters":0,"station_id":"ce4bhf92rcd13ifvqf40","pricing_plan_id":"cebpf4jnsgd1na2vs0mg"},{"bike_id":"7fe6e02c-a028-4b5e-9375-4c772c306e62","system_id":"levelo_inurba_marseille","lat":43.30576,"lon":5.37235,"is_reserved":false,"is_disabled":false,"rental_uris":{"android":"levelo://app?vid=7fe6e02c-a028-4b5e-9375-4c772c306e62","ios":"levelo://app?vid=7fe6e02c-a028-4b5e-9375-4c772c306e62"},"vehicle_type_id":"4","last_reported":1735564552,"current_range_meters":32400,"station_id":"ce4bgqh2rcd13ifvqc4g","pricing_plan_id":"cebpf4jnsgd1na2vs0mg"},{"bike_id":"f086f494-f5fd-4a10-bc96-d0482edb5710","system_id":"levelo_inurba_marseille","lat":43.30932,"lon":5.40148,"is_reserved":false,"is_disabled":false,"rental_uris":{"android":"levelo://app?vid=f086f494-f5fd-4a10-bc96-d0482edb5710","ios":"levelo://app?vid=f086f494-f5fd-4a10-bc96-d0482edb5710"},"vehicle_type_id":"4","last_reported":1735564552,"current_range_meters":24400,"station_id":"ce4bgvp2rcd13ifvqct0","pricing_plan_id":"cebpf4jnsgd1na2vs0mg"},{"bike_id":"e70ce8bb-674e-436b-ab6d-79ca756c291a","system_id":"levelo_inurba_marseille","lat":43.25728,"lon":5.41112,"is_reserved":false,"is_disabled":false,"rental_uris":{"android":"levelo://app?vid=e70ce8bb-674e-436b-ab6d-79ca756c291a","ios":"levelo://app?vid=e70ce8bb-674e-436b-ab6d-79ca756c291a"},"vehicle_type_id":"4","last_reported":1735564552,"current_range_meters":27200,"station_id":"ce4bhkp2rcd13ifvqgd0","pricing_plan_id":"cebpf4jnsgd1na2vs0mg"},{"bike_id":"f1194b75-3cde-4e59-90aa-276be22831f2","system_id":"levelo_inurba_marseille","lat":43.28409,"lon":5.37513,"is_reserved":false,"is_disabled":false,"rental_uris":{"android":"levelo://app?vid=f1194b75-3cde-4e59-90aa-276be22831f2","ios":"levelo://app?vid=f1194b75-3cde-4e59-90aa-276be22831f2"},"vehicle_type_id":"4","last_reported":1735564552,"current_range_meters":27200,"station_id":"ce4bh412rcd13ifvqds0","pricing_plan_id":"cebpf4jnsgd1na2vs0mg"},{"bike_id":"a1088787-f6cd-447d-b004-3e4d7d9490d9","system_id":"levelo_inurba_marseille","lat":43.308229,"lon":5.369645,"is_reserved":false,"is_disabled":false,"rental_uris":{"android":"levelo://app?vid=a1088787-f6cd-447d-b004-3e4d7d9490d9","ios":"levelo://app?vid=a1088787-f6cd-447d-b004-3e4d7d9490d9"},"vehicle_type_id":"4","last_reported":1735564552,"current_range_meters":5600,"station_id":"ce4bhph2rcd13ifvqhdg","pricing_plan_id":"cebpf4jnsgd1na2vs0mg"},{"bike_id":"baa83f51-8f0b-4c7c-a94b-7b75db52cd7e","system_id":"levelo_inurba_marseille","lat":43.29051,"lon":5.37565,"is_reserved":false,"is_disabled":false,"rental_uris":{"android":"levelo://app?vid=baa83f51-8f0b-4c7c-a94b-7b75db52cd7e","ios":"levelo://app?vid=baa83f51-8f0b-4c7c-a94b-7b75db52cd7e"},"vehicle_type_id":"4","last_reported":1735564552,"current_range_meters":29600,"station_id":"ce4bh692rcd13ifvqe90","pricing_plan_id":"cebpf4jnsgd1na2vs0mg"},{"bike_id":"35142cb1-da84-4465-a902-1b70f5829b31","system_id":"levelo_inurba_marseille","lat":43.25683,"lon":5.41057,"is_reserved":false,"is_disabled":false,"rental_uris":{"android":"levelo://app?vid=35142cb1-da84-4465-a902-1b70f5829b31","ios":"levelo://app?vid=35142cb1-da84-4465-a902-1b70f5829b31"},"vehicle_type_id":"4","last_reported":1735564552,"current_range_meters":36000,"station_id":"ce4bhkp2rcd13ifvqgd0","pricing_plan_id":"cebpf4jnsgd1na2vs0mg"},{"bike_id":"63cd68f7-f204-41b0-852b-04b6acd91aa1","system_id":"levelo_inurba_marseille","lat":43.261293,"lon":5.404918,"is_reserved":false,"is_disabled":false,"rental_uris":{"android":"levelo://app?vid=63cd68f7-f204-41b0-852b-04b6acd91aa1","ios":"levelo://app?vid=63cd68f7-f204-41b0-852b-04b6acd91aa1"},"vehicle_type_id":"4","last_reported":1735564552,"current_range_meters":32800,"station_id":"","pricing_plan_id":"cebpf4jnsgd1na2vs0mg"},{"bike_id":"0997d834-2404-4253-93ea-581b65ac86ce","system_id":"levelo_inurba_marseille","lat":43.23156,"lon":5.4372,"is_reserved":false,"is_disabled":false,"rental_uris":{"android":"levelo://app?vid=0997d834-2404-4253-93ea-581b65ac86ce","ios":"levelo://app?vid=0997d834-2404-4253-93ea-581b65ac86ce"},"vehicle_type_id":"4","last_reported":1735564552,"current_range_meters":7200,"station_id":"ce4bhmp2rcd13ifvqgog","pricing_plan_id":"cebpf4jnsgd1na2vs0mg"},{"bike_id":"f5997a88-606e-48c9-933e-041b10894cea","system_id":"levelo_inurba_marseille","lat":43.27067,"lon":5.4228,"is_reserved":false,"is_disabled":false,"rental_uris":{"android":"levelo://app?vid=f5997a88-606e-48c9-933e-041b10894cea","ios":"levelo://app?vid=f5997a88-606e-48c9-933e-041b10894cea"},"vehicle_type_id":"4","last_reported":1735564552,"current_range_meters":28800,"station_id":"ce4bhk92rcd13ifvqgb0","pricing_plan_id":"cebpf4jnsgd1na2vs0mg"},{"bike_id":"fc0b3bf8-65df-44b7-8333-cabe97ef9a6c","system_id":"levelo_inurba_marseille","lat":43.25714,"lon":5.41121,"is_reserved":false,"is_disabled":false,"rental_uris":{"android":"levelo://app?vid=fc0b3bf8-65df-44b7-8333-cabe97ef9a6c","ios":"levelo://app?vid=fc0b3bf8-65df-44b7-8333-cabe97ef9a6c"},"vehicle_type_id":"4","last_reported":1735564552,"current_range_meters":38800,"station_id":"ce4bhkp2rcd13ifvqgd0","pricing_plan_id":"cebpf4jnsgd1na2vs0mg"},{"bike_id":"6b894a3c-9b97-4eaf-bf2d-894e400c1e0f","system_id":"levelo_inurba_marseille","lat":43.28253,"lon":5.35016,"is_reserved":false,"is_disabled":false,"rental_uris":{"android":"levelo://app?vid=6b894a3c-9b97-4eaf-bf2d-894e400c1e0f","ios":"levelo://app?vid=6b894a3c-9b97-4eaf-bf2d-894e400c1e0f"},"vehicle_type_id":"4","last_reported":1735564552,"current_range_meters":20400,"station_id":"ce4bhbp2rcd13ifvqerg","pricing_plan_id":"cebpf4jnsgd1na2vs0mg"},{"bike_id":"ef3ee808-0d32-4318-a10b-a0093755c44b","system_id":"levelo_inurba_marseille","lat":43.24176,"lon":5.39734,"is_reserved":false,"is_disabled":false,"rental_uris":{"android":"levelo://app?vid=ef3ee808-0d32-4318-a10b-a0093755c44b","ios":"levelo://app?vid=ef3ee808-0d32-4318-a10b-a0093755c44b"},"vehicle_type_id":"4","last_reported":1735564552,"current_range_meters":25200,"station_id":"ce4bhn12rcd13ifvqgpg","pricing_plan_id":"cebpf4jnsgd1na2vs0mg"},{"bike_id":"79a9cc94-882c-4645-897a-abb5a5249316","system_id":"levelo_inurba_marseille","lat":43.337444,"lon":5.374475,"is_reserved":false,"is_disabled":false,"rental_uris":{"android":"levelo://app?vid=79a9cc94-882c-4645-897a-abb5a5249316","ios":"levelo://app?vid=79a9cc94-882c-4645-897a-abb5a5249316"},"vehicle_type_id":"4","last_reported":1735564552,"current_range_meters":35600,"station_id":"","pricing_plan_id":"cebpf4jnsgd1na2vs0mg"},{"bike_id":"86d96291-f1b0-4d83-abc8-f84a17b325be","system_id":"levelo_inurba_marseille","lat":43.27048,"lon":5.40255,"is_reserved":false,"is_disabled":false,"rental_uris":{"android":"levelo://app?vid=86d96291-f1b0-4d83-abc8-f84a17b325be","ios":"levelo://app?vid=86d96291-f1b0-4d83-abc8-f84a17b325be"},"vehicle_type_id":"4","last_reported":1735564552,"current_range_meters":24400,"station_id":"ce4bhk92rcd13ifvqgc0","pricing_plan_id":"cebpf4jnsgd1na2vs0mg"},{"bike_id":"2a9d7a3d-ed04-4099-8d1e-1a84e81c9b52","system_id":"levelo_inurba_marseille","lat":43.24391,"lon":5.37063,"is_reserved":false,"is_disabled":false,"rental_uris":{"android":"levelo://app?vid=2a9d7a3d-ed04-4099-8d1e-1a84e81c9b52","ios":"levelo://app?vid=2a9d7a3d-ed04-4099-8d1e-1a84e81c9b52"},"vehicle_type_id":"4","last_reported":1735564552,"current_range_meters":37600,"station_id":"ce4bhhh2rcd13ifvqfk0","pricing_plan_id":"cebpf4jnsgd1na2vs0mg"},{"bike_id":"261ac97a-609d-40ca-886d-01705c712fe3","system_id":"levelo_inurba_marseille","lat":43.28469,"lon":5.38558,"is_reserved":false,"is_disabled":false,"rental_uris":{"android":"levelo://app?vid=261ac97a-609d-40ca-886d-01705c712fe3","ios":"levelo://app?vid=261ac97a-609d-40ca-886d-01705c712fe3"},"vehicle_type_id":"4","last_reported":1735564552,"current_range_meters":38000,"station_id":"ce4bh8p2rcd13ifvqeb0","pricing_plan_id":"cebpf4jnsgd1na2vs0mg"},{"bike_id":"7aab2ffc-cec0-4dd6-981d-6bd7c8cbfd0b","system_id":"levelo_inurba_marseille","lat":43.26065,"lon":5.39396,"is_reserved":false,"is_disabled":true,"rental_uris":{"android":"levelo://app?vid=7aab2ffc-cec0-4dd6-981d-6bd7c8cbfd0b","ios":"levelo://app?vid=7aab2ffc-cec0-4dd6-981d-6bd7c8cbfd0b"},"vehicle_type_id":"4","last_reported":1735564552,"current_range_meters":35600,"station_id":"ce4bhh92rcd13ifvqfj0","pricing_plan_id":"cebpf4jnsgd1na2vs0mg"},{"bike_id":"fc5a7c50-b088-4366-8ec0-23ac2c6135e5","system_id":"levelo_inurba_marseille","lat":43.28989,"lon":5.35631,"is_reserved":false,"is_disabled":false,"rental_uris":{"android":"levelo://app?vid=fc5a7c50-b088-4366-8ec0-23ac2c6135e5","ios":"levelo://app?vid=fc5a7c50-b088-4366-8ec0-23ac2c6135e5"},"vehicle_type_id":"4","last_reported":1735564552,"current_range_meters":38800,"station_id":"ce4bhb92rcd13ifvqen0","pricing_plan_id":"cebpf4jnsgd1na2vs0mg"},{"bike_id":"3821eaf5-27ec-43f8-9beb-906ba7bd5825","system_id":"levelo_inurba_marseille","lat":43.28417,"lon":5.37517,"is_reserved":false,"is_disabled":false,"rental_uris":{"android":"levelo://app?vid=3821eaf5-27ec-43f8-9beb-906ba7bd5825","ios":"levelo://app?vid=3821eaf5-27ec-43f8-9beb-906ba7bd5825"},"vehicle_type_id":"4","last_reported":1735564552,"current_range_meters":38400,"station_id":"ce4bh412rcd13ifvqds0","pricing_plan_id":"cebpf4jnsgd1na2vs0mg"},{"bike_id":"646f2ba6-cb4b-441b-8952-4a149ce8f1cd","system_id":"levelo_inurba_marseille","lat":43.30549,"lon":5.36546,"is_reserved":false,"is_disabled":false,"rental_uris":{"android":"levelo://app?vid=646f2ba6-cb4b-441b-8952-4a149ce8f1cd","ios":"levelo://app?vid=646f2ba6-cb4b-441b-8952-4a149ce8f1cd"},"vehicle_type_id":"4","last_reported":1735564552,"current_range_meters":28800,"station_id":"ce4bgs12rcd13ifvqcag","pricing_plan_id":"cebpf4jnsgd1na2vs0mg"},{"bike_id":"94c11055-c5e4-4101-936a-ff207f3fe9b3","system_id":"levelo_inurba_marseille","lat":43.29028,"lon":5.38131,"is_reserved":false,"is_disabled":false,"rental_uris":{"android":"levelo://app?vid=94c11055-c5e4-4101-936a-ff207f3fe9b3","ios":"levelo://app?vid=94c11055-c5e4-4101-936a-ff207f3fe9b3"},"vehicle_type_id":"4","last_reported":1735564552,"current_range_meters":10000,"station_id":"ce4bh4p2rcd13ifvqe1g","pricing_plan_id":"cebpf4jnsgd1na2vs0mg"},{"bike_id":"b1c0ee8d-93e8-4cc8-82d6-c539d877336e","system_id":"levelo_inurba_marseille","lat":43.2439,"lon":5.37064,"is_reserved":false,"is_disabled":false,"rental_uris":{"android":"levelo://app?vid=b1c0ee8d-93e8-4cc8-82d6-c539d877336e","ios":"levelo://app?vid=b1c0ee8d-93e8-4cc8-82d6-c539d877336e"},"vehicle_type_id":"4","last_reported":1735564552,"current_range_meters":38800,"station_id":"ce4bhhh2rcd13ifvqfk0","pricing_plan_id":"cebpf4jnsgd1na2vs0mg"},{"bike_id":"3f188f7c-a5c4-44f4-9bc3-999d2a09a56e","system_id":"levelo_inurba_marseille","lat":43.2757,"lon":5.38416,"is_reserved":false,"is_disabled":true,"rental_uris":{"android":"levelo://app?vid=3f188f7c-a5c4-44f4-9bc3-999d2a09a56e","ios":"levelo://app?vid=3f188f7c-a5c4-44f4-9bc3-999d2a09a56e"},"vehicle_type_id":"4","last_reported":1735564552,"current_range_meters":0,"station_id":"ce4bhh92rcd13ifvqfi0","pricing_plan_id":"cebpf4jnsgd1na2vs0mg"},{"bike_id":"82ec7984-7407-4afe-96b4-c3f57cb787ca","system_id":"levelo_inurba_marseille","lat":43.28943,"lon":5.36644,"is_reserved":false,"is_disabled":false,"rental_uris":{"android":"levelo://app?vid=82ec7984-7407-4afe-96b4-c3f57cb787ca","ios":"levelo://app?vid=82ec7984-7407-4afe-96b4-c3f57cb787ca"},"vehicle_type_id":"4","last_reported":1735564552,"current_range_meters":3200,"station_id":"ce4bhap2rcd13ifvqek0","pricing_plan_id":"cebpf4jnsgd1na2vs0mg"},{"bike_id":"5737f50c-7647-4928-8c04-d75aea34bf76","system_id":"levelo_inurba_marseille","lat":43.29191,"lon":5.35798,"is_reserved":false,"is_disabled":false,"rental_uris":{"android":"levelo://app?vid=5737f50c-7647-4928-8c04-d75aea34bf76","ios":"levelo://app?vid=5737f50c-7647-4928-8c04-d75aea34bf76"},"vehicle_type_id":"4","last_reported":1735564552,"current_range_meters":34800,"station_id":"ce4bhb12rcd13ifvqel0","pricing_plan_id":"cebpf4jnsgd1na2vs0mg"},{"bike_id":"dd708212-6c95-4591-b555-43b33b8da7f5","system_id":"levelo_inurba_marseille","lat":43.2571,"lon":5.41106,"is_reserved":false,"is_disabled":false,"rental_uris":{"android":"levelo://app?vid=dd708212-6c95-4591-b555-43b33b8da7f5","ios":"levelo://app?vid=dd708212-6c95-4591-b555-43b33b8da7f5"},"vehicle_type_id":"4","last_reported":1735564552,"current_range_meters":34000,"station_id":"ce4bhkp2rcd13ifvqgd0","pricing_plan_id":"cebpf4jnsgd1na2vs0mg"},{"bike_id":"ce870000-0b9d-4b44-bb6a-0c0895f51458","system_id":"levelo_inurba_marseille","lat":43.29908,"lon":5.37469,"is_reserved":false,"is_disabled":false,"rental_uris":{"android":"levelo://app?vid=ce870000-0b9d-4b44-bb6a-0c0895f51458","ios":"levelo://app?vid=ce870000-0b9d-4b44-bb6a-0c0895f51458"},"vehicle_type_id":"4","last_reported":1735564552,"current_range_meters":38800,"station_id":"ce4bgjh2rcd13ifvqbg0","pricing_plan_id":"cebpf4jnsgd1na2vs0mg"},{"bike_id":"299d264c-fd0b-4c1d-83d6-4d6e8aa30546","system_id":"levelo_inurba_marseille","lat":43.2956,"lon":5.42293,"is_reserved":false,"is_disabled":false,"rental_uris":{"android":"levelo://app?vid=299d264c-fd0b-4c1d-83d6-4d6e8aa30546","ios":"levelo://app?vid=299d264c-fd0b-4c1d-83d6-4d6e8aa30546"},"vehicle_type_id":"4","last_reported":1735564552,"current_range_meters":12800,"station_id":"ce4bhph2rcd13ifvqhdg","pricing_plan_id":"cebpf4jnsgd1na2vs0mg"},{"bike_id":"cd68a672-533e-4c5e-8b9d-ac8f24d8a645","system_id":"levelo_inurba_marseille","lat":43.31758,"lon":5.39011,"is_reserved":false,"is_disabled":false,"rental_uris":{"android":"levelo://app?vid=cd68a672-533e-4c5e-8b9d-ac8f24d8a645","ios":"levelo://app?vid=cd68a672-533e-4c5e-8b9d-ac8f24d8a645"},"vehicle_type_id":"4","last_reported":1735564552,"current_range_meters":39200,"station_id":"ce4bhqp2rcd13ifvqhng","pricing_plan_id":"cebpf4jnsgd1na2vs0mg"},{"bike_id":"e555ad93-cd95-4da1-802c-025329f1e590","system_id":"levelo_inurba_marseille","lat":43.23052,"lon":5.35492,"is_reserved":false,"is_disabled":false,"rental_uris":{"android":"levelo://app?vid=e555ad93-cd95-4da1-802c-025329f1e590","ios":"levelo://app?vid=e555ad93-cd95-4da1-802c-025329f1e590"},"vehicle_type_id":"4","last_reported":1735564552,"current_range_meters":24000,"station_id":"cpo3342slgdg3j2ifvpg","pricing_plan_id":"cebpf4jnsgd1na2vs0mg"},{"bike_id":"da7e3752-c5ce-409e-b35e-3da410bf2310","system_id":"levelo_inurba_marseille","lat":43.31342,"lon":5.39692,"is_reserved":false,"is_disabled":false,"rental_uris":{"android":"levelo://app?vid=da7e3752-c5ce-409e-b35e-3da410bf2310","ios":"levelo://app?vid=da7e3752-c5ce-409e-b35e-3da410bf2310"},"vehicle_type_id":"4","last_reported":1735564552,"current_range_meters":12800,"station_id":"ce4bgvp2rcd13ifvqcu0","pricing_plan_id":"cebpf4jnsgd1na2vs0mg"},{"bike_id":"818c2e80-1437-4442-8569-e61dce12897e","system_id":"levelo_inurba_marseille","lat":43.29024,"lon":5.37556,"is_reserved":false,"is_disabled":false,"rental_uris":{"android":"levelo://app?vid=818c2e80-1437-4442-8569-e61dce12897e","ios":"levelo://app?vid=818c2e80-1437-4442-8569-e61dce12897e"},"vehicle_type_id":"4","last_reported":1735564552,"current_range_meters":25200,"station_id":"ce4bh692rcd13ifvqe90","pricing_plan_id":"cebpf4jnsgd1na2vs0mg"},{"bike_id":"3a624cf6-1e7d-4731-8278-e821209a8530","system_id":"levelo_inurba_marseille","lat":43.24188,"lon":5.39723,"is_reserved":false,"is_disabled":false,"rental_uris":{"android":"levelo://app?vid=3a624cf6-1e7d-4731-8278-e821209a8530","ios":"levelo://app?vid=3a624cf6-1e7d-4731-8278-e821209a8530"},"vehicle_type_id":"4","last_reported":1735564552,"current_range_meters":38800,"station_id":"ce4bhn12rcd13ifvqgpg","pricing_plan_id":"cebpf4jnsgd1na2vs0mg"},{"bike_id":"a2dfaa5b-c1ad-4316-ae45-cf62c09c30b3","system_id":"levelo_inurba_marseille","lat":43.32089,"lon":5.36817,"is_reserved":false,"is_disabled":false,"rental_uris":{"android":"levelo://app?vid=a2dfaa5b-c1ad-4316-ae45-cf62c09c30b3","ios":"levelo://app?vid=a2dfaa5b-c1ad-4316-ae45-cf62c09c30b3"},"vehicle_type_id":"4","last_reported":1735564552,"current_range_meters":12000,"station_id":"ce4bhrh2rcd13ifvqhug","pricing_plan_id":"cebpf4jnsgd1na2vs0mg"},{"bike_id":"5f8ee9c5-4e33-43ee-b8aa-ac908ba0aac5","system_id":"levelo_inurba_marseille","lat":43.27497,"lon":5.42456,"is_reserved":false,"is_disabled":false,"rental_uris":{"android":"levelo://app?vid=5f8ee9c5-4e33-43ee-b8aa-ac908ba0aac5","ios":"levelo://app?vid=5f8ee9c5-4e33-43ee-b8aa-ac908ba0aac5"},"vehicle_type_id":"4","last_reported":1735564552,"current_range_meters":19600,"station_id":"ce4bhn92rcd13ifvqgrg","pricing_plan_id":"cebpf4jnsgd1na2vs0mg"},{"bike_id":"2e06f365-55c6-4526-ae5c-8420539b1207","system_id":"levelo_inurba_marseille","lat":43.28356,"lon":5.38101,"is_reserved":false,"is_disabled":false,"rental_uris":{"android":"levelo://app?vid=2e06f365-55c6-4526-ae5c-8420539b1207","ios":"levelo://app?vid=2e06f365-55c6-4526-ae5c-8420539b1207"},"vehicle_type_id":"4","last_reported":1735564552,"current_range_meters":26800,"station_id":"ce4bh412rcd13ifvqdr0","pricing_plan_id":"cebpf4jnsgd1na2vs0mg"},{"bike_id":"b2c701bd-6764-4725-9ba4-9133e67a60d5","system_id":"levelo_inurba_marseille","lat":43.28938,"lon":5.3642,"is_reserved":false,"is_disabled":false,"rental_uris":{"android":"levelo://app?vid=b2c701bd-6764-4725-9ba4-9133e67a60d5","ios":"levelo://app?vid=b2c701bd-6764-4725-9ba4-9133e67a60d5"},"vehicle_type_id":"4","last_reported":1735564552,"current_range_meters":34000,"station_id":"ce4bhc92rcd13ifvqetg","pricing_plan_id":"cebpf4jnsgd1na2vs0mg"},{"bike_id":"5d22d4f6-c5a9-4ef2-8663-0ea09a357db3","system_id":"levelo_inurba_marseille","lat":43.27208,"lon":5.39184,"is_reserved":false,"is_disabled":false,"rental_uris":{"android":"levelo://app?vid=5d22d4f6-c5a9-4ef2-8663-0ea09a357db3","ios":"levelo://app?vid=5d22d4f6-c5a9-4ef2-8663-0ea09a357db3"},"vehicle_type_id":"4","last_reported":1735564552,"current_range_meters":39200,"station_id":"ce4bhhp2rcd13ifvqfm0","pricing_plan_id":"cebpf4jnsgd1na2vs0mg"},{"bike_id":"1d3ff329-f840-4a21-beb9-bdffc8997bf2","system_id":"levelo_inurba_marseille","lat":43.29727,"lon":5.37686,"is_reserved":false,"is_disabled":false,"rental_uris":{"android":"levelo://app?vid=1d3ff329-f840-4a21-beb9-bdffc8997bf2","ios":"levelo://app?vid=1d3ff329-f840-4a21-beb9-bdffc8997bf2"},"vehicle_type_id":"4","last_reported":1735564552,"current_range_meters":32400,"station_id":"ce4bgkh2rcd13ifvqbl0","pricing_plan_id":"cebpf4jnsgd1na2vs0mg"},{"bike_id":"5367a292-5564-4681-91cd-97babb89fc00","system_id":"levelo_inurba_marseille","lat":43.22915,"lon":5.35426,"is_reserved":false,"is_disabled":false,"rental_uris":{"android":"levelo://app?vid=5367a292-5564-4681-91cd-97babb89fc00","ios":"levelo://app?vid=5367a292-5564-4681-91cd-97babb89fc00"},"vehicle_type_id":"4","last_reported":1735564552,"current_range_meters":32400,"station_id":"cpo3532slgdg3j2ikp40","pricing_plan_id":"cebpf4jnsgd1na2vs0mg"},{"bike_id":"0483d5a5-12c2-4b90-8e6c-47d6d5a4b82c","system_id":"levelo_inurba_marseille","lat":43.25813,"lon":5.39424,"is_reserved":false,"is_disabled":false,"rental_uris":{"android":"levelo://app?vid=0483d5a5-12c2-4b90-8e6c-47d6d5a4b82c","ios":"levelo://app?vid=0483d5a5-12c2-4b90-8e6c-47d6d5a4b82c"},"vehicle_type_id":"4","last_reported":1735564552,"current_range_meters":11200,"station_id":"ce4bhip2rcd13ifvqft0","pricing_plan_id":"cebpf4jnsgd1na2vs0mg"},{"bike_id":"d57bb4dc-4e1c-43d9-8486-c090ecc91dba","system_id":"levelo_inurba_marseille","lat":43.28421,"lon":5.34981,"is_reserved":false,"is_disabled":false,"rental_uris":{"android":"levelo://app?vid=d57bb4dc-4e1c-43d9-8486-c090ecc91dba","ios":"levelo://app?vid=d57bb4dc-4e1c-43d9-8486-c090ecc91dba"},"vehicle_type_id":"4","last_reported":1735564552,"current_range_meters":34800,"station_id":"ce4bhbh2rcd13ifvqepg","pricing_plan_id":"cebpf4jnsgd1na2vs0mg"},{"bike_id":"a9071ff0-a0cd-4d62-8959-8dfc643c257e","system_id":"levelo_inurba_marseille","lat":43.30136,"lon":5.39875,"is_reserved":false,"is_disabled":true,"rental_uris":{"android":"levelo://app?vid=a9071ff0-a0cd-4d62-8959-8dfc643c257e","ios":"levelo://app?vid=a9071ff0-a0cd-4d62-8959-8dfc643c257e"},"vehicle_type_id":"4","last_reported":1735564552,"current_range_meters":0,"station_id":"ce4bh0h2rcd13ifvqd40","pricing_plan_id":"cebpf4jnsgd1na2vs0mg"},{"bike_id":"7c0ace64-49ff-46c5-99ef-7fa4db85a49e","system_id":"levelo_inurba_marseille","lat":43.32361,"lon":5.3676,"is_reserved":false,"is_disabled":false,"rental_uris":{"android":"levelo://app?vid=7c0ace64-49ff-46c5-99ef-7fa4db85a49e","ios":"levelo://app?vid=7c0ace64-49ff-46c5-99ef-7fa4db85a49e"},"vehicle_type_id":"4","last_reported":1735564552,"current_range_meters":14000,"station_id":"ce4bhsh2rcd13ifvqi2g","pricing_plan_id":"cebpf4jnsgd1na2vs0mg"},{"bike_id":"c39a98dc-0e76-4892-bde3-9d7f1385f7c9","system_id":"levelo_inurba_marseille","lat":43.27212,"lon":5.39173,"is_reserved":false,"is_disabled":false,"rental_uris":{"android":"levelo://app?vid=c39a98dc-0e76-4892-bde3-9d7f1385f7c9","ios":"levelo://app?vid=c39a98dc-0e76-4892-bde3-9d7f1385f7c9"},"vehicle_type_id":"4","last_reported":1735564552,"current_range_meters":16800,"station_id":"ce4bhhp2rcd13ifvqfm0","pricing_plan_id":"cebpf4jnsgd1na2vs0mg"},{"bike_id":"94d38955-21a2-4852-a963-0a3cc1374e49","system_id":"levelo_inurba_marseille","lat":43.23199,"lon":5.35554,"is_reserved":false,"is_disabled":false,"rental_uris":{"android":"levelo://app?vid=94d38955-21a2-4852-a963-0a3cc1374e49","ios":"levelo://app?vid=94d38955-21a2-4852-a963-0a3cc1374e49"},"vehicle_type_id":"4","last_reported":1735564552,"current_range_meters":21600,"station_id":"ce4bhu92rcd13ifvqi70","pricing_plan_id":"cebpf4jnsgd1na2vs0mg"},{"bike_id":"450de7c6-68ca-4a47-8685-03d1b8b10383","system_id":"levelo_inurba_marseille","lat":43.29983,"lon":5.372,"is_reserved":false,"is_disabled":false,"rental_uris":{"android":"levelo://app?vid=450de7c6-68ca-4a47-8685-03d1b8b10383","ios":"levelo://app?vid=450de7c6-68ca-4a47-8685-03d1b8b10383"},"vehicle_type_id":"4","last_reported":1735564552,"current_range_meters":38800,"station_id":"ce4bgr92rcd13ifvqc7g","pricing_plan_id":"cebpf4jnsgd1na2vs0mg"},{"bike_id":"647d23b8-4e7c-4423-a02a-d60eef618897","system_id":"levelo_inurba_marseille","lat":43.27813,"lon":5.4073,"is_reserved":false,"is_disabled":false,"rental_uris":{"android":"levelo://app?vid=647d23b8-4e7c-4423-a02a-d60eef618897","ios":"levelo://app?vid=647d23b8-4e7c-4423-a02a-d60eef618897"},"vehicle_type_id":"4","last_reported":1735564552,"current_range_meters":26800,"station_id":"ce4bhnh2rcd13ifvqgtg","pricing_plan_id":"cebpf4jnsgd1na2vs0mg"},{"bike_id":"5968ad4a-0351-466f-952d-f21abbe545e3","system_id":"levelo_inurba_marseille","lat":43.2792,"lon":5.38716,"is_reserved":false,"is_disabled":false,"rental_uris":{"android":"levelo://app?vid=5968ad4a-0351-466f-952d-f21abbe545e3","ios":"levelo://app?vid=5968ad4a-0351-466f-952d-f21abbe545e3"},"vehicle_type_id":"4","last_reported":1735564552,"current_range_meters":29600,"station_id":"","pricing_plan_id":"cebpf4jnsgd1na2vs0mg"},{"bike_id":"179f7c7e-cf60-4979-b064-1b4336e1db8c","system_id":"levelo_inurba_marseille","lat":43.278287,"lon":5.392174,"is_reserved":false,"is_disabled":false,"rental_uris":{"android":"levelo://app?vid=179f7c7e-cf60-4979-b064-1b4336e1db8c","ios":"levelo://app?vid=179f7c7e-cf60-4979-b064-1b4336e1db8c"},"vehicle_type_id":"4","last_reported":1735564552,"current_range_meters":5600,"station_id":"ce4bhjp2rcd13ifvqga0","pricing_plan_id":"cebpf4jnsgd1na2vs0mg"},{"bike_id":"2e19126c-44cf-40bf-a549-dc01e1a05272","system_id":"levelo_inurba_marseille","lat":43.28424,"lon":5.37527,"is_reserved":false,"is_disabled":false,"rental_uris":{"android":"levelo://app?vid=2e19126c-44cf-40bf-a549-dc01e1a05272","ios":"levelo://app?vid=2e19126c-44cf-40bf-a549-dc01e1a05272"},"vehicle_type_id":"4","last_reported":1735564552,"current_range_meters":11200,"station_id":"ce4bh412rcd13ifvqds0","pricing_plan_id":"cebpf4jnsgd1na2vs0mg"},{"bike_id":"36259f85-1afe-473e-9c9c-68f05fc95882","system_id":"levelo_inurba_marseille","lat":43.31201,"lon":5.36902,"is_reserved":false,"is_disabled":false,"rental_uris":{"android":"levelo://app?vid=36259f85-1afe-473e-9c9c-68f05fc95882","ios":"levelo://app?vid=36259f85-1afe-473e-9c9c-68f05fc95882"},"vehicle_type_id":"4","last_reported":1735564552,"current_range_meters":23200,"station_id":"ce4bgl92rcd13ifvqbq0","pricing_plan_id":"cebpf4jnsgd1na2vs0mg"},{"bike_id":"8d197623-433a-4c9c-a656-63e56f209eb2","system_id":"levelo_inurba_marseille","lat":43.26185,"lon":5.37466,"is_reserved":false,"is_disabled":false,"rental_uris":{"android":"levelo://app?vid=8d197623-433a-4c9c-a656-63e56f209eb2","ios":"levelo://app?vid=8d197623-433a-4c9c-a656-63e56f209eb2"},"vehicle_type_id":"4","last_reported":1735564552,"current_range_meters":37600,"station_id":"ce4bhgp2rcd13ifvqfc0","pricing_plan_id":"cebpf4jnsgd1na2vs0mg"},{"bike_id":"898ca41f-7bb6-47c0-bf28-3a08e6d561b5","system_id":"levelo_inurba_marseille","lat":43.30531,"lon":5.36526,"is_reserved":false,"is_disabled":false,"rental_uris":{"android":"levelo://app?vid=898ca41f-7bb6-47c0-bf28-3a08e6d561b5","ios":"levelo://app?vid=898ca41f-7bb6-47c0-bf28-3a08e6d561b5"},"vehicle_type_id":"4","last_reported":1735564552,"current_range_meters":17600,"station_id":"ce4bgs12rcd13ifvqcag","pricing_plan_id":"cebpf4jnsgd1na2vs0mg"},{"bike_id":"27bfa55e-0951-4587-9bd9-ec22efcce4a4","system_id":"levelo_inurba_marseille","lat":43.29176,"lon":5.37161,"is_reserved":false,"is_disabled":false,"rental_uris":{"android":"levelo://app?vid=27bfa55e-0951-4587-9bd9-ec22efcce4a4","ios":"levelo://app?vid=27bfa55e-0951-4587-9bd9-ec22efcce4a4"},"vehicle_type_id":"4","last_reported":1735564552,"current_range_meters":38800,"station_id":"ce4bha92rcd13ifvqeh0","pricing_plan_id":"cebpf4jnsgd1na2vs0mg"},{"bike_id":"dac94ecf-3203-4c89-acc0-21c14e979588","system_id":"levelo_inurba_marseille","lat":43.2668,"lon":5.38281,"is_reserved":false,"is_disabled":false,"rental_uris":{"android":"levelo://app?vid=dac94ecf-3203-4c89-acc0-21c14e979588","ios":"levelo://app?vid=dac94ecf-3203-4c89-acc0-21c14e979588"},"vehicle_type_id":"4","last_reported":1735564552,"current_range_meters":22000,"station_id":"ce4bhg92rcd13ifvqf90","pricing_plan_id":"cebpf4jnsgd1na2vs0mg"},{"bike_id":"91bb292a-df5c-4dce-bd7e-6647a12df4cd","system_id":"levelo_inurba_marseille","lat":43.26938,"lon":5.38627,"is_reserved":false,"is_disabled":false,"rental_uris":{"android":"levelo://app?vid=91bb292a-df5c-4dce-bd7e-6647a12df4cd","ios":"levelo://app?vid=91bb292a-df5c-4dce-bd7e-6647a12df4cd"},"vehicle_type_id":"4","last_reported":1735564552,"current_range_meters":39200,"station_id":"ce4bhh92rcd13ifvqfh0","pricing_plan_id":"cebpf4jnsgd1na2vs0mg"},{"bike_id":"dae442df-0334-4a2a-8901-28b38cfe10c7","system_id":"levelo_inurba_marseille","lat":43.23155,"lon":5.43724,"is_reserved":false,"is_disabled":false,"rental_uris":{"android":"levelo://app?vid=dae442df-0334-4a2a-8901-28b38cfe10c7","ios":"levelo://app?vid=dae442df-0334-4a2a-8901-28b38cfe10c7"},"vehicle_type_id":"4","last_reported":1735564552,"current_range_meters":36800,"station_id":"ce4bhmp2rcd13ifvqgog","pricing_plan_id":"cebpf4jnsgd1na2vs0mg"},{"bike_id":"9c42c59a-a990-48ee-91ac-32ebebcaabf5","system_id":"levelo_inurba_marseille","lat":43.27579,"lon":5.38431,"is_reserved":false,"is_disabled":false,"rental_uris":{"android":"levelo://app?vid=9c42c59a-a990-48ee-91ac-32ebebcaabf5","ios":"levelo://app?vid=9c42c59a-a990-48ee-91ac-32ebebcaabf5"},"vehicle_type_id":"4","last_reported":1735564552,"current_range_meters":39200,"station_id":"ce4bhh92rcd13ifvqfi0","pricing_plan_id":"cebpf4jnsgd1na2vs0mg"},{"bike_id":"14348531-e2c5-4669-8e8d-22780e655465","system_id":"levelo_inurba_marseille","lat":43.2583,"lon":5.39427,"is_reserved":false,"is_disabled":false,"rental_uris":{"android":"levelo://app?vid=14348531-e2c5-4669-8e8d-22780e655465","ios":"levelo://app?vid=14348531-e2c5-4669-8e8d-22780e655465"},"vehicle_type_id":"4","last_reported":1735564552,"current_range_meters":25200,"station_id":"ce4bhip2rcd13ifvqft0","pricing_plan_id":"cebpf4jnsgd1na2vs0mg"},{"bike_id":"6518c32e-68c8-433e-baa3-56074fbdc9ea","system_id":"levelo_inurba_marseille","lat":43.27205,"lon":5.39176,"is_reserved":false,"is_disabled":false,"rental_uris":{"android":"levelo://app?vid=6518c32e-68c8-433e-baa3-56074fbdc9ea","ios":"levelo://app?vid=6518c32e-68c8-433e-baa3-56074fbdc9ea"},"vehicle_type_id":"4","last_reported":1735564552,"current_range_meters":24800,"station_id":"ce4bhhp2rcd13ifvqfm0","pricing_plan_id":"cebpf4jnsgd1na2vs0mg"},{"bike_id":"aa626844-d990-48fc-bcb3-feef8e686b62","system_id":"levelo_inurba_marseille","lat":43.282722,"lon":5.35067,"is_reserved":false,"is_disabled":false,"rental_uris":{"android":"levelo://app?vid=aa626844-d990-48fc-bcb3-feef8e686b62","ios":"levelo://app?vid=aa626844-d990-48fc-bcb3-feef8e686b62"},"vehicle_type_id":"4","last_reported":1735564552,"current_range_meters":26000,"station_id":"ce4bhbp2rcd13ifvqerg","pricing_plan_id":"cebpf4jnsgd1na2vs0mg"},{"bike_id":"aad7d914-52b8-419b-b1a1-e5bb28ad9039","system_id":"levelo_inurba_marseille","lat":43.28265,"lon":5.35053,"is_reserved":false,"is_disabled":false,"rental_uris":{"android":"levelo://app?vid=aad7d914-52b8-419b-b1a1-e5bb28ad9039","ios":"levelo://app?vid=aad7d914-52b8-419b-b1a1-e5bb28ad9039"},"vehicle_type_id":"4","last_reported":1735564552,"current_range_meters":38000,"station_id":"ce4bhbp2rcd13ifvqerg","pricing_plan_id":"cebpf4jnsgd1na2vs0mg"},{"bike_id":"8034004d-7866-48c0-85b1-04f210d06057","system_id":"levelo_inurba_marseille","lat":43.27514,"lon":5.39049,"is_reserved":false,"is_disabled":false,"rental_uris":{"android":"levelo://app?vid=8034004d-7866-48c0-85b1-04f210d06057","ios":"levelo://app?vid=8034004d-7866-48c0-85b1-04f210d06057"},"vehicle_type_id":"4","last_reported":1735564552,"current_range_meters":29600,"station_id":"ce4bhgp2rcd13ifvqfe0","pricing_plan_id":"cebpf4jnsgd1na2vs0mg"},{"bike_id":"ddaa2fb9-dbb8-4086-8c94-de0ff251173c","system_id":"levelo_inurba_marseille","lat":43.27833,"lon":5.39212,"is_reserved":false,"is_disabled":false,"rental_uris":{"android":"levelo://app?vid=ddaa2fb9-dbb8-4086-8c94-de0ff251173c","ios":"levelo://app?vid=ddaa2fb9-dbb8-4086-8c94-de0ff251173c"},"vehicle_type_id":"4","last_reported":1735564552,"current_range_meters":38800,"station_id":"ce4bhjp2rcd13ifvqga0","pricing_plan_id":"cebpf4jnsgd1na2vs0mg"},{"bike_id":"c8eff024-600c-479e-8168-29cab272ce34","system_id":"levelo_inurba_marseille","lat":43.29015,"lon":5.3813,"is_reserved":false,"is_disabled":false,"rental_uris":{"android":"levelo://app?vid=c8eff024-600c-479e-8168-29cab272ce34","ios":"levelo://app?vid=c8eff024-600c-479e-8168-29cab272ce34"},"vehicle_type_id":"4","last_reported":1735564552,"current_range_meters":36400,"station_id":"ce4bh4p2rcd13ifvqe1g","pricing_plan_id":"cebpf4jnsgd1na2vs0mg"},{"bike_id":"5e57eef6-8100-463f-8b9f-a736bec4d03f","system_id":"levelo_inurba_marseille","lat":43.26955,"lon":5.38637,"is_reserved":false,"is_disabled":false,"rental_uris":{"android":"levelo://app?vid=5e57eef6-8100-463f-8b9f-a736bec4d03f","ios":"levelo://app?vid=5e57eef6-8100-463f-8b9f-a736bec4d03f"},"vehicle_type_id":"4","last_reported":1735564552,"current_range_meters":39200,"station_id":"ce4bhh92rcd13ifvqfh0","pricing_plan_id":"cebpf4jnsgd1na2vs0mg"},{"bike_id":"2d8584a7-198c-4f38-8028-273e48b9ecd3","system_id":"levelo_inurba_marseille","lat":43.25863,"lon":5.39904,"is_reserved":false,"is_disabled":false,"rental_uris":{"android":"levelo://app?vid=2d8584a7-198c-4f38-8028-273e48b9ecd3","ios":"levelo://app?vid=2d8584a7-198c-4f38-8028-273e48b9ecd3"},"vehicle_type_id":"4","last_reported":1735564552,"current_range_meters":39200,"station_id":"ce4bhl92rcd13ifvqghg","pricing_plan_id":"cebpf4jnsgd1na2vs0mg"},{"bike_id":"93b022d2-4c51-4f07-8eaf-65647b9d2946","system_id":"levelo_inurba_marseille","lat":43.284893,"lon":5.384181,"is_reserved":false,"is_disabled":false,"rental_uris":{"android":"levelo://app?vid=93b022d2-4c51-4f07-8eaf-65647b9d2946","ios":"levelo://app?vid=93b022d2-4c51-4f07-8eaf-65647b9d2946"},"vehicle_type_id":"4","last_reported":1735564552,"current_range_meters":27200,"station_id":"ce4bh512rcd13ifvqe3g","pricing_plan_id":"cebpf4jnsgd1na2vs0mg"},{"bike_id":"5c2def8a-2c65-42c6-ac07-783ced93d820","system_id":"levelo_inurba_marseille","lat":43.30785,"lon":5.37166,"is_reserved":false,"is_disabled":false,"rental_uris":{"android":"levelo://app?vid=5c2def8a-2c65-42c6-ac07-783ced93d820","ios":"levelo://app?vid=5c2def8a-2c65-42c6-ac07-783ced93d820"},"vehicle_type_id":"4","last_reported":1735564552,"current_range_meters":30000,"station_id":"ce4bgqh2rcd13ifvqc4g","pricing_plan_id":"cebpf4jnsgd1na2vs0mg"},{"bike_id":"4bb75e55-263b-4f00-8036-5d9fe1a445cf","system_id":"levelo_inurba_marseille","lat":43.270457,"lon":5.402723,"is_reserved":false,"is_disabled":false,"rental_uris":{"android":"levelo://app?vid=4bb75e55-263b-4f00-8036-5d9fe1a445cf","ios":"levelo://app?vid=4bb75e55-263b-4f00-8036-5d9fe1a445cf"},"vehicle_type_id":"4","last_reported":1735564552,"current_range_meters":38400,"station_id":"ce4bhk92rcd13ifvqgc0","pricing_plan_id":"cebpf4jnsgd1na2vs0mg"},{"bike_id":"751e64c4-bd1d-4c3f-97cb-dd892254acbe","system_id":"levelo_inurba_marseille","lat":43.26959,"lon":5.38636,"is_reserved":false,"is_disabled":false,"rental_uris":{"android":"levelo://app?vid=751e64c4-bd1d-4c3f-97cb-dd892254acbe","ios":"levelo://app?vid=751e64c4-bd1d-4c3f-97cb-dd892254acbe"},"vehicle_type_id":"4","last_reported":1735564552,"current_range_meters":19200,"station_id":"ce4bhh92rcd13ifvqfh0","pricing_plan_id":"cebpf4jnsgd1na2vs0mg"},{"bike_id":"ad69da91-2121-4f28-803c-5623f1854bee","system_id":"levelo_inurba_marseille","lat":43.2837,"lon":5.38629,"is_reserved":false,"is_disabled":false,"rental_uris":{"android":"levelo://app?vid=ad69da91-2121-4f28-803c-5623f1854bee","ios":"levelo://app?vid=ad69da91-2121-4f28-803c-5623f1854bee"},"vehicle_type_id":"4","last_reported":1735564552,"current_range_meters":38800,"station_id":"ce4bh492rcd13ifvqdvg","pricing_plan_id":"cebpf4jnsgd1na2vs0mg"},{"bike_id":"fe17c963-ee96-4f5b-8f42-7842d71e406c","system_id":"levelo_inurba_marseille","lat":43.25726,"lon":5.41143,"is_reserved":false,"is_disabled":false,"rental_uris":{"android":"levelo://app?vid=fe17c963-ee96-4f5b-8f42-7842d71e406c","ios":"levelo://app?vid=fe17c963-ee96-4f5b-8f42-7842d71e406c"},"vehicle_type_id":"4","last_reported":1735564552,"current_range_meters":17600,"station_id":"ce4bhkp2rcd13ifvqgd0","pricing_plan_id":"cebpf4jnsgd1na2vs0mg"},{"bike_id":"836a2fdc-5c7f-4eaf-8248-358a78ee4601","system_id":"levelo_inurba_marseille","lat":43.26217,"lon":5.37446,"is_reserved":false,"is_disabled":false,"rental_uris":{"android":"levelo://app?vid=836a2fdc-5c7f-4eaf-8248-358a78ee4601","ios":"levelo://app?vid=836a2fdc-5c7f-4eaf-8248-358a78ee4601"},"vehicle_type_id":"4","last_reported":1735564552,"current_range_meters":24400,"station_id":"ce4bhgp2rcd13ifvqfc0","pricing_plan_id":"cebpf4jnsgd1na2vs0mg"},{"bike_id":"3e09f37a-c256-4c56-93f3-2d3e33869821","system_id":"levelo_inurba_marseille","lat":43.2842,"lon":5.34992,"is_reserved":false,"is_disabled":false,"rental_uris":{"android":"levelo://app?vid=3e09f37a-c256-4c56-93f3-2d3e33869821","ios":"levelo://app?vid=3e09f37a-c256-4c56-93f3-2d3e33869821"},"vehicle_type_id":"4","last_reported":1735564552,"current_range_meters":18800,"station_id":"ce4bhbh2rcd13ifvqepg","pricing_plan_id":"cebpf4jnsgd1na2vs0mg"},{"bike_id":"56240292-1a59-439d-89e4-72e7cf869944","system_id":"levelo_inurba_marseille","lat":43.26956,"lon":5.38635,"is_reserved":false,"is_disabled":false,"rental_uris":{"android":"levelo://app?vid=56240292-1a59-439d-89e4-72e7cf869944","ios":"levelo://app?vid=56240292-1a59-439d-89e4-72e7cf869944"},"vehicle_type_id":"4","last_reported":1735564552,"current_range_meters":33600,"station_id":"ce4bhh92rcd13ifvqfh0","pricing_plan_id":"cebpf4jnsgd1na2vs0mg"},{"bike_id":"b8feb562-9ac0-4974-8ba7-4af547dd85da","system_id":"levelo_inurba_marseille","lat":43.26048,"lon":5.39402,"is_reserved":false,"is_disabled":false,"rental_uris":{"android":"levelo://app?vid=b8feb562-9ac0-4974-8ba7-4af547dd85da","ios":"levelo://app?vid=b8feb562-9ac0-4974-8ba7-4af547dd85da"},"vehicle_type_id":"4","last_reported":1735564552,"current_range_meters":38800,"station_id":"ce4bhh92rcd13ifvqfj0","pricing_plan_id":"cebpf4jnsgd1na2vs0mg"},{"bike_id":"46012680-f776-4d27-8d45-4bb31fb9dc2b","system_id":"levelo_inurba_marseille","lat":43.23074,"lon":5.35499,"is_reserved":false,"is_disabled":false,"rental_uris":{"android":"levelo://app?vid=46012680-f776-4d27-8d45-4bb31fb9dc2b","ios":"levelo://app?vid=46012680-f776-4d27-8d45-4bb31fb9dc2b"},"vehicle_type_id":"4","last_reported":1735564552,"current_range_meters":38800,"station_id":"cpo3342slgdg3j2ifvpg","pricing_plan_id":"cebpf4jnsgd1na2vs0mg"},{"bike_id":"2f47e280-ac67-460b-9330-da4dec68d87b","system_id":"levelo_inurba_marseille","lat":43.29192,"lon":5.3931,"is_reserved":false,"is_disabled":false,"rental_uris":{"android":"levelo://app?vid=2f47e280-ac67-460b-9330-da4dec68d87b","ios":"levelo://app?vid=2f47e280-ac67-460b-9330-da4dec68d87b"},"vehicle_type_id":"4","last_reported":1735564552,"current_range_meters":38800,"station_id":"ce4bh192rcd13ifvqdd0","pricing_plan_id":"cebpf4jnsgd1na2vs0mg"},{"bike_id":"83830a46-f3a4-4506-b996-32d3c1a80099","system_id":"levelo_inurba_marseille","lat":43.27999,"lon":5.40001,"is_reserved":false,"is_disabled":false,"rental_uris":{"android":"levelo://app?vid=83830a46-f3a4-4506-b996-32d3c1a80099","ios":"levelo://app?vid=83830a46-f3a4-4506-b996-32d3c1a80099"},"vehicle_type_id":"4","last_reported":1735564552,"current_range_meters":9200,"station_id":"ce4bho92rcd13ifvqh4g","pricing_plan_id":"cebpf4jnsgd1na2vs0mg"},{"bike_id":"2d3a85f1-722c-4472-b7fd-57f2f6b7115c","system_id":"levelo_inurba_marseille","lat":43.243882,"lon":5.370637,"is_reserved":false,"is_disabled":false,"rental_uris":{"android":"levelo://app?vid=2d3a85f1-722c-4472-b7fd-57f2f6b7115c","ios":"levelo://app?vid=2d3a85f1-722c-4472-b7fd-57f2f6b7115c"},"vehicle_type_id":"4","last_reported":1735564552,"current_range_meters":13600,"station_id":"ce4bhhh2rcd13ifvqfk0","pricing_plan_id":"cebpf4jnsgd1na2vs0mg"},{"bike_id":"9ba46895-ef65-4b7e-95ce-b8ea5f2fc438","system_id":"levelo_inurba_marseille","lat":43.2767,"lon":5.38859,"is_reserved":false,"is_disabled":false,"rental_uris":{"android":"levelo://app?vid=9ba46895-ef65-4b7e-95ce-b8ea5f2fc438","ios":"levelo://app?vid=9ba46895-ef65-4b7e-95ce-b8ea5f2fc438"},"vehicle_type_id":"4","last_reported":1735564552,"current_range_meters":38800,"station_id":"ce4bhi12rcd13ifvqfo0","pricing_plan_id":"cebpf4jnsgd1na2vs0mg"},{"bike_id":"80924a51-84d5-4a88-941f-dcc238b3ab7b","system_id":"levelo_inurba_marseille","lat":43.24138,"lon":5.36419,"is_reserved":false,"is_disabled":false,"rental_uris":{"android":"levelo://app?vid=80924a51-84d5-4a88-941f-dcc238b3ab7b","ios":"levelo://app?vid=80924a51-84d5-4a88-941f-dcc238b3ab7b"},"vehicle_type_id":"4","last_reported":1735564552,"current_range_meters":8800,"station_id":"cpo36qri1sfpv3e86is0","pricing_plan_id":"cebpf4jnsgd1na2vs0mg"},{"bike_id":"c7a16261-fcab-4d31-9a7c-3b5289d9e38c","system_id":"levelo_inurba_marseille","lat":43.27309,"lon":5.39119,"is_reserved":false,"is_disabled":false,"rental_uris":{"android":"levelo://app?vid=c7a16261-fcab-4d31-9a7c-3b5289d9e38c","ios":"levelo://app?vid=c7a16261-fcab-4d31-9a7c-3b5289d9e38c"},"vehicle_type_id":"4","last_reported":1735564552,"current_range_meters":38800,"station_id":"ce4bhgp2rcd13ifvqfe0","pricing_plan_id":"cebpf4jnsgd1na2vs0mg"},{"bike_id":"1ec98d33-34ee-450f-8520-f5660d2fe80b","system_id":"levelo_inurba_marseille","lat":43.30142,"lon":5.38085,"is_reserved":false,"is_disabled":false,"rental_uris":{"android":"levelo://app?vid=1ec98d33-34ee-450f-8520-f5660d2fe80b","ios":"levelo://app?vid=1ec98d33-34ee-450f-8520-f5660d2fe80b"},"vehicle_type_id":"4","last_reported":1735564552,"current_range_meters":33200,"station_id":"ce4bgjp2rcd13ifvqbh0","pricing_plan_id":"cebpf4jnsgd1na2vs0mg"},{"bike_id":"5fa2bc43-7c81-45c6-a7af-9e700d12d05b","system_id":"levelo_inurba_marseille","lat":43.30906,"lon":5.36857,"is_reserved":false,"is_disabled":false,"rental_uris":{"android":"levelo://app?vid=5fa2bc43-7c81-45c6-a7af-9e700d12d05b","ios":"levelo://app?vid=5fa2bc43-7c81-45c6-a7af-9e700d12d05b"},"vehicle_type_id":"4","last_reported":1735564552,"current_range_meters":30000,"station_id":"ce4bgn92rcd13ifvqbvg","pricing_plan_id":"cebpf4jnsgd1na2vs0mg"},{"bike_id":"234a4bd0-5f4d-40cc-b2a5-328422fa4e71","system_id":"levelo_inurba_marseille","lat":43.29783,"lon":5.38112,"is_reserved":false,"is_disabled":false,"rental_uris":{"android":"levelo://app?vid=234a4bd0-5f4d-40cc-b2a5-328422fa4e71","ios":"levelo://app?vid=234a4bd0-5f4d-40cc-b2a5-328422fa4e71"},"vehicle_type_id":"4","last_reported":1735564552,"current_range_meters":30000,"station_id":"ce4bgip2rcd13ifvqbb0","pricing_plan_id":"cebpf4jnsgd1na2vs0mg"},{"bike_id":"c4fa8b26-bff7-4443-9f60-4eb78ee47219","system_id":"levelo_inurba_marseille","lat":43.337444,"lon":5.374475,"is_reserved":false,"is_disabled":false,"rental_uris":{"android":"levelo://app?vid=c4fa8b26-bff7-4443-9f60-4eb78ee47219","ios":"levelo://app?vid=c4fa8b26-bff7-4443-9f60-4eb78ee47219"},"vehicle_type_id":"4","last_reported":1735564552,"current_range_meters":28000,"station_id":"","pricing_plan_id":"cebpf4jnsgd1na2vs0mg"},{"bike_id":"faf56cb3-1d9f-4164-acf2-2b22d7c88f2e","system_id":"levelo_inurba_marseille","lat":43.27379,"lon":5.36263,"is_reserved":false,"is_disabled":false,"rental_uris":{"android":"levelo://app?vid=faf56cb3-1d9f-4164-acf2-2b22d7c88f2e","ios":"levelo://app?vid=faf56cb3-1d9f-4164-acf2-2b22d7c88f2e"},"vehicle_type_id":"4","last_reported":1735564552,"current_range_meters":3600,"station_id":"ce4bhbh2rcd13ifvqeo0","pricing_plan_id":"cebpf4jnsgd1na2vs0mg"},{"bike_id":"5919cc9c-2ade-47d5-88a5-f544a01d9d14","system_id":"levelo_inurba_marseille","lat":43.317132,"lon":5.377522,"is_reserved":false,"is_disabled":false,"rental_uris":{"android":"levelo://app?vid=5919cc9c-2ade-47d5-88a5-f544a01d9d14","ios":"levelo://app?vid=5919cc9c-2ade-47d5-88a5-f544a01d9d14"},"vehicle_type_id":"4","last_reported":1735564552,"current_range_meters":38800,"station_id":"ce4bgth2rcd13ifvqch0","pricing_plan_id":"cebpf4jnsgd1na2vs0mg"},