{"last_updated":1735388148,"ttl":60,"version":"2.2","data":{"bikes":[{"bike_id":"a9b5fd0e-1baf-45fb-bc8f-7ad95357031b","system_id":"levelo_inurba_marseille","lat":43.29938,"lon":5.37463,"is_reserved":false,"is_disabled":false,"rental_uris":{"android":"levelo://app?vid=a9b5fd0e-1baf-45fb-bc8f-7ad95357031b","ios":"levelo://app?vid=a9b5fd0e-1baf-45fb-bc8f-7ad95357031b"},"vehicle_type_id":"4","last_reported":1735388148,"current_range_meters":38800,"station_id":"ce4bgjh2rcd13ifvqbg0","pricing_plan_id":"cebpf4jnsgd1na2vs0mg"},{"bike_id":"5dfcc53f-a494-4b90-a978-9fd0de924f9a","system_id":"levelo_inurba_marseille","lat":43.28856,"lon":5.35835,"is_reserved":false,"is_disabled":false,"rental_uris":{"android":"levelo://app?vid=5dfcc53f-a494-4b90-a978-9fd0de924f9a","ios":"levelo://app?vid=5dfcc53f-a494-4b90-a978-9fd0de924f9a"},"vehicle_type_id":"4","last_reported":1735388148,"current_range_meters":27200,"station_id":"ce4bhb12rcd13ifvqem0","pricing_plan_id":"cebpf4jnsgd1na2vs0mg"},{"bike_id":"b37ae28c-5660-4c59-8b49-a0b00d609b48","system_id":"levelo_inurba_marseille","lat":43.29511,"lon":5.37512,"is_reserved":false,"is_disabled":false,"rental_uris":{"android":"levelo://app?vid=b37ae28c-5660-4c59-8b49-a0b00d609b48","ios":"levelo://app?vid=b37ae28c-5660-4c59-8b49-a0b00d609b48"},"vehicle_type_id":"4","last_reported":1735388148,"current_range_meters":18000,"station_id":"ce4bgkp2rcd13ifvqbmg","pricing_plan_id":"cebpf4jnsgd1na2vs0mg"},{"bike_id":"ea199cab-5a00-4a5e-963d-5a87e75a7433","system_id":"levelo_inurba_marseille","lat":43.24389,"lon":5.37057,"is_reserved":false,"is_disabled":false,"rental_uris":{"android":"levelo://app?vid=ea199cab-5a00-4a5e-963d-5a87e75a7433","ios":"levelo://app?vid=ea199cab-5a00-4a5e-963d-5a87e75a7433"},"vehicle_type_id":"4","last_reported":1735388148,"current_range_meters":37600,"station_id":"ce4bhhh2rcd13ifvqfk0","pricing_plan_id":"cebpf4jnsgd1na2vs0mg"},{"bike_id":"4def4882-e804-4c7f-ad72-1d6041f29fab","system_id":"levelo_inurba_marseille","lat":43.28932,"lon":5.36673,"is_reserved":false,"is_disabled":false,"rental_uris":{"android":"levelo://app?vid=4def4882-e804-4c7f-ad72-1d6041f29fab","ios":"levelo://app?vid=4def4882-e804-4c7f-ad72-1d6041f29fab"},"vehicle_type_id":"4","last_reported":1735388148,"current_range_meters":22400,"station_id":"ce4bhap2rcd13ifvqek0","pricing_plan_id":"cebpf4jnsgd1na2vs0mg"},{"bike_id":"17467958-a151-40f2-98e4-bb65ea00e49d","system_id":"levelo_inurba_marseille","lat":43.27946,"lon":5.41059,"is_reserved":false,"is_disabled":false,"rental_uris":{"android":"levelo://app?vid=17467958-a151-40f2-98e4-bb65ea00e49d","ios":"levelo://app?vid=17467958-a151-40f2-98e4-bb65ea00e49d"},"vehicle_type_id":"4","last_reported":1735388148,"current_range_meters":36800,"station_id":"ce4bhnp2rcd13ifvqh0g","pricing_plan_id":"cebpf4jnsgd1na2vs0mg"},{"bike_id":"7db7c03c-b4e3-4ed1-83ef-2ed91eff7f64","system_id":"levelo_inurba_marseille","lat":43.32365,"lon":5.38885,"is_reserved":false,"is_disabled":false,"rental_uris":{"android":"levelo://app?vid=7db7c03c-b4e3-4ed1-83ef-2ed91eff7f64","ios":"levelo://app?vid=7db7c03c-b4e3-4ed1-83ef-2ed91eff7f64"},"vehicle_type_id":"4","last_reported":1735388148,"current_range_meters":24000,"station_id":"ce4bhqp2rcd13ifvqhog","pricing_plan_id":"cebpf4jnsgd1na2vs0mg"},{"bike_id":"3991aac2-ec7f-43c8-801f-23e11845f2d6","system_id":"levelo_inurba_marseille","lat":43.28155,"lon":5.42641,"is_reserved":false,"is_disabled":false,"rental_uris":{"android":"levelo://app?vid=3991aac2-ec7f-43c8-801f-23e11845f2d6","ios":"levelo://app?vid=3991aac2-ec7f-43c8-801f-23e11845f2d6"},"vehicle_type_id":"4","last_reported":1735388148,"current_range_meters":38800,"station_id":"ce4bhnh2rcd13ifvqgug","pricing_plan_id":"cebpf4jnsgd1na2vs0mg"},{"bike_id":"8a3f8241-c747-4eda-a74f-568e039cd7c0","system_id":"levelo_inurba_marseille","lat":43.27423,"lon":5.39417,"is_reserved":false,"is_disabled":false,"rental_uris":{"android":"levelo://app?vid=8a3f8241-c747-4eda-a74f-568e039cd7c0","ios":"levelo://app?vid=8a3f8241-c747-4eda-a74f-568e039cd7c0"},"vehicle_type_id":"4","last_reported":1735388148,"current_range_meters":22400,"station_id":"ce4bhdp2rcd13ifvqf20","pricing_plan_id":"cebpf4jnsgd1na2vs0mg"},{"bike_id":"aa910906-3ca2-4107-80e1-4fe46d1472a6","system_id":"levelo_inurba_marseille","lat":43.32038,"lon":5.41573,"is_reserved":false,"is_disabled":false,"rental_uris":{"android":"levelo://app?vid=aa910906-3ca2-4107-80e1-4fe46d1472a6","ios":"levelo://app?vid=aa910906-3ca2-4107-80e1-4fe46d1472a6"},"vehicle_type_id":"4","last_reported":1735388148,"current_range_meters":30400,"station_id":"ce4bhq92rcd13ifvqhkg","pricing_plan_id":"cebpf4jnsgd1na2vs0mg"},{"bike_id":"7086282e-a571-475e-9869-4f96b3bd7481","system_id":"levelo_inurba_marseille","lat":43.29575,"lon":5.37505,"is_reserved":false,"is_disabled":false,"rental_uris":{"android":"levelo://app?vid=7086282e-a571-475e-9869-4f96b3bd7481","ios":"levelo://app?vid=7086282e-a571-475e-9869-4f96b3bd7481"},"vehicle_type_id":"4","last_reported":1735388148,"current_range_meters":36400,"station_id":"ce4bgh92rcd13ifvqb50","pricing_plan_id":"cebpf4jnsgd1na2vs0mg"},{"bike_id":"f4ab519a-4bf7-44ef-a033-b806cea138a3","system_id":"levelo_inurba_marseille","lat":43.24053,"lon":5.37688,"is_reserved":false,"is_disabled":false,"rental_uris":{"android":"levelo://app?vid=f4ab519a-4bf7-44ef-a033-b806cea138a3","ios":"levelo://app?vid=f4ab519a-4bf7-44ef-a033-b806cea138a3"},"vehicle_type_id":"4","last_reported":1735388148,"current_range_meters":35200,"station_id":"","pricing_plan_id":"cebpf4jnsgd1na2vs0mg"},{"bike_id":"15dbc128-9fc6-4e82-9c2b-29267fff5efa","system_id":"levelo_inurba_marseille","lat":43.27361,"lon":5.36252,"is_reserved":false,"is_disabled":false,"rental_uris":{"android":"levelo://app?vid=15dbc128-9fc6-4e82-9c2b-29267fff5efa","ios":"levelo://app?vid=15dbc128-9fc6-4e82-9c2b-29267fff5efa"},"vehicle_type_id":"4","last_reported":1735388148,"current_range_meters":30400,"station_id":"ce4bhbh2rcd13ifvqeo0","pricing_plan_id":"cebpf4jnsgd1na2vs0mg"},{"bike_id":"8b1527ba-8415-4a6b-9e6f-b52c82fe034b","system_id":"levelo_inurba_marseille","lat":43.29852,"lon":5.36289,"is_reserved":false,"is_disabled":true,"rental_uris":{"android":"levelo://app?vid=8b1527ba-8415-4a6b-9e6f-b52c82fe034b","ios":"levelo://app?vid=8b1527ba-8415-4a6b-9e6f-b52c82fe034b"},"vehicle_type_id":"4","last_reported":1735388148,"current_range_meters":1600,"station_id":"ce4bgpp2rcd13ifvqc3g","pricing_plan_id":"cebpf4jnsgd1na2vs0mg"},{"bike_id":"4b0fd93f-ab44-4d17-9609-4abb396d054c","system_id":"levelo_inurba_marseille","lat":43.231904,"lon":5.355551,"is_reserved":false,"is_disabled":false,"rental_uris":{"android":"levelo://app?vid=4b0fd93f-ab44-4d17-9609-4abb396d054c","ios":"levelo://app?vid=4b0fd93f-ab44-4d17-9609-4abb396d054c"},"vehicle_type_id":"4","last_reported":1735388148,"current_range_meters":35600,"station_id":"ce4bhu92rcd13ifvqi70","pricing_plan_id":"cebpf4jnsgd1na2vs0mg"},{"bike_id":"7e9b58ee-83f7-4fc1-8cf2-cdc5ff9690a0","system_id":"levelo_inurba_marseille","lat":43.269362,"lon":5.402704,"is_reserved":false,"is_disabled":false,"rental_uris":{"android":"levelo://app?vid=7e9b58ee-83f7-4fc1-8cf2-cdc5ff9690a0","ios":"levelo://app?vid=7e9b58ee-83f7-4fc1-8cf2-cdc5ff9690a0"},"vehicle_type_id":"4","last_reported":1735388148,"current_range_meters":30000,"station_id":"cjm6bp8fraef2m0cb0m0","pricing_plan_id":"cebpf4jnsgd1na2vs0mg"},{"bike_id":"15e428a4-dc06-46cf-93cd-31f975a6ed67","system_id":"levelo_inurba_marseille","lat":43.24653,"lon":5.38897,"is_reserved":false,"is_disabled":false,"rental_uris":{"android":"levelo://app?vid=15e428a4-dc06-46cf-93cd-31f975a6ed67","ios":"levelo://app?vid=15e428a4-dc06-46cf-93cd-31f975a6ed67"},"vehicle_type_id":"4","last_reported":1735388148,"current_range_meters":39200,"station_id":"ce4bhg12rcd13ifvqf60","pricing_plan_id":"cebpf4jnsgd1na2vs0mg"},{"bike_id":"ab57d468-d63f-40ce-aa8f-340a9e1a74ea","system_id":"levelo_inurba_marseille","lat":43.27661,"lon":5.38903,"is_reserved":false,"is_disabled":false,"rental_uris":{"android":"levelo://app?vid=ab57d468-d63f-40ce-aa8f-340a9e1a74ea","ios":"levelo://app?vid=ab57d468-d63f-40ce-aa8f-340a9e1a74ea"},"vehicle_type_id":"4","last_reported":1735388148,"current_range_meters":38000,"station_id":"ce4bhi12rcd13ifvqfo0","pricing_plan_id":"cebpf4jnsgd1na2vs0mg"},{"bike_id":"34ab0130-1f11-45e3-9d23-c0102913b688","system_id":"levelo_inurba_marseille","lat":43.32351,"lon":5.38923,"is_reserved":false,"is_disabled":false,"rental_uris":{"android":"levelo://app?vid=34ab0130-1f11-45e3-9d23-c0102913b688","ios":"levelo://app?vid=34ab0130-1f11-45e3-9d23-c0102913b688"},"vehicle_type_id":"4","last_reported":1735388148,"current_range_meters":33200,"station_id":"ce4bhqp2rcd13ifvqhog","pricing_plan_id":"cebpf4jnsgd1na2vs0mg"},{"bike_id":"8449818b-2fc9-4431-9a2b-fc64996e29a6","system_id":"levelo_inurba_marseille","lat":43.23151,"lon":5.43718,"is_reserved":false,"is_disabled":false,"rental_uris":{"android":"levelo://app?vid=8449818b-2fc9-4431-9a2b-fc64996e29a6","ios":"levelo://app?vid=8449818b-2fc9-4431-9a2b-fc64996e29a6"},"vehicle_type_id":"4","last_reported":1735388148,"current_range_meters":24800,"station_id":"ce4bhmp2rcd13ifvqgog","pricing_plan_id":"cebpf4jnsgd1na2vs0mg"},{"bike_id":"e3e1f527-7670-429c-9e33-f18200f2c82a","system_id":"levelo_inurba_marseille","lat":43.25495,"lon":5.37653,"is_reserved":false,"is_disabled":false,"rental_uris":{"android":"levelo://app?vid=e3e1f527-7670-429c-9e33-f18200f2c82a","ios":"levelo://app?vid=e3e1f527-7670-429c-9e33-f18200f2c82a"},"vehicle_type_id":"4","last_reported":1735388148,"current_range_meters":27600,"station_id":"ce4bhh12rcd13ifvqff0","pricing_plan_id":"cebpf4jnsgd1na2vs0mg"},{"bike_id":"54e82adf-653a-40bc-8212-b0e67d34d16f","system_id":"levelo_inurba_marseille","lat":43.29924,"lon":5.36547,"is_reserved":false,"is_disabled":false,"rental_uris":{"android":"levelo://app?vid=54e82adf-653a-40bc-8212-b0e67d34d16f","ios":"levelo://app?vid=54e82adf-653a-40bc-8212-b0e67d34d16f"},"vehicle_type_id":"4","last_reported":1735388148,"current_range_meters":29600,"station_id":"ce4bgm92rcd13ifvqbr0","pricing_plan_id":"cebpf4jnsgd1na2vs0mg"},{"bike_id":"ef0c2a07-1396-49b8-9101-0d549d0b4b4d","system_id":"levelo_inurba_marseille","lat":43.28264,"lon":5.35064,"is_reserved":false,"is_disabled":false,"rental_uris":{"android":"levelo://app?vid=ef0c2a07-1396-49b8-9101-0d549d0b4b4d","ios":"levelo://app?vid=ef0c2a07-1396-49b8-9101-0d549d0b4b4d"},"vehicle_type_id":"4","last_reported":1735388148,"current_range_meters":26800,"station_id":"ce4bhbp2rcd13ifvqerg","pricing_plan_id":"cebpf4jnsgd1na2vs0mg"},{"bike_id":"857344dd-6be1-4d34-90e7-6f62afbbef2e","system_id":"levelo_inurba_marseille","lat":43.32104,"lon":5.36776,"is_reserved":false,"is_disabled":false,"rental_uris":{"android":"levelo://app?vid=857344dd-6be1-4d34-90e7-6f62afbbef2e","ios":"levelo://app?vid=857344dd-6be1-4d34-90e7-6f62afbbef2e"},"vehicle_type_id":"4","last_reported":1735388148,"current_range_meters":33200,"station_id":"ce4bhrh2rcd13ifvqhug","pricing_plan_id":"cebpf4jnsgd1na2vs0mg"},{"bike_id":"a080718a-23c4-4f2b-a99b-697a94a3904c","system_id":"levelo_inurba_marseille","lat":43.29268,"lon":5.40154,"is_reserved":false,"is_disabled":false,"rental_uris":{"android":"levelo://app?vid=a080718a-23c4-4f2b-a99b-697a94a3904c","ios":"levelo://app?vid=a080718a-23c4-4f2b-a99b-697a94a3904c"},"vehicle_type_id":"4","last_reported":1735388148,"current_range_meters":36400,"station_id":"ce4bh312rcd13ifvqdk0","pricing_plan_id":"cebpf4jnsgd1na2vs0mg"},{"bike_id":"595b770a-6283-4c5a-81d3-40f82231fc59","system_id":"levelo_inurba_marseille","lat":43.28476,"lon":5.38431,"is_reserved":false,"is_disabled":false,"rental_uris":{"android":"levelo://app?vid=595b770a-6283-4c5a-81d3-40f82231fc59","ios":"levelo://app?vid=595b770a-6283-4c5a-81d3-40f82231fc59"},"vehicle_type_id":"4","last_reported":1735388148,"current_range_meters":28400,"station_id":"ce4bh512rcd13ifvqe3g","pricing_plan_id":"cebpf4jnsgd1na2vs0mg"},{"bike_id":"1bd5c776-e736-424a-ba1d-5e52ff178c32","system_id":"levelo_inurba_marseille","lat":43.30647,"lon":5.4008,"is_reserved":false,"is_disabled":false,"rental_uris":{"android":"levelo://app?vid=1bd5c776-e736-424a-ba1d-5e52ff178c32","ios":"levelo://app?vid=1bd5c776-e736-424a-ba1d-5e52ff178c32"},"vehicle_type_id":"4","last_reported":1735388148,"current_range_meters":25200,"station_id":"ce4bh112rcd13ifvqda0","pricing_plan_id":"cebpf4jnsgd1na2vs0mg"},{"bike_id":"b9ea774d-d3d2-41ac-985a-481ff4efd6fd","system_id":"levelo_inurba_marseille","lat":43.29253,"lon":5.4091,"is_reserved":false,"is_disabled":false,"rental_uris":{"android":"levelo://app?vid=b9ea774d-d3d2-41ac-985a-481ff4efd6fd","ios":"levelo://app?vid=b9ea774d-d3d2-41ac-985a-481ff4efd6fd"},"vehicle_type_id":"4","last_reported":1735388148,"current_range_meters":36800,"station_id":"ce4bh192rcd13ifvqdc0","pricing_plan_id":"cebpf4jnsgd1na2vs0mg"},{"bike_id":"25d5267a-def5-45dc-a9cf-29b34bdb713a","system_id":"levelo_inurba_marseille","lat":43.29252,"lon":5.38443,"is_reserved":false,"is_disabled":false,"rental_uris":{"android":"levelo://app?vid=25d5267a-def5-45dc-a9cf-29b34bdb713a","ios":"levelo://app?vid=25d5267a-def5-45dc-a9cf-29b34bdb713a"},"vehicle_type_id":"4","last_reported":1735388148,"current_range_meters":33600,"station_id":"ce4bh692rcd13ifvqea0","pricing_plan_id":"cebpf4jnsgd1na2vs0mg"},{"bike_id":"ad66ce9d-e2b2-4064-ae7f-fe87403c632b","system_id":"levelo_inurba_marseille","lat":43.23066,"lon":5.35493,"is_reserved":false,"is_disabled":false,"rental_uris":{"android":"levelo://app?vid=ad66ce9d-e2b2-4064-ae7f-fe87403c632b","ios":"levelo://app?vid=ad66ce9d-e2b2-4064-ae7f-fe87403c632b"},"vehicle_type_id":"4","last_reported":1735388148,"current_range_meters":22000,"station_id":"cpo3342slgdg3j2ifvpg","pricing_plan_id":"cebpf4jnsgd1na2vs0mg"},{"bike_id":"b0cb0481-2892-4c75-8791-971bb7d87d21","system_id":"levelo_inurba_marseille","lat":43.29439,"lon":5.39751,"is_reserved":false,"is_disabled":false,"rental_uris":{"android":"levelo://app?vid=b0cb0481-2892-4c75-8791-971bb7d87d21","ios":"levelo://app?vid=b0cb0481-2892-4c75-8791-971bb7d87d21"},"vehicle_type_id":"4","last_reported":1735388148,"current_range_meters":38800,"station_id":"ce4bh3h2rcd13ifvqdo0","pricing_plan_id":"cebpf4jnsgd1na2vs0mg"},{"bike_id":"b889fa83-084c-4ad1-b4df-77dec02e8a97","system_id":"levelo_inurba_marseille","lat":43.2588,"lon":5.3989,"is_reserved":false,"is_disabled":false,"rental_uris":{"android":"levelo://app?vid=b889fa83-084c-4ad1-b4df-77dec02e8a97","ios":"levelo://app?vid=b889fa83-084c-4ad1-b4df-77dec02e8a97"},"vehicle_type_id":"4","last_reported":1735388148,"current_range_meters":38800,"station_id":"ce4bhl92rcd13ifvqghg","pricing_plan_id":"cebpf4jnsgd1na2vs0mg"},{"bike_id":"c61bda40-15e5-4302-9d86-e9e392b98bda","system_id":"levelo_inurba_marseille","lat":43.29105,"lon":5.38134,"is_reserved":false,"is_disabled":false,"rental_uris":{"android":"levelo://app?vid=c61bda40-15e5-4302-9d86-e9e392b98bda","ios":"levelo://app?vid=c61bda40-15e5-4302-9d86-e9e392b98bda"},"vehicle_type_id":"4","last_reported":1735388148,"current_range_meters":36400,"station_id":"ce4bh512rcd13ifvqe2g","pricing_plan_id":"cebpf4jnsgd1na2vs0mg"},{"bike_id":"90c01f02-041c-4ec4-b216-01e97e002a32","system_id":"levelo_inurba_marseille","lat":43.28565,"lon":5.39497,"is_reserved":false,"is_disabled":false,"rental_uris":{"android":"levelo://app?vid=90c01f02-041c-4ec4-b216-01e97e002a32","ios":"levelo://app?vid=90c01f02-041c-4ec4-b216-01e97e002a32"},"vehicle_type_id":"4","last_reported":1735388148,"current_range_meters":9600,"station_id":"ce4bh292rcd13ifvqdg0","pricing_plan_id":"cebpf4jnsgd1na2vs0mg"},{"bike_id":"a3dc1c5e-f655-424e-985b-ccf5ac692da8","system_id":"levelo_inurba_marseille","lat":43.28613,"lon":5.35107,"is_reserved":false,"is_disabled":false,"rental_uris":{"android":"levelo://app?vid=a3dc1c5e-f655-424e-985b-ccf5ac692da8","ios":"levelo://app?vid=a3dc1c5e-f655-424e-985b-ccf5ac692da8"},"vehicle_type_id":"4","last_reported":1735388148,"current_range_meters":27200,"station_id":"ce4bhch2rcd13ifvqeug","pricing_plan_id":"cebpf4jnsgd1na2vs0mg"},{"bike_id":"d0533ccb-11ce-46dc-9cca-daa9f7a4985a","system_id":"levelo_inurba_marseille","lat":43.29554,"lon":5.42281,"is_reserved":false,"is_disabled":false,"rental_uris":{"android":"levelo://app?vid=d0533ccb-11ce-46dc-9cca-daa9f7a4985a","ios":"levelo://app?vid=d0533ccb-11ce-46dc-9cca-daa9f7a4985a"},"vehicle_type_id":"4","last_reported":1735388148,"current_range_meters":38800,"station_id":"ce4bhph2rcd13ifvqhdg","pricing_plan_id":"cebpf4jnsgd1na2vs0mg"},{"bike_id":"755bba0c-cdd2-4583-a68c-036811712bb0","system_id":"levelo_inurba_marseille","lat":43.32363,"lon":5.38887,"is_reserved":false,"is_disabled":false,"rental_uris":{"android":"levelo://app?vid=755bba0c-cdd2-4583-a68c-036811712bb0","ios":"levelo://app?vid=755bba0c-cdd2-4583-a68c-036811712bb0"},"vehicle_type_id":"4","last_reported":1735388148,"current_range_meters":29600,"station_id":"ce4bhqp2rcd13ifvqhog","pricing_plan_id":"cebpf4jnsgd1na2vs0mg"},{"bike_id":"daef0f94-988f-4230-b125-62ce3474d24c","system_id":"levelo_inurba_marseille","lat":43.27655,"lon":5.38901,"is_reserved":false,"is_disabled":false,"rental_uris":{"android":"levelo://app?vid=daef0f94-988f-4230-b125-62ce3474d24c","ios":"levelo://app?vid=daef0f94-988f-4230-b125-62ce3474d24c"},"vehicle_type_id":"4","last_reported":1735388148,"current_range_meters":37600,"station_id":"ce4bhi12rcd13ifvqfo0","pricing_plan_id":"cebpf4jnsgd1na2vs0mg"},{"bike_id":"a69d1136-5aef-4753-aff3-1201a568ad37","system_id":"levelo_inurba_marseille","lat":43.28271,"lon":5.35068,"is_reserved":false,"is_disabled":false,"rental_uris":{"android":"levelo://app?vid=a69d1136-5aef-4753-aff3-1201a568ad37","ios":"levelo://app?vid=a69d1136-5aef-4753-aff3-1201a568ad37"},"vehicle_type_id":"4","last_reported":1735388148,"current_range_meters":8400,"station_id":"ce4bhbp2rcd13ifvqerg","pricing_plan_id":"cebpf4jnsgd1na2vs0mg"},{"bike_id":"df505920-b7e1-4f0a-8645-ba4405f002e4","system_id":"levelo_inurba_marseille","lat":43.2974,"lon":5.37696,"is_reserved":false,"is_disabled":false,"rental_uris":{"android":"levelo://app?vid=df505920-b7e1-4f0a-8645-ba4405f002e4","ios":"levelo://app?vid=df505920-b7e1-4f0a-8645-ba4405f002e4"},"vehicle_type_id":"4","last_reported":1735388148,"current_range_meters":20800,"station_id":"ce4bgkh2rcd13ifvqbl0","pricing_plan_id":"cebpf4jnsgd1na2vs0mg"},{"bike_id":"879d8d2d-aea4-4c68-8405-16edb1cace8d","system_id":"levelo_inurba_marseille","lat":43.28265,"lon":5.3509,"is_reserved":false,"is_disabled":false,"rental_uris":{"android":"levelo://app?vid=879d8d2d-aea4-4c68-8405-16edb1cace8d","ios":"levelo://app?vid=879d8d2d-aea4-4c68-8405-16edb1cace8d"},"vehicle_type_id":"4","last_reported":1735388148,"current_range_meters":38800,"station_id":"ce4bhbp2rcd13ifvqerg","pricing_plan_id":"cebpf4jnsgd1na2vs0mg"},{"bike_id":"caab34a4-5264-4b72-a12f-e55159fe93b6","system_id":"levelo_inurba_marseille","lat":43.27063,"lon":5.42288,"is_reserved":false,"is_disabled":false,"rental_uris":{"android":"levelo://app?vid=caab34a4-5264-4b72-a12f-e55159fe93b6","ios":"levelo://app?vid=caab34a4-5264-4b72-a12f-e55159fe93b6"},"vehicle_type_id":"4","last_reported":1735388148,"current_range_meters":29600,"station_id":"ce4bhk92rcd13ifvqgb0","pricing_plan_id":"cebpf4jnsgd1na2vs0mg"},{"bike_id":"fe50a5ce-c05b-410c-af59-7143f0371395","system_id":"levelo_inurba_marseille","lat":43.30121,"lon":5.39855,"is_reserved":false,"is_disabled":false,"rental_uris":{"android":"levelo://app?vid=fe50a5ce-c05b-410c-af59-7143f0371395","ios":"levelo://app?vid=fe50a5ce-c05b-410c-af59-7143f0371395"},"vehicle_type_id":"4","last_reported":1735388148,"current_range_meters":37600,"station_id":"ce4bh0h2rcd13ifvqd40","pricing_plan_id":"cebpf4jnsgd1na2vs0mg"},{"bike_id":"e5582f1b-2fc8-434e-aeb6-8b809add67ca","system_id":"levelo_inurba_marseille","lat":43.27997,"lon":5.4166,"is_reserved":false,"is_disabled":false,"rental_uris":{"android":"levelo://app?vid=e5582f1b-2fc8-434e-aeb6-8b809add67ca","ios":"levelo://app?vid=e5582f1b-2fc8-434e-aeb6-8b809add67ca"},"vehicle_type_id":"4","last_reported":1735388148,"current_range_meters":37600,"station_id":"ce4bho12rcd13ifvqh1g","pricing_plan_id":"cebpf4jnsgd1na2vs0mg"},{"bike_id":"54512a6c-6aa0-4c70-b645-05855cc084ea","system_id":"levelo_inurba_marseille","lat":43.3236,"lon":5.38889,"is_reserved":false,"is_disabled":false,"rental_uris":{"android":"levelo://app?vid=54512a6c-6aa0-4c70-b645-05855cc084ea","ios":"levelo://app?vid=54512a6c-6aa0-4c70-b645-05855cc084ea"},"vehicle_type_id":"4","last_reported":1735388148,"current_range_meters":30000,"station_id":"ce4bhqp2rcd13ifvqhog","pricing_plan_id":"cebpf4jnsgd1na2vs0mg"},{"bike_id":"efdc8661-a0f3-4d19-90da-c58f06d18d3a","system_id":"levelo_inurba_marseille","lat":43.30648,"lon":5.36858,"is_reserved":false,"is_disabled":false,"rental_uris":{"android":"levelo://app?vid=efdc8661-a0f3-4d19-90da-c58f06d18d3a","ios":"levelo://app?vid=efdc8661-a0f3-4d19-90da-c58f06d18d3a"},"vehicle_type_id":"4","last_reported":1735388148,"current_range_meters":17600,"station_id":"","pricing_plan_id":"cebpf4jnsgd1na2vs0mg"},{"bike_id":"70d19c25-8ccd-4e58-ab7a-a78e2691387c","system_id":"levelo_inurba_marseille","lat":43.28614,"lon":5.35102,"is_reserved":false,"is_disabled":false,"rental_uris":{"android":"levelo://app?vid=70d19c25-8ccd-4e58-ab7a-a78e2691387c","ios":"levelo://app?vid=70d19c25-8ccd-4e58-ab7a-a78e2691387c"},"vehicle_type_id":"4","last_reported":1735388148,"current_range_meters":24400,"station_id":"ce4bhch2rcd13ifvqeug","pricing_plan_id":"cebpf4jnsgd1na2vs0mg"},{"bike_id":"33e4c278-497a-4992-9269-3f4bd7a2ca60","system_id":"levelo_inurba_marseille","lat":43.29916,"lon":5.37473,"is_reserved":false,"is_disabled":false,"rental_uris":{"android":"levelo://app?vid=33e4c278-497a-4992-9269-3f4bd7a2ca60","ios":"levelo://app?vid=33e4c278-497a-4992-9269-3f4bd7a2ca60"},"vehicle_type_id":"4","last_reported":1735388148,"current_range_meters":38800,"station_id":"ce4bgjh2rcd13ifvqbg0","pricing_plan_id":"cebpf4jnsgd1na2vs0mg"},{"bike_id":"454d0344-486e-4331-bc83-caa2fc8d4a5e","system_id":"levelo_inurba_marseille","lat":43.25093,"lon":5.39513,"is_reserved":false,"is_disabled":false,"rental_uris":{"android":"levelo://app?vid=454d0344-486e-4331-bc83-caa2fc8d4a5e","ios":"levelo://app?vid=454d0344-486e-4331-bc83-caa2fc8d4a5e"},"vehicle_type_id":"4","last_reported":1735388148,"current_range_meters":37600,"station_id":"ce4bhm12rcd13ifvqgkg","pricing_plan_id":"cebpf4jnsgd1na2vs0mg"},{"bike_id":"4e1b440e-dc87-47f0-92e1-32a898eeb09a","system_id":"levelo_inurba_marseille","lat":43.3203,"lon":5.41569,"is_reserved":false,"is_disabled":false,"rental_uris":{"android":"levelo://app?vid=4e1b440e-dc87-47f0-92e1-32a898eeb09a","ios":"levelo://app?vid=4e1b440e-dc87-47f0-92e1-32a898eeb09a"},"vehicle_type_id":"4","last_reported":1735388148,"current_range_meters":36800,"station_id":"ce4bhq92rcd13ifvqhkg","pricing_plan_id":"cebpf4jnsgd1na2vs0mg"},{"bike_id":"9f8096d7-efc4-4844-92ca-9cbc491997cd","system_id":"levelo_inurba_marseille","lat":43.26202,"lon":5.37941,"is_reserved":false,"is_disabled":false,"rental_uris":{"android":"levelo://app?vid=9f8096d7-efc4-4844-92ca-9cbc491997cd","ios":"levelo://app?vid=9f8096d7-efc4-4844-92ca-9cbc491997cd"},"vehicle_type_id":"4","last_reported":1735388148,"current_range_meters":17200,"station_id":"ce4bhjp2rcd13ifvqg90","pricing_plan_id":"cebpf4jnsgd1na2vs0mg"},{"bike_id":"c0c3e5c6-edc3-41c4-8feb-85aaa21b750a","system_id":"levelo_inurba_marseille","lat":43.320376,"lon":5.415695,"is_reserved":false,"is_disabled":false,"rental_uris":{"android":"levelo://app?vid=c0c3e5c6-edc3-41c4-8feb-85aaa21b750a","ios":"levelo://app?vid=c0c3e5c6-edc3-41c4-8feb-85aaa21b750a"},"vehicle_type_id":"4","last_reported":1735388148,"current_range_meters":36400,"station_id":"ce4bhq92rcd13ifvqhkg","pricing_plan_id":"cebpf4jnsgd1na2vs0mg"},{"bike_id":"bb506308-72e4-4e49-b063-db664729cd99","system_id":"levelo_inurba_marseille","lat":43.27367,"lon":5.36267,"is_reserved":false,"is_disabled":false,"rental_uris":{"android":"levelo://app?vid=bb506308-72e4-4e49-b063-db664729cd99","ios":"levelo://app?vid=bb506308-72e4-4e49-b063-db664729cd99"},"vehicle_type_id":"4","last_reported":1735388148,"current_range_meters":8800,"station_id":"ce4bhbh2rcd13ifvqeo0","pricing_plan_id":"cebpf4jnsgd1na2vs0mg"},{"bike_id":"84dee25f-eaaf-4af2-b3bd-2b11471b6dbc","system_id":"levelo_inurba_marseille","lat":43.28262,"lon":5.35064,"is_reserved":false,"is_disabled":false,"rental_uris":{"android":"levelo://app?vid=84dee25f-eaaf-4af2-b3bd-2b11471b6dbc","ios":"levelo://app?vid=84dee25f-eaaf-4af2-b3bd-2b11471b6dbc"},"vehicle_type_id":"4","last_reported":1735388148,"current_range_meters":29600,"station_id":"ce4bhbp2rcd13ifvqerg","pricing_plan_id":"cebpf4jnsgd1na2vs0mg"},{"bike_id":"d5424619-470a-4323-83b8-3dff700edc54","system_id":"levelo_inurba_marseille","lat":43.30946,"lon":5.39059,"is_reserved":false,"is_disabled":false,"rental_uris":{"android":"levelo://app?vid=d5424619-470a-4323-83b8-3dff700edc54","ios":"levelo://app?vid=d5424619-470a-4323-83b8-3dff700edc54"},"vehicle_type_id":"4","last_reported":1735388148,"current_range_meters":30400,"station_id":"ce4bgup2rcd13ifvqco0","pricing_plan_id":"cebpf4jnsgd1na2vs0mg"},{"bike_id":"e36a70b0-d003-4cc4-9ffa-d1a04a3a2d99","system_id":"levelo_inurba_marseille","lat":43.28038,"lon":5.38704,"is_reserved":false,"is_disabled":false,"rental_uris":{"android":"levelo://app?vid=e36a70b0-d003-4cc4-9ffa-d1a04a3a2d99","ios":"levelo://app?vid=e36a70b0-d003-4cc4-9ffa-d1a04a3a2d99"},"vehicle_type_id":"4","last_reported":1735388148,"current_range_meters":6000,"station_id":"","pricing_plan_id":"cebpf4jnsgd1na2vs0mg"},{"bike_id":"bfed9752-bd24-4514-9213-dc1d411a0de0","system_id":"levelo_inurba_marseille","lat":43.28266,"lon":5.35072,"is_reserved":false,"is_disabled":false,"rental_uris":{"android":"levelo://app?vid=bfed9752-bd24-4514-9213-dc1d411a0de0","ios":"levelo://app?vid=bfed9752-bd24-4514-9213-dc1d411a0de0"},"vehicle_type_id":"4","last_reported":1735388148,"current_range_meters":5600,"station_id":"ce4bhbp2rcd13ifvqerg","pricing_plan_id":"cebpf4jnsgd1na2vs0mg"},{"bike_id":"71497a53-b337-4947-bdca-95c9184e2a9f","system_id":"levelo_inurba_marseille","lat":43.26192,"lon":5.37452,"is_reserved":false,"is_disabled":false,"rental_uris":{"android":"levelo://app?vid=71497a53-b337-4947-bdca-95c9184e2a9f","ios":"levelo://app?vid=71497a53-b337-4947-bdca-95c9184e2a9f"},"vehicle_type_id":"4","last_reported":1735388148,"current_range_meters":6800,"station_id":"ce4bhgp2rcd13ifvqfc0","pricing_plan_id":"cebpf4jnsgd1na2vs0mg"},{"bike_id":"9135ddc8-67d3-47df-8406-e305ff373be2","system_id":"levelo_inurba_marseille","lat":43.2847,"lon":5.38422,"is_reserved":false,"is_disabled":false,"rental_uris":{"android":"levelo://app?vid=9135ddc8-67d3-47df-8406-e305ff373be2","ios":"levelo://app?vid=9135ddc8-67d3-47df-8406-e305ff373be2"},"vehicle_type_id":"4","last_reported":1735388148,"current_range_meters":28800,"station_id":"ce4bh512rcd13ifvqe3g","pricing_plan_id":"cebpf4jnsgd1na2vs0mg"},{"bike_id":"849d3f14-a99a-4c5f-8374-42a543d43e8e","system_id":"levelo_inurba_marseille","lat":43.27173,"lon":5.4099,"is_reserved":false,"is_disabled":false,"rental_uris":{"android":"levelo://app?vid=849d3f14-a99a-4c5f-8374-42a543d43e8e","ios":"levelo://app?vid=849d3f14-a99a-4c5f-8374-42a543d43e8e"},"vehicle_type_id":"4","last_reported":1735388148,"current_range_meters":16800,"station_id":"ce4bhl12rcd13ifvqgf0","pricing_plan_id":"cebpf4jnsgd1na2vs0mg"},{"bike_id":"125766fb-bb9e-4063-abf4-d8649b751513","system_id":"levelo_inurba_marseille","lat":43.3095,"lon":5.39048,"is_reserved":false,"is_disabled":false,"rental_uris":{"android":"levelo://app?vid=125766fb-bb9e-4063-abf4-d8649b751513","ios":"levelo://app?vid=125766fb-bb9e-4063-abf4-d8649b751513"},"vehicle_type_id":"4","last_reported":1735388148,"current_range_meters":28000,"station_id":"ce4bgup2rcd13ifvqco0","pricing_plan_id":"cebpf4jnsgd1na2vs0mg"},{"bike_id":"ccb516a0-ceae-40f5-9bf3-6aa809b499bc","system_id":"levelo_inurba_marseille","lat":43.24545,"lon":5.39526,"is_reserved":false,"is_disabled":false,"rental_uris":{"android":"levelo://app?vid=ccb516a0-ceae-40f5-9bf3-6aa809b499bc","ios":"levelo://app?vid=ccb516a0-ceae-40f5-9bf3-6aa809b499bc"},"vehicle_type_id":"4","last_reported":1735388148,"current_range_meters":12800,"station_id":"ce4bhlp2rcd13ifvqgjg","pricing_plan_id":"cebpf4jnsgd1na2vs0mg"},{"bike_id":"fb86dc07-2dc6-4bfa-b85e-9957685650ab","system_id":"levelo_inurba_marseille","lat":43.2306,"lon":5.35492,"is_reserved":false,"is_disabled":false,"rental_uris":{"android":"levelo://app?vid=fb86dc07-2dc6-4bfa-b85e-9957685650ab","ios":"levelo://app?vid=fb86dc07-2dc6-4bfa-b85e-9957685650ab"},"vehicle_type_id":"4","last_reported":1735388148,"current_range_meters":16800,"station_id":"cpo3342slgdg3j2ifvpg","pricing_plan_id":"cebpf4jnsgd1na2vs0mg"},{"bike_id":"adb1574b-655e-4a9d-855e-f6045bac1a10","system_id":"levelo_inurba_marseille","lat":43.29026,"lon":5.37592,"is_reserved":false,"is_disabled":false,"rental_uris":{"android":"levelo://app?vid=adb1574b-655e-4a9d-855e-f6045bac1a10","ios":"levelo://app?vid=adb1574b-655e-4a9d-855e-f6045bac1a10"},"vehicle_type_id":"4","last_reported":1735388148,"current_range_meters":18000,"station_id":"ce4bh692rcd13ifvqe90","pricing_plan_id":"cebpf4jnsgd1na2vs0mg"},{"bike_id":"cfb94b76-8023-4846-bc02-2e593c90f87e","system_id":"levelo_inurba_marseille","lat":43.27924,"lon":5.38729,"is_reserved":false,"is_disabled":false,"rental_uris":{"android":"levelo://app?vid=cfb94b76-8023-4846-bc02-2e593c90f87e","ios":"levelo://app?vid=cfb94b76-8023-4846-bc02-2e593c90f87e"},"vehicle_type_id":"4","last_reported":1735388148,"current_range_meters":39200,"station_id":"ce4bhg12rcd13ifvqf80","pricing_plan_id":"cebpf4jnsgd1na2vs0mg"},{"bike_id":"204f0bfe-4513-4fef-9e32-daabf22ab3b1","system_id":"levelo_inurba_marseille","lat":43.29964,"lon":5.37188,"is_reserved":false,"is_disabled":false,"rental_uris":{"android":"levelo://app?vid=204f0bfe-4513-4fef-9e32-daabf22ab3b1","ios":"levelo://app?vid=204f0bfe-4513-4fef-9e32-daabf22ab3b1"},"vehicle_type_id":"4","last_reported":1735388148,"current_range_meters":37600,"station_id":"ce4bgr92rcd13ifvqc7g","pricing_plan_id":"cebpf4jnsgd1na2vs0mg"},{"bike_id":"a818f93d-22ad-482b-a6a1-cb891a3bc650","system_id":"levelo_inurba_marseille","lat":43.23193,"lon":5.3556,"is_reserved":false,"is_disabled":false,"rental_uris":{"android":"levelo://app?vid=a818f93d-22ad-482b-a6a1-cb891a3bc650","ios":"levelo://app?vid=a818f93d-22ad-482b-a6a1-cb891a3bc650"},"vehicle_type_id":"4","last_reported":1735388148,"current_range_meters":30800,"station_id":"ce4bhu92rcd13ifvqi70","pricing_plan_id":"cebpf4jnsgd1na2vs0mg"},{"bike_id":"ae8f8cdf-d1f9-4519-9c49-1aed0fe5c5ba","system_id":"levelo_inurba_marseille","lat":43.3049,"lon":5.36715,"is_reserved":false,"is_disabled":false,"rental_uris":{"android":"levelo://app?vid=ae8f8cdf-d1f9-4519-9c49-1aed0fe5c5ba","ios":"levelo://app?vid=ae8f8cdf-d1f9-4519-9c49-1aed0fe5c5ba"},"vehicle_type_id":"4","last_reported":1735388148,"current_range_meters":38800,"station_id":"ce4bgrp2rcd13ifvqc9g","pricing_plan_id":"cebpf4jnsgd1na2vs0mg"},{"bike_id":"09898dd2-84ad-4911-a21d-d1f0823964b3","system_id":"levelo_inurba_marseille","lat":43.29635,"lon":5.37713,"is_reserved":false,"is_disabled":false,"rental_uris":{"android":"levelo://app?vid=09898dd2-84ad-4911-a21d-d1f0823964b3","ios":"levelo://app?vid=09898dd2-84ad-4911-a21d-d1f0823964b3"},"vehicle_type_id":"4","last_reported":1735388148,"current_range_meters":38800,"station_id":"ce4bgi92rcd13ifvqb90","pricing_plan_id":"cebpf4jnsgd1na2vs0mg"},{"bike_id":"2f4d88ff-6678-4ca5-ae90-a5a14ea5e14c","system_id":"levelo_inurba_marseille","lat":43.28236,"lon":5.35069,"is_reserved":false,"is_disabled":false,"rental_uris":{"android":"levelo://app?vid=2f4d88ff-6678-4ca5-ae90-a5a14ea5e14c","ios":"levelo://app?vid=2f4d88ff-6678-4ca5-ae90-a5a14ea5e14c"},"vehicle_type_id":"4","last_reported":1735388148,"current_range_meters":35600,"station_id":"ce4bhbp2rcd13ifvqerg","pricing_plan_id":"cebpf4jnsgd1na2vs0mg"},{"bike_id":"40eee063-b95d-4d32-aca8-c581cf8477cf","system_id":"levelo_inurba_marseille","lat":43.25011,"lon":5.38919,"is_reserved":false,"is_disabled":false,"rental_uris":{"android":"levelo://app?vid=40eee063-b95d-4d32-aca8-c581cf8477cf","ios":"levelo://app?vid=40eee063-b95d-4d32-aca8-c581cf8477cf"},"vehicle_type_id":"4","last_reported":1735388148,"current_range_meters":25200,"station_id":"ce4bhgp2rcd13ifvqfd0","pricing_plan_id":"cebpf4jnsgd1na2vs0mg"},{"bike_id":"b55757b5-b171-4974-b33c-dc50aba776d6","system_id":"levelo_inurba_marseille","lat":43.28918,"lon":5.36671,"is_reserved":false,"is_disabled":false,"rental_uris":{"android":"levelo://app?vid=b55757b5-b171-4974-b33c-dc50aba776d6","ios":"levelo://app?vid=b55757b5-b171-4974-b33c-dc50aba776d6"},"vehicle_type_id":"4","last_reported":1735388148,"current_range_meters":30400,"station_id":"ce4bhap2rcd13ifvqek0","pricing_plan_id":"cebpf4jnsgd1na2vs0mg"},{"bike_id":"e24159a9-a30e-45ca-a06d-dd78d34876d6","system_id":"levelo_inurba_marseille","lat":43.28483,"lon":5.38427,"is_reserved":false,"is_disabled":false,"rental_uris":{"android":"levelo://app?vid=e24159a9-a30e-45ca-a06d-dd78d34876d6","ios":"levelo://app?vid=e24159a9-a30e-45ca-a06d-dd78d34876d6"},"vehicle_type_id":"4","last_reported":1735388148,"current_range_meters":33600,"station_id":"ce4bh512rcd13ifvqe3g","pricing_plan_id":"cebpf4jnsgd1na2vs0mg"},{"bike_id":"c0392848-0bdf-4f66-828f-2f1678520562","system_id":"levelo_inurba_marseille","lat":43.30659,"lon":5.40079,"is_reserved":false,"is_disabled":false,"rental_uris":{"android":"levelo://app?vid=c0392848-0bdf-4f66-828f-2f1678520562","ios":"levelo://app?vid=c0392848-0bdf-4f66-828f-2f1678520562"},"vehicle_type_id":"4","last_reported":1735388148,"current_range_meters":37600,"station_id":"ce4bh112rcd13ifvqda0","pricing_plan_id":"cebpf4jnsgd1na2vs0mg"},{"bike_id":"5be3d17a-9c8c-40c8-a7f5-11e9744dd0b7","system_id":"levelo_inurba_marseille","lat":43.28467,"lon":5.38416,"is_reserved":false,"is_disabled":false,"rental_uris":{"android":"levelo://app?vid=5be3d17a-9c8c-40c8-a7f5-11e9744dd0b7","ios":"levelo://app?vid=5be3d17a-9c8c-40c8-a7f5-11e9744dd0b7"},"vehicle_type_id":"4","last_reported":1735388148,"current_range_meters":39200,"station_id":"ce4bh512rcd13ifvqe3g","pricing_plan_id":"cebpf4jnsgd1na2vs0mg"},{"bike_id":"6fc39219-982d-4feb-9b3b-e1ba4db40afe","system_id":"levelo_inurba_marseille","lat":43.2959,"lon":5.38107,"is_reserved":false,"is_disabled":false,"rental_uris":{"android":"levelo://app?vid=6fc39219-982d-4feb-9b3b-e1ba4db40afe","ios":"levelo://app?vid=6fc39219-982d-4feb-9b3b-e1ba4db40afe"},"vehicle_type_id":"4","last_reported":1735388148,"current_range_meters":38800,"station_id":"ce4bgl12rcd13ifvqbo0","pricing_plan_id":"cebpf4jnsgd1na2vs0mg"},{"bike_id":"e73e6057-e6e9-407b-a17e-f4e119a96aba","system_id":"levelo_inurba_marseille","lat":43.32107,"lon":5.36779,"is_reserved":false,"is_disabled":false,"rental_uris":{"android":"levelo://app?vid=e73e6057-e6e9-407b-a17e-f4e119a96aba","ios":"levelo://app?vid=e73e6057-e6e9-407b-a17e-f4e119a96aba"},"vehicle_type_id":"4","last_reported":1735388148,"current_range_meters":16400,"station_id":"ce4bhrh2rcd13ifvqhug","pricing_plan_id":"cebpf4jnsgd1na2vs0mg"},{"bike_id":"bd55923c-f926-41bd-a062-5799511a18a2","system_id":"levelo_inurba_marseille","lat":43.27313,"lon":5.39092,"is_reserved":false,"is_disabled":false,"rental_uris":{"android":"levelo://app?vid=bd55923c-f926-41bd-a062-5799511a18a2","ios":"levelo://app?vid=bd55923c-f926-41bd-a062-5799511a18a2"},"vehicle_type_id":"4","last_reported":1735388148,"current_range_meters":22800,"station_id":"ce4bhgp2rcd13ifvqfe0","pricing_plan_id":"cebpf4jnsgd1na2vs0mg"},{"bike_id":"f1c33e23-3964-4945-b1ea-18b30308c077","system_id":"levelo_inurba_marseille","lat":43.28266,"lon":5.3507,"is_reserved":false,"is_disabled":false,"rental_uris":{"android":"levelo://app?vid=f1c33e23-3964-4945-b1ea-18b30308c077","ios":"levelo://app?vid=f1c33e23-3964-4945-b1ea-18b30308c077"},"vehicle_type_id":"4","last_reported":1735388148,"current_range_meters":20800,"station_id":"ce4bhbp2rcd13ifvqerg","pricing_plan_id":"cebpf4jnsgd1na2vs0mg"},{"bike_id":"062008cc-a7ec-41fc-ab0a-02aee794153b","system_id":"levelo_inurba_marseille","lat":43.27071,"lon":5.42275,"is_reserved":false,"is_disabled":false,"rental_uris":{"android":"levelo://app?vid=062008cc-a7ec-41fc-ab0a-02aee794153b","ios":"levelo://app?vid=062008cc-a7ec-41fc-ab0a-02aee794153b"},"vehicle_type_id":"4","last_reported":1735388148,"current_range_meters":37600,"station_id":"ce4bhk92rcd13ifvqgb0","pricing_plan_id":"cebpf4jnsgd1na2vs0mg"},{"bike_id":"57103b12-06fc-494b-9a1a-1903f8f245d5","system_id":"levelo_inurba_marseille","lat":43.27992,"lon":5.41661,"is_reserved":false,"is_disabled":false,"rental_uris":{"android":"levelo://app?vid=57103b12-06fc-494b-9a1a-1903f8f245d5","ios":"levelo://app?vid=57103b12-06fc-494b-9a1a-1903f8f245d5"},"vehicle_type_id":"4","last_reported":1735388148,"current_range_meters":23200,"station_id":"ce4bho12rcd13ifvqh1g","pricing_plan_id":"cebpf4jnsgd1na2vs0mg"},{"bike_id":"09dd81c0-cae5-44a2-a85f-debca86ea826","system_id":"levelo_inurba_marseille","lat":43.27377,"lon":5.36258,"is_reserved":false,"is_disabled":false,"rental_uris":{"android":"levelo://app?vid=09dd81c0-cae5-44a2-a85f-debca86ea826","ios":"levelo://app?vid=09dd81c0-cae5-44a2-a85f-debca86ea826"},"vehicle_type_id":"4","last_reported":1735388148,"current_range_meters":38800,"station_id":"ce4bhbh2rcd13ifvqeo0","pricing_plan_id":"cebpf4jnsgd1na2vs0mg"},{"bike_id":"20f4e438-1366-4a84-bf7d-a2e481186e28","system_id":"levelo_inurba_marseille","lat":43.28474,"lon":5.38411,"is_reserved":false,"is_disabled":false,"rental_uris":{"android":"levelo://app?vid=20f4e438-1366-4a84-bf7d-a2e481186e28","ios":"levelo://app?vid=20f4e438-1366-4a84-bf7d-a2e481186e28"},"vehicle_type_id":"4","last_reported":1735388148,"current_range_meters":39200,"station_id":"ce4bh512rcd13ifvqe3g","pricing_plan_id":"cebpf4jnsgd1na2vs0mg"},{"bike_id":"59e5fbcf-0a71-43d5-bdc4-ccc0984c5e1a","system_id":"levelo_inurba_marseille","lat":43.29526,"lon":5.3751,"is_reserved":false,"is_disabled":false,"rental_uris":{"android":"levelo://app?vid=59e5fbcf-0a71-43d5-bdc4-ccc0984c5e1a","ios":"levelo://app?vid=59e5fbcf-0a71-43d5-bdc4-ccc0984c5e1a"},"vehicle_type_id":"4","last_reported":1735388148,"current_range_meters":14400,"station_id":"ce4bgkp2rcd13ifvqbmg","pricing_plan_id":"cebpf4jnsgd1na2vs0mg"},{"bike_id":"fce11b79-6704-49f7-b760-34c3f05e0b5c","system_id":"levelo_inurba_marseille","lat":43.32042,"lon":5.41552,"is_reserved":false,"is_disabled":false,"rental_uris":{"android":"levelo://app?vid=fce11b79-6704-49f7-b760-34c3f05e0b5c","ios":"levelo://app?vid=fce11b79-6704-49f7-b760-34c3f05e0b5c"},"vehicle_type_id":"4","last_reported":1735388148,"current_range_meters":38800,"station_id":"ce4bhq92rcd13ifvqhkg","pricing_plan_id":"cebpf4jnsgd1na2vs0mg"},{"bike_id":"30cfa274-d76e-40be-9343-edaea8080a0e","system_id":"levelo_inurba_marseille","lat":43.28721,"lon":5.37948,"is_reserved":false,"is_disabled":false,"rental_uris":{"android":"levelo://app?vid=30cfa274-d76e-40be-9343-edaea8080a0e","ios":"levelo://app?vid=30cfa274-d76e-40be-9343-edaea8080a0e"},"vehicle_type_id":"4","last_reported":1735388148,"current_range_meters":37600,"station_id":"ce4bh9p2rcd13ifvqec0","pricing_plan_id":"cebpf4jnsgd1na2vs0mg"},{"bike_id":"74efadb3-6150-400e-a7ae-4b006e40a1fd","system_id":"levelo_inurba_marseille","lat":43.28478,"lon":5.38407,"is_reserved":false,"is_disabled":false,"rental_uris":{"android":"levelo://app?vid=74efadb3-6150-400e-a7ae-4b006e40a1fd","ios":"levelo://app?vid=74efadb3-6150-400e-a7ae-4b006e40a1fd"},"vehicle_type_id":"4","last_reported":1735388148,"current_range_meters":36000,"station_id":"ce4bh512rcd13ifvqe3g","pricing_plan_id":"cebpf4jnsgd1na2vs0mg"},{"bike_id":"32da1a25-f427-40ba-9914-93efd8bf6648","system_id":"levelo_inurba_marseille","lat":43.29336,"lon":5.37376,"is_reserved":false,"is_disabled":false,"rental_uris":{"android":"levelo://app?vid=32da1a25-f427-40ba-9914-93efd8bf6648","ios":"levelo://app?vid=32da1a25-f427-40ba-9914-93efd8bf6648"},"vehicle_type_id":"4","last_reported":1735388148,"current_range_meters":17600,"station_id":"ce4bgi12rcd13ifvqb70","pricing_plan_id":"cebpf4jnsgd1na2vs0mg"},{"bike_id":"375d5811-de8b-418c-91ed-82d921ddce21","system_id":"levelo_inurba_marseille","lat":43.2971,"lon":5.36597,"is_reserved":false,"is_disabled":false,"rental_uris":{"android":"levelo://app?vid=375d5811-de8b-418c-91ed-82d921ddce21","ios":"levelo://app?vid=375d5811-de8b-418c-91ed-82d921ddce21"},"vehicle_type_id":"4","last_reported":1735388148,"current_range_meters":38800,"station_id":"ce4bgn12rcd13ifvqbt0","pricing_plan_id":"cebpf4jnsgd1na2vs0mg"},{"bike_id":"f523f994-10cd-4740-b49c-26b69297a317","system_id":"levelo_inurba_marseille","lat":43.25115,"lon":5.40327,"is_reserved":false,"is_disabled":false,"rental_uris":{"android":"levelo://app?vid=f523f994-10cd-4740-b49c-26b69297a317","ios":"levelo://app?vid=f523f994-10cd-4740-b49c-26b69297a317"},"vehicle_type_id":"4","last_reported":1735388148,"current_range_meters":31200,"station_id":"ce4bhlh2rcd13ifvqgig","pricing_plan_id":"cebpf4jnsgd1na2vs0mg"},{"bike_id":"db2c549d-e98a-4769-95fa-52946ad4fb3d","system_id":"levelo_inurba_marseille","lat":43.2985,"lon":5.36282,"is_reserved":false,"is_disabled":false,"rental_uris":{"android":"levelo://app?vid=db2c549d-e98a-4769-95fa-52946ad4fb3d","ios":"levelo://app?vid=db2c549d-e98a-4769-95fa-52946ad4fb3d"},"vehicle_type_id":"4","last_reported":1735388148,"current_range_meters":36800,"station_id":"ce4bgpp2rcd13ifvqc3g","pricing_plan_id":"cebpf4jnsgd1na2vs0mg"},{"bike_id":"06cb9db3-5173-4e30-b394-f221ce1c8457","system_id":"levelo_inurba_marseille","lat":43.30129,"lon":5.39862,"is_reserved":false,"is_disabled":false,"rental_uris":{"android":"levelo://app?vid=06cb9db3-5173-4e30-b394-f221ce1c8457","ios":"levelo://app?vid=06cb9db3-5173-4e30-b394-f221ce1c8457"},"vehicle_type_id":"4","last_reported":1735388148,"current_range_meters":24000,"station_id":"ce4bh0h2rcd13ifvqd40","pricing_plan_id":"cebpf4jnsgd1na2vs0mg"},{"bike_id":"71e6eecc-482e-4ed8-b40b-efc6ef9e702a","system_id":"levelo_inurba_marseille","lat":43.27487,"lon":5.42469,"is_reserved":false,"is_disabled":false,"rental_uris":{"android":"levelo://app?vid=71e6eecc-482e-4ed8-b40b-efc6ef9e702a","ios":"levelo://app?vid=71e6eecc-482e-4ed8-b40b-efc6ef9e702a"},"vehicle_type_id":"4","last_reported":1735388148,"current_range_meters":36800,"station_id":"ce4bhn92rcd13ifvqgrg","pricing_plan_id":"cebpf4jnsgd1na2vs0mg"},{"bike_id":"e2d02283-b127-48cd-86f1-5f160651ede8","system_id":"levelo_inurba_marseille","lat":43.28953,"lon":5.36367,"is_reserved":false,"is_disabled":false,"rental_uris":{"android":"levelo://app?vid=e2d02283-b127-48cd-86f1-5f160651ede8","ios":"levelo://app?vid=e2d02283-b127-48cd-86f1-5f160651ede8"},"vehicle_type_id":"4","last_reported":1735388148,"current_range_meters":27200,"station_id":"ce4bhc92rcd13ifvqetg","pricing_plan_id":"cebpf4jnsgd1na2vs0mg"},{"bike_id":"a3b5e29c-4425-483d-9fe4-2d25fea7803f","system_id":"levelo_inurba_marseille","lat":43.25017,"lon":5.38917,"is_reserved":false,"is_disabled":false,"rental_uris":{"android":"levelo://app?vid=a3b5e29c-4425-483d-9fe4-2d25fea7803f","ios":"levelo://app?vid=a3b5e29c-4425-483d-9fe4-2d25fea7803f"},"vehicle_type_id":"4","last_reported":1735388148,"current_range_meters":28000,"station_id":"ce4bhgp2rcd13ifvqfd0","pricing_plan_id":"cebpf4jnsgd1na2vs0mg"},{"bike_id":"89bd1e03-d2e1-4927-8b6b-64f0f297535a","system_id":"levelo_inurba_marseille","lat":43.26213,"lon":5.37443,"is_reserved":false,"is_disabled":false,"rental_uris":{"android":"levelo://app?vid=89bd1e03-d2e1-4927-8b6b-64f0f297535a","ios":"levelo://app?vid=89bd1e03-d2e1-4927-8b6b-64f0f297535a"},"vehicle_type_id":"4","last_reported":1735388148,"current_range_meters":16800,"station_id":"ce4bhgp2rcd13ifvqfc0","pricing_plan_id":"cebpf4jnsgd1na2vs0mg"},{"bike_id":"e11d8ab3-6dc8-4851-83bb-892b39f861d9","system_id":"levelo_inurba_marseille","lat":43.29898,"lon":5.38155,"is_reserved":false,"is_disabled":false,"rental_uris":{"android":"levelo://app?vid=e11d8ab3-6dc8-4851-83bb-892b39f861d9","ios":"levelo://app?vid=e11d8ab3-6dc8-4851-83bb-892b39f861d9"},"vehicle_type_id":"4","last_reported":1735388148,"current_range_meters":34800,"station_id":"ce4bgj12rcd13ifvqbc0","pricing_plan_id":"cebpf4jnsgd1na2vs0mg"},{"bike_id":"dfad354b-0d8f-4c65-82fd-afb0d4089090","system_id":"levelo_inurba_marseille","lat":43.23193,"lon":5.3556,"is_reserved":false,"is_disabled":false,"rental_uris":{"android":"levelo://app?vid=dfad354b-0d8f-4c65-82fd-afb0d4089090","ios":"levelo://app?vid=dfad354b-0d8f-4c65-82fd-afb0d4089090"},"vehicle_type_id":"4","last_reported":1735388148,"current_range_meters":23200,"station_id":"ce4bhu92rcd13ifvqi70","pricing_plan_id":"cebpf4jnsgd1na2vs0mg"},{"bike_id":"174cb319-3670-4989-9001-7383cc4305eb","system_id":"levelo_inurba_marseille","lat":43.23195,"lon":5.35555,"is_reserved":false,"is_disabled":false,"rental_uris":{"android":"levelo://app?vid=174cb319-3670-4989-9001-7383cc4305eb","ios":"levelo://app?vid=174cb319-3670-4989-9001-7383cc4305eb"},"vehicle_type_id":"4","last_reported":1735388148,"current_range_meters":10800,"station_id":"ce4bhu92rcd13ifvqi70","pricing_plan_id":"cebpf4jnsgd1na2vs0mg"},{"bike_id":"7bd44d09-e872-4291-b548-1cbe40f16cac","system_id":"levelo_inurba_marseille","lat":43.28169,"lon":5.42646,"is_reserved":false,"is_disabled":false,"rental_uris":{"android":"levelo://app?vid=7bd44d09-e872-4291-b548-1cbe40f16cac","ios":"levelo://app?vid=7bd44d09-e872-4291-b548-1cbe40f16cac"},"vehicle_type_id":"4","last_reported":1735388148,"current_range_meters":28400,"station_id":"ce4bhnh2rcd13ifvqgug","pricing_plan_id":"cebpf4jnsgd1na2vs0mg"},{"bike_id":"6cbde795-1ce0-49d2-b5b6-d1ba79a82a47","system_id":"levelo_inurba_marseille","lat":43.29849,"lon":5.36293,"is_reserved":false,"is_disabled":false,"rental_uris":{"android":"levelo://app?vid=6cbde795-1ce0-49d2-b5b6-d1ba79a82a47","ios":"levelo://app?vid=6cbde795-1ce0-49d2-b5b6-d1ba79a82a47"},"vehicle_type_id":"4","last_reported":1735388148,"current_range_meters":30400,"station_id":"ce4bgpp2rcd13ifvqc3g","pricing_plan_id":"cebpf4jnsgd1na2vs0mg"},{"bike_id":"e06232ef-caaf-4238-9d2b-ccce6dfdbe4b","system_id":"levelo_inurba_marseille","lat":43.30599,"lon":5.37229,"is_reserved":false,"is_disabled":false,"rental_uris":{"android":"levelo://app?vid=e06232ef-caaf-4238-9d2b-ccce6dfdbe4b","ios":"levelo://app?vid=e06232ef-caaf-4238-9d2b-ccce6dfdbe4b"},"vehicle_type_id":"4","last_reported":1735388148,"current_range_meters":38800,"station_id":"ce4bgqh2rcd13ifvqc4g","pricing_plan_id":"cebpf4jnsgd1na2vs0mg"},{"bike_id":"a08e4ae4-cc68-4e48-9223-2cf45a65726a","system_id":"levelo_inurba_marseille","lat":43.29704,"lon":5.36611,"is_reserved":false,"is_disabled":false,"rental_uris":{"android":"levelo://app?vid=a08e4ae4-cc68-4e48-9223-2cf45a65726a","ios":"levelo://app?vid=a08e4ae4-cc68-4e48-9223-2cf45a65726a"},"vehicle_type_id":"4","last_reported":1735388148,"current_range_meters":28400,"station_id":"ce4bgn12rcd13ifvqbt0","pricing_plan_id":"cebpf4jnsgd1na2vs0mg"},{"bike_id":"a6255f7f-5620-4d43-b9e5-174a56bd2205","system_id":"levelo_inurba_marseille","lat":43.29962,"lon":5.38505,"is_reserved":false,"is_disabled":false,"rental_uris":{"android":"levelo://app?vid=a6255f7f-5620-4d43-b9e5-174a56bd2205","ios":"levelo://app?vid=a6255f7f-5620-4d43-b9e5-174a56bd2205"},"vehicle_type_id":"4","last_reported":1735388148,"current_range_meters":37600,"station_id":"ce4bgj92rcd13ifvqbd0","pricing_plan_id":"cebpf4jnsgd1na2vs0mg"},{"bike_id":"26dc9900-af70-4ee4-9505-7a93c6942a7c","system_id":"levelo_inurba_marseille","lat":43.30913,"lon":5.36831,"is_reserved":false,"is_disabled":false,"rental_uris":{"android":"levelo://app?vid=26dc9900-af70-4ee4-9505-7a93c6942a7c","ios":"levelo://app?vid=26dc9900-af70-4ee4-9505-7a93c6942a7c"},"vehicle_type_id":"4","last_reported":1735388148,"current_range_meters":28400,"station_id":"ce4bgn92rcd13ifvqbvg","pricing_plan_id":"cebpf4jnsgd1na2vs0mg"},{"bike_id":"359ddae0-5d3f-4b29-8d32-daa2bb9138da","system_id":"levelo_inurba_marseille","lat":43.29729,"lon":5.37681,"is_reserved":false,"is_disabled":false,"rental_uris":{"android":"levelo://app?vid=359ddae0-5d3f-4b29-8d32-daa2bb9138da","ios":"levelo://app?vid=359ddae0-5d3f-4b29-8d32-daa2bb9138da"},"vehicle_type_id":"4","last_reported":1735388148,"current_range_meters":35200,"station_id":"ce4bgkh2rcd13ifvqbl0","pricing_plan_id":"cebpf4jnsgd1na2vs0mg"},{"bike_id":"1107b56a-98a5-4a01-8449-9eba086fee5a","system_id":"levelo_inurba_marseille","lat":43.29073,"lon":5.39883,"is_reserved":false,"is_disabled":true,"rental_uris":{"android":"levelo://app?vid=1107b56a-98a5-4a01-8449-9eba086fee5a","ios":"levelo://app?vid=1107b56a-98a5-4a01-8449-9eba086fee5a"},"vehicle_type_id":"4","last_reported":1735388148,"current_range_meters":20400,"station_id":"","pricing_plan_id":"cebpf4jnsgd1na2vs0mg"},{"bike_id":"d4779ee5-3fd2-4431-97c3-1593dc6a263c","system_id":"levelo_inurba_marseille","lat":43.29595,"lon":5.37731,"is_reserved":false,"is_disabled":false,"rental_uris":{"android":"levelo://app?vid=d4779ee5-3fd2-4431-97c3-1593dc6a263c","ios":"levelo://app?vid=d4779ee5-3fd2-4431-97c3-1593dc6a263c"},"vehicle_type_id":"4","last_reported":1735388148,"current_range_meters":38000,"station_id":"ce4bgi92rcd13ifvqb90","pricing_plan_id":"cebpf4jnsgd1na2vs0mg"},{"bike_id":"11a0ffca-220f-4915-8ee5-56db1deea1c4","system_id":"levelo_inurba_marseille","lat":43.29563,"lon":5.37523,"is_reserved":false,"is_disabled":false,"rental_uris":{"android":"levelo://app?vid=11a0ffca-220f-4915-8ee5-56db1deea1c4","ios":"levelo://app?vid=11a0ffca-220f-4915-8ee5-56db1deea1c4"},"vehicle_type_id":"4","last_reported":1735388148,"current_range_meters":30000,"station_id":"ce4bgh92rcd13ifvqb50","pricing_plan_id":"cebpf4jnsgd1na2vs0mg"},{"bike_id":"c9b97fb7-b709-4c26-ae01-dabf637bc152","system_id":"levelo_inurba_marseille","lat":43.27811,"lon":5.4071,"is_reserved":false,"is_disabled":false,"rental_uris":{"android":"levelo://app?vid=c9b97fb7-b709-4c26-ae01-dabf637bc152","ios":"levelo://app?vid=c9b97fb7-b709-4c26-ae01-dabf637bc152"},"vehicle_type_id":"4","last_reported":1735388148,"current_range_meters":28400,"station_id":"ce4bhnh2rcd13ifvqgtg","pricing_plan_id":"cebpf4jnsgd1na2vs0mg"},{"bike_id":"4485f98a-c081-40ff-aeab-5967b9ceab6a","system_id":"levelo_inurba_marseille","lat":43.306724,"lon":5.381901,"is_reserved":false,"is_disabled":false,"rental_uris":{"android":"levelo://app?vid=4485f98a-c081-40ff-aeab-5967b9ceab6a","ios":"levelo://app?vid=4485f98a-c081-40ff-aeab-5967b9ceab6a"},"vehicle_type_id":"4","last_reported":1735388148,"current_range_meters":25200,"station_id":"","pricing_plan_id":"cebpf4jnsgd1na2vs0mg"},{"bike_id":"7a7ed23e-c88c-4704-a47c-c0df0dd34a61","system_id":"levelo_inurba_marseille","lat":43.26914,"lon":5.38932,"is_reserved":false,"is_disabled":false,"rental_uris":{"android":"levelo://app?vid=7a7ed23e-c88c-4704-a47c-c0df0dd34a61","ios":"levelo://app?vid=7a7ed23e-c88c-4704-a47c-c0df0dd34a61"},"vehicle_type_id":"4","last_reported":1735388148,"current_range_meters":35200,"station_id":"ce4bhhh2rcd13ifvqfl0","pricing_plan_id":"cebpf4jnsgd1na2vs0mg"},{"bike_id":"3fbbac4e-077e-476b-9b1a-9cc6e989ecb0","system_id":"levelo_inurba_marseille","lat":43.25003,"lon":5.38916,"is_reserved":false,"is_disabled":false,"rental_uris":{"android":"levelo://app?vid=3fbbac4e-077e-476b-9b1a-9cc6e989ecb0","ios":"levelo://app?vid=3fbbac4e-077e-476b-9b1a-9cc6e989ecb0"},"vehicle_type_id":"4","last_reported":1735388148,"current_range_meters":35200,"station_id":"ce4bhgp2rcd13ifvqfd0","pricing_plan_id":"cebpf4jnsgd1na2vs0mg"},{"bike_id":"fe6b0021-eae5-4dda-bbb6-8b37de152728","system_id":"levelo_inurba_marseille","lat":43.29782,"lon":5.37099,"is_reserved":false,"is_disabled":false,"rental_uris":{"android":"levelo://app?vid=fe6b0021-eae5-4dda-bbb6-8b37de152728","ios":"levelo://app?vid=fe6b0021-eae5-4dda-bbb6-8b37de152728"},"vehicle_type_id":"4","last_reported":1735388148,"current_range_meters":30000,"station_id":"ce4bgop2rcd13ifvqc1g","pricing_plan_id":"cebpf4jnsgd1na2vs0mg"},{"bike_id":"9d3d459d-d416-4406-9acb-4263a87f73a0","system_id":"levelo_inurba_marseille","lat":43.23185,"lon":5.35553,"is_reserved":false,"is_disabled":false,"rental_uris":{"android":"levelo://app?vid=9d3d459d-d416-4406-9acb-4263a87f73a0","ios":"levelo://app?vid=9d3d459d-d416-4406-9acb-4263a87f73a0"},"vehicle_type_id":"4","last_reported":1735388148,"current_range_meters":17600,"station_id":"ce4bhu92rcd13ifvqi70","pricing_plan_id":"cebpf4jnsgd1na2vs0mg"},{"bike_id":"ef4e1f81-7c5b-4014-bdf4-75279c1a5b88","system_id":"levelo_inurba_marseille","lat":43.3054,"lon":5.36547,"is_reserved":false,"is_disabled":false,"rental_uris":{"android":"levelo://app?vid=ef4e1f81-7c5b-4014-bdf4-75279c1a5b88","ios":"levelo://app?vid=ef4e1f81-7c5b-4014-bdf4-75279c1a5b88"},"vehicle_type_id":"4","last_reported":1735388148,"current_range_meters":28000,"station_id":"ce4bgs12rcd13ifvqcag","pricing_plan_id":"cebpf4jnsgd1na2vs0mg"},{"bike_id":"e203eede-93d4-4367-be9a-c6d93cdc799f","system_id":"levelo_inurba_marseille","lat":43.29926,"lon":5.36549,"is_reserved":false,"is_disabled":false,"rental_uris":{"android":"levelo://app?vid=e203eede-93d4-4367-be9a-c6d93cdc799f","ios":"levelo://app?vid=e203eede-93d4-4367-be9a-c6d93cdc799f"},"vehicle_type_id":"4","last_reported":1735388148,"current_range_meters":15200,"station_id":"ce4bgm92rcd13ifvqbr0","pricing_plan_id":"cebpf4jnsgd1na2vs0mg"},{"bike_id":"f88f16ef-ff6a-41e6-9722-2354ad5f3b6b","system_id":"levelo_inurba_marseille","lat":43.29361,"lon":5.37865,"is_reserved":false,"is_disabled":false,"rental_uris":{"android":"levelo://app?vid=f88f16ef-ff6a-41e6-9722-2354ad5f3b6b","ios":"levelo://app?vid=f88f16ef-ff6a-41e6-9722-2354ad5f3b6b"},"vehicle_type_id":"4","last_reported":1735388148,"current_range_meters":36000,"station_id":"ce4bgjh2rcd13ifvqbf0","pricing_plan_id":"cebpf4jnsgd1na2vs0mg"},{"bike_id":"99c42f44-622e-4933-8d11-5b826115fbfd","system_id":"levelo_inurba_marseille","lat":43.30785,"lon":5.37654,"is_reserved":false,"is_disabled":false,"rental_uris":{"android":"levelo://app?vid=99c42f44-622e-4933-8d11-5b826115fbfd","ios":"levelo://app?vid=99c42f44-622e-4933-8d11-5b826115fbfd"},"vehicle_type_id":"4","last_reported":1735388148,"current_range_meters":8800,"station_id":"ce4bgv92rcd13ifvqcq0","pricing_plan_id":"cebpf4jnsgd1na2vs0mg"},{"bike_id":"41e441a8-4ad2-4bf0-81ba-96c35feaf6d8","system_id":"levelo_inurba_marseille","lat":43.28148,"lon":5.42646,"is_reserved":false,"is_disabled":false,"rental_uris":{"android":"levelo://app?vid=41e441a8-4ad2-4bf0-81ba-96c35feaf6d8","ios":"levelo://app?vid=41e441a8-4ad2-4bf0-81ba-96c35feaf6d8"},"vehicle_type_id":"4","last_reported":1735388148,"current_range_meters":34800,"station_id":"ce4bhnh2rcd13ifvqgug","pricing_plan_id":"cebpf4jnsgd1na2vs0mg"},{"bike_id":"ff26efd5-b991-418f-9a1f-fd72cadb1f79","system_id":"levelo_inurba_marseille","lat":43.31708,"lon":5.37782,"is_reserved":false,"is_disabled":false,"rental_uris":{"android":"levelo://app?vid=ff26efd5-b991-418f-9a1f-fd72cadb1f79","ios":"levelo://app?vid=ff26efd5-b991-418f-9a1f-fd72cadb1f79"},"vehicle_type_id":"4","last_reported":1735388148,"current_range_meters":38400,"station_id":"ce4bgth2rcd13ifvqch0","pricing_plan_id":"cebpf4jnsgd1na2vs0mg"},{"bike_id":"ad954c5e-731b-466c-b7a3-d28bedadb5f9","system_id":"levelo_inurba_marseille","lat":43.273687,"lon":5.362563,"is_reserved":false,"is_disabled":false,"rental_uris":{"android":"levelo://app?vid=ad954c5e-731b-466c-b7a3-d28bedadb5f9","ios":"levelo://app?vid=ad954c5e-731b-466c-b7a3-d28bedadb5f9"},"vehicle_type_id":"4","last_reported":1735388148,"current_range_meters":33200,"station_id":"ce4bhbh2rcd13ifvqeo0","pricing_plan_id":"cebpf4jnsgd1na2vs0mg"},{"bike_id":"c286a10a-713f-4ddd-bf35-cd0a1017a138","system_id":"levelo_inurba_marseille","lat":43.29578,"lon":5.36738,"is_reserved":false,"is_disabled":false,"rental_uris":{"android":"levelo://app?vid=c286a10a-713f-4ddd-bf35-cd0a1017a138","ios":"levelo://app?vid=c286a10a-713f-4ddd-bf35-cd0a1017a138"},"vehicle_type_id":"4","last_reported":1735388148,"current_range_meters":37600,"station_id":"ce4bgph2rcd13ifvqc2g","pricing_plan_id":"cebpf4jnsgd1na2vs0mg"},{"bike_id":"0040c17c-e92e-44b5-a6fb-3621bcac561f","system_id":"levelo_inurba_marseille","lat":43.27069,"lon":5.42289,"is_reserved":false,"is_disabled":false,"rental_uris":{"android":"levelo://app?vid=0040c17c-e92e-44b5-a6fb-3621bcac561f","ios":"levelo://app?vid=0040c17c-e92e-44b5-a6fb-3621bcac561f"},"vehicle_type_id":"4","last_reported":1735388148,"current_range_meters":26000,"station_id":"ce4bhk92rcd13ifvqgb0","pricing_plan_id":"cebpf4jnsgd1na2vs0mg"},{"bike_id":"705ab4c6-e818-4d06-b513-caca4e703da9","system_id":"levelo_inurba_marseille","lat":43.30714,"lon":5.39999,"is_reserved":false,"is_disabled":false,"rental_uris":{"android":"levelo://app?vid=705ab4c6-e818-4d06-b513-caca4e703da9","ios":"levelo://app?vid=705ab4c6-e818-4d06-b513-caca4e703da9"},"vehicle_type_id":"4","last_reported":1735388148,"current_range_meters":38800,"station_id":"ce4bh112rcd13ifvqda0","pricing_plan_id":"cebpf4jnsgd1na2vs0mg"},{"bike_id":"ca385147-3dd1-4a2f-a785-f231a2c009d8","system_id":"levelo_inurba_marseille","lat":43.30544,"lon":5.36541,"is_reserved":false,"is_disabled":false,"rental_uris":{"android":"levelo://app?vid=ca385147-3dd1-4a2f-a785-f231a2c009d8","ios":"levelo://app?vid=ca385147-3dd1-4a2f-a785-f231a2c009d8"},"vehicle_type_id":"4","last_reported":1735388148,"current_range_meters":38800,"station_id":"ce4bgs12rcd13ifvqcag","pricing_plan_id":"cebpf4jnsgd1na2vs0mg"},{"bike_id":"416ab53b-279a-422e-99c8-cc6e97f84422","system_id":"levelo_inurba_marseille","lat":43.2955,"lon":5.37627,"is_reserved":false,"is_disabled":false,"rental_uris":{"android":"levelo://app?vid=416ab53b-279a-422e-99c8-cc6e97f84422","ios":"levelo://app?vid=416ab53b-279a-422e-99c8-cc6e97f84422"},"vehicle_type_id":"4","last_reported":1735388148,"current_range_meters":38000,"station_id":"","pricing_plan_id":"cebpf4jnsgd1na2vs0mg"},{"bike_id":"9330c3d3-b201-436f-aa9e-355e010ee145","system_id":"levelo_inurba_marseille","lat":43.28466,"lon":5.38447,"is_reserved":false,"is_disabled":false,"rental_uris":{"android":"levelo://app?vid=9330c3d3-b201-436f-aa9e-355e010ee145","ios":"levelo://app?vid=9330c3d3-b201-436f-aa9e-355e010ee145"},"vehicle_type_id":"4","last_reported":1735388148,"current_range_meters":30400,"station_id":"ce4bh512rcd13ifvqe3g","pricing_plan_id":"cebpf4jnsgd1na2vs0mg"},{"bike_id":"4925cb82-224f-4759-8967-d0bccdeaee9a","system_id":"levelo_inurba_marseille","lat":43.29526,"lon":5.3751,"is_reserved":false,"is_disabled":false,"rental_uris":{"android":"levelo://app?vid=4925cb82-224f-4759-8967-d0bccdeaee9a","ios":"levelo://app?vid=4925cb82-224f-4759-8967-d0bccdeaee9a"},"vehicle_type_id":"4","last_reported":1735388148,"current_range_meters":8400,"station_id":"ce4bgkp2rcd13ifvqbmg","pricing_plan_id":"cebpf4jnsgd1na2vs0mg"},{"bike_id":"e8d51fd1-ec9d-451b-92b9-407184d86f7c","system_id":"levelo_inurba_marseille","lat":43.2994,"lon":5.36531,"is_reserved":false,"is_disabled":false,"rental_uris":{"android":"levelo://app?vid=e8d51fd1-ec9d-451b-92b9-407184d86f7c","ios":"levelo://app?vid=e8d51fd1-ec9d-451b-92b9-407184d86f7c"},"vehicle_type_id":"4","last_reported":1735388148,"current_range_meters":22400,"station_id":"ce4bgm92rcd13ifvqbr0","pricing_plan_id":"cebpf4jnsgd1na2vs0mg"},{"bike_id":"5a739918-86a4-42e4-92e1-44829e474d06","system_id":"levelo_inurba_marseille","lat":43.2924,"lon":5.38442,"is_reserved":false,"is_disabled":false,"rental_uris":{"android":"levelo://app?vid=5a739918-86a4-42e4-92e1-44829e474d06","ios":"levelo://app?vid=5a739918-86a4-42e4-92e1-44829e474d06"},"vehicle_type_id":"4","last_reported":1735388148,"current_range_meters":12400,"station_id":"ce4bh692rcd13ifvqea0","pricing_plan_id":"cebpf4jnsgd1na2vs0mg"},{"bike_id":"356fd92d-e963-40e6-b40e-58fc72ac9553","system_id":"levelo_inurba_marseille","lat":43.32104,"lon":5.36779,"is_reserved":false,"is_disabled":false,"rental_uris":{"android":"levelo://app?vid=356fd92d-e963-40e6-b40e-58fc72ac9553","ios":"levelo://app?vid=356fd92d-e963-40e6-b40e-58fc72ac9553"},"vehicle_type_id":"4","last_reported":1735388148,"current_range_meters":14400,"station_id":"ce4bhrh2rcd13ifvqhug","pricing_plan_id":"cebpf4jnsgd1na2vs0mg"},{"bike_id":"b9946797-e770-48ac-9bc5-6937e6a4e5a7","system_id":"levelo_inurba_marseille","lat":43.255,"lon":5.3766,"is_reserved":false,"is_disabled":false,"rental_uris":{"android":"levelo://app?vid=b9946797-e770-48ac-9bc5-6937e6a4e5a7","ios":"levelo://app?vid=b9946797-e770-48ac-9bc5-6937e6a4e5a7"},"vehicle_type_id":"4","last_reported":1735388148,"current_range_meters":38400,"station_id":"ce4bhh12rcd13ifvqff0","pricing_plan_id":"cebpf4jnsgd1na2vs0mg"},{"bike_id":"90c942c7-cc9f-4ca0-a4bf-cccb4ac71e6f","system_id":"levelo_inurba_marseille","lat":43.25715,"lon":5.41122,"is_reserved":false,"is_disabled":false,"rental_uris":{"android":"levelo://app?vid=90c942c7-cc9f-4ca0-a4bf-cccb4ac71e6f","ios":"levelo://app?vid=90c942c7-cc9f-4ca0-a4bf-cccb4ac71e6f"},"vehicle_type_id":"4","last_reported":1735388148,"current_range_meters":34000,"station_id":"ce4bhkp2rcd13ifvqgd0","pricing_plan_id":"cebpf4jnsgd1na2vs0mg"},{"bike_id":"3435786b-906d-494e-9b52-9ee291894bdb","system_id":"levelo_inurba_marseille","lat":43.26551,"lon":5.37288,"is_reserved":false,"is_disabled":true,"rental_uris":{"android":"levelo://app?vid=3435786b-906d-494e-9b52-9ee291894bdb","ios":"levelo://app?vid=3435786b-906d-494e-9b52-9ee291894bdb"},"vehicle_type_id":"4","last_reported":1735388148,"current_range_meters":0,"station_id":"ce4bhg12rcd13ifvqf70","pricing_plan_id":"cebpf4jnsgd1na2vs0mg"},{"bike_id":"90ed6077-bca5-4c05-9b40-989d297f4346","system_id":"levelo_inurba_marseille","lat":43.29875,"lon":5.3974,"is_reserved":false,"is_disabled":false,"rental_uris":{"android":"levelo://app?vid=90ed6077-bca5-4c05-9b40-989d297f4346","ios":"levelo://app?vid=90ed6077-bca5-4c05-9b40-989d297f4346"},"vehicle_type_id":"4","last_reported":1735388148,"current_range_meters":38800,"station_id":"ce4bh0h2rcd13ifvqd50","pricing_plan_id":"cebpf4jnsgd1na2vs0mg"},{"bike_id":"1a5fe85f-21f2-4c67-968f-111947a6581f","system_id":"levelo_inurba_marseille","lat":43.30657,"lon":5.40079,"is_reserved":false,"is_disabled":false,"rental_uris":{"android":"levelo://app?vid=1a5fe85f-21f2-4c67-968f-111947a6581f","ios":"levelo://app?vid=1a5fe85f-21f2-4c67-968f-111947a6581f"},"vehicle_type_id":"4","last_reported":1735388148,"current_range_meters":36800,"station_id":"ce4bh112rcd13ifvqda0","pricing_plan_id":"cebpf4jnsgd1na2vs0mg"},{"bike_id":"f8497df0-4557-47bc-9ea4-d8ec8afe7f62","system_id":"levelo_inurba_marseille","lat":43.29522,"lon":5.37502,"is_reserved":false,"is_disabled":false,"rental_uris":{"android":"levelo://app?vid=f8497df0-4557-47bc-9ea4-d8ec8afe7f62","ios":"levelo://app?vid=f8497df0-4557-47bc-9ea4-d8ec8afe7f62"},"vehicle_type_id":"4","last_reported":1735388148,"current_range_meters":36000,"station_id":"ce4bgkp2rcd13ifvqbmg","pricing_plan_id":"cebpf4jnsgd1na2vs0mg"},{"bike_id":"2ef4697c-a780-4e48-82a2-d540128f1669","system_id":"levelo_inurba_marseille","lat":43.32658,"lon":5.40995,"is_reserved":false,"is_disabled":false,"rental_uris":{"android":"levelo://app?vid=2ef4697c-a780-4e48-82a2-d540128f1669","ios":"levelo://app?vid=2ef4697c-a780-4e48-82a2-d540128f1669"},"vehicle_type_id":"4","last_reported":1735388148,"current_range_meters":38000,"station_id":"ce4bhpp2rcd13ifvqhgg","pricing_plan_id":"cebpf4jnsgd1na2vs0mg"},{"bike_id":"e8718ad8-52e8-42fb-af68-b806e0c8c535","system_id":"levelo_inurba_marseille","lat":43.23181,"lon":5.39988,"is_reserved":false,"is_disabled":false,"rental_uris":{"android":"levelo://app?vid=e8718ad8-52e8-42fb-af68-b806e0c8c535","ios":"levelo://app?vid=e8718ad8-52e8-42fb-af68-b806e0c8c535"},"vehicle_type_id":"4","last_reported":1735388148,"current_range_meters":28400,"station_id":"ce4bhn12rcd13ifvqgqg","pricing_plan_id":"cebpf4jnsgd1na2vs0mg"},{"bike_id":"673ed0fe-3027-4e1f-9efc-2804b0e32190","system_id":"levelo_inurba_marseille","lat":43.26688,"lon":5.38272,"is_reserved":false,"is_disabled":false,"rental_uris":{"android":"levelo://app?vid=673ed0fe-3027-4e1f-9efc-2804b0e32190","ios":"levelo://app?vid=673ed0fe-3027-4e1f-9efc-2804b0e32190"},"vehicle_type_id":"4","last_reported":1735388148,"current_range_meters":12400,"station_id":"ce4bhg92rcd13ifvqf90","pricing_plan_id":"cebpf4jnsgd1na2vs0mg"},{"bike_id":"7bc24a62-81b3-4a88-bc5e-a1f6c49f1a60","system_id":"levelo_inurba_marseille","lat":43.28681,"lon":5.38671,"is_reserved":false,"is_disabled":false,"rental_uris":{"android":"levelo://app?vid=7bc24a62-81b3-4a88-bc5e-a1f6c49f1a60","ios":"levelo://app?vid=7bc24a62-81b3-4a88-bc5e-a1f6c49f1a60"},"vehicle_type_id":"4","last_reported":1735388148,"current_range_meters":38800,"station_id":"ce4bh492rcd13ifvqdug","pricing_plan_id":"cebpf4jnsgd1na2vs0mg"},{"bike_id":"6c2a1b12-0e15-4b95-b5c3-b8abde5a695d","system_id":"levelo_inurba_marseille","lat":43.29612,"lon":5.37731,"is_reserved":false,"is_disabled":false,"rental_uris":{"android":"levelo://app?vid=6c2a1b12-0e15-4b95-b5c3-b8abde5a695d","ios":"levelo://app?vid=6c2a1b12-0e15-4b95-b5c3-b8abde5a695d"},"vehicle_type_id":"4","last_reported":1735388148,"current_range_meters":36800,"station_id":"ce4bgi92rcd13ifvqb90","pricing_plan_id":"cebpf4jnsgd1na2vs0mg"},{"bike_id":"4edf1a42-d1cb-4e42-a8d9-af12f276347c","system_id":"levelo_inurba_marseille","lat":43.26934,"lon":5.40253,"is_reserved":false,"is_disabled":false,"rental_uris":{"android":"levelo://app?vid=4edf1a42-d1cb-4e42-a8d9-af12f276347c","ios":"levelo://app?vid=4edf1a42-d1cb-4e42-a8d9-af12f276347c"},"vehicle_type_id":"4","last_reported":1735388148,"current_range_meters":39200,"station_id":"cjm6bp8fraef2m0cb0m0","pricing_plan_id":"cebpf4jnsgd1na2vs0mg"},{"bike_id":"e251fbdc-aee1-4174-a904-a67fb7c0b1da","system_id":"levelo_inurba_marseille","lat":43.317541,"lon":5.39023,"is_reserved":false,"is_disabled":false,"rental_uris":{"android":"levelo://app?vid=e251fbdc-aee1-4174-a904-a67fb7c0b1da","ios":"levelo://app?vid=e251fbdc-aee1-4174-a904-a67fb7c0b1da"},"vehicle_type_id":"4","last_reported":1735388148,"current_range_meters":26800,"station_id":"ce4bhqp2rcd13ifvqhng","pricing_plan_id":"cebpf4jnsgd1na2vs0mg"},{"bike_id":"e4c477c2-7de5-4221-8c03-48f7497fb7c9","system_id":"levelo_inurba_marseille","lat":43.30767,"lon":5.37663,"is_reserved":false,"is_disabled":false,"rental_uris":{"android":"levelo://app?vid=e4c477c2-7de5-4221-8c03-48f7497fb7c9","ios":"levelo://app?vid=e4c477c2-7de5-4221-8c03-48f7497fb7c9"},"vehicle_type_id":"4","last_reported":1735388148,"current_range_meters":38800,"station_id":"ce4bgv92rcd13ifvqcq0","pricing_plan_id":"cebpf4jnsgd1na2vs0mg"},{"bike_id":"5a062528-0776-4137-afe6-1c6db5964b2c","system_id":"levelo_inurba_marseille","lat":43.31487,"lon":5.37304,"is_reserved":false,"is_disabled":false,"rental_uris":{"android":"levelo://app?vid=5a062528-0776-4137-afe6-1c6db5964b2c","ios":"levelo://app?vid=5a062528-0776-4137-afe6-1c6db5964b2c"},"vehicle_type_id":"4","last_reported":1735388148,"current_range_meters":39200,"station_id":"ce4bgt12rcd13ifvqcd0","pricing_plan_id":"cebpf4jnsgd1na2vs0mg"},{"bike_id":"182697cb-2219-4e08-8291-846687f91a97","system_id":"levelo_inurba_marseille","lat":43.2815,"lon":5.42636,"is_reserved":false,"is_disabled":false,"rental_uris":{"android":"levelo://app?vid=182697cb-2219-4e08-8291-846687f91a97","ios":"levelo://app?vid=182697cb-2219-4e08-8291-846687f91a97"},"vehicle_type_id":"4","last_reported":1735388148,"current_range_meters":5600,"station_id":"ce4bhnh2rcd13ifvqgug","pricing_plan_id":"cebpf4jnsgd1na2vs0mg"},{"bike_id":"0e2e2a21-ac7e-4ad7-a25e-487c50aecf5f","system_id":"levelo_inurba_marseille","lat":43.29185,"lon":5.35839,"is_reserved":false,"is_disabled":false,"rental_uris":{"android":"levelo://app?vid=0e2e2a21-ac7e-4ad7-a25e-487c50aecf5f","ios":"levelo://app?vid=0e2e2a21-ac7e-4ad7-a25e-487c50aecf5f"},"vehicle_type_id":"4","last_reported":1735388148,"current_range_meters":38800,"station_id":"ce4bhb12rcd13ifvqel0","pricing_plan_id":"cebpf4jnsgd1na2vs0mg"},{"bike_id":"e07f17cb-27ad-4f87-ba7c-7a4bd3b83819","system_id":"levelo_inurba_marseille","lat":43.32479,"lon":5.36558,"is_reserved":false,"is_disabled":false,"rental_uris":{"android":"levelo://app?vid=e07f17cb-27ad-4f87-ba7c-7a4bd3b83819","ios":"levelo://app?vid=e07f17cb-27ad-4f87-ba7c-7a4bd3b83819"},"vehicle_type_id":"4","last_reported":1735388148,"current_range_meters":38800,"station_id":"ce4bhs12rcd13ifvqhvg","pricing_plan_id":"cebpf4jnsgd1na2vs0mg"},{"bike_id":"622825f4-100c-4370-a3e7-a2ac977f5898","system_id":"levelo_inurba_marseille","lat":43.29912,"lon":5.38147,"is_reserved":false,"is_disabled":false,"rental_uris":{"android":"levelo://app?vid=622825f4-100c-4370-a3e7-a2ac977f5898","ios":"levelo://app?vid=622825f4-100c-4370-a3e7-a2ac977f5898"},"vehicle_type_id":"4","last_reported":1735388148,"current_range_meters":9600,"station_id":"ce4bgj12rcd13ifvqbc0","pricing_plan_id":"cebpf4jnsgd1na2vs0mg"},{"bike_id":"4a7d5245-bcbe-4e26-910c-7440ef0a0854","system_id":"levelo_inurba_marseille","lat":43.29523,"lon":5.39408,"is_reserved":false,"is_disabled":false,"rental_uris":{"android":"levelo://app?vid=4a7d5245-bcbe-4e26-910c-7440ef0a0854","ios":"levelo://app?vid=4a7d5245-bcbe-4e26-910c-7440ef0a0854"},"vehicle_type_id":"4","last_reported":1735388148,"current_range_meters":38000,"station_id":"ce4bh292rcd13ifvqdf0","pricing_plan_id":"cebpf4jnsgd1na2vs0mg"},{"bike_id":"ab6bc61d-d1e0-4e2e-a824-377c21e3c7c9","system_id":"levelo_inurba_marseille","lat":43.29192,"lon":5.35821,"is_reserved":false,"is_disabled":true,"rental_uris":{"android":"levelo://app?vid=ab6bc61d-d1e0-4e2e-a824-377c21e3c7c9","ios":"levelo://app?vid=ab6bc61d-d1e0-4e2e-a824-377c21e3c7c9"},"vehicle_type_id":"4","last_reported":1735388148,"current_range_meters":4400,"station_id":"ce4bhb12rcd13ifvqel0","pricing_plan_id":"cebpf4jnsgd1na2vs0mg"},{"bike_id":"aad9bd70-a762-4749-b03b-a3c39a9e6b37","system_id":"levelo_inurba_marseille","lat":43.2836,"lon":5.38627,"is_reserved":false,"is_disabled":false,"rental_uris":{"android":"levelo://app?vid=aad9bd70-a762-4749-b03b-a3c39a9e6b37","ios":"levelo://app?vid=aad9bd70-a762-4749-b03b-a3c39a9e6b37"},"vehicle_type_id":"4","last_reported":1735388148,"current_range_meters":24800,"station_id":"ce4bh492rcd13ifvqdvg","pricing_plan_id":"cebpf4jnsgd1na2vs0mg"},{"bike_id":"02d1a785-568f-4790-a926-13accf20c75a","system_id":"levelo_inurba_marseille","lat":43.27992,"lon":5.41674,"is_reserved":false,"is_disabled":false,"rental_uris":{"android":"levelo://app?vid=02d1a785-568f-4790-a926-13accf20c75a","ios":"levelo://app?vid=02d1a785-568f-4790-a926-13accf20c75a"},"vehicle_type_id":"4","last_reported":1735388148,"current_range_meters":23200,"station_id":"ce4bho12rcd13ifvqh1g","pricing_plan_id":"cebpf4jnsgd1na2vs0mg"},{"bike_id":"06238650-178a-4a67-b951-f296ab8fb3da","system_id":"levelo_inurba_marseille","lat":43.3054,"lon":5.3654,"is_reserved":false,"is_disabled":false,"rental_uris":{"android":"levelo://app?vid=06238650-178a-4a67-b951-f296ab8fb3da","ios":"levelo://app?vid=06238650-178a-4a67-b951-f296ab8fb3da"},"vehicle_type_id":"4","last_reported":1735388148,"current_range_meters":18000,"station_id":"ce4bgs12rcd13ifvqcag","pricing_plan_id":"cebpf4jnsgd1na2vs0mg"},{"bike_id":"a20d0774-88d5-48c5-9c2e-62900db6ea58","system_id":"levelo_inurba_marseille","lat":43.256716,"lon":5.4097,"is_reserved":false,"is_disabled":false,"rental_uris":{"android":"levelo://app?vid=a20d0774-88d5-48c5-9c2e-62900db6ea58","ios":"levelo://app?vid=a20d0774-88d5-48c5-9c2e-62900db6ea58"},"vehicle_type_id":"4","last_reported":1735388148,"current_range_meters":12800,"station_id":"ce4bhkp2rcd13ifvqgd0","pricing_plan_id":"cebpf4jnsgd1na2vs0mg"},{"bike_id":"d5ddbfd8-c695-45c7-8f75-3f1b7776c13d","system_id":"levelo_inurba_marseille","lat":43.22927,"lon":5.3538,"is_reserved":false,"is_disabled":false,"rental_uris":{"android":"levelo://app?vid=d5ddbfd8-c695-45c7-8f75-3f1b7776c13d","ios":"levelo://app?vid=d5ddbfd8-c695-45c7-8f75-3f1b7776c13d"},"vehicle_type_id":"4","last_reported":1735388148,"current_range_meters":38800,"station_id":"cpo3532slgdg3j2ikp40","pricing_plan_id":"cebpf4jnsgd1na2vs0mg"},{"bike_id":"eeb0d433-3c14-490c-a1c3-e6268649a012","system_id":"levelo_inurba_marseille","lat":43.27058,"lon":5.42285,"is_reserved":false,"is_disabled":false,"rental_uris":{"android":"levelo://app?vid=eeb0d433-3c14-490c-a1c3-e6268649a012","ios":"levelo://app?vid=eeb0d433-3c14-490c-a1c3-e6268649a012"},"vehicle_type_id":"4","last_reported":1735388148,"current_range_meters":36800,"station_id":"ce4bhk92rcd13ifvqgb0","pricing_plan_id":"cebpf4jnsgd1na2vs0mg"},{"bike_id":"06daafe8-c6fa-430b-b5f9-87198d0c04e2","system_id":"levelo_inurba_marseille","lat":43.29898,"lon":5.43673,"is_reserved":false,"is_disabled":false,"rental_uris":{"android":"levelo://app?vid=06daafe8-c6fa-430b-b5f9-87198d0c04e2","ios":"levelo://app?vid=06daafe8-c6fa-430b-b5f9-87198d0c04e2"},"vehicle_type_id":"4","last_reported":1735388148,"current_range_meters":28800,"station_id":"ce4bhpp2rcd13ifvqhfg","pricing_plan_id":"cebpf4jnsgd1na2vs0mg"},{"bike_id":"5477d212-35e2-4622-b27a-bfe5ff434d03","system_id":"levelo_inurba_marseille","lat":43.337603,"lon":5.374424,"is_reserved":false,"is_disabled":false,"rental_uris":{"android":"levelo://app?vid=5477d212-35e2-4622-b27a-bfe5ff434d03","ios":"levelo://app?vid=5477d212-35e2-4622-b27a-bfe5ff434d03"},"vehicle_type_id":"4","last_reported":1735388148,"current_range_meters":25600,"station_id":"","pricing_plan_id":"cebpf4jnsgd1na2vs0mg"},{"bike_id":"95076bf9-9e34-4163-8e0b-7e0d9106b9a9","system_id":"levelo_inurba_marseille","lat":43.308835,"lon":5.396468,"is_reserved":false,"is_disabled":false,"rental_uris":{"android":"levelo://app?vid=95076bf9-9e34-4163-8e0b-7e0d9106b9a9","ios":"levelo://app?vid=95076bf9-9e34-4163-8e0b-7e0d9106b9a9"},"vehicle_type_id":"4","last_reported":1735388148,"current_range_meters":38800,"station_id":"ce4bh012rcd13ifvqcv0","pricing_plan_id":"cebpf4jnsgd1na2vs0mg"},{"bike_id":"5f51766e-2cc5-4378-a73d-126b72e8ffc6","system_id":"levelo_inurba_marseille","lat":43.29791,"lon":5.40405,"is_reserved":false,"is_disabled":false,"rental_uris":{"android":"levelo://app?vid=5f51766e-2cc5-4378-a73d-126b72e8ffc6","ios":"levelo://app?vid=5f51766e-2cc5-4378-a73d-126b72e8ffc6"},"vehicle_type_id":"4","last_reported":1735388148,"current_range_meters":29600,"station_id":"ce4bh112rcd13ifvqd90","pricing_plan_id":"cebpf4jnsgd1na2vs0mg"},{"bike_id":"32df82ce-6219-4736-8eb8-fc8999cbfd21","system_id":"levelo_inurba_marseille","lat":43.26201,"lon":5.37925,"is_reserved":false,"is_disabled":false,"rental_uris":{"android":"levelo://app?vid=32df82ce-6219-4736-8eb8-fc8999cbfd21","ios":"levelo://app?vid=32df82ce-6219-4736-8eb8-fc8999cbfd21"},"vehicle_type_id":"4","last_reported":1735388148,"current_range_meters":38800,"station_id":"ce4bhjp2rcd13ifvqg90","pricing_plan_id":"cebpf4jnsgd1na2vs0mg"},{"bike_id":"18aa3891-bccc-421b-87b0-25bb90e4fabb","system_id":"levelo_inurba_marseille","lat":43.30423,"lon":5.38888,"is_reserved":false,"is_disabled":false,"rental_uris":{"android":"levelo://app?vid=18aa3891-bccc-421b-87b0-25bb90e4fabb","ios":"levelo://app?vid=18aa3891-bccc-421b-87b0-25bb90e4fabb"},"vehicle_type_id":"4","last_reported":1735388148,"current_range_meters":18000,"station_id":"ce4bgk12rcd13ifvqbi0","pricing_plan_id":"cebpf4jnsgd1na2vs0mg"},{"bike_id":"7b4149c7-000d-4a5e-a048-0f208a6d4a0d","system_id":"levelo_inurba_marseille","lat":43.30782,"lon":5.37668,"is_reserved":false,"is_disabled":false,"rental_uris":{"android":"levelo://app?vid=7b4149c7-000d-4a5e-a048-0f208a6d4a0d","ios":"levelo://app?vid=7b4149c7-000d-4a5e-a048-0f208a6d4a0d"},"vehicle_type_id":"4","last_reported":1735388148,"current_range_meters":38800,"station_id":"ce4bgv92rcd13ifvqcq0","pricing_plan_id":"cebpf4jnsgd1na2vs0mg"},{"bike_id":"3deeb153-8183-495f-a95d-408ac615dcde","system_id":"levelo_inurba_marseille","lat":43.27987,"lon":5.40032,"is_reserved":false,"is_disabled":false,"rental_uris":{"android":"levelo://app?vid=3deeb153-8183-495f-a95d-408ac615dcde","ios":"levelo://app?vid=3deeb153-8183-495f-a95d-408ac615dcde"},"vehicle_type_id":"4","last_reported":1735388148,"current_range_meters":38800,"station_id":"ce4bho92rcd13ifvqh4g","pricing_plan_id":"cebpf4jnsgd1na2vs0mg"},{"bike_id":"0cfb0a3d-0020-4998-ba2e-283f18ea00e9","system_id":"levelo_inurba_marseille","lat":43.30152,"lon":5.3808,"is_reserved":false,"is_disabled":false,"rental_uris":{"android":"levelo://app?vid=0cfb0a3d-0020-4998-ba2e-283f18ea00e9","ios":"levelo://app?vid=0cfb0a3d-0020-4998-ba2e-283f18ea00e9"},"vehicle_type_id":"4","last_reported":1735388148,"current_range_meters":38000,"station_id":"ce4bgjp2rcd13ifvqbh0","pricing_plan_id":"cebpf4jnsgd1na2vs0mg"},{"bike_id":"cedf33c7-0c6e-44d0-b641-3d4f75e24128","system_id":"levelo_inurba_marseille","lat":43.30553,"lon":5.36534,"is_reserved":false,"is_disabled":false,"rental_uris":{"android":"levelo://app?vid=cedf33c7-0c6e-44d0-b641-3d4f75e24128","ios":"levelo://app?vid=cedf33c7-0c6e-44d0-b641-3d4f75e24128"},"vehicle_type_id":"4","last_reported":1735388148,"current_range_meters":33600,"station_id":"ce4bgs12rcd13ifvqcag","pricing_plan_id":"cebpf4jnsgd1na2vs0mg"},{"bike_id":"28bd3904-ffcb-4595-8c51-c947161caafc","system_id":"levelo_inurba_marseille","lat":43.29597,"lon":5.37739,"is_reserved":false,"is_disabled":false,"rental_uris":{"android":"levelo://app?vid=28bd3904-ffcb-4595-8c51-c947161caafc","ios":"levelo://app?vid=28bd3904-ffcb-4595-8c51-c947161caafc"},"vehicle_type_id":"4","last_reported":1735388148,"current_range_meters":16400,"station_id":"ce4bgi92rcd13ifvqb90","pricing_plan_id":"cebpf4jnsgd1na2vs0mg"},{"bike_id":"e82fa968-8cc5-4e9d-9e64-93cbca02a3c9","system_id":"levelo_inurba_marseille","lat":43.295,"lon":5.3752,"is_reserved":false,"is_disabled":false,"rental_uris":{"android":"levelo://app?vid=e82fa968-8cc5-4e9d-9e64-93cbca02a3c9","ios":"levelo://app?vid=e82fa968-8cc5-4e9d-9e64-93cbca02a3c9"},"vehicle_type_id":"4","last_reported":1735388148,"current_range_meters":12000,"station_id":"ce4bgkp2rcd13ifvqbmg","pricing_plan_id":"cebpf4jnsgd1na2vs0mg"},{"bike_id":"6bd48d81-28e7-45d3-91bb-c861a5a2eba5","system_id":"levelo_inurba_marseille","lat":43.26919,"lon":5.40242,"is_reserved":false,"is_disabled":false,"rental_uris":{"android":"levelo://app?vid=6bd48d81-28e7-45d3-91bb-c861a5a2eba5","ios":"levelo://app?vid=6bd48d81-28e7-45d3-91bb-c861a5a2eba5"},"vehicle_type_id":"4","last_reported":1735388148,"current_range_meters":38800,"station_id":"cjm6bp8fraef2m0cb0m0","pricing_plan_id":"cebpf4jnsgd1na2vs0mg"},{"bike_id":"c384a4cb-56b0-4579-a477-6eaf91751044","system_id":"levelo_inurba_marseille","lat":43.29675,"lon":5.37291,"is_reserved":false,"is_disabled":false,"rental_uris":{"android":"levelo://app?vid=c384a4cb-56b0-4579-a477-6eaf91751044","ios":"levelo://app?vid=c384a4cb-56b0-4579-a477-6eaf91751044"},"vehicle_type_id":"4","last_reported":1735388148,"current_range_meters":14400,"station_id":"ce4bgk12rcd13ifvqbj0","pricing_plan_id":"cebpf4jnsgd1na2vs0mg"},{"bike_id":"d817ad08-5ffa-4d6f-a0b9-b46b546571b0","system_id":"levelo_inurba_marseille","lat":43.3059,"lon":5.37231,"is_reserved":false,"is_disabled":false,"rental_uris":{"android":"levelo://app?vid=d817ad08-5ffa-4d6f-a0b9-b46b546571b0","ios":"levelo://app?vid=d817ad08-5ffa-4d6f-a0b9-b46b546571b0"},"vehicle_type_id":"4","last_reported":1735388148,"current_range_meters":37600,"station_id":"ce4bgqh2rcd13ifvqc4g","pricing_plan_id":"cebpf4jnsgd1na2vs0mg"},{"bike_id":"27001726-4b0a-4ba0-8261-5a303bdee373","system_id":"levelo_inurba_marseille","lat":43.27555,"lon":5.38426,"is_reserved":false,"is_disabled":false,"rental_uris":{"android":"levelo://app?vid=27001726-4b0a-4ba0-8261-5a303bdee373","ios":"levelo://app?vid=27001726-4b0a-4ba0-8261-5a303bdee373"},"vehicle_type_id":"4","last_reported":1735388148,"current_range_meters":38800,"station_id":"ce4bhh92rcd13ifvqfi0","pricing_plan_id":"cebpf4jnsgd1na2vs0mg"},{"bike_id":"421c6551-132c-4015-aab8-f2eccc5315e9","system_id":"levelo_inurba_marseille","lat":43.33159,"lon":5.39607,"is_reserved":false,"is_disabled":false,"rental_uris":{"android":"levelo://app?vid=421c6551-132c-4015-aab8-f2eccc5315e9","ios":"levelo://app?vid=421c6551-132c-4015-aab8-f2eccc5315e9"},"vehicle_type_id":"4","last_reported":1735388148,"current_range_meters":36000,"station_id":"ce4bhr92rcd13ifvqhrg","pricing_plan_id":"cebpf4jnsgd1na2vs0mg"},{"bike_id":"47003c16-5788-487c-a470-e96e4f20143d","system_id":"levelo_inurba_marseille","lat":43.30088,"lon":5.39082,"is_reserved":false,"is_disabled":false,"rental_uris":{"android":"levelo://app?vid=47003c16-5788-487c-a470-e96e4f20143d","ios":"levelo://app?vid=47003c16-5788-487c-a470-e96e4f20143d"},"vehicle_type_id":"4","last_reported":1735388148,"current_range_meters":18800,"station_id":"ce4bh192rcd13ifvqdb0","pricing_plan_id":"cebpf4jnsgd1na2vs0mg"},{"bike_id":"d7294cd5-2623-434f-b244-c391219a24d9","system_id":"levelo_inurba_marseille","lat":43.30531,"lon":5.36712,"is_reserved":false,"is_disabled":false,"rental_uris":{"android":"levelo://app?vid=d7294cd5-2623-434f-b244-c391219a24d9","ios":"levelo://app?vid=d7294cd5-2623-434f-b244-c391219a24d9"},"vehicle_type_id":"4","last_reported":1735388148,"current_range_meters":27600,"station_id":"ce4bgrp2rcd13ifvqc9g","pricing_plan_id":"cebpf4jnsgd1na2vs0mg"},{"bike_id":"87a48cd1-ce9b-4509-ad0f-3bd3aa23cbe9","system_id":"levelo_inurba_marseille","lat":43.30534,"lon":5.36718,"is_reserved":false,"is_disabled":false,"rental_uris":{"android":"levelo://app?vid=87a48cd1-ce9b-4509-ad0f-3bd3aa23cbe9","ios":"levelo://app?vid=87a48cd1-ce9b-4509-ad0f-3bd3aa23cbe9"},"vehicle_type_id":"4","last_reported":1735388148,"current_range_meters":32000,"station_id":"ce4bgrp2rcd13ifvqc9g","pricing_plan_id":"cebpf4jnsgd1na2vs0mg"},{"bike_id":"cb8f867a-8ffc-4e25-bafd-f4f5028e89a8","system_id":"levelo_inurba_marseille","lat":43.23062,"lon":5.35489,"is_reserved":false,"is_disabled":false,"rental_uris":{"android":"levelo://app?vid=cb8f867a-8ffc-4e25-bafd-f4f5028e89a8","ios":"levelo://app?vid=cb8f867a-8ffc-4e25-bafd-f4f5028e89a8"},"vehicle_type_id":"4","last_reported":1735388148,"current_range_meters":22000,"station_id":"cpo3342slgdg3j2ifvpg","pricing_plan_id":"cebpf4jnsgd1na2vs0mg"},{"bike_id":"8f5f6bc9-5b2c-41e5-bd9e-0bd703e3fe34","system_id":"levelo_inurba_marseille","lat":43.31161,"lon":5.38719,"is_reserved":false,"is_disabled":false,"rental_uris":{"android":"levelo://app?vid=8f5f6bc9-5b2c-41e5-bd9e-0bd703e3fe34","ios":"levelo://app?vid=8f5f6bc9-5b2c-41e5-bd9e-0bd703e3fe34"},"vehicle_type_id":"4","last_reported":1735388148,"current_range_meters":13600,"station_id":"ce4bgv12rcd13ifvqcp0","pricing_plan_id":"cebpf4jnsgd1na2vs0mg"},{"bike_id":"7ed14772-43fd-4e91-9682-602d4d8bddbc","system_id":"levelo_inurba_marseille","lat":43.2465,"lon":5.38899,"is_reserved":false,"is_disabled":false,"rental_uris":{"android":"levelo://app?vid=7ed14772-43fd-4e91-9682-602d4d8bddbc","ios":"levelo://app?vid=7ed14772-43fd-4e91-9682-602d4d8bddbc"},"vehicle_type_id":"4","last_reported":1735388148,"current_range_meters":39200,"station_id":"ce4bhg12rcd13ifvqf60","pricing_plan_id":"cebpf4jnsgd1na2vs0mg"},{"bike_id":"4177acde-1058-4310-8bf5-f3d203e2d711","system_id":"levelo_inurba_marseille","lat":43.27427,"lon":5.39419,"is_reserved":false,"is_disabled":false,"rental_uris":{"android":"levelo://app?vid=4177acde-1058-4310-8bf5-f3d203e2d711","ios":"levelo://app?vid=4177acde-1058-4310-8bf5-f3d203e2d711"},"vehicle_type_id":"4","last_reported":1735388148,"current_range_meters":23200,"station_id":"ce4bhdp2rcd13ifvqf20","pricing_plan_id":"cebpf4jnsgd1na2vs0mg"},{"bike_id":"c9e5d6c6-5601-4769-be5c-20fef93ca121","system_id":"levelo_inurba_marseille","lat":43.24163,"lon":5.36395,"is_reserved":false,"is_disabled":false,"rental_uris":{"android":"levelo://app?vid=c9e5d6c6-5601-4769-be5c-20fef93ca121","ios":"levelo://app?vid=c9e5d6c6-5601-4769-be5c-20fef93ca121"},"vehicle_type_id":"4","last_reported":1735388148,"current_range_meters":17600,"station_id":"cpo36qri1sfpv3e86is0","pricing_plan_id":"cebpf4jnsgd1na2vs0mg"},{"bike_id":"e23a7d55-7ce1-4f20-a71a-26c06c907d82","system_id":"levelo_inurba_marseille","lat":43.2794,"lon":5.41062,"is_reserved":false,"is_disabled":false,"rental_uris":{"android":"levelo://app?vid=e23a7d55-7ce1-4f20-a71a-26c06c907d82","ios":"levelo://app?vid=e23a7d55-7ce1-4f20-a71a-26c06c907d82"},"vehicle_type_id":"4","last_reported":1735388148,"current_range_meters":36000,"station_id":"ce4bhnp2rcd13ifvqh0g","pricing_plan_id":"cebpf4jnsgd1na2vs0mg"},{"bike_id":"88d25dc6-77d7-4a14-94e3-b489df5b3b63","system_id":"levelo_inurba_marseille","lat":43.32471,"lon":5.3659,"is_reserved":false,"is_disabled":false,"rental_uris":{"android":"levelo://app?vid=88d25dc6-77d7-4a14-94e3-b489df5b3b63","ios":"levelo://app?vid=88d25dc6-77d7-4a14-94e3-b489df5b3b63"},"vehicle_type_id":"4","last_reported":1735388148,"current_range_meters":38800,"station_id":"ce4bhs12rcd13ifvqhvg","pricing_plan_id":"cebpf4jnsgd1na2vs0mg"},{"bike_id":"b63b9eb6-fafc-4c7c-ad91-57273b105b52","system_id":"levelo_inurba_marseille","lat":43.29892,"lon":5.38158,"is_reserved":false,"is_disabled":false,"rental_uris":{"android":"levelo://app?vid=b63b9eb6-fafc-4c7c-ad91-57273b105b52","ios":"levelo://app?vid=b63b9eb6-fafc-4c7c-ad91-57273b105b52"},"vehicle_type_id":"4","last_reported":1735388148,"current_range_meters":38800,"station_id":"ce4bgj12rcd13ifvqbc0","pricing_plan_id":"cebpf4jnsgd1na2vs0mg"},{"bike_id":"f301bf56-71a5-4098-a52b-dd5125e1fd47","system_id":"levelo_inurba_marseille","lat":43.32284,"lon":5.38283,"is_reserved":false,"is_disabled":false,"rental_uris":{"android":"levelo://app?vid=f301bf56-71a5-4098-a52b-dd5125e1fd47","ios":"levelo://app?vid=f301bf56-71a5-4098-a52b-dd5125e1fd47"},"vehicle_type_id":"4","last_reported":1735388148,"current_range_meters":37600,"station_id":"ce4bhr12rcd13ifvqhqg","pricing_plan_id":"cebpf4jnsgd1na2vs0mg"},{"bike_id":"f83dded0-e4d8-47a4-8324-7d51c5d0e918","system_id":"levelo_inurba_marseille","lat":43.3015,"lon":5.38104,"is_reserved":false,"is_disabled":false,"rental_uris":{"android":"levelo://app?vid=f83dded0-e4d8-47a4-8324-7d51c5d0e918","ios":"levelo://app?vid=f83dded0-e4d8-47a4-8324-7d51c5d0e918"},"vehicle_type_id":"4","last_reported":1735388148,"current_range_meters":35600,"station_id":"ce4bgjp2rcd13ifvqbh0","pricing_plan_id":"cebpf4jnsgd1na2vs0mg"},{"bike_id":"227bcf77-20b2-428c-8949-45d68f3535b3","system_id":"levelo_inurba_marseille","lat":43.26937,"lon":5.40253,"is_reserved":false,"is_disabled":false,"rental_uris":{"android":"levelo://app?vid=227bcf77-20b2-428c-8949-45d68f3535b3","ios":"levelo://app?vid=227bcf77-20b2-428c-8949-45d68f3535b3"},"vehicle_type_id":"4","last_reported":1735388148,"current_range_meters":22400,"station_id":"cjm6bp8fraef2m0cb0m0","pricing_plan_id":"cebpf4jnsgd1na2vs0mg"},{"bike_id":"723153cc-934d-4148-b55d-0acada9ad019","system_id":"levelo_inurba_marseille","lat":43.28998,"lon":5.35618,"is_reserved":false,"is_disabled":false,"rental_uris":{"android":"levelo://app?vid=723153cc-934d-4148-b55d-0acada9ad019","ios":"levelo://app?vid=723153cc-934d-4148-b55d-0acada9ad019"},"vehicle_type_id":"4","last_reported":1735388148,"current_range_meters":36800,"station_id":"ce4bhb92rcd13ifvqen0","pricing_plan_id":"cebpf4jnsgd1na2vs0mg"},{"bike_id":"eb21583f-ae42-4992-8c51-1700ef08c972","system_id":"levelo_inurba_marseille","lat":43.29035,"lon":5.39963,"is_reserved":false,"is_disabled":false,"rental_uris":{"android":"levelo://app?vid=eb21583f-ae42-4992-8c51-1700ef08c972","ios":"levelo://app?vid=eb21583f-ae42-4992-8c51-1700ef08c972"},"vehicle_type_id":"4","last_reported":1735388148,"current_range_meters":32000,"station_id":"ce4bh392rcd13ifvqdm0","pricing_plan_id":"cebpf4jnsgd1na2vs0mg"},{"bike_id":"867753eb-5f0f-4901-861c-c315e1ec9171","system_id":"levelo_inurba_marseille","lat":43.2836,"lon":5.38639,"is_reserved":false,"is_disabled":false,"rental_uris":{"android":"levelo://app?vid=867753eb-5f0f-4901-861c-c315e1ec9171","ios":"levelo://app?vid=867753eb-5f0f-4901-861c-c315e1ec9171"},"vehicle_type_id":"4","last_reported":1735388148,"current_range_meters":37600,"station_id":"ce4bh492rcd13ifvqdvg","pricing_plan_id":"cebpf4jnsgd1na2vs0mg"},{"bike_id":"eadabbdf-f27e-4542-81b8-57f38bbe0912","system_id":"levelo_inurba_marseille","lat":43.28471,"lon":5.38428,"is_reserved":false,"is_disabled":false,"rental_uris":{"android":"levelo://app?vid=eadabbdf-f27e-4542-81b8-57f38bbe0912","ios":"levelo://app?vid=eadabbdf-f27e-4542-81b8-57f38bbe0912"},"vehicle_type_id":"4","last_reported":1735388148,"current_range_meters":12400,"station_id":"ce4bh512rcd13ifvqe3g","pricing_plan_id":"cebpf4jnsgd1na2vs0mg"},{"bike_id":"deb74dd6-caed-4958-9dd1-d5f6f39c849d","system_id":"levelo_inurba_marseille","lat":43.29842,"lon":5.36284,"is_reserved":false,"is_disabled":false,"rental_uris":{"android":"levelo://app?vid=deb74dd6-caed-4958-9dd1-d5f6f39c849d","ios":"levelo://app?vid=deb74dd6-caed-4958-9dd1-d5f6f39c849d"},"vehicle_type_id":"4","last_reported":1735388148,"current_range_meters":25600,"station_id":"ce4bgpp2rcd13ifvqc3g","pricing_plan_id":"cebpf4jnsgd1na2vs0mg"},{"bike_id":"15c2670d-f807-47f7-9fbe-1c14fcb46679","system_id":"levelo_inurba_marseille","lat":43.29605,"lon":5.38143,"is_reserved":false,"is_disabled":false,"rental_uris":{"android":"levelo://app?vid=15c2670d-f807-47f7-9fbe-1c14fcb46679","ios":"levelo://app?vid=15c2670d-f807-47f7-9fbe-1c14fcb46679"},"vehicle_type_id":"4","last_reported":1735388148,"current_range_meters":24400,"station_id":"ce4bh512rcd13ifvqe3g","pricing_plan_id":"cebpf4jnsgd1na2vs0mg"},{"bike_id":"0869301a-63d0-4228-8b67-c47ca7686146","system_id":"levelo_inurba_marseille","lat":43.29858,"lon":5.39729,"is_reserved":false,"is_disabled":false,"rental_uris":{"android":"levelo://app?vid=0869301a-63d0-4228-8b67-c47ca7686146","ios":"levelo://app?vid=0869301a-63d0-4228-8b67-c47ca7686146"},"vehicle_type_id":"4","last_reported":1735388148,"current_range_meters":39200,"station_id":"ce4bh0h2rcd13ifvqd50","pricing_plan_id":"cebpf4jnsgd1na2vs0mg"},{"bike_id":"c962fb46-5ea5-4907-8407-84ffd84f2be6","system_id":"levelo_inurba_marseille","lat":43.29055,"lon":5.37157,"is_reserved":false,"is_disabled":false,"rental_uris":{"android":"levelo://app?vid=c962fb46-5ea5-4907-8407-84ffd84f2be6","ios":"levelo://app?vid=c962fb46-5ea5-4907-8407-84ffd84f2be6"},"vehicle_type_id":"4","last_reported":1735388148,"current_range_meters":37600,"station_id":"ce4bh5p2rcd13ifvqe4g","pricing_plan_id":"cebpf4jnsgd1na2vs0mg"},{"bike_id":"16d30438-d609-4c9b-be36-cc109ff785a9","system_id":"levelo_inurba_marseille","lat":43.29813,"lon":5.40408,"is_reserved":false,"is_disabled":false,"rental_uris":{"android":"levelo://app?vid=16d30438-d609-4c9b-be36-cc109ff785a9","ios":"levelo://app?vid=16d30438-d609-4c9b-be36-cc109ff785a9"},"vehicle_type_id":"4","last_reported":1735388148,"current_range_meters":24400,"station_id":"ce4bh112rcd13ifvqd90","pricing_plan_id":"cebpf4jnsgd1na2vs0mg"},{"bike_id":"293671a8-67e1-4d08-a7c6-ed1760e6dded","system_id":"levelo_inurba_marseille","lat":43.31756,"lon":5.39034,"is_reserved":false,"is_disabled":false,"rental_uris":{"android":"levelo://app?vid=293671a8-67e1-4d08-a7c6-ed1760e6dded","ios":"levelo://app?vid=293671a8-67e1-4d08-a7c6-ed1760e6dded"},"vehicle_type_id":"4","last_reported":1735388148,"current_range_meters":36000,"station_id":"ce4bhqp2rcd13ifvqhng","pricing_plan_id":"cebpf4jnsgd1na2vs0mg"},{"bike_id":"c6c13bd7-4271-4264-b140-f9ea57eb3f23","system_id":"levelo_inurba_marseille","lat":43.25495,"lon":5.37652,"is_reserved":false,"is_disabled":false,"rental_uris":{"android":"levelo://app?vid=c6c13bd7-4271-4264-b140-f9ea57eb3f23","ios":"levelo://app?vid=c6c13bd7-4271-4264-b140-f9ea57eb3f23"},"vehicle_type_id":"4","last_reported":1735388148,"current_range_meters":26800,"station_id":"ce4bhh12rcd13ifvqff0","pricing_plan_id":"cebpf4jnsgd1na2vs0mg"},{"bike_id":"b23c0590-ef54-41cd-8583-62a444448403","system_id":"levelo_inurba_marseille","lat":43.29851,"lon":5.36281,"is_reserved":false,"is_disabled":false,"rental_uris":{"android":"levelo://app?vid=b23c0590-ef54-41cd-8583-62a444448403","ios":"levelo://app?vid=b23c0590-ef54-41cd-8583-62a444448403"},"vehicle_type_id":"4","last_reported":1735388148,"current_range_meters":36000,"station_id":"ce4bgpp2rcd13ifvqc3g","pricing_plan_id":"cebpf4jnsgd1na2vs0mg"},{"bike_id":"dac94ecf-3203-4c89-acc0-21c14e979588","system_id":"levelo_inurba_marseille","lat":43.26679,"lon":5.38291,"is_reserved":false,"is_disabled":false,"rental_uris":{"android":"levelo://app?vid=dac94ecf-3203-4c89-acc0-21c14e979588","ios":"levelo://app?vid=dac94ecf-3203-4c89-acc0-21c14e979588"},"vehicle_type_id":"4","last_reported":1735388148,"current_range_meters":32400,"station_id":"ce4bhg92rcd13ifvqf90","pricing_plan_id":"cebpf4jnsgd1na2vs0mg"},{"bike_id":"e817aef2-7f91-45a8-be3d-4a7298830e2c","system_id":"levelo_inurba_marseille","lat":43.31161,"lon":5.36914,"is_reserved":false,"is_disabled":false,"rental_uris":{"android":"levelo://app?vid=e817aef2-7f91-45a8-be3d-4a7298830e2c","ios":"levelo://app?vid=e817aef2-7f91-45a8-be3d-4a7298830e2c"},"vehicle_type_id":"4","last_reported":1735388148,"current_range_meters":33200,"station_id":"","pricing_plan_id":"cebpf4jnsgd1na2vs0mg"},{"bike_id":"5883ceb6-abe4-400d-b92f-676994709c47","system_id":"levelo_inurba_marseille","lat":43.27213,"lon":5.39187,"is_reserved":false,"is_disabled":false,"rental_uris":{"android":"levelo://app?vid=5883ceb6-abe4-400d-b92f-676994709c47","ios":"levelo://app?vid=5883ceb6-abe4-400d-b92f-676994709c47"},"vehicle_type_id":"4","last_reported":1735388148,"current_range_meters":12800,"station_id":"ce4bhhp2rcd13ifvqfm0","pricing_plan_id":"cebpf4jnsgd1na2vs0mg"},{"bike_id":"d787e330-e288-4e1c-926a-5bcb7a236ca2","system_id":"levelo_inurba_marseille","lat":43.28167,"lon":5.42621,"is_reserved":false,"is_disabled":false,"rental_uris":{"android":"levelo://app?vid=d787e330-e288-4e1c-926a-5bcb7a236ca2","ios":"levelo://app?vid=d787e330-e288-4e1c-926a-5bcb7a236ca2"},"vehicle_type_id":"4","last_reported":1735388148,"current_range_meters":28400,"station_id":"ce4bhnh2rcd13ifvqgug","pricing_plan_id":"cebpf4jnsgd1na2vs0mg"},{"bike_id":"2ae705de-6574-464b-ab9f-3d33c1b2a845","system_id":"levelo_inurba_marseille","lat":43.25856,"lon":5.39911,"is_reserved":false,"is_disabled":false,"rental_uris":{"android":"levelo://app?vid=2ae705de-6574-464b-ab9f-3d33c1b2a845","ios":"levelo://app?vid=2ae705de-6574-464b-ab9f-3d33c1b2a845"},"vehicle_type_id":"4","last_reported":1735388148,"current_range_meters":38800,"station_id":"ce4bhl92rcd13ifvqghg","pricing_plan_id":"cebpf4jnsgd1na2vs0mg"},{"bike_id":"9f14593c-6bea-4127-b1fc-c4fadd694d26","system_id":"levelo_inurba_marseille","lat":43.27668,"lon":5.38918,"is_reserved":false,"is_disabled":false,"rental_uris":{"android":"levelo://app?vid=9f14593c-6bea-4127-b1fc-c4fadd694d26","ios":"levelo://app?vid=9f14593c-6bea-4127-b1fc-c4fadd694d26"},"vehicle_type_id":"4","last_reported":1735388148,"current_range_meters":24400,"station_id":"ce4bhi12rcd13ifvqfo0","pricing_plan_id":"cebpf4jnsgd1na2vs0mg"},{"bike_id":"281af59c-53bc-446e-a47b-82e4315674de","system_id":"levelo_inurba_marseille","lat":43.29776,"lon":5.371,"is_reserved":false,"is_disabled":false,"rental_uris":{"android":"levelo://app?vid=281af59c-53bc-446e-a47b-82e4315674de","ios":"levelo://app?vid=281af59c-53bc-446e-a47b-82e4315674de"},"vehicle_type_id":"4","last_reported":1735388148,"current_range_meters":37600,"station_id":"ce4bgop2rcd13ifvqc1g","pricing_plan_id":"cebpf4jnsgd1na2vs0mg"},{"bike_id":"bf706ee3-8bc5-4787-9117-a873bb3a1868","system_id":"levelo_inurba_marseille","lat":43.28459,"lon":5.35891,"is_reserved":false,"is_disabled":false,"rental_uris":{"android":"levelo://app?vid=bf706ee3-8bc5-4787-9117-a873bb3a1868","ios":"levelo://app?vid=bf706ee3-8bc5-4787-9117-a873bb3a1868"},"vehicle_type_id":"4","last_reported":1735388148,"current_range_meters":25600,"station_id":"ce4bhah2rcd13ifvqei0","pricing_plan_id":"cebpf4jnsgd1na2vs0mg"},{"bike_id":"6b579508-5354-439e-a4e0-4261173e8d8b","system_id":"levelo_inurba_marseille","lat":43.2991,"lon":5.374826,"is_reserved":false,"is_disabled":false,"rental_uris":{"android":"levelo://app?vid=6b579508-5354-439e-a4e0-4261173e8d8b","ios":"levelo://app?vid=6b579508-5354-439e-a4e0-4261173e8d8b"},"vehicle_type_id":"4","last_reported":1735388148,"current_range_meters":38800,"station_id":"ce4bgjh2rcd13ifvqbg0","pricing_plan_id":"cebpf4jnsgd1na2vs0mg"},{"bike_id":"e93efc2f-4d32-418b-a9a6-50f1d941711d","system_id":"levelo_inurba_marseille","lat":43.31995,"lon":5.381487,"is_reserved":false,"is_disabled":false,"rental_uris":{"android":"levelo://app?vid=e93efc2f-4d32-418b-a9a6-50f1d941711d","ios":"levelo://app?vid=e93efc2f-4d32-418b-a9a6-50f1d941711d"},"vehicle_type_id":"4","last_reported":1735388148,"current_range_meters":12400,"station_id":"ce4bhr12rcd13ifvqhpg","pricing_plan_id":"cebpf4jnsgd1na2vs0mg"},{"bike_id":"fc55ee07-cb79-4880-8466-c9fe9e754cca","system_id":"levelo_inurba_marseille","lat":43.3236,"lon":5.36754,"is_reserved":false,"is_disabled":false,"rental_uris":{"android":"levelo://app?vid=fc55ee07-cb79-4880-8466-c9fe9e754cca","ios":"levelo://app?vid=fc55ee07-cb79-4880-8466-c9fe9e754cca"},"vehicle_type_id":"4","last_reported":1735388148,"current_range_meters":24000,"station_id":"ce4bhsh2rcd13ifvqi2g","pricing_plan_id":"cebpf4jnsgd1na2vs0mg"},{"bike_id":"453c4130-4bf8-479f-afa8-aa4d18b5cc74","system_id":"levelo_inurba_marseille","lat":43.23183,"lon":5.39987,"is_reserved":false,"is_disabled":false,"rental_uris":{"android":"levelo://app?vid=453c4130-4bf8-479f-afa8-aa4d18b5cc74","ios":"levelo://app?vid=453c4130-4bf8-479f-afa8-aa4d18b5cc74"},"vehicle_type_id":"4","last_reported":1735388148,"current_range_meters":14400,"station_id":"ce4bhn12rcd13ifvqgqg","pricing_plan_id":"cebpf4jnsgd1na2vs0mg"},{"bike_id":"ffc2d679-3a4c-45e9-9a44-5ce4c4db5ea0","system_id":"levelo_inurba_marseille","lat":43.31749,"lon":5.39025,"is_reserved":false,"is_disabled":false,"rental_uris":{"android":"levelo://app?vid=ffc2d679-3a4c-45e9-9a44-5ce4c4db5ea0","ios":"levelo://app?vid=ffc2d679-3a4c-45e9-9a44-5ce4c4db5ea0"},"vehicle_type_id":"4","last_reported":1735388148,"current_range_meters":22400,"station_id":"ce4bhqp2rcd13ifvqhng","pricing_plan_id":"cebpf4jnsgd1na2vs0mg"},{"bike_id":"e66bfa74-9d11-484a-82a0-ee03e52a4906","system_id":"levelo_inurba_marseille","lat":43.29724,"lon":5.37694,"is_reserved":false,"is_disabled":false,"rental_uris":{"android":"levelo://app?vid=e66bfa74-9d11-484a-82a0-ee03e52a4906","ios":"levelo://app?vid=e66bfa74-9d11-484a-82a0-ee03e52a4906"},"vehicle_type_id":"4","last_reported":1735388148,"current_range_meters":37600,"station_id":"ce4bgkh2rcd13ifvqbl0","pricing_plan_id":"cebpf4jnsgd1na2vs0mg"},{"bike_id":"97ff7428-db0c-4d40-b5a4-3eb64c609a70","system_id":"levelo_inurba_marseille","lat":43.30895,"lon":5.37185,"is_reserved":false,"is_disabled":false,"rental_uris":{"android":"levelo://app?vid=97ff7428-db0c-4d40-b5a4-3eb64c609a70","ios":"levelo://app?vid=97ff7428-db0c-4d40-b5a4-3eb64c609a70"},"vehicle_type_id":"4","last_reported":1735388148,"current_range_meters":31200,"station_id":"ce4bguh2rcd13ifvqckg","pricing_plan_id":"cebpf4jnsgd1na2vs0mg"},{"bike_id":"607568c1-26fd-4b01-8fb4-1be41d3e4587","system_id":"levelo_inurba_marseille","lat":43.3148,"lon":5.37309,"is_reserved":false,"is_disabled":false,"rental_uris":{"android":"levelo://app?vid=607568c1-26fd-4b01-8fb4-1be41d3e4587","ios":"levelo://app?vid=607568c1-26fd-4b01-8fb4-1be41d3e4587"},"vehicle_type_id":"4","last_reported":1735388148,"current_range_meters":20000,"station_id":"ce4bgt12rcd13ifvqcd0","pricing_plan_id":"cebpf4jnsgd1na2vs0mg"},{"bike_id":"d6763751-8aeb-4ad0-82c6-a260450ed1f7","system_id":"levelo_inurba_marseille","lat":43.33773,"lon":5.37424,"is_reserved":false,"is_disabled":false,"rental_uris":{"android":"levelo://app?vid=d6763751-8aeb-4ad0-82c6-a260450ed1f7","ios":"levelo://app?vid=d6763751-8aeb-4ad0-82c6-a260450ed1f7"},"vehicle_type_id":"4","last_reported":1735388148,"current_range_meters":24000,"station_id":"","pricing_plan_id":"cebpf4jnsgd1na2vs0mg"},