{"last_updated":1701353208,"ttl":30,"version":"2.2","data":{"bikes":[{"bike_id":"230bf62b-c7d0-476d-a1c4-8200aa66fba2","system_id":"levelo_inurba_marseille","lat":43.313391,"lon":5.36706,"is_reserved":false,"is_disabled":false,"rental_uris":{"android":"levelo://app?vid=230bf62b-c7d0-476d-a1c4-8200aa66fba2","ios":"levelo://app?vid=230bf62b-c7d0-476d-a1c4-8200aa66fba2"},"vehicle_type_id":"4","last_reported":1701353208,"current_range_meters":6400,"station_id":"ce4bgr92rcd13ifvqc6g","pricing_plan_id":"free"},{"bike_id":"08c0f07f-1e2c-41a3-8d6c-92ccb0d6e88a","system_id":"levelo_inurba_marseille","lat":43.31341,"lon":5.367098,"is_reserved":false,"is_disabled":false,"rental_uris":{"android":"levelo://app?vid=08c0f07f-1e2c-41a3-8d6c-92ccb0d6e88a","ios":"levelo://app?vid=08c0f07f-1e2c-41a3-8d6c-92ccb0d6e88a"},"vehicle_type_id":"4","last_reported":1701353208,"current_range_meters":24000,"station_id":"ce4bgr92rcd13ifvqc6g","pricing_plan_id":"free"},{"bike_id":"6a0ba873-e6b5-4c2b-a7d7-2f9ccbe78d9e","system_id":"levelo_inurba_marseille","lat":43.313391,"lon":5.36706,"is_reserved":false,"is_disabled":false,"rental_uris":{"android":"levelo://app?vid=6a0ba873-e6b5-4c2b-a7d7-2f9ccbe78d9e","ios":"levelo://app?vid=6a0ba873-e6b5-4c2b-a7d7-2f9ccbe78d9e"},"vehicle_type_id":"4","last_reported":1701353208,"current_range_meters":32000,"station_id":"ce4bgr92rcd13ifvqc6g","pricing_plan_id":"free"},{"bike_id":"dc8aebcf-5310-4a5e-a1cd-e498b2840c41","system_id":"levelo_inurba_marseille","lat":43.313474,"lon":5.367234,"is_reserved":false,"is_disabled":false,"rental_uris":{"android":"levelo://app?vid=dc8aebcf-5310-4a5e-a1cd-e498b2840c41","ios":"levelo://app?vid=dc8aebcf-5310-4a5e-a1cd-e498b2840c41"},"vehicle_type_id":"4","last_reported":1701353208,"current_range_meters":16000,"station_id":"ce4bgr92rcd13ifvqc6g","pricing_plan_id":"free"},{"bike_id":"bed1e390-30ee-4727-858e-8a52e4b26941","system_id":"levelo_inurba_marseille","lat":43.313557,"lon":5.367065,"is_reserved":false,"is_disabled":false,"rental_uris":{"android":"levelo://app?vid=bed1e390-30ee-4727-858e-8a52e4b26941","ios":"levelo://app?vid=bed1e390-30ee-4727-858e-8a52e4b26941"},"vehicle_type_id":"4","last_reported":1701353208,"current_range_meters":29600,"station_id":"ce4bgr92rcd13ifvqc6g","pricing_plan_id":"free"},{"bike_id":"7c052d57-e5ae-4cd3-a31f-2f400eadca73","system_id":"levelo_inurba_marseille","lat":43.31354,"lon":5.36724,"is_reserved":false,"is_disabled":false,"rental_uris":{"android":"levelo://app?vid=7c052d57-e5ae-4cd3-a31f-2f400eadca73","ios":"levelo://app?vid=7c052d57-e5ae-4cd3-a31f-2f400eadca73"},"vehicle_type_id":"4","last_reported":1701353208,"current_range_meters":18000,"station_id":"ce4bgr92rcd13ifvqc6g","pricing_plan_id":"free"},{"bike_id":"5b4696ba-54c0-4218-b933-f6dc6bb7dfd2","system_id":"levelo_inurba_marseille","lat":43.31356,"lon":5.367158,"is_reserved":false,"is_disabled":false,"rental_uris":{"android":"levelo://app?vid=5b4696ba-54c0-4218-b933-f6dc6bb7dfd2","ios":"levelo://app?vid=5b4696ba-54c0-4218-b933-f6dc6bb7dfd2"},"vehicle_type_id":"4","last_reported":1701353208,"current_range_meters":26400,"station_id":"ce4bgr92rcd13ifvqc6g","pricing_plan_id":"free"},{"bike_id":"b51ad37a-fd38-4355-a0fa-8bdea72f2aff","system_id":"levelo_inurba_marseille","lat":43.312239,"lon":5.368562,"is_reserved":false,"is_disabled":false,"rental_uris":{"android":"levelo://app?vid=b51ad37a-fd38-4355-a0fa-8bdea72f2aff","ios":"levelo://app?vid=b51ad37a-fd38-4355-a0fa-8bdea72f2aff"},"vehicle_type_id":"4","last_reported":1701353208,"current_range_meters":17600,"station_id":"ce4bgl92rcd13ifvqbq0","pricing_plan_id":"free"},{"bike_id":"6069efed-4214-4ef4-89c2-abebeb832aca","system_id":"levelo_inurba_marseille","lat":43.312239,"lon":5.368562,"is_reserved":false,"is_disabled":false,"rental_uris":{"android":"levelo://app?vid=6069efed-4214-4ef4-89c2-abebeb832aca","ios":"levelo://app?vid=6069efed-4214-4ef4-89c2-abebeb832aca"},"vehicle_type_id":"4","last_reported":1701353208,"current_range_meters":30800,"station_id":"ce4bgl92rcd13ifvqbq0","pricing_plan_id":"free"},{"bike_id":"f40b73eb-0bdb-4dde-aa6e-c41354ad8135","system_id":"levelo_inurba_marseille","lat":43.312239,"lon":5.368562,"is_reserved":false,"is_disabled":false,"rental_uris":{"android":"levelo://app?vid=f40b73eb-0bdb-4dde-aa6e-c41354ad8135","ios":"levelo://app?vid=f40b73eb-0bdb-4dde-aa6e-c41354ad8135"},"vehicle_type_id":"4","last_reported":1701353208,"current_range_meters":20800,"station_id":"ce4bgl92rcd13ifvqbq0","pricing_plan_id":"free"},{"bike_id":"69907837-c36c-4c49-b90d-f2943933288a","system_id":"levelo_inurba_marseille","lat":43.309076,"lon":5.368465,"is_reserved":false,"is_disabled":false,"rental_uris":{"android":"levelo://app?vid=69907837-c36c-4c49-b90d-f2943933288a","ios":"levelo://app?vid=69907837-c36c-4c49-b90d-f2943933288a"},"vehicle_type_id":"4","last_reported":1701353208,"current_range_meters":32000,"station_id":"ce4bgn92rcd13ifvqbvg","pricing_plan_id":"free"},{"bike_id":"e0ed4152-83c6-48a0-8da6-adae3254e07e","system_id":"levelo_inurba_marseille","lat":43.309076,"lon":5.368465,"is_reserved":false,"is_disabled":false,"rental_uris":{"android":"levelo://app?vid=e0ed4152-83c6-48a0-8da6-adae3254e07e","ios":"levelo://app?vid=e0ed4152-83c6-48a0-8da6-adae3254e07e"},"vehicle_type_id":"4","last_reported":1701353208,"current_range_meters":32000,"station_id":"ce4bgn92rcd13ifvqbvg","pricing_plan_id":"free"},{"bike_id":"f54eedfd-603c-42cf-b084-d047335ff135","system_id":"levelo_inurba_marseille","lat":43.309076,"lon":5.368465,"is_reserved":false,"is_disabled":false,"rental_uris":{"android":"levelo://app?vid=f54eedfd-603c-42cf-b084-d047335ff135","ios":"levelo://app?vid=f54eedfd-603c-42cf-b084-d047335ff135"},"vehicle_type_id":"4","last_reported":1701353208,"current_range_meters":31200,"station_id":"ce4bgn92rcd13ifvqbvg","pricing_plan_id":"free"},{"bike_id":"5ccc757b-55ba-497f-8a04-9995def58564","system_id":"levelo_inurba_marseille","lat":43.309076,"lon":5.368465,"is_reserved":false,"is_disabled":false,"rental_uris":{"android":"levelo://app?vid=5ccc757b-55ba-497f-8a04-9995def58564","ios":"levelo://app?vid=5ccc757b-55ba-497f-8a04-9995def58564"},"vehicle_type_id":"4","last_reported":1701353208,"current_range_meters":20400,"station_id":"ce4bgn92rcd13ifvqbvg","pricing_plan_id":"free"},{"bike_id":"d647e152-1033-4d6c-a8b6-f0456676aa1a","system_id":"levelo_inurba_marseille","lat":43.309076,"lon":5.368465,"is_reserved":false,"is_disabled":false,"rental_uris":{"android":"levelo://app?vid=d647e152-1033-4d6c-a8b6-f0456676aa1a","ios":"levelo://app?vid=d647e152-1033-4d6c-a8b6-f0456676aa1a"},"vehicle_type_id":"4","last_reported":1701353208,"current_range_meters":20000,"station_id":"ce4bgn92rcd13ifvqbvg","pricing_plan_id":"free"},{"bike_id":"85ebfaaa-3017-45f3-906e-a6c2319c069c","system_id":"levelo_inurba_marseille","lat":43.30831,"lon":5.36891,"is_reserved":false,"is_disabled":false,"rental_uris":{"android":"levelo://app?vid=85ebfaaa-3017-45f3-906e-a6c2319c069c","ios":"levelo://app?vid=85ebfaaa-3017-45f3-906e-a6c2319c069c"},"vehicle_type_id":"4","last_reported":1701353208,"current_range_meters":14800,"station_id":"","pricing_plan_id":"free"},{"bike_id":"bbb4d7f1-08f2-4fbc-ab5c-181e6f4d6ac0","system_id":"levelo_inurba_marseille","lat":43.314811,"lon":5.373103,"is_reserved":false,"is_disabled":false,"rental_uris":{"android":"levelo://app?vid=bbb4d7f1-08f2-4fbc-ab5c-181e6f4d6ac0","ios":"levelo://app?vid=bbb4d7f1-08f2-4fbc-ab5c-181e6f4d6ac0"},"vehicle_type_id":"4","last_reported":1701353208,"current_range_meters":28000,"station_id":"ce4bgt12rcd13ifvqcd0","pricing_plan_id":"free"},{"bike_id":"2c956fd0-0828-4e6c-ac18-4831b238b588","system_id":"levelo_inurba_marseille","lat":43.314811,"lon":5.373103,"is_reserved":false,"is_disabled":false,"rental_uris":{"android":"levelo://app?vid=2c956fd0-0828-4e6c-ac18-4831b238b588","ios":"levelo://app?vid=2c956fd0-0828-4e6c-ac18-4831b238b588"},"vehicle_type_id":"4","last_reported":1701353208,"current_range_meters":31200,"station_id":"ce4bgt12rcd13ifvqcd0","pricing_plan_id":"free"},{"bike_id":"9a023475-62b5-4c74-956a-f931bd7b3619","system_id":"levelo_inurba_marseille","lat":43.314811,"lon":5.373103,"is_reserved":false,"is_disabled":false,"rental_uris":{"android":"levelo://app?vid=9a023475-62b5-4c74-956a-f931bd7b3619","ios":"levelo://app?vid=9a023475-62b5-4c74-956a-f931bd7b3619"},"vehicle_type_id":"4","last_reported":1701353208,"current_range_meters":10000,"station_id":"ce4bgt12rcd13ifvqcd0","pricing_plan_id":"free"},{"bike_id":"44ceff00-438d-4ee3-aa43-72ecadf1789b","system_id":"levelo_inurba_marseille","lat":43.305368,"lon":5.367343,"is_reserved":false,"is_disabled":false,"rental_uris":{"android":"levelo://app?vid=44ceff00-438d-4ee3-aa43-72ecadf1789b","ios":"levelo://app?vid=44ceff00-438d-4ee3-aa43-72ecadf1789b"},"vehicle_type_id":"4","last_reported":1701353208,"current_range_meters":31200,"station_id":"ce4bgrp2rcd13ifvqc9g","pricing_plan_id":"free"},{"bike_id":"e5c4e6e9-3b0e-44ab-98e1-a9148398e098","system_id":"levelo_inurba_marseille","lat":43.30537,"lon":5.367345,"is_reserved":false,"is_disabled":false,"rental_uris":{"android":"levelo://app?vid=e5c4e6e9-3b0e-44ab-98e1-a9148398e098","ios":"levelo://app?vid=e5c4e6e9-3b0e-44ab-98e1-a9148398e098"},"vehicle_type_id":"4","last_reported":1701353208,"current_range_meters":17600,"station_id":"ce4bgrp2rcd13ifvqc9g","pricing_plan_id":"free"},{"bike_id":"b53a8436-c602-4210-b8ec-79ab49aa16e4","system_id":"levelo_inurba_marseille","lat":43.30542,"lon":5.36703,"is_reserved":false,"is_disabled":false,"rental_uris":{"android":"levelo://app?vid=b53a8436-c602-4210-b8ec-79ab49aa16e4","ios":"levelo://app?vid=b53a8436-c602-4210-b8ec-79ab49aa16e4"},"vehicle_type_id":"4","last_reported":1701353208,"current_range_meters":31200,"station_id":"ce4bgrp2rcd13ifvqc9g","pricing_plan_id":"free"},{"bike_id":"8df24494-9112-4de8-8b03-99f6061022de","system_id":"levelo_inurba_marseille","lat":43.305714,"lon":5.365633,"is_reserved":false,"is_disabled":false,"rental_uris":{"android":"levelo://app?vid=8df24494-9112-4de8-8b03-99f6061022de","ios":"levelo://app?vid=8df24494-9112-4de8-8b03-99f6061022de"},"vehicle_type_id":"4","last_reported":1701353208,"current_range_meters":3200,"station_id":"ce4bgs12rcd13ifvqcag","pricing_plan_id":"free"},{"bike_id":"77bb0906-04a9-4cac-8370-f79807a5bbff","system_id":"levelo_inurba_marseille","lat":43.30535,"lon":5.36545,"is_reserved":false,"is_disabled":false,"rental_uris":{"android":"levelo://app?vid=77bb0906-04a9-4cac-8370-f79807a5bbff","ios":"levelo://app?vid=77bb0906-04a9-4cac-8370-f79807a5bbff"},"vehicle_type_id":"4","last_reported":1701353208,"current_range_meters":31200,"station_id":"ce4bgs12rcd13ifvqcag","pricing_plan_id":"free"},{"bike_id":"5575d2c7-db22-410d-b06a-4abfb92e95cf","system_id":"levelo_inurba_marseille","lat":43.311125,"lon":5.377624,"is_reserved":false,"is_disabled":false,"rental_uris":{"android":"levelo://app?vid=5575d2c7-db22-410d-b06a-4abfb92e95cf","ios":"levelo://app?vid=5575d2c7-db22-410d-b06a-4abfb92e95cf"},"vehicle_type_id":"4","last_reported":1701353208,"current_range_meters":31200,"station_id":"ce4bgt92rcd13ifvqcg0","pricing_plan_id":"free"},{"bike_id":"727d231a-d425-4d8f-ad3f-99b5a47572e8","system_id":"levelo_inurba_marseille","lat":43.30439,"lon":5.36753,"is_reserved":false,"is_disabled":false,"rental_uris":{"android":"levelo://app?vid=727d231a-d425-4d8f-ad3f-99b5a47572e8","ios":"levelo://app?vid=727d231a-d425-4d8f-ad3f-99b5a47572e8"},"vehicle_type_id":"4","last_reported":1701353208,"current_range_meters":30400,"station_id":"","pricing_plan_id":"free"},{"bike_id":"f427a2c3-6e4a-446b-ae2f-9be8aa7f4122","system_id":"levelo_inurba_marseille","lat":43.31719,"lon":5.376813,"is_reserved":false,"is_disabled":false,"rental_uris":{"android":"levelo://app?vid=f427a2c3-6e4a-446b-ae2f-9be8aa7f4122","ios":"levelo://app?vid=f427a2c3-6e4a-446b-ae2f-9be8aa7f4122"},"vehicle_type_id":"4","last_reported":1701353208,"current_range_meters":5600,"station_id":"ce4bgth2rcd13ifvqch0","pricing_plan_id":"free"},{"bike_id":"e913f328-1e31-4c22-bd87-f809ea246de4","system_id":"levelo_inurba_marseille","lat":43.317168,"lon":5.376883,"is_reserved":false,"is_disabled":false,"rental_uris":{"android":"levelo://app?vid=e913f328-1e31-4c22-bd87-f809ea246de4","ios":"levelo://app?vid=e913f328-1e31-4c22-bd87-f809ea246de4"},"vehicle_type_id":"4","last_reported":1701353208,"current_range_meters":8000,"station_id":"ce4bgth2rcd13ifvqch0","pricing_plan_id":"free"},{"bike_id":"e9a4cb60-f130-4d1b-b37e-7fdfa0506453","system_id":"levelo_inurba_marseille","lat":43.307945,"lon":5.376487,"is_reserved":false,"is_disabled":false,"rental_uris":{"android":"levelo://app?vid=e9a4cb60-f130-4d1b-b37e-7fdfa0506453","ios":"levelo://app?vid=e9a4cb60-f130-4d1b-b37e-7fdfa0506453"},"vehicle_type_id":"4","last_reported":1701353208,"current_range_meters":29600,"station_id":"ce4bgv92rcd13ifvqcq0","pricing_plan_id":"free"},{"bike_id":"d4e2d88a-201a-40de-8526-5a0424bacd30","system_id":"levelo_inurba_marseille","lat":43.317075,"lon":5.377367,"is_reserved":false,"is_disabled":false,"rental_uris":{"android":"levelo://app?vid=d4e2d88a-201a-40de-8526-5a0424bacd30","ios":"levelo://app?vid=d4e2d88a-201a-40de-8526-5a0424bacd30"},"vehicle_type_id":"4","last_reported":1701353208,"current_range_meters":28800,"station_id":"ce4bgth2rcd13ifvqch0","pricing_plan_id":"free"},{"bike_id":"1eb5f003-b7b7-4f96-9fdf-2ec8feac4f3d","system_id":"levelo_inurba_marseille","lat":43.317075,"lon":5.377367,"is_reserved":false,"is_disabled":false,"rental_uris":{"android":"levelo://app?vid=1eb5f003-b7b7-4f96-9fdf-2ec8feac4f3d","ios":"levelo://app?vid=1eb5f003-b7b7-4f96-9fdf-2ec8feac4f3d"},"vehicle_type_id":"4","last_reported":1701353208,"current_range_meters":31200,"station_id":"ce4bgth2rcd13ifvqch0","pricing_plan_id":"free"},{"bike_id":"69d52bdc-2eef-45ba-92b8-831b861a75f7","system_id":"levelo_inurba_marseille","lat":43.303046,"lon":5.368981,"is_reserved":false,"is_disabled":false,"rental_uris":{"android":"levelo://app?vid=69d52bdc-2eef-45ba-92b8-831b861a75f7","ios":"levelo://app?vid=69d52bdc-2eef-45ba-92b8-831b861a75f7"},"vehicle_type_id":"4","last_reported":1701353208,"current_range_meters":15600,"station_id":"ce4bgqh2rcd13ifvqc5g","pricing_plan_id":"free"},{"bike_id":"bef3c888-e26e-4daf-a279-528d05d9f20b","system_id":"levelo_inurba_marseille","lat":43.30143,"lon":5.37413,"is_reserved":false,"is_disabled":false,"rental_uris":{"android":"levelo://app?vid=bef3c888-e26e-4daf-a279-528d05d9f20b","ios":"levelo://app?vid=bef3c888-e26e-4daf-a279-528d05d9f20b"},"vehicle_type_id":"4","last_reported":1701353208,"current_range_meters":21600,"station_id":"ce4bgs92rcd13ifvqcc0","pricing_plan_id":"free"},{"bike_id":"e9980625-d869-44a3-ab8f-10ac9241d786","system_id":"levelo_inurba_marseille","lat":43.308326,"lon":5.381616,"is_reserved":false,"is_disabled":false,"rental_uris":{"android":"levelo://app?vid=e9980625-d869-44a3-ab8f-10ac9241d786","ios":"levelo://app?vid=e9980625-d869-44a3-ab8f-10ac9241d786"},"vehicle_type_id":"4","last_reported":1701353208,"current_range_meters":23200,"station_id":"","pricing_plan_id":"free"},{"bike_id":"a91fa5a2-7627-4bbc-ab68-a16597bd7d4c","system_id":"levelo_inurba_marseille","lat":43.308005,"lon":5.381575,"is_reserved":false,"is_disabled":false,"rental_uris":{"android":"levelo://app?vid=a91fa5a2-7627-4bbc-ab68-a16597bd7d4c","ios":"levelo://app?vid=a91fa5a2-7627-4bbc-ab68-a16597bd7d4c"},"vehicle_type_id":"4","last_reported":1701353208,"current_range_meters":15600,"station_id":"ce4bgt12rcd13ifvqce0","pricing_plan_id":"free"},{"bike_id":"471f4ca3-ed5b-424a-a776-9ad68a870e14","system_id":"levelo_inurba_marseille","lat":43.304606,"lon":5.379026,"is_reserved":false,"is_disabled":false,"rental_uris":{"android":"levelo://app?vid=471f4ca3-ed5b-424a-a776-9ad68a870e14","ios":"levelo://app?vid=471f4ca3-ed5b-424a-a776-9ad68a870e14"},"vehicle_type_id":"4","last_reported":1701353208,"current_range_meters":14400,"station_id":"ce4bgup2rcd13ifvqcn0","pricing_plan_id":"free"},{"bike_id":"948e97e4-56f9-442e-9933-7d28a026f883","system_id":"levelo_inurba_marseille","lat":43.304623,"lon":5.37902,"is_reserved":false,"is_disabled":false,"rental_uris":{"android":"levelo://app?vid=948e97e4-56f9-442e-9933-7d28a026f883","ios":"levelo://app?vid=948e97e4-56f9-442e-9933-7d28a026f883"},"vehicle_type_id":"4","last_reported":1701353208,"current_range_meters":0,"station_id":"ce4bgup2rcd13ifvqcn0","pricing_plan_id":"free"},{"bike_id":"9a5b8626-634d-474e-98ed-480938930605","system_id":"levelo_inurba_marseille","lat":43.304606,"lon":5.379026,"is_reserved":false,"is_disabled":false,"rental_uris":{"android":"levelo://app?vid=9a5b8626-634d-474e-98ed-480938930605","ios":"levelo://app?vid=9a5b8626-634d-474e-98ed-480938930605"},"vehicle_type_id":"4","last_reported":1701353208,"current_range_meters":22400,"station_id":"ce4bgup2rcd13ifvqcn0","pricing_plan_id":"free"},{"bike_id":"0ba9607b-d967-428a-9a6b-0f5ad1d3e3c4","system_id":"levelo_inurba_marseille","lat":43.304606,"lon":5.379026,"is_reserved":false,"is_disabled":false,"rental_uris":{"android":"levelo://app?vid=0ba9607b-d967-428a-9a6b-0f5ad1d3e3c4","ios":"levelo://app?vid=0ba9607b-d967-428a-9a6b-0f5ad1d3e3c4"},"vehicle_type_id":"4","last_reported":1701353208,"current_range_meters":26800,"station_id":"ce4bgup2rcd13ifvqcn0","pricing_plan_id":"free"},{"bike_id":"6104e35a-8f8e-4236-b5bf-c165d44f9cf9","system_id":"levelo_inurba_marseille","lat":43.324771,"lon":5.36557,"is_reserved":false,"is_disabled":false,"rental_uris":{"android":"levelo://app?vid=6104e35a-8f8e-4236-b5bf-c165d44f9cf9","ios":"levelo://app?vid=6104e35a-8f8e-4236-b5bf-c165d44f9cf9"},"vehicle_type_id":"4","last_reported":1701353208,"current_range_meters":13200,"station_id":"ce4bhs12rcd13ifvqhvg","pricing_plan_id":"free"},{"bike_id":"5f0dcc7e-fe2f-41ae-b9b7-07b5430b86ee","system_id":"levelo_inurba_marseille","lat":43.32482,"lon":5.365596,"is_reserved":false,"is_disabled":false,"rental_uris":{"android":"levelo://app?vid=5f0dcc7e-fe2f-41ae-b9b7-07b5430b86ee","ios":"levelo://app?vid=5f0dcc7e-fe2f-41ae-b9b7-07b5430b86ee"},"vehicle_type_id":"4","last_reported":1701353208,"current_range_meters":14400,"station_id":"ce4bhs12rcd13ifvqhvg","pricing_plan_id":"free"},{"bike_id":"2275aca5-3158-4c2c-8022-ca5d2714bc86","system_id":"levelo_inurba_marseille","lat":43.319997,"lon":5.381594,"is_reserved":false,"is_disabled":false,"rental_uris":{"android":"levelo://app?vid=2275aca5-3158-4c2c-8022-ca5d2714bc86","ios":"levelo://app?vid=2275aca5-3158-4c2c-8022-ca5d2714bc86"},"vehicle_type_id":"4","last_reported":1701353208,"current_range_meters":22800,"station_id":"ce4bhr12rcd13ifvqhpg","pricing_plan_id":"free"},{"bike_id":"7f799b40-7c7a-45ed-85bc-8d413e3f5f17","system_id":"levelo_inurba_marseille","lat":43.299724,"lon":5.371829,"is_reserved":false,"is_disabled":false,"rental_uris":{"android":"levelo://app?vid=7f799b40-7c7a-45ed-85bc-8d413e3f5f17","ios":"levelo://app?vid=7f799b40-7c7a-45ed-85bc-8d413e3f5f17"},"vehicle_type_id":"4","last_reported":1701353208,"current_range_meters":12400,"station_id":"ce4bgr92rcd13ifvqc7g","pricing_plan_id":"free"},{"bike_id":"85f13ce6-413a-405b-ac83-cc4a561f71dd","system_id":"levelo_inurba_marseille","lat":43.298433,"lon":5.362774,"is_reserved":false,"is_disabled":false,"rental_uris":{"android":"levelo://app?vid=85f13ce6-413a-405b-ac83-cc4a561f71dd","ios":"levelo://app?vid=85f13ce6-413a-405b-ac83-cc4a561f71dd"},"vehicle_type_id":"4","last_reported":1701353208,"current_range_meters":15600,"station_id":"ce4bgpp2rcd13ifvqc3g","pricing_plan_id":"free"},{"bike_id":"f30f4908-0ff0-4bbe-a261-f62b0bc99122","system_id":"levelo_inurba_marseille","lat":43.298433,"lon":5.362774,"is_reserved":false,"is_disabled":false,"rental_uris":{"android":"levelo://app?vid=f30f4908-0ff0-4bbe-a261-f62b0bc99122","ios":"levelo://app?vid=f30f4908-0ff0-4bbe-a261-f62b0bc99122"},"vehicle_type_id":"4","last_reported":1701353208,"current_range_meters":26000,"station_id":"ce4bgpp2rcd13ifvqc3g","pricing_plan_id":"free"},{"bike_id":"568b4328-3b12-4661-a833-062cd895de13","system_id":"levelo_inurba_marseille","lat":43.311722,"lon":5.387247,"is_reserved":false,"is_disabled":false,"rental_uris":{"android":"levelo://app?vid=568b4328-3b12-4661-a833-062cd895de13","ios":"levelo://app?vid=568b4328-3b12-4661-a833-062cd895de13"},"vehicle_type_id":"4","last_reported":1701353208,"current_range_meters":14800,"station_id":"ce4bgv12rcd13ifvqcp0","pricing_plan_id":"free"},{"bike_id":"aebb5f1f-3a1e-4323-a4f0-ae83e0b78d14","system_id":"levelo_inurba_marseille","lat":43.327603,"lon":5.36705,"is_reserved":false,"is_disabled":false,"rental_uris":{"android":"levelo://app?vid=aebb5f1f-3a1e-4323-a4f0-ae83e0b78d14","ios":"levelo://app?vid=aebb5f1f-3a1e-4323-a4f0-ae83e0b78d14"},"vehicle_type_id":"4","last_reported":1701353208,"current_range_meters":24400,"station_id":"","pricing_plan_id":"free"},{"bike_id":"571c8774-2366-47fa-81d6-f4c24711bd3b","system_id":"levelo_inurba_marseille","lat":43.311722,"lon":5.387247,"is_reserved":false,"is_disabled":false,"rental_uris":{"android":"levelo://app?vid=571c8774-2366-47fa-81d6-f4c24711bd3b","ios":"levelo://app?vid=571c8774-2366-47fa-81d6-f4c24711bd3b"},"vehicle_type_id":"4","last_reported":1701353208,"current_range_meters":29200,"station_id":"ce4bgv12rcd13ifvqcp0","pricing_plan_id":"free"},{"bike_id":"11fbc002-5b4d-4629-a038-bbbaf88697c2","system_id":"levelo_inurba_marseille","lat":43.322872,"lon":5.382756,"is_reserved":false,"is_disabled":false,"rental_uris":{"android":"levelo://app?vid=11fbc002-5b4d-4629-a038-bbbaf88697c2","ios":"levelo://app?vid=11fbc002-5b4d-4629-a038-bbbaf88697c2"},"vehicle_type_id":"4","last_reported":1701353208,"current_range_meters":24000,"station_id":"ce4bhr12rcd13ifvqhqg","pricing_plan_id":"free"},{"bike_id":"df0d9fa6-73d5-437e-b2a9-37e55b8c5a8d","system_id":"levelo_inurba_marseille","lat":43.309589,"lon":5.390258,"is_reserved":false,"is_disabled":false,"rental_uris":{"android":"levelo://app?vid=df0d9fa6-73d5-437e-b2a9-37e55b8c5a8d","ios":"levelo://app?vid=df0d9fa6-73d5-437e-b2a9-37e55b8c5a8d"},"vehicle_type_id":"4","last_reported":1701353208,"current_range_meters":27200,"station_id":"ce4bgup2rcd13ifvqco0","pricing_plan_id":"free"},{"bike_id":"f572b1d3-94bc-4ea1-95d9-f0b1739b38c6","system_id":"levelo_inurba_marseille","lat":43.328371,"lon":5.366909,"is_reserved":false,"is_disabled":false,"rental_uris":{"android":"levelo://app?vid=f572b1d3-94bc-4ea1-95d9-f0b1739b38c6","ios":"levelo://app?vid=f572b1d3-94bc-4ea1-95d9-f0b1739b38c6"},"vehicle_type_id":"4","last_reported":1701353208,"current_range_meters":18800,"station_id":"ce4bhs92rcd13ifvqi0g","pricing_plan_id":"free"},{"bike_id":"0cd30cda-abda-4e71-872f-17b27bdaf400","system_id":"levelo_inurba_marseille","lat":43.297163,"lon":5.365866,"is_reserved":false,"is_disabled":false,"rental_uris":{"android":"levelo://app?vid=0cd30cda-abda-4e71-872f-17b27bdaf400","ios":"levelo://app?vid=0cd30cda-abda-4e71-872f-17b27bdaf400"},"vehicle_type_id":"4","last_reported":1701353208,"current_range_meters":18400,"station_id":"ce4bgn12rcd13ifvqbt0","pricing_plan_id":"free"},{"bike_id":"9ba9cd77-22c4-4205-8dd6-e99a4ebf7a2d","system_id":"levelo_inurba_marseille","lat":43.297163,"lon":5.365866,"is_reserved":false,"is_disabled":false,"rental_uris":{"android":"levelo://app?vid=9ba9cd77-22c4-4205-8dd6-e99a4ebf7a2d","ios":"levelo://app?vid=9ba9cd77-22c4-4205-8dd6-e99a4ebf7a2d"},"vehicle_type_id":"4","last_reported":1701353208,"current_range_meters":13600,"station_id":"ce4bgn12rcd13ifvqbt0","pricing_plan_id":"free"},{"bike_id":"d068864e-3768-4cb7-8f2c-e01febcf4d60","system_id":"levelo_inurba_marseille","lat":43.296123,"lon":5.365313,"is_reserved":false,"is_disabled":false,"rental_uris":{"android":"levelo://app?vid=d068864e-3768-4cb7-8f2c-e01febcf4d60","ios":"levelo://app?vid=d068864e-3768-4cb7-8f2c-e01febcf4d60"},"vehicle_type_id":"4","last_reported":1701353208,"current_range_meters":13200,"station_id":"","pricing_plan_id":"free"},{"bike_id":"a73ba719-5145-4366-9c61-c46632acf086","system_id":"levelo_inurba_marseille","lat":43.296131,"lon":5.370791,"is_reserved":false,"is_disabled":false,"rental_uris":{"android":"levelo://app?vid=a73ba719-5145-4366-9c61-c46632acf086","ios":"levelo://app?vid=a73ba719-5145-4366-9c61-c46632acf086"},"vehicle_type_id":"4","last_reported":1701353208,"current_range_meters":19600,"station_id":"ce4bgnh2rcd13ifvqc0g","pricing_plan_id":"free"},{"bike_id":"f035a0e1-e1e2-499c-aa1c-93fa55150f09","system_id":"levelo_inurba_marseille","lat":43.296935,"lon":5.376544,"is_reserved":false,"is_disabled":false,"rental_uris":{"android":"levelo://app?vid=f035a0e1-e1e2-499c-aa1c-93fa55150f09","ios":"levelo://app?vid=f035a0e1-e1e2-499c-aa1c-93fa55150f09"},"vehicle_type_id":"4","last_reported":1701353208,"current_range_meters":17600,"station_id":"ce4bgkh2rcd13ifvqbl0","pricing_plan_id":"free"},{"bike_id":"13d4e309-794f-44fd-815c-e2590d6e4f20","system_id":"levelo_inurba_marseille","lat":43.29713,"lon":5.37695,"is_reserved":false,"is_disabled":false,"rental_uris":{"android":"levelo://app?vid=13d4e309-794f-44fd-815c-e2590d6e4f20","ios":"levelo://app?vid=13d4e309-794f-44fd-815c-e2590d6e4f20"},"vehicle_type_id":"4","last_reported":1701353208,"current_range_meters":1200,"station_id":"ce4bgkh2rcd13ifvqbl0","pricing_plan_id":"free"},{"bike_id":"b56a7b87-0ac5-476d-a529-158b19ef1782","system_id":"levelo_inurba_marseille","lat":43.299028,"lon":5.381509,"is_reserved":false,"is_disabled":false,"rental_uris":{"android":"levelo://app?vid=b56a7b87-0ac5-476d-a529-158b19ef1782","ios":"levelo://app?vid=b56a7b87-0ac5-476d-a529-158b19ef1782"},"vehicle_type_id":"4","last_reported":1701353208,"current_range_meters":21600,"station_id":"ce4bgj12rcd13ifvqbc0","pricing_plan_id":"free"},{"bike_id":"992d27a2-09af-49af-b22a-2a0325d00b65","system_id":"levelo_inurba_marseille","lat":43.296921,"lon":5.376579,"is_reserved":false,"is_disabled":false,"rental_uris":{"android":"levelo://app?vid=992d27a2-09af-49af-b22a-2a0325d00b65","ios":"levelo://app?vid=992d27a2-09af-49af-b22a-2a0325d00b65"},"vehicle_type_id":"4","last_reported":1701353208,"current_range_meters":7600,"station_id":"ce4bgkh2rcd13ifvqbl0","pricing_plan_id":"free"},{"bike_id":"8cc220b6-7667-40df-b452-e156364934f3","system_id":"levelo_inurba_marseille","lat":43.309589,"lon":5.390258,"is_reserved":false,"is_disabled":false,"rental_uris":{"android":"levelo://app?vid=8cc220b6-7667-40df-b452-e156364934f3","ios":"levelo://app?vid=8cc220b6-7667-40df-b452-e156364934f3"},"vehicle_type_id":"4","last_reported":1701353208,"current_range_meters":15200,"station_id":"ce4bgup2rcd13ifvqco0","pricing_plan_id":"free"},{"bike_id":"c9127dc6-e1c4-4a7c-8387-75cdf51770b3","system_id":"levelo_inurba_marseille","lat":43.309589,"lon":5.390258,"is_reserved":false,"is_disabled":false,"rental_uris":{"android":"levelo://app?vid=c9127dc6-e1c4-4a7c-8387-75cdf51770b3","ios":"levelo://app?vid=c9127dc6-e1c4-4a7c-8387-75cdf51770b3"},"vehicle_type_id":"4","last_reported":1701353208,"current_range_meters":22400,"station_id":"ce4bgup2rcd13ifvqco0","pricing_plan_id":"free"},{"bike_id":"e3edde32-c92c-4e83-9a5e-b720c96663c7","system_id":"levelo_inurba_marseille","lat":43.309589,"lon":5.390258,"is_reserved":false,"is_disabled":false,"rental_uris":{"android":"levelo://app?vid=e3edde32-c92c-4e83-9a5e-b720c96663c7","ios":"levelo://app?vid=e3edde32-c92c-4e83-9a5e-b720c96663c7"},"vehicle_type_id":"4","last_reported":1701353208,"current_range_meters":14800,"station_id":"ce4bgup2rcd13ifvqco0","pricing_plan_id":"free"},{"bike_id":"eaa0e7e7-2390-47fa-909b-7b240952cbef","system_id":"levelo_inurba_marseille","lat":43.317557,"lon":5.390173,"is_reserved":false,"is_disabled":false,"rental_uris":{"android":"levelo://app?vid=eaa0e7e7-2390-47fa-909b-7b240952cbef","ios":"levelo://app?vid=eaa0e7e7-2390-47fa-909b-7b240952cbef"},"vehicle_type_id":"4","last_reported":1701353208,"current_range_meters":17600,"station_id":"ce4bhqp2rcd13ifvqhng","pricing_plan_id":"free"},{"bike_id":"5626883d-fad3-43e3-a0f2-c96c7b5e26e6","system_id":"levelo_inurba_marseille","lat":43.298037,"lon":5.381066,"is_reserved":false,"is_disabled":false,"rental_uris":{"android":"levelo://app?vid=5626883d-fad3-43e3-a0f2-c96c7b5e26e6","ios":"levelo://app?vid=5626883d-fad3-43e3-a0f2-c96c7b5e26e6"},"vehicle_type_id":"4","last_reported":1701353208,"current_range_meters":28000,"station_id":"ce4bgip2rcd13ifvqbb0","pricing_plan_id":"free"},{"bike_id":"3c026049-4dc1-47f7-9a4d-2da2a2ff2fd5","system_id":"levelo_inurba_marseille","lat":43.298037,"lon":5.381066,"is_reserved":false,"is_disabled":false,"rental_uris":{"android":"levelo://app?vid=3c026049-4dc1-47f7-9a4d-2da2a2ff2fd5","ios":"levelo://app?vid=3c026049-4dc1-47f7-9a4d-2da2a2ff2fd5"},"vehicle_type_id":"4","last_reported":1701353208,"current_range_meters":8800,"station_id":"ce4bgip2rcd13ifvqbb0","pricing_plan_id":"free"},{"bike_id":"6394bb6f-e50d-47b6-9510-2dfe02fca6d2","system_id":"levelo_inurba_marseille","lat":43.296263,"lon":5.377094,"is_reserved":false,"is_disabled":false,"rental_uris":{"android":"levelo://app?vid=6394bb6f-e50d-47b6-9510-2dfe02fca6d2","ios":"levelo://app?vid=6394bb6f-e50d-47b6-9510-2dfe02fca6d2"},"vehicle_type_id":"4","last_reported":1701353208,"current_range_meters":29600,"station_id":"ce4bgi92rcd13ifvqb90","pricing_plan_id":"free"},{"bike_id":"2cc903a2-1d51-4547-a2d2-07dd7e959aef","system_id":"levelo_inurba_marseille","lat":43.29794,"lon":5.381217,"is_reserved":false,"is_disabled":false,"rental_uris":{"android":"levelo://app?vid=2cc903a2-1d51-4547-a2d2-07dd7e959aef","ios":"levelo://app?vid=2cc903a2-1d51-4547-a2d2-07dd7e959aef"},"vehicle_type_id":"4","last_reported":1701353208,"current_range_meters":0,"station_id":"ce4bgip2rcd13ifvqbb0","pricing_plan_id":"free"},{"bike_id":"17157547-f466-48d1-a800-751d52c023d6","system_id":"levelo_inurba_marseille","lat":43.296263,"lon":5.377094,"is_reserved":false,"is_disabled":false,"rental_uris":{"android":"levelo://app?vid=17157547-f466-48d1-a800-751d52c023d6","ios":"levelo://app?vid=17157547-f466-48d1-a800-751d52c023d6"},"vehicle_type_id":"4","last_reported":1701353208,"current_range_meters":20000,"station_id":"ce4bgi92rcd13ifvqb90","pricing_plan_id":"free"},{"bike_id":"83481b27-5a17-4a15-ab25-93076e663e66","system_id":"levelo_inurba_marseille","lat":43.296263,"lon":5.377094,"is_reserved":false,"is_disabled":false,"rental_uris":{"android":"levelo://app?vid=83481b27-5a17-4a15-ab25-93076e663e66","ios":"levelo://app?vid=83481b27-5a17-4a15-ab25-93076e663e66"},"vehicle_type_id":"4","last_reported":1701353208,"current_range_meters":16000,"station_id":"ce4bgi92rcd13ifvqb90","pricing_plan_id":"free"},{"bike_id":"e9168163-b20a-4b20-84c1-194246aa4f82","system_id":"levelo_inurba_marseille","lat":43.295614,"lon":5.375158,"is_reserved":false,"is_disabled":false,"rental_uris":{"android":"levelo://app?vid=e9168163-b20a-4b20-84c1-194246aa4f82","ios":"levelo://app?vid=e9168163-b20a-4b20-84c1-194246aa4f82"},"vehicle_type_id":"4","last_reported":1701353208,"current_range_meters":30800,"station_id":"ce4bgh92rcd13ifvqb50","pricing_plan_id":"free"},{"bike_id":"b0c24d74-bc43-4502-a823-2d0266578727","system_id":"levelo_inurba_marseille","lat":43.296263,"lon":5.377094,"is_reserved":false,"is_disabled":false,"rental_uris":{"android":"levelo://app?vid=b0c24d74-bc43-4502-a823-2d0266578727","ios":"levelo://app?vid=b0c24d74-bc43-4502-a823-2d0266578727"},"vehicle_type_id":"4","last_reported":1701353208,"current_range_meters":18000,"station_id":"ce4bgi92rcd13ifvqb90","pricing_plan_id":"free"},{"bike_id":"84c430fb-bd65-41d4-b4b7-5f81ffc49bb2","system_id":"levelo_inurba_marseille","lat":43.299707,"lon":5.384859,"is_reserved":false,"is_disabled":false,"rental_uris":{"android":"levelo://app?vid=84c430fb-bd65-41d4-b4b7-5f81ffc49bb2","ios":"levelo://app?vid=84c430fb-bd65-41d4-b4b7-5f81ffc49bb2"},"vehicle_type_id":"4","last_reported":1701353208,"current_range_meters":20400,"station_id":"ce4bgj92rcd13ifvqbd0","pricing_plan_id":"free"},{"bike_id":"a2f12fcc-77db-4a5e-9d0a-3e37ef1844fc","system_id":"levelo_inurba_marseille","lat":43.32365,"lon":5.38886,"is_reserved":false,"is_disabled":false,"rental_uris":{"android":"levelo://app?vid=a2f12fcc-77db-4a5e-9d0a-3e37ef1844fc","ios":"levelo://app?vid=a2f12fcc-77db-4a5e-9d0a-3e37ef1844fc"},"vehicle_type_id":"4","last_reported":1701353208,"current_range_meters":24800,"station_id":"ce4bhqp2rcd13ifvqhog","pricing_plan_id":"free"},{"bike_id":"50447284-9ef1-4feb-b520-eed03ae0c578","system_id":"levelo_inurba_marseille","lat":43.32367,"lon":5.388836,"is_reserved":false,"is_disabled":false,"rental_uris":{"android":"levelo://app?vid=50447284-9ef1-4feb-b520-eed03ae0c578","ios":"levelo://app?vid=50447284-9ef1-4feb-b520-eed03ae0c578"},"vehicle_type_id":"4","last_reported":1701353208,"current_range_meters":20400,"station_id":"ce4bhqp2rcd13ifvqhog","pricing_plan_id":"free"},{"bike_id":"fb5839ad-3d78-44e7-bc90-b2bee83ce132","system_id":"levelo_inurba_marseille","lat":43.304721,"lon":5.393451,"is_reserved":false,"is_disabled":false,"rental_uris":{"android":"levelo://app?vid=fb5839ad-3d78-44e7-bc90-b2bee83ce132","ios":"levelo://app?vid=fb5839ad-3d78-44e7-bc90-b2bee83ce132"},"vehicle_type_id":"4","last_reported":1701353208,"current_range_meters":0,"station_id":"","pricing_plan_id":"free"},{"bike_id":"0a7b73fa-5531-42f5-9ace-667ad3a61a2b","system_id":"levelo_inurba_marseille","lat":43.30085,"lon":5.390856,"is_reserved":false,"is_disabled":false,"rental_uris":{"android":"levelo://app?vid=0a7b73fa-5531-42f5-9ace-667ad3a61a2b","ios":"levelo://app?vid=0a7b73fa-5531-42f5-9ace-667ad3a61a2b"},"vehicle_type_id":"4","last_reported":1701353208,"current_range_meters":15200,"station_id":"ce4bh192rcd13ifvqdb0","pricing_plan_id":"free"},{"bike_id":"b996fcfb-97e3-48fc-9cac-c415af28d9ef","system_id":"levelo_inurba_marseille","lat":43.292311,"lon":5.360731,"is_reserved":false,"is_disabled":false,"rental_uris":{"android":"levelo://app?vid=b996fcfb-97e3-48fc-9cac-c415af28d9ef","ios":"levelo://app?vid=b996fcfb-97e3-48fc-9cac-c415af28d9ef"},"vehicle_type_id":"4","last_reported":1701353208,"current_range_meters":17200,"station_id":"ce4bhbh2rcd13ifvqeqg","pricing_plan_id":"free"},{"bike_id":"45d5858a-17c9-4c2f-8efb-28a3b2fb6dcc","system_id":"levelo_inurba_marseille","lat":43.292311,"lon":5.360731,"is_reserved":false,"is_disabled":false,"rental_uris":{"android":"levelo://app?vid=45d5858a-17c9-4c2f-8efb-28a3b2fb6dcc","ios":"levelo://app?vid=45d5858a-17c9-4c2f-8efb-28a3b2fb6dcc"},"vehicle_type_id":"4","last_reported":1701353208,"current_range_meters":30400,"station_id":"ce4bhbh2rcd13ifvqeqg","pricing_plan_id":"free"},{"bike_id":"679d1e00-c007-4c7e-86ef-4cddf5fd76d1","system_id":"levelo_inurba_marseille","lat":43.300852,"lon":5.390859,"is_reserved":false,"is_disabled":false,"rental_uris":{"android":"levelo://app?vid=679d1e00-c007-4c7e-86ef-4cddf5fd76d1","ios":"levelo://app?vid=679d1e00-c007-4c7e-86ef-4cddf5fd76d1"},"vehicle_type_id":"4","last_reported":1701353208,"current_range_meters":26400,"station_id":"ce4bh192rcd13ifvqdb0","pricing_plan_id":"free"},{"bike_id":"0d1cfd1e-eafa-4857-bb97-6a465e982b8b","system_id":"levelo_inurba_marseille","lat":43.29191,"lon":5.38034,"is_reserved":false,"is_disabled":false,"rental_uris":{"android":"levelo://app?vid=0d1cfd1e-eafa-4857-bb97-6a465e982b8b","ios":"levelo://app?vid=0d1cfd1e-eafa-4857-bb97-6a465e982b8b"},"vehicle_type_id":"4","last_reported":1701353208,"current_range_meters":25600,"station_id":"","pricing_plan_id":"free"},{"bike_id":"cfb238e8-0eaa-404f-b02d-c78356703c03","system_id":"levelo_inurba_marseille","lat":43.29039,"lon":5.37571,"is_reserved":false,"is_disabled":false,"rental_uris":{"android":"levelo://app?vid=cfb238e8-0eaa-404f-b02d-c78356703c03","ios":"levelo://app?vid=cfb238e8-0eaa-404f-b02d-c78356703c03"},"vehicle_type_id":"4","last_reported":1701353208,"current_range_meters":18400,"station_id":"ce4bh692rcd13ifvqe90","pricing_plan_id":"free"},{"bike_id":"ed3f43ed-2fd0-43df-b190-10aa542763a4","system_id":"levelo_inurba_marseille","lat":43.294153,"lon":5.386305,"is_reserved":false,"is_disabled":false,"rental_uris":{"android":"levelo://app?vid=ed3f43ed-2fd0-43df-b190-10aa542763a4","ios":"levelo://app?vid=ed3f43ed-2fd0-43df-b190-10aa542763a4"},"vehicle_type_id":"4","last_reported":1701353208,"current_range_meters":20000,"station_id":"ce4bh2h2rcd13ifvqdh0","pricing_plan_id":"free"},{"bike_id":"dd9a25ea-c1c5-452e-bda3-57e0203fb6ec","system_id":"levelo_inurba_marseille","lat":43.29037,"lon":5.3757,"is_reserved":false,"is_disabled":false,"rental_uris":{"android":"levelo://app?vid=dd9a25ea-c1c5-452e-bda3-57e0203fb6ec","ios":"levelo://app?vid=dd9a25ea-c1c5-452e-bda3-57e0203fb6ec"},"vehicle_type_id":"4","last_reported":1701353208,"current_range_meters":3200,"station_id":"ce4bh692rcd13ifvqe90","pricing_plan_id":"free"},{"bike_id":"293edbdd-0e89-4429-9fa0-959aec1fe9e0","system_id":"levelo_inurba_marseille","lat":43.289403,"lon":5.366373,"is_reserved":false,"is_disabled":false,"rental_uris":{"android":"levelo://app?vid=293edbdd-0e89-4429-9fa0-959aec1fe9e0","ios":"levelo://app?vid=293edbdd-0e89-4429-9fa0-959aec1fe9e0"},"vehicle_type_id":"4","last_reported":1701353208,"current_range_meters":30400,"station_id":"ce4bhap2rcd13ifvqek0","pricing_plan_id":"free"},{"bike_id":"311f9b49-7da2-48e2-992b-d6bdbf5bc03d","system_id":"levelo_inurba_marseille","lat":43.289184,"lon":5.366408,"is_reserved":false,"is_disabled":false,"rental_uris":{"android":"levelo://app?vid=311f9b49-7da2-48e2-992b-d6bdbf5bc03d","ios":"levelo://app?vid=311f9b49-7da2-48e2-992b-d6bdbf5bc03d"},"vehicle_type_id":"4","last_reported":1701353208,"current_range_meters":31200,"station_id":"ce4bhap2rcd13ifvqek0","pricing_plan_id":"free"},{"bike_id":"8ad150c4-189d-474a-864e-a15b4c4097d7","system_id":"levelo_inurba_marseille","lat":43.28936,"lon":5.36632,"is_reserved":false,"is_disabled":false,"rental_uris":{"android":"levelo://app?vid=8ad150c4-189d-474a-864e-a15b4c4097d7","ios":"levelo://app?vid=8ad150c4-189d-474a-864e-a15b4c4097d7"},"vehicle_type_id":"4","last_reported":1701353208,"current_range_meters":26800,"station_id":"ce4bhap2rcd13ifvqek0","pricing_plan_id":"free"},{"bike_id":"2f8418b7-d817-4b0f-8514-21e0b9873948","system_id":"levelo_inurba_marseille","lat":43.304296,"lon":5.397513,"is_reserved":false,"is_disabled":false,"rental_uris":{"android":"levelo://app?vid=2f8418b7-d817-4b0f-8514-21e0b9873948","ios":"levelo://app?vid=2f8418b7-d817-4b0f-8514-21e0b9873948"},"vehicle_type_id":"4","last_reported":1701353208,"current_range_meters":11600,"station_id":"ce4bh092rcd13ifvqd20","pricing_plan_id":"free"},{"bike_id":"1bc8a170-7274-4b0c-b883-6431f06bf334","system_id":"levelo_inurba_marseille","lat":43.289184,"lon":5.366408,"is_reserved":false,"is_disabled":false,"rental_uris":{"android":"levelo://app?vid=1bc8a170-7274-4b0c-b883-6431f06bf334","ios":"levelo://app?vid=1bc8a170-7274-4b0c-b883-6431f06bf334"},"vehicle_type_id":"4","last_reported":1701353208,"current_range_meters":30000,"station_id":"ce4bhap2rcd13ifvqek0","pricing_plan_id":"free"},{"bike_id":"17e4a1c8-3402-416d-833c-e270fcd009e8","system_id":"levelo_inurba_marseille","lat":43.289184,"lon":5.366408,"is_reserved":false,"is_disabled":false,"rental_uris":{"android":"levelo://app?vid=17e4a1c8-3402-416d-833c-e270fcd009e8","ios":"levelo://app?vid=17e4a1c8-3402-416d-833c-e270fcd009e8"},"vehicle_type_id":"4","last_reported":1701353208,"current_range_meters":17600,"station_id":"ce4bhap2rcd13ifvqek0","pricing_plan_id":"free"},{"bike_id":"e8c99e41-0ce5-4fa5-9972-5101c5754a60","system_id":"levelo_inurba_marseille","lat":43.28929,"lon":5.36642,"is_reserved":false,"is_disabled":false,"rental_uris":{"android":"levelo://app?vid=e8c99e41-0ce5-4fa5-9972-5101c5754a60","ios":"levelo://app?vid=e8c99e41-0ce5-4fa5-9972-5101c5754a60"},"vehicle_type_id":"4","last_reported":1701353208,"current_range_meters":29600,"station_id":"ce4bhap2rcd13ifvqek0","pricing_plan_id":"free"},{"bike_id":"36c39208-edd1-4b4d-b961-e21f6095a822","system_id":"levelo_inurba_marseille","lat":43.28924,"lon":5.36621,"is_reserved":false,"is_disabled":false,"rental_uris":{"android":"levelo://app?vid=36c39208-edd1-4b4d-b961-e21f6095a822","ios":"levelo://app?vid=36c39208-edd1-4b4d-b961-e21f6095a822"},"vehicle_type_id":"4","last_reported":1701353208,"current_range_meters":28000,"station_id":"ce4bhap2rcd13ifvqek0","pricing_plan_id":"free"},{"bike_id":"8b66ece2-b156-476b-9414-d3e4514d8850","system_id":"levelo_inurba_marseille","lat":43.290995,"lon":5.381361,"is_reserved":false,"is_disabled":false,"rental_uris":{"android":"levelo://app?vid=8b66ece2-b156-476b-9414-d3e4514d8850","ios":"levelo://app?vid=8b66ece2-b156-476b-9414-d3e4514d8850"},"vehicle_type_id":"4","last_reported":1701353208,"current_range_meters":24400,"station_id":"ce4bh512rcd13ifvqe2g","pricing_plan_id":"free"},{"bike_id":"d3f76595-bc62-4c4c-b804-189db6e725fe","system_id":"levelo_inurba_marseille","lat":43.295169,"lon":5.390426,"is_reserved":false,"is_disabled":false,"rental_uris":{"android":"levelo://app?vid=d3f76595-bc62-4c4c-b804-189db6e725fe","ios":"levelo://app?vid=d3f76595-bc62-4c4c-b804-189db6e725fe"},"vehicle_type_id":"4","last_reported":1701353208,"current_range_meters":18800,"station_id":"ce4bh3p2rcd13ifvqdp0","pricing_plan_id":"free"},{"bike_id":"890d125e-102e-4b3b-8ffb-d8149351e9f2","system_id":"levelo_inurba_marseille","lat":43.312609,"lon":5.401662,"is_reserved":false,"is_disabled":false,"rental_uris":{"android":"levelo://app?vid=890d125e-102e-4b3b-8ffb-d8149351e9f2","ios":"levelo://app?vid=890d125e-102e-4b3b-8ffb-d8149351e9f2"},"vehicle_type_id":"4","last_reported":1701353208,"current_range_meters":24000,"station_id":"ce4bh092rcd13ifvqd30","pricing_plan_id":"free"},{"bike_id":"6b0b18b0-8f7b-4d02-808f-fa0b9e3779b7","system_id":"levelo_inurba_marseille","lat":43.309268,"lon":5.401415,"is_reserved":false,"is_disabled":false,"rental_uris":{"android":"levelo://app?vid=6b0b18b0-8f7b-4d02-808f-fa0b9e3779b7","ios":"levelo://app?vid=6b0b18b0-8f7b-4d02-808f-fa0b9e3779b7"},"vehicle_type_id":"4","last_reported":1701353208,"current_range_meters":19600,"station_id":"ce4bgvp2rcd13ifvqct0","pricing_plan_id":"free"},{"bike_id":"faa79c9c-2157-49f3-b58a-1fb4c725c962","system_id":"levelo_inurba_marseille","lat":43.33751,"lon":5.37457,"is_reserved":false,"is_disabled":false,"rental_uris":{"android":"levelo://app?vid=faa79c9c-2157-49f3-b58a-1fb4c725c962","ios":"levelo://app?vid=faa79c9c-2157-49f3-b58a-1fb4c725c962"},"vehicle_type_id":"4","last_reported":1701353208,"current_range_meters":16800,"station_id":"","pricing_plan_id":"free"},{"bike_id":"c580cf60-f0eb-4e05-8168-3f8341a28a65","system_id":"levelo_inurba_marseille","lat":43.309371,"lon":5.401449,"is_reserved":false,"is_disabled":false,"rental_uris":{"android":"levelo://app?vid=c580cf60-f0eb-4e05-8168-3f8341a28a65","ios":"levelo://app?vid=c580cf60-f0eb-4e05-8168-3f8341a28a65"},"vehicle_type_id":"4","last_reported":1701353208,"current_range_meters":0,"station_id":"ce4bgvp2rcd13ifvqct0","pricing_plan_id":"free"},{"bike_id":"2ae93018-1f66-4407-8727-ce3bd016a9f6","system_id":"levelo_inurba_marseille","lat":43.33753,"lon":5.3746,"is_reserved":false,"is_disabled":false,"rental_uris":{"android":"levelo://app?vid=2ae93018-1f66-4407-8727-ce3bd016a9f6","ios":"levelo://app?vid=2ae93018-1f66-4407-8727-ce3bd016a9f6"},"vehicle_type_id":"4","last_reported":1701353208,"current_range_meters":19200,"station_id":"","pricing_plan_id":"free"},{"bike_id":"f01e2d64-6c45-4dd3-9a1e-9972ffb97e53","system_id":"levelo_inurba_marseille","lat":43.33757,"lon":5.37463,"is_reserved":false,"is_disabled":false,"rental_uris":{"android":"levelo://app?vid=f01e2d64-6c45-4dd3-9a1e-9972ffb97e53","ios":"levelo://app?vid=f01e2d64-6c45-4dd3-9a1e-9972ffb97e53"},"vehicle_type_id":"4","last_reported":1701353208,"current_range_meters":29200,"station_id":"","pricing_plan_id":"free"},{"bike_id":"aedf7a6a-1a3e-4926-bca0-5086b55130ae","system_id":"levelo_inurba_marseille","lat":43.306412,"lon":5.401035,"is_reserved":false,"is_disabled":false,"rental_uris":{"android":"levelo://app?vid=aedf7a6a-1a3e-4926-bca0-5086b55130ae","ios":"levelo://app?vid=aedf7a6a-1a3e-4926-bca0-5086b55130ae"},"vehicle_type_id":"4","last_reported":1701353208,"current_range_meters":9600,"station_id":"ce4bh112rcd13ifvqda0","pricing_plan_id":"free"},{"bike_id":"79002d0f-695c-4c99-bab2-008cbb935088","system_id":"levelo_inurba_marseille","lat":43.301117,"lon":5.398795,"is_reserved":false,"is_disabled":false,"rental_uris":{"android":"levelo://app?vid=79002d0f-695c-4c99-bab2-008cbb935088","ios":"levelo://app?vid=79002d0f-695c-4c99-bab2-008cbb935088"},"vehicle_type_id":"4","last_reported":1701353208,"current_range_meters":28400,"station_id":"ce4bh0h2rcd13ifvqd40","pricing_plan_id":"free"},{"bike_id":"44d949c8-5bce-4feb-8c9e-91863fc414cf","system_id":"levelo_inurba_marseille","lat":43.301117,"lon":5.398795,"is_reserved":false,"is_disabled":false,"rental_uris":{"android":"levelo://app?vid=44d949c8-5bce-4feb-8c9e-91863fc414cf","ios":"levelo://app?vid=44d949c8-5bce-4feb-8c9e-91863fc414cf"},"vehicle_type_id":"4","last_reported":1701353208,"current_range_meters":14800,"station_id":"ce4bh0h2rcd13ifvqd40","pricing_plan_id":"free"},{"bike_id":"b930dc4e-3488-4b4b-b52b-1874865c3274","system_id":"levelo_inurba_marseille","lat":43.30527,"lon":5.40102,"is_reserved":false,"is_disabled":false,"rental_uris":{"android":"levelo://app?vid=b930dc4e-3488-4b4b-b52b-1874865c3274","ios":"levelo://app?vid=b930dc4e-3488-4b4b-b52b-1874865c3274"},"vehicle_type_id":"4","last_reported":1701353208,"current_range_meters":27600,"station_id":"","pricing_plan_id":"free"},{"bike_id":"7568d0a6-16b3-42e5-b02c-ad9f582cbd7b","system_id":"levelo_inurba_marseille","lat":43.286591,"lon":5.363346,"is_reserved":false,"is_disabled":false,"rental_uris":{"android":"levelo://app?vid=7568d0a6-16b3-42e5-b02c-ad9f582cbd7b","ios":"levelo://app?vid=7568d0a6-16b3-42e5-b02c-ad9f582cbd7b"},"vehicle_type_id":"4","last_reported":1701353208,"current_range_meters":30000,"station_id":"ce4bhah2rcd13ifvqej0","pricing_plan_id":"free"},{"bike_id":"6e554867-bb22-4b16-83b3-c636211d63d1","system_id":"levelo_inurba_marseille","lat":43.295196,"lon":5.39397,"is_reserved":false,"is_disabled":false,"rental_uris":{"android":"levelo://app?vid=6e554867-bb22-4b16-83b3-c636211d63d1","ios":"levelo://app?vid=6e554867-bb22-4b16-83b3-c636211d63d1"},"vehicle_type_id":"4","last_reported":1701353208,"current_range_meters":26000,"station_id":"ce4bh292rcd13ifvqdf0","pricing_plan_id":"free"},{"bike_id":"30a1e7e6-0f33-450f-a935-4df32211d621","system_id":"levelo_inurba_marseille","lat":43.29033,"lon":5.38639,"is_reserved":false,"is_disabled":false,"rental_uris":{"android":"levelo://app?vid=30a1e7e6-0f33-450f-a935-4df32211d621","ios":"levelo://app?vid=30a1e7e6-0f33-450f-a935-4df32211d621"},"vehicle_type_id":"4","last_reported":1701353208,"current_range_meters":3200,"station_id":"ce4bh4p2rcd13ifvqe0g","pricing_plan_id":"free"},{"bike_id":"7b7a4606-e231-4ab7-bcd1-bc9636082195","system_id":"levelo_inurba_marseille","lat":43.29031,"lon":5.38642,"is_reserved":false,"is_disabled":false,"rental_uris":{"android":"levelo://app?vid=7b7a4606-e231-4ab7-bcd1-bc9636082195","ios":"levelo://app?vid=7b7a4606-e231-4ab7-bcd1-bc9636082195"},"vehicle_type_id":"4","last_reported":1701353208,"current_range_meters":31600,"station_id":"ce4bh4p2rcd13ifvqe0g","pricing_plan_id":"free"},{"bike_id":"12dc9e65-ce62-42bf-8a47-39206de0dc08","system_id":"levelo_inurba_marseille","lat":43.29031,"lon":5.38654,"is_reserved":false,"is_disabled":false,"rental_uris":{"android":"levelo://app?vid=12dc9e65-ce62-42bf-8a47-39206de0dc08","ios":"levelo://app?vid=12dc9e65-ce62-42bf-8a47-39206de0dc08"},"vehicle_type_id":"4","last_reported":1701353208,"current_range_meters":23200,"station_id":"ce4bh4p2rcd13ifvqe0g","pricing_plan_id":"free"},{"bike_id":"4f35285f-edd0-4958-bfea-01299b472f34","system_id":"levelo_inurba_marseille","lat":43.28923,"lon":5.38404,"is_reserved":false,"is_disabled":false,"rental_uris":{"android":"levelo://app?vid=4f35285f-edd0-4958-bfea-01299b472f34","ios":"levelo://app?vid=4f35285f-edd0-4958-bfea-01299b472f34"},"vehicle_type_id":"4","last_reported":1701353208,"current_range_meters":7600,"station_id":"ce4bh612rcd13ifvqe6g","pricing_plan_id":"free"},{"bike_id":"d6f719e8-038b-4b2e-89f0-47ed338bbd8c","system_id":"levelo_inurba_marseille","lat":43.29026,"lon":5.38653,"is_reserved":false,"is_disabled":false,"rental_uris":{"android":"levelo://app?vid=d6f719e8-038b-4b2e-89f0-47ed338bbd8c","ios":"levelo://app?vid=d6f719e8-038b-4b2e-89f0-47ed338bbd8c"},"vehicle_type_id":"4","last_reported":1701353208,"current_range_meters":0,"station_id":"","pricing_plan_id":"free"},{"bike_id":"9d87799b-d9f1-42a1-be56-d0b75fafb360","system_id":"levelo_inurba_marseille","lat":43.316417,"lon":5.404343,"is_reserved":false,"is_disabled":false,"rental_uris":{"android":"levelo://app?vid=9d87799b-d9f1-42a1-be56-d0b75fafb360","ios":"levelo://app?vid=9d87799b-d9f1-42a1-be56-d0b75fafb360"},"vehicle_type_id":"4","last_reported":1701353208,"current_range_meters":17600,"station_id":"ce4bh012rcd13ifvqd00","pricing_plan_id":"free"},{"bike_id":"c366c444-ac11-4120-ab2c-611bd191110c","system_id":"levelo_inurba_marseille","lat":43.316517,"lon":5.404375,"is_reserved":false,"is_disabled":false,"rental_uris":{"android":"levelo://app?vid=c366c444-ac11-4120-ab2c-611bd191110c","ios":"levelo://app?vid=c366c444-ac11-4120-ab2c-611bd191110c"},"vehicle_type_id":"4","last_reported":1701353208,"current_range_meters":24400,"station_id":"ce4bh012rcd13ifvqd00","pricing_plan_id":"free"},{"bike_id":"494cab30-0b59-4fee-b593-e05304d77dfd","system_id":"levelo_inurba_marseille","lat":43.316517,"lon":5.404375,"is_reserved":false,"is_disabled":false,"rental_uris":{"android":"levelo://app?vid=494cab30-0b59-4fee-b593-e05304d77dfd","ios":"levelo://app?vid=494cab30-0b59-4fee-b593-e05304d77dfd"},"vehicle_type_id":"4","last_reported":1701353208,"current_range_meters":15600,"station_id":"ce4bh012rcd13ifvqd00","pricing_plan_id":"free"},{"bike_id":"efbeb7b5-dc43-407d-aef1-8d6a73e7e90f","system_id":"levelo_inurba_marseille","lat":43.291994,"lon":5.392907,"is_reserved":false,"is_disabled":false,"rental_uris":{"android":"levelo://app?vid=efbeb7b5-dc43-407d-aef1-8d6a73e7e90f","ios":"levelo://app?vid=efbeb7b5-dc43-407d-aef1-8d6a73e7e90f"},"vehicle_type_id":"4","last_reported":1701353208,"current_range_meters":18000,"station_id":"ce4bh192rcd13ifvqdd0","pricing_plan_id":"free"},{"bike_id":"5eac9492-4f15-4718-96cc-bec2b3b934d6","system_id":"levelo_inurba_marseille","lat":43.291994,"lon":5.392907,"is_reserved":false,"is_disabled":false,"rental_uris":{"android":"levelo://app?vid=5eac9492-4f15-4718-96cc-bec2b3b934d6","ios":"levelo://app?vid=5eac9492-4f15-4718-96cc-bec2b3b934d6"},"vehicle_type_id":"4","last_reported":1701353208,"current_range_meters":28000,"station_id":"ce4bh192rcd13ifvqdd0","pricing_plan_id":"free"},{"bike_id":"81a2a1f6-40a1-47a0-81c3-0d9887070cd6","system_id":"levelo_inurba_marseille","lat":43.291938,"lon":5.393358,"is_reserved":false,"is_disabled":false,"rental_uris":{"android":"levelo://app?vid=81a2a1f6-40a1-47a0-81c3-0d9887070cd6","ios":"levelo://app?vid=81a2a1f6-40a1-47a0-81c3-0d9887070cd6"},"vehicle_type_id":"4","last_reported":1701353208,"current_range_meters":13600,"station_id":"","pricing_plan_id":"free"},{"bike_id":"6750ee84-a8ab-40f7-9b45-c704383bad4e","system_id":"levelo_inurba_marseille","lat":43.284534,"lon":5.358662,"is_reserved":false,"is_disabled":false,"rental_uris":{"android":"levelo://app?vid=6750ee84-a8ab-40f7-9b45-c704383bad4e","ios":"levelo://app?vid=6750ee84-a8ab-40f7-9b45-c704383bad4e"},"vehicle_type_id":"4","last_reported":1701353208,"current_range_meters":31200,"station_id":"ce4bhah2rcd13ifvqei0","pricing_plan_id":"free"},{"bike_id":"1169e711-9784-47a7-9fd9-3ba03d650b62","system_id":"levelo_inurba_marseille","lat":43.284538,"lon":5.358657,"is_reserved":false,"is_disabled":false,"rental_uris":{"android":"levelo://app?vid=1169e711-9784-47a7-9fd9-3ba03d650b62","ios":"levelo://app?vid=1169e711-9784-47a7-9fd9-3ba03d650b62"},"vehicle_type_id":"4","last_reported":1701353208,"current_range_meters":3200,"station_id":"ce4bhah2rcd13ifvqei0","pricing_plan_id":"free"},{"bike_id":"2a59bd93-c5f7-46f3-a302-9ee5c6d4feb3","system_id":"levelo_inurba_marseille","lat":43.285848,"lon":5.350787,"is_reserved":false,"is_disabled":false,"rental_uris":{"android":"levelo://app?vid=2a59bd93-c5f7-46f3-a302-9ee5c6d4feb3","ios":"levelo://app?vid=2a59bd93-c5f7-46f3-a302-9ee5c6d4feb3"},"vehicle_type_id":"4","last_reported":1701353208,"current_range_meters":0,"station_id":"ce4bhch2rcd13ifvqeug","pricing_plan_id":"free"},{"bike_id":"af129df8-9325-4d06-924d-c7bc0dac473b","system_id":"levelo_inurba_marseille","lat":43.283998,"lon":5.375062,"is_reserved":false,"is_disabled":false,"rental_uris":{"android":"levelo://app?vid=af129df8-9325-4d06-924d-c7bc0dac473b","ios":"levelo://app?vid=af129df8-9325-4d06-924d-c7bc0dac473b"},"vehicle_type_id":"4","last_reported":1701353208,"current_range_meters":22000,"station_id":"ce4bh412rcd13ifvqds0","pricing_plan_id":"free"},{"bike_id":"e176c5b2-9e6d-4c77-bddf-d20c4316489c","system_id":"levelo_inurba_marseille","lat":43.286595,"lon":5.386795,"is_reserved":false,"is_disabled":false,"rental_uris":{"android":"levelo://app?vid=e176c5b2-9e6d-4c77-bddf-d20c4316489c","ios":"levelo://app?vid=e176c5b2-9e6d-4c77-bddf-d20c4316489c"},"vehicle_type_id":"4","last_reported":1701353208,"current_range_meters":31200,"station_id":"ce4bh492rcd13ifvqdug","pricing_plan_id":"free"},{"bike_id":"28470c57-f96e-429a-8714-345b802614cd","system_id":"levelo_inurba_marseille","lat":43.323464,"lon":5.406297,"is_reserved":false,"is_disabled":false,"rental_uris":{"android":"levelo://app?vid=28470c57-f96e-429a-8714-345b802614cd","ios":"levelo://app?vid=28470c57-f96e-429a-8714-345b802614cd"},"vehicle_type_id":"4","last_reported":1701353208,"current_range_meters":22400,"station_id":"ce4bhq92rcd13ifvqhjg","pricing_plan_id":"free"},{"bike_id":"84132732-d5c2-4549-b3ed-7c713f6d4431","system_id":"levelo_inurba_marseille","lat":43.323464,"lon":5.406297,"is_reserved":false,"is_disabled":false,"rental_uris":{"android":"levelo://app?vid=84132732-d5c2-4549-b3ed-7c713f6d4431","ios":"levelo://app?vid=84132732-d5c2-4549-b3ed-7c713f6d4431"},"vehicle_type_id":"4","last_reported":1701353208,"current_range_meters":22400,"station_id":"ce4bhq92rcd13ifvqhjg","pricing_plan_id":"free"},{"bike_id":"390e75d0-8b0d-40fe-b66f-b6a89e5f77ce","system_id":"levelo_inurba_marseille","lat":43.28473,"lon":5.38422,"is_reserved":false,"is_disabled":false,"rental_uris":{"android":"levelo://app?vid=390e75d0-8b0d-40fe-b66f-b6a89e5f77ce","ios":"levelo://app?vid=390e75d0-8b0d-40fe-b66f-b6a89e5f77ce"},"vehicle_type_id":"4","last_reported":1701353208,"current_range_meters":25200,"station_id":"ce4bh512rcd13ifvqe3g","pricing_plan_id":"free"},{"bike_id":"f14bbd55-cdbe-420c-b0e8-82317b4f3d1b","system_id":"levelo_inurba_marseille","lat":43.288501,"lon":5.393087,"is_reserved":false,"is_disabled":false,"rental_uris":{"android":"levelo://app?vid=f14bbd55-cdbe-420c-b0e8-82317b4f3d1b","ios":"levelo://app?vid=f14bbd55-cdbe-420c-b0e8-82317b4f3d1b"},"vehicle_type_id":"4","last_reported":1701353208,"current_range_meters":22400,"station_id":"ce4bh2p2rcd13ifvqdi0","pricing_plan_id":"free"},{"bike_id":"2e2824a7-6178-4978-a473-cae051bb5968","system_id":"levelo_inurba_marseille","lat":43.283494,"lon":5.380945,"is_reserved":false,"is_disabled":false,"rental_uris":{"android":"levelo://app?vid=2e2824a7-6178-4978-a473-cae051bb5968","ios":"levelo://app?vid=2e2824a7-6178-4978-a473-cae051bb5968"},"vehicle_type_id":"4","last_reported":1701353208,"current_range_meters":26400,"station_id":"ce4bh412rcd13ifvqdr0","pricing_plan_id":"free"},{"bike_id":"eac36680-a671-460e-a89d-592e3f39ddfd","system_id":"levelo_inurba_marseille","lat":43.284219,"lon":5.3497,"is_reserved":false,"is_disabled":false,"rental_uris":{"android":"levelo://app?vid=eac36680-a671-460e-a89d-592e3f39ddfd","ios":"levelo://app?vid=eac36680-a671-460e-a89d-592e3f39ddfd"},"vehicle_type_id":"4","last_reported":1701353208,"current_range_meters":22800,"station_id":"ce4bhbh2rcd13ifvqepg","pricing_plan_id":"free"},{"bike_id":"4e82d82d-efe9-458d-8930-6294afc7eed8","system_id":"levelo_inurba_marseille","lat":43.292724,"lon":5.401131,"is_reserved":false,"is_disabled":false,"rental_uris":{"android":"levelo://app?vid=4e82d82d-efe9-458d-8930-6294afc7eed8","ios":"levelo://app?vid=4e82d82d-efe9-458d-8930-6294afc7eed8"},"vehicle_type_id":"4","last_reported":1701353208,"current_range_meters":16400,"station_id":"ce4bh312rcd13ifvqdk0","pricing_plan_id":"free"},{"bike_id":"e0eae903-ebf9-44c7-8511-f3561b062009","system_id":"levelo_inurba_marseille","lat":43.292724,"lon":5.401131,"is_reserved":false,"is_disabled":false,"rental_uris":{"android":"levelo://app?vid=e0eae903-ebf9-44c7-8511-f3561b062009","ios":"levelo://app?vid=e0eae903-ebf9-44c7-8511-f3561b062009"},"vehicle_type_id":"4","last_reported":1701353208,"current_range_meters":19200,"station_id":"ce4bh312rcd13ifvqdk0","pricing_plan_id":"free"},{"bike_id":"03c5145a-5a9e-4841-9a30-6b53658df1a8","system_id":"levelo_inurba_marseille","lat":43.283502,"lon":5.386471,"is_reserved":false,"is_disabled":false,"rental_uris":{"android":"levelo://app?vid=03c5145a-5a9e-4841-9a30-6b53658df1a8","ios":"levelo://app?vid=03c5145a-5a9e-4841-9a30-6b53658df1a8"},"vehicle_type_id":"4","last_reported":1701353208,"current_range_meters":0,"station_id":"ce4bh492rcd13ifvqdvg","pricing_plan_id":"free"},{"bike_id":"0c5de143-5a61-4960-9397-1451555bd699","system_id":"levelo_inurba_marseille","lat":43.283502,"lon":5.386471,"is_reserved":false,"is_disabled":false,"rental_uris":{"android":"levelo://app?vid=0c5de143-5a61-4960-9397-1451555bd699","ios":"levelo://app?vid=0c5de143-5a61-4960-9397-1451555bd699"},"vehicle_type_id":"4","last_reported":1701353208,"current_range_meters":14000,"station_id":"ce4bh492rcd13ifvqdvg","pricing_plan_id":"free"},{"bike_id":"9340d49b-98f8-4216-a863-84341e7eab11","system_id":"levelo_inurba_marseille","lat":43.281044,"lon":5.378308,"is_reserved":false,"is_disabled":false,"rental_uris":{"android":"levelo://app?vid=9340d49b-98f8-4216-a863-84341e7eab11","ios":"levelo://app?vid=9340d49b-98f8-4216-a863-84341e7eab11"},"vehicle_type_id":"4","last_reported":1701353208,"current_range_meters":24400,"station_id":"ce4bha12rcd13ifvqee0","pricing_plan_id":"free"},{"bike_id":"6e87ef1b-74b6-4b3b-ba73-260300afec07","system_id":"levelo_inurba_marseille","lat":43.281044,"lon":5.378308,"is_reserved":false,"is_disabled":false,"rental_uris":{"android":"levelo://app?vid=6e87ef1b-74b6-4b3b-ba73-260300afec07","ios":"levelo://app?vid=6e87ef1b-74b6-4b3b-ba73-260300afec07"},"vehicle_type_id":"4","last_reported":1701353208,"current_range_meters":18800,"station_id":"ce4bha12rcd13ifvqee0","pricing_plan_id":"free"},{"bike_id":"258ed5b9-b367-4467-a1c1-d9a36fe82a12","system_id":"levelo_inurba_marseille","lat":43.296263,"lon":5.40601,"is_reserved":false,"is_disabled":false,"rental_uris":{"android":"levelo://app?vid=258ed5b9-b367-4467-a1c1-d9a36fe82a12","ios":"levelo://app?vid=258ed5b9-b367-4467-a1c1-d9a36fe82a12"},"vehicle_type_id":"4","last_reported":1701353208,"current_range_meters":31200,"station_id":"ce4bh0h2rcd13ifvqd60","pricing_plan_id":"free"},{"bike_id":"b397f416-af6b-49c6-9fdf-6a59a0a3e89f","system_id":"levelo_inurba_marseille","lat":43.284462,"lon":5.392121,"is_reserved":false,"is_disabled":false,"rental_uris":{"android":"levelo://app?vid=b397f416-af6b-49c6-9fdf-6a59a0a3e89f","ios":"levelo://app?vid=b397f416-af6b-49c6-9fdf-6a59a0a3e89f"},"vehicle_type_id":"4","last_reported":1701353208,"current_range_meters":5600,"station_id":"ce4bhoh2rcd13ifvqh5g","pricing_plan_id":"free"},{"bike_id":"f58e675e-031b-46f4-af6c-a27c3b175066","system_id":"levelo_inurba_marseille","lat":43.284317,"lon":5.391844,"is_reserved":false,"is_disabled":false,"rental_uris":{"android":"levelo://app?vid=f58e675e-031b-46f4-af6c-a27c3b175066","ios":"levelo://app?vid=f58e675e-031b-46f4-af6c-a27c3b175066"},"vehicle_type_id":"4","last_reported":1701353208,"current_range_meters":3200,"station_id":"ce4bhoh2rcd13ifvqh5g","pricing_plan_id":"free"},{"bike_id":"4b666b05-ec63-4c48-9d2e-fea240c595d5","system_id":"levelo_inurba_marseille","lat":43.284462,"lon":5.392121,"is_reserved":false,"is_disabled":false,"rental_uris":{"android":"levelo://app?vid=4b666b05-ec63-4c48-9d2e-fea240c595d5","ios":"levelo://app?vid=4b666b05-ec63-4c48-9d2e-fea240c595d5"},"vehicle_type_id":"4","last_reported":1701353208,"current_range_meters":5200,"station_id":"ce4bhoh2rcd13ifvqh5g","pricing_plan_id":"free"},{"bike_id":"833de99a-3659-48dd-b396-164241b820a2","system_id":"levelo_inurba_marseille","lat":43.28573,"lon":5.394992,"is_reserved":false,"is_disabled":false,"rental_uris":{"android":"levelo://app?vid=833de99a-3659-48dd-b396-164241b820a2","ios":"levelo://app?vid=833de99a-3659-48dd-b396-164241b820a2"},"vehicle_type_id":"4","last_reported":1701353208,"current_range_meters":24000,"station_id":"ce4bh292rcd13ifvqdg0","pricing_plan_id":"free"},{"bike_id":"99a37863-d351-49d6-a5ce-b22fd1a03174","system_id":"levelo_inurba_marseille","lat":43.326605,"lon":5.409903,"is_reserved":false,"is_disabled":false,"rental_uris":{"android":"levelo://app?vid=99a37863-d351-49d6-a5ce-b22fd1a03174","ios":"levelo://app?vid=99a37863-d351-49d6-a5ce-b22fd1a03174"},"vehicle_type_id":"4","last_reported":1701353208,"current_range_meters":20800,"station_id":"ce4bhpp2rcd13ifvqhgg","pricing_plan_id":"free"},{"bike_id":"13925aea-c673-4535-874a-5c66b23dee3a","system_id":"levelo_inurba_marseille","lat":43.304188,"lon":5.412904,"is_reserved":false,"is_disabled":false,"rental_uris":{"android":"levelo://app?vid=13925aea-c673-4535-874a-5c66b23dee3a","ios":"levelo://app?vid=13925aea-c673-4535-874a-5c66b23dee3a"},"vehicle_type_id":"4","last_reported":1701353208,"current_range_meters":9600,"station_id":"ce4bhop2rcd13ifvqh8g","pricing_plan_id":"free"},{"bike_id":"b907488e-8c1b-42d3-9913-01dc595ba437","system_id":"levelo_inurba_marseille","lat":43.283165,"lon":5.391845,"is_reserved":false,"is_disabled":false,"rental_uris":{"android":"levelo://app?vid=b907488e-8c1b-42d3-9913-01dc595ba437","ios":"levelo://app?vid=b907488e-8c1b-42d3-9913-01dc595ba437"},"vehicle_type_id":"4","last_reported":1701353208,"current_range_meters":14400,"station_id":"ce4bhnh2rcd13ifvqgtg","pricing_plan_id":"free"},{"bike_id":"6859a7a9-780f-4a7e-a364-5cda805a3d62","system_id":"levelo_inurba_marseille","lat":43.279087,"lon":5.380114,"is_reserved":false,"is_disabled":false,"rental_uris":{"android":"levelo://app?vid=6859a7a9-780f-4a7e-a364-5cda805a3d62","ios":"levelo://app?vid=6859a7a9-780f-4a7e-a364-5cda805a3d62"},"vehicle_type_id":"4","last_reported":1701353208,"current_range_meters":29200,"station_id":"ce4bhf92rcd13ifvqf50","pricing_plan_id":"free"},{"bike_id":"c698eb94-382c-42ed-a8f9-a0353bd0fbc7","system_id":"levelo_inurba_marseille","lat":43.279087,"lon":5.380114,"is_reserved":false,"is_disabled":false,"rental_uris":{"android":"levelo://app?vid=c698eb94-382c-42ed-a8f9-a0353bd0fbc7","ios":"levelo://app?vid=c698eb94-382c-42ed-a8f9-a0353bd0fbc7"},"vehicle_type_id":"4","last_reported":1701353208,"current_range_meters":24400,"station_id":"ce4bhf92rcd13ifvqf50","pricing_plan_id":"free"},{"bike_id":"dba910df-23c1-431a-9e44-feb263bfd955","system_id":"levelo_inurba_marseille","lat":43.287154,"lon":5.399979,"is_reserved":false,"is_disabled":false,"rental_uris":{"android":"levelo://app?vid=dba910df-23c1-431a-9e44-feb263bfd955","ios":"levelo://app?vid=dba910df-23c1-431a-9e44-feb263bfd955"},"vehicle_type_id":"4","last_reported":1701353208,"current_range_meters":10400,"station_id":"ce4bho92rcd13ifvqh3g","pricing_plan_id":"free"},{"bike_id":"f38290e2-37a5-4bb8-9a66-e7320ae672e9","system_id":"levelo_inurba_marseille","lat":43.287154,"lon":5.399979,"is_reserved":false,"is_disabled":false,"rental_uris":{"android":"levelo://app?vid=f38290e2-37a5-4bb8-9a66-e7320ae672e9","ios":"levelo://app?vid=f38290e2-37a5-4bb8-9a66-e7320ae672e9"},"vehicle_type_id":"4","last_reported":1701353208,"current_range_meters":24400,"station_id":"ce4bho92rcd13ifvqh3g","pricing_plan_id":"free"},{"bike_id":"8904265f-ea27-4377-b5a6-7cab412045a0","system_id":"levelo_inurba_marseille","lat":43.279742,"lon":5.38744,"is_reserved":false,"is_disabled":false,"rental_uris":{"android":"levelo://app?vid=8904265f-ea27-4377-b5a6-7cab412045a0","ios":"levelo://app?vid=8904265f-ea27-4377-b5a6-7cab412045a0"},"vehicle_type_id":"4","last_reported":1701353208,"current_range_meters":27600,"station_id":"ce4bhg12rcd13ifvqf80","pricing_plan_id":"free"},{"bike_id":"9c943a55-6508-4cfb-854a-3ed8eaa88167","system_id":"levelo_inurba_marseille","lat":43.299579,"lon":5.413255,"is_reserved":false,"is_disabled":false,"rental_uris":{"android":"levelo://app?vid=9c943a55-6508-4cfb-854a-3ed8eaa88167","ios":"levelo://app?vid=9c943a55-6508-4cfb-854a-3ed8eaa88167"},"vehicle_type_id":"4","last_reported":1701353208,"current_range_meters":30000,"station_id":"ce4bhp12rcd13ifvqh9g","pricing_plan_id":"free"},{"bike_id":"177561d0-4d07-43aa-8b9f-2d0095ed23db","system_id":"levelo_inurba_marseille","lat":43.299579,"lon":5.413255,"is_reserved":false,"is_disabled":false,"rental_uris":{"android":"levelo://app?vid=177561d0-4d07-43aa-8b9f-2d0095ed23db","ios":"levelo://app?vid=177561d0-4d07-43aa-8b9f-2d0095ed23db"},"vehicle_type_id":"4","last_reported":1701353208,"current_range_meters":30400,"station_id":"ce4bhp12rcd13ifvqh9g","pricing_plan_id":"free"},{"bike_id":"458b012a-005c-472a-8b39-6b035ca96a24","system_id":"levelo_inurba_marseille","lat":43.279742,"lon":5.38744,"is_reserved":false,"is_disabled":false,"rental_uris":{"android":"levelo://app?vid=458b012a-005c-472a-8b39-6b035ca96a24","ios":"levelo://app?vid=458b012a-005c-472a-8b39-6b035ca96a24"},"vehicle_type_id":"4","last_reported":1701353208,"current_range_meters":18800,"station_id":"ce4bhg12rcd13ifvqf80","pricing_plan_id":"free"},{"bike_id":"090478f9-c763-407f-bcae-33007ff245cf","system_id":"levelo_inurba_marseille","lat":43.299577,"lon":5.413277,"is_reserved":false,"is_disabled":false,"rental_uris":{"android":"levelo://app?vid=090478f9-c763-407f-bcae-33007ff245cf","ios":"levelo://app?vid=090478f9-c763-407f-bcae-33007ff245cf"},"vehicle_type_id":"4","last_reported":1701353208,"current_range_meters":15200,"station_id":"ce4bhp12rcd13ifvqh9g","pricing_plan_id":"free"},{"bike_id":"b5369827-e228-4531-9090-c93114cda531","system_id":"levelo_inurba_marseille","lat":43.325243,"lon":5.414326,"is_reserved":false,"is_disabled":false,"rental_uris":{"android":"levelo://app?vid=b5369827-e228-4531-9090-c93114cda531","ios":"levelo://app?vid=b5369827-e228-4531-9090-c93114cda531"},"vehicle_type_id":"4","last_reported":1701353208,"current_range_meters":21600,"station_id":"ce4bhq12rcd13ifvqhhg","pricing_plan_id":"free"},{"bike_id":"1de005dd-c06f-4bb2-9160-0ceaede74b2f","system_id":"levelo_inurba_marseille","lat":43.29255,"lon":5.40902,"is_reserved":false,"is_disabled":false,"rental_uris":{"android":"levelo://app?vid=1de005dd-c06f-4bb2-9160-0ceaede74b2f","ios":"levelo://app?vid=1de005dd-c06f-4bb2-9160-0ceaede74b2f"},"vehicle_type_id":"4","last_reported":1701353208,"current_range_meters":15600,"station_id":"ce4bh192rcd13ifvqdc0","pricing_plan_id":"free"},{"bike_id":"f23c819e-4e63-48d3-bd73-e9c7554c54bc","system_id":"levelo_inurba_marseille","lat":43.292521,"lon":5.409047,"is_reserved":false,"is_disabled":false,"rental_uris":{"android":"levelo://app?vid=f23c819e-4e63-48d3-bd73-e9c7554c54bc","ios":"levelo://app?vid=f23c819e-4e63-48d3-bd73-e9c7554c54bc"},"vehicle_type_id":"4","last_reported":1701353208,"current_range_meters":30800,"station_id":"ce4bh192rcd13ifvqdc0","pricing_plan_id":"free"},{"bike_id":"9b08e3b0-e14a-4ed0-97e8-c3bba1245836","system_id":"levelo_inurba_marseille","lat":43.292569,"lon":5.409107,"is_reserved":false,"is_disabled":false,"rental_uris":{"android":"levelo://app?vid=9b08e3b0-e14a-4ed0-97e8-c3bba1245836","ios":"levelo://app?vid=9b08e3b0-e14a-4ed0-97e8-c3bba1245836"},"vehicle_type_id":"4","last_reported":1701353208,"current_range_meters":12400,"station_id":"ce4bh192rcd13ifvqdc0","pricing_plan_id":"free"},{"bike_id":"458466fa-fe82-4490-9c3f-f3774bb6a74c","system_id":"levelo_inurba_marseille","lat":43.292512,"lon":5.409065,"is_reserved":false,"is_disabled":false,"rental_uris":{"android":"levelo://app?vid=458466fa-fe82-4490-9c3f-f3774bb6a74c","ios":"levelo://app?vid=458466fa-fe82-4490-9c3f-f3774bb6a74c"},"vehicle_type_id":"4","last_reported":1701353208,"current_range_meters":23200,"station_id":"ce4bh192rcd13ifvqdc0","pricing_plan_id":"free"},{"bike_id":"903158e2-fa49-4694-a89f-778bdb56aecd","system_id":"levelo_inurba_marseille","lat":43.29248,"lon":5.40905,"is_reserved":false,"is_disabled":false,"rental_uris":{"android":"levelo://app?vid=903158e2-fa49-4694-a89f-778bdb56aecd","ios":"levelo://app?vid=903158e2-fa49-4694-a89f-778bdb56aecd"},"vehicle_type_id":"4","last_reported":1701353208,"current_range_meters":24400,"station_id":"ce4bh192rcd13ifvqdc0","pricing_plan_id":"free"},{"bike_id":"27e52eca-951c-4f9c-9ab9-a67b8611cafd","system_id":"levelo_inurba_marseille","lat":43.292609,"lon":5.409232,"is_reserved":false,"is_disabled":false,"rental_uris":{"android":"levelo://app?vid=27e52eca-951c-4f9c-9ab9-a67b8611cafd","ios":"levelo://app?vid=27e52eca-951c-4f9c-9ab9-a67b8611cafd"},"vehicle_type_id":"4","last_reported":1701353208,"current_range_meters":24000,"station_id":"","pricing_plan_id":"free"},{"bike_id":"6f0a5cfc-c1d3-43ab-833a-cbe3b95e59c9","system_id":"levelo_inurba_marseille","lat":43.280784,"lon":5.396622,"is_reserved":false,"is_disabled":false,"rental_uris":{"android":"levelo://app?vid=6f0a5cfc-c1d3-43ab-833a-cbe3b95e59c9","ios":"levelo://app?vid=6f0a5cfc-c1d3-43ab-833a-cbe3b95e59c9"},"vehicle_type_id":"4","last_reported":1701353208,"current_range_meters":5600,"station_id":"ce4bho12rcd13ifvqh2g","pricing_plan_id":"free"},{"bike_id":"95deb5dc-ecfd-48b0-8f42-7ea732b83d1b","system_id":"levelo_inurba_marseille","lat":43.273609,"lon":5.362708,"is_reserved":false,"is_disabled":false,"rental_uris":{"android":"levelo://app?vid=95deb5dc-ecfd-48b0-8f42-7ea732b83d1b","ios":"levelo://app?vid=95deb5dc-ecfd-48b0-8f42-7ea732b83d1b"},"vehicle_type_id":"4","last_reported":1701353208,"current_range_meters":29600,"station_id":"ce4bhbh2rcd13ifvqeo0","pricing_plan_id":"free"},{"bike_id":"aaff2b2b-42c7-4fde-8d67-f1328b20da24","system_id":"levelo_inurba_marseille","lat":43.275625,"lon":5.384392,"is_reserved":false,"is_disabled":false,"rental_uris":{"android":"levelo://app?vid=aaff2b2b-42c7-4fde-8d67-f1328b20da24","ios":"levelo://app?vid=aaff2b2b-42c7-4fde-8d67-f1328b20da24"},"vehicle_type_id":"4","last_reported":1701353208,"current_range_meters":17200,"station_id":"ce4bhh92rcd13ifvqfi0","pricing_plan_id":"free"},{"bike_id":"5abb6d25-cd34-4f3b-942b-65d5ee1586cc","system_id":"levelo_inurba_marseille","lat":43.273609,"lon":5.362708,"is_reserved":false,"is_disabled":false,"rental_uris":{"android":"levelo://app?vid=5abb6d25-cd34-4f3b-942b-65d5ee1586cc","ios":"levelo://app?vid=5abb6d25-cd34-4f3b-942b-65d5ee1586cc"},"vehicle_type_id":"4","last_reported":1701353208,"current_range_meters":26800,"station_id":"ce4bhbh2rcd13ifvqeo0","pricing_plan_id":"free"},{"bike_id":"24645f66-df47-426e-814f-7fbd6331f022","system_id":"levelo_inurba_marseille","lat":43.275625,"lon":5.384392,"is_reserved":false,"is_disabled":false,"rental_uris":{"android":"levelo://app?vid=24645f66-df47-426e-814f-7fbd6331f022","ios":"levelo://app?vid=24645f66-df47-426e-814f-7fbd6331f022"},"vehicle_type_id":"4","last_reported":1701353208,"current_range_meters":22800,"station_id":"ce4bhh92rcd13ifvqfi0","pricing_plan_id":"free"},{"bike_id":"0bdd4da4-8b56-4950-b6b0-83bce025e400","system_id":"levelo_inurba_marseille","lat":43.275625,"lon":5.384392,"is_reserved":false,"is_disabled":false,"rental_uris":{"android":"levelo://app?vid=0bdd4da4-8b56-4950-b6b0-83bce025e400","ios":"levelo://app?vid=0bdd4da4-8b56-4950-b6b0-83bce025e400"},"vehicle_type_id":"4","last_reported":1701353208,"current_range_meters":400,"station_id":"ce4bhh92rcd13ifvqfi0","pricing_plan_id":"free"},{"bike_id":"c065a29e-b330-4c67-8433-0cff63330c85","system_id":"levelo_inurba_marseille","lat":43.279952,"lon":5.400085,"is_reserved":false,"is_disabled":false,"rental_uris":{"android":"levelo://app?vid=c065a29e-b330-4c67-8433-0cff63330c85","ios":"levelo://app?vid=c065a29e-b330-4c67-8433-0cff63330c85"},"vehicle_type_id":"4","last_reported":1701353208,"current_range_meters":19600,"station_id":"ce4bho92rcd13ifvqh4g","pricing_plan_id":"free"},{"bike_id":"68234c93-50fa-4eb6-ab5d-05c54968fb5c","system_id":"levelo_inurba_marseille","lat":43.279952,"lon":5.400085,"is_reserved":false,"is_disabled":false,"rental_uris":{"android":"levelo://app?vid=68234c93-50fa-4eb6-ab5d-05c54968fb5c","ios":"levelo://app?vid=68234c93-50fa-4eb6-ab5d-05c54968fb5c"},"vehicle_type_id":"4","last_reported":1701353208,"current_range_meters":31600,"station_id":"ce4bho92rcd13ifvqh4g","pricing_plan_id":"free"},{"bike_id":"ec215ff4-b682-4229-97a3-55d8671b7581","system_id":"levelo_inurba_marseille","lat":43.27995,"lon":5.40009,"is_reserved":false,"is_disabled":false,"rental_uris":{"android":"levelo://app?vid=ec215ff4-b682-4229-97a3-55d8671b7581","ios":"levelo://app?vid=ec215ff4-b682-4229-97a3-55d8671b7581"},"vehicle_type_id":"4","last_reported":1701353208,"current_range_meters":29600,"station_id":"ce4bho92rcd13ifvqh4g","pricing_plan_id":"free"},{"bike_id":"61e501c3-0546-42f1-8d3c-3b742d8240c5","system_id":"levelo_inurba_marseille","lat":43.340804,"lon":5.410219,"is_reserved":false,"is_disabled":false,"rental_uris":{"android":"levelo://app?vid=61e501c3-0546-42f1-8d3c-3b742d8240c5","ios":"levelo://app?vid=61e501c3-0546-42f1-8d3c-3b742d8240c5"},"vehicle_type_id":"4","last_reported":1701353208,"current_range_meters":21200,"station_id":"ce4bhqh2rcd13ifvqhlg","pricing_plan_id":"free"},{"bike_id":"10d8c945-4c67-47d0-b030-7532e740b09c","system_id":"levelo_inurba_marseille","lat":43.340804,"lon":5.410219,"is_reserved":false,"is_disabled":false,"rental_uris":{"android":"levelo://app?vid=10d8c945-4c67-47d0-b030-7532e740b09c","ios":"levelo://app?vid=10d8c945-4c67-47d0-b030-7532e740b09c"},"vehicle_type_id":"4","last_reported":1701353208,"current_range_meters":4800,"station_id":"ce4bhqh2rcd13ifvqhlg","pricing_plan_id":"free"},{"bike_id":"7335a393-cc37-4e1d-b729-82d3cd0e69fb","system_id":"levelo_inurba_marseille","lat":43.29517,"lon":5.42262,"is_reserved":false,"is_disabled":false,"rental_uris":{"android":"levelo://app?vid=7335a393-cc37-4e1d-b729-82d3cd0e69fb","ios":"levelo://app?vid=7335a393-cc37-4e1d-b729-82d3cd0e69fb"},"vehicle_type_id":"4","last_reported":1701353208,"current_range_meters":20000,"station_id":"ce4bhph2rcd13ifvqhdg","pricing_plan_id":"free"},{"bike_id":"0eb03c97-95af-4ab7-9ae3-e971d60e8e6c","system_id":"levelo_inurba_marseille","lat":43.295511,"lon":5.422926,"is_reserved":false,"is_disabled":false,"rental_uris":{"android":"levelo://app?vid=0eb03c97-95af-4ab7-9ae3-e971d60e8e6c","ios":"levelo://app?vid=0eb03c97-95af-4ab7-9ae3-e971d60e8e6c"},"vehicle_type_id":"4","last_reported":1701353208,"current_range_meters":14800,"station_id":"ce4bhph2rcd13ifvqhdg","pricing_plan_id":"free"},{"bike_id":"50766ca9-2192-4605-807a-f61a542d221e","system_id":"levelo_inurba_marseille","lat":43.272116,"lon":5.391763,"is_reserved":false,"is_disabled":false,"rental_uris":{"android":"levelo://app?vid=50766ca9-2192-4605-807a-f61a542d221e","ios":"levelo://app?vid=50766ca9-2192-4605-807a-f61a542d221e"},"vehicle_type_id":"4","last_reported":1701353208,"current_range_meters":22800,"station_id":"ce4bhhp2rcd13ifvqfm0","pricing_plan_id":"free"},{"bike_id":"cfb004e7-cc58-4cd9-8d35-41570da39b93","system_id":"levelo_inurba_marseille","lat":43.278128,"lon":5.407195,"is_reserved":false,"is_disabled":false,"rental_uris":{"android":"levelo://app?vid=cfb004e7-cc58-4cd9-8d35-41570da39b93","ios":"levelo://app?vid=cfb004e7-cc58-4cd9-8d35-41570da39b93"},"vehicle_type_id":"4","last_reported":1701353208,"current_range_meters":20400,"station_id":"ce4bhnh2rcd13ifvqgtg","pricing_plan_id":"free"},{"bike_id":"25733e2b-a4d9-46cf-9b43-91c8055e85a3","system_id":"levelo_inurba_marseille","lat":43.27953,"lon":5.41055,"is_reserved":false,"is_disabled":false,"rental_uris":{"android":"levelo://app?vid=25733e2b-a4d9-46cf-9b43-91c8055e85a3","ios":"levelo://app?vid=25733e2b-a4d9-46cf-9b43-91c8055e85a3"},"vehicle_type_id":"4","last_reported":1701353208,"current_range_meters":15600,"station_id":"ce4bhnp2rcd13ifvqh0g","pricing_plan_id":"free"},{"bike_id":"3dabb492-7742-4265-ae51-2eaa0807b3e3","system_id":"levelo_inurba_marseille","lat":43.26679,"lon":5.38269,"is_reserved":false,"is_disabled":false,"rental_uris":{"android":"levelo://app?vid=3dabb492-7742-4265-ae51-2eaa0807b3e3","ios":"levelo://app?vid=3dabb492-7742-4265-ae51-2eaa0807b3e3"},"vehicle_type_id":"4","last_reported":1701353208,"current_range_meters":29200,"station_id":"ce4bhg92rcd13ifvqf90","pricing_plan_id":"free"},{"bike_id":"8e8d349d-09ef-483a-8322-0fd5fbd7b38e","system_id":"levelo_inurba_marseille","lat":43.308051,"lon":5.43527,"is_reserved":false,"is_disabled":false,"rental_uris":{"android":"levelo://app?vid=8e8d349d-09ef-483a-8322-0fd5fbd7b38e","ios":"levelo://app?vid=8e8d349d-09ef-483a-8322-0fd5fbd7b38e"},"vehicle_type_id":"4","last_reported":1701353208,"current_range_meters":20000,"station_id":"ce4bhph2rcd13ifvqheg","pricing_plan_id":"free"},{"bike_id":"7ab63241-0bea-4919-80fc-6d8eef69395f","system_id":"levelo_inurba_marseille","lat":43.308051,"lon":5.43527,"is_reserved":false,"is_disabled":false,"rental_uris":{"android":"levelo://app?vid=7ab63241-0bea-4919-80fc-6d8eef69395f","ios":"levelo://app?vid=7ab63241-0bea-4919-80fc-6d8eef69395f"},"vehicle_type_id":"4","last_reported":1701353208,"current_range_meters":13200,"station_id":"ce4bhph2rcd13ifvqheg","pricing_plan_id":"free"},{"bike_id":"4ccb18b8-3101-46b9-9dcb-0af56c886245","system_id":"levelo_inurba_marseille","lat":43.265569,"lon":5.390047,"is_reserved":false,"is_disabled":false,"rental_uris":{"android":"levelo://app?vid=4ccb18b8-3101-46b9-9dcb-0af56c886245","ios":"levelo://app?vid=4ccb18b8-3101-46b9-9dcb-0af56c886245"},"vehicle_type_id":"4","last_reported":1701353208,"current_range_meters":0,"station_id":"ce4bhe12rcd13ifvqf30","pricing_plan_id":"free"},{"bike_id":"a1aa46a9-23bc-4d19-8ea7-63046b918227","system_id":"levelo_inurba_marseille","lat":43.26567,"lon":5.39013,"is_reserved":false,"is_disabled":false,"rental_uris":{"android":"levelo://app?vid=a1aa46a9-23bc-4d19-8ea7-63046b918227","ios":"levelo://app?vid=a1aa46a9-23bc-4d19-8ea7-63046b918227"},"vehicle_type_id":"4","last_reported":1701353208,"current_range_meters":24400,"station_id":"ce4bhe12rcd13ifvqf30","pricing_plan_id":"free"},{"bike_id":"1975d82d-6810-47d8-a17a-7bfa408b42a5","system_id":"levelo_inurba_marseille","lat":43.265569,"lon":5.390047,"is_reserved":false,"is_disabled":false,"rental_uris":{"android":"levelo://app?vid=1975d82d-6810-47d8-a17a-7bfa408b42a5","ios":"levelo://app?vid=1975d82d-6810-47d8-a17a-7bfa408b42a5"},"vehicle_type_id":"4","last_reported":1701353208,"current_range_meters":23200,"station_id":"ce4bhe12rcd13ifvqf30","pricing_plan_id":"free"},{"bike_id":"9dedea8d-f1cb-4115-b060-42c73788698f","system_id":"levelo_inurba_marseille","lat":43.261782,"lon":5.374515,"is_reserved":false,"is_disabled":false,"rental_uris":{"android":"levelo://app?vid=9dedea8d-f1cb-4115-b060-42c73788698f","ios":"levelo://app?vid=9dedea8d-f1cb-4115-b060-42c73788698f"},"vehicle_type_id":"4","last_reported":1701353208,"current_range_meters":14800,"station_id":"ce4bhgp2rcd13ifvqfc0","pricing_plan_id":"free"},{"bike_id":"6d50931a-5553-495d-be31-bbcf7bdad9de","system_id":"levelo_inurba_marseille","lat":43.31711,"lon":5.43707,"is_reserved":false,"is_disabled":false,"rental_uris":{"android":"levelo://app?vid=6d50931a-5553-495d-be31-bbcf7bdad9de","ios":"levelo://app?vid=6d50931a-5553-495d-be31-bbcf7bdad9de"},"vehicle_type_id":"4","last_reported":1701353208,"current_range_meters":25200,"station_id":"ce4bhp92rcd13ifvqhcg","pricing_plan_id":"free"},{"bike_id":"8e88bbcc-b9ee-46eb-9d34-9108505f0afe","system_id":"levelo_inurba_marseille","lat":43.260225,"lon":5.375455,"is_reserved":false,"is_disabled":false,"rental_uris":{"android":"levelo://app?vid=8e88bbcc-b9ee-46eb-9d34-9108505f0afe","ios":"levelo://app?vid=8e88bbcc-b9ee-46eb-9d34-9108505f0afe"},"vehicle_type_id":"4","last_reported":1701353208,"current_range_meters":8000,"station_id":"ce4bhgh2rcd13ifvqfa0","pricing_plan_id":"free"},{"bike_id":"ef48b86c-c0a4-4895-b757-a6c9201e81bd","system_id":"levelo_inurba_marseille","lat":43.260225,"lon":5.375455,"is_reserved":false,"is_disabled":false,"rental_uris":{"android":"levelo://app?vid=ef48b86c-c0a4-4895-b757-a6c9201e81bd","ios":"levelo://app?vid=ef48b86c-c0a4-4895-b757-a6c9201e81bd"},"vehicle_type_id":"4","last_reported":1701353208,"current_range_meters":18000,"station_id":"ce4bhgh2rcd13ifvqfa0","pricing_plan_id":"free"},{"bike_id":"4f5fe813-8935-4e78-9631-5e3e105a868a","system_id":"levelo_inurba_marseille","lat":43.281548,"lon":5.42643,"is_reserved":false,"is_disabled":false,"rental_uris":{"android":"levelo://app?vid=4f5fe813-8935-4e78-9631-5e3e105a868a","ios":"levelo://app?vid=4f5fe813-8935-4e78-9631-5e3e105a868a"},"vehicle_type_id":"4","last_reported":1701353208,"current_range_meters":28000,"station_id":"ce4bhnh2rcd13ifvqgug","pricing_plan_id":"free"},{"bike_id":"fffe75b9-91fb-4450-85f6-08fa43fca755","system_id":"levelo_inurba_marseille","lat":43.2607,"lon":5.393983,"is_reserved":false,"is_disabled":false,"rental_uris":{"android":"levelo://app?vid=fffe75b9-91fb-4450-85f6-08fa43fca755","ios":"levelo://app?vid=fffe75b9-91fb-4450-85f6-08fa43fca755"},"vehicle_type_id":"4","last_reported":1701353208,"current_range_meters":16800,"station_id":"ce4bhh92rcd13ifvqfj0","pricing_plan_id":"free"},{"bike_id":"4d4b87d7-5132-45dc-a817-21b5d193d0e8","system_id":"levelo_inurba_marseille","lat":43.2607,"lon":5.393983,"is_reserved":false,"is_disabled":false,"rental_uris":{"android":"levelo://app?vid=4d4b87d7-5132-45dc-a817-21b5d193d0e8","ios":"levelo://app?vid=4d4b87d7-5132-45dc-a817-21b5d193d0e8"},"vehicle_type_id":"4","last_reported":1701353208,"current_range_meters":30000,"station_id":"ce4bhh92rcd13ifvqfj0","pricing_plan_id":"free"},{"bike_id":"bf8f69eb-2080-46bd-8d5b-fc3ab031288e","system_id":"levelo_inurba_marseille","lat":43.27495,"lon":5.42451,"is_reserved":false,"is_disabled":false,"rental_uris":{"android":"levelo://app?vid=bf8f69eb-2080-46bd-8d5b-fc3ab031288e","ios":"levelo://app?vid=bf8f69eb-2080-46bd-8d5b-fc3ab031288e"},"vehicle_type_id":"4","last_reported":1701353208,"current_range_meters":16400,"station_id":"ce4bhn92rcd13ifvqgrg","pricing_plan_id":"free"},{"bike_id":"3001d79a-0953-4c83-859e-0fee9753d5bf","system_id":"levelo_inurba_marseille","lat":43.27494,"lon":5.42451,"is_reserved":false,"is_disabled":false,"rental_uris":{"android":"levelo://app?vid=3001d79a-0953-4c83-859e-0fee9753d5bf","ios":"levelo://app?vid=3001d79a-0953-4c83-859e-0fee9753d5bf"},"vehicle_type_id":"4","last_reported":1701353208,"current_range_meters":14400,"station_id":"ce4bhn92rcd13ifvqgrg","pricing_plan_id":"free"},{"bike_id":"5374aff8-8d29-425c-8d6a-b85d059a87ad","system_id":"levelo_inurba_marseille","lat":43.27489,"lon":5.42446,"is_reserved":false,"is_disabled":false,"rental_uris":{"android":"levelo://app?vid=5374aff8-8d29-425c-8d6a-b85d059a87ad","ios":"levelo://app?vid=5374aff8-8d29-425c-8d6a-b85d059a87ad"},"vehicle_type_id":"4","last_reported":1701353208,"current_range_meters":31200,"station_id":"ce4bhn92rcd13ifvqgrg","pricing_plan_id":"free"},{"bike_id":"5cda8f3e-fb37-457b-95ea-f5e6805659d5","system_id":"levelo_inurba_marseille","lat":43.27492,"lon":5.42455,"is_reserved":false,"is_disabled":false,"rental_uris":{"android":"levelo://app?vid=5cda8f3e-fb37-457b-95ea-f5e6805659d5","ios":"levelo://app?vid=5cda8f3e-fb37-457b-95ea-f5e6805659d5"},"vehicle_type_id":"4","last_reported":1701353208,"current_range_meters":800,"station_id":"ce4bhn92rcd13ifvqgrg","pricing_plan_id":"free"},{"bike_id":"a0ad5954-4678-4ed0-a699-84d1b14aeda3","system_id":"levelo_inurba_marseille","lat":43.27493,"lon":5.42458,"is_reserved":false,"is_disabled":false,"rental_uris":{"android":"levelo://app?vid=a0ad5954-4678-4ed0-a699-84d1b14aeda3","ios":"levelo://app?vid=a0ad5954-4678-4ed0-a699-84d1b14aeda3"},"vehicle_type_id":"4","last_reported":1701353208,"current_range_meters":7600,"station_id":"ce4bhn92rcd13ifvqgrg","pricing_plan_id":"free"},{"bike_id":"3356f29e-ae4b-45d9-b165-b48ebc182256","system_id":"levelo_inurba_marseille","lat":43.275028,"lon":5.424534,"is_reserved":false,"is_disabled":false,"rental_uris":{"android":"levelo://app?vid=3356f29e-ae4b-45d9-b165-b48ebc182256","ios":"levelo://app?vid=3356f29e-ae4b-45d9-b165-b48ebc182256"},"vehicle_type_id":"4","last_reported":1701353208,"current_range_meters":17600,"station_id":"ce4bhn92rcd13ifvqgrg","pricing_plan_id":"free"},{"bike_id":"39bbd325-2982-41ca-a19c-aa5a8f6f43c6","system_id":"levelo_inurba_marseille","lat":43.27492,"lon":5.424627,"is_reserved":false,"is_disabled":false,"rental_uris":{"android":"levelo://app?vid=39bbd325-2982-41ca-a19c-aa5a8f6f43c6","ios":"levelo://app?vid=39bbd325-2982-41ca-a19c-aa5a8f6f43c6"},"vehicle_type_id":"4","last_reported":1701353208,"current_range_meters":18000,"station_id":"ce4bhn92rcd13ifvqgrg","pricing_plan_id":"free"},{"bike_id":"ae6a23ea-ee31-45f5-b93a-58394a56c974","system_id":"levelo_inurba_marseille","lat":43.25579,"lon":5.38243,"is_reserved":false,"is_disabled":false,"rental_uris":{"android":"levelo://app?vid=ae6a23ea-ee31-45f5-b93a-58394a56c974","ios":"levelo://app?vid=ae6a23ea-ee31-45f5-b93a-58394a56c974"},"vehicle_type_id":"4","last_reported":1701353208,"current_range_meters":30400,"station_id":"ce4bhih2rcd13ifvqfs0","pricing_plan_id":"free"},{"bike_id":"a1ebfa61-9a00-42cf-bbdb-acd444ebb328","system_id":"levelo_inurba_marseille","lat":43.258224,"lon":5.394369,"is_reserved":false,"is_disabled":false,"rental_uris":{"android":"levelo://app?vid=a1ebfa61-9a00-42cf-bbdb-acd444ebb328","ios":"levelo://app?vid=a1ebfa61-9a00-42cf-bbdb-acd444ebb328"},"vehicle_type_id":"4","last_reported":1701353208,"current_range_meters":27600,"station_id":"ce4bhip2rcd13ifvqft0","pricing_plan_id":"free"},{"bike_id":"072735fc-7166-45e4-ab1b-a3fa626d7d29","system_id":"levelo_inurba_marseille","lat":43.2549,"lon":5.3765,"is_reserved":false,"is_disabled":false,"rental_uris":{"android":"levelo://app?vid=072735fc-7166-45e4-ab1b-a3fa626d7d29","ios":"levelo://app?vid=072735fc-7166-45e4-ab1b-a3fa626d7d29"},"vehicle_type_id":"4","last_reported":1701353208,"current_range_meters":22400,"station_id":"ce4bhh12rcd13ifvqff0","pricing_plan_id":"free"},{"bike_id":"ce4a8b89-5467-4175-a7e0-4caeff86e402","system_id":"levelo_inurba_marseille","lat":43.270721,"lon":5.422764,"is_reserved":false,"is_disabled":false,"rental_uris":{"android":"levelo://app?vid=ce4a8b89-5467-4175-a7e0-4caeff86e402","ios":"levelo://app?vid=ce4a8b89-5467-4175-a7e0-4caeff86e402"},"vehicle_type_id":"4","last_reported":1701353208,"current_range_meters":32000,"station_id":"ce4bhk92rcd13ifvqgb0","pricing_plan_id":"free"},{"bike_id":"8a07c10e-58d8-480b-ac33-fcd6e26cdb24","system_id":"levelo_inurba_marseille","lat":43.270721,"lon":5.422764,"is_reserved":false,"is_disabled":false,"rental_uris":{"android":"levelo://app?vid=8a07c10e-58d8-480b-ac33-fcd6e26cdb24","ios":"levelo://app?vid=8a07c10e-58d8-480b-ac33-fcd6e26cdb24"},"vehicle_type_id":"4","last_reported":1701353208,"current_range_meters":32000,"station_id":"ce4bhk92rcd13ifvqgb0","pricing_plan_id":"free"},{"bike_id":"b71964a8-6e95-47d3-8fb4-a3af0f1bc2ad","system_id":"levelo_inurba_marseille","lat":43.270721,"lon":5.422764,"is_reserved":false,"is_disabled":false,"rental_uris":{"android":"levelo://app?vid=b71964a8-6e95-47d3-8fb4-a3af0f1bc2ad","ios":"levelo://app?vid=b71964a8-6e95-47d3-8fb4-a3af0f1bc2ad"},"vehicle_type_id":"4","last_reported":1701353208,"current_range_meters":21600,"station_id":"ce4bhk92rcd13ifvqgb0","pricing_plan_id":"free"},{"bike_id":"1908a0c5-294f-448a-944a-c0512cf9eefa","system_id":"levelo_inurba_marseille","lat":43.258658,"lon":5.398935,"is_reserved":false,"is_disabled":false,"rental_uris":{"android":"levelo://app?vid=1908a0c5-294f-448a-944a-c0512cf9eefa","ios":"levelo://app?vid=1908a0c5-294f-448a-944a-c0512cf9eefa"},"vehicle_type_id":"4","last_reported":1701353208,"current_range_meters":21600,"station_id":"ce4bhl92rcd13ifvqghg","pricing_plan_id":"free"},{"bike_id":"1b25981f-e316-4276-93c1-bdc907ff40eb","system_id":"levelo_inurba_marseille","lat":43.258658,"lon":5.398935,"is_reserved":false,"is_disabled":false,"rental_uris":{"android":"levelo://app?vid=1b25981f-e316-4276-93c1-bdc907ff40eb","ios":"levelo://app?vid=1b25981f-e316-4276-93c1-bdc907ff40eb"},"vehicle_type_id":"4","last_reported":1701353208,"current_range_meters":9600,"station_id":"ce4bhl92rcd13ifvqghg","pricing_plan_id":"free"},{"bike_id":"fc2531f9-0626-4a8b-bb54-55135dc152cb","system_id":"levelo_inurba_marseille","lat":43.259009,"lon":5.40929,"is_reserved":false,"is_disabled":false,"rental_uris":{"android":"levelo://app?vid=fc2531f9-0626-4a8b-bb54-55135dc152cb","ios":"levelo://app?vid=fc2531f9-0626-4a8b-bb54-55135dc152cb"},"vehicle_type_id":"4","last_reported":1701353208,"current_range_meters":27600,"station_id":"ce4bhm92rcd13ifvqglg","pricing_plan_id":"free"},{"bike_id":"d4f9021c-ad89-46c1-83a7-86a9c9771265","system_id":"levelo_inurba_marseille","lat":43.250009,"lon":5.389195,"is_reserved":false,"is_disabled":false,"rental_uris":{"android":"levelo://app?vid=d4f9021c-ad89-46c1-83a7-86a9c9771265","ios":"levelo://app?vid=d4f9021c-ad89-46c1-83a7-86a9c9771265"},"vehicle_type_id":"4","last_reported":1701353208,"current_range_meters":31200,"station_id":"ce4bhgp2rcd13ifvqfd0","pricing_plan_id":"free"},{"bike_id":"22cf2c40-663c-472d-a818-51639de93de0","system_id":"levelo_inurba_marseille","lat":43.25004,"lon":5.38921,"is_reserved":false,"is_disabled":false,"rental_uris":{"android":"levelo://app?vid=22cf2c40-663c-472d-a818-51639de93de0","ios":"levelo://app?vid=22cf2c40-663c-472d-a818-51639de93de0"},"vehicle_type_id":"4","last_reported":1701353208,"current_range_meters":30400,"station_id":"ce4bhgp2rcd13ifvqfd0","pricing_plan_id":"free"},{"bike_id":"856f2952-0d85-4a71-9497-5e57411e76d2","system_id":"levelo_inurba_marseille","lat":43.250009,"lon":5.389195,"is_reserved":false,"is_disabled":false,"rental_uris":{"android":"levelo://app?vid=856f2952-0d85-4a71-9497-5e57411e76d2","ios":"levelo://app?vid=856f2952-0d85-4a71-9497-5e57411e76d2"},"vehicle_type_id":"4","last_reported":1701353208,"current_range_meters":32000,"station_id":"ce4bhgp2rcd13ifvqfd0","pricing_plan_id":"free"},{"bike_id":"85f01cb1-5515-46e6-9e1e-e59ba2b18d5b","system_id":"levelo_inurba_marseille","lat":43.250009,"lon":5.389195,"is_reserved":false,"is_disabled":false,"rental_uris":{"android":"levelo://app?vid=85f01cb1-5515-46e6-9e1e-e59ba2b18d5b","ios":"levelo://app?vid=85f01cb1-5515-46e6-9e1e-e59ba2b18d5b"},"vehicle_type_id":"4","last_reported":1701353208,"current_range_meters":18800,"station_id":"ce4bhgp2rcd13ifvqfd0","pricing_plan_id":"free"},{"bike_id":"dbd6fc41-d7e3-4c87-8bfc-203cc269bcf6","system_id":"levelo_inurba_marseille","lat":43.250023,"lon":5.38919,"is_reserved":false,"is_disabled":false,"rental_uris":{"android":"levelo://app?vid=dbd6fc41-d7e3-4c87-8bfc-203cc269bcf6","ios":"levelo://app?vid=dbd6fc41-d7e3-4c87-8bfc-203cc269bcf6"},"vehicle_type_id":"4","last_reported":1701353208,"current_range_meters":30000,"station_id":"ce4bhgp2rcd13ifvqfd0","pricing_plan_id":"free"},{"bike_id":"c36362d3-43e6-4c44-ad57-4ea4a0ee1f5b","system_id":"levelo_inurba_marseille","lat":43.24809,"lon":5.37455,"is_reserved":false,"is_disabled":false,"rental_uris":{"android":"levelo://app?vid=c36362d3-43e6-4c44-ad57-4ea4a0ee1f5b","ios":"levelo://app?vid=c36362d3-43e6-4c44-ad57-4ea4a0ee1f5b"},"vehicle_type_id":"4","last_reported":1701353208,"current_range_meters":28800,"station_id":"ce4bhgh2rcd13ifvqfb0","pricing_plan_id":"free"},{"bike_id":"02890bfb-fc95-4213-b358-d8fa14e9e8a6","system_id":"levelo_inurba_marseille","lat":43.24666,"lon":5.38156,"is_reserved":false,"is_disabled":false,"rental_uris":{"android":"levelo://app?vid=02890bfb-fc95-4213-b358-d8fa14e9e8a6","ios":"levelo://app?vid=02890bfb-fc95-4213-b358-d8fa14e9e8a6"},"vehicle_type_id":"4","last_reported":1701353208,"current_range_meters":8400,"station_id":"ce4bhih2rcd13ifvqfr0","pricing_plan_id":"free"},{"bike_id":"620ee53d-8a6c-4d0d-8284-edd8c7869e03","system_id":"levelo_inurba_marseille","lat":43.24693,"lon":5.382096,"is_reserved":false,"is_disabled":false,"rental_uris":{"android":"levelo://app?vid=620ee53d-8a6c-4d0d-8284-edd8c7869e03","ios":"levelo://app?vid=620ee53d-8a6c-4d0d-8284-edd8c7869e03"},"vehicle_type_id":"4","last_reported":1701353208,"current_range_meters":24000,"station_id":"ce4bhih2rcd13ifvqfr0","pricing_plan_id":"free"},{"bike_id":"a8c25e28-f89e-480f-9f3b-4a0ecaae5379","system_id":"levelo_inurba_marseille","lat":43.246461,"lon":5.389014,"is_reserved":false,"is_disabled":false,"rental_uris":{"android":"levelo://app?vid=a8c25e28-f89e-480f-9f3b-4a0ecaae5379","ios":"levelo://app?vid=a8c25e28-f89e-480f-9f3b-4a0ecaae5379"},"vehicle_type_id":"4","last_reported":1701353208,"current_range_meters":27200,"station_id":"ce4bhg12rcd13ifvqf60","pricing_plan_id":"free"},{"bike_id":"6d6239be-9ca4-4e23-a40c-e8cb68671c03","system_id":"levelo_inurba_marseille","lat":43.243884,"lon":5.370736,"is_reserved":false,"is_disabled":false,"rental_uris":{"android":"levelo://app?vid=6d6239be-9ca4-4e23-a40c-e8cb68671c03","ios":"levelo://app?vid=6d6239be-9ca4-4e23-a40c-e8cb68671c03"},"vehicle_type_id":"4","last_reported":1701353208,"current_range_meters":31200,"station_id":"ce4bhhh2rcd13ifvqfk0","pricing_plan_id":"free"},{"bike_id":"46274338-7531-44ee-8066-1fb7da05be34","system_id":"levelo_inurba_marseille","lat":43.243883,"lon":5.370578,"is_reserved":false,"is_disabled":false,"rental_uris":{"android":"levelo://app?vid=46274338-7531-44ee-8066-1fb7da05be34","ios":"levelo://app?vid=46274338-7531-44ee-8066-1fb7da05be34"},"vehicle_type_id":"4","last_reported":1701353208,"current_range_meters":30400,"station_id":"ce4bhnp2rcd13ifvqgvg","pricing_plan_id":"free"},{"bike_id":"8609ba6f-5dba-4e42-821c-263a41645ca4","system_id":"levelo_inurba_marseille","lat":43.243884,"lon":5.370737,"is_reserved":false,"is_disabled":false,"rental_uris":{"android":"levelo://app?vid=8609ba6f-5dba-4e42-821c-263a41645ca4","ios":"levelo://app?vid=8609ba6f-5dba-4e42-821c-263a41645ca4"},"vehicle_type_id":"4","last_reported":1701353208,"current_range_meters":30000,"station_id":"ce4bhhh2rcd13ifvqfk0","pricing_plan_id":"free"},{"bike_id":"2e159999-87b7-4bc7-a918-309c1622eb4c","system_id":"levelo_inurba_marseille","lat":43.243884,"lon":5.370737,"is_reserved":false,"is_disabled":false,"rental_uris":{"android":"levelo://app?vid=2e159999-87b7-4bc7-a918-309c1622eb4c","ios":"levelo://app?vid=2e159999-87b7-4bc7-a918-309c1622eb4c"},"vehicle_type_id":"4","last_reported":1701353208,"current_range_meters":31200,"station_id":"ce4bhhh2rcd13ifvqfk0","pricing_plan_id":"free"},{"bike_id":"31477cac-dad9-40da-a8f0-2b06ddb732dc","system_id":"levelo_inurba_marseille","lat":43.243884,"lon":5.370736,"is_reserved":false,"is_disabled":false,"rental_uris":{"android":"levelo://app?vid=31477cac-dad9-40da-a8f0-2b06ddb732dc","ios":"levelo://app?vid=31477cac-dad9-40da-a8f0-2b06ddb732dc"},"vehicle_type_id":"4","last_reported":1701353208,"current_range_meters":25600,"station_id":"ce4bhhh2rcd13ifvqfk0","pricing_plan_id":"free"},{"bike_id":"f5f3c97b-df4b-4968-a1c8-a86429b3884f","system_id":"levelo_inurba_marseille","lat":43.243884,"lon":5.370737,"is_reserved":false,"is_disabled":false,"rental_uris":{"android":"levelo://app?vid=f5f3c97b-df4b-4968-a1c8-a86429b3884f","ios":"levelo://app?vid=f5f3c97b-df4b-4968-a1c8-a86429b3884f"},"vehicle_type_id":"4","last_reported":1701353208,"current_range_meters":25600,"station_id":"ce4bhhh2rcd13ifvqfk0","pricing_plan_id":"free"},{"bike_id":"c912dfb9-b9e1-4490-ba70-4926b3071cf6","system_id":"levelo_inurba_marseille","lat":43.243884,"lon":5.370736,"is_reserved":false,"is_disabled":false,"rental_uris":{"android":"levelo://app?vid=c912dfb9-b9e1-4490-ba70-4926b3071cf6","ios":"levelo://app?vid=c912dfb9-b9e1-4490-ba70-4926b3071cf6"},"vehicle_type_id":"4","last_reported":1701353208,"current_range_meters":26800,"station_id":"ce4bhhh2rcd13ifvqfk0","pricing_plan_id":"free"},{"bike_id":"2ada2448-4297-4146-8f4d-5714674e6368","system_id":"levelo_inurba_marseille","lat":43.243884,"lon":5.370737,"is_reserved":false,"is_disabled":false,"rental_uris":{"android":"levelo://app?vid=2ada2448-4297-4146-8f4d-5714674e6368","ios":"levelo://app?vid=2ada2448-4297-4146-8f4d-5714674e6368"},"vehicle_type_id":"4","last_reported":1701353208,"current_range_meters":14400,"station_id":"ce4bhhh2rcd13ifvqfk0","pricing_plan_id":"free"},{"bike_id":"5bf9532e-4e78-4c2c-b744-1c154557636e","system_id":"levelo_inurba_marseille","lat":43.24543,"lon":5.39522,"is_reserved":false,"is_disabled":false,"rental_uris":{"android":"levelo://app?vid=5bf9532e-4e78-4c2c-b744-1c154557636e","ios":"levelo://app?vid=5bf9532e-4e78-4c2c-b744-1c154557636e"},"vehicle_type_id":"4","last_reported":1701353208,"current_range_meters":20400,"station_id":"ce4bhlp2rcd13ifvqgjg","pricing_plan_id":"free"},{"bike_id":"108df5a7-3b97-4385-98cc-b21660aa725f","system_id":"levelo_inurba_marseille","lat":43.240623,"lon":5.377642,"is_reserved":false,"is_disabled":false,"rental_uris":{"android":"levelo://app?vid=108df5a7-3b97-4385-98cc-b21660aa725f","ios":"levelo://app?vid=108df5a7-3b97-4385-98cc-b21660aa725f"},"vehicle_type_id":"4","last_reported":1701353208,"current_range_meters":26000,"station_id":"ce4bhnp2rcd13ifvqgvg","pricing_plan_id":"free"},{"bike_id":"97a6dd50-48c4-4df2-a1a3-51edbeb71d53","system_id":"levelo_inurba_marseille","lat":43.240623,"lon":5.377642,"is_reserved":false,"is_disabled":false,"rental_uris":{"android":"levelo://app?vid=97a6dd50-48c4-4df2-a1a3-51edbeb71d53","ios":"levelo://app?vid=97a6dd50-48c4-4df2-a1a3-51edbeb71d53"},"vehicle_type_id":"4","last_reported":1701353208,"current_range_meters":20800,"station_id":"ce4bhnp2rcd13ifvqgvg","pricing_plan_id":"free"},{"bike_id":"77f0b21b-1e9d-4447-b08c-a073125cc15a","system_id":"levelo_inurba_marseille","lat":43.24071,"lon":5.37756,"is_reserved":false,"is_disabled":false,"rental_uris":{"android":"levelo://app?vid=77f0b21b-1e9d-4447-b08c-a073125cc15a","ios":"levelo://app?vid=77f0b21b-1e9d-4447-b08c-a073125cc15a"},"vehicle_type_id":"4","last_reported":1701353208,"current_range_meters":30400,"station_id":"ce4bhnp2rcd13ifvqgvg","pricing_plan_id":"free"},{"bike_id":"2360896c-47a3-40b1-ba6e-3bb300a2ce00","system_id":"levelo_inurba_marseille","lat":43.24071,"lon":5.37761,"is_reserved":false,"is_disabled":false,"rental_uris":{"android":"levelo://app?vid=2360896c-47a3-40b1-ba6e-3bb300a2ce00","ios":"levelo://app?vid=2360896c-47a3-40b1-ba6e-3bb300a2ce00"},"vehicle_type_id":"4","last_reported":1701353208,"current_range_meters":22400,"station_id":"ce4bhnp2rcd13ifvqgvg","pricing_plan_id":"free"},{"bike_id":"c8a652fc-9f2b-49d4-bb55-70c99783fbc9","system_id":"levelo_inurba_marseille","lat":43.240623,"lon":5.377642,"is_reserved":false,"is_disabled":false,"rental_uris":{"android":"levelo://app?vid=c8a652fc-9f2b-49d4-bb55-70c99783fbc9","ios":"levelo://app?vid=c8a652fc-9f2b-49d4-bb55-70c99783fbc9"},"vehicle_type_id":"4","last_reported":1701353208,"current_range_meters":32000,"station_id":"ce4bhnp2rcd13ifvqgvg","pricing_plan_id":"free"},{"bike_id":"dea79dbf-a50b-4d1e-930d-04cdf6be5d75","system_id":"levelo_inurba_marseille","lat":43.240623,"lon":5.377642,"is_reserved":false,"is_disabled":false,"rental_uris":{"android":"levelo://app?vid=dea79dbf-a50b-4d1e-930d-04cdf6be5d75","ios":"levelo://app?vid=dea79dbf-a50b-4d1e-930d-04cdf6be5d75"},"vehicle_type_id":"4","last_reported":1701353208,"current_range_meters":26800,"station_id":"ce4bhnp2rcd13ifvqgvg","pricing_plan_id":"free"},