{"last_updated":1736197724,"ttl":60,"version":"2.2","data":{"bikes":[{"bike_id":"858bd43e-5fdd-4e4e-b8dc-df4e2d53b013","system_id":"levelo_inurba_marseille","lat":43.25823,"lon":5.39428,"is_reserved":false,"is_disabled":false,"rental_uris":{"android":"levelo://app?vid=858bd43e-5fdd-4e4e-b8dc-df4e2d53b013","ios":"levelo://app?vid=858bd43e-5fdd-4e4e-b8dc-df4e2d53b013"},"vehicle_type_id":"4","last_reported":1736197725,"current_range_meters":29600,"station_id":"ce4bhip2rcd13ifvqft0","pricing_plan_id":"cebpf4jnsgd1na2vs0mg"},{"bike_id":"6468ca15-1b81-4ca0-9d51-e5a545b05c54","system_id":"levelo_inurba_marseille","lat":43.27821,"lon":5.40715,"is_reserved":false,"is_disabled":true,"rental_uris":{"android":"levelo://app?vid=6468ca15-1b81-4ca0-9d51-e5a545b05c54","ios":"levelo://app?vid=6468ca15-1b81-4ca0-9d51-e5a545b05c54"},"vehicle_type_id":"4","last_reported":1736197725,"current_range_meters":28000,"station_id":"ce4bhnh2rcd13ifvqgtg","pricing_plan_id":"cebpf4jnsgd1na2vs0mg"},{"bike_id":"eab8fa68-5664-4786-8ae7-c43d42aa8d90","system_id":"levelo_inurba_marseille","lat":43.28031,"lon":5.36946,"is_reserved":false,"is_disabled":false,"rental_uris":{"android":"levelo://app?vid=eab8fa68-5664-4786-8ae7-c43d42aa8d90","ios":"levelo://app?vid=eab8fa68-5664-4786-8ae7-c43d42aa8d90"},"vehicle_type_id":"4","last_reported":1736197725,"current_range_meters":30400,"station_id":"ce4bha12rcd13ifvqef0","pricing_plan_id":"cebpf4jnsgd1na2vs0mg"},{"bike_id":"623f145b-802d-46cd-b53c-00b8e04cdde8","system_id":"levelo_inurba_marseille","lat":43.31756,"lon":5.39014,"is_reserved":false,"is_disabled":false,"rental_uris":{"android":"levelo://app?vid=623f145b-802d-46cd-b53c-00b8e04cdde8","ios":"levelo://app?vid=623f145b-802d-46cd-b53c-00b8e04cdde8"},"vehicle_type_id":"4","last_reported":1736197725,"current_range_meters":15200,"station_id":"ce4bhqp2rcd13ifvqhng","pricing_plan_id":"cebpf4jnsgd1na2vs0mg"},{"bike_id":"d4297e61-ff0b-42c6-b888-3024939b0054","system_id":"levelo_inurba_marseille","lat":43.28946,"lon":5.39641,"is_reserved":false,"is_disabled":false,"rental_uris":{"android":"levelo://app?vid=d4297e61-ff0b-42c6-b888-3024939b0054","ios":"levelo://app?vid=d4297e61-ff0b-42c6-b888-3024939b0054"},"vehicle_type_id":"4","last_reported":1736197725,"current_range_meters":28400,"station_id":"ce4bh3h2rcd13ifvqdn0","pricing_plan_id":"cebpf4jnsgd1na2vs0mg"},{"bike_id":"751ad68f-2afb-4a8b-a1a8-bd789b47ff6c","system_id":"levelo_inurba_marseille","lat":43.28853,"lon":5.35861,"is_reserved":false,"is_disabled":false,"rental_uris":{"android":"levelo://app?vid=751ad68f-2afb-4a8b-a1a8-bd789b47ff6c","ios":"levelo://app?vid=751ad68f-2afb-4a8b-a1a8-bd789b47ff6c"},"vehicle_type_id":"4","last_reported":1736197725,"current_range_meters":38800,"station_id":"ce4bhb12rcd13ifvqem0","pricing_plan_id":"cebpf4jnsgd1na2vs0mg"},{"bike_id":"75397313-d2f3-43d1-95c6-cca2420d0a1c","system_id":"levelo_inurba_marseille","lat":43.27999,"lon":5.40015,"is_reserved":false,"is_disabled":false,"rental_uris":{"android":"levelo://app?vid=75397313-d2f3-43d1-95c6-cca2420d0a1c","ios":"levelo://app?vid=75397313-d2f3-43d1-95c6-cca2420d0a1c"},"vehicle_type_id":"4","last_reported":1736197725,"current_range_meters":38000,"station_id":"ce4bho92rcd13ifvqh4g","pricing_plan_id":"cebpf4jnsgd1na2vs0mg"},{"bike_id":"0153ae28-9422-4039-87f8-952c80b8c9cc","system_id":"levelo_inurba_marseille","lat":43.2731,"lon":5.39108,"is_reserved":false,"is_disabled":true,"rental_uris":{"android":"levelo://app?vid=0153ae28-9422-4039-87f8-952c80b8c9cc","ios":"levelo://app?vid=0153ae28-9422-4039-87f8-952c80b8c9cc"},"vehicle_type_id":"4","last_reported":1736197725,"current_range_meters":35200,"station_id":"ce4bhgp2rcd13ifvqfe0","pricing_plan_id":"cebpf4jnsgd1na2vs0mg"},{"bike_id":"4d557de7-c82d-4422-a616-878f1c1fa4a9","system_id":"levelo_inurba_marseille","lat":43.31757,"lon":5.39005,"is_reserved":false,"is_disabled":false,"rental_uris":{"android":"levelo://app?vid=4d557de7-c82d-4422-a616-878f1c1fa4a9","ios":"levelo://app?vid=4d557de7-c82d-4422-a616-878f1c1fa4a9"},"vehicle_type_id":"4","last_reported":1736197725,"current_range_meters":25200,"station_id":"ce4bhqp2rcd13ifvqhng","pricing_plan_id":"cebpf4jnsgd1na2vs0mg"},{"bike_id":"cc1239a7-0e89-4b1d-9edc-8b6a75eea2ba","system_id":"levelo_inurba_marseille","lat":43.29527,"lon":5.3854,"is_reserved":false,"is_disabled":false,"rental_uris":{"android":"levelo://app?vid=cc1239a7-0e89-4b1d-9edc-8b6a75eea2ba","ios":"levelo://app?vid=cc1239a7-0e89-4b1d-9edc-8b6a75eea2ba"},"vehicle_type_id":"4","last_reported":1736197725,"current_range_meters":11600,"station_id":"ce4bgih2rcd13ifvqba0","pricing_plan_id":"cebpf4jnsgd1na2vs0mg"},{"bike_id":"e8f7458c-cf19-43d7-a972-43547ad9fe30","system_id":"levelo_inurba_marseille","lat":43.27197,"lon":5.40986,"is_reserved":false,"is_disabled":false,"rental_uris":{"android":"levelo://app?vid=e8f7458c-cf19-43d7-a972-43547ad9fe30","ios":"levelo://app?vid=e8f7458c-cf19-43d7-a972-43547ad9fe30"},"vehicle_type_id":"4","last_reported":1736197725,"current_range_meters":6400,"station_id":"ce4bhl12rcd13ifvqgf0","pricing_plan_id":"cebpf4jnsgd1na2vs0mg"},{"bike_id":"05a2c15a-fb68-455c-8082-fdf747a62fe7","system_id":"levelo_inurba_marseille","lat":43.27809,"lon":5.40718,"is_reserved":false,"is_disabled":true,"rental_uris":{"android":"levelo://app?vid=05a2c15a-fb68-455c-8082-fdf747a62fe7","ios":"levelo://app?vid=05a2c15a-fb68-455c-8082-fdf747a62fe7"},"vehicle_type_id":"4","last_reported":1736197725,"current_range_meters":0,"station_id":"ce4bhnh2rcd13ifvqgtg","pricing_plan_id":"cebpf4jnsgd1na2vs0mg"},{"bike_id":"977039bd-2713-4c83-a12d-15fa8ba10849","system_id":"levelo_inurba_marseille","lat":43.28714,"lon":5.37949,"is_reserved":false,"is_disabled":true,"rental_uris":{"android":"levelo://app?vid=977039bd-2713-4c83-a12d-15fa8ba10849","ios":"levelo://app?vid=977039bd-2713-4c83-a12d-15fa8ba10849"},"vehicle_type_id":"4","last_reported":1736197725,"current_range_meters":24800,"station_id":"ce4bh9p2rcd13ifvqec0","pricing_plan_id":"cebpf4jnsgd1na2vs0mg"},{"bike_id":"795f0bf4-6cb2-4181-a990-1a76c6d73ea0","system_id":"levelo_inurba_marseille","lat":43.27979,"lon":5.41049,"is_reserved":false,"is_disabled":true,"rental_uris":{"android":"levelo://app?vid=795f0bf4-6cb2-4181-a990-1a76c6d73ea0","ios":"levelo://app?vid=795f0bf4-6cb2-4181-a990-1a76c6d73ea0"},"vehicle_type_id":"4","last_reported":1736197725,"current_range_meters":38400,"station_id":"ce4bhnp2rcd13ifvqh0g","pricing_plan_id":"cebpf4jnsgd1na2vs0mg"},{"bike_id":"f66dc5df-a154-48ab-8b16-4ac7b002ab2a","system_id":"levelo_inurba_marseille","lat":43.31385,"lon":5.38503,"is_reserved":false,"is_disabled":false,"rental_uris":{"android":"levelo://app?vid=f66dc5df-a154-48ab-8b16-4ac7b002ab2a","ios":"levelo://app?vid=f66dc5df-a154-48ab-8b16-4ac7b002ab2a"},"vehicle_type_id":"4","last_reported":1736197725,"current_range_meters":34800,"station_id":"ce4bgt92rcd13ifvqcf0","pricing_plan_id":"cebpf4jnsgd1na2vs0mg"},{"bike_id":"a7daa7e8-1c32-4c5e-8957-1f51d47bc446","system_id":"levelo_inurba_marseille","lat":43.27909,"lon":5.39581,"is_reserved":false,"is_disabled":false,"rental_uris":{"android":"levelo://app?vid=a7daa7e8-1c32-4c5e-8957-1f51d47bc446","ios":"levelo://app?vid=a7daa7e8-1c32-4c5e-8957-1f51d47bc446"},"vehicle_type_id":"4","last_reported":1736197725,"current_range_meters":28800,"station_id":"ce4bhf92rcd13ifvqf40","pricing_plan_id":"cebpf4jnsgd1na2vs0mg"},{"bike_id":"2e3020fc-739e-484f-aff1-968aa18f2ac1","system_id":"levelo_inurba_marseille","lat":43.27981,"lon":5.41643,"is_reserved":false,"is_disabled":true,"rental_uris":{"android":"levelo://app?vid=2e3020fc-739e-484f-aff1-968aa18f2ac1","ios":"levelo://app?vid=2e3020fc-739e-484f-aff1-968aa18f2ac1"},"vehicle_type_id":"4","last_reported":1736197725,"current_range_meters":38800,"station_id":"ce4bho12rcd13ifvqh1g","pricing_plan_id":"cebpf4jnsgd1na2vs0mg"},{"bike_id":"7465813d-a24c-463a-a24a-d777defcbdbe","system_id":"levelo_inurba_marseille","lat":43.26485,"lon":5.39538,"is_reserved":false,"is_disabled":false,"rental_uris":{"android":"levelo://app?vid=7465813d-a24c-463a-a24a-d777defcbdbe","ios":"levelo://app?vid=7465813d-a24c-463a-a24a-d777defcbdbe"},"vehicle_type_id":"4","last_reported":1736197725,"current_range_meters":39200,"station_id":"ce4bhi12rcd13ifvqfq0","pricing_plan_id":"cebpf4jnsgd1na2vs0mg"},{"bike_id":"5290036f-9fe0-4030-8040-4248ae3ede17","system_id":"levelo_inurba_marseille","lat":43.31331,"lon":5.39698,"is_reserved":false,"is_disabled":false,"rental_uris":{"android":"levelo://app?vid=5290036f-9fe0-4030-8040-4248ae3ede17","ios":"levelo://app?vid=5290036f-9fe0-4030-8040-4248ae3ede17"},"vehicle_type_id":"4","last_reported":1736197725,"current_range_meters":38800,"station_id":"ce4bgvp2rcd13ifvqcu0","pricing_plan_id":"cebpf4jnsgd1na2vs0mg"},{"bike_id":"9bc564bb-6773-485d-ac7c-33edf80314fe","system_id":"levelo_inurba_marseille","lat":43.25007,"lon":5.38918,"is_reserved":false,"is_disabled":false,"rental_uris":{"android":"levelo://app?vid=9bc564bb-6773-485d-ac7c-33edf80314fe","ios":"levelo://app?vid=9bc564bb-6773-485d-ac7c-33edf80314fe"},"vehicle_type_id":"4","last_reported":1736197725,"current_range_meters":4800,"station_id":"ce4bhgp2rcd13ifvqfd0","pricing_plan_id":"cebpf4jnsgd1na2vs0mg"},{"bike_id":"c6462501-85fc-48e5-83ac-3bf58ccfa49e","system_id":"levelo_inurba_marseille","lat":43.25062,"lon":5.39548,"is_reserved":false,"is_disabled":false,"rental_uris":{"android":"levelo://app?vid=c6462501-85fc-48e5-83ac-3bf58ccfa49e","ios":"levelo://app?vid=c6462501-85fc-48e5-83ac-3bf58ccfa49e"},"vehicle_type_id":"4","last_reported":1736197725,"current_range_meters":28800,"station_id":"ce4bhm12rcd13ifvqgkg","pricing_plan_id":"cebpf4jnsgd1na2vs0mg"},{"bike_id":"e56af223-5844-473f-a506-370da1426720","system_id":"levelo_inurba_marseille","lat":43.301,"lon":5.39078,"is_reserved":false,"is_disabled":false,"rental_uris":{"android":"levelo://app?vid=e56af223-5844-473f-a506-370da1426720","ios":"levelo://app?vid=e56af223-5844-473f-a506-370da1426720"},"vehicle_type_id":"4","last_reported":1736197725,"current_range_meters":38800,"station_id":"ce4bh192rcd13ifvqdb0","pricing_plan_id":"cebpf4jnsgd1na2vs0mg"},{"bike_id":"c6c5246a-6c57-426f-a7e1-dc372ef756c9","system_id":"levelo_inurba_marseille","lat":43.28467,"lon":5.35877,"is_reserved":false,"is_disabled":false,"rental_uris":{"android":"levelo://app?vid=c6c5246a-6c57-426f-a7e1-dc372ef756c9","ios":"levelo://app?vid=c6c5246a-6c57-426f-a7e1-dc372ef756c9"},"vehicle_type_id":"4","last_reported":1736197725,"current_range_meters":11600,"station_id":"ce4bhah2rcd13ifvqei0","pricing_plan_id":"cebpf4jnsgd1na2vs0mg"},{"bike_id":"4eeaeffa-480f-4a94-8286-42f1bcb601fc","system_id":"levelo_inurba_marseille","lat":43.292704,"lon":5.401223,"is_reserved":false,"is_disabled":true,"rental_uris":{"android":"levelo://app?vid=4eeaeffa-480f-4a94-8286-42f1bcb601fc","ios":"levelo://app?vid=4eeaeffa-480f-4a94-8286-42f1bcb601fc"},"vehicle_type_id":"4","last_reported":1736197725,"current_range_meters":21600,"station_id":"ce4bh312rcd13ifvqdk0","pricing_plan_id":"cebpf4jnsgd1na2vs0mg"},{"bike_id":"35bd38d9-e4fb-49ed-b3f3-867624995934","system_id":"levelo_inurba_marseille","lat":43.26484,"lon":5.39551,"is_reserved":false,"is_disabled":false,"rental_uris":{"android":"levelo://app?vid=35bd38d9-e4fb-49ed-b3f3-867624995934","ios":"levelo://app?vid=35bd38d9-e4fb-49ed-b3f3-867624995934"},"vehicle_type_id":"4","last_reported":1736197725,"current_range_meters":6400,"station_id":"ce4bhi12rcd13ifvqfq0","pricing_plan_id":"cebpf4jnsgd1na2vs0mg"},{"bike_id":"7785ab47-fc21-464f-82e3-4fad2439c0ee","system_id":"levelo_inurba_marseille","lat":43.29832,"lon":5.43726,"is_reserved":false,"is_disabled":false,"rental_uris":{"android":"levelo://app?vid=7785ab47-fc21-464f-82e3-4fad2439c0ee","ios":"levelo://app?vid=7785ab47-fc21-464f-82e3-4fad2439c0ee"},"vehicle_type_id":"4","last_reported":1736197725,"current_range_meters":18800,"station_id":"","pricing_plan_id":"cebpf4jnsgd1na2vs0mg"},{"bike_id":"abb7c72c-f444-45af-97ba-c60ca97008ea","system_id":"levelo_inurba_marseille","lat":43.2512,"lon":5.40321,"is_reserved":false,"is_disabled":false,"rental_uris":{"android":"levelo://app?vid=abb7c72c-f444-45af-97ba-c60ca97008ea","ios":"levelo://app?vid=abb7c72c-f444-45af-97ba-c60ca97008ea"},"vehicle_type_id":"4","last_reported":1736197725,"current_range_meters":32800,"station_id":"ce4bhlh2rcd13ifvqgig","pricing_plan_id":"cebpf4jnsgd1na2vs0mg"},{"bike_id":"9acb7625-b28a-437e-b5d0-d5fee7793fc2","system_id":"levelo_inurba_marseille","lat":43.31198,"lon":5.3872,"is_reserved":false,"is_disabled":false,"rental_uris":{"android":"levelo://app?vid=9acb7625-b28a-437e-b5d0-d5fee7793fc2","ios":"levelo://app?vid=9acb7625-b28a-437e-b5d0-d5fee7793fc2"},"vehicle_type_id":"4","last_reported":1736197725,"current_range_meters":38800,"station_id":"ce4bgv12rcd13ifvqcp0","pricing_plan_id":"cebpf4jnsgd1na2vs0mg"},{"bike_id":"78de9d92-a23c-4c51-a523-2a33a3e052d7","system_id":"levelo_inurba_marseille","lat":43.31165,"lon":5.38719,"is_reserved":false,"is_disabled":false,"rental_uris":{"android":"levelo://app?vid=78de9d92-a23c-4c51-a523-2a33a3e052d7","ios":"levelo://app?vid=78de9d92-a23c-4c51-a523-2a33a3e052d7"},"vehicle_type_id":"4","last_reported":1736197725,"current_range_meters":38800,"station_id":"ce4bgv12rcd13ifvqcp0","pricing_plan_id":"cebpf4jnsgd1na2vs0mg"},{"bike_id":"0576983b-2a2f-45db-8c7f-737629af9cf7","system_id":"levelo_inurba_marseille","lat":43.29555,"lon":5.42292,"is_reserved":false,"is_disabled":false,"rental_uris":{"android":"levelo://app?vid=0576983b-2a2f-45db-8c7f-737629af9cf7","ios":"levelo://app?vid=0576983b-2a2f-45db-8c7f-737629af9cf7"},"vehicle_type_id":"4","last_reported":1736197725,"current_range_meters":33200,"station_id":"ce4bhph2rcd13ifvqhdg","pricing_plan_id":"cebpf4jnsgd1na2vs0mg"},{"bike_id":"21d58c8f-34d7-4f20-9ab3-933a26280e93","system_id":"levelo_inurba_marseille","lat":43.28476,"lon":5.35874,"is_reserved":false,"is_disabled":false,"rental_uris":{"android":"levelo://app?vid=21d58c8f-34d7-4f20-9ab3-933a26280e93","ios":"levelo://app?vid=21d58c8f-34d7-4f20-9ab3-933a26280e93"},"vehicle_type_id":"4","last_reported":1736197725,"current_range_meters":38800,"station_id":"ce4bhah2rcd13ifvqei0","pricing_plan_id":"cebpf4jnsgd1na2vs0mg"},{"bike_id":"8f184f51-475e-4d80-838b-d9b3c793f3ea","system_id":"levelo_inurba_marseille","lat":43.30419,"lon":5.4129,"is_reserved":false,"is_disabled":false,"rental_uris":{"android":"levelo://app?vid=8f184f51-475e-4d80-838b-d9b3c793f3ea","ios":"levelo://app?vid=8f184f51-475e-4d80-838b-d9b3c793f3ea"},"vehicle_type_id":"4","last_reported":1736197725,"current_range_meters":38800,"station_id":"ce4bhop2rcd13ifvqh8g","pricing_plan_id":"cebpf4jnsgd1na2vs0mg"},{"bike_id":"c023aed8-c4af-47de-bf55-7ec6cfb1c879","system_id":"levelo_inurba_marseille","lat":43.262085,"lon":5.374641,"is_reserved":false,"is_disabled":true,"rental_uris":{"android":"levelo://app?vid=c023aed8-c4af-47de-bf55-7ec6cfb1c879","ios":"levelo://app?vid=c023aed8-c4af-47de-bf55-7ec6cfb1c879"},"vehicle_type_id":"4","last_reported":1736197725,"current_range_meters":30000,"station_id":"ce4bhgp2rcd13ifvqfc0","pricing_plan_id":"cebpf4jnsgd1na2vs0mg"},{"bike_id":"abb73762-9b4d-4d88-954c-9c0415dc3b68","system_id":"levelo_inurba_marseille","lat":43.25585,"lon":5.38249,"is_reserved":false,"is_disabled":false,"rental_uris":{"android":"levelo://app?vid=abb73762-9b4d-4d88-954c-9c0415dc3b68","ios":"levelo://app?vid=abb73762-9b4d-4d88-954c-9c0415dc3b68"},"vehicle_type_id":"4","last_reported":1736197725,"current_range_meters":39200,"station_id":"ce4bhih2rcd13ifvqfs0","pricing_plan_id":"cebpf4jnsgd1na2vs0mg"},{"bike_id":"ebf65e80-1869-4c83-a4e9-e1600f07fee4","system_id":"levelo_inurba_marseille","lat":43.23226,"lon":5.39915,"is_reserved":false,"is_disabled":false,"rental_uris":{"android":"levelo://app?vid=ebf65e80-1869-4c83-a4e9-e1600f07fee4","ios":"levelo://app?vid=ebf65e80-1869-4c83-a4e9-e1600f07fee4"},"vehicle_type_id":"4","last_reported":1736197725,"current_range_meters":38800,"station_id":"ce4bhn12rcd13ifvqgqg","pricing_plan_id":"cebpf4jnsgd1na2vs0mg"},{"bike_id":"ad036647-e9f4-4246-953d-37ee6601db50","system_id":"levelo_inurba_marseille","lat":43.24673,"lon":5.38156,"is_reserved":false,"is_disabled":false,"rental_uris":{"android":"levelo://app?vid=ad036647-e9f4-4246-953d-37ee6601db50","ios":"levelo://app?vid=ad036647-e9f4-4246-953d-37ee6601db50"},"vehicle_type_id":"4","last_reported":1736197725,"current_range_meters":20400,"station_id":"ce4bhih2rcd13ifvqfr0","pricing_plan_id":"cebpf4jnsgd1na2vs0mg"},{"bike_id":"09f6c248-8b41-4aaf-b3aa-8e819950181e","system_id":"levelo_inurba_marseille","lat":43.27907,"lon":5.38,"is_reserved":false,"is_disabled":false,"rental_uris":{"android":"levelo://app?vid=09f6c248-8b41-4aaf-b3aa-8e819950181e","ios":"levelo://app?vid=09f6c248-8b41-4aaf-b3aa-8e819950181e"},"vehicle_type_id":"4","last_reported":1736197725,"current_range_meters":38800,"station_id":"ce4bhf92rcd13ifvqf50","pricing_plan_id":"cebpf4jnsgd1na2vs0mg"},{"bike_id":"8b18ae7c-9169-465c-8009-ab9a5c1809f3","system_id":"levelo_inurba_marseille","lat":43.258676,"lon":5.398996,"is_reserved":false,"is_disabled":false,"rental_uris":{"android":"levelo://app?vid=8b18ae7c-9169-465c-8009-ab9a5c1809f3","ios":"levelo://app?vid=8b18ae7c-9169-465c-8009-ab9a5c1809f3"},"vehicle_type_id":"4","last_reported":1736197725,"current_range_meters":24800,"station_id":"ce4bhl92rcd13ifvqghg","pricing_plan_id":"cebpf4jnsgd1na2vs0mg"},{"bike_id":"59b9c772-5725-4c1d-971b-536ecaed9252","system_id":"levelo_inurba_marseille","lat":43.28744,"lon":5.36071,"is_reserved":false,"is_disabled":false,"rental_uris":{"android":"levelo://app?vid=59b9c772-5725-4c1d-971b-536ecaed9252","ios":"levelo://app?vid=59b9c772-5725-4c1d-971b-536ecaed9252"},"vehicle_type_id":"4","last_reported":1736197725,"current_range_meters":35600,"station_id":"cki0cbj6b192h4jlfktg","pricing_plan_id":"cebpf4jnsgd1na2vs0mg"},{"bike_id":"964d87c8-cd8b-4f66-a8bd-3f7be33d5b71","system_id":"levelo_inurba_marseille","lat":43.27806,"lon":5.40747,"is_reserved":false,"is_disabled":false,"rental_uris":{"android":"levelo://app?vid=964d87c8-cd8b-4f66-a8bd-3f7be33d5b71","ios":"levelo://app?vid=964d87c8-cd8b-4f66-a8bd-3f7be33d5b71"},"vehicle_type_id":"4","last_reported":1736197725,"current_range_meters":11200,"station_id":"ce4bhnh2rcd13ifvqgtg","pricing_plan_id":"cebpf4jnsgd1na2vs0mg"},{"bike_id":"f950f68e-763d-458f-8358-255933d8bbd3","system_id":"levelo_inurba_marseille","lat":43.27891,"lon":5.38018,"is_reserved":false,"is_disabled":false,"rental_uris":{"android":"levelo://app?vid=f950f68e-763d-458f-8358-255933d8bbd3","ios":"levelo://app?vid=f950f68e-763d-458f-8358-255933d8bbd3"},"vehicle_type_id":"4","last_reported":1736197725,"current_range_meters":38000,"station_id":"ce4bhf92rcd13ifvqf50","pricing_plan_id":"cebpf4jnsgd1na2vs0mg"},{"bike_id":"0e718951-dc7f-4664-b14a-49c088e1539f","system_id":"levelo_inurba_marseille","lat":43.29896,"lon":5.39724,"is_reserved":false,"is_disabled":false,"rental_uris":{"android":"levelo://app?vid=0e718951-dc7f-4664-b14a-49c088e1539f","ios":"levelo://app?vid=0e718951-dc7f-4664-b14a-49c088e1539f"},"vehicle_type_id":"4","last_reported":1736197725,"current_range_meters":6800,"station_id":"ce4bh0h2rcd13ifvqd50","pricing_plan_id":"cebpf4jnsgd1na2vs0mg"},{"bike_id":"9ee617c7-9b76-440e-9281-5fef63933f9f","system_id":"levelo_inurba_marseille","lat":43.29805,"lon":5.39333,"is_reserved":false,"is_disabled":false,"rental_uris":{"android":"levelo://app?vid=9ee617c7-9b76-440e-9281-5fef63933f9f","ios":"levelo://app?vid=9ee617c7-9b76-440e-9281-5fef63933f9f"},"vehicle_type_id":"4","last_reported":1736197725,"current_range_meters":39200,"station_id":"chh1huq6cuj3fo74tm60","pricing_plan_id":"cebpf4jnsgd1na2vs0mg"},{"bike_id":"26c4fa36-b198-40a9-9b0a-d7f91ce3c046","system_id":"levelo_inurba_marseille","lat":43.32364,"lon":5.38885,"is_reserved":false,"is_disabled":false,"rental_uris":{"android":"levelo://app?vid=26c4fa36-b198-40a9-9b0a-d7f91ce3c046","ios":"levelo://app?vid=26c4fa36-b198-40a9-9b0a-d7f91ce3c046"},"vehicle_type_id":"4","last_reported":1736197725,"current_range_meters":4000,"station_id":"ce4bhqp2rcd13ifvqhog","pricing_plan_id":"cebpf4jnsgd1na2vs0mg"},{"bike_id":"a9046670-4fee-4d5a-b75d-66a66986ba3f","system_id":"levelo_inurba_marseille","lat":43.28463,"lon":5.35873,"is_reserved":false,"is_disabled":false,"rental_uris":{"android":"levelo://app?vid=a9046670-4fee-4d5a-b75d-66a66986ba3f","ios":"levelo://app?vid=a9046670-4fee-4d5a-b75d-66a66986ba3f"},"vehicle_type_id":"4","last_reported":1736197725,"current_range_meters":38800,"station_id":"ce4bhah2rcd13ifvqei0","pricing_plan_id":"cebpf4jnsgd1na2vs0mg"},{"bike_id":"0d869571-702b-474e-9734-e51fa36b8db2","system_id":"levelo_inurba_marseille","lat":43.29202,"lon":5.39301,"is_reserved":false,"is_disabled":true,"rental_uris":{"android":"levelo://app?vid=0d869571-702b-474e-9734-e51fa36b8db2","ios":"levelo://app?vid=0d869571-702b-474e-9734-e51fa36b8db2"},"vehicle_type_id":"4","last_reported":1736197725,"current_range_meters":10000,"station_id":"ce4bh192rcd13ifvqdd0","pricing_plan_id":"cebpf4jnsgd1na2vs0mg"},{"bike_id":"1abc4dce-9392-4c74-a4fd-9fcdbc077e94","system_id":"levelo_inurba_marseille","lat":43.29571,"lon":5.39981,"is_reserved":false,"is_disabled":false,"rental_uris":{"android":"levelo://app?vid=1abc4dce-9392-4c74-a4fd-9fcdbc077e94","ios":"levelo://app?vid=1abc4dce-9392-4c74-a4fd-9fcdbc077e94"},"vehicle_type_id":"4","last_reported":1736197725,"current_range_meters":24800,"station_id":"ce4bh312rcd13ifvqdj0","pricing_plan_id":"cebpf4jnsgd1na2vs0mg"},{"bike_id":"fe3c9f6c-b879-430c-8afc-3755d2438ecb","system_id":"levelo_inurba_marseille","lat":43.27904,"lon":5.37998,"is_reserved":false,"is_disabled":false,"rental_uris":{"android":"levelo://app?vid=fe3c9f6c-b879-430c-8afc-3755d2438ecb","ios":"levelo://app?vid=fe3c9f6c-b879-430c-8afc-3755d2438ecb"},"vehicle_type_id":"4","last_reported":1736197725,"current_range_meters":37600,"station_id":"ce4bhf92rcd13ifvqf50","pricing_plan_id":"cebpf4jnsgd1na2vs0mg"},{"bike_id":"64fba33b-c31d-43fe-acd8-63797d23cd06","system_id":"levelo_inurba_marseille","lat":43.29248,"lon":5.40907,"is_reserved":false,"is_disabled":false,"rental_uris":{"android":"levelo://app?vid=64fba33b-c31d-43fe-acd8-63797d23cd06","ios":"levelo://app?vid=64fba33b-c31d-43fe-acd8-63797d23cd06"},"vehicle_type_id":"4","last_reported":1736197725,"current_range_meters":38400,"station_id":"ce4bh192rcd13ifvqdc0","pricing_plan_id":"cebpf4jnsgd1na2vs0mg"},{"bike_id":"5a2e64a4-6977-42d9-b575-8fc6f86139fc","system_id":"levelo_inurba_marseille","lat":43.31085,"lon":5.42435,"is_reserved":false,"is_disabled":false,"rental_uris":{"android":"levelo://app?vid=5a2e64a4-6977-42d9-b575-8fc6f86139fc","ios":"levelo://app?vid=5a2e64a4-6977-42d9-b575-8fc6f86139fc"},"vehicle_type_id":"4","last_reported":1736197725,"current_range_meters":38800,"station_id":"ce4bhp92rcd13ifvqhag","pricing_plan_id":"cebpf4jnsgd1na2vs0mg"},{"bike_id":"1c8566e1-e9e5-47b1-84c3-686a41788fcd","system_id":"levelo_inurba_marseille","lat":43.2552,"lon":5.37638,"is_reserved":false,"is_disabled":false,"rental_uris":{"android":"levelo://app?vid=1c8566e1-e9e5-47b1-84c3-686a41788fcd","ios":"levelo://app?vid=1c8566e1-e9e5-47b1-84c3-686a41788fcd"},"vehicle_type_id":"4","last_reported":1736197725,"current_range_meters":38800,"station_id":"ce4bhh12rcd13ifvqff0","pricing_plan_id":"cebpf4jnsgd1na2vs0mg"},{"bike_id":"bf4574ef-6e99-4c7d-a802-00dbdb11e3b8","system_id":"levelo_inurba_marseille","lat":43.29881,"lon":5.39736,"is_reserved":false,"is_disabled":false,"rental_uris":{"android":"levelo://app?vid=bf4574ef-6e99-4c7d-a802-00dbdb11e3b8","ios":"levelo://app?vid=bf4574ef-6e99-4c7d-a802-00dbdb11e3b8"},"vehicle_type_id":"4","last_reported":1736197725,"current_range_meters":4000,"station_id":"ce4bh0h2rcd13ifvqd50","pricing_plan_id":"cebpf4jnsgd1na2vs0mg"},{"bike_id":"f74f192e-39bc-4ab0-b0a6-e42592d371cb","system_id":"levelo_inurba_marseille","lat":43.29895,"lon":5.44157,"is_reserved":false,"is_disabled":false,"rental_uris":{"android":"levelo://app?vid=f74f192e-39bc-4ab0-b0a6-e42592d371cb","ios":"levelo://app?vid=f74f192e-39bc-4ab0-b0a6-e42592d371cb"},"vehicle_type_id":"4","last_reported":1736197725,"current_range_meters":29600,"station_id":"","pricing_plan_id":"cebpf4jnsgd1na2vs0mg"},{"bike_id":"a23e7dd5-84cc-4eca-9236-90b42c7ed41b","system_id":"levelo_inurba_marseille","lat":43.32374,"lon":5.40615,"is_reserved":false,"is_disabled":true,"rental_uris":{"android":"levelo://app?vid=a23e7dd5-84cc-4eca-9236-90b42c7ed41b","ios":"levelo://app?vid=a23e7dd5-84cc-4eca-9236-90b42c7ed41b"},"vehicle_type_id":"4","last_reported":1736197725,"current_range_meters":16800,"station_id":"ce4bhq92rcd13ifvqhjg","pricing_plan_id":"cebpf4jnsgd1na2vs0mg"},{"bike_id":"8898af74-ad1e-4f8b-80b3-e4d562e11d2d","system_id":"levelo_inurba_marseille","lat":43.3042,"lon":5.41277,"is_reserved":false,"is_disabled":true,"rental_uris":{"android":"levelo://app?vid=8898af74-ad1e-4f8b-80b3-e4d562e11d2d","ios":"levelo://app?vid=8898af74-ad1e-4f8b-80b3-e4d562e11d2d"},"vehicle_type_id":"4","last_reported":1736197725,"current_range_meters":2000,"station_id":"ce4bhop2rcd13ifvqh8g","pricing_plan_id":"cebpf4jnsgd1na2vs0mg"},{"bike_id":"6d84546b-ddb9-4cc3-a2db-049a42baa9b4","system_id":"levelo_inurba_marseille","lat":43.30535,"lon":5.38434,"is_reserved":false,"is_disabled":false,"rental_uris":{"android":"levelo://app?vid=6d84546b-ddb9-4cc3-a2db-049a42baa9b4","ios":"levelo://app?vid=6d84546b-ddb9-4cc3-a2db-049a42baa9b4"},"vehicle_type_id":"4","last_reported":1736197725,"current_range_meters":39200,"station_id":"ce4bgg92rcd13ifvqb30","pricing_plan_id":"cebpf4jnsgd1na2vs0mg"},{"bike_id":"de2c5fce-65c5-4566-b4d8-ce5e129e6352","system_id":"levelo_inurba_marseille","lat":43.29194,"lon":5.39314,"is_reserved":false,"is_disabled":false,"rental_uris":{"android":"levelo://app?vid=de2c5fce-65c5-4566-b4d8-ce5e129e6352","ios":"levelo://app?vid=de2c5fce-65c5-4566-b4d8-ce5e129e6352"},"vehicle_type_id":"4","last_reported":1736197725,"current_range_meters":8400,"station_id":"ce4bh192rcd13ifvqdd0","pricing_plan_id":"cebpf4jnsgd1na2vs0mg"},{"bike_id":"d805656f-38c3-484c-8057-c0e51bea0f09","system_id":"levelo_inurba_marseille","lat":43.29197,"lon":5.35798,"is_reserved":false,"is_disabled":false,"rental_uris":{"android":"levelo://app?vid=d805656f-38c3-484c-8057-c0e51bea0f09","ios":"levelo://app?vid=d805656f-38c3-484c-8057-c0e51bea0f09"},"vehicle_type_id":"4","last_reported":1736197725,"current_range_meters":38000,"station_id":"ce4bhb12rcd13ifvqel0","pricing_plan_id":"cebpf4jnsgd1na2vs0mg"},{"bike_id":"6e51b573-4e79-435a-af54-674e36987856","system_id":"levelo_inurba_marseille","lat":43.31177,"lon":5.38726,"is_reserved":false,"is_disabled":false,"rental_uris":{"android":"levelo://app?vid=6e51b573-4e79-435a-af54-674e36987856","ios":"levelo://app?vid=6e51b573-4e79-435a-af54-674e36987856"},"vehicle_type_id":"4","last_reported":1736197725,"current_range_meters":38800,"station_id":"ce4bgv12rcd13ifvqcp0","pricing_plan_id":"cebpf4jnsgd1na2vs0mg"},{"bike_id":"1feff506-1adf-43a6-9303-7b4053d3c522","system_id":"levelo_inurba_marseille","lat":43.29878,"lon":5.38905,"is_reserved":false,"is_disabled":false,"rental_uris":{"android":"levelo://app?vid=1feff506-1adf-43a6-9303-7b4053d3c522","ios":"levelo://app?vid=1feff506-1adf-43a6-9303-7b4053d3c522"},"vehicle_type_id":"4","last_reported":1736197725,"current_range_meters":36400,"station_id":"ce4bh392rcd13ifvqdl0","pricing_plan_id":"cebpf4jnsgd1na2vs0mg"},{"bike_id":"db973fb0-a7a7-419f-905d-9711a91dd280","system_id":"levelo_inurba_marseille","lat":43.25716,"lon":5.41154,"is_reserved":false,"is_disabled":true,"rental_uris":{"android":"levelo://app?vid=db973fb0-a7a7-419f-905d-9711a91dd280","ios":"levelo://app?vid=db973fb0-a7a7-419f-905d-9711a91dd280"},"vehicle_type_id":"4","last_reported":1736197725,"current_range_meters":38800,"station_id":"ce4bhkp2rcd13ifvqgd0","pricing_plan_id":"cebpf4jnsgd1na2vs0mg"},{"bike_id":"0f23a48b-89c6-4b6d-8691-f9c7d27e384f","system_id":"levelo_inurba_marseille","lat":43.29934,"lon":5.36539,"is_reserved":false,"is_disabled":false,"rental_uris":{"android":"levelo://app?vid=0f23a48b-89c6-4b6d-8691-f9c7d27e384f","ios":"levelo://app?vid=0f23a48b-89c6-4b6d-8691-f9c7d27e384f"},"vehicle_type_id":"4","last_reported":1736197725,"current_range_meters":19200,"station_id":"ce4bgm92rcd13ifvqbr0","pricing_plan_id":"cebpf4jnsgd1na2vs0mg"},{"bike_id":"9b8cfac3-c795-4e09-8208-dfdcc2c9db0a","system_id":"levelo_inurba_marseille","lat":43.29059,"lon":5.40001,"is_reserved":false,"is_disabled":true,"rental_uris":{"android":"levelo://app?vid=9b8cfac3-c795-4e09-8208-dfdcc2c9db0a","ios":"levelo://app?vid=9b8cfac3-c795-4e09-8208-dfdcc2c9db0a"},"vehicle_type_id":"4","last_reported":1736197725,"current_range_meters":10800,"station_id":"ce4bh392rcd13ifvqdm0","pricing_plan_id":"cebpf4jnsgd1na2vs0mg"},{"bike_id":"f8142e8a-f886-4c5e-b399-88d8fa1c1d32","system_id":"levelo_inurba_marseille","lat":43.24684,"lon":5.38152,"is_reserved":false,"is_disabled":false,"rental_uris":{"android":"levelo://app?vid=f8142e8a-f886-4c5e-b399-88d8fa1c1d32","ios":"levelo://app?vid=f8142e8a-f886-4c5e-b399-88d8fa1c1d32"},"vehicle_type_id":"4","last_reported":1736197725,"current_range_meters":20400,"station_id":"ce4bhih2rcd13ifvqfr0","pricing_plan_id":"cebpf4jnsgd1na2vs0mg"},{"bike_id":"04284143-2834-49a9-97bf-7ff57a2fbe0d","system_id":"levelo_inurba_marseille","lat":43.31333,"lon":5.3969,"is_reserved":false,"is_disabled":false,"rental_uris":{"android":"levelo://app?vid=04284143-2834-49a9-97bf-7ff57a2fbe0d","ios":"levelo://app?vid=04284143-2834-49a9-97bf-7ff57a2fbe0d"},"vehicle_type_id":"4","last_reported":1736197725,"current_range_meters":30000,"station_id":"ce4bgvp2rcd13ifvqcu0","pricing_plan_id":"cebpf4jnsgd1na2vs0mg"},{"bike_id":"3339d050-09a6-4aa9-9ed5-b1e4247a1a00","system_id":"levelo_inurba_marseille","lat":43.23974,"lon":5.36614,"is_reserved":false,"is_disabled":false,"rental_uris":{"android":"levelo://app?vid=3339d050-09a6-4aa9-9ed5-b1e4247a1a00","ios":"levelo://app?vid=3339d050-09a6-4aa9-9ed5-b1e4247a1a00"},"vehicle_type_id":"4","last_reported":1736197725,"current_range_meters":38800,"station_id":"ce4bhi12rcd13ifvqfp0","pricing_plan_id":"cebpf4jnsgd1na2vs0mg"},{"bike_id":"0a9c3f6d-1ee4-4242-ab1b-2fc933875b46","system_id":"levelo_inurba_marseille","lat":43.28462,"lon":5.35868,"is_reserved":false,"is_disabled":false,"rental_uris":{"android":"levelo://app?vid=0a9c3f6d-1ee4-4242-ab1b-2fc933875b46","ios":"levelo://app?vid=0a9c3f6d-1ee4-4242-ab1b-2fc933875b46"},"vehicle_type_id":"4","last_reported":1736197725,"current_range_meters":34000,"station_id":"ce4bhah2rcd13ifvqei0","pricing_plan_id":"cebpf4jnsgd1na2vs0mg"},{"bike_id":"555f5bb6-1a41-4662-92c1-ef73605abfac","system_id":"levelo_inurba_marseille","lat":43.32308,"lon":5.38193,"is_reserved":false,"is_disabled":false,"rental_uris":{"android":"levelo://app?vid=555f5bb6-1a41-4662-92c1-ef73605abfac","ios":"levelo://app?vid=555f5bb6-1a41-4662-92c1-ef73605abfac"},"vehicle_type_id":"4","last_reported":1736197725,"current_range_meters":38800,"station_id":"ce4bhr12rcd13ifvqhqg","pricing_plan_id":"cebpf4jnsgd1na2vs0mg"},{"bike_id":"c0582d81-71b0-4eea-ba50-4da054cc145f","system_id":"levelo_inurba_marseille","lat":43.28149,"lon":5.426352,"is_reserved":false,"is_disabled":false,"rental_uris":{"android":"levelo://app?vid=c0582d81-71b0-4eea-ba50-4da054cc145f","ios":"levelo://app?vid=c0582d81-71b0-4eea-ba50-4da054cc145f"},"vehicle_type_id":"4","last_reported":1736197725,"current_range_meters":8000,"station_id":"ce4bhnh2rcd13ifvqgug","pricing_plan_id":"cebpf4jnsgd1na2vs0mg"},{"bike_id":"0aa10dfe-cc5f-4fc7-90b8-fc6a5ef6e9bf","system_id":"levelo_inurba_marseille","lat":43.25596,"lon":5.38232,"is_reserved":false,"is_disabled":false,"rental_uris":{"android":"levelo://app?vid=0aa10dfe-cc5f-4fc7-90b8-fc6a5ef6e9bf","ios":"levelo://app?vid=0aa10dfe-cc5f-4fc7-90b8-fc6a5ef6e9bf"},"vehicle_type_id":"4","last_reported":1736197725,"current_range_meters":19600,"station_id":"ce4bhih2rcd13ifvqfs0","pricing_plan_id":"cebpf4jnsgd1na2vs0mg"},{"bike_id":"bc9bb4d7-2fdc-4d34-b0a0-ed77a3035abd","system_id":"levelo_inurba_marseille","lat":43.31707,"lon":5.37752,"is_reserved":false,"is_disabled":false,"rental_uris":{"android":"levelo://app?vid=bc9bb4d7-2fdc-4d34-b0a0-ed77a3035abd","ios":"levelo://app?vid=bc9bb4d7-2fdc-4d34-b0a0-ed77a3035abd"},"vehicle_type_id":"4","last_reported":1736197725,"current_range_meters":28400,"station_id":"ce4bgth2rcd13ifvqch0","pricing_plan_id":"cebpf4jnsgd1na2vs0mg"},{"bike_id":"8426cb75-87ab-4635-ad12-c9daf81b2fdc","system_id":"levelo_inurba_marseille","lat":43.28144,"lon":5.42644,"is_reserved":false,"is_disabled":false,"rental_uris":{"android":"levelo://app?vid=8426cb75-87ab-4635-ad12-c9daf81b2fdc","ios":"levelo://app?vid=8426cb75-87ab-4635-ad12-c9daf81b2fdc"},"vehicle_type_id":"4","last_reported":1736197725,"current_range_meters":24400,"station_id":"ce4bhnh2rcd13ifvqgug","pricing_plan_id":"cebpf4jnsgd1na2vs0mg"},{"bike_id":"99bff934-0600-4e25-ab4e-e8fd997517a1","system_id":"levelo_inurba_marseille","lat":43.25827,"lon":5.39421,"is_reserved":false,"is_disabled":false,"rental_uris":{"android":"levelo://app?vid=99bff934-0600-4e25-ab4e-e8fd997517a1","ios":"levelo://app?vid=99bff934-0600-4e25-ab4e-e8fd997517a1"},"vehicle_type_id":"4","last_reported":1736197725,"current_range_meters":28400,"station_id":"ce4bhip2rcd13ifvqft0","pricing_plan_id":"cebpf4jnsgd1na2vs0mg"},{"bike_id":"7b78d5e2-5142-402d-a4f8-0f3037a6c533","system_id":"levelo_inurba_marseille","lat":43.26938,"lon":5.38629,"is_reserved":false,"is_disabled":true,"rental_uris":{"android":"levelo://app?vid=7b78d5e2-5142-402d-a4f8-0f3037a6c533","ios":"levelo://app?vid=7b78d5e2-5142-402d-a4f8-0f3037a6c533"},"vehicle_type_id":"4","last_reported":1736197725,"current_range_meters":36400,"station_id":"ce4bhh92rcd13ifvqfh0","pricing_plan_id":"cebpf4jnsgd1na2vs0mg"},{"bike_id":"d5773781-241f-4a18-b23a-63aaf732678b","system_id":"levelo_inurba_marseille","lat":43.28161,"lon":5.42642,"is_reserved":false,"is_disabled":false,"rental_uris":{"android":"levelo://app?vid=d5773781-241f-4a18-b23a-63aaf732678b","ios":"levelo://app?vid=d5773781-241f-4a18-b23a-63aaf732678b"},"vehicle_type_id":"4","last_reported":1736197725,"current_range_meters":30800,"station_id":"ce4bhnh2rcd13ifvqgug","pricing_plan_id":"cebpf4jnsgd1na2vs0mg"},{"bike_id":"fea183b2-4775-4849-9c7d-1b35810c4d75","system_id":"levelo_inurba_marseille","lat":43.26927,"lon":5.38921,"is_reserved":false,"is_disabled":false,"rental_uris":{"android":"levelo://app?vid=fea183b2-4775-4849-9c7d-1b35810c4d75","ios":"levelo://app?vid=fea183b2-4775-4849-9c7d-1b35810c4d75"},"vehicle_type_id":"4","last_reported":1736197725,"current_range_meters":17200,"station_id":"ce4bhhh2rcd13ifvqfl0","pricing_plan_id":"cebpf4jnsgd1na2vs0mg"},{"bike_id":"f6898cd8-d82d-4b7f-ad59-669d9e614c97","system_id":"levelo_inurba_marseille","lat":43.278142,"lon":5.407109,"is_reserved":false,"is_disabled":false,"rental_uris":{"android":"levelo://app?vid=f6898cd8-d82d-4b7f-ad59-669d9e614c97","ios":"levelo://app?vid=f6898cd8-d82d-4b7f-ad59-669d9e614c97"},"vehicle_type_id":"4","last_reported":1736197725,"current_range_meters":36800,"station_id":"ce4bhnh2rcd13ifvqgtg","pricing_plan_id":"cebpf4jnsgd1na2vs0mg"},{"bike_id":"a6815275-7861-40c9-9926-a8bbbee34383","system_id":"levelo_inurba_marseille","lat":43.29522,"lon":5.38535,"is_reserved":false,"is_disabled":false,"rental_uris":{"android":"levelo://app?vid=a6815275-7861-40c9-9926-a8bbbee34383","ios":"levelo://app?vid=a6815275-7861-40c9-9926-a8bbbee34383"},"vehicle_type_id":"4","last_reported":1736197725,"current_range_meters":24400,"station_id":"ce4bgih2rcd13ifvqba0","pricing_plan_id":"cebpf4jnsgd1na2vs0mg"},{"bike_id":"05efc8db-a5eb-4569-9898-5a3e81ef0286","system_id":"levelo_inurba_marseille","lat":43.26602,"lon":5.3903,"is_reserved":false,"is_disabled":false,"rental_uris":{"android":"levelo://app?vid=05efc8db-a5eb-4569-9898-5a3e81ef0286","ios":"levelo://app?vid=05efc8db-a5eb-4569-9898-5a3e81ef0286"},"vehicle_type_id":"4","last_reported":1736197725,"current_range_meters":36400,"station_id":"","pricing_plan_id":"cebpf4jnsgd1na2vs0mg"},{"bike_id":"aa1c54d1-1b1b-4144-8464-402b450fb5b6","system_id":"levelo_inurba_marseille","lat":43.30151,"lon":5.38067,"is_reserved":false,"is_disabled":false,"rental_uris":{"android":"levelo://app?vid=aa1c54d1-1b1b-4144-8464-402b450fb5b6","ios":"levelo://app?vid=aa1c54d1-1b1b-4144-8464-402b450fb5b6"},"vehicle_type_id":"4","last_reported":1736197725,"current_range_meters":8800,"station_id":"ce4bgjp2rcd13ifvqbh0","pricing_plan_id":"cebpf4jnsgd1na2vs0mg"},{"bike_id":"2d2aa8f7-c76c-43f9-b1b2-197e098949b7","system_id":"levelo_inurba_marseille","lat":43.30142,"lon":5.39872,"is_reserved":false,"is_disabled":false,"rental_uris":{"android":"levelo://app?vid=2d2aa8f7-c76c-43f9-b1b2-197e098949b7","ios":"levelo://app?vid=2d2aa8f7-c76c-43f9-b1b2-197e098949b7"},"vehicle_type_id":"4","last_reported":1736197725,"current_range_meters":18000,"station_id":"ce4bh0h2rcd13ifvqd40","pricing_plan_id":"cebpf4jnsgd1na2vs0mg"},{"bike_id":"5b5d5386-854b-42ad-baef-443bb15b8f19","system_id":"levelo_inurba_marseille","lat":43.27674,"lon":5.38874,"is_reserved":false,"is_disabled":false,"rental_uris":{"android":"levelo://app?vid=5b5d5386-854b-42ad-baef-443bb15b8f19","ios":"levelo://app?vid=5b5d5386-854b-42ad-baef-443bb15b8f19"},"vehicle_type_id":"4","last_reported":1736197725,"current_range_meters":14000,"station_id":"ce4bhi12rcd13ifvqfo0","pricing_plan_id":"cebpf4jnsgd1na2vs0mg"},{"bike_id":"5cad4397-d7fe-427d-9b9c-8acb185fe024","system_id":"levelo_inurba_marseille","lat":43.25084,"lon":5.39515,"is_reserved":false,"is_disabled":false,"rental_uris":{"android":"levelo://app?vid=5cad4397-d7fe-427d-9b9c-8acb185fe024","ios":"levelo://app?vid=5cad4397-d7fe-427d-9b9c-8acb185fe024"},"vehicle_type_id":"4","last_reported":1736197725,"current_range_meters":38800,"station_id":"ce4bhm12rcd13ifvqgkg","pricing_plan_id":"cebpf4jnsgd1na2vs0mg"},{"bike_id":"1c481475-c11b-4ecc-bc54-1fc518f12b1f","system_id":"levelo_inurba_marseille","lat":43.317127,"lon":5.377557,"is_reserved":false,"is_disabled":false,"rental_uris":{"android":"levelo://app?vid=1c481475-c11b-4ecc-bc54-1fc518f12b1f","ios":"levelo://app?vid=1c481475-c11b-4ecc-bc54-1fc518f12b1f"},"vehicle_type_id":"4","last_reported":1736197725,"current_range_meters":38800,"station_id":"ce4bgth2rcd13ifvqch0","pricing_plan_id":"cebpf4jnsgd1na2vs0mg"},{"bike_id":"a5484267-8df2-433f-b0b4-6d17ece69370","system_id":"levelo_inurba_marseille","lat":43.30248,"lon":5.40077,"is_reserved":false,"is_disabled":false,"rental_uris":{"android":"levelo://app?vid=a5484267-8df2-433f-b0b4-6d17ece69370","ios":"levelo://app?vid=a5484267-8df2-433f-b0b4-6d17ece69370"},"vehicle_type_id":"4","last_reported":1736197725,"current_range_meters":38800,"station_id":"ce4bgvh2rcd13ifvqcs0","pricing_plan_id":"cebpf4jnsgd1na2vs0mg"},{"bike_id":"477f7f5a-c997-4d2a-8325-216243948f83","system_id":"levelo_inurba_marseille","lat":43.28866,"lon":5.35856,"is_reserved":false,"is_disabled":false,"rental_uris":{"android":"levelo://app?vid=477f7f5a-c997-4d2a-8325-216243948f83","ios":"levelo://app?vid=477f7f5a-c997-4d2a-8325-216243948f83"},"vehicle_type_id":"4","last_reported":1736197725,"current_range_meters":38800,"station_id":"ce4bhb12rcd13ifvqem0","pricing_plan_id":"cebpf4jnsgd1na2vs0mg"},{"bike_id":"637c9e25-6ec5-4d5c-9ec9-ed6c73dcb821","system_id":"levelo_inurba_marseille","lat":43.31706,"lon":5.37754,"is_reserved":false,"is_disabled":false,"rental_uris":{"android":"levelo://app?vid=637c9e25-6ec5-4d5c-9ec9-ed6c73dcb821","ios":"levelo://app?vid=637c9e25-6ec5-4d5c-9ec9-ed6c73dcb821"},"vehicle_type_id":"4","last_reported":1736197725,"current_range_meters":37600,"station_id":"ce4bgth2rcd13ifvqch0","pricing_plan_id":"cebpf4jnsgd1na2vs0mg"},{"bike_id":"04d6409f-3882-4a69-956e-a7abf6bd14bb","system_id":"levelo_inurba_marseille","lat":43.2799,"lon":5.40004,"is_reserved":false,"is_disabled":false,"rental_uris":{"android":"levelo://app?vid=04d6409f-3882-4a69-956e-a7abf6bd14bb","ios":"levelo://app?vid=04d6409f-3882-4a69-956e-a7abf6bd14bb"},"vehicle_type_id":"4","last_reported":1736197725,"current_range_meters":35600,"station_id":"ce4bho92rcd13ifvqh4g","pricing_plan_id":"cebpf4jnsgd1na2vs0mg"},{"bike_id":"6827022f-a734-404f-b5b5-bdf44019111f","system_id":"levelo_inurba_marseille","lat":43.29921,"lon":5.39737,"is_reserved":false,"is_disabled":false,"rental_uris":{"android":"levelo://app?vid=6827022f-a734-404f-b5b5-bdf44019111f","ios":"levelo://app?vid=6827022f-a734-404f-b5b5-bdf44019111f"},"vehicle_type_id":"4","last_reported":1736197725,"current_range_meters":15200,"station_id":"ce4bh0h2rcd13ifvqd50","pricing_plan_id":"cebpf4jnsgd1na2vs0mg"},{"bike_id":"54a7bf05-093a-4c5b-bb81-4de0199213f9","system_id":"levelo_inurba_marseille","lat":43.30411,"lon":5.41288,"is_reserved":false,"is_disabled":false,"rental_uris":{"android":"levelo://app?vid=54a7bf05-093a-4c5b-bb81-4de0199213f9","ios":"levelo://app?vid=54a7bf05-093a-4c5b-bb81-4de0199213f9"},"vehicle_type_id":"4","last_reported":1736197725,"current_range_meters":24800,"station_id":"ce4bhop2rcd13ifvqh8g","pricing_plan_id":"cebpf4jnsgd1na2vs0mg"},{"bike_id":"b64d19b5-9694-403b-9230-b67089674d19","system_id":"levelo_inurba_marseille","lat":43.279159,"lon":5.395806,"is_reserved":false,"is_disabled":false,"rental_uris":{"android":"levelo://app?vid=b64d19b5-9694-403b-9230-b67089674d19","ios":"levelo://app?vid=b64d19b5-9694-403b-9230-b67089674d19"},"vehicle_type_id":"4","last_reported":1736197725,"current_range_meters":38800,"station_id":"ce4bhf92rcd13ifvqf40","pricing_plan_id":"cebpf4jnsgd1na2vs0mg"},{"bike_id":"bdd62aa5-2f74-44b1-8170-3e44d6ed0b87","system_id":"levelo_inurba_marseille","lat":43.30954,"lon":5.39029,"is_reserved":false,"is_disabled":false,"rental_uris":{"android":"levelo://app?vid=bdd62aa5-2f74-44b1-8170-3e44d6ed0b87","ios":"levelo://app?vid=bdd62aa5-2f74-44b1-8170-3e44d6ed0b87"},"vehicle_type_id":"4","last_reported":1736197725,"current_range_meters":39200,"station_id":"ce4bgup2rcd13ifvqco0","pricing_plan_id":"cebpf4jnsgd1na2vs0mg"},{"bike_id":"a2fad600-bcdc-4fe2-b5cf-418b8c47104e","system_id":"levelo_inurba_marseille","lat":43.24652,"lon":5.38908,"is_reserved":false,"is_disabled":false,"rental_uris":{"android":"levelo://app?vid=a2fad600-bcdc-4fe2-b5cf-418b8c47104e","ios":"levelo://app?vid=a2fad600-bcdc-4fe2-b5cf-418b8c47104e"},"vehicle_type_id":"4","last_reported":1736197725,"current_range_meters":27200,"station_id":"ce4bhg12rcd13ifvqf60","pricing_plan_id":"cebpf4jnsgd1na2vs0mg"},{"bike_id":"3e51f001-674f-4402-81fd-5ff3f2138e63","system_id":"levelo_inurba_marseille","lat":43.296934,"lon":5.366042,"is_reserved":false,"is_disabled":false,"rental_uris":{"android":"levelo://app?vid=3e51f001-674f-4402-81fd-5ff3f2138e63","ios":"levelo://app?vid=3e51f001-674f-4402-81fd-5ff3f2138e63"},"vehicle_type_id":"4","last_reported":1736197725,"current_range_meters":38800,"station_id":"ce4bgn12rcd13ifvqbt0","pricing_plan_id":"cebpf4jnsgd1na2vs0mg"},{"bike_id":"03e103e3-5075-4dd0-88ff-21ad5a89a520","system_id":"levelo_inurba_marseille","lat":43.25486,"lon":5.37643,"is_reserved":false,"is_disabled":false,"rental_uris":{"android":"levelo://app?vid=03e103e3-5075-4dd0-88ff-21ad5a89a520","ios":"levelo://app?vid=03e103e3-5075-4dd0-88ff-21ad5a89a520"},"vehicle_type_id":"4","last_reported":1736197725,"current_range_meters":39200,"station_id":"ce4bhh12rcd13ifvqff0","pricing_plan_id":"cebpf4jnsgd1na2vs0mg"},{"bike_id":"ef8b07f4-ee76-4b88-b7ec-0f67491fe1ff","system_id":"levelo_inurba_marseille","lat":43.25068,"lon":5.39512,"is_reserved":false,"is_disabled":false,"rental_uris":{"android":"levelo://app?vid=ef8b07f4-ee76-4b88-b7ec-0f67491fe1ff","ios":"levelo://app?vid=ef8b07f4-ee76-4b88-b7ec-0f67491fe1ff"},"vehicle_type_id":"4","last_reported":1736197725,"current_range_meters":38800,"station_id":"ce4bhm12rcd13ifvqgkg","pricing_plan_id":"cebpf4jnsgd1na2vs0mg"},{"bike_id":"2d4069a8-2e1f-4c49-a2ca-a013dccec575","system_id":"levelo_inurba_marseille","lat":43.3234,"lon":5.40617,"is_reserved":false,"is_disabled":false,"rental_uris":{"android":"levelo://app?vid=2d4069a8-2e1f-4c49-a2ca-a013dccec575","ios":"levelo://app?vid=2d4069a8-2e1f-4c49-a2ca-a013dccec575"},"vehicle_type_id":"4","last_reported":1736197725,"current_range_meters":35600,"station_id":"ce4bhq92rcd13ifvqhjg","pricing_plan_id":"cebpf4jnsgd1na2vs0mg"},{"bike_id":"4601a575-1bcc-4bce-8c5b-05216adc1a27","system_id":"levelo_inurba_marseille","lat":43.28695,"lon":5.3739,"is_reserved":false,"is_disabled":false,"rental_uris":{"android":"levelo://app?vid=4601a575-1bcc-4bce-8c5b-05216adc1a27","ios":"levelo://app?vid=4601a575-1bcc-4bce-8c5b-05216adc1a27"},"vehicle_type_id":"4","last_reported":1736197725,"current_range_meters":38800,"station_id":"ce4bh3p2rcd13ifvqdq0","pricing_plan_id":"cebpf4jnsgd1na2vs0mg"},{"bike_id":"6a595de3-0911-46a9-bdbf-4cca5437105e","system_id":"levelo_inurba_marseille","lat":43.23202,"lon":5.35534,"is_reserved":false,"is_disabled":false,"rental_uris":{"android":"levelo://app?vid=6a595de3-0911-46a9-bdbf-4cca5437105e","ios":"levelo://app?vid=6a595de3-0911-46a9-bdbf-4cca5437105e"},"vehicle_type_id":"4","last_reported":1736197725,"current_range_meters":20400,"station_id":"ce4bhu92rcd13ifvqi70","pricing_plan_id":"cebpf4jnsgd1na2vs0mg"},{"bike_id":"641d8acc-50b2-4173-ab23-c70f2a11d28e","system_id":"levelo_inurba_marseille","lat":43.281498,"lon":5.426263,"is_reserved":false,"is_disabled":true,"rental_uris":{"android":"levelo://app?vid=641d8acc-50b2-4173-ab23-c70f2a11d28e","ios":"levelo://app?vid=641d8acc-50b2-4173-ab23-c70f2a11d28e"},"vehicle_type_id":"4","last_reported":1736197725,"current_range_meters":26800,"station_id":"ce4bhnh2rcd13ifvqgug","pricing_plan_id":"cebpf4jnsgd1na2vs0mg"},{"bike_id":"217c720a-f5a0-444d-9a09-2281daa0d337","system_id":"levelo_inurba_marseille","lat":43.29255,"lon":5.40907,"is_reserved":false,"is_disabled":false,"rental_uris":{"android":"levelo://app?vid=217c720a-f5a0-444d-9a09-2281daa0d337","ios":"levelo://app?vid=217c720a-f5a0-444d-9a09-2281daa0d337"},"vehicle_type_id":"4","last_reported":1736197725,"current_range_meters":9600,"station_id":"ce4bh192rcd13ifvqdc0","pricing_plan_id":"cebpf4jnsgd1na2vs0mg"},{"bike_id":"15e503f5-1d52-42d6-a98f-33a61fd8b554","system_id":"levelo_inurba_marseille","lat":43.28462,"lon":5.35888,"is_reserved":false,"is_disabled":true,"rental_uris":{"android":"levelo://app?vid=15e503f5-1d52-42d6-a98f-33a61fd8b554","ios":"levelo://app?vid=15e503f5-1d52-42d6-a98f-33a61fd8b554"},"vehicle_type_id":"4","last_reported":1736197725,"current_range_meters":19600,"station_id":"ce4bhah2rcd13ifvqei0","pricing_plan_id":"cebpf4jnsgd1na2vs0mg"},{"bike_id":"20a1fc99-0a90-44a5-a846-85f635e4802f","system_id":"levelo_inurba_marseille","lat":43.286914,"lon":5.374303,"is_reserved":false,"is_disabled":false,"rental_uris":{"android":"levelo://app?vid=20a1fc99-0a90-44a5-a846-85f635e4802f","ios":"levelo://app?vid=20a1fc99-0a90-44a5-a846-85f635e4802f"},"vehicle_type_id":"4","last_reported":1736197725,"current_range_meters":28000,"station_id":"ce4bh3p2rcd13ifvqdq0","pricing_plan_id":"cebpf4jnsgd1na2vs0mg"},{"bike_id":"226eba7b-86df-4cc7-a539-29d5666582be","system_id":"levelo_inurba_marseille","lat":43.27062,"lon":5.42262,"is_reserved":false,"is_disabled":false,"rental_uris":{"android":"levelo://app?vid=226eba7b-86df-4cc7-a539-29d5666582be","ios":"levelo://app?vid=226eba7b-86df-4cc7-a539-29d5666582be"},"vehicle_type_id":"4","last_reported":1736197725,"current_range_meters":39200,"station_id":"ce4bhk92rcd13ifvqgb0","pricing_plan_id":"cebpf4jnsgd1na2vs0mg"},{"bike_id":"88fbd2f9-edba-4674-927d-ce8a9c56a0e7","system_id":"levelo_inurba_marseille","lat":43.28165,"lon":5.42618,"is_reserved":false,"is_disabled":false,"rental_uris":{"android":"levelo://app?vid=88fbd2f9-edba-4674-927d-ce8a9c56a0e7","ios":"levelo://app?vid=88fbd2f9-edba-4674-927d-ce8a9c56a0e7"},"vehicle_type_id":"4","last_reported":1736197725,"current_range_meters":26800,"station_id":"ce4bhnh2rcd13ifvqgug","pricing_plan_id":"cebpf4jnsgd1na2vs0mg"},{"bike_id":"61a0e366-59dc-4344-9007-3379e8066fbb","system_id":"levelo_inurba_marseille","lat":43.30446,"lon":5.41282,"is_reserved":false,"is_disabled":false,"rental_uris":{"android":"levelo://app?vid=61a0e366-59dc-4344-9007-3379e8066fbb","ios":"levelo://app?vid=61a0e366-59dc-4344-9007-3379e8066fbb"},"vehicle_type_id":"4","last_reported":1736197725,"current_range_meters":38000,"station_id":"ce4bhop2rcd13ifvqh8g","pricing_plan_id":"cebpf4jnsgd1na2vs0mg"},{"bike_id":"6c604940-836c-4de1-a0f5-ba0f74ad85e4","system_id":"levelo_inurba_marseille","lat":43.30131,"lon":5.39873,"is_reserved":false,"is_disabled":false,"rental_uris":{"android":"levelo://app?vid=6c604940-836c-4de1-a0f5-ba0f74ad85e4","ios":"levelo://app?vid=6c604940-836c-4de1-a0f5-ba0f74ad85e4"},"vehicle_type_id":"4","last_reported":1736197725,"current_range_meters":10800,"station_id":"ce4bh0h2rcd13ifvqd40","pricing_plan_id":"cebpf4jnsgd1na2vs0mg"},{"bike_id":"6d88bbf0-f428-4bd4-ab8a-2ee8d5e7c74e","system_id":"levelo_inurba_marseille","lat":43.23069,"lon":5.35488,"is_reserved":false,"is_disabled":false,"rental_uris":{"android":"levelo://app?vid=6d88bbf0-f428-4bd4-ab8a-2ee8d5e7c74e","ios":"levelo://app?vid=6d88bbf0-f428-4bd4-ab8a-2ee8d5e7c74e"},"vehicle_type_id":"4","last_reported":1736197725,"current_range_meters":38800,"station_id":"cpo3342slgdg3j2ifvpg","pricing_plan_id":"cebpf4jnsgd1na2vs0mg"},{"bike_id":"cc01f28e-a38d-49c4-8a08-862872b8eeaf","system_id":"levelo_inurba_marseille","lat":43.28699,"lon":5.36085,"is_reserved":false,"is_disabled":false,"rental_uris":{"android":"levelo://app?vid=cc01f28e-a38d-49c4-8a08-862872b8eeaf","ios":"levelo://app?vid=cc01f28e-a38d-49c4-8a08-862872b8eeaf"},"vehicle_type_id":"4","last_reported":1736197725,"current_range_meters":24400,"station_id":"cki0cbj6b192h4jlfktg","pricing_plan_id":"cebpf4jnsgd1na2vs0mg"},{"bike_id":"f1eddc63-56db-4bfe-947c-d0cf39bf8e29","system_id":"levelo_inurba_marseille","lat":43.24805,"lon":5.37447,"is_reserved":false,"is_disabled":false,"rental_uris":{"android":"levelo://app?vid=f1eddc63-56db-4bfe-947c-d0cf39bf8e29","ios":"levelo://app?vid=f1eddc63-56db-4bfe-947c-d0cf39bf8e29"},"vehicle_type_id":"4","last_reported":1736197725,"current_range_meters":9200,"station_id":"ce4bhgh2rcd13ifvqfb0","pricing_plan_id":"cebpf4jnsgd1na2vs0mg"},{"bike_id":"237eb7a7-7331-4631-9377-6cdbdc6e4e98","system_id":"levelo_inurba_marseille","lat":43.2656,"lon":5.38989,"is_reserved":false,"is_disabled":true,"rental_uris":{"android":"levelo://app?vid=237eb7a7-7331-4631-9377-6cdbdc6e4e98","ios":"levelo://app?vid=237eb7a7-7331-4631-9377-6cdbdc6e4e98"},"vehicle_type_id":"4","last_reported":1736197725,"current_range_meters":34800,"station_id":"ce4bhe12rcd13ifvqf30","pricing_plan_id":"cebpf4jnsgd1na2vs0mg"},{"bike_id":"3e0225d1-58ca-40db-b4f3-ad1dff3eb791","system_id":"levelo_inurba_marseille","lat":43.26496,"lon":5.39551,"is_reserved":false,"is_disabled":false,"rental_uris":{"android":"levelo://app?vid=3e0225d1-58ca-40db-b4f3-ad1dff3eb791","ios":"levelo://app?vid=3e0225d1-58ca-40db-b4f3-ad1dff3eb791"},"vehicle_type_id":"4","last_reported":1736197725,"current_range_meters":38800,"station_id":"ce4bhi12rcd13ifvqfq0","pricing_plan_id":"cebpf4jnsgd1na2vs0mg"},{"bike_id":"c0c56421-0402-4e02-af1a-f54a53bef677","system_id":"levelo_inurba_marseille","lat":43.30637,"lon":5.39327,"is_reserved":false,"is_disabled":true,"rental_uris":{"android":"levelo://app?vid=c0c56421-0402-4e02-af1a-f54a53bef677","ios":"levelo://app?vid=c0c56421-0402-4e02-af1a-f54a53bef677"},"vehicle_type_id":"4","last_reported":1736197725,"current_range_meters":37600,"station_id":"ce4bh0p2rcd13ifvqd80","pricing_plan_id":"cebpf4jnsgd1na2vs0mg"},{"bike_id":"785fcd24-a61a-467a-a205-1f2a1c963392","system_id":"levelo_inurba_marseille","lat":43.25103,"lon":5.39476,"is_reserved":false,"is_disabled":false,"rental_uris":{"android":"levelo://app?vid=785fcd24-a61a-467a-a205-1f2a1c963392","ios":"levelo://app?vid=785fcd24-a61a-467a-a205-1f2a1c963392"},"vehicle_type_id":"4","last_reported":1736197725,"current_range_meters":8000,"station_id":"ce4bhm12rcd13ifvqgkg","pricing_plan_id":"cebpf4jnsgd1na2vs0mg"},{"bike_id":"aa41de78-4d16-4183-999e-d60f0150a428","system_id":"levelo_inurba_marseille","lat":43.28708,"lon":5.37372,"is_reserved":false,"is_disabled":false,"rental_uris":{"android":"levelo://app?vid=aa41de78-4d16-4183-999e-d60f0150a428","ios":"levelo://app?vid=aa41de78-4d16-4183-999e-d60f0150a428"},"vehicle_type_id":"4","last_reported":1736197725,"current_range_meters":14800,"station_id":"ce4bh3p2rcd13ifvqdq0","pricing_plan_id":"cebpf4jnsgd1na2vs0mg"},{"bike_id":"3ea8ca26-cbff-44d4-97e2-96a5408a8da3","system_id":"levelo_inurba_marseille","lat":43.28608,"lon":5.37064,"is_reserved":false,"is_disabled":false,"rental_uris":{"android":"levelo://app?vid=3ea8ca26-cbff-44d4-97e2-96a5408a8da3","ios":"levelo://app?vid=3ea8ca26-cbff-44d4-97e2-96a5408a8da3"},"vehicle_type_id":"4","last_reported":1736197725,"current_range_meters":38800,"station_id":"ce4bht12rcd13ifvqi60","pricing_plan_id":"cebpf4jnsgd1na2vs0mg"},{"bike_id":"66598c6d-17b8-4c5c-8a32-40fe324e52f3","system_id":"levelo_inurba_marseille","lat":43.31149,"lon":5.37752,"is_reserved":false,"is_disabled":true,"rental_uris":{"android":"levelo://app?vid=66598c6d-17b8-4c5c-8a32-40fe324e52f3","ios":"levelo://app?vid=66598c6d-17b8-4c5c-8a32-40fe324e52f3"},"vehicle_type_id":"4","last_reported":1736197725,"current_range_meters":30800,"station_id":"ce4bgt92rcd13ifvqcg0","pricing_plan_id":"cebpf4jnsgd1na2vs0mg"},{"bike_id":"649c71d5-1bc7-476b-849b-0ee459c25078","system_id":"levelo_inurba_marseille","lat":43.28457,"lon":5.3588,"is_reserved":false,"is_disabled":false,"rental_uris":{"android":"levelo://app?vid=649c71d5-1bc7-476b-849b-0ee459c25078","ios":"levelo://app?vid=649c71d5-1bc7-476b-849b-0ee459c25078"},"vehicle_type_id":"4","last_reported":1736197725,"current_range_meters":38000,"station_id":"ce4bhah2rcd13ifvqei0","pricing_plan_id":"cebpf4jnsgd1na2vs0mg"},{"bike_id":"446d5fe4-d168-4240-9f25-a5992d56109a","system_id":"levelo_inurba_marseille","lat":43.28283,"lon":5.35067,"is_reserved":false,"is_disabled":false,"rental_uris":{"android":"levelo://app?vid=446d5fe4-d168-4240-9f25-a5992d56109a","ios":"levelo://app?vid=446d5fe4-d168-4240-9f25-a5992d56109a"},"vehicle_type_id":"4","last_reported":1736197725,"current_range_meters":38800,"station_id":"ce4bhbp2rcd13ifvqerg","pricing_plan_id":"cebpf4jnsgd1na2vs0mg"},{"bike_id":"dc80a52a-f2fa-4e2a-9e2a-b913aee07db6","system_id":"levelo_inurba_marseille","lat":43.31329,"lon":5.39699,"is_reserved":false,"is_disabled":false,"rental_uris":{"android":"levelo://app?vid=dc80a52a-f2fa-4e2a-9e2a-b913aee07db6","ios":"levelo://app?vid=dc80a52a-f2fa-4e2a-9e2a-b913aee07db6"},"vehicle_type_id":"4","last_reported":1736197725,"current_range_meters":38800,"station_id":"ce4bgvp2rcd13ifvqcu0","pricing_plan_id":"cebpf4jnsgd1na2vs0mg"},{"bike_id":"ce996cff-80b3-4050-8959-a9d2867af6ba","system_id":"levelo_inurba_marseille","lat":43.26954,"lon":5.38641,"is_reserved":false,"is_disabled":false,"rental_uris":{"android":"levelo://app?vid=ce996cff-80b3-4050-8959-a9d2867af6ba","ios":"levelo://app?vid=ce996cff-80b3-4050-8959-a9d2867af6ba"},"vehicle_type_id":"4","last_reported":1736197725,"current_range_meters":28800,"station_id":"ce4bhh92rcd13ifvqfh0","pricing_plan_id":"cebpf4jnsgd1na2vs0mg"},{"bike_id":"7162857b-97e9-48bf-beff-37d11268f5e3","system_id":"levelo_inurba_marseille","lat":43.28843,"lon":5.35871,"is_reserved":false,"is_disabled":false,"rental_uris":{"android":"levelo://app?vid=7162857b-97e9-48bf-beff-37d11268f5e3","ios":"levelo://app?vid=7162857b-97e9-48bf-beff-37d11268f5e3"},"vehicle_type_id":"4","last_reported":1736197725,"current_range_meters":39200,"station_id":"ce4bhb12rcd13ifvqem0","pricing_plan_id":"cebpf4jnsgd1na2vs0mg"},{"bike_id":"72330475-de38-477c-89c7-45a7214735f8","system_id":"levelo_inurba_marseille","lat":43.2952,"lon":5.39399,"is_reserved":false,"is_disabled":false,"rental_uris":{"android":"levelo://app?vid=72330475-de38-477c-89c7-45a7214735f8","ios":"levelo://app?vid=72330475-de38-477c-89c7-45a7214735f8"},"vehicle_type_id":"4","last_reported":1736197725,"current_range_meters":38800,"station_id":"ce4bh292rcd13ifvqdf0","pricing_plan_id":"cebpf4jnsgd1na2vs0mg"},{"bike_id":"cca2f7c7-45e7-4f8a-80d9-cffca2b70c93","system_id":"levelo_inurba_marseille","lat":43.26681,"lon":5.38284,"is_reserved":false,"is_disabled":true,"rental_uris":{"android":"levelo://app?vid=cca2f7c7-45e7-4f8a-80d9-cffca2b70c93","ios":"levelo://app?vid=cca2f7c7-45e7-4f8a-80d9-cffca2b70c93"},"vehicle_type_id":"4","last_reported":1736197725,"current_range_meters":35200,"station_id":"ce4bhg92rcd13ifvqf90","pricing_plan_id":"cebpf4jnsgd1na2vs0mg"},{"bike_id":"c06688ba-3baf-43ca-bd73-f6695e1ed516","system_id":"levelo_inurba_marseille","lat":43.23986,"lon":5.37803,"is_reserved":false,"is_disabled":false,"rental_uris":{"android":"levelo://app?vid=c06688ba-3baf-43ca-bd73-f6695e1ed516","ios":"levelo://app?vid=c06688ba-3baf-43ca-bd73-f6695e1ed516"},"vehicle_type_id":"4","last_reported":1736197725,"current_range_meters":26000,"station_id":"ce4bhnp2rcd13ifvqgvg","pricing_plan_id":"cebpf4jnsgd1na2vs0mg"},{"bike_id":"a2e3dd76-7881-42ae-8aeb-ca38837e1928","system_id":"levelo_inurba_marseille","lat":43.30263,"lon":5.40071,"is_reserved":false,"is_disabled":false,"rental_uris":{"android":"levelo://app?vid=a2e3dd76-7881-42ae-8aeb-ca38837e1928","ios":"levelo://app?vid=a2e3dd76-7881-42ae-8aeb-ca38837e1928"},"vehicle_type_id":"4","last_reported":1736197725,"current_range_meters":20800,"station_id":"ce4bgvh2rcd13ifvqcs0","pricing_plan_id":"cebpf4jnsgd1na2vs0mg"},{"bike_id":"10aaa063-1c87-45e7-8ea1-13f83539ec39","system_id":"levelo_inurba_marseille","lat":43.25084,"lon":5.3952,"is_reserved":false,"is_disabled":false,"rental_uris":{"android":"levelo://app?vid=10aaa063-1c87-45e7-8ea1-13f83539ec39","ios":"levelo://app?vid=10aaa063-1c87-45e7-8ea1-13f83539ec39"},"vehicle_type_id":"4","last_reported":1736197725,"current_range_meters":32000,"station_id":"ce4bhm12rcd13ifvqgkg","pricing_plan_id":"cebpf4jnsgd1na2vs0mg"},{"bike_id":"5a2d6400-dde2-4868-9b3a-23ab9cd655b8","system_id":"levelo_inurba_marseille","lat":43.27802,"lon":5.40699,"is_reserved":false,"is_disabled":false,"rental_uris":{"android":"levelo://app?vid=5a2d6400-dde2-4868-9b3a-23ab9cd655b8","ios":"levelo://app?vid=5a2d6400-dde2-4868-9b3a-23ab9cd655b8"},"vehicle_type_id":"4","last_reported":1736197725,"current_range_meters":8000,"station_id":"ce4bhnh2rcd13ifvqgtg","pricing_plan_id":"cebpf4jnsgd1na2vs0mg"},{"bike_id":"0a967f6d-fd0e-4773-80c2-1aa9d073824b","system_id":"levelo_inurba_marseille","lat":43.25085,"lon":5.39527,"is_reserved":false,"is_disabled":false,"rental_uris":{"android":"levelo://app?vid=0a967f6d-fd0e-4773-80c2-1aa9d073824b","ios":"levelo://app?vid=0a967f6d-fd0e-4773-80c2-1aa9d073824b"},"vehicle_type_id":"4","last_reported":1736197725,"current_range_meters":32000,"station_id":"ce4bhm12rcd13ifvqgkg","pricing_plan_id":"cebpf4jnsgd1na2vs0mg"},{"bike_id":"182c8827-ad8b-4aa6-9862-5b2da55309dc","system_id":"levelo_inurba_marseille","lat":43.29212,"lon":5.36024,"is_reserved":false,"is_disabled":false,"rental_uris":{"android":"levelo://app?vid=182c8827-ad8b-4aa6-9862-5b2da55309dc","ios":"levelo://app?vid=182c8827-ad8b-4aa6-9862-5b2da55309dc"},"vehicle_type_id":"4","last_reported":1736197725,"current_range_meters":34800,"station_id":"ce4bhbh2rcd13ifvqeqg","pricing_plan_id":"cebpf4jnsgd1na2vs0mg"},{"bike_id":"61e015eb-4ccc-467d-b5be-0fc9939be0ac","system_id":"levelo_inurba_marseille","lat":43.311688,"lon":5.387238,"is_reserved":false,"is_disabled":false,"rental_uris":{"android":"levelo://app?vid=61e015eb-4ccc-467d-b5be-0fc9939be0ac","ios":"levelo://app?vid=61e015eb-4ccc-467d-b5be-0fc9939be0ac"},"vehicle_type_id":"4","last_reported":1736197725,"current_range_meters":38800,"station_id":"ce4bgv12rcd13ifvqcp0","pricing_plan_id":"cebpf4jnsgd1na2vs0mg"},{"bike_id":"ac9cdb59-2de3-4b64-9b64-8618560e7eea","system_id":"levelo_inurba_marseille","lat":43.28,"lon":5.40002,"is_reserved":false,"is_disabled":false,"rental_uris":{"android":"levelo://app?vid=ac9cdb59-2de3-4b64-9b64-8618560e7eea","ios":"levelo://app?vid=ac9cdb59-2de3-4b64-9b64-8618560e7eea"},"vehicle_type_id":"4","last_reported":1736197725,"current_range_meters":30800,"station_id":"ce4bho92rcd13ifvqh4g","pricing_plan_id":"cebpf4jnsgd1na2vs0mg"},{"bike_id":"865a75ae-d1fe-49dc-a6a2-eeaee7d48b3c","system_id":"levelo_inurba_marseille","lat":43.31187,"lon":5.38684,"is_reserved":false,"is_disabled":false,"rental_uris":{"android":"levelo://app?vid=865a75ae-d1fe-49dc-a6a2-eeaee7d48b3c","ios":"levelo://app?vid=865a75ae-d1fe-49dc-a6a2-eeaee7d48b3c"},"vehicle_type_id":"4","last_reported":1736197725,"current_range_meters":38800,"station_id":"ce4bgv12rcd13ifvqcp0","pricing_plan_id":"cebpf4jnsgd1na2vs0mg"},{"bike_id":"8e703174-0022-4861-93c4-6df26de669d8","system_id":"levelo_inurba_marseille","lat":43.24651,"lon":5.388772,"is_reserved":false,"is_disabled":false,"rental_uris":{"android":"levelo://app?vid=8e703174-0022-4861-93c4-6df26de669d8","ios":"levelo://app?vid=8e703174-0022-4861-93c4-6df26de669d8"},"vehicle_type_id":"4","last_reported":1736197725,"current_range_meters":38800,"station_id":"ce4bhg12rcd13ifvqf60","pricing_plan_id":"cebpf4jnsgd1na2vs0mg"},{"bike_id":"763086e4-39f0-4cd7-967e-3c7cbbfb54af","system_id":"levelo_inurba_marseille","lat":43.27192,"lon":5.40959,"is_reserved":false,"is_disabled":false,"rental_uris":{"android":"levelo://app?vid=763086e4-39f0-4cd7-967e-3c7cbbfb54af","ios":"levelo://app?vid=763086e4-39f0-4cd7-967e-3c7cbbfb54af"},"vehicle_type_id":"4","last_reported":1736197725,"current_range_meters":37600,"station_id":"ce4bhl12rcd13ifvqgf0","pricing_plan_id":"cebpf4jnsgd1na2vs0mg"},{"bike_id":"a654bcd9-87ff-4423-9dec-90165872ac51","system_id":"levelo_inurba_marseille","lat":43.254951,"lon":5.376491,"is_reserved":false,"is_disabled":false,"rental_uris":{"android":"levelo://app?vid=a654bcd9-87ff-4423-9dec-90165872ac51","ios":"levelo://app?vid=a654bcd9-87ff-4423-9dec-90165872ac51"},"vehicle_type_id":"4","last_reported":1736197725,"current_range_meters":38800,"station_id":"ce4bhh12rcd13ifvqff0","pricing_plan_id":"cebpf4jnsgd1na2vs0mg"},{"bike_id":"69b556b4-bc3d-4ef4-bb4b-65a2e6427433","system_id":"levelo_inurba_marseille","lat":43.28456,"lon":5.35889,"is_reserved":false,"is_disabled":false,"rental_uris":{"android":"levelo://app?vid=69b556b4-bc3d-4ef4-bb4b-65a2e6427433","ios":"levelo://app?vid=69b556b4-bc3d-4ef4-bb4b-65a2e6427433"},"vehicle_type_id":"4","last_reported":1736197725,"current_range_meters":36800,"station_id":"ce4bhah2rcd13ifvqei0","pricing_plan_id":"cebpf4jnsgd1na2vs0mg"},{"bike_id":"8d36cecf-ecca-4c45-999d-1edea70f7f0b","system_id":"levelo_inurba_marseille","lat":43.31705,"lon":5.37701,"is_reserved":false,"is_disabled":false,"rental_uris":{"android":"levelo://app?vid=8d36cecf-ecca-4c45-999d-1edea70f7f0b","ios":"levelo://app?vid=8d36cecf-ecca-4c45-999d-1edea70f7f0b"},"vehicle_type_id":"4","last_reported":1736197725,"current_range_meters":7200,"station_id":"ce4bgth2rcd13ifvqch0","pricing_plan_id":"cebpf4jnsgd1na2vs0mg"},{"bike_id":"1a7eefc9-21de-4429-9848-b724af84a5f8","system_id":"levelo_inurba_marseille","lat":43.29851,"lon":5.36276,"is_reserved":false,"is_disabled":true,"rental_uris":{"android":"levelo://app?vid=1a7eefc9-21de-4429-9848-b724af84a5f8","ios":"levelo://app?vid=1a7eefc9-21de-4429-9848-b724af84a5f8"},"vehicle_type_id":"4","last_reported":1736197725,"current_range_meters":0,"station_id":"ce4bgpp2rcd13ifvqc3g","pricing_plan_id":"cebpf4jnsgd1na2vs0mg"},{"bike_id":"756c961f-df7e-4151-a9a6-fa46b857fd74","system_id":"levelo_inurba_marseille","lat":43.30943,"lon":5.39039,"is_reserved":false,"is_disabled":false,"rental_uris":{"android":"levelo://app?vid=756c961f-df7e-4151-a9a6-fa46b857fd74","ios":"levelo://app?vid=756c961f-df7e-4151-a9a6-fa46b857fd74"},"vehicle_type_id":"4","last_reported":1736197725,"current_range_meters":8400,"station_id":"ce4bgup2rcd13ifvqco0","pricing_plan_id":"cebpf4jnsgd1na2vs0mg"},{"bike_id":"cbd355c2-bcbb-41a4-9f7b-c4f1eda3a85a","system_id":"levelo_inurba_marseille","lat":43.33611,"lon":5.41034,"is_reserved":false,"is_disabled":false,"rental_uris":{"android":"levelo://app?vid=cbd355c2-bcbb-41a4-9f7b-c4f1eda3a85a","ios":"levelo://app?vid=cbd355c2-bcbb-41a4-9f7b-c4f1eda3a85a"},"vehicle_type_id":"4","last_reported":1736197725,"current_range_meters":18000,"station_id":"ce4bhqh2rcd13ifvqhmg","pricing_plan_id":"cebpf4jnsgd1na2vs0mg"},{"bike_id":"24bccac7-1e4b-45e8-bc23-0feeff5509f0","system_id":"levelo_inurba_marseille","lat":43.26503,"lon":5.39543,"is_reserved":false,"is_disabled":true,"rental_uris":{"android":"levelo://app?vid=24bccac7-1e4b-45e8-bc23-0feeff5509f0","ios":"levelo://app?vid=24bccac7-1e4b-45e8-bc23-0feeff5509f0"},"vehicle_type_id":"4","last_reported":1736197725,"current_range_meters":0,"station_id":"ce4bhi12rcd13ifvqfq0","pricing_plan_id":"cebpf4jnsgd1na2vs0mg"},{"bike_id":"1c91e94a-d32d-4506-b8b8-b791431e401e","system_id":"levelo_inurba_marseille","lat":43.28925,"lon":5.38398,"is_reserved":false,"is_disabled":true,"rental_uris":{"android":"levelo://app?vid=1c91e94a-d32d-4506-b8b8-b791431e401e","ios":"levelo://app?vid=1c91e94a-d32d-4506-b8b8-b791431e401e"},"vehicle_type_id":"4","last_reported":1736197725,"current_range_meters":34000,"station_id":"ce4bh612rcd13ifvqe6g","pricing_plan_id":"cebpf4jnsgd1na2vs0mg"},{"bike_id":"7082a147-72ba-427b-b7d0-01f4c79523c2","system_id":"levelo_inurba_marseille","lat":43.33242,"lon":5.35891,"is_reserved":false,"is_disabled":false,"rental_uris":{"android":"levelo://app?vid=7082a147-72ba-427b-b7d0-01f4c79523c2","ios":"levelo://app?vid=7082a147-72ba-427b-b7d0-01f4c79523c2"},"vehicle_type_id":"4","last_reported":1736197725,"current_range_meters":18800,"station_id":"","pricing_plan_id":"cebpf4jnsgd1na2vs0mg"},{"bike_id":"1f30e69d-8902-4e73-a96c-28cd2671ae59","system_id":"levelo_inurba_marseille","lat":43.31272,"lon":5.40162,"is_reserved":false,"is_disabled":false,"rental_uris":{"android":"levelo://app?vid=1f30e69d-8902-4e73-a96c-28cd2671ae59","ios":"levelo://app?vid=1f30e69d-8902-4e73-a96c-28cd2671ae59"},"vehicle_type_id":"4","last_reported":1736197725,"current_range_meters":38800,"station_id":"ce4bh092rcd13ifvqd30","pricing_plan_id":"cebpf4jnsgd1na2vs0mg"},{"bike_id":"136ecdda-a397-4a5a-a8cd-bb07d8bfe3ed","system_id":"levelo_inurba_marseille","lat":43.281068,"lon":5.378303,"is_reserved":false,"is_disabled":false,"rental_uris":{"android":"levelo://app?vid=136ecdda-a397-4a5a-a8cd-bb07d8bfe3ed","ios":"levelo://app?vid=136ecdda-a397-4a5a-a8cd-bb07d8bfe3ed"},"vehicle_type_id":"4","last_reported":1736197725,"current_range_meters":32800,"station_id":"ce4bha12rcd13ifvqee0","pricing_plan_id":"cebpf4jnsgd1na2vs0mg"},{"bike_id":"f3f6a52e-a78c-49f7-90b3-00d3893767ef","system_id":"levelo_inurba_marseille","lat":43.29566,"lon":5.37539,"is_reserved":false,"is_disabled":false,"rental_uris":{"android":"levelo://app?vid=f3f6a52e-a78c-49f7-90b3-00d3893767ef","ios":"levelo://app?vid=f3f6a52e-a78c-49f7-90b3-00d3893767ef"},"vehicle_type_id":"4","last_reported":1736197725,"current_range_meters":38800,"station_id":"ce4bgh92rcd13ifvqb50","pricing_plan_id":"cebpf4jnsgd1na2vs0mg"},{"bike_id":"a95030f4-3784-4a78-af6c-f4505a047751","system_id":"levelo_inurba_marseille","lat":43.29355,"lon":5.37859,"is_reserved":false,"is_disabled":true,"rental_uris":{"android":"levelo://app?vid=a95030f4-3784-4a78-af6c-f4505a047751","ios":"levelo://app?vid=a95030f4-3784-4a78-af6c-f4505a047751"},"vehicle_type_id":"4","last_reported":1736197725,"current_range_meters":4800,"station_id":"ce4bgjh2rcd13ifvqbf0","pricing_plan_id":"cebpf4jnsgd1na2vs0mg"},{"bike_id":"d45d0089-5e8c-41ac-a04c-9866c8dc94cc","system_id":"levelo_inurba_marseille","lat":43.232,"lon":5.35544,"is_reserved":false,"is_disabled":false,"rental_uris":{"android":"levelo://app?vid=d45d0089-5e8c-41ac-a04c-9866c8dc94cc","ios":"levelo://app?vid=d45d0089-5e8c-41ac-a04c-9866c8dc94cc"},"vehicle_type_id":"4","last_reported":1736197725,"current_range_meters":6400,"station_id":"ce4bhu92rcd13ifvqi70","pricing_plan_id":"cebpf4jnsgd1na2vs0mg"},{"bike_id":"bbca0622-2b7d-453b-bde4-93aa221da88f","system_id":"levelo_inurba_marseille","lat":43.284201,"lon":5.375224,"is_reserved":false,"is_disabled":false,"rental_uris":{"android":"levelo://app?vid=bbca0622-2b7d-453b-bde4-93aa221da88f","ios":"levelo://app?vid=bbca0622-2b7d-453b-bde4-93aa221da88f"},"vehicle_type_id":"4","last_reported":1736197725,"current_range_meters":38000,"station_id":"ce4bh412rcd13ifvqds0","pricing_plan_id":"cebpf4jnsgd1na2vs0mg"},{"bike_id":"b5de95e0-8f34-41aa-a5fc-c4e76e03a994","system_id":"levelo_inurba_marseille","lat":43.28102,"lon":5.39656,"is_reserved":false,"is_disabled":true,"rental_uris":{"android":"levelo://app?vid=b5de95e0-8f34-41aa-a5fc-c4e76e03a994","ios":"levelo://app?vid=b5de95e0-8f34-41aa-a5fc-c4e76e03a994"},"vehicle_type_id":"4","last_reported":1736197725,"current_range_meters":26800,"station_id":"ce4bho12rcd13ifvqh2g","pricing_plan_id":"cebpf4jnsgd1na2vs0mg"},{"bike_id":"aa33a53e-f806-43a8-ad7e-8e2bd9644426","system_id":"levelo_inurba_marseille","lat":43.32345,"lon":5.40629,"is_reserved":false,"is_disabled":true,"rental_uris":{"android":"levelo://app?vid=aa33a53e-f806-43a8-ad7e-8e2bd9644426","ios":"levelo://app?vid=aa33a53e-f806-43a8-ad7e-8e2bd9644426"},"vehicle_type_id":"4","last_reported":1736197725,"current_range_meters":0,"station_id":"ce4bhq92rcd13ifvqhjg","pricing_plan_id":"cebpf4jnsgd1na2vs0mg"},{"bike_id":"9e0f08d7-a4d7-4c6c-a586-c16413589f5f","system_id":"levelo_inurba_marseille","lat":43.29422,"lon":5.38187,"is_reserved":false,"is_disabled":false,"rental_uris":{"android":"levelo://app?vid=9e0f08d7-a4d7-4c6c-a586-c16413589f5f","ios":"levelo://app?vid=9e0f08d7-a4d7-4c6c-a586-c16413589f5f"},"vehicle_type_id":"4","last_reported":1736197725,"current_range_meters":26000,"station_id":"","pricing_plan_id":"cebpf4jnsgd1na2vs0mg"},{"bike_id":"4bf02ffc-cca4-4097-ac43-f862e924afa5","system_id":"levelo_inurba_marseille","lat":43.279053,"lon":5.380074,"is_reserved":false,"is_disabled":false,"rental_uris":{"android":"levelo://app?vid=4bf02ffc-cca4-4097-ac43-f862e924afa5","ios":"levelo://app?vid=4bf02ffc-cca4-4097-ac43-f862e924afa5"},"vehicle_type_id":"4","last_reported":1736197725,"current_range_meters":38800,"station_id":"ce4bhf92rcd13ifvqf50","pricing_plan_id":"cebpf4jnsgd1na2vs0mg"},{"bike_id":"3ecb915d-f223-4895-a3a0-9c26145c4804","system_id":"levelo_inurba_marseille","lat":43.31756,"lon":5.3902,"is_reserved":false,"is_disabled":false,"rental_uris":{"android":"levelo://app?vid=3ecb915d-f223-4895-a3a0-9c26145c4804","ios":"levelo://app?vid=3ecb915d-f223-4895-a3a0-9c26145c4804"},"vehicle_type_id":"4","last_reported":1736197725,"current_range_meters":28400,"station_id":"ce4bhqp2rcd13ifvqhng","pricing_plan_id":"cebpf4jnsgd1na2vs0mg"},{"bike_id":"55239fbb-8ee3-435d-bada-cef21797a0a3","system_id":"levelo_inurba_marseille","lat":43.30216,"lon":5.39487,"is_reserved":false,"is_disabled":false,"rental_uris":{"android":"levelo://app?vid=55239fbb-8ee3-435d-bada-cef21797a0a3","ios":"levelo://app?vid=55239fbb-8ee3-435d-bada-cef21797a0a3"},"vehicle_type_id":"4","last_reported":1736197725,"current_range_meters":39200,"station_id":"ce4bh0p2rcd13ifvqd70","pricing_plan_id":"cebpf4jnsgd1na2vs0mg"},{"bike_id":"2e87e856-20af-49f7-9dcf-bf1ecb339b74","system_id":"levelo_inurba_marseille","lat":43.29028,"lon":5.38638,"is_reserved":false,"is_disabled":false,"rental_uris":{"android":"levelo://app?vid=2e87e856-20af-49f7-9dcf-bf1ecb339b74","ios":"levelo://app?vid=2e87e856-20af-49f7-9dcf-bf1ecb339b74"},"vehicle_type_id":"4","last_reported":1736197725,"current_range_meters":12800,"station_id":"ce4bh4p2rcd13ifvqe0g","pricing_plan_id":"cebpf4jnsgd1na2vs0mg"},{"bike_id":"72aa27b6-580e-44c5-9bd2-168553fdc64a","system_id":"levelo_inurba_marseille","lat":43.29014,"lon":5.37591,"is_reserved":false,"is_disabled":true,"rental_uris":{"android":"levelo://app?vid=72aa27b6-580e-44c5-9bd2-168553fdc64a","ios":"levelo://app?vid=72aa27b6-580e-44c5-9bd2-168553fdc64a"},"vehicle_type_id":"4","last_reported":1736197725,"current_range_meters":2800,"station_id":"ce4bh692rcd13ifvqe90","pricing_plan_id":"cebpf4jnsgd1na2vs0mg"},{"bike_id":"12ed3c96-3bec-4316-abdd-31027ccf9ee8","system_id":"levelo_inurba_marseille","lat":43.24682,"lon":5.38152,"is_reserved":false,"is_disabled":false,"rental_uris":{"android":"levelo://app?vid=12ed3c96-3bec-4316-abdd-31027ccf9ee8","ios":"levelo://app?vid=12ed3c96-3bec-4316-abdd-31027ccf9ee8"},"vehicle_type_id":"4","last_reported":1736197725,"current_range_meters":26000,"station_id":"ce4bhih2rcd13ifvqfr0","pricing_plan_id":"cebpf4jnsgd1na2vs0mg"},{"bike_id":"4299617b-6245-4d47-a633-565f91a4f33c","system_id":"levelo_inurba_marseille","lat":43.31733,"lon":5.43702,"is_reserved":false,"is_disabled":false,"rental_uris":{"android":"levelo://app?vid=4299617b-6245-4d47-a633-565f91a4f33c","ios":"levelo://app?vid=4299617b-6245-4d47-a633-565f91a4f33c"},"vehicle_type_id":"4","last_reported":1736197725,"current_range_meters":16400,"station_id":"ce4bhp92rcd13ifvqhcg","pricing_plan_id":"cebpf4jnsgd1na2vs0mg"},{"bike_id":"88ae6fd4-8c72-4b57-956e-2a14760d9eb4","system_id":"levelo_inurba_marseille","lat":43.30235,"lon":5.40041,"is_reserved":false,"is_disabled":false,"rental_uris":{"android":"levelo://app?vid=88ae6fd4-8c72-4b57-956e-2a14760d9eb4","ios":"levelo://app?vid=88ae6fd4-8c72-4b57-956e-2a14760d9eb4"},"vehicle_type_id":"4","last_reported":1736197725,"current_range_meters":26000,"station_id":"ce4bgvh2rcd13ifvqcs0","pricing_plan_id":"cebpf4jnsgd1na2vs0mg"},{"bike_id":"d0541b38-8e7e-4e1e-8666-5868b43eb4cc","system_id":"levelo_inurba_marseille","lat":43.25107,"lon":5.40327,"is_reserved":false,"is_disabled":false,"rental_uris":{"android":"levelo://app?vid=d0541b38-8e7e-4e1e-8666-5868b43eb4cc","ios":"levelo://app?vid=d0541b38-8e7e-4e1e-8666-5868b43eb4cc"},"vehicle_type_id":"4","last_reported":1736197725,"current_range_meters":37600,"station_id":"ce4bhlh2rcd13ifvqgig","pricing_plan_id":"cebpf4jnsgd1na2vs0mg"},{"bike_id":"2b62c67c-a2dc-4c7f-8ace-711ed089e66a","system_id":"levelo_inurba_marseille","lat":43.29787,"lon":5.3811,"is_reserved":false,"is_disabled":false,"rental_uris":{"android":"levelo://app?vid=2b62c67c-a2dc-4c7f-8ace-711ed089e66a","ios":"levelo://app?vid=2b62c67c-a2dc-4c7f-8ace-711ed089e66a"},"vehicle_type_id":"4","last_reported":1736197725,"current_range_meters":38800,"station_id":"ce4bgip2rcd13ifvqbb0","pricing_plan_id":"cebpf4jnsgd1na2vs0mg"},{"bike_id":"4e1fe626-83a9-48a1-ae4d-a6801106e052","system_id":"levelo_inurba_marseille","lat":43.24768,"lon":5.37432,"is_reserved":false,"is_disabled":false,"rental_uris":{"android":"levelo://app?vid=4e1fe626-83a9-48a1-ae4d-a6801106e052","ios":"levelo://app?vid=4e1fe626-83a9-48a1-ae4d-a6801106e052"},"vehicle_type_id":"4","last_reported":1736197725,"current_range_meters":38000,"station_id":"ce4bhgh2rcd13ifvqfb0","pricing_plan_id":"cebpf4jnsgd1na2vs0mg"},{"bike_id":"ec1d3085-9ec8-4ac2-a235-c8f35d70ec9d","system_id":"levelo_inurba_marseille","lat":43.25831,"lon":5.39411,"is_reserved":false,"is_disabled":false,"rental_uris":{"android":"levelo://app?vid=ec1d3085-9ec8-4ac2-a235-c8f35d70ec9d","ios":"levelo://app?vid=ec1d3085-9ec8-4ac2-a235-c8f35d70ec9d"},"vehicle_type_id":"4","last_reported":1736197725,"current_range_meters":38800,"station_id":"ce4bhip2rcd13ifvqft0","pricing_plan_id":"cebpf4jnsgd1na2vs0mg"},{"bike_id":"9436a67f-2525-450f-aa95-b1963c8f69b1","system_id":"levelo_inurba_marseille","lat":43.29564,"lon":5.37497,"is_reserved":false,"is_disabled":false,"rental_uris":{"android":"levelo://app?vid=9436a67f-2525-450f-aa95-b1963c8f69b1","ios":"levelo://app?vid=9436a67f-2525-450f-aa95-b1963c8f69b1"},"vehicle_type_id":"4","last_reported":1736197725,"current_range_meters":27200,"station_id":"ce4bgh92rcd13ifvqb50","pricing_plan_id":"cebpf4jnsgd1na2vs0mg"},{"bike_id":"f8d77b03-4119-4fd6-9cf4-f395a69d1a8a","system_id":"levelo_inurba_marseille","lat":43.23964,"lon":5.36632,"is_reserved":false,"is_disabled":false,"rental_uris":{"android":"levelo://app?vid=f8d77b03-4119-4fd6-9cf4-f395a69d1a8a","ios":"levelo://app?vid=f8d77b03-4119-4fd6-9cf4-f395a69d1a8a"},"vehicle_type_id":"4","last_reported":1736197725,"current_range_meters":38800,"station_id":"ce4bhi12rcd13ifvqfp0","pricing_plan_id":"cebpf4jnsgd1na2vs0mg"},{"bike_id":"1f2a36a2-3528-4aeb-8044-9997d45a0ed3","system_id":"levelo_inurba_marseille","lat":43.27917,"lon":5.39569,"is_reserved":false,"is_disabled":false,"rental_uris":{"android":"levelo://app?vid=1f2a36a2-3528-4aeb-8044-9997d45a0ed3","ios":"levelo://app?vid=1f2a36a2-3528-4aeb-8044-9997d45a0ed3"},"vehicle_type_id":"4","last_reported":1736197725,"current_range_meters":32800,"station_id":"ce4bhf92rcd13ifvqf40","pricing_plan_id":"cebpf4jnsgd1na2vs0mg"},{"bike_id":"8a474426-cd46-4cf8-9edc-ef843a0ca02e","system_id":"levelo_inurba_marseille","lat":43.26531,"lon":5.39065,"is_reserved":false,"is_disabled":true,"rental_uris":{"android":"levelo://app?vid=8a474426-cd46-4cf8-9edc-ef843a0ca02e","ios":"levelo://app?vid=8a474426-cd46-4cf8-9edc-ef843a0ca02e"},"vehicle_type_id":"4","last_reported":1736197725,"current_range_meters":32800,"station_id":"","pricing_plan_id":"cebpf4jnsgd1na2vs0mg"},{"bike_id":"b8e8befc-076e-4a84-a746-24b09895b81b","system_id":"levelo_inurba_marseille","lat":43.255847,"lon":5.38215,"is_reserved":false,"is_disabled":false,"rental_uris":{"android":"levelo://app?vid=b8e8befc-076e-4a84-a746-24b09895b81b","ios":"levelo://app?vid=b8e8befc-076e-4a84-a746-24b09895b81b"},"vehicle_type_id":"4","last_reported":1736197725,"current_range_meters":36400,"station_id":"ce4bhih2rcd13ifvqfs0","pricing_plan_id":"cebpf4jnsgd1na2vs0mg"},{"bike_id":"bbf998ea-d252-4590-8711-16d78ff4b07c","system_id":"levelo_inurba_marseille","lat":43.2464,"lon":5.38903,"is_reserved":false,"is_disabled":false,"rental_uris":{"android":"levelo://app?vid=bbf998ea-d252-4590-8711-16d78ff4b07c","ios":"levelo://app?vid=bbf998ea-d252-4590-8711-16d78ff4b07c"},"vehicle_type_id":"4","last_reported":1736197725,"current_range_meters":28400,"station_id":"ce4bhg12rcd13ifvqf60","pricing_plan_id":"cebpf4jnsgd1na2vs0mg"},{"bike_id":"3bd701e8-1174-4580-b2cf-5d3167d58c57","system_id":"levelo_inurba_marseille","lat":43.286966,"lon":5.373913,"is_reserved":false,"is_disabled":false,"rental_uris":{"android":"levelo://app?vid=3bd701e8-1174-4580-b2cf-5d3167d58c57","ios":"levelo://app?vid=3bd701e8-1174-4580-b2cf-5d3167d58c57"},"vehicle_type_id":"4","last_reported":1736197725,"current_range_meters":22400,"station_id":"ce4bh3p2rcd13ifvqdq0","pricing_plan_id":"cebpf4jnsgd1na2vs0mg"},{"bike_id":"40fb7dad-5609-4451-ab10-c8015483f17a","system_id":"levelo_inurba_marseille","lat":43.25115,"lon":5.40313,"is_reserved":false,"is_disabled":false,"rental_uris":{"android":"levelo://app?vid=40fb7dad-5609-4451-ab10-c8015483f17a","ios":"levelo://app?vid=40fb7dad-5609-4451-ab10-c8015483f17a"},"vehicle_type_id":"4","last_reported":1736197725,"current_range_meters":23200,"station_id":"ce4bhlh2rcd13ifvqgig","pricing_plan_id":"cebpf4jnsgd1na2vs0mg"},{"bike_id":"5f5cedf9-bd29-4ae7-8006-771b625e8e9c","system_id":"levelo_inurba_marseille","lat":43.30131,"lon":5.3987,"is_reserved":false,"is_disabled":false,"rental_uris":{"android":"levelo://app?vid=5f5cedf9-bd29-4ae7-8006-771b625e8e9c","ios":"levelo://app?vid=5f5cedf9-bd29-4ae7-8006-771b625e8e9c"},"vehicle_type_id":"4","last_reported":1736197725,"current_range_meters":32800,"station_id":"ce4bh0h2rcd13ifvqd40","pricing_plan_id":"cebpf4jnsgd1na2vs0mg"},{"bike_id":"bfb2a8c4-a8de-401b-830e-eb9b976adb23","system_id":"levelo_inurba_marseille","lat":43.27072,"lon":5.42283,"is_reserved":false,"is_disabled":false,"rental_uris":{"android":"levelo://app?vid=bfb2a8c4-a8de-401b-830e-eb9b976adb23","ios":"levelo://app?vid=bfb2a8c4-a8de-401b-830e-eb9b976adb23"},"vehicle_type_id":"4","last_reported":1736197725,"current_range_meters":25200,"station_id":"ce4bhk92rcd13ifvqgb0","pricing_plan_id":"cebpf4jnsgd1na2vs0mg"},{"bike_id":"9167256e-c95d-4d3b-8323-b584cb9e608f","system_id":"levelo_inurba_marseille","lat":43.27211,"lon":5.392,"is_reserved":false,"is_disabled":true,"rental_uris":{"android":"levelo://app?vid=9167256e-c95d-4d3b-8323-b584cb9e608f","ios":"levelo://app?vid=9167256e-c95d-4d3b-8323-b584cb9e608f"},"vehicle_type_id":"4","last_reported":1736197725,"current_range_meters":0,"station_id":"ce4bhhp2rcd13ifvqfm0","pricing_plan_id":"cebpf4jnsgd1na2vs0mg"},{"bike_id":"664044e6-e824-440a-a874-8e818a3a1b1b","system_id":"levelo_inurba_marseille","lat":43.285687,"lon":5.394921,"is_reserved":false,"is_disabled":true,"rental_uris":{"android":"levelo://app?vid=664044e6-e824-440a-a874-8e818a3a1b1b","ios":"levelo://app?vid=664044e6-e824-440a-a874-8e818a3a1b1b"},"vehicle_type_id":"4","last_reported":1736197725,"current_range_meters":36800,"station_id":"ce4bh292rcd13ifvqdg0","pricing_plan_id":"cebpf4jnsgd1na2vs0mg"},{"bike_id":"011aaff5-2340-4cad-b09b-c3430fd8d275","system_id":"levelo_inurba_marseille","lat":43.28366,"lon":5.3864,"is_reserved":false,"is_disabled":false,"rental_uris":{"android":"levelo://app?vid=011aaff5-2340-4cad-b09b-c3430fd8d275","ios":"levelo://app?vid=011aaff5-2340-4cad-b09b-c3430fd8d275"},"vehicle_type_id":"4","last_reported":1736197725,"current_range_meters":38000,"station_id":"ce4bh492rcd13ifvqdvg","pricing_plan_id":"cebpf4jnsgd1na2vs0mg"},{"bike_id":"936ed474-610f-4c67-b8c9-91392f127c61","system_id":"levelo_inurba_marseille","lat":43.2942,"lon":5.39751,"is_reserved":false,"is_disabled":false,"rental_uris":{"android":"levelo://app?vid=936ed474-610f-4c67-b8c9-91392f127c61","ios":"levelo://app?vid=936ed474-610f-4c67-b8c9-91392f127c61"},"vehicle_type_id":"4","last_reported":1736197725,"current_range_meters":16800,"station_id":"ce4bh3h2rcd13ifvqdo0","pricing_plan_id":"cebpf4jnsgd1na2vs0mg"},{"bike_id":"02201d32-ece4-4cd3-8c2d-8eacbfc5c3d0","system_id":"levelo_inurba_marseille","lat":43.25119,"lon":5.4034,"is_reserved":false,"is_disabled":false,"rental_uris":{"android":"levelo://app?vid=02201d32-ece4-4cd3-8c2d-8eacbfc5c3d0","ios":"levelo://app?vid=02201d32-ece4-4cd3-8c2d-8eacbfc5c3d0"},"vehicle_type_id":"4","last_reported":1736197725,"current_range_meters":30000,"station_id":"ce4bhlh2rcd13ifvqgig","pricing_plan_id":"cebpf4jnsgd1na2vs0mg"},{"bike_id":"d8bf17bb-a10c-4664-bc5a-7fe14bc8f4da","system_id":"levelo_inurba_marseille","lat":43.29976,"lon":5.37176,"is_reserved":false,"is_disabled":false,"rental_uris":{"android":"levelo://app?vid=d8bf17bb-a10c-4664-bc5a-7fe14bc8f4da","ios":"levelo://app?vid=d8bf17bb-a10c-4664-bc5a-7fe14bc8f4da"},"vehicle_type_id":"4","last_reported":1736197725,"current_range_meters":20400,"station_id":"ce4bgr92rcd13ifvqc7g","pricing_plan_id":"cebpf4jnsgd1na2vs0mg"},{"bike_id":"0bcfea18-61ca-412d-bded-b63f59943884","system_id":"levelo_inurba_marseille","lat":43.28591,"lon":5.35145,"is_reserved":false,"is_disabled":true,"rental_uris":{"android":"levelo://app?vid=0bcfea18-61ca-412d-bded-b63f59943884","ios":"levelo://app?vid=0bcfea18-61ca-412d-bded-b63f59943884"},"vehicle_type_id":"4","last_reported":1736197725,"current_range_meters":31200,"station_id":"ce4bhch2rcd13ifvqeug","pricing_plan_id":"cebpf4jnsgd1na2vs0mg"},{"bike_id":"1a84399a-435c-4ec1-bdbf-8e844d989c4b","system_id":"levelo_inurba_marseille","lat":43.29711,"lon":5.36603,"is_reserved":false,"is_disabled":false,"rental_uris":{"android":"levelo://app?vid=1a84399a-435c-4ec1-bdbf-8e844d989c4b","ios":"levelo://app?vid=1a84399a-435c-4ec1-bdbf-8e844d989c4b"},"vehicle_type_id":"4","last_reported":1736197725,"current_range_meters":36000,"station_id":"ce4bgn12rcd13ifvqbt0","pricing_plan_id":"cebpf4jnsgd1na2vs0mg"},{"bike_id":"01844f2c-8e2d-4e7b-84eb-c284d12438cb","system_id":"levelo_inurba_marseille","lat":43.28078,"lon":5.39657,"is_reserved":false,"is_disabled":false,"rental_uris":{"android":"levelo://app?vid=01844f2c-8e2d-4e7b-84eb-c284d12438cb","ios":"levelo://app?vid=01844f2c-8e2d-4e7b-84eb-c284d12438cb"},"vehicle_type_id":"4","last_reported":1736197725,"current_range_meters":38800,"station_id":"ce4bho12rcd13ifvqh2g","pricing_plan_id":"cebpf4jnsgd1na2vs0mg"},{"bike_id":"6abef6a9-caf5-451a-afc9-43df477f8261","system_id":"levelo_inurba_marseille","lat":43.28659,"lon":5.36358,"is_reserved":false,"is_disabled":false,"rental_uris":{"android":"levelo://app?vid=6abef6a9-caf5-451a-afc9-43df477f8261","ios":"levelo://app?vid=6abef6a9-caf5-451a-afc9-43df477f8261"},"vehicle_type_id":"4","last_reported":1736197725,"current_range_meters":38800,"station_id":"ce4bhah2rcd13ifvqej0","pricing_plan_id":"cebpf4jnsgd1na2vs0mg"},{"bike_id":"086ec256-c7bb-4298-b024-d47a185c580f","system_id":"levelo_inurba_marseille","lat":43.29001,"lon":5.35611,"is_reserved":false,"is_disabled":false,"rental_uris":{"android":"levelo://app?vid=086ec256-c7bb-4298-b024-d47a185c580f","ios":"levelo://app?vid=086ec256-c7bb-4298-b024-d47a185c580f"},"vehicle_type_id":"4","last_reported":1736197725,"current_range_meters":37600,"station_id":"ce4bhb92rcd13ifvqen0","pricing_plan_id":"cebpf4jnsgd1na2vs0mg"},{"bike_id":"03630410-cff2-41ca-8ab4-df6ebc45a627","system_id":"levelo_inurba_marseille","lat":43.30134,"lon":5.38092,"is_reserved":false,"is_disabled":true,"rental_uris":{"android":"levelo://app?vid=03630410-cff2-41ca-8ab4-df6ebc45a627","ios":"levelo://app?vid=03630410-cff2-41ca-8ab4-df6ebc45a627"},"vehicle_type_id":"4","last_reported":1736197725,"current_range_meters":36400,"station_id":"ce4bgjp2rcd13ifvqbh0","pricing_plan_id":"cebpf4jnsgd1na2vs0mg"},{"bike_id":"52200668-cd8f-4dc4-8199-1244ab61819a","system_id":"levelo_inurba_marseille","lat":43.24797,"lon":5.37472,"is_reserved":false,"is_disabled":false,"rental_uris":{"android":"levelo://app?vid=52200668-cd8f-4dc4-8199-1244ab61819a","ios":"levelo://app?vid=52200668-cd8f-4dc4-8199-1244ab61819a"},"vehicle_type_id":"4","last_reported":1736197725,"current_range_meters":38800,"station_id":"ce4bhgh2rcd13ifvqfb0","pricing_plan_id":"cebpf4jnsgd1na2vs0mg"},{"bike_id":"0c91a9a0-7541-457e-8b29-f57634f9d924","system_id":"levelo_inurba_marseille","lat":43.28954,"lon":5.3579,"is_reserved":false,"is_disabled":false,"rental_uris":{"android":"levelo://app?vid=0c91a9a0-7541-457e-8b29-f57634f9d924","ios":"levelo://app?vid=0c91a9a0-7541-457e-8b29-f57634f9d924"},"vehicle_type_id":"4","last_reported":1736197725,"current_range_meters":13600,"station_id":"","pricing_plan_id":"cebpf4jnsgd1na2vs0mg"},{"bike_id":"bc5b5855-1cf6-4cdc-af1a-e3906d45046d","system_id":"levelo_inurba_marseille","lat":43.25008,"lon":5.38932,"is_reserved":false,"is_disabled":false,"rental_uris":{"android":"levelo://app?vid=bc5b5855-1cf6-4cdc-af1a-e3906d45046d","ios":"levelo://app?vid=bc5b5855-1cf6-4cdc-af1a-e3906d45046d"},"vehicle_type_id":"4","last_reported":1736197725,"current_range_meters":26800,"station_id":"ce4bhgp2rcd13ifvqfd0","pricing_plan_id":"cebpf4jnsgd1na2vs0mg"},{"bike_id":"b174120d-6c0e-448a-9af0-af9dcc29822e","system_id":"levelo_inurba_marseille","lat":43.28018,"lon":5.36936,"is_reserved":false,"is_disabled":false,"rental_uris":{"android":"levelo://app?vid=b174120d-6c0e-448a-9af0-af9dcc29822e","ios":"levelo://app?vid=b174120d-6c0e-448a-9af0-af9dcc29822e"},"vehicle_type_id":"4","last_reported":1736197725,"current_range_meters":37600,"station_id":"ce4bha12rcd13ifvqef0","pricing_plan_id":"cebpf4jnsgd1na2vs0mg"},{"bike_id":"9206d9db-6a1d-4495-9bc2-7d4e1ef0f397","system_id":"levelo_inurba_marseille","lat":43.28919,"lon":5.38392,"is_reserved":false,"is_disabled":true,"rental_uris":{"android":"levelo://app?vid=9206d9db-6a1d-4495-9bc2-7d4e1ef0f397","ios":"levelo://app?vid=9206d9db-6a1d-4495-9bc2-7d4e1ef0f397"},"vehicle_type_id":"4","last_reported":1736197725,"current_range_meters":37600,"station_id":"ce4bh612rcd13ifvqe6g","pricing_plan_id":"cebpf4jnsgd1na2vs0mg"},{"bike_id":"2937c8f0-6f06-4c7f-8240-41ad44bc55fa","system_id":"levelo_inurba_marseille","lat":43.23189,"lon":5.39982,"is_reserved":false,"is_disabled":false,"rental_uris":{"android":"levelo://app?vid=2937c8f0-6f06-4c7f-8240-41ad44bc55fa","ios":"levelo://app?vid=2937c8f0-6f06-4c7f-8240-41ad44bc55fa"},"vehicle_type_id":"4","last_reported":1736197725,"current_range_meters":14000,"station_id":"ce4bhn12rcd13ifvqgqg","pricing_plan_id":"cebpf4jnsgd1na2vs0mg"},{"bike_id":"c033709f-e02c-4018-a70f-8dad9d0696e0","system_id":"levelo_inurba_marseille","lat":43.28843,"lon":5.35843,"is_reserved":false,"is_disabled":false,"rental_uris":{"android":"levelo://app?vid=c033709f-e02c-4018-a70f-8dad9d0696e0","ios":"levelo://app?vid=c033709f-e02c-4018-a70f-8dad9d0696e0"},"vehicle_type_id":"4","last_reported":1736197725,"current_range_meters":38800,"station_id":"ce4bhb12rcd13ifvqem0","pricing_plan_id":"cebpf4jnsgd1na2vs0mg"},{"bike_id":"efaac073-0042-47ef-98ca-9e2ef1fc5fd4","system_id":"levelo_inurba_marseille","lat":43.32337,"lon":5.40614,"is_reserved":false,"is_disabled":false,"rental_uris":{"android":"levelo://app?vid=efaac073-0042-47ef-98ca-9e2ef1fc5fd4","ios":"levelo://app?vid=efaac073-0042-47ef-98ca-9e2ef1fc5fd4"},"vehicle_type_id":"4","last_reported":1736197725,"current_range_meters":27200,"station_id":"ce4bhq92rcd13ifvqhjg","pricing_plan_id":"cebpf4jnsgd1na2vs0mg"},{"bike_id":"cf99c5f7-db3f-4c80-98a6-d9316d97def4","system_id":"levelo_inurba_marseille","lat":43.30803,"lon":5.38167,"is_reserved":false,"is_disabled":true,"rental_uris":{"android":"levelo://app?vid=cf99c5f7-db3f-4c80-98a6-d9316d97def4","ios":"levelo://app?vid=cf99c5f7-db3f-4c80-98a6-d9316d97def4"},"vehicle_type_id":"4","last_reported":1736197725,"current_range_meters":1200,"station_id":"ce4bgt12rcd13ifvqce0","pricing_plan_id":"cebpf4jnsgd1na2vs0mg"},{"bike_id":"f49298c6-b208-404d-bb0c-160ccbda2eed","system_id":"levelo_inurba_marseille","lat":43.27988,"lon":5.40013,"is_reserved":false,"is_disabled":true,"rental_uris":{"android":"levelo://app?vid=f49298c6-b208-404d-bb0c-160ccbda2eed","ios":"levelo://app?vid=f49298c6-b208-404d-bb0c-160ccbda2eed"},"vehicle_type_id":"4","last_reported":1736197725,"current_range_meters":33600,"station_id":"ce4bho92rcd13ifvqh4g","pricing_plan_id":"cebpf4jnsgd1na2vs0mg"},{"bike_id":"d014f699-d84d-436b-b3bf-8c059d18ea89","system_id":"levelo_inurba_marseille","lat":43.22925,"lon":5.35372,"is_reserved":false,"is_disabled":false,"rental_uris":{"android":"levelo://app?vid=d014f699-d84d-436b-b3bf-8c059d18ea89","ios":"levelo://app?vid=d014f699-d84d-436b-b3bf-8c059d18ea89"},"vehicle_type_id":"4","last_reported":1736197725,"current_range_meters":10000,"station_id":"cpo3532slgdg3j2ikp40","pricing_plan_id":"cebpf4jnsgd1na2vs0mg"},{"bike_id":"7f58f993-175d-4e12-8a7f-3fbf9704cd26","system_id":"levelo_inurba_marseille","lat":43.289,"lon":5.36697,"is_reserved":false,"is_disabled":false,"rental_uris":{"android":"levelo://app?vid=7f58f993-175d-4e12-8a7f-3fbf9704cd26","ios":"levelo://app?vid=7f58f993-175d-4e12-8a7f-3fbf9704cd26"},"vehicle_type_id":"4","last_reported":1736197725,"current_range_meters":37600,"station_id":"ce4bhap2rcd13ifvqek0","pricing_plan_id":"cebpf4jnsgd1na2vs0mg"},{"bike_id":"c4ef25b2-0ad5-4900-81fa-11f2a64f085f","system_id":"levelo_inurba_marseille","lat":43.28456,"lon":5.35903,"is_reserved":false,"is_disabled":false,"rental_uris":{"android":"levelo://app?vid=c4ef25b2-0ad5-4900-81fa-11f2a64f085f","ios":"levelo://app?vid=c4ef25b2-0ad5-4900-81fa-11f2a64f085f"},"vehicle_type_id":"4","last_reported":1736197725,"current_range_meters":24000,"station_id":"ce4bhah2rcd13ifvqei0","pricing_plan_id":"cebpf4jnsgd1na2vs0mg"},{"bike_id":"faae1798-96a7-429b-b6ea-e7803c53339f","system_id":"levelo_inurba_marseille","lat":43.29539,"lon":5.38546,"is_reserved":false,"is_disabled":false,"rental_uris":{"android":"levelo://app?vid=faae1798-96a7-429b-b6ea-e7803c53339f","ios":"levelo://app?vid=faae1798-96a7-429b-b6ea-e7803c53339f"},"vehicle_type_id":"4","last_reported":1736197725,"current_range_meters":24800,"station_id":"ce4bgih2rcd13ifvqba0","pricing_plan_id":"cebpf4jnsgd1na2vs0mg"},{"bike_id":"955387a8-4a47-4691-946f-78754c88504b","system_id":"levelo_inurba_marseille","lat":43.23191,"lon":5.35537,"is_reserved":false,"is_disabled":false,"rental_uris":{"android":"levelo://app?vid=955387a8-4a47-4691-946f-78754c88504b","ios":"levelo://app?vid=955387a8-4a47-4691-946f-78754c88504b"},"vehicle_type_id":"4","last_reported":1736197725,"current_range_meters":38400,"station_id":"ce4bhu92rcd13ifvqi70","pricing_plan_id":"cebpf4jnsgd1na2vs0mg"},{"bike_id":"ef72cdb4-465d-4178-b952-49906f159c48","system_id":"levelo_inurba_marseille","lat":43.28152,"lon":5.42634,"is_reserved":false,"is_disabled":false,"rental_uris":{"android":"levelo://app?vid=ef72cdb4-465d-4178-b952-49906f159c48","ios":"levelo://app?vid=ef72cdb4-465d-4178-b952-49906f159c48"},"vehicle_type_id":"4","last_reported":1736197725,"current_range_meters":38000,"station_id":"ce4bhnh2rcd13ifvqgug","pricing_plan_id":"cebpf4jnsgd1na2vs0mg"},{"bike_id":"f949af9a-2683-4ec9-b4bf-168b31b3bcb2","system_id":"levelo_inurba_marseille","lat":43.24652,"lon":5.38888,"is_reserved":false,"is_disabled":false,"rental_uris":{"android":"levelo://app?vid=f949af9a-2683-4ec9-b4bf-168b31b3bcb2","ios":"levelo://app?vid=f949af9a-2683-4ec9-b4bf-168b31b3bcb2"},"vehicle_type_id":"4","last_reported":1736197725,"current_range_meters":22000,"station_id":"ce4bhg12rcd13ifvqf60","pricing_plan_id":"cebpf4jnsgd1na2vs0mg"},{"bike_id":"5716fd4e-02bd-4a7d-b0ae-b602c555354f","system_id":"levelo_inurba_marseille","lat":43.29093,"lon":5.38149,"is_reserved":false,"is_disabled":true,"rental_uris":{"android":"levelo://app?vid=5716fd4e-02bd-4a7d-b0ae-b602c555354f","ios":"levelo://app?vid=5716fd4e-02bd-4a7d-b0ae-b602c555354f"},"vehicle_type_id":"4","last_reported":1736197725,"current_range_meters":0,"station_id":"ce4bh512rcd13ifvqe2g","pricing_plan_id":"cebpf4jnsgd1na2vs0mg"},{"bike_id":"af088f9f-cdd8-476d-95ff-75264aa544f9","system_id":"levelo_inurba_marseille","lat":43.286932,"lon":5.374153,"is_reserved":false,"is_disabled":false,"rental_uris":{"android":"levelo://app?vid=af088f9f-cdd8-476d-95ff-75264aa544f9","ios":"levelo://app?vid=af088f9f-cdd8-476d-95ff-75264aa544f9"},"vehicle_type_id":"4","last_reported":1736197725,"current_range_meters":32000,"station_id":"ce4bh3p2rcd13ifvqdq0","pricing_plan_id":"cebpf4jnsgd1na2vs0mg"},{"bike_id":"cd1c11fd-2068-4028-bb0e-2b2f532f03e7","system_id":"levelo_inurba_marseille","lat":43.32283,"lon":5.38264,"is_reserved":false,"is_disabled":false,"rental_uris":{"android":"levelo://app?vid=cd1c11fd-2068-4028-bb0e-2b2f532f03e7","ios":"levelo://app?vid=cd1c11fd-2068-4028-bb0e-2b2f532f03e7"},"vehicle_type_id":"4","last_reported":1736197725,"current_range_meters":36400,"station_id":"ce4bhr12rcd13ifvqhqg","pricing_plan_id":"cebpf4jnsgd1na2vs0mg"},{"bike_id":"57b66293-4f20-4f05-8917-ea32e8823749","system_id":"levelo_inurba_marseille","lat":43.317,"lon":5.43695,"is_reserved":false,"is_disabled":false,"rental_uris":{"android":"levelo://app?vid=57b66293-4f20-4f05-8917-ea32e8823749","ios":"levelo://app?vid=57b66293-4f20-4f05-8917-ea32e8823749"},"vehicle_type_id":"4","last_reported":1736197725,"current_range_meters":38400,"station_id":"ce4bhp92rcd13ifvqhcg","pricing_plan_id":"cebpf4jnsgd1na2vs0mg"},{"bike_id":"a1b6c61e-fddc-4edb-8119-4c29d53fad1d","system_id":"levelo_inurba_marseille","lat":43.31669,"lon":5.37731,"is_reserved":false,"is_disabled":false,"rental_uris":{"android":"levelo://app?vid=a1b6c61e-fddc-4edb-8119-4c29d53fad1d","ios":"levelo://app?vid=a1b6c61e-fddc-4edb-8119-4c29d53fad1d"},"vehicle_type_id":"4","last_reported":1736197725,"current_range_meters":21600,"station_id":"ce4bgth2rcd13ifvqch0","pricing_plan_id":"cebpf4jnsgd1na2vs0mg"},{"bike_id":"1307f9da-ff9b-48a7-93be-7ab8cbbfc9be","system_id":"levelo_inurba_marseille","lat":43.2507,"lon":5.395,"is_reserved":false,"is_disabled":false,"rental_uris":{"android":"levelo://app?vid=1307f9da-ff9b-48a7-93be-7ab8cbbfc9be","ios":"levelo://app?vid=1307f9da-ff9b-48a7-93be-7ab8cbbfc9be"},"vehicle_type_id":"4","last_reported":1736197725,"current_range_meters":38800,"station_id":"ce4bhm12rcd13ifvqgkg","pricing_plan_id":"cebpf4jnsgd1na2vs0mg"},{"bike_id":"dd9cd6a6-453c-44e1-851f-9d4fb5ac4a60","system_id":"levelo_inurba_marseille","lat":43.27989,"lon":5.416605,"is_reserved":false,"is_disabled":false,"rental_uris":{"android":"levelo://app?vid=dd9cd6a6-453c-44e1-851f-9d4fb5ac4a60","ios":"levelo://app?vid=dd9cd6a6-453c-44e1-851f-9d4fb5ac4a60"},"vehicle_type_id":"4","last_reported":1736197725,"current_range_meters":8800,"station_id":"ce4bho12rcd13ifvqh1g","pricing_plan_id":"cebpf4jnsgd1na2vs0mg"},{"bike_id":"41300e96-235a-4536-94b2-7cafb7de7c2c","system_id":"levelo_inurba_marseille","lat":43.3026,"lon":5.40079,"is_reserved":false,"is_disabled":false,"rental_uris":{"android":"levelo://app?vid=41300e96-235a-4536-94b2-7cafb7de7c2c","ios":"levelo://app?vid=41300e96-235a-4536-94b2-7cafb7de7c2c"},"vehicle_type_id":"4","last_reported":1736197725,"current_range_meters":21600,"station_id":"ce4bgvh2rcd13ifvqcs0","pricing_plan_id":"cebpf4jnsgd1na2vs0mg"},{"bike_id":"e4fb0db6-c070-4f7c-b34e-a54f29d45562","system_id":"levelo_inurba_marseille","lat":43.27978,"lon":5.41655,"is_reserved":false,"is_disabled":false,"rental_uris":{"android":"levelo://app?vid=e4fb0db6-c070-4f7c-b34e-a54f29d45562","ios":"levelo://app?vid=e4fb0db6-c070-4f7c-b34e-a54f29d45562"},"vehicle_type_id":"4","last_reported":1736197725,"current_range_meters":8800,"station_id":"ce4bho12rcd13ifvqh1g","pricing_plan_id":"cebpf4jnsgd1na2vs0mg"},{"bike_id":"bbc96439-75f7-44ed-9303-b7e7aedc3906","system_id":"levelo_inurba_marseille","lat":43.30801,"lon":5.38142,"is_reserved":false,"is_disabled":false,"rental_uris":{"android":"levelo://app?vid=bbc96439-75f7-44ed-9303-b7e7aedc3906","ios":"levelo://app?vid=bbc96439-75f7-44ed-9303-b7e7aedc3906"},"vehicle_type_id":"4","last_reported":1736197725,"current_range_meters":24800,"station_id":"ce4bgt12rcd13ifvqce0","pricing_plan_id":"cebpf4jnsgd1na2vs0mg"},{"bike_id":"5f02d6ec-5f60-4006-8f85-568347c1f3dc","system_id":"levelo_inurba_marseille","lat":43.324719,"lon":5.365524,"is_reserved":false,"is_disabled":false,"rental_uris":{"android":"levelo://app?vid=5f02d6ec-5f60-4006-8f85-568347c1f3dc","ios":"levelo://app?vid=5f02d6ec-5f60-4006-8f85-568347c1f3dc"},"vehicle_type_id":"4","last_reported":1736197725,"current_range_meters":32000,"station_id":"ce4bhs12rcd13ifvqhvg","pricing_plan_id":"cebpf4jnsgd1na2vs0mg"},{"bike_id":"ae80ca68-cb38-4cd8-b859-3d63e62f4b57","system_id":"levelo_inurba_marseille","lat":43.30772,"lon":5.37656,"is_reserved":false,"is_disabled":false,"rental_uris":{"android":"levelo://app?vid=ae80ca68-cb38-4cd8-b859-3d63e62f4b57","ios":"levelo://app?vid=ae80ca68-cb38-4cd8-b859-3d63e62f4b57"},"vehicle_type_id":"4","last_reported":1736197725,"current_range_meters":36400,"station_id":"ce4bgv92rcd13ifvqcq0","pricing_plan_id":"cebpf4jnsgd1na2vs0mg"},{"bike_id":"eedfee08-57e0-4552-b6aa-72a9bd664569","system_id":"levelo_inurba_marseille","lat":43.29714,"lon":5.36602,"is_reserved":false,"is_disabled":false,"rental_uris":{"android":"levelo://app?vid=eedfee08-57e0-4552-b6aa-72a9bd664569","ios":"levelo://app?vid=eedfee08-57e0-4552-b6aa-72a9bd664569"},"vehicle_type_id":"4","last_reported":1736197725,"current_range_meters":33200,"station_id":"ce4bgn12rcd13ifvqbt0","pricing_plan_id":"cebpf4jnsgd1na2vs0mg"},{"bike_id":"a3264d93-2f77-43cb-97bc-4fbb75ddcaa5","system_id":"levelo_inurba_marseille","lat":43.30793,"lon":5.38154,"is_reserved":false,"is_disabled":false,"rental_uris":{"android":"levelo://app?vid=a3264d93-2f77-43cb-97bc-4fbb75ddcaa5","ios":"levelo://app?vid=a3264d93-2f77-43cb-97bc-4fbb75ddcaa5"},"vehicle_type_id":"4","last_reported":1736197725,"current_range_meters":38800,"station_id":"ce4bgt12rcd13ifvqce0","pricing_plan_id":"cebpf4jnsgd1na2vs0mg"},{"bike_id":"ea7bebe3-4aff-4a01-b28d-c9b866182ae3","system_id":"levelo_inurba_marseille","lat":43.30804,"lon":5.39212,"is_reserved":false,"is_disabled":true,"rental_uris":{"android":"levelo://app?vid=ea7bebe3-4aff-4a01-b28d-c9b866182ae3","ios":"levelo://app?vid=ea7bebe3-4aff-4a01-b28d-c9b866182ae3"},"vehicle_type_id":"4","last_reported":1736197725,"current_range_meters":30800,"station_id":"","pricing_plan_id":"cebpf4jnsgd1na2vs0mg"},