{"last_updated":1728673629,"ttl":60,"version":"2.2","data":{"bikes":[{"bike_id":"d84fd2e3-be91-47f2-8212-5bf03a54cc56","system_id":"levelo_inurba_marseille","lat":43.25086,"lon":5.39522,"is_reserved":false,"is_disabled":false,"rental_uris":{"android":"levelo://app?vid=d84fd2e3-be91-47f2-8212-5bf03a54cc56","ios":"levelo://app?vid=d84fd2e3-be91-47f2-8212-5bf03a54cc56"},"vehicle_type_id":"4","last_reported":1728673629,"current_range_meters":38800,"station_id":"ce4bhm12rcd13ifvqgkg","pricing_plan_id":"cebpf4jnsgd1na2vs0mg"},{"bike_id":"7d2b4839-36b1-4816-aa1e-a683bfce56ce","system_id":"levelo_inurba_marseille","lat":43.30209,"lon":5.36633,"is_reserved":false,"is_disabled":false,"rental_uris":{"android":"levelo://app?vid=7d2b4839-36b1-4816-aa1e-a683bfce56ce","ios":"levelo://app?vid=7d2b4839-36b1-4816-aa1e-a683bfce56ce"},"vehicle_type_id":"4","last_reported":1728673629,"current_range_meters":38000,"station_id":"ce4bgrh2rcd13ifvqc8g","pricing_plan_id":"cebpf4jnsgd1na2vs0mg"},{"bike_id":"11260d2c-c212-4336-9aec-e080b9039040","system_id":"levelo_inurba_marseille","lat":43.27997,"lon":5.40007,"is_reserved":false,"is_disabled":false,"rental_uris":{"android":"levelo://app?vid=11260d2c-c212-4336-9aec-e080b9039040","ios":"levelo://app?vid=11260d2c-c212-4336-9aec-e080b9039040"},"vehicle_type_id":"4","last_reported":1728673629,"current_range_meters":38000,"station_id":"ce4bho92rcd13ifvqh4g","pricing_plan_id":"cebpf4jnsgd1na2vs0mg"},{"bike_id":"b7ce159d-243d-43bb-adef-19759f0c5ac2","system_id":"levelo_inurba_marseille","lat":43.27998,"lon":5.40003,"is_reserved":false,"is_disabled":false,"rental_uris":{"android":"levelo://app?vid=b7ce159d-243d-43bb-adef-19759f0c5ac2","ios":"levelo://app?vid=b7ce159d-243d-43bb-adef-19759f0c5ac2"},"vehicle_type_id":"4","last_reported":1728673629,"current_range_meters":35600,"station_id":"ce4bho92rcd13ifvqh4g","pricing_plan_id":"cebpf4jnsgd1na2vs0mg"},{"bike_id":"51dd5005-a195-4642-bd5f-8cbea71cb3b3","system_id":"levelo_inurba_marseille","lat":43.2293,"lon":5.35372,"is_reserved":false,"is_disabled":false,"rental_uris":{"android":"levelo://app?vid=51dd5005-a195-4642-bd5f-8cbea71cb3b3","ios":"levelo://app?vid=51dd5005-a195-4642-bd5f-8cbea71cb3b3"},"vehicle_type_id":"4","last_reported":1728673629,"current_range_meters":38800,"station_id":"cpo3532slgdg3j2ikp40","pricing_plan_id":"cebpf4jnsgd1na2vs0mg"},{"bike_id":"53985809-d93c-49ed-93ad-c2277063ff3c","system_id":"levelo_inurba_marseille","lat":43.25824,"lon":5.39443,"is_reserved":false,"is_disabled":false,"rental_uris":{"android":"levelo://app?vid=53985809-d93c-49ed-93ad-c2277063ff3c","ios":"levelo://app?vid=53985809-d93c-49ed-93ad-c2277063ff3c"},"vehicle_type_id":"4","last_reported":1728673629,"current_range_meters":16000,"station_id":"ce4bhip2rcd13ifvqft0","pricing_plan_id":"cebpf4jnsgd1na2vs0mg"},{"bike_id":"03f46402-07dc-42c9-9bbb-99baa60d6dbb","system_id":"levelo_inurba_marseille","lat":43.29842,"lon":5.36272,"is_reserved":false,"is_disabled":false,"rental_uris":{"android":"levelo://app?vid=03f46402-07dc-42c9-9bbb-99baa60d6dbb","ios":"levelo://app?vid=03f46402-07dc-42c9-9bbb-99baa60d6dbb"},"vehicle_type_id":"4","last_reported":1728673629,"current_range_meters":4000,"station_id":"ce4bgpp2rcd13ifvqc3g","pricing_plan_id":"cebpf4jnsgd1na2vs0mg"},{"bike_id":"b474cc28-429d-4bf6-a453-cfd8e447da8a","system_id":"levelo_inurba_marseille","lat":43.3373,"lon":5.39186,"is_reserved":false,"is_disabled":false,"rental_uris":{"android":"levelo://app?vid=b474cc28-429d-4bf6-a453-cfd8e447da8a","ios":"levelo://app?vid=b474cc28-429d-4bf6-a453-cfd8e447da8a"},"vehicle_type_id":"4","last_reported":1728673629,"current_range_meters":38800,"station_id":"ce4bhr92rcd13ifvqhsg","pricing_plan_id":"cebpf4jnsgd1na2vs0mg"},{"bike_id":"8a3ea5a6-b0cd-48da-acf8-ccf7be6f48c6","system_id":"levelo_inurba_marseille","lat":43.32369,"lon":5.38884,"is_reserved":false,"is_disabled":false,"rental_uris":{"android":"levelo://app?vid=8a3ea5a6-b0cd-48da-acf8-ccf7be6f48c6","ios":"levelo://app?vid=8a3ea5a6-b0cd-48da-acf8-ccf7be6f48c6"},"vehicle_type_id":"4","last_reported":1728673629,"current_range_meters":9200,"station_id":"ce4bhqp2rcd13ifvqhog","pricing_plan_id":"cebpf4jnsgd1na2vs0mg"},{"bike_id":"4f1ac9db-36fd-4126-b3cc-b859636a6a29","system_id":"levelo_inurba_marseille","lat":43.2293,"lon":5.35375,"is_reserved":false,"is_disabled":false,"rental_uris":{"android":"levelo://app?vid=4f1ac9db-36fd-4126-b3cc-b859636a6a29","ios":"levelo://app?vid=4f1ac9db-36fd-4126-b3cc-b859636a6a29"},"vehicle_type_id":"4","last_reported":1728673629,"current_range_meters":38800,"station_id":"cpo3532slgdg3j2ikp40","pricing_plan_id":"cebpf4jnsgd1na2vs0mg"},{"bike_id":"959bf28f-f49e-4bd2-9649-ec3d29693aea","system_id":"levelo_inurba_marseille","lat":43.28956,"lon":5.39217,"is_reserved":false,"is_disabled":false,"rental_uris":{"android":"levelo://app?vid=959bf28f-f49e-4bd2-9649-ec3d29693aea","ios":"levelo://app?vid=959bf28f-f49e-4bd2-9649-ec3d29693aea"},"vehicle_type_id":"4","last_reported":1728673629,"current_range_meters":11600,"station_id":"","pricing_plan_id":"cebpf4jnsgd1na2vs0mg"},{"bike_id":"5fc608f3-fdd8-4ca1-8783-8c90dc25d4fa","system_id":"levelo_inurba_marseille","lat":43.28694,"lon":5.37397,"is_reserved":false,"is_disabled":false,"rental_uris":{"android":"levelo://app?vid=5fc608f3-fdd8-4ca1-8783-8c90dc25d4fa","ios":"levelo://app?vid=5fc608f3-fdd8-4ca1-8783-8c90dc25d4fa"},"vehicle_type_id":"4","last_reported":1728673629,"current_range_meters":32000,"station_id":"ce4bh3p2rcd13ifvqdq0","pricing_plan_id":"cebpf4jnsgd1na2vs0mg"},{"bike_id":"3ba1304f-2205-48b0-a22b-8bf8c4f12b9b","system_id":"levelo_inurba_marseille","lat":43.30135,"lon":5.37419,"is_reserved":false,"is_disabled":false,"rental_uris":{"android":"levelo://app?vid=3ba1304f-2205-48b0-a22b-8bf8c4f12b9b","ios":"levelo://app?vid=3ba1304f-2205-48b0-a22b-8bf8c4f12b9b"},"vehicle_type_id":"4","last_reported":1728673629,"current_range_meters":38800,"station_id":"ce4bgs92rcd13ifvqcc0","pricing_plan_id":"cebpf4jnsgd1na2vs0mg"},{"bike_id":"958715cc-89ff-4de6-8ba7-8b3f2da527a8","system_id":"levelo_inurba_marseille","lat":43.30141,"lon":5.3742,"is_reserved":false,"is_disabled":false,"rental_uris":{"android":"levelo://app?vid=958715cc-89ff-4de6-8ba7-8b3f2da527a8","ios":"levelo://app?vid=958715cc-89ff-4de6-8ba7-8b3f2da527a8"},"vehicle_type_id":"4","last_reported":1728673629,"current_range_meters":10000,"station_id":"ce4bgs92rcd13ifvqcc0","pricing_plan_id":"cebpf4jnsgd1na2vs0mg"},{"bike_id":"0e8c5c5a-84c4-4c04-bad1-dfe387ccdee2","system_id":"levelo_inurba_marseille","lat":43.29886,"lon":5.388868,"is_reserved":false,"is_disabled":false,"rental_uris":{"android":"levelo://app?vid=0e8c5c5a-84c4-4c04-bad1-dfe387ccdee2","ios":"levelo://app?vid=0e8c5c5a-84c4-4c04-bad1-dfe387ccdee2"},"vehicle_type_id":"4","last_reported":1728673629,"current_range_meters":12400,"station_id":"ce4bh392rcd13ifvqdl0","pricing_plan_id":"cebpf4jnsgd1na2vs0mg"},{"bike_id":"85530627-6b39-4aea-aaf6-1d7f7ee57f97","system_id":"levelo_inurba_marseille","lat":43.27999,"lon":5.40015,"is_reserved":false,"is_disabled":false,"rental_uris":{"android":"levelo://app?vid=85530627-6b39-4aea-aaf6-1d7f7ee57f97","ios":"levelo://app?vid=85530627-6b39-4aea-aaf6-1d7f7ee57f97"},"vehicle_type_id":"4","last_reported":1728673629,"current_range_meters":10800,"station_id":"ce4bho92rcd13ifvqh4g","pricing_plan_id":"cebpf4jnsgd1na2vs0mg"},{"bike_id":"0b9ed06c-dfe3-4377-88a6-453312235a37","system_id":"levelo_inurba_marseille","lat":43.27618,"lon":5.36097,"is_reserved":false,"is_disabled":false,"rental_uris":{"android":"levelo://app?vid=0b9ed06c-dfe3-4377-88a6-453312235a37","ios":"levelo://app?vid=0b9ed06c-dfe3-4377-88a6-453312235a37"},"vehicle_type_id":"4","last_reported":1728673629,"current_range_meters":17600,"station_id":"ce4bgj92rcd13ifvqbe0","pricing_plan_id":"cebpf4jnsgd1na2vs0mg"},{"bike_id":"eb1dbf82-cae0-4248-84b2-0fe20cf423f3","system_id":"levelo_inurba_marseille","lat":43.25121,"lon":5.40318,"is_reserved":false,"is_disabled":false,"rental_uris":{"android":"levelo://app?vid=eb1dbf82-cae0-4248-84b2-0fe20cf423f3","ios":"levelo://app?vid=eb1dbf82-cae0-4248-84b2-0fe20cf423f3"},"vehicle_type_id":"4","last_reported":1728673629,"current_range_meters":9200,"station_id":"ce4bhlh2rcd13ifvqgig","pricing_plan_id":"cebpf4jnsgd1na2vs0mg"},{"bike_id":"be43a4c8-457c-4b62-abf1-6a459b92e456","system_id":"levelo_inurba_marseille","lat":43.30311,"lon":5.39212,"is_reserved":false,"is_disabled":false,"rental_uris":{"android":"levelo://app?vid=be43a4c8-457c-4b62-abf1-6a459b92e456","ios":"levelo://app?vid=be43a4c8-457c-4b62-abf1-6a459b92e456"},"vehicle_type_id":"4","last_reported":1728673629,"current_range_meters":37600,"station_id":"ce4bgkh2rcd13ifvqbk0","pricing_plan_id":"cebpf4jnsgd1na2vs0mg"},{"bike_id":"46ae086b-5e80-4196-addf-a159e9780d52","system_id":"levelo_inurba_marseille","lat":43.28725,"lon":5.37949,"is_reserved":false,"is_disabled":false,"rental_uris":{"android":"levelo://app?vid=46ae086b-5e80-4196-addf-a159e9780d52","ios":"levelo://app?vid=46ae086b-5e80-4196-addf-a159e9780d52"},"vehicle_type_id":"4","last_reported":1728673629,"current_range_meters":14800,"station_id":"ce4bh9p2rcd13ifvqec0","pricing_plan_id":"cebpf4jnsgd1na2vs0mg"},{"bike_id":"631afeb3-ff24-4869-b570-0bf0c9ce47b0","system_id":"levelo_inurba_marseille","lat":43.32111,"lon":5.38621,"is_reserved":false,"is_disabled":false,"rental_uris":{"android":"levelo://app?vid=631afeb3-ff24-4869-b570-0bf0c9ce47b0","ios":"levelo://app?vid=631afeb3-ff24-4869-b570-0bf0c9ce47b0"},"vehicle_type_id":"4","last_reported":1728673629,"current_range_meters":19600,"station_id":"","pricing_plan_id":"cebpf4jnsgd1na2vs0mg"},{"bike_id":"a343ef2a-9dab-4dfa-aae7-81033db70aac","system_id":"levelo_inurba_marseille","lat":43.23178,"lon":5.39988,"is_reserved":false,"is_disabled":false,"rental_uris":{"android":"levelo://app?vid=a343ef2a-9dab-4dfa-aae7-81033db70aac","ios":"levelo://app?vid=a343ef2a-9dab-4dfa-aae7-81033db70aac"},"vehicle_type_id":"4","last_reported":1728673629,"current_range_meters":20000,"station_id":"ce4bhn12rcd13ifvqgqg","pricing_plan_id":"cebpf4jnsgd1na2vs0mg"},{"bike_id":"28d5be62-c6ae-44f8-b5b7-cae9087907cf","system_id":"levelo_inurba_marseille","lat":43.3092,"lon":5.36846,"is_reserved":false,"is_disabled":false,"rental_uris":{"android":"levelo://app?vid=28d5be62-c6ae-44f8-b5b7-cae9087907cf","ios":"levelo://app?vid=28d5be62-c6ae-44f8-b5b7-cae9087907cf"},"vehicle_type_id":"4","last_reported":1728673629,"current_range_meters":14400,"station_id":"ce4bgn92rcd13ifvqbvg","pricing_plan_id":"cebpf4jnsgd1na2vs0mg"},{"bike_id":"5fcb6d55-6cb7-4638-b8d3-5d4be7b573c6","system_id":"levelo_inurba_marseille","lat":43.28293,"lon":5.40842,"is_reserved":false,"is_disabled":false,"rental_uris":{"android":"levelo://app?vid=5fcb6d55-6cb7-4638-b8d3-5d4be7b573c6","ios":"levelo://app?vid=5fcb6d55-6cb7-4638-b8d3-5d4be7b573c6"},"vehicle_type_id":"4","last_reported":1728673629,"current_range_meters":6400,"station_id":"","pricing_plan_id":"cebpf4jnsgd1na2vs0mg"},{"bike_id":"8b4a7f4e-2293-4f69-926d-891ed333be6d","system_id":"levelo_inurba_marseille","lat":43.29981,"lon":5.38483,"is_reserved":false,"is_disabled":false,"rental_uris":{"android":"levelo://app?vid=8b4a7f4e-2293-4f69-926d-891ed333be6d","ios":"levelo://app?vid=8b4a7f4e-2293-4f69-926d-891ed333be6d"},"vehicle_type_id":"4","last_reported":1728673629,"current_range_meters":7200,"station_id":"ce4bgj92rcd13ifvqbd0","pricing_plan_id":"cebpf4jnsgd1na2vs0mg"},{"bike_id":"b83f01fe-f978-438d-8449-fa50d3496dce","system_id":"levelo_inurba_marseille","lat":43.29425,"lon":5.38622,"is_reserved":false,"is_disabled":false,"rental_uris":{"android":"levelo://app?vid=b83f01fe-f978-438d-8449-fa50d3496dce","ios":"levelo://app?vid=b83f01fe-f978-438d-8449-fa50d3496dce"},"vehicle_type_id":"4","last_reported":1728673629,"current_range_meters":33200,"station_id":"ce4bh2h2rcd13ifvqdh0","pricing_plan_id":"cebpf4jnsgd1na2vs0mg"},{"bike_id":"e1416cd5-45db-4fa6-9467-5c652edd6827","system_id":"levelo_inurba_marseille","lat":43.25825,"lon":5.39439,"is_reserved":false,"is_disabled":false,"rental_uris":{"android":"levelo://app?vid=e1416cd5-45db-4fa6-9467-5c652edd6827","ios":"levelo://app?vid=e1416cd5-45db-4fa6-9467-5c652edd6827"},"vehicle_type_id":"4","last_reported":1728673629,"current_range_meters":38400,"station_id":"ce4bhip2rcd13ifvqft0","pricing_plan_id":"cebpf4jnsgd1na2vs0mg"},{"bike_id":"a8013766-c509-4b56-b6b6-fe046fd4c03a","system_id":"levelo_inurba_marseille","lat":43.29708,"lon":5.3661,"is_reserved":false,"is_disabled":false,"rental_uris":{"android":"levelo://app?vid=a8013766-c509-4b56-b6b6-fe046fd4c03a","ios":"levelo://app?vid=a8013766-c509-4b56-b6b6-fe046fd4c03a"},"vehicle_type_id":"4","last_reported":1728673629,"current_range_meters":23200,"station_id":"ce4bgn12rcd13ifvqbt0","pricing_plan_id":"cebpf4jnsgd1na2vs0mg"},{"bike_id":"2db38f0d-d2a2-48c2-b782-9333ef2c79cf","system_id":"levelo_inurba_marseille","lat":43.29845,"lon":5.36274,"is_reserved":false,"is_disabled":false,"rental_uris":{"android":"levelo://app?vid=2db38f0d-d2a2-48c2-b782-9333ef2c79cf","ios":"levelo://app?vid=2db38f0d-d2a2-48c2-b782-9333ef2c79cf"},"vehicle_type_id":"4","last_reported":1728673629,"current_range_meters":9200,"station_id":"ce4bgpp2rcd13ifvqc3g","pricing_plan_id":"cebpf4jnsgd1na2vs0mg"},{"bike_id":"1b3648a2-6391-4211-9a23-99cae3560f98","system_id":"levelo_inurba_marseille","lat":43.24071,"lon":5.37766,"is_reserved":false,"is_disabled":false,"rental_uris":{"android":"levelo://app?vid=1b3648a2-6391-4211-9a23-99cae3560f98","ios":"levelo://app?vid=1b3648a2-6391-4211-9a23-99cae3560f98"},"vehicle_type_id":"4","last_reported":1728673629,"current_range_meters":37600,"station_id":"ce4bhnp2rcd13ifvqgvg","pricing_plan_id":"cebpf4jnsgd1na2vs0mg"},{"bike_id":"d1c3a849-24a7-4a69-9dd7-4012a79359af","system_id":"levelo_inurba_marseille","lat":43.31532,"lon":5.38023,"is_reserved":false,"is_disabled":false,"rental_uris":{"android":"levelo://app?vid=d1c3a849-24a7-4a69-9dd7-4012a79359af","ios":"levelo://app?vid=d1c3a849-24a7-4a69-9dd7-4012a79359af"},"vehicle_type_id":"4","last_reported":1728673629,"current_range_meters":38800,"station_id":"ce4bhsp2rcd13ifvqi50","pricing_plan_id":"cebpf4jnsgd1na2vs0mg"},{"bike_id":"10a39e84-b261-4f4d-a653-678fdba0b7d0","system_id":"levelo_inurba_marseille","lat":43.279303,"lon":5.410439,"is_reserved":false,"is_disabled":false,"rental_uris":{"android":"levelo://app?vid=10a39e84-b261-4f4d-a653-678fdba0b7d0","ios":"levelo://app?vid=10a39e84-b261-4f4d-a653-678fdba0b7d0"},"vehicle_type_id":"4","last_reported":1728673629,"current_range_meters":24800,"station_id":"ce4bhnp2rcd13ifvqh0g","pricing_plan_id":"cebpf4jnsgd1na2vs0mg"},{"bike_id":"b27220ce-643c-4cda-b1cf-ddebfd37a8aa","system_id":"levelo_inurba_marseille","lat":43.23186,"lon":5.39986,"is_reserved":false,"is_disabled":false,"rental_uris":{"android":"levelo://app?vid=b27220ce-643c-4cda-b1cf-ddebfd37a8aa","ios":"levelo://app?vid=b27220ce-643c-4cda-b1cf-ddebfd37a8aa"},"vehicle_type_id":"4","last_reported":1728673629,"current_range_meters":39200,"station_id":"ce4bhn12rcd13ifvqgqg","pricing_plan_id":"cebpf4jnsgd1na2vs0mg"},{"bike_id":"70f98ebc-65a0-4324-a82f-94fd4918b797","system_id":"levelo_inurba_marseille","lat":43.29847,"lon":5.36286,"is_reserved":false,"is_disabled":false,"rental_uris":{"android":"levelo://app?vid=70f98ebc-65a0-4324-a82f-94fd4918b797","ios":"levelo://app?vid=70f98ebc-65a0-4324-a82f-94fd4918b797"},"vehicle_type_id":"4","last_reported":1728673629,"current_range_meters":6400,"station_id":"ce4bgpp2rcd13ifvqc3g","pricing_plan_id":"cebpf4jnsgd1na2vs0mg"},{"bike_id":"226b0ccb-c63c-4f4f-848e-3aab525c574e","system_id":"levelo_inurba_marseille","lat":43.27896,"lon":5.38016,"is_reserved":false,"is_disabled":false,"rental_uris":{"android":"levelo://app?vid=226b0ccb-c63c-4f4f-848e-3aab525c574e","ios":"levelo://app?vid=226b0ccb-c63c-4f4f-848e-3aab525c574e"},"vehicle_type_id":"4","last_reported":1728673629,"current_range_meters":38800,"station_id":"ce4bhf92rcd13ifvqf50","pricing_plan_id":"cebpf4jnsgd1na2vs0mg"},{"bike_id":"05c2c2e3-557f-4eb0-8078-0df2106ed97d","system_id":"levelo_inurba_marseille","lat":43.29296,"lon":5.3746,"is_reserved":false,"is_disabled":false,"rental_uris":{"android":"levelo://app?vid=05c2c2e3-557f-4eb0-8078-0df2106ed97d","ios":"levelo://app?vid=05c2c2e3-557f-4eb0-8078-0df2106ed97d"},"vehicle_type_id":"4","last_reported":1728673629,"current_range_meters":38800,"station_id":"ce4bgi12rcd13ifvqb70","pricing_plan_id":"cebpf4jnsgd1na2vs0mg"},{"bike_id":"c2709d8c-182c-4c66-9678-32143d413767","system_id":"levelo_inurba_marseille","lat":43.2293,"lon":5.35377,"is_reserved":false,"is_disabled":false,"rental_uris":{"android":"levelo://app?vid=c2709d8c-182c-4c66-9678-32143d413767","ios":"levelo://app?vid=c2709d8c-182c-4c66-9678-32143d413767"},"vehicle_type_id":"4","last_reported":1728673629,"current_range_meters":29600,"station_id":"cpo3532slgdg3j2ikp40","pricing_plan_id":"cebpf4jnsgd1na2vs0mg"},{"bike_id":"9795e3a8-775d-458a-888e-29d10d28be1a","system_id":"levelo_inurba_marseille","lat":43.28286,"lon":5.35181,"is_reserved":false,"is_disabled":false,"rental_uris":{"android":"levelo://app?vid=9795e3a8-775d-458a-888e-29d10d28be1a","ios":"levelo://app?vid=9795e3a8-775d-458a-888e-29d10d28be1a"},"vehicle_type_id":"4","last_reported":1728673629,"current_range_meters":9600,"station_id":"","pricing_plan_id":"cebpf4jnsgd1na2vs0mg"},{"bike_id":"f12644fc-a7d3-4c8f-a966-708bb04f1d54","system_id":"levelo_inurba_marseille","lat":43.29845,"lon":5.36277,"is_reserved":false,"is_disabled":false,"rental_uris":{"android":"levelo://app?vid=f12644fc-a7d3-4c8f-a966-708bb04f1d54","ios":"levelo://app?vid=f12644fc-a7d3-4c8f-a966-708bb04f1d54"},"vehicle_type_id":"4","last_reported":1728673629,"current_range_meters":22800,"station_id":"ce4bgpp2rcd13ifvqc3g","pricing_plan_id":"cebpf4jnsgd1na2vs0mg"},{"bike_id":"189bb79b-d474-42a2-8928-d5c2e5f14291","system_id":"levelo_inurba_marseille","lat":43.29879,"lon":5.38914,"is_reserved":false,"is_disabled":false,"rental_uris":{"android":"levelo://app?vid=189bb79b-d474-42a2-8928-d5c2e5f14291","ios":"levelo://app?vid=189bb79b-d474-42a2-8928-d5c2e5f14291"},"vehicle_type_id":"4","last_reported":1728673629,"current_range_meters":2800,"station_id":"ce4bh392rcd13ifvqdl0","pricing_plan_id":"cebpf4jnsgd1na2vs0mg"},{"bike_id":"3a5c62f3-0bb5-4b1d-a686-25d7dc6caf15","system_id":"levelo_inurba_marseille","lat":43.28079,"lon":5.39679,"is_reserved":false,"is_disabled":false,"rental_uris":{"android":"levelo://app?vid=3a5c62f3-0bb5-4b1d-a686-25d7dc6caf15","ios":"levelo://app?vid=3a5c62f3-0bb5-4b1d-a686-25d7dc6caf15"},"vehicle_type_id":"4","last_reported":1728673629,"current_range_meters":38800,"station_id":"ce4bho12rcd13ifvqh2g","pricing_plan_id":"cebpf4jnsgd1na2vs0mg"},{"bike_id":"ea4e822d-5c26-4348-9712-13dc92b51d6e","system_id":"levelo_inurba_marseille","lat":43.32537,"lon":5.41443,"is_reserved":false,"is_disabled":false,"rental_uris":{"android":"levelo://app?vid=ea4e822d-5c26-4348-9712-13dc92b51d6e","ios":"levelo://app?vid=ea4e822d-5c26-4348-9712-13dc92b51d6e"},"vehicle_type_id":"4","last_reported":1728673629,"current_range_meters":36400,"station_id":"ce4bhq12rcd13ifvqhhg","pricing_plan_id":"cebpf4jnsgd1na2vs0mg"},{"bike_id":"fe499ee7-6375-4ecd-b57e-a932fe0f65cf","system_id":"levelo_inurba_marseille","lat":43.33728,"lon":5.39183,"is_reserved":false,"is_disabled":false,"rental_uris":{"android":"levelo://app?vid=fe499ee7-6375-4ecd-b57e-a932fe0f65cf","ios":"levelo://app?vid=fe499ee7-6375-4ecd-b57e-a932fe0f65cf"},"vehicle_type_id":"4","last_reported":1728673629,"current_range_meters":12400,"station_id":"ce4bhr92rcd13ifvqhsg","pricing_plan_id":"cebpf4jnsgd1na2vs0mg"},{"bike_id":"fbffa957-ac49-4590-b223-7d57f26e111b","system_id":"levelo_inurba_marseille","lat":43.32255,"lon":5.3827,"is_reserved":false,"is_disabled":false,"rental_uris":{"android":"levelo://app?vid=fbffa957-ac49-4590-b223-7d57f26e111b","ios":"levelo://app?vid=fbffa957-ac49-4590-b223-7d57f26e111b"},"vehicle_type_id":"4","last_reported":1728673629,"current_range_meters":32400,"station_id":"ce4bhr12rcd13ifvqhqg","pricing_plan_id":"cebpf4jnsgd1na2vs0mg"},{"bike_id":"ac03a479-46d0-4fa1-b7d4-7d04e5c49fa6","system_id":"levelo_inurba_marseille","lat":43.2439,"lon":5.37062,"is_reserved":false,"is_disabled":false,"rental_uris":{"android":"levelo://app?vid=ac03a479-46d0-4fa1-b7d4-7d04e5c49fa6","ios":"levelo://app?vid=ac03a479-46d0-4fa1-b7d4-7d04e5c49fa6"},"vehicle_type_id":"4","last_reported":1728673629,"current_range_meters":37600,"station_id":"ce4bhhh2rcd13ifvqfk0","pricing_plan_id":"cebpf4jnsgd1na2vs0mg"},{"bike_id":"3bd6033b-b9e1-4e43-9cda-44c3e3f9f5ad","system_id":"levelo_inurba_marseille","lat":43.32332,"lon":5.40625,"is_reserved":false,"is_disabled":false,"rental_uris":{"android":"levelo://app?vid=3bd6033b-b9e1-4e43-9cda-44c3e3f9f5ad","ios":"levelo://app?vid=3bd6033b-b9e1-4e43-9cda-44c3e3f9f5ad"},"vehicle_type_id":"4","last_reported":1728673629,"current_range_meters":25200,"station_id":"ce4bhq92rcd13ifvqhjg","pricing_plan_id":"cebpf4jnsgd1na2vs0mg"},{"bike_id":"b1622170-9894-43ce-b3b4-af1b18098dd6","system_id":"levelo_inurba_marseille","lat":43.30251,"lon":5.40071,"is_reserved":false,"is_disabled":false,"rental_uris":{"android":"levelo://app?vid=b1622170-9894-43ce-b3b4-af1b18098dd6","ios":"levelo://app?vid=b1622170-9894-43ce-b3b4-af1b18098dd6"},"vehicle_type_id":"4","last_reported":1728673629,"current_range_meters":9200,"station_id":"ce4bgvh2rcd13ifvqcs0","pricing_plan_id":"cebpf4jnsgd1na2vs0mg"},{"bike_id":"b67e0f8a-beb9-4076-a145-d0b84875ebbc","system_id":"levelo_inurba_marseille","lat":43.30587,"lon":5.39327,"is_reserved":false,"is_disabled":false,"rental_uris":{"android":"levelo://app?vid=b67e0f8a-beb9-4076-a145-d0b84875ebbc","ios":"levelo://app?vid=b67e0f8a-beb9-4076-a145-d0b84875ebbc"},"vehicle_type_id":"4","last_reported":1728673629,"current_range_meters":38800,"station_id":"ce4bh0p2rcd13ifvqd80","pricing_plan_id":"cebpf4jnsgd1na2vs0mg"},{"bike_id":"39969d66-6001-4fa3-b225-36d5d389d184","system_id":"levelo_inurba_marseille","lat":43.27999,"lon":5.40003,"is_reserved":false,"is_disabled":false,"rental_uris":{"android":"levelo://app?vid=39969d66-6001-4fa3-b225-36d5d389d184","ios":"levelo://app?vid=39969d66-6001-4fa3-b225-36d5d389d184"},"vehicle_type_id":"4","last_reported":1728673629,"current_range_meters":31200,"station_id":"ce4bho92rcd13ifvqh4g","pricing_plan_id":"cebpf4jnsgd1na2vs0mg"},{"bike_id":"62523e9b-ab13-4ca8-a3d7-ee7620b0f82f","system_id":"levelo_inurba_marseille","lat":43.29418,"lon":5.38615,"is_reserved":false,"is_disabled":false,"rental_uris":{"android":"levelo://app?vid=62523e9b-ab13-4ca8-a3d7-ee7620b0f82f","ios":"levelo://app?vid=62523e9b-ab13-4ca8-a3d7-ee7620b0f82f"},"vehicle_type_id":"4","last_reported":1728673629,"current_range_meters":3600,"station_id":"ce4bh2h2rcd13ifvqdh0","pricing_plan_id":"cebpf4jnsgd1na2vs0mg"},{"bike_id":"d672b28f-aa4d-4fec-8399-b282fa4fc090","system_id":"levelo_inurba_marseille","lat":43.27176,"lon":5.40993,"is_reserved":false,"is_disabled":false,"rental_uris":{"android":"levelo://app?vid=d672b28f-aa4d-4fec-8399-b282fa4fc090","ios":"levelo://app?vid=d672b28f-aa4d-4fec-8399-b282fa4fc090"},"vehicle_type_id":"4","last_reported":1728673629,"current_range_meters":10800,"station_id":"ce4bhl12rcd13ifvqgf0","pricing_plan_id":"cebpf4jnsgd1na2vs0mg"},{"bike_id":"997661f4-fb1e-411e-adfb-166273c08511","system_id":"levelo_inurba_marseille","lat":43.296295,"lon":5.405891,"is_reserved":false,"is_disabled":false,"rental_uris":{"android":"levelo://app?vid=997661f4-fb1e-411e-adfb-166273c08511","ios":"levelo://app?vid=997661f4-fb1e-411e-adfb-166273c08511"},"vehicle_type_id":"4","last_reported":1728673629,"current_range_meters":5600,"station_id":"ce4bgk12rcd13ifvqbi0","pricing_plan_id":"cebpf4jnsgd1na2vs0mg"},{"bike_id":"ba93cdf0-87a0-4d72-a75e-4f75b7d84654","system_id":"levelo_inurba_marseille","lat":43.29844,"lon":5.36282,"is_reserved":false,"is_disabled":false,"rental_uris":{"android":"levelo://app?vid=ba93cdf0-87a0-4d72-a75e-4f75b7d84654","ios":"levelo://app?vid=ba93cdf0-87a0-4d72-a75e-4f75b7d84654"},"vehicle_type_id":"4","last_reported":1728673629,"current_range_meters":6000,"station_id":"ce4bgpp2rcd13ifvqc3g","pricing_plan_id":"cebpf4jnsgd1na2vs0mg"},{"bike_id":"87e99ecb-b54c-4ba1-a945-d02e54da47b9","system_id":"levelo_inurba_marseille","lat":43.28701,"lon":5.37394,"is_reserved":false,"is_disabled":false,"rental_uris":{"android":"levelo://app?vid=87e99ecb-b54c-4ba1-a945-d02e54da47b9","ios":"levelo://app?vid=87e99ecb-b54c-4ba1-a945-d02e54da47b9"},"vehicle_type_id":"4","last_reported":1728673629,"current_range_meters":33200,"station_id":"ce4bh3p2rcd13ifvqdq0","pricing_plan_id":"cebpf4jnsgd1na2vs0mg"},{"bike_id":"8f49006a-5ca6-457b-be43-0fed33b4e59d","system_id":"levelo_inurba_marseille","lat":43.31691,"lon":5.40477,"is_reserved":false,"is_disabled":false,"rental_uris":{"android":"levelo://app?vid=8f49006a-5ca6-457b-be43-0fed33b4e59d","ios":"levelo://app?vid=8f49006a-5ca6-457b-be43-0fed33b4e59d"},"vehicle_type_id":"4","last_reported":1728673629,"current_range_meters":4400,"station_id":"ce4bh012rcd13ifvqd00","pricing_plan_id":"cebpf4jnsgd1na2vs0mg"},{"bike_id":"573ada2f-25ee-496e-b11d-86ef27bd3232","system_id":"levelo_inurba_marseille","lat":43.28026,"lon":5.36945,"is_reserved":false,"is_disabled":false,"rental_uris":{"android":"levelo://app?vid=573ada2f-25ee-496e-b11d-86ef27bd3232","ios":"levelo://app?vid=573ada2f-25ee-496e-b11d-86ef27bd3232"},"vehicle_type_id":"4","last_reported":1728673629,"current_range_meters":16400,"station_id":"ce4bha12rcd13ifvqef0","pricing_plan_id":"cebpf4jnsgd1na2vs0mg"},{"bike_id":"43c9404a-94a6-4312-ba19-34f87f21dfc7","system_id":"levelo_inurba_marseille","lat":43.2872,"lon":5.39987,"is_reserved":false,"is_disabled":false,"rental_uris":{"android":"levelo://app?vid=43c9404a-94a6-4312-ba19-34f87f21dfc7","ios":"levelo://app?vid=43c9404a-94a6-4312-ba19-34f87f21dfc7"},"vehicle_type_id":"4","last_reported":1728673629,"current_range_meters":23200,"station_id":"ce4bho92rcd13ifvqh3g","pricing_plan_id":"cebpf4jnsgd1na2vs0mg"},{"bike_id":"2d04de68-d120-472d-8fa1-487ce4100c0c","system_id":"levelo_inurba_marseille","lat":43.29848,"lon":5.36289,"is_reserved":false,"is_disabled":false,"rental_uris":{"android":"levelo://app?vid=2d04de68-d120-472d-8fa1-487ce4100c0c","ios":"levelo://app?vid=2d04de68-d120-472d-8fa1-487ce4100c0c"},"vehicle_type_id":"4","last_reported":1728673629,"current_range_meters":7200,"station_id":"ce4bgpp2rcd13ifvqc3g","pricing_plan_id":"cebpf4jnsgd1na2vs0mg"},{"bike_id":"d4cf8c25-ba43-4224-aa32-c57be9cb781c","system_id":"levelo_inurba_marseille","lat":43.30606,"lon":5.37228,"is_reserved":false,"is_disabled":false,"rental_uris":{"android":"levelo://app?vid=d4cf8c25-ba43-4224-aa32-c57be9cb781c","ios":"levelo://app?vid=d4cf8c25-ba43-4224-aa32-c57be9cb781c"},"vehicle_type_id":"4","last_reported":1728673629,"current_range_meters":10800,"station_id":"ce4bgqh2rcd13ifvqc4g","pricing_plan_id":"cebpf4jnsgd1na2vs0mg"},{"bike_id":"ff68b789-7173-415f-860f-fb58c1b9d01d","system_id":"levelo_inurba_marseille","lat":43.22929,"lon":5.3538,"is_reserved":false,"is_disabled":false,"rental_uris":{"android":"levelo://app?vid=ff68b789-7173-415f-860f-fb58c1b9d01d","ios":"levelo://app?vid=ff68b789-7173-415f-860f-fb58c1b9d01d"},"vehicle_type_id":"4","last_reported":1728673629,"current_range_meters":29600,"station_id":"cpo3532slgdg3j2ikp40","pricing_plan_id":"cebpf4jnsgd1na2vs0mg"},{"bike_id":"f481419e-c9bc-4543-bc81-8d52ba6d3ff2","system_id":"levelo_inurba_marseille","lat":43.27995,"lon":5.39992,"is_reserved":false,"is_disabled":false,"rental_uris":{"android":"levelo://app?vid=f481419e-c9bc-4543-bc81-8d52ba6d3ff2","ios":"levelo://app?vid=f481419e-c9bc-4543-bc81-8d52ba6d3ff2"},"vehicle_type_id":"4","last_reported":1728673629,"current_range_meters":26800,"station_id":"ce4bho92rcd13ifvqh4g","pricing_plan_id":"cebpf4jnsgd1na2vs0mg"},{"bike_id":"58e3dc66-26c6-483d-aadc-542552480eff","system_id":"levelo_inurba_marseille","lat":43.27178,"lon":5.40991,"is_reserved":false,"is_disabled":false,"rental_uris":{"android":"levelo://app?vid=58e3dc66-26c6-483d-aadc-542552480eff","ios":"levelo://app?vid=58e3dc66-26c6-483d-aadc-542552480eff"},"vehicle_type_id":"4","last_reported":1728673629,"current_range_meters":37600,"station_id":"ce4bhl12rcd13ifvqgf0","pricing_plan_id":"cebpf4jnsgd1na2vs0mg"},{"bike_id":"6cb5b02c-2401-484a-8b7d-b4d2106d6b08","system_id":"levelo_inurba_marseille","lat":43.2319,"lon":5.35558,"is_reserved":false,"is_disabled":false,"rental_uris":{"android":"levelo://app?vid=6cb5b02c-2401-484a-8b7d-b4d2106d6b08","ios":"levelo://app?vid=6cb5b02c-2401-484a-8b7d-b4d2106d6b08"},"vehicle_type_id":"4","last_reported":1728673629,"current_range_meters":35600,"station_id":"ce4bhu92rcd13ifvqi70","pricing_plan_id":"cebpf4jnsgd1na2vs0mg"},{"bike_id":"751ab8f4-b66e-4832-9b92-433be04fd785","system_id":"levelo_inurba_marseille","lat":43.33025,"lon":5.39037,"is_reserved":false,"is_disabled":false,"rental_uris":{"android":"levelo://app?vid=751ab8f4-b66e-4832-9b92-433be04fd785","ios":"levelo://app?vid=751ab8f4-b66e-4832-9b92-433be04fd785"},"vehicle_type_id":"4","last_reported":1728673629,"current_range_meters":27600,"station_id":"ce4bhr92rcd13ifvqhrg","pricing_plan_id":"cebpf4jnsgd1na2vs0mg"},{"bike_id":"7ac7e627-06e3-49fc-b1d7-b6203dd7d747","system_id":"levelo_inurba_marseille","lat":43.3176,"lon":5.39002,"is_reserved":false,"is_disabled":false,"rental_uris":{"android":"levelo://app?vid=7ac7e627-06e3-49fc-b1d7-b6203dd7d747","ios":"levelo://app?vid=7ac7e627-06e3-49fc-b1d7-b6203dd7d747"},"vehicle_type_id":"4","last_reported":1728673629,"current_range_meters":8000,"station_id":"ce4bhqp2rcd13ifvqhng","pricing_plan_id":"cebpf4jnsgd1na2vs0mg"},{"bike_id":"52320520-d1a2-4828-bcfb-efe520e9090a","system_id":"levelo_inurba_marseille","lat":43.27209,"lon":5.39184,"is_reserved":false,"is_disabled":false,"rental_uris":{"android":"levelo://app?vid=52320520-d1a2-4828-bcfb-efe520e9090a","ios":"levelo://app?vid=52320520-d1a2-4828-bcfb-efe520e9090a"},"vehicle_type_id":"4","last_reported":1728673629,"current_range_meters":11600,"station_id":"ce4bhhp2rcd13ifvqfm0","pricing_plan_id":"cebpf4jnsgd1na2vs0mg"},{"bike_id":"3df20931-abf2-4be1-8508-52c13739bd89","system_id":"levelo_inurba_marseille","lat":43.24172,"lon":5.39728,"is_reserved":false,"is_disabled":false,"rental_uris":{"android":"levelo://app?vid=3df20931-abf2-4be1-8508-52c13739bd89","ios":"levelo://app?vid=3df20931-abf2-4be1-8508-52c13739bd89"},"vehicle_type_id":"4","last_reported":1728673629,"current_range_meters":25200,"station_id":"ce4bhn12rcd13ifvqgpg","pricing_plan_id":"cebpf4jnsgd1na2vs0mg"},{"bike_id":"b255f080-97bf-4c44-8524-2ae6e27cf0bc","system_id":"levelo_inurba_marseille","lat":43.28005,"lon":5.40005,"is_reserved":false,"is_disabled":false,"rental_uris":{"android":"levelo://app?vid=b255f080-97bf-4c44-8524-2ae6e27cf0bc","ios":"levelo://app?vid=b255f080-97bf-4c44-8524-2ae6e27cf0bc"},"vehicle_type_id":"4","last_reported":1728673629,"current_range_meters":38800,"station_id":"ce4bho92rcd13ifvqh4g","pricing_plan_id":"cebpf4jnsgd1na2vs0mg"},{"bike_id":"915990ee-de15-4feb-a1f7-ce4cfdb870b2","system_id":"levelo_inurba_marseille","lat":43.29849,"lon":5.36289,"is_reserved":false,"is_disabled":false,"rental_uris":{"android":"levelo://app?vid=915990ee-de15-4feb-a1f7-ce4cfdb870b2","ios":"levelo://app?vid=915990ee-de15-4feb-a1f7-ce4cfdb870b2"},"vehicle_type_id":"4","last_reported":1728673629,"current_range_meters":22000,"station_id":"ce4bgpp2rcd13ifvqc3g","pricing_plan_id":"cebpf4jnsgd1na2vs0mg"},{"bike_id":"3f33ac65-84c2-4b85-b022-d3064e572be0","system_id":"levelo_inurba_marseille","lat":43.29766,"lon":5.37101,"is_reserved":false,"is_disabled":false,"rental_uris":{"android":"levelo://app?vid=3f33ac65-84c2-4b85-b022-d3064e572be0","ios":"levelo://app?vid=3f33ac65-84c2-4b85-b022-d3064e572be0"},"vehicle_type_id":"4","last_reported":1728673629,"current_range_meters":28000,"station_id":"ce4bgop2rcd13ifvqc1g","pricing_plan_id":"cebpf4jnsgd1na2vs0mg"},{"bike_id":"f80c2e75-b47f-4161-9783-8454957aba75","system_id":"levelo_inurba_marseille","lat":43.32097,"lon":5.3677,"is_reserved":false,"is_disabled":false,"rental_uris":{"android":"levelo://app?vid=f80c2e75-b47f-4161-9783-8454957aba75","ios":"levelo://app?vid=f80c2e75-b47f-4161-9783-8454957aba75"},"vehicle_type_id":"4","last_reported":1728673629,"current_range_meters":38800,"station_id":"ce4bhrh2rcd13ifvqhug","pricing_plan_id":"cebpf4jnsgd1na2vs0mg"},{"bike_id":"a7b5e1b5-4ccc-4728-b45d-9adec9becb5d","system_id":"levelo_inurba_marseille","lat":43.30805,"lon":5.43517,"is_reserved":false,"is_disabled":false,"rental_uris":{"android":"levelo://app?vid=a7b5e1b5-4ccc-4728-b45d-9adec9becb5d","ios":"levelo://app?vid=a7b5e1b5-4ccc-4728-b45d-9adec9becb5d"},"vehicle_type_id":"4","last_reported":1728673629,"current_range_meters":19200,"station_id":"ce4bhph2rcd13ifvqheg","pricing_plan_id":"cebpf4jnsgd1na2vs0mg"},{"bike_id":"fb2ee3ac-f1e9-4d68-b503-6deb196a8207","system_id":"levelo_inurba_marseille","lat":43.23154,"lon":5.43712,"is_reserved":false,"is_disabled":false,"rental_uris":{"android":"levelo://app?vid=fb2ee3ac-f1e9-4d68-b503-6deb196a8207","ios":"levelo://app?vid=fb2ee3ac-f1e9-4d68-b503-6deb196a8207"},"vehicle_type_id":"4","last_reported":1728673629,"current_range_meters":27200,"station_id":"ce4bhmp2rcd13ifvqgog","pricing_plan_id":"cebpf4jnsgd1na2vs0mg"},{"bike_id":"5cd086e3-41cc-466d-9dba-eb245c88c63e","system_id":"levelo_inurba_marseille","lat":43.24178,"lon":5.39729,"is_reserved":false,"is_disabled":false,"rental_uris":{"android":"levelo://app?vid=5cd086e3-41cc-466d-9dba-eb245c88c63e","ios":"levelo://app?vid=5cd086e3-41cc-466d-9dba-eb245c88c63e"},"vehicle_type_id":"4","last_reported":1728673629,"current_range_meters":14000,"station_id":"ce4bhn12rcd13ifvqgpg","pricing_plan_id":"cebpf4jnsgd1na2vs0mg"},{"bike_id":"3c3d772e-e03a-4fcc-9a29-c126fef1786c","system_id":"levelo_inurba_marseille","lat":43.31077,"lon":5.38362,"is_reserved":false,"is_disabled":false,"rental_uris":{"android":"levelo://app?vid=3c3d772e-e03a-4fcc-9a29-c126fef1786c","ios":"levelo://app?vid=3c3d772e-e03a-4fcc-9a29-c126fef1786c"},"vehicle_type_id":"4","last_reported":1728673629,"current_range_meters":4400,"station_id":"ce4bgv92rcd13ifvqcr0","pricing_plan_id":"cebpf4jnsgd1na2vs0mg"},{"bike_id":"df17eff2-8021-4979-a2b0-b8b956c3dafc","system_id":"levelo_inurba_marseille","lat":43.27176,"lon":5.40986,"is_reserved":false,"is_disabled":false,"rental_uris":{"android":"levelo://app?vid=df17eff2-8021-4979-a2b0-b8b956c3dafc","ios":"levelo://app?vid=df17eff2-8021-4979-a2b0-b8b956c3dafc"},"vehicle_type_id":"4","last_reported":1728673629,"current_range_meters":6800,"station_id":"ce4bhl12rcd13ifvqgf0","pricing_plan_id":"cebpf4jnsgd1na2vs0mg"},{"bike_id":"97ac59d5-b309-4922-9555-c25d4fd9fb6f","system_id":"levelo_inurba_marseille","lat":43.27941,"lon":5.41055,"is_reserved":false,"is_disabled":false,"rental_uris":{"android":"levelo://app?vid=97ac59d5-b309-4922-9555-c25d4fd9fb6f","ios":"levelo://app?vid=97ac59d5-b309-4922-9555-c25d4fd9fb6f"},"vehicle_type_id":"4","last_reported":1728673629,"current_range_meters":10000,"station_id":"ce4bhnp2rcd13ifvqh0g","pricing_plan_id":"cebpf4jnsgd1na2vs0mg"},{"bike_id":"b0c74578-c598-4913-bba5-5a9cd08c4263","system_id":"levelo_inurba_marseille","lat":43.29849,"lon":5.36271,"is_reserved":false,"is_disabled":false,"rental_uris":{"android":"levelo://app?vid=b0c74578-c598-4913-bba5-5a9cd08c4263","ios":"levelo://app?vid=b0c74578-c598-4913-bba5-5a9cd08c4263"},"vehicle_type_id":"4","last_reported":1728673629,"current_range_meters":6400,"station_id":"ce4bgpp2rcd13ifvqc3g","pricing_plan_id":"cebpf4jnsgd1na2vs0mg"},{"bike_id":"b933402b-d1ca-49a8-bbf7-fb19281d941c","system_id":"levelo_inurba_marseille","lat":43.23191,"lon":5.35552,"is_reserved":false,"is_disabled":false,"rental_uris":{"android":"levelo://app?vid=b933402b-d1ca-49a8-bbf7-fb19281d941c","ios":"levelo://app?vid=b933402b-d1ca-49a8-bbf7-fb19281d941c"},"vehicle_type_id":"4","last_reported":1728673629,"current_range_meters":25600,"station_id":"ce4bhu92rcd13ifvqi70","pricing_plan_id":"cebpf4jnsgd1na2vs0mg"},{"bike_id":"12f13027-1f3c-4bfb-9359-c292cd117ea9","system_id":"levelo_inurba_marseille","lat":43.29909,"lon":5.3748,"is_reserved":false,"is_disabled":false,"rental_uris":{"android":"levelo://app?vid=12f13027-1f3c-4bfb-9359-c292cd117ea9","ios":"levelo://app?vid=12f13027-1f3c-4bfb-9359-c292cd117ea9"},"vehicle_type_id":"4","last_reported":1728673629,"current_range_meters":17200,"station_id":"ce4bgjh2rcd13ifvqbg0","pricing_plan_id":"cebpf4jnsgd1na2vs0mg"},{"bike_id":"09fbeae1-d6fc-4f1c-8dd4-e9d4a152174d","system_id":"levelo_inurba_marseille","lat":43.30911,"lon":5.36839,"is_reserved":false,"is_disabled":false,"rental_uris":{"android":"levelo://app?vid=09fbeae1-d6fc-4f1c-8dd4-e9d4a152174d","ios":"levelo://app?vid=09fbeae1-d6fc-4f1c-8dd4-e9d4a152174d"},"vehicle_type_id":"4","last_reported":1728673629,"current_range_meters":38800,"station_id":"ce4bgn92rcd13ifvqbvg","pricing_plan_id":"cebpf4jnsgd1na2vs0mg"},{"bike_id":"2e3b0b1c-c94e-4482-87a0-d3f91bc842ff","system_id":"levelo_inurba_marseille","lat":43.29099,"lon":5.38164,"is_reserved":false,"is_disabled":false,"rental_uris":{"android":"levelo://app?vid=2e3b0b1c-c94e-4482-87a0-d3f91bc842ff","ios":"levelo://app?vid=2e3b0b1c-c94e-4482-87a0-d3f91bc842ff"},"vehicle_type_id":"4","last_reported":1728673629,"current_range_meters":17600,"station_id":"ce4bh512rcd13ifvqe2g","pricing_plan_id":"cebpf4jnsgd1na2vs0mg"},{"bike_id":"97b0fb21-dfe8-49dd-93c2-fbef45df06a4","system_id":"levelo_inurba_marseille","lat":43.29846,"lon":5.36289,"is_reserved":false,"is_disabled":false,"rental_uris":{"android":"levelo://app?vid=97b0fb21-dfe8-49dd-93c2-fbef45df06a4","ios":"levelo://app?vid=97b0fb21-dfe8-49dd-93c2-fbef45df06a4"},"vehicle_type_id":"4","last_reported":1728673629,"current_range_meters":20000,"station_id":"ce4bgpp2rcd13ifvqc3g","pricing_plan_id":"cebpf4jnsgd1na2vs0mg"},{"bike_id":"85ac36f5-e5e4-4eda-a841-a189c316ee47","system_id":"levelo_inurba_marseille","lat":43.26491,"lon":5.39545,"is_reserved":false,"is_disabled":false,"rental_uris":{"android":"levelo://app?vid=85ac36f5-e5e4-4eda-a841-a189c316ee47","ios":"levelo://app?vid=85ac36f5-e5e4-4eda-a841-a189c316ee47"},"vehicle_type_id":"4","last_reported":1728673629,"current_range_meters":37600,"station_id":"ce4bhi12rcd13ifvqfq0","pricing_plan_id":"cebpf4jnsgd1na2vs0mg"},{"bike_id":"484a4c63-4ef1-4433-b27a-9a9ca5ad2f9a","system_id":"levelo_inurba_marseille","lat":43.22926,"lon":5.35381,"is_reserved":false,"is_disabled":false,"rental_uris":{"android":"levelo://app?vid=484a4c63-4ef1-4433-b27a-9a9ca5ad2f9a","ios":"levelo://app?vid=484a4c63-4ef1-4433-b27a-9a9ca5ad2f9a"},"vehicle_type_id":"4","last_reported":1728673629,"current_range_meters":14800,"station_id":"cpo3532slgdg3j2ikp40","pricing_plan_id":"cebpf4jnsgd1na2vs0mg"},{"bike_id":"10d96b99-0cf7-4f0c-9a30-6a757bf85829","system_id":"levelo_inurba_marseille","lat":43.27371,"lon":5.3626,"is_reserved":false,"is_disabled":false,"rental_uris":{"android":"levelo://app?vid=10d96b99-0cf7-4f0c-9a30-6a757bf85829","ios":"levelo://app?vid=10d96b99-0cf7-4f0c-9a30-6a757bf85829"},"vehicle_type_id":"4","last_reported":1728673629,"current_range_meters":14400,"station_id":"ce4bhbh2rcd13ifvqeo0","pricing_plan_id":"cebpf4jnsgd1na2vs0mg"},{"bike_id":"e6336660-e5d0-4336-aab6-9e2081b4b551","system_id":"levelo_inurba_marseille","lat":43.33721,"lon":5.39191,"is_reserved":false,"is_disabled":false,"rental_uris":{"android":"levelo://app?vid=e6336660-e5d0-4336-aab6-9e2081b4b551","ios":"levelo://app?vid=e6336660-e5d0-4336-aab6-9e2081b4b551"},"vehicle_type_id":"4","last_reported":1728673629,"current_range_meters":27600,"station_id":"ce4bhr92rcd13ifvqhsg","pricing_plan_id":"cebpf4jnsgd1na2vs0mg"},{"bike_id":"39bb093e-1fb0-4fe9-a7de-f970ccf3512f","system_id":"levelo_inurba_marseille","lat":43.22932,"lon":5.35378,"is_reserved":false,"is_disabled":false,"rental_uris":{"android":"levelo://app?vid=39bb093e-1fb0-4fe9-a7de-f970ccf3512f","ios":"levelo://app?vid=39bb093e-1fb0-4fe9-a7de-f970ccf3512f"},"vehicle_type_id":"4","last_reported":1728673629,"current_range_meters":24400,"station_id":"cpo3532slgdg3j2ikp40","pricing_plan_id":"cebpf4jnsgd1na2vs0mg"},{"bike_id":"882f833c-8863-4f43-b90e-74f92bc6adcf","system_id":"levelo_inurba_marseille","lat":43.28038,"lon":5.36953,"is_reserved":false,"is_disabled":false,"rental_uris":{"android":"levelo://app?vid=882f833c-8863-4f43-b90e-74f92bc6adcf","ios":"levelo://app?vid=882f833c-8863-4f43-b90e-74f92bc6adcf"},"vehicle_type_id":"4","last_reported":1728673629,"current_range_meters":5600,"station_id":"ce4bha12rcd13ifvqef0","pricing_plan_id":"cebpf4jnsgd1na2vs0mg"},{"bike_id":"c7932ebc-40c2-41af-92e1-9d5f28b5738a","system_id":"levelo_inurba_marseille","lat":43.2318,"lon":5.3999,"is_reserved":false,"is_disabled":false,"rental_uris":{"android":"levelo://app?vid=c7932ebc-40c2-41af-92e1-9d5f28b5738a","ios":"levelo://app?vid=c7932ebc-40c2-41af-92e1-9d5f28b5738a"},"vehicle_type_id":"4","last_reported":1728673629,"current_range_meters":7200,"station_id":"ce4bhn12rcd13ifvqgqg","pricing_plan_id":"cebpf4jnsgd1na2vs0mg"},{"bike_id":"cd66927f-2970-4f86-ae74-1552ca666b9c","system_id":"levelo_inurba_marseille","lat":43.2993,"lon":5.36566,"is_reserved":false,"is_disabled":false,"rental_uris":{"android":"levelo://app?vid=cd66927f-2970-4f86-ae74-1552ca666b9c","ios":"levelo://app?vid=cd66927f-2970-4f86-ae74-1552ca666b9c"},"vehicle_type_id":"4","last_reported":1728673629,"current_range_meters":16800,"station_id":"ce4bgm92rcd13ifvqbr0","pricing_plan_id":"cebpf4jnsgd1na2vs0mg"},{"bike_id":"f5c0d38b-e6b3-4468-9385-8fb225e42be6","system_id":"levelo_inurba_marseille","lat":43.25871,"lon":5.39895,"is_reserved":false,"is_disabled":false,"rental_uris":{"android":"levelo://app?vid=f5c0d38b-e6b3-4468-9385-8fb225e42be6","ios":"levelo://app?vid=f5c0d38b-e6b3-4468-9385-8fb225e42be6"},"vehicle_type_id":"4","last_reported":1728673629,"current_range_meters":24400,"station_id":"ce4bhl92rcd13ifvqghg","pricing_plan_id":"cebpf4jnsgd1na2vs0mg"},{"bike_id":"5b9f2409-af94-4530-bdcb-ef3b7e257a37","system_id":"levelo_inurba_marseille","lat":43.31994,"lon":5.38139,"is_reserved":false,"is_disabled":false,"rental_uris":{"android":"levelo://app?vid=5b9f2409-af94-4530-bdcb-ef3b7e257a37","ios":"levelo://app?vid=5b9f2409-af94-4530-bdcb-ef3b7e257a37"},"vehicle_type_id":"4","last_reported":1728673629,"current_range_meters":38800,"station_id":"ce4bhr12rcd13ifvqhpg","pricing_plan_id":"cebpf4jnsgd1na2vs0mg"},{"bike_id":"68a46882-e71e-4d77-b604-5821a69649cf","system_id":"levelo_inurba_marseille","lat":43.306351,"lon":5.400794,"is_reserved":false,"is_disabled":false,"rental_uris":{"android":"levelo://app?vid=68a46882-e71e-4d77-b604-5821a69649cf","ios":"levelo://app?vid=68a46882-e71e-4d77-b604-5821a69649cf"},"vehicle_type_id":"4","last_reported":1728673629,"current_range_meters":38400,"station_id":"ce4bh112rcd13ifvqda0","pricing_plan_id":"cebpf4jnsgd1na2vs0mg"},{"bike_id":"9420c6dc-b19d-4421-8c0c-72e39b809c6b","system_id":"levelo_inurba_marseille","lat":43.22928,"lon":5.35375,"is_reserved":false,"is_disabled":false,"rental_uris":{"android":"levelo://app?vid=9420c6dc-b19d-4421-8c0c-72e39b809c6b","ios":"levelo://app?vid=9420c6dc-b19d-4421-8c0c-72e39b809c6b"},"vehicle_type_id":"4","last_reported":1728673629,"current_range_meters":38800,"station_id":"cpo3532slgdg3j2ikp40","pricing_plan_id":"cebpf4jnsgd1na2vs0mg"},{"bike_id":"5a5649e8-a9bc-4d0f-be41-ed6fc56a9baf","system_id":"levelo_inurba_marseille","lat":43.22925,"lon":5.35379,"is_reserved":false,"is_disabled":false,"rental_uris":{"android":"levelo://app?vid=5a5649e8-a9bc-4d0f-be41-ed6fc56a9baf","ios":"levelo://app?vid=5a5649e8-a9bc-4d0f-be41-ed6fc56a9baf"},"vehicle_type_id":"4","last_reported":1728673629,"current_range_meters":36000,"station_id":"cpo3532slgdg3j2ikp40","pricing_plan_id":"cebpf4jnsgd1na2vs0mg"},{"bike_id":"9841563f-5953-45db-9b18-88066c742fcc","system_id":"levelo_inurba_marseille","lat":43.30255,"lon":5.40081,"is_reserved":false,"is_disabled":false,"rental_uris":{"android":"levelo://app?vid=9841563f-5953-45db-9b18-88066c742fcc","ios":"levelo://app?vid=9841563f-5953-45db-9b18-88066c742fcc"},"vehicle_type_id":"4","last_reported":1728673629,"current_range_meters":14400,"station_id":"ce4bgvh2rcd13ifvqcs0","pricing_plan_id":"cebpf4jnsgd1na2vs0mg"},{"bike_id":"16c309c9-0012-4556-b4d8-421d57f6355e","system_id":"levelo_inurba_marseille","lat":43.2847,"lon":5.35895,"is_reserved":false,"is_disabled":false,"rental_uris":{"android":"levelo://app?vid=16c309c9-0012-4556-b4d8-421d57f6355e","ios":"levelo://app?vid=16c309c9-0012-4556-b4d8-421d57f6355e"},"vehicle_type_id":"4","last_reported":1728673629,"current_range_meters":26000,"station_id":"ce4bhah2rcd13ifvqei0","pricing_plan_id":"cebpf4jnsgd1na2vs0mg"},{"bike_id":"d66fdf2f-07a9-4b26-b71a-667699602f45","system_id":"levelo_inurba_marseille","lat":43.27941,"lon":5.41041,"is_reserved":false,"is_disabled":false,"rental_uris":{"android":"levelo://app?vid=d66fdf2f-07a9-4b26-b71a-667699602f45","ios":"levelo://app?vid=d66fdf2f-07a9-4b26-b71a-667699602f45"},"vehicle_type_id":"4","last_reported":1728673629,"current_range_meters":8800,"station_id":"ce4bhnp2rcd13ifvqh0g","pricing_plan_id":"cebpf4jnsgd1na2vs0mg"},{"bike_id":"72f75276-a124-42ea-9c15-5adfbf16a06c","system_id":"levelo_inurba_marseille","lat":43.24387,"lon":5.37054,"is_reserved":false,"is_disabled":false,"rental_uris":{"android":"levelo://app?vid=72f75276-a124-42ea-9c15-5adfbf16a06c","ios":"levelo://app?vid=72f75276-a124-42ea-9c15-5adfbf16a06c"},"vehicle_type_id":"4","last_reported":1728673629,"current_range_meters":6400,"station_id":"ce4bhhh2rcd13ifvqfk0","pricing_plan_id":"cebpf4jnsgd1na2vs0mg"},{"bike_id":"379d6363-9152-4e84-bd42-6ec02dd02b54","system_id":"levelo_inurba_marseille","lat":43.31998,"lon":5.38148,"is_reserved":false,"is_disabled":false,"rental_uris":{"android":"levelo://app?vid=379d6363-9152-4e84-bd42-6ec02dd02b54","ios":"levelo://app?vid=379d6363-9152-4e84-bd42-6ec02dd02b54"},"vehicle_type_id":"4","last_reported":1728673629,"current_range_meters":38800,"station_id":"ce4bhr12rcd13ifvqhpg","pricing_plan_id":"cebpf4jnsgd1na2vs0mg"},{"bike_id":"8fb2b431-bcb9-46ba-80fb-e26e84592fc5","system_id":"levelo_inurba_marseille","lat":43.23192,"lon":5.35555,"is_reserved":false,"is_disabled":false,"rental_uris":{"android":"levelo://app?vid=8fb2b431-bcb9-46ba-80fb-e26e84592fc5","ios":"levelo://app?vid=8fb2b431-bcb9-46ba-80fb-e26e84592fc5"},"vehicle_type_id":"4","last_reported":1728673629,"current_range_meters":36000,"station_id":"ce4bhu92rcd13ifvqi70","pricing_plan_id":"cebpf4jnsgd1na2vs0mg"},{"bike_id":"4311070d-6aca-4a2e-a20e-896094b6cac2","system_id":"levelo_inurba_marseille","lat":43.33725,"lon":5.39184,"is_reserved":false,"is_disabled":false,"rental_uris":{"android":"levelo://app?vid=4311070d-6aca-4a2e-a20e-896094b6cac2","ios":"levelo://app?vid=4311070d-6aca-4a2e-a20e-896094b6cac2"},"vehicle_type_id":"4","last_reported":1728673629,"current_range_meters":13600,"station_id":"ce4bhr92rcd13ifvqhsg","pricing_plan_id":"cebpf4jnsgd1na2vs0mg"},{"bike_id":"81e012b7-d7e3-4524-9915-524b1b0c3063","system_id":"levelo_inurba_marseille","lat":43.29528,"lon":5.38539,"is_reserved":false,"is_disabled":false,"rental_uris":{"android":"levelo://app?vid=81e012b7-d7e3-4524-9915-524b1b0c3063","ios":"levelo://app?vid=81e012b7-d7e3-4524-9915-524b1b0c3063"},"vehicle_type_id":"4","last_reported":1728673629,"current_range_meters":39200,"station_id":"ce4bgih2rcd13ifvqba0","pricing_plan_id":"cebpf4jnsgd1na2vs0mg"},{"bike_id":"6849f8df-d033-404c-8c86-c8b6066eba32","system_id":"levelo_inurba_marseille","lat":43.295764,"lon":5.367394,"is_reserved":false,"is_disabled":false,"rental_uris":{"android":"levelo://app?vid=6849f8df-d033-404c-8c86-c8b6066eba32","ios":"levelo://app?vid=6849f8df-d033-404c-8c86-c8b6066eba32"},"vehicle_type_id":"4","last_reported":1728673629,"current_range_meters":14800,"station_id":"ce4bgph2rcd13ifvqc2g","pricing_plan_id":"cebpf4jnsgd1na2vs0mg"},{"bike_id":"6affd992-cdc3-4c5d-ae31-a0230168bbd0","system_id":"levelo_inurba_marseille","lat":43.290253,"lon":5.386529,"is_reserved":false,"is_disabled":false,"rental_uris":{"android":"levelo://app?vid=6affd992-cdc3-4c5d-ae31-a0230168bbd0","ios":"levelo://app?vid=6affd992-cdc3-4c5d-ae31-a0230168bbd0"},"vehicle_type_id":"4","last_reported":1728673629,"current_range_meters":38000,"station_id":"","pricing_plan_id":"cebpf4jnsgd1na2vs0mg"},{"bike_id":"953450c7-9c90-454f-b407-078d797df602","system_id":"levelo_inurba_marseille","lat":43.2958,"lon":5.36737,"is_reserved":false,"is_disabled":false,"rental_uris":{"android":"levelo://app?vid=953450c7-9c90-454f-b407-078d797df602","ios":"levelo://app?vid=953450c7-9c90-454f-b407-078d797df602"},"vehicle_type_id":"4","last_reported":1728673629,"current_range_meters":22400,"station_id":"ce4bgph2rcd13ifvqc2g","pricing_plan_id":"cebpf4jnsgd1na2vs0mg"},{"bike_id":"046b98bc-c38f-4b87-bc32-c929984c86fd","system_id":"levelo_inurba_marseille","lat":43.32341,"lon":5.40634,"is_reserved":false,"is_disabled":false,"rental_uris":{"android":"levelo://app?vid=046b98bc-c38f-4b87-bc32-c929984c86fd","ios":"levelo://app?vid=046b98bc-c38f-4b87-bc32-c929984c86fd"},"vehicle_type_id":"4","last_reported":1728673629,"current_range_meters":21600,"station_id":"ce4bhq92rcd13ifvqhjg","pricing_plan_id":"cebpf4jnsgd1na2vs0mg"},{"bike_id":"a27554a6-a50a-485f-8f1f-4487a4aa2e01","system_id":"levelo_inurba_marseille","lat":43.30595,"lon":5.38071,"is_reserved":false,"is_disabled":false,"rental_uris":{"android":"levelo://app?vid=a27554a6-a50a-485f-8f1f-4487a4aa2e01","ios":"levelo://app?vid=a27554a6-a50a-485f-8f1f-4487a4aa2e01"},"vehicle_type_id":"4","last_reported":1728673629,"current_range_meters":30000,"station_id":"","pricing_plan_id":"cebpf4jnsgd1na2vs0mg"},{"bike_id":"48bc30b5-e4af-4161-bffb-f6c86be9bf5f","system_id":"levelo_inurba_marseille","lat":43.29429,"lon":5.38619,"is_reserved":false,"is_disabled":false,"rental_uris":{"android":"levelo://app?vid=48bc30b5-e4af-4161-bffb-f6c86be9bf5f","ios":"levelo://app?vid=48bc30b5-e4af-4161-bffb-f6c86be9bf5f"},"vehicle_type_id":"4","last_reported":1728673629,"current_range_meters":28000,"station_id":"ce4bh2h2rcd13ifvqdh0","pricing_plan_id":"cebpf4jnsgd1na2vs0mg"},{"bike_id":"2e66d34c-2fd0-4875-bb38-c261fb56d2cc","system_id":"levelo_inurba_marseille","lat":43.301401,"lon":5.374158,"is_reserved":false,"is_disabled":false,"rental_uris":{"android":"levelo://app?vid=2e66d34c-2fd0-4875-bb38-c261fb56d2cc","ios":"levelo://app?vid=2e66d34c-2fd0-4875-bb38-c261fb56d2cc"},"vehicle_type_id":"4","last_reported":1728673629,"current_range_meters":30400,"station_id":"ce4bhah2rcd13ifvqei0","pricing_plan_id":"cebpf4jnsgd1na2vs0mg"},{"bike_id":"549aa92d-1d57-4f68-860e-b86ca10a5955","system_id":"levelo_inurba_marseille","lat":43.32288,"lon":5.38279,"is_reserved":false,"is_disabled":false,"rental_uris":{"android":"levelo://app?vid=549aa92d-1d57-4f68-860e-b86ca10a5955","ios":"levelo://app?vid=549aa92d-1d57-4f68-860e-b86ca10a5955"},"vehicle_type_id":"4","last_reported":1728673629,"current_range_meters":36000,"station_id":"ce4bhr12rcd13ifvqhqg","pricing_plan_id":"cebpf4jnsgd1na2vs0mg"},{"bike_id":"7fc623bd-4762-4893-b6b9-579bb07b3496","system_id":"levelo_inurba_marseille","lat":43.29846,"lon":5.36273,"is_reserved":false,"is_disabled":false,"rental_uris":{"android":"levelo://app?vid=7fc623bd-4762-4893-b6b9-579bb07b3496","ios":"levelo://app?vid=7fc623bd-4762-4893-b6b9-579bb07b3496"},"vehicle_type_id":"4","last_reported":1728673629,"current_range_meters":28000,"station_id":"ce4bgpp2rcd13ifvqc3g","pricing_plan_id":"cebpf4jnsgd1na2vs0mg"},{"bike_id":"a6b7d156-cdef-439d-b98e-df4424cb2d6b","system_id":"levelo_inurba_marseille","lat":43.30355,"lon":5.41884,"is_reserved":false,"is_disabled":false,"rental_uris":{"android":"levelo://app?vid=a6b7d156-cdef-439d-b98e-df4424cb2d6b","ios":"levelo://app?vid=a6b7d156-cdef-439d-b98e-df4424cb2d6b"},"vehicle_type_id":"4","last_reported":1728673629,"current_range_meters":17600,"station_id":"ce4bhop2rcd13ifvqh7g","pricing_plan_id":"cebpf4jnsgd1na2vs0mg"},{"bike_id":"7a132c9e-db09-4385-866d-43900fef5c2c","system_id":"levelo_inurba_marseille","lat":43.29567,"lon":5.42275,"is_reserved":false,"is_disabled":false,"rental_uris":{"android":"levelo://app?vid=7a132c9e-db09-4385-866d-43900fef5c2c","ios":"levelo://app?vid=7a132c9e-db09-4385-866d-43900fef5c2c"},"vehicle_type_id":"4","last_reported":1728673629,"current_range_meters":28400,"station_id":"ce4bhph2rcd13ifvqhdg","pricing_plan_id":"cebpf4jnsgd1na2vs0mg"},{"bike_id":"e2c630b6-3b40-42ed-8ba9-670ce807433e","system_id":"levelo_inurba_marseille","lat":43.29851,"lon":5.36289,"is_reserved":false,"is_disabled":false,"rental_uris":{"android":"levelo://app?vid=e2c630b6-3b40-42ed-8ba9-670ce807433e","ios":"levelo://app?vid=e2c630b6-3b40-42ed-8ba9-670ce807433e"},"vehicle_type_id":"4","last_reported":1728673629,"current_range_meters":7200,"station_id":"ce4bgpp2rcd13ifvqc3g","pricing_plan_id":"cebpf4jnsgd1na2vs0mg"},{"bike_id":"f8e3a86a-9f2b-42d4-bcfe-4ccce75c6822","system_id":"levelo_inurba_marseille","lat":43.307992,"lon":5.381601,"is_reserved":false,"is_disabled":false,"rental_uris":{"android":"levelo://app?vid=f8e3a86a-9f2b-42d4-bcfe-4ccce75c6822","ios":"levelo://app?vid=f8e3a86a-9f2b-42d4-bcfe-4ccce75c6822"},"vehicle_type_id":"4","last_reported":1728673629,"current_range_meters":4400,"station_id":"ce4bgt12rcd13ifvqce0","pricing_plan_id":"cebpf4jnsgd1na2vs0mg"},{"bike_id":"039f5b19-afaf-4980-8d7b-7ed9613007b5","system_id":"levelo_inurba_marseille","lat":43.32263,"lon":5.38276,"is_reserved":false,"is_disabled":false,"rental_uris":{"android":"levelo://app?vid=039f5b19-afaf-4980-8d7b-7ed9613007b5","ios":"levelo://app?vid=039f5b19-afaf-4980-8d7b-7ed9613007b5"},"vehicle_type_id":"4","last_reported":1728673629,"current_range_meters":11600,"station_id":"ce4bhr12rcd13ifvqhqg","pricing_plan_id":"cebpf4jnsgd1na2vs0mg"},{"bike_id":"22343632-7c8b-48f1-aeca-18c22b32d044","system_id":"levelo_inurba_marseille","lat":43.31483,"lon":5.37309,"is_reserved":false,"is_disabled":false,"rental_uris":{"android":"levelo://app?vid=22343632-7c8b-48f1-aeca-18c22b32d044","ios":"levelo://app?vid=22343632-7c8b-48f1-aeca-18c22b32d044"},"vehicle_type_id":"4","last_reported":1728673629,"current_range_meters":24000,"station_id":"ce4bgt12rcd13ifvqcd0","pricing_plan_id":"cebpf4jnsgd1na2vs0mg"},{"bike_id":"f8881785-8a38-4506-9a43-884fc2f8d071","system_id":"levelo_inurba_marseille","lat":43.28,"lon":5.40004,"is_reserved":false,"is_disabled":false,"rental_uris":{"android":"levelo://app?vid=f8881785-8a38-4506-9a43-884fc2f8d071","ios":"levelo://app?vid=f8881785-8a38-4506-9a43-884fc2f8d071"},"vehicle_type_id":"4","last_reported":1728673629,"current_range_meters":38800,"station_id":"ce4bho92rcd13ifvqh4g","pricing_plan_id":"cebpf4jnsgd1na2vs0mg"},{"bike_id":"0472d7b2-872c-4cd5-9b29-3840e3a345a0","system_id":"levelo_inurba_marseille","lat":43.29679,"lon":5.37303,"is_reserved":false,"is_disabled":false,"rental_uris":{"android":"levelo://app?vid=0472d7b2-872c-4cd5-9b29-3840e3a345a0","ios":"levelo://app?vid=0472d7b2-872c-4cd5-9b29-3840e3a345a0"},"vehicle_type_id":"4","last_reported":1728673629,"current_range_meters":38000,"station_id":"ce4bgk12rcd13ifvqbj0","pricing_plan_id":"cebpf4jnsgd1na2vs0mg"},{"bike_id":"6c416a4e-2255-4df4-8cd6-fe3324719631","system_id":"levelo_inurba_marseille","lat":43.29551,"lon":5.38896,"is_reserved":false,"is_disabled":false,"rental_uris":{"android":"levelo://app?vid=6c416a4e-2255-4df4-8cd6-fe3324719631","ios":"levelo://app?vid=6c416a4e-2255-4df4-8cd6-fe3324719631"},"vehicle_type_id":"4","last_reported":1728673629,"current_range_meters":22800,"station_id":"ce4bh3p2rcd13ifvqdp0","pricing_plan_id":"cebpf4jnsgd1na2vs0mg"},{"bike_id":"45909afc-9bf1-4272-8064-31b514f4bc96","system_id":"levelo_inurba_marseille","lat":43.25862,"lon":5.39898,"is_reserved":false,"is_disabled":false,"rental_uris":{"android":"levelo://app?vid=45909afc-9bf1-4272-8064-31b514f4bc96","ios":"levelo://app?vid=45909afc-9bf1-4272-8064-31b514f4bc96"},"vehicle_type_id":"4","last_reported":1728673629,"current_range_meters":38800,"station_id":"ce4bhl92rcd13ifvqghg","pricing_plan_id":"cebpf4jnsgd1na2vs0mg"},{"bike_id":"b1009450-6152-462c-a724-90df51eeb6db","system_id":"levelo_inurba_marseille","lat":43.32382,"lon":5.38917,"is_reserved":false,"is_disabled":false,"rental_uris":{"android":"levelo://app?vid=b1009450-6152-462c-a724-90df51eeb6db","ios":"levelo://app?vid=b1009450-6152-462c-a724-90df51eeb6db"},"vehicle_type_id":"4","last_reported":1728673629,"current_range_meters":4400,"station_id":"ce4bhqp2rcd13ifvqhog","pricing_plan_id":"cebpf4jnsgd1na2vs0mg"},{"bike_id":"0cba809d-1364-4841-b7e5-2adff7d3ace2","system_id":"levelo_inurba_marseille","lat":43.29935,"lon":5.36554,"is_reserved":false,"is_disabled":false,"rental_uris":{"android":"levelo://app?vid=0cba809d-1364-4841-b7e5-2adff7d3ace2","ios":"levelo://app?vid=0cba809d-1364-4841-b7e5-2adff7d3ace2"},"vehicle_type_id":"4","last_reported":1728673629,"current_range_meters":17200,"station_id":"ce4bgm92rcd13ifvqbr0","pricing_plan_id":"cebpf4jnsgd1na2vs0mg"},{"bike_id":"fa788d65-ef44-407c-8d29-e3cbbca2e385","system_id":"levelo_inurba_marseille","lat":43.32365,"lon":5.38887,"is_reserved":false,"is_disabled":false,"rental_uris":{"android":"levelo://app?vid=fa788d65-ef44-407c-8d29-e3cbbca2e385","ios":"levelo://app?vid=fa788d65-ef44-407c-8d29-e3cbbca2e385"},"vehicle_type_id":"4","last_reported":1728673629,"current_range_meters":6000,"station_id":"ce4bhqp2rcd13ifvqhog","pricing_plan_id":"cebpf4jnsgd1na2vs0mg"},{"bike_id":"97bcd2e2-d316-4046-bb09-33673db23eb2","system_id":"levelo_inurba_marseille","lat":43.27918,"lon":5.39573,"is_reserved":false,"is_disabled":false,"rental_uris":{"android":"levelo://app?vid=97bcd2e2-d316-4046-bb09-33673db23eb2","ios":"levelo://app?vid=97bcd2e2-d316-4046-bb09-33673db23eb2"},"vehicle_type_id":"4","last_reported":1728673629,"current_range_meters":20400,"station_id":"ce4bhf92rcd13ifvqf40","pricing_plan_id":"cebpf4jnsgd1na2vs0mg"},{"bike_id":"352b9015-2d95-4f60-b45b-ff842974749e","system_id":"levelo_inurba_marseille","lat":43.29845,"lon":5.36268,"is_reserved":false,"is_disabled":false,"rental_uris":{"android":"levelo://app?vid=352b9015-2d95-4f60-b45b-ff842974749e","ios":"levelo://app?vid=352b9015-2d95-4f60-b45b-ff842974749e"},"vehicle_type_id":"4","last_reported":1728673629,"current_range_meters":24000,"station_id":"ce4bgpp2rcd13ifvqc3g","pricing_plan_id":"cebpf4jnsgd1na2vs0mg"},{"bike_id":"894a75d0-521c-4663-8fe2-360fa961f387","system_id":"levelo_inurba_marseille","lat":43.28001,"lon":5.4,"is_reserved":false,"is_disabled":false,"rental_uris":{"android":"levelo://app?vid=894a75d0-521c-4663-8fe2-360fa961f387","ios":"levelo://app?vid=894a75d0-521c-4663-8fe2-360fa961f387"},"vehicle_type_id":"4","last_reported":1728673629,"current_range_meters":20000,"station_id":"ce4bho92rcd13ifvqh4g","pricing_plan_id":"cebpf4jnsgd1na2vs0mg"},{"bike_id":"87c5257a-e956-4321-a659-aef4cc46035c","system_id":"levelo_inurba_marseille","lat":43.32289,"lon":5.38276,"is_reserved":false,"is_disabled":false,"rental_uris":{"android":"levelo://app?vid=87c5257a-e956-4321-a659-aef4cc46035c","ios":"levelo://app?vid=87c5257a-e956-4321-a659-aef4cc46035c"},"vehicle_type_id":"4","last_reported":1728673629,"current_range_meters":8000,"station_id":"ce4bhr12rcd13ifvqhqg","pricing_plan_id":"cebpf4jnsgd1na2vs0mg"},{"bike_id":"782e5cd4-ad0b-4783-bea5-9e9e32be0228","system_id":"levelo_inurba_marseille","lat":43.31364,"lon":5.38497,"is_reserved":false,"is_disabled":false,"rental_uris":{"android":"levelo://app?vid=782e5cd4-ad0b-4783-bea5-9e9e32be0228","ios":"levelo://app?vid=782e5cd4-ad0b-4783-bea5-9e9e32be0228"},"vehicle_type_id":"4","last_reported":1728673629,"current_range_meters":38800,"station_id":"ce4bgt92rcd13ifvqcf0","pricing_plan_id":"cebpf4jnsgd1na2vs0mg"},{"bike_id":"23365f93-295a-4982-bc56-1d5e8857e07e","system_id":"levelo_inurba_marseille","lat":43.29539,"lon":5.38544,"is_reserved":false,"is_disabled":false,"rental_uris":{"android":"levelo://app?vid=23365f93-295a-4982-bc56-1d5e8857e07e","ios":"levelo://app?vid=23365f93-295a-4982-bc56-1d5e8857e07e"},"vehicle_type_id":"4","last_reported":1728673629,"current_range_meters":39200,"station_id":"ce4bgih2rcd13ifvqba0","pricing_plan_id":"cebpf4jnsgd1na2vs0mg"},{"bike_id":"69ab49b4-2897-40a3-b3f4-7964b1d615d8","system_id":"levelo_inurba_marseille","lat":43.31535,"lon":5.38014,"is_reserved":false,"is_disabled":false,"rental_uris":{"android":"levelo://app?vid=69ab49b4-2897-40a3-b3f4-7964b1d615d8","ios":"levelo://app?vid=69ab49b4-2897-40a3-b3f4-7964b1d615d8"},"vehicle_type_id":"4","last_reported":1728673629,"current_range_meters":38800,"station_id":"ce4bhsp2rcd13ifvqi50","pricing_plan_id":"cebpf4jnsgd1na2vs0mg"},{"bike_id":"9db438a1-dc64-4132-a247-78011ada3208","system_id":"levelo_inurba_marseille","lat":43.29597,"lon":5.38108,"is_reserved":false,"is_disabled":false,"rental_uris":{"android":"levelo://app?vid=9db438a1-dc64-4132-a247-78011ada3208","ios":"levelo://app?vid=9db438a1-dc64-4132-a247-78011ada3208"},"vehicle_type_id":"4","last_reported":1728673629,"current_range_meters":1600,"station_id":"ce4bgl12rcd13ifvqbo0","pricing_plan_id":"cebpf4jnsgd1na2vs0mg"},{"bike_id":"a4893dbd-1d2d-4171-843a-1f7a16bd839e","system_id":"levelo_inurba_marseille","lat":43.29581,"lon":5.36742,"is_reserved":false,"is_disabled":false,"rental_uris":{"android":"levelo://app?vid=a4893dbd-1d2d-4171-843a-1f7a16bd839e","ios":"levelo://app?vid=a4893dbd-1d2d-4171-843a-1f7a16bd839e"},"vehicle_type_id":"4","last_reported":1728673629,"current_range_meters":14400,"station_id":"ce4bgph2rcd13ifvqc2g","pricing_plan_id":"cebpf4jnsgd1na2vs0mg"},{"bike_id":"1a0ddab3-5260-40c3-a774-f2cebd63408d","system_id":"levelo_inurba_marseille","lat":43.27997,"lon":5.39996,"is_reserved":false,"is_disabled":false,"rental_uris":{"android":"levelo://app?vid=1a0ddab3-5260-40c3-a774-f2cebd63408d","ios":"levelo://app?vid=1a0ddab3-5260-40c3-a774-f2cebd63408d"},"vehicle_type_id":"4","last_reported":1728673629,"current_range_meters":18000,"station_id":"ce4bho92rcd13ifvqh4g","pricing_plan_id":"cebpf4jnsgd1na2vs0mg"},{"bike_id":"473ae646-d043-4853-9639-1e837b890635","system_id":"levelo_inurba_marseille","lat":43.27993,"lon":5.40018,"is_reserved":false,"is_disabled":false,"rental_uris":{"android":"levelo://app?vid=473ae646-d043-4853-9639-1e837b890635","ios":"levelo://app?vid=473ae646-d043-4853-9639-1e837b890635"},"vehicle_type_id":"4","last_reported":1728673629,"current_range_meters":25600,"station_id":"ce4bho92rcd13ifvqh4g","pricing_plan_id":"cebpf4jnsgd1na2vs0mg"},{"bike_id":"290a76d5-b44c-4148-ae89-6f9f2380412d","system_id":"levelo_inurba_marseille","lat":43.30892,"lon":5.39639,"is_reserved":false,"is_disabled":false,"rental_uris":{"android":"levelo://app?vid=290a76d5-b44c-4148-ae89-6f9f2380412d","ios":"levelo://app?vid=290a76d5-b44c-4148-ae89-6f9f2380412d"},"vehicle_type_id":"4","last_reported":1728673629,"current_range_meters":38000,"station_id":"ce4bh012rcd13ifvqcv0","pricing_plan_id":"cebpf4jnsgd1na2vs0mg"},{"bike_id":"b0d4400f-60cf-40d3-84ca-10e631bbb7a3","system_id":"levelo_inurba_marseille","lat":43.29784,"lon":5.37093,"is_reserved":false,"is_disabled":false,"rental_uris":{"android":"levelo://app?vid=b0d4400f-60cf-40d3-84ca-10e631bbb7a3","ios":"levelo://app?vid=b0d4400f-60cf-40d3-84ca-10e631bbb7a3"},"vehicle_type_id":"4","last_reported":1728673629,"current_range_meters":39200,"station_id":"ce4bgop2rcd13ifvqc1g","pricing_plan_id":"cebpf4jnsgd1na2vs0mg"},{"bike_id":"70946586-c67b-4bbb-9665-e72f745a209b","system_id":"levelo_inurba_marseille","lat":43.31083,"lon":5.42432,"is_reserved":false,"is_disabled":false,"rental_uris":{"android":"levelo://app?vid=70946586-c67b-4bbb-9665-e72f745a209b","ios":"levelo://app?vid=70946586-c67b-4bbb-9665-e72f745a209b"},"vehicle_type_id":"4","last_reported":1728673629,"current_range_meters":39200,"station_id":"ce4bhp92rcd13ifvqhag","pricing_plan_id":"cebpf4jnsgd1na2vs0mg"},{"bike_id":"1da0d5c4-a59f-42be-83fa-451e18f9179d","system_id":"levelo_inurba_marseille","lat":43.27949,"lon":5.41051,"is_reserved":false,"is_disabled":false,"rental_uris":{"android":"levelo://app?vid=1da0d5c4-a59f-42be-83fa-451e18f9179d","ios":"levelo://app?vid=1da0d5c4-a59f-42be-83fa-451e18f9179d"},"vehicle_type_id":"4","last_reported":1728673629,"current_range_meters":10800,"station_id":"ce4bhnp2rcd13ifvqh0g","pricing_plan_id":"cebpf4jnsgd1na2vs0mg"},{"bike_id":"8c9a5779-48c6-4a49-b87c-4b9241d4f44b","system_id":"levelo_inurba_marseille","lat":43.337444,"lon":5.374475,"is_reserved":false,"is_disabled":false,"rental_uris":{"android":"levelo://app?vid=8c9a5779-48c6-4a49-b87c-4b9241d4f44b","ios":"levelo://app?vid=8c9a5779-48c6-4a49-b87c-4b9241d4f44b"},"vehicle_type_id":"4","last_reported":1728673629,"current_range_meters":9600,"station_id":"","pricing_plan_id":"cebpf4jnsgd1na2vs0mg"},{"bike_id":"d4837ce9-9868-4850-8796-f108ffcf61cc","system_id":"levelo_inurba_marseille","lat":43.301849,"lon":5.366234,"is_reserved":false,"is_disabled":false,"rental_uris":{"android":"levelo://app?vid=d4837ce9-9868-4850-8796-f108ffcf61cc","ios":"levelo://app?vid=d4837ce9-9868-4850-8796-f108ffcf61cc"},"vehicle_type_id":"4","last_reported":1728673629,"current_range_meters":18000,"station_id":"ce4bgrh2rcd13ifvqc8g","pricing_plan_id":"cebpf4jnsgd1na2vs0mg"},{"bike_id":"9b99305d-23b9-47da-8af9-44ac9b663db0","system_id":"levelo_inurba_marseille","lat":43.29892,"lon":5.43678,"is_reserved":false,"is_disabled":false,"rental_uris":{"android":"levelo://app?vid=9b99305d-23b9-47da-8af9-44ac9b663db0","ios":"levelo://app?vid=9b99305d-23b9-47da-8af9-44ac9b663db0"},"vehicle_type_id":"4","last_reported":1728673629,"current_range_meters":20800,"station_id":"ce4bhpp2rcd13ifvqhfg","pricing_plan_id":"cebpf4jnsgd1na2vs0mg"},{"bike_id":"1a53a9d2-dc59-4d67-925a-323b5ce6021f","system_id":"levelo_inurba_marseille","lat":43.29853,"lon":5.36283,"is_reserved":false,"is_disabled":false,"rental_uris":{"android":"levelo://app?vid=1a53a9d2-dc59-4d67-925a-323b5ce6021f","ios":"levelo://app?vid=1a53a9d2-dc59-4d67-925a-323b5ce6021f"},"vehicle_type_id":"4","last_reported":1728673629,"current_range_meters":37600,"station_id":"ce4bgpp2rcd13ifvqc3g","pricing_plan_id":"cebpf4jnsgd1na2vs0mg"},{"bike_id":"fe8bfe5f-6b56-4544-a987-9773c5b6594d","system_id":"levelo_inurba_marseille","lat":43.337444,"lon":5.374475,"is_reserved":false,"is_disabled":false,"rental_uris":{"android":"levelo://app?vid=fe8bfe5f-6b56-4544-a987-9773c5b6594d","ios":"levelo://app?vid=fe8bfe5f-6b56-4544-a987-9773c5b6594d"},"vehicle_type_id":"4","last_reported":1728673629,"current_range_meters":35200,"station_id":"","pricing_plan_id":"cebpf4jnsgd1na2vs0mg"},{"bike_id":"fe900bb2-b4c4-426b-8892-68daffd49028","system_id":"levelo_inurba_marseille","lat":43.27995,"lon":5.4002,"is_reserved":false,"is_disabled":false,"rental_uris":{"android":"levelo://app?vid=fe900bb2-b4c4-426b-8892-68daffd49028","ios":"levelo://app?vid=fe900bb2-b4c4-426b-8892-68daffd49028"},"vehicle_type_id":"4","last_reported":1728673629,"current_range_meters":38800,"station_id":"ce4bho92rcd13ifvqh4g","pricing_plan_id":"cebpf4jnsgd1na2vs0mg"},{"bike_id":"e57c82ed-6c61-45c3-9b74-fdc51981f3ff","system_id":"levelo_inurba_marseille","lat":43.29577,"lon":5.36742,"is_reserved":false,"is_disabled":false,"rental_uris":{"android":"levelo://app?vid=e57c82ed-6c61-45c3-9b74-fdc51981f3ff","ios":"levelo://app?vid=e57c82ed-6c61-45c3-9b74-fdc51981f3ff"},"vehicle_type_id":"4","last_reported":1728673629,"current_range_meters":10800,"station_id":"ce4bgph2rcd13ifvqc2g","pricing_plan_id":"cebpf4jnsgd1na2vs0mg"},{"bike_id":"8ab3d457-1235-47d3-936c-08dead5a7a6b","system_id":"levelo_inurba_marseille","lat":43.265503,"lon":5.372866,"is_reserved":false,"is_disabled":false,"rental_uris":{"android":"levelo://app?vid=8ab3d457-1235-47d3-936c-08dead5a7a6b","ios":"levelo://app?vid=8ab3d457-1235-47d3-936c-08dead5a7a6b"},"vehicle_type_id":"4","last_reported":1728673629,"current_range_meters":17200,"station_id":"","pricing_plan_id":"cebpf4jnsgd1na2vs0mg"},{"bike_id":"cdd26d21-81eb-4333-8d7f-3457b5a7caf2","system_id":"levelo_inurba_marseille","lat":43.33025,"lon":5.39048,"is_reserved":false,"is_disabled":false,"rental_uris":{"android":"levelo://app?vid=cdd26d21-81eb-4333-8d7f-3457b5a7caf2","ios":"levelo://app?vid=cdd26d21-81eb-4333-8d7f-3457b5a7caf2"},"vehicle_type_id":"4","last_reported":1728673629,"current_range_meters":24000,"station_id":"ce4bhr92rcd13ifvqhrg","pricing_plan_id":"cebpf4jnsgd1na2vs0mg"},{"bike_id":"3af4d705-24d9-4279-98e3-01f3da10e1de","system_id":"levelo_inurba_marseille","lat":43.27209,"lon":5.39197,"is_reserved":false,"is_disabled":false,"rental_uris":{"android":"levelo://app?vid=3af4d705-24d9-4279-98e3-01f3da10e1de","ios":"levelo://app?vid=3af4d705-24d9-4279-98e3-01f3da10e1de"},"vehicle_type_id":"4","last_reported":1728673629,"current_range_meters":38000,"station_id":"ce4bh292rcd13ifvqdg0","pricing_plan_id":"cebpf4jnsgd1na2vs0mg"},{"bike_id":"33ae1276-1142-4adb-a13b-9399eca9082d","system_id":"levelo_inurba_marseille","lat":43.28159,"lon":5.42642,"is_reserved":false,"is_disabled":false,"rental_uris":{"android":"levelo://app?vid=33ae1276-1142-4adb-a13b-9399eca9082d","ios":"levelo://app?vid=33ae1276-1142-4adb-a13b-9399eca9082d"},"vehicle_type_id":"4","last_reported":1728673629,"current_range_meters":31200,"station_id":"ce4bhnh2rcd13ifvqgug","pricing_plan_id":"cebpf4jnsgd1na2vs0mg"},{"bike_id":"f9abb347-2f35-428d-aeed-9c67888c5b3e","system_id":"levelo_inurba_marseille","lat":43.28468,"lon":5.38413,"is_reserved":false,"is_disabled":false,"rental_uris":{"android":"levelo://app?vid=f9abb347-2f35-428d-aeed-9c67888c5b3e","ios":"levelo://app?vid=f9abb347-2f35-428d-aeed-9c67888c5b3e"},"vehicle_type_id":"4","last_reported":1728673629,"current_range_meters":24400,"station_id":"ce4bh512rcd13ifvqe3g","pricing_plan_id":"cebpf4jnsgd1na2vs0mg"},{"bike_id":"9b89bc18-0ccf-4b53-a20a-c133b8fc7a9e","system_id":"levelo_inurba_marseille","lat":43.292954,"lon":5.374632,"is_reserved":false,"is_disabled":false,"rental_uris":{"android":"levelo://app?vid=9b89bc18-0ccf-4b53-a20a-c133b8fc7a9e","ios":"levelo://app?vid=9b89bc18-0ccf-4b53-a20a-c133b8fc7a9e"},"vehicle_type_id":"4","last_reported":1728673629,"current_range_meters":14800,"station_id":"ce4bgi12rcd13ifvqb70","pricing_plan_id":"cebpf4jnsgd1na2vs0mg"},{"bike_id":"ae0e8aa4-b27a-4e5b-9b34-d48fc24e558e","system_id":"levelo_inurba_marseille","lat":43.24676,"lon":5.38159,"is_reserved":false,"is_disabled":false,"rental_uris":{"android":"levelo://app?vid=ae0e8aa4-b27a-4e5b-9b34-d48fc24e558e","ios":"levelo://app?vid=ae0e8aa4-b27a-4e5b-9b34-d48fc24e558e"},"vehicle_type_id":"4","last_reported":1728673629,"current_range_meters":36800,"station_id":"ce4bhih2rcd13ifvqfr0","pricing_plan_id":"cebpf4jnsgd1na2vs0mg"},{"bike_id":"e90dd59a-3bb3-4c19-876f-002973cf406c","system_id":"levelo_inurba_marseille","lat":43.29421,"lon":5.38618,"is_reserved":false,"is_disabled":false,"rental_uris":{"android":"levelo://app?vid=e90dd59a-3bb3-4c19-876f-002973cf406c","ios":"levelo://app?vid=e90dd59a-3bb3-4c19-876f-002973cf406c"},"vehicle_type_id":"4","last_reported":1728673629,"current_range_meters":16800,"station_id":"ce4bh2h2rcd13ifvqdh0","pricing_plan_id":"cebpf4jnsgd1na2vs0mg"},{"bike_id":"d2c194a1-0e78-42ea-a13b-3aaf1e7781b1","system_id":"levelo_inurba_marseille","lat":43.28993,"lon":5.37833,"is_reserved":false,"is_disabled":false,"rental_uris":{"android":"levelo://app?vid=d2c194a1-0e78-42ea-a13b-3aaf1e7781b1","ios":"levelo://app?vid=d2c194a1-0e78-42ea-a13b-3aaf1e7781b1"},"vehicle_type_id":"4","last_reported":1728673629,"current_range_meters":6000,"station_id":"ce4bh9p2rcd13ifvqed0","pricing_plan_id":"cebpf4jnsgd1na2vs0mg"},{"bike_id":"468ac5e9-6c4c-497f-917e-2958f46cbd94","system_id":"levelo_inurba_marseille","lat":43.33024,"lon":5.39042,"is_reserved":false,"is_disabled":false,"rental_uris":{"android":"levelo://app?vid=468ac5e9-6c4c-497f-917e-2958f46cbd94","ios":"levelo://app?vid=468ac5e9-6c4c-497f-917e-2958f46cbd94"},"vehicle_type_id":"4","last_reported":1728673629,"current_range_meters":30000,"station_id":"ce4bhr92rcd13ifvqhrg","pricing_plan_id":"cebpf4jnsgd1na2vs0mg"},{"bike_id":"69d59363-eeb6-4fde-92bf-94f165787ee0","system_id":"levelo_inurba_marseille","lat":43.27366,"lon":5.36267,"is_reserved":false,"is_disabled":false,"rental_uris":{"android":"levelo://app?vid=69d59363-eeb6-4fde-92bf-94f165787ee0","ios":"levelo://app?vid=69d59363-eeb6-4fde-92bf-94f165787ee0"},"vehicle_type_id":"4","last_reported":1728673629,"current_range_meters":7200,"station_id":"ce4bhbh2rcd13ifvqeo0","pricing_plan_id":"cebpf4jnsgd1na2vs0mg"},{"bike_id":"281e987c-3d72-4d7e-93b1-b6ae52705f2e","system_id":"levelo_inurba_marseille","lat":43.29528,"lon":5.38538,"is_reserved":false,"is_disabled":false,"rental_uris":{"android":"levelo://app?vid=281e987c-3d72-4d7e-93b1-b6ae52705f2e","ios":"levelo://app?vid=281e987c-3d72-4d7e-93b1-b6ae52705f2e"},"vehicle_type_id":"4","last_reported":1728673629,"current_range_meters":38000,"station_id":"ce4bgih2rcd13ifvqba0","pricing_plan_id":"cebpf4jnsgd1na2vs0mg"},{"bike_id":"7462ca37-c8ec-4019-8eac-705de8cad2f7","system_id":"levelo_inurba_marseille","lat":43.25864,"lon":5.39896,"is_reserved":false,"is_disabled":false,"rental_uris":{"android":"levelo://app?vid=7462ca37-c8ec-4019-8eac-705de8cad2f7","ios":"levelo://app?vid=7462ca37-c8ec-4019-8eac-705de8cad2f7"},"vehicle_type_id":"4","last_reported":1728673629,"current_range_meters":18000,"station_id":"ce4bhl92rcd13ifvqghg","pricing_plan_id":"cebpf4jnsgd1na2vs0mg"},{"bike_id":"06f03b3f-6c92-4015-bf61-8f72579ca0b3","system_id":"levelo_inurba_marseille","lat":43.29789,"lon":5.38108,"is_reserved":false,"is_disabled":false,"rental_uris":{"android":"levelo://app?vid=06f03b3f-6c92-4015-bf61-8f72579ca0b3","ios":"levelo://app?vid=06f03b3f-6c92-4015-bf61-8f72579ca0b3"},"vehicle_type_id":"4","last_reported":1728673629,"current_range_meters":2800,"station_id":"ce4bgip2rcd13ifvqbb0","pricing_plan_id":"cebpf4jnsgd1na2vs0mg"},{"bike_id":"a46673cf-4928-49cb-8c44-9f668342015a","system_id":"levelo_inurba_marseille","lat":43.33021,"lon":5.39036,"is_reserved":false,"is_disabled":false,"rental_uris":{"android":"levelo://app?vid=a46673cf-4928-49cb-8c44-9f668342015a","ios":"levelo://app?vid=a46673cf-4928-49cb-8c44-9f668342015a"},"vehicle_type_id":"4","last_reported":1728673629,"current_range_meters":38800,"station_id":"ce4bhr92rcd13ifvqhrg","pricing_plan_id":"cebpf4jnsgd1na2vs0mg"},{"bike_id":"04297339-b0e6-4e0c-ba57-2ecfb29a6f77","system_id":"levelo_inurba_marseille","lat":43.23186,"lon":5.39997,"is_reserved":false,"is_disabled":false,"rental_uris":{"android":"levelo://app?vid=04297339-b0e6-4e0c-ba57-2ecfb29a6f77","ios":"levelo://app?vid=04297339-b0e6-4e0c-ba57-2ecfb29a6f77"},"vehicle_type_id":"4","last_reported":1728673629,"current_range_meters":28000,"station_id":"ce4bhn12rcd13ifvqgqg","pricing_plan_id":"cebpf4jnsgd1na2vs0mg"},{"bike_id":"2bf453c0-0f02-478a-a092-dc10eaa8865e","system_id":"levelo_inurba_marseille","lat":43.29525,"lon":5.38604,"is_reserved":false,"is_disabled":false,"rental_uris":{"android":"levelo://app?vid=2bf453c0-0f02-478a-a092-dc10eaa8865e","ios":"levelo://app?vid=2bf453c0-0f02-478a-a092-dc10eaa8865e"},"vehicle_type_id":"4","last_reported":1728673629,"current_range_meters":33200,"station_id":"ce4bgih2rcd13ifvqba0","pricing_plan_id":"cebpf4jnsgd1na2vs0mg"},{"bike_id":"3758c66e-410c-4587-ac08-a52558547f6d","system_id":"levelo_inurba_marseille","lat":43.28002,"lon":5.40022,"is_reserved":false,"is_disabled":false,"rental_uris":{"android":"levelo://app?vid=3758c66e-410c-4587-ac08-a52558547f6d","ios":"levelo://app?vid=3758c66e-410c-4587-ac08-a52558547f6d"},"vehicle_type_id":"4","last_reported":1728673629,"current_range_meters":10000,"station_id":"ce4bho92rcd13ifvqh4g","pricing_plan_id":"cebpf4jnsgd1na2vs0mg"},{"bike_id":"cc561aab-29d7-4528-b29c-c79887c6c13b","system_id":"levelo_inurba_marseille","lat":43.3229,"lon":5.38266,"is_reserved":false,"is_disabled":false,"rental_uris":{"android":"levelo://app?vid=cc561aab-29d7-4528-b29c-c79887c6c13b","ios":"levelo://app?vid=cc561aab-29d7-4528-b29c-c79887c6c13b"},"vehicle_type_id":"4","last_reported":1728673629,"current_range_meters":6000,"station_id":"ce4bhr12rcd13ifvqhqg","pricing_plan_id":"cebpf4jnsgd1na2vs0mg"},{"bike_id":"5cc48ddd-2a49-4f52-83f7-70d77212bc0f","system_id":"levelo_inurba_marseille","lat":43.2318,"lon":5.39993,"is_reserved":false,"is_disabled":false,"rental_uris":{"android":"levelo://app?vid=5cc48ddd-2a49-4f52-83f7-70d77212bc0f","ios":"levelo://app?vid=5cc48ddd-2a49-4f52-83f7-70d77212bc0f"},"vehicle_type_id":"4","last_reported":1728673629,"current_range_meters":21600,"station_id":"ce4bhn12rcd13ifvqgqg","pricing_plan_id":"cebpf4jnsgd1na2vs0mg"},{"bike_id":"bd004f88-3040-49da-98bd-9f20fbc0cf74","system_id":"levelo_inurba_marseille","lat":43.28934,"lon":5.39624,"is_reserved":false,"is_disabled":false,"rental_uris":{"android":"levelo://app?vid=bd004f88-3040-49da-98bd-9f20fbc0cf74","ios":"levelo://app?vid=bd004f88-3040-49da-98bd-9f20fbc0cf74"},"vehicle_type_id":"4","last_reported":1728673629,"current_range_meters":16400,"station_id":"ce4bh3h2rcd13ifvqdn0","pricing_plan_id":"cebpf4jnsgd1na2vs0mg"},{"bike_id":"9088d917-5e44-461a-af28-2eb43d158bb2","system_id":"levelo_inurba_marseille","lat":43.28038,"lon":5.36942,"is_reserved":false,"is_disabled":false,"rental_uris":{"android":"levelo://app?vid=9088d917-5e44-461a-af28-2eb43d158bb2","ios":"levelo://app?vid=9088d917-5e44-461a-af28-2eb43d158bb2"},"vehicle_type_id":"4","last_reported":1728673629,"current_range_meters":26000,"station_id":"ce4bha12rcd13ifvqef0","pricing_plan_id":"cebpf4jnsgd1na2vs0mg"},{"bike_id":"78b07b82-fb2e-40ad-a7d1-40cd1eff2bdb","system_id":"levelo_inurba_marseille","lat":43.26563,"lon":5.39004,"is_reserved":false,"is_disabled":false,"rental_uris":{"android":"levelo://app?vid=78b07b82-fb2e-40ad-a7d1-40cd1eff2bdb","ios":"levelo://app?vid=78b07b82-fb2e-40ad-a7d1-40cd1eff2bdb"},"vehicle_type_id":"4","last_reported":1728673629,"current_range_meters":31200,"station_id":"ce4bhe12rcd13ifvqf30","pricing_plan_id":"cebpf4jnsgd1na2vs0mg"},{"bike_id":"57a8a4e4-fb43-474f-af8c-fa1abb87ecef","system_id":"levelo_inurba_marseille","lat":43.33022,"lon":5.39039,"is_reserved":false,"is_disabled":false,"rental_uris":{"android":"levelo://app?vid=57a8a4e4-fb43-474f-af8c-fa1abb87ecef","ios":"levelo://app?vid=57a8a4e4-fb43-474f-af8c-fa1abb87ecef"},"vehicle_type_id":"4","last_reported":1728673629,"current_range_meters":37600,"station_id":"ce4bhr92rcd13ifvqhrg","pricing_plan_id":"cebpf4jnsgd1na2vs0mg"},{"bike_id":"df0f8ce5-e716-43dd-8e18-79cb8dbf2fde","system_id":"levelo_inurba_marseille","lat":43.31995,"lon":5.38163,"is_reserved":false,"is_disabled":false,"rental_uris":{"android":"levelo://app?vid=df0f8ce5-e716-43dd-8e18-79cb8dbf2fde","ios":"levelo://app?vid=df0f8ce5-e716-43dd-8e18-79cb8dbf2fde"},"vehicle_type_id":"4","last_reported":1728673629,"current_range_meters":37600,"station_id":"ce4bhr12rcd13ifvqhpg","pricing_plan_id":"cebpf4jnsgd1na2vs0mg"},{"bike_id":"17a689be-8074-44f9-9192-fa01e84cdd64","system_id":"levelo_inurba_marseille","lat":43.27997,"lon":5.40006,"is_reserved":false,"is_disabled":false,"rental_uris":{"android":"levelo://app?vid=17a689be-8074-44f9-9192-fa01e84cdd64","ios":"levelo://app?vid=17a689be-8074-44f9-9192-fa01e84cdd64"},"vehicle_type_id":"4","last_reported":1728673629,"current_range_meters":14800,"station_id":"ce4bho92rcd13ifvqh4g","pricing_plan_id":"cebpf4jnsgd1na2vs0mg"},{"bike_id":"c46c207a-3ed0-432b-a6f7-e8f56aa6c44e","system_id":"levelo_inurba_marseille","lat":43.33021,"lon":5.39046,"is_reserved":false,"is_disabled":false,"rental_uris":{"android":"levelo://app?vid=c46c207a-3ed0-432b-a6f7-e8f56aa6c44e","ios":"levelo://app?vid=c46c207a-3ed0-432b-a6f7-e8f56aa6c44e"},"vehicle_type_id":"4","last_reported":1728673629,"current_range_meters":8400,"station_id":"ce4bhr92rcd13ifvqhrg","pricing_plan_id":"cebpf4jnsgd1na2vs0mg"},{"bike_id":"8a920b57-aa76-400b-b925-565e4001778f","system_id":"levelo_inurba_marseille","lat":43.29965,"lon":5.38495,"is_reserved":false,"is_disabled":false,"rental_uris":{"android":"levelo://app?vid=8a920b57-aa76-400b-b925-565e4001778f","ios":"levelo://app?vid=8a920b57-aa76-400b-b925-565e4001778f"},"vehicle_type_id":"4","last_reported":1728673629,"current_range_meters":8400,"station_id":"ce4bgj92rcd13ifvqbd0","pricing_plan_id":"cebpf4jnsgd1na2vs0mg"},{"bike_id":"68faa981-278b-44c0-9226-7968a8e7efee","system_id":"levelo_inurba_marseille","lat":43.27994,"lon":5.40008,"is_reserved":false,"is_disabled":false,"rental_uris":{"android":"levelo://app?vid=68faa981-278b-44c0-9226-7968a8e7efee","ios":"levelo://app?vid=68faa981-278b-44c0-9226-7968a8e7efee"},"vehicle_type_id":"4","last_reported":1728673629,"current_range_meters":30400,"station_id":"ce4bho92rcd13ifvqh4g","pricing_plan_id":"cebpf4jnsgd1na2vs0mg"},{"bike_id":"4467a861-ba3e-4726-8de3-644e0d9126ff","system_id":"levelo_inurba_marseille","lat":43.30604,"lon":5.37214,"is_reserved":false,"is_disabled":false,"rental_uris":{"android":"levelo://app?vid=4467a861-ba3e-4726-8de3-644e0d9126ff","ios":"levelo://app?vid=4467a861-ba3e-4726-8de3-644e0d9126ff"},"vehicle_type_id":"4","last_reported":1728673629,"current_range_meters":7200,"station_id":"ce4bgqh2rcd13ifvqc4g","pricing_plan_id":"cebpf4jnsgd1na2vs0mg"},{"bike_id":"600a6ea5-5c70-4f25-9b57-c621b8210681","system_id":"levelo_inurba_marseille","lat":43.32658,"lon":5.40986,"is_reserved":false,"is_disabled":false,"rental_uris":{"android":"levelo://app?vid=600a6ea5-5c70-4f25-9b57-c621b8210681","ios":"levelo://app?vid=600a6ea5-5c70-4f25-9b57-c621b8210681"},"vehicle_type_id":"4","last_reported":1728673629,"current_range_meters":36800,"station_id":"ce4bhpp2rcd13ifvqhgg","pricing_plan_id":"cebpf4jnsgd1na2vs0mg"},{"bike_id":"30a84d2c-e69a-4e44-9aa7-f43fed6b54b8","system_id":"levelo_inurba_marseille","lat":43.29436,"lon":5.39756,"is_reserved":false,"is_disabled":false,"rental_uris":{"android":"levelo://app?vid=30a84d2c-e69a-4e44-9aa7-f43fed6b54b8","ios":"levelo://app?vid=30a84d2c-e69a-4e44-9aa7-f43fed6b54b8"},"vehicle_type_id":"4","last_reported":1728673629,"current_range_meters":20800,"station_id":"ce4bh3h2rcd13ifvqdo0","pricing_plan_id":"cebpf4jnsgd1na2vs0mg"},{"bike_id":"619dafe7-445e-49f1-b95d-f6bc9426917e","system_id":"levelo_inurba_marseille","lat":43.27909,"lon":5.3958,"is_reserved":false,"is_disabled":false,"rental_uris":{"android":"levelo://app?vid=619dafe7-445e-49f1-b95d-f6bc9426917e","ios":"levelo://app?vid=619dafe7-445e-49f1-b95d-f6bc9426917e"},"vehicle_type_id":"4","last_reported":1728673629,"current_range_meters":12800,"station_id":"ce4bhf92rcd13ifvqf40","pricing_plan_id":"cebpf4jnsgd1na2vs0mg"},{"bike_id":"7b6baa85-f647-4dbc-bee4-af88f44a8bf2","system_id":"levelo_inurba_marseille","lat":43.22924,"lon":5.35377,"is_reserved":false,"is_disabled":false,"rental_uris":{"android":"levelo://app?vid=7b6baa85-f647-4dbc-bee4-af88f44a8bf2","ios":"levelo://app?vid=7b6baa85-f647-4dbc-bee4-af88f44a8bf2"},"vehicle_type_id":"4","last_reported":1728673629,"current_range_meters":23200,"station_id":"cpo3532slgdg3j2ikp40","pricing_plan_id":"cebpf4jnsgd1na2vs0mg"},{"bike_id":"a348a31a-1297-452b-9521-78d694a6e3f5","system_id":"levelo_inurba_marseille","lat":43.29423,"lon":5.38617,"is_reserved":false,"is_disabled":false,"rental_uris":{"android":"levelo://app?vid=a348a31a-1297-452b-9521-78d694a6e3f5","ios":"levelo://app?vid=a348a31a-1297-452b-9521-78d694a6e3f5"},"vehicle_type_id":"4","last_reported":1728673629,"current_range_meters":38800,"station_id":"ce4bh2h2rcd13ifvqdh0","pricing_plan_id":"cebpf4jnsgd1na2vs0mg"},{"bike_id":"30e7d33d-e258-4432-bd01-ddafb22fd1ba","system_id":"levelo_inurba_marseille","lat":43.32,"lon":5.38158,"is_reserved":false,"is_disabled":false,"rental_uris":{"android":"levelo://app?vid=30e7d33d-e258-4432-bd01-ddafb22fd1ba","ios":"levelo://app?vid=30e7d33d-e258-4432-bd01-ddafb22fd1ba"},"vehicle_type_id":"4","last_reported":1728673629,"current_range_meters":38800,"station_id":"ce4bhr12rcd13ifvqhpg","pricing_plan_id":"cebpf4jnsgd1na2vs0mg"},{"bike_id":"1d17c895-cef0-42d1-a377-0deb6768f522","system_id":"levelo_inurba_marseille","lat":43.29532,"lon":5.38538,"is_reserved":false,"is_disabled":false,"rental_uris":{"android":"levelo://app?vid=1d17c895-cef0-42d1-a377-0deb6768f522","ios":"levelo://app?vid=1d17c895-cef0-42d1-a377-0deb6768f522"},"vehicle_type_id":"4","last_reported":1728673629,"current_range_meters":6400,"station_id":"ce4bgih2rcd13ifvqba0","pricing_plan_id":"cebpf4jnsgd1na2vs0mg"},{"bike_id":"3c25dded-f8d5-4193-a336-9fad641c4aac","system_id":"levelo_inurba_marseille","lat":43.33766,"lon":5.37447,"is_reserved":false,"is_disabled":false,"rental_uris":{"android":"levelo://app?vid=3c25dded-f8d5-4193-a336-9fad641c4aac","ios":"levelo://app?vid=3c25dded-f8d5-4193-a336-9fad641c4aac"},"vehicle_type_id":"4","last_reported":1728673629,"current_range_meters":11200,"station_id":"","pricing_plan_id":"cebpf4jnsgd1na2vs0mg"},{"bike_id":"c9190722-3365-4e40-a5a3-e23bd7a15b11","system_id":"levelo_inurba_marseille","lat":43.2926,"lon":5.38441,"is_reserved":false,"is_disabled":false,"rental_uris":{"android":"levelo://app?vid=c9190722-3365-4e40-a5a3-e23bd7a15b11","ios":"levelo://app?vid=c9190722-3365-4e40-a5a3-e23bd7a15b11"},"vehicle_type_id":"4","last_reported":1728673629,"current_range_meters":4400,"station_id":"ce4bh692rcd13ifvqea0","pricing_plan_id":"cebpf4jnsgd1na2vs0mg"},{"bike_id":"cdc17668-05c9-4003-874e-2d3f16fe19ba","system_id":"levelo_inurba_marseille","lat":43.2988,"lon":5.38909,"is_reserved":false,"is_disabled":false,"rental_uris":{"android":"levelo://app?vid=cdc17668-05c9-4003-874e-2d3f16fe19ba","ios":"levelo://app?vid=cdc17668-05c9-4003-874e-2d3f16fe19ba"},"vehicle_type_id":"4","last_reported":1728673629,"current_range_meters":36800,"station_id":"ce4bh392rcd13ifvqdl0","pricing_plan_id":"cebpf4jnsgd1na2vs0mg"},{"bike_id":"f22edef2-00fd-4f8c-b1a2-09fab6675b5d","system_id":"levelo_inurba_marseille","lat":43.23181,"lon":5.3999,"is_reserved":false,"is_disabled":false,"rental_uris":{"android":"levelo://app?vid=f22edef2-00fd-4f8c-b1a2-09fab6675b5d","ios":"levelo://app?vid=f22edef2-00fd-4f8c-b1a2-09fab6675b5d"},"vehicle_type_id":"4","last_reported":1728673629,"current_range_meters":3600,"station_id":"ce4bhn12rcd13ifvqgqg","pricing_plan_id":"cebpf4jnsgd1na2vs0mg"},{"bike_id":"7975faaf-f260-41c7-87cd-147b9a3b3ebf","system_id":"levelo_inurba_marseille","lat":43.23057,"lon":5.35488,"is_reserved":false,"is_disabled":false,"rental_uris":{"android":"levelo://app?vid=7975faaf-f260-41c7-87cd-147b9a3b3ebf","ios":"levelo://app?vid=7975faaf-f260-41c7-87cd-147b9a3b3ebf"},"vehicle_type_id":"4","last_reported":1728673629,"current_range_meters":12000,"station_id":"cpo3342slgdg3j2ifvpg","pricing_plan_id":"cebpf4jnsgd1na2vs0mg"},{"bike_id":"daa9a70c-6b73-469b-b6cf-915b527dba7b","system_id":"levelo_inurba_marseille","lat":43.27996,"lon":5.40006,"is_reserved":false,"is_disabled":false,"rental_uris":{"android":"levelo://app?vid=daa9a70c-6b73-469b-b6cf-915b527dba7b","ios":"levelo://app?vid=daa9a70c-6b73-469b-b6cf-915b527dba7b"},"vehicle_type_id":"4","last_reported":1728673629,"current_range_meters":32800,"station_id":"ce4bho92rcd13ifvqh4g","pricing_plan_id":"cebpf4jnsgd1na2vs0mg"},{"bike_id":"b7dac32a-be13-4488-a677-8dec815e7d77","system_id":"levelo_inurba_marseille","lat":43.3054,"lon":5.36704,"is_reserved":false,"is_disabled":false,"rental_uris":{"android":"levelo://app?vid=b7dac32a-be13-4488-a677-8dec815e7d77","ios":"levelo://app?vid=b7dac32a-be13-4488-a677-8dec815e7d77"},"vehicle_type_id":"4","last_reported":1728673629,"current_range_meters":37600,"station_id":"ce4bgrp2rcd13ifvqc9g","pricing_plan_id":"cebpf4jnsgd1na2vs0mg"},{"bike_id":"703d5faf-e8f5-42e8-a15c-36acb1ae64d2","system_id":"levelo_inurba_marseille","lat":43.22934,"lon":5.35382,"is_reserved":false,"is_disabled":false,"rental_uris":{"android":"levelo://app?vid=703d5faf-e8f5-42e8-a15c-36acb1ae64d2","ios":"levelo://app?vid=703d5faf-e8f5-42e8-a15c-36acb1ae64d2"},"vehicle_type_id":"4","last_reported":1728673629,"current_range_meters":37600,"station_id":"cpo3532slgdg3j2ikp40","pricing_plan_id":"cebpf4jnsgd1na2vs0mg"},{"bike_id":"2ef5a713-e4cb-4135-abad-24675da93d0d","system_id":"levelo_inurba_marseille","lat":43.29528,"lon":5.38544,"is_reserved":false,"is_disabled":false,"rental_uris":{"android":"levelo://app?vid=2ef5a713-e4cb-4135-abad-24675da93d0d","ios":"levelo://app?vid=2ef5a713-e4cb-4135-abad-24675da93d0d"},"vehicle_type_id":"4","last_reported":1728673629,"current_range_meters":38000,"station_id":"ce4bgih2rcd13ifvqba0","pricing_plan_id":"cebpf4jnsgd1na2vs0mg"},{"bike_id":"2e4c1df3-53ec-4840-98d4-7157933b72eb","system_id":"levelo_inurba_marseille","lat":43.29227,"lon":5.36067,"is_reserved":false,"is_disabled":false,"rental_uris":{"android":"levelo://app?vid=2e4c1df3-53ec-4840-98d4-7157933b72eb","ios":"levelo://app?vid=2e4c1df3-53ec-4840-98d4-7157933b72eb"},"vehicle_type_id":"4","last_reported":1728673629,"current_range_meters":28000,"station_id":"ce4bhbh2rcd13ifvqeqg","pricing_plan_id":"cebpf4jnsgd1na2vs0mg"},{"bike_id":"52d8fb7c-64d0-4be5-81b3-0691419d1225","system_id":"levelo_inurba_marseille","lat":43.30355,"lon":5.41879,"is_reserved":false,"is_disabled":false,"rental_uris":{"android":"levelo://app?vid=52d8fb7c-64d0-4be5-81b3-0691419d1225","ios":"levelo://app?vid=52d8fb7c-64d0-4be5-81b3-0691419d1225"},"vehicle_type_id":"4","last_reported":1728673629,"current_range_meters":35600,"station_id":"ce4bhop2rcd13ifvqh7g","pricing_plan_id":"cebpf4jnsgd1na2vs0mg"},{"bike_id":"a9dcdd16-9599-4f0d-ad5b-ba43bb072194","system_id":"levelo_inurba_marseille","lat":43.27996,"lon":5.40003,"is_reserved":false,"is_disabled":false,"rental_uris":{"android":"levelo://app?vid=a9dcdd16-9599-4f0d-ad5b-ba43bb072194","ios":"levelo://app?vid=a9dcdd16-9599-4f0d-ad5b-ba43bb072194"},"vehicle_type_id":"4","last_reported":1728673629,"current_range_meters":8000,"station_id":"ce4bho92rcd13ifvqh4g","pricing_plan_id":"cebpf4jnsgd1na2vs0mg"},{"bike_id":"0affb511-11e4-4062-b2b6-78c70f605970","system_id":"levelo_inurba_marseille","lat":43.23834,"lon":5.36555,"is_reserved":false,"is_disabled":false,"rental_uris":{"android":"levelo://app?vid=0affb511-11e4-4062-b2b6-78c70f605970","ios":"levelo://app?vid=0affb511-11e4-4062-b2b6-78c70f605970"},"vehicle_type_id":"4","last_reported":1728673629,"current_range_meters":6400,"station_id":"","pricing_plan_id":"cebpf4jnsgd1na2vs0mg"},{"bike_id":"2f850830-77c7-4f29-b3a4-8e1d998b053f","system_id":"levelo_inurba_marseille","lat":43.32284,"lon":5.38277,"is_reserved":false,"is_disabled":false,"rental_uris":{"android":"levelo://app?vid=2f850830-77c7-4f29-b3a4-8e1d998b053f","ios":"levelo://app?vid=2f850830-77c7-4f29-b3a4-8e1d998b053f"},"vehicle_type_id":"4","last_reported":1728673629,"current_range_meters":25200,"station_id":"ce4bhr12rcd13ifvqhqg","pricing_plan_id":"cebpf4jnsgd1na2vs0mg"},{"bike_id":"4cba02c7-d3df-4fa4-a2c3-95934a08dd01","system_id":"levelo_inurba_marseille","lat":43.24546,"lon":5.39521,"is_reserved":false,"is_disabled":false,"rental_uris":{"android":"levelo://app?vid=4cba02c7-d3df-4fa4-a2c3-95934a08dd01","ios":"levelo://app?vid=4cba02c7-d3df-4fa4-a2c3-95934a08dd01"},"vehicle_type_id":"4","last_reported":1728673629,"current_range_meters":13600,"station_id":"ce4bhlp2rcd13ifvqgjg","pricing_plan_id":"cebpf4jnsgd1na2vs0mg"},{"bike_id":"e993f004-5077-4956-93fd-edc4d3fce1a5","system_id":"levelo_inurba_marseille","lat":43.297729,"lon":5.365588,"is_reserved":false,"is_disabled":false,"rental_uris":{"android":"levelo://app?vid=e993f004-5077-4956-93fd-edc4d3fce1a5","ios":"levelo://app?vid=e993f004-5077-4956-93fd-edc4d3fce1a5"},"vehicle_type_id":"4","last_reported":1728673629,"current_range_meters":38000,"station_id":"ce4bgjh2rcd13ifvqbf0","pricing_plan_id":"cebpf4jnsgd1na2vs0mg"},{"bike_id":"adb3616b-0fa7-4119-8361-c616ab805fdf","system_id":"levelo_inurba_marseille","lat":43.28405,"lon":5.37507,"is_reserved":false,"is_disabled":false,"rental_uris":{"android":"levelo://app?vid=adb3616b-0fa7-4119-8361-c616ab805fdf","ios":"levelo://app?vid=adb3616b-0fa7-4119-8361-c616ab805fdf"},"vehicle_type_id":"4","last_reported":1728673629,"current_range_meters":38400,"station_id":"ce4bh412rcd13ifvqds0","pricing_plan_id":"cebpf4jnsgd1na2vs0mg"},{"bike_id":"56d643c5-1233-4606-95b4-337bb127a47a","system_id":"levelo_inurba_marseille","lat":43.25862,"lon":5.39897,"is_reserved":false,"is_disabled":false,"rental_uris":{"android":"levelo://app?vid=56d643c5-1233-4606-95b4-337bb127a47a","ios":"levelo://app?vid=56d643c5-1233-4606-95b4-337bb127a47a"},"vehicle_type_id":"4","last_reported":1728673629,"current_range_meters":36800,"station_id":"ce4bhl92rcd13ifvqghg","pricing_plan_id":"cebpf4jnsgd1na2vs0mg"},{"bike_id":"4c6d104c-578b-42dd-9868-6f8ae896012a","system_id":"levelo_inurba_marseille","lat":43.24178,"lon":5.3973,"is_reserved":false,"is_disabled":false,"rental_uris":{"android":"levelo://app?vid=4c6d104c-578b-42dd-9868-6f8ae896012a","ios":"levelo://app?vid=4c6d104c-578b-42dd-9868-6f8ae896012a"},"vehicle_type_id":"4","last_reported":1728673629,"current_range_meters":39200,"station_id":"ce4bhn12rcd13ifvqgpg","pricing_plan_id":"cebpf4jnsgd1na2vs0mg"},{"bike_id":"d42069ab-8fe1-48e2-be57-4b84375ce0ad","system_id":"levelo_inurba_marseille","lat":43.30182,"lon":5.3662,"is_reserved":false,"is_disabled":false,"rental_uris":{"android":"levelo://app?vid=d42069ab-8fe1-48e2-be57-4b84375ce0ad","ios":"levelo://app?vid=d42069ab-8fe1-48e2-be57-4b84375ce0ad"},"vehicle_type_id":"4","last_reported":1728673629,"current_range_meters":38400,"station_id":"ce4bgrh2rcd13ifvqc8g","pricing_plan_id":"cebpf4jnsgd1na2vs0mg"},{"bike_id":"17fe4871-7d49-4f26-ac05-7abcfc118c01","system_id":"levelo_inurba_marseille","lat":43.25118,"lon":5.40323,"is_reserved":false,"is_disabled":false,"rental_uris":{"android":"levelo://app?vid=17fe4871-7d49-4f26-ac05-7abcfc118c01","ios":"levelo://app?vid=17fe4871-7d49-4f26-ac05-7abcfc118c01"},"vehicle_type_id":"4","last_reported":1728673629,"current_range_meters":4000,"station_id":"ce4bhlh2rcd13ifvqgig","pricing_plan_id":"cebpf4jnsgd1na2vs0mg"},{"bike_id":"efd9b357-4f2e-410c-a416-6a9d1cc077d8","system_id":"levelo_inurba_marseille","lat":43.23182,"lon":5.39992,"is_reserved":false,"is_disabled":false,"rental_uris":{"android":"levelo://app?vid=efd9b357-4f2e-410c-a416-6a9d1cc077d8","ios":"levelo://app?vid=efd9b357-4f2e-410c-a416-6a9d1cc077d8"},"vehicle_type_id":"4","last_reported":1728673629,"current_range_meters":19600,"station_id":"ce4bhn12rcd13ifvqgqg","pricing_plan_id":"cebpf4jnsgd1na2vs0mg"},{"bike_id":"dbef97ea-a0e6-4907-b3ec-b93c9375800e","system_id":"levelo_inurba_marseille","lat":43.29892,"lon":5.4367,"is_reserved":false,"is_disabled":false,"rental_uris":{"android":"levelo://app?vid=dbef97ea-a0e6-4907-b3ec-b93c9375800e","ios":"levelo://app?vid=dbef97ea-a0e6-4907-b3ec-b93c9375800e"},"vehicle_type_id":"4","last_reported":1728673629,"current_range_meters":5600,"station_id":"ce4bhpp2rcd13ifvqhfg","pricing_plan_id":"cebpf4jnsgd1na2vs0mg"},{"bike_id":"b9b82ce8-fe4d-4bb9-898f-e7db5f425bc0","system_id":"levelo_inurba_marseille","lat":43.31213,"lon":5.36844,"is_reserved":false,"is_disabled":false,"rental_uris":{"android":"levelo://app?vid=b9b82ce8-fe4d-4bb9-898f-e7db5f425bc0","ios":"levelo://app?vid=b9b82ce8-fe4d-4bb9-898f-e7db5f425bc0"},"vehicle_type_id":"4","last_reported":1728673629,"current_range_meters":37600,"station_id":"ce4bgl92rcd13ifvqbq0","pricing_plan_id":"cebpf4jnsgd1na2vs0mg"},{"bike_id":"1eac4288-770e-4371-b3e4-3dd4a7bf3fe5","system_id":"levelo_inurba_marseille","lat":43.3054,"lon":5.36558,"is_reserved":false,"is_disabled":false,"rental_uris":{"android":"levelo://app?vid=1eac4288-770e-4371-b3e4-3dd4a7bf3fe5","ios":"levelo://app?vid=1eac4288-770e-4371-b3e4-3dd4a7bf3fe5"},"vehicle_type_id":"4","last_reported":1728673629,"current_range_meters":22800,"station_id":"ce4bgs12rcd13ifvqcag","pricing_plan_id":"cebpf4jnsgd1na2vs0mg"},{"bike_id":"cb1729d5-fdb0-4341-b23f-89bbecc205df","system_id":"levelo_inurba_marseille","lat":43.29894,"lon":5.38895,"is_reserved":false,"is_disabled":false,"rental_uris":{"android":"levelo://app?vid=cb1729d5-fdb0-4341-b23f-89bbecc205df","ios":"levelo://app?vid=cb1729d5-fdb0-4341-b23f-89bbecc205df"},"vehicle_type_id":"4","last_reported":1728673629,"current_range_meters":8400,"station_id":"ce4bh392rcd13ifvqdl0","pricing_plan_id":"cebpf4jnsgd1na2vs0mg"},{"bike_id":"d0af47d5-71a2-4e6e-a4f7-a2d225b8e53a","system_id":"levelo_inurba_marseille","lat":43.23056,"lon":5.35492,"is_reserved":false,"is_disabled":false,"rental_uris":{"android":"levelo://app?vid=d0af47d5-71a2-4e6e-a4f7-a2d225b8e53a","ios":"levelo://app?vid=d0af47d5-71a2-4e6e-a4f7-a2d225b8e53a"},"vehicle_type_id":"4","last_reported":1728673629,"current_range_meters":14000,"station_id":"cpo3342slgdg3j2ifvpg","pricing_plan_id":"cebpf4jnsgd1na2vs0mg"},{"bike_id":"950ea3a9-aab7-4482-85c9-672b90e5a778","system_id":"levelo_inurba_marseille","lat":43.299042,"lon":5.381474,"is_reserved":false,"is_disabled":false,"rental_uris":{"android":"levelo://app?vid=950ea3a9-aab7-4482-85c9-672b90e5a778","ios":"levelo://app?vid=950ea3a9-aab7-4482-85c9-672b90e5a778"},"vehicle_type_id":"4","last_reported":1728673629,"current_range_meters":3200,"station_id":"ce4bgj12rcd13ifvqbc0","pricing_plan_id":"cebpf4jnsgd1na2vs0mg"},{"bike_id":"e3b1c181-f3f9-4efa-a303-3dc856557be8","system_id":"levelo_inurba_marseille","lat":43.28157,"lon":5.42649,"is_reserved":false,"is_disabled":false,"rental_uris":{"android":"levelo://app?vid=e3b1c181-f3f9-4efa-a303-3dc856557be8","ios":"levelo://app?vid=e3b1c181-f3f9-4efa-a303-3dc856557be8"},"vehicle_type_id":"4","last_reported":1728673629,"current_range_meters":25200,"station_id":"ce4bhnh2rcd13ifvqgug","pricing_plan_id":"cebpf4jnsgd1na2vs0mg"},{"bike_id":"93ab6c55-8dad-48b5-8f7a-b3cf1bec6cfe","system_id":"levelo_inurba_marseille","lat":43.27995,"lon":5.40007,"is_reserved":false,"is_disabled":false,"rental_uris":{"android":"levelo://app?vid=93ab6c55-8dad-48b5-8f7a-b3cf1bec6cfe","ios":"levelo://app?vid=93ab6c55-8dad-48b5-8f7a-b3cf1bec6cfe"},"vehicle_type_id":"4","last_reported":1728673629,"current_range_meters":34800,"station_id":"ce4bho92rcd13ifvqh4g","pricing_plan_id":"cebpf4jnsgd1na2vs0mg"},{"bike_id":"3f1f6032-c6dc-40b2-80a0-591226a7e5f2","system_id":"levelo_inurba_marseille","lat":43.25088,"lon":5.39515,"is_reserved":false,"is_disabled":false,"rental_uris":{"android":"levelo://app?vid=3f1f6032-c6dc-40b2-80a0-591226a7e5f2","ios":"levelo://app?vid=3f1f6032-c6dc-40b2-80a0-591226a7e5f2"},"vehicle_type_id":"4","last_reported":1728673629,"current_range_meters":38800,"station_id":"ce4bhm12rcd13ifvqgkg","pricing_plan_id":"cebpf4jnsgd1na2vs0mg"},{"bike_id":"bd00041d-8aeb-4594-b681-526e5b24a2e1","system_id":"levelo_inurba_marseille","lat":43.29234,"lon":5.36061,"is_reserved":false,"is_disabled":false,"rental_uris":{"android":"levelo://app?vid=bd00041d-8aeb-4594-b681-526e5b24a2e1","ios":"levelo://app?vid=bd00041d-8aeb-4594-b681-526e5b24a2e1"},"vehicle_type_id":"4","last_reported":1728673629,"current_range_meters":37600,"station_id":"ce4bhbh2rcd13ifvqeqg","pricing_plan_id":"cebpf4jnsgd1na2vs0mg"},{"bike_id":"b0498ccd-9078-4b09-b9cd-56ffda8f6ce8","system_id":"levelo_inurba_marseille","lat":43.298833,"lon":5.384875,"is_reserved":false,"is_disabled":false,"rental_uris":{"android":"levelo://app?vid=b0498ccd-9078-4b09-b9cd-56ffda8f6ce8","ios":"levelo://app?vid=b0498ccd-9078-4b09-b9cd-56ffda8f6ce8"},"vehicle_type_id":"4","last_reported":1728673629,"current_range_meters":22800,"station_id":"ce4bh3p2rcd13ifvqdp0","pricing_plan_id":"cebpf4jnsgd1na2vs0mg"},{"bike_id":"c8b2f361-0bf2-43a6-b4b7-0f317cc2df54","system_id":"levelo_inurba_marseille","lat":43.29845,"lon":5.36277,"is_reserved":false,"is_disabled":false,"rental_uris":{"android":"levelo://app?vid=c8b2f361-0bf2-43a6-b4b7-0f317cc2df54","ios":"levelo://app?vid=c8b2f361-0bf2-43a6-b4b7-0f317cc2df54"},"vehicle_type_id":"4","last_reported":1728673629,"current_range_meters":14000,"station_id":"ce4bgpp2rcd13ifvqc3g","pricing_plan_id":"cebpf4jnsgd1na2vs0mg"},