{"last_updated":1690578332,"ttl":30,"version":"2.2","data":{"bikes":[{"bike_id":"e416fd41-8e68-461a-86dd-db827a1a199b","system_id":"levelo_inurba_marseille","lat":43.313391,"lon":5.36706,"is_reserved":false,"is_disabled":false,"rental_uris":{"android":"levelo://app?vid=e416fd41-8e68-461a-86dd-db827a1a199b","ios":"levelo://app?vid=e416fd41-8e68-461a-86dd-db827a1a199b"},"vehicle_type_id":"4","last_reported":1690578333,"current_range_meters":24400,"station_id":"ce4bgr92rcd13ifvqc6g","pricing_plan_id":"free"},{"bike_id":"77041a40-64a2-4ab4-b3d7-9c1ad6ce167c","system_id":"levelo_inurba_marseille","lat":43.313391,"lon":5.36706,"is_reserved":false,"is_disabled":false,"rental_uris":{"android":"levelo://app?vid=77041a40-64a2-4ab4-b3d7-9c1ad6ce167c","ios":"levelo://app?vid=77041a40-64a2-4ab4-b3d7-9c1ad6ce167c"},"vehicle_type_id":"4","last_reported":1690578333,"current_range_meters":5200,"station_id":"ce4bgr92rcd13ifvqc6g","pricing_plan_id":"free"},{"bike_id":"7858a41c-c71f-4877-a760-2f9245e3fdbd","system_id":"levelo_inurba_marseille","lat":43.313391,"lon":5.36706,"is_reserved":false,"is_disabled":false,"rental_uris":{"android":"levelo://app?vid=7858a41c-c71f-4877-a760-2f9245e3fdbd","ios":"levelo://app?vid=7858a41c-c71f-4877-a760-2f9245e3fdbd"},"vehicle_type_id":"4","last_reported":1690578333,"current_range_meters":21600,"station_id":"ce4bgr92rcd13ifvqc6g","pricing_plan_id":"free"},{"bike_id":"718fa064-8d6c-48af-a612-02091538370c","system_id":"levelo_inurba_marseille","lat":43.313391,"lon":5.36706,"is_reserved":false,"is_disabled":false,"rental_uris":{"android":"levelo://app?vid=718fa064-8d6c-48af-a612-02091538370c","ios":"levelo://app?vid=718fa064-8d6c-48af-a612-02091538370c"},"vehicle_type_id":"4","last_reported":1690578333,"current_range_meters":17200,"station_id":"ce4bgr92rcd13ifvqc6g","pricing_plan_id":"free"},{"bike_id":"a2d367d1-d25a-4beb-b99d-86e2c6327885","system_id":"levelo_inurba_marseille","lat":43.313391,"lon":5.36706,"is_reserved":false,"is_disabled":false,"rental_uris":{"android":"levelo://app?vid=a2d367d1-d25a-4beb-b99d-86e2c6327885","ios":"levelo://app?vid=a2d367d1-d25a-4beb-b99d-86e2c6327885"},"vehicle_type_id":"4","last_reported":1690578333,"current_range_meters":13600,"station_id":"ce4bgr92rcd13ifvqc6g","pricing_plan_id":"free"},{"bike_id":"c0e3dc51-77a1-4ee0-905b-2c04e5505357","system_id":"levelo_inurba_marseille","lat":43.313391,"lon":5.36706,"is_reserved":false,"is_disabled":false,"rental_uris":{"android":"levelo://app?vid=c0e3dc51-77a1-4ee0-905b-2c04e5505357","ios":"levelo://app?vid=c0e3dc51-77a1-4ee0-905b-2c04e5505357"},"vehicle_type_id":"4","last_reported":1690578333,"current_range_meters":5200,"station_id":"ce4bgr92rcd13ifvqc6g","pricing_plan_id":"free"},{"bike_id":"10ca4634-653f-48a6-bca0-e27220a79631","system_id":"levelo_inurba_marseille","lat":43.31341,"lon":5.367098,"is_reserved":false,"is_disabled":false,"rental_uris":{"android":"levelo://app?vid=10ca4634-653f-48a6-bca0-e27220a79631","ios":"levelo://app?vid=10ca4634-653f-48a6-bca0-e27220a79631"},"vehicle_type_id":"4","last_reported":1690578333,"current_range_meters":23600,"station_id":"ce4bgr92rcd13ifvqc6g","pricing_plan_id":"free"},{"bike_id":"e2616a38-c59e-42e1-80ad-b9f808316ec9","system_id":"levelo_inurba_marseille","lat":43.31225,"lon":5.3684,"is_reserved":false,"is_disabled":false,"rental_uris":{"android":"levelo://app?vid=e2616a38-c59e-42e1-80ad-b9f808316ec9","ios":"levelo://app?vid=e2616a38-c59e-42e1-80ad-b9f808316ec9"},"vehicle_type_id":"4","last_reported":1690578333,"current_range_meters":18800,"station_id":"ce4bgl92rcd13ifvqbq0","pricing_plan_id":"free"},{"bike_id":"e526d4e2-849c-44ae-a0d7-5572a62df909","system_id":"levelo_inurba_marseille","lat":43.312239,"lon":5.368562,"is_reserved":false,"is_disabled":false,"rental_uris":{"android":"levelo://app?vid=e526d4e2-849c-44ae-a0d7-5572a62df909","ios":"levelo://app?vid=e526d4e2-849c-44ae-a0d7-5572a62df909"},"vehicle_type_id":"4","last_reported":1690578333,"current_range_meters":30800,"station_id":"ce4bgl92rcd13ifvqbq0","pricing_plan_id":"free"},{"bike_id":"10180fb1-c762-4a63-a7e5-94d669c15db5","system_id":"levelo_inurba_marseille","lat":43.31222,"lon":5.36857,"is_reserved":false,"is_disabled":false,"rental_uris":{"android":"levelo://app?vid=10180fb1-c762-4a63-a7e5-94d669c15db5","ios":"levelo://app?vid=10180fb1-c762-4a63-a7e5-94d669c15db5"},"vehicle_type_id":"4","last_reported":1690578333,"current_range_meters":0,"station_id":"ce4bgl92rcd13ifvqbq0","pricing_plan_id":"free"},{"bike_id":"345a3431-7236-454b-ac1e-77476c9ceac4","system_id":"levelo_inurba_marseille","lat":43.31217,"lon":5.3686,"is_reserved":false,"is_disabled":false,"rental_uris":{"android":"levelo://app?vid=345a3431-7236-454b-ac1e-77476c9ceac4","ios":"levelo://app?vid=345a3431-7236-454b-ac1e-77476c9ceac4"},"vehicle_type_id":"4","last_reported":1690578333,"current_range_meters":14000,"station_id":"ce4bgl92rcd13ifvqbq0","pricing_plan_id":"free"},{"bike_id":"e8460bd5-918b-4851-b614-145c0687b07a","system_id":"levelo_inurba_marseille","lat":43.30908,"lon":5.36856,"is_reserved":false,"is_disabled":false,"rental_uris":{"android":"levelo://app?vid=e8460bd5-918b-4851-b614-145c0687b07a","ios":"levelo://app?vid=e8460bd5-918b-4851-b614-145c0687b07a"},"vehicle_type_id":"4","last_reported":1690578333,"current_range_meters":29600,"station_id":"","pricing_plan_id":"free"},{"bike_id":"058d4f4d-d1a4-4d4f-87ff-9ff523144497","system_id":"levelo_inurba_marseille","lat":43.314811,"lon":5.373103,"is_reserved":false,"is_disabled":false,"rental_uris":{"android":"levelo://app?vid=058d4f4d-d1a4-4d4f-87ff-9ff523144497","ios":"levelo://app?vid=058d4f4d-d1a4-4d4f-87ff-9ff523144497"},"vehicle_type_id":"4","last_reported":1690578333,"current_range_meters":30000,"station_id":"ce4bgt12rcd13ifvqcd0","pricing_plan_id":"free"},{"bike_id":"f688cb07-6a23-4877-8004-8ed1ccb71172","system_id":"levelo_inurba_marseille","lat":43.314811,"lon":5.373103,"is_reserved":false,"is_disabled":false,"rental_uris":{"android":"levelo://app?vid=f688cb07-6a23-4877-8004-8ed1ccb71172","ios":"levelo://app?vid=f688cb07-6a23-4877-8004-8ed1ccb71172"},"vehicle_type_id":"4","last_reported":1690578333,"current_range_meters":31200,"station_id":"ce4bgt12rcd13ifvqcd0","pricing_plan_id":"free"},{"bike_id":"1e04aed6-0a21-4a1b-a754-8f6080bed9de","system_id":"levelo_inurba_marseille","lat":43.314811,"lon":5.373103,"is_reserved":false,"is_disabled":false,"rental_uris":{"android":"levelo://app?vid=1e04aed6-0a21-4a1b-a754-8f6080bed9de","ios":"levelo://app?vid=1e04aed6-0a21-4a1b-a754-8f6080bed9de"},"vehicle_type_id":"4","last_reported":1690578333,"current_range_meters":19200,"station_id":"ce4bgt12rcd13ifvqcd0","pricing_plan_id":"free"},{"bike_id":"866ad934-81a4-47a0-8501-4ef69c5ed938","system_id":"levelo_inurba_marseille","lat":43.314811,"lon":5.373103,"is_reserved":false,"is_disabled":false,"rental_uris":{"android":"levelo://app?vid=866ad934-81a4-47a0-8501-4ef69c5ed938","ios":"levelo://app?vid=866ad934-81a4-47a0-8501-4ef69c5ed938"},"vehicle_type_id":"4","last_reported":1690578333,"current_range_meters":31600,"station_id":"ce4bgt12rcd13ifvqcd0","pricing_plan_id":"free"},{"bike_id":"34f0b280-9d59-4713-b53b-97b19d5177e2","system_id":"levelo_inurba_marseille","lat":43.314811,"lon":5.373104,"is_reserved":false,"is_disabled":false,"rental_uris":{"android":"levelo://app?vid=34f0b280-9d59-4713-b53b-97b19d5177e2","ios":"levelo://app?vid=34f0b280-9d59-4713-b53b-97b19d5177e2"},"vehicle_type_id":"4","last_reported":1690578333,"current_range_meters":27200,"station_id":"ce4bgt12rcd13ifvqcd0","pricing_plan_id":"free"},{"bike_id":"3c167ec6-e064-4507-8d3a-13faaad1d25c","system_id":"levelo_inurba_marseille","lat":43.309039,"lon":5.371797,"is_reserved":false,"is_disabled":false,"rental_uris":{"android":"levelo://app?vid=3c167ec6-e064-4507-8d3a-13faaad1d25c","ios":"levelo://app?vid=3c167ec6-e064-4507-8d3a-13faaad1d25c"},"vehicle_type_id":"4","last_reported":1690578333,"current_range_meters":28400,"station_id":"ce4bguh2rcd13ifvqckg","pricing_plan_id":"free"},{"bike_id":"c5108470-0489-40db-9d86-d0b7df86bf41","system_id":"levelo_inurba_marseille","lat":43.305714,"lon":5.365633,"is_reserved":false,"is_disabled":false,"rental_uris":{"android":"levelo://app?vid=c5108470-0489-40db-9d86-d0b7df86bf41","ios":"levelo://app?vid=c5108470-0489-40db-9d86-d0b7df86bf41"},"vehicle_type_id":"4","last_reported":1690578333,"current_range_meters":3200,"station_id":"ce4bgs12rcd13ifvqcag","pricing_plan_id":"free"},{"bike_id":"cfe8e5c1-3b84-4781-9177-d65c09590499","system_id":"levelo_inurba_marseille","lat":43.305714,"lon":5.365633,"is_reserved":false,"is_disabled":false,"rental_uris":{"android":"levelo://app?vid=cfe8e5c1-3b84-4781-9177-d65c09590499","ios":"levelo://app?vid=cfe8e5c1-3b84-4781-9177-d65c09590499"},"vehicle_type_id":"4","last_reported":1690578333,"current_range_meters":8400,"station_id":"ce4bgs12rcd13ifvqcag","pricing_plan_id":"free"},{"bike_id":"e99631de-3de9-46a6-8056-34408558bb94","system_id":"levelo_inurba_marseille","lat":43.30599,"lon":5.37213,"is_reserved":false,"is_disabled":false,"rental_uris":{"android":"levelo://app?vid=e99631de-3de9-46a6-8056-34408558bb94","ios":"levelo://app?vid=e99631de-3de9-46a6-8056-34408558bb94"},"vehicle_type_id":"4","last_reported":1690578333,"current_range_meters":27600,"station_id":"ce4bgqh2rcd13ifvqc4g","pricing_plan_id":"free"},{"bike_id":"f20ea888-8740-440b-bfeb-8eb2a7c1f652","system_id":"levelo_inurba_marseille","lat":43.305989,"lon":5.37225,"is_reserved":false,"is_disabled":false,"rental_uris":{"android":"levelo://app?vid=f20ea888-8740-440b-bfeb-8eb2a7c1f652","ios":"levelo://app?vid=f20ea888-8740-440b-bfeb-8eb2a7c1f652"},"vehicle_type_id":"4","last_reported":1690578333,"current_range_meters":31200,"station_id":"ce4bgqh2rcd13ifvqc4g","pricing_plan_id":"free"},{"bike_id":"aa235ac8-1eaa-4c01-b904-dbe910890da7","system_id":"levelo_inurba_marseille","lat":43.311125,"lon":5.377624,"is_reserved":false,"is_disabled":false,"rental_uris":{"android":"levelo://app?vid=aa235ac8-1eaa-4c01-b904-dbe910890da7","ios":"levelo://app?vid=aa235ac8-1eaa-4c01-b904-dbe910890da7"},"vehicle_type_id":"4","last_reported":1690578333,"current_range_meters":10000,"station_id":"ce4bgt92rcd13ifvqcg0","pricing_plan_id":"free"},{"bike_id":"0e883e31-3ce4-43e2-8d47-12e4e1f2d116","system_id":"levelo_inurba_marseille","lat":43.311125,"lon":5.377624,"is_reserved":false,"is_disabled":false,"rental_uris":{"android":"levelo://app?vid=0e883e31-3ce4-43e2-8d47-12e4e1f2d116","ios":"levelo://app?vid=0e883e31-3ce4-43e2-8d47-12e4e1f2d116"},"vehicle_type_id":"4","last_reported":1690578333,"current_range_meters":11600,"station_id":"ce4bgt92rcd13ifvqcg0","pricing_plan_id":"free"},{"bike_id":"cc2c118d-a149-495d-a311-7cda834006cb","system_id":"levelo_inurba_marseille","lat":43.311125,"lon":5.377624,"is_reserved":false,"is_disabled":false,"rental_uris":{"android":"levelo://app?vid=cc2c118d-a149-495d-a311-7cda834006cb","ios":"levelo://app?vid=cc2c118d-a149-495d-a311-7cda834006cb"},"vehicle_type_id":"4","last_reported":1690578333,"current_range_meters":17600,"station_id":"ce4bgt92rcd13ifvqcg0","pricing_plan_id":"free"},{"bike_id":"04edbd6a-8dc8-41b4-9b86-cd0c748bb2d2","system_id":"levelo_inurba_marseille","lat":43.30786,"lon":5.37659,"is_reserved":false,"is_disabled":false,"rental_uris":{"android":"levelo://app?vid=04edbd6a-8dc8-41b4-9b86-cd0c748bb2d2","ios":"levelo://app?vid=04edbd6a-8dc8-41b4-9b86-cd0c748bb2d2"},"vehicle_type_id":"4","last_reported":1690578333,"current_range_meters":8800,"station_id":"ce4bgv92rcd13ifvqcq0","pricing_plan_id":"free"},{"bike_id":"c564b821-fb7f-4fe9-9796-703c2b824191","system_id":"levelo_inurba_marseille","lat":43.317075,"lon":5.377367,"is_reserved":false,"is_disabled":false,"rental_uris":{"android":"levelo://app?vid=c564b821-fb7f-4fe9-9796-703c2b824191","ios":"levelo://app?vid=c564b821-fb7f-4fe9-9796-703c2b824191"},"vehicle_type_id":"4","last_reported":1690578333,"current_range_meters":28800,"station_id":"ce4bgth2rcd13ifvqch0","pricing_plan_id":"free"},{"bike_id":"7f7dfe38-a95c-4673-b637-3a337ceb097c","system_id":"levelo_inurba_marseille","lat":43.31535,"lon":5.38031,"is_reserved":false,"is_disabled":false,"rental_uris":{"android":"levelo://app?vid=7f7dfe38-a95c-4673-b637-3a337ceb097c","ios":"levelo://app?vid=7f7dfe38-a95c-4673-b637-3a337ceb097c"},"vehicle_type_id":"4","last_reported":1690578333,"current_range_meters":11200,"station_id":"ce4bhsp2rcd13ifvqi50","pricing_plan_id":"free"},{"bike_id":"8fb79697-0334-492d-8c6f-b9af046976a8","system_id":"levelo_inurba_marseille","lat":43.301939,"lon":5.366286,"is_reserved":false,"is_disabled":false,"rental_uris":{"android":"levelo://app?vid=8fb79697-0334-492d-8c6f-b9af046976a8","ios":"levelo://app?vid=8fb79697-0334-492d-8c6f-b9af046976a8"},"vehicle_type_id":"4","last_reported":1690578333,"current_range_meters":5600,"station_id":"ce4bgrh2rcd13ifvqc8g","pricing_plan_id":"free"},{"bike_id":"4e46353f-552a-496a-9778-138a5f5eb090","system_id":"levelo_inurba_marseille","lat":43.301939,"lon":5.366286,"is_reserved":false,"is_disabled":false,"rental_uris":{"android":"levelo://app?vid=4e46353f-552a-496a-9778-138a5f5eb090","ios":"levelo://app?vid=4e46353f-552a-496a-9778-138a5f5eb090"},"vehicle_type_id":"4","last_reported":1690578333,"current_range_meters":21200,"station_id":"ce4bgrh2rcd13ifvqc8g","pricing_plan_id":"free"},{"bike_id":"2f7a0511-9e0d-4c2a-bc05-3d57fd667093","system_id":"levelo_inurba_marseille","lat":43.30185,"lon":5.36617,"is_reserved":false,"is_disabled":false,"rental_uris":{"android":"levelo://app?vid=2f7a0511-9e0d-4c2a-bc05-3d57fd667093","ios":"levelo://app?vid=2f7a0511-9e0d-4c2a-bc05-3d57fd667093"},"vehicle_type_id":"4","last_reported":1690578333,"current_range_meters":23200,"station_id":"ce4bgrh2rcd13ifvqc8g","pricing_plan_id":"free"},{"bike_id":"d75bbcf6-76d9-4a52-ac8d-3fb38cfe6d17","system_id":"levelo_inurba_marseille","lat":43.30178,"lon":5.36618,"is_reserved":false,"is_disabled":false,"rental_uris":{"android":"levelo://app?vid=d75bbcf6-76d9-4a52-ac8d-3fb38cfe6d17","ios":"levelo://app?vid=d75bbcf6-76d9-4a52-ac8d-3fb38cfe6d17"},"vehicle_type_id":"4","last_reported":1690578333,"current_range_meters":1200,"station_id":"ce4bgrh2rcd13ifvqc8g","pricing_plan_id":"free"},{"bike_id":"80ec657a-543e-41ed-8a6f-29b66925281d","system_id":"levelo_inurba_marseille","lat":43.30169,"lon":5.36404,"is_reserved":false,"is_disabled":false,"rental_uris":{"android":"levelo://app?vid=80ec657a-543e-41ed-8a6f-29b66925281d","ios":"levelo://app?vid=80ec657a-543e-41ed-8a6f-29b66925281d"},"vehicle_type_id":"4","last_reported":1690578333,"current_range_meters":6800,"station_id":"","pricing_plan_id":"free"},{"bike_id":"082f2932-fb82-4038-8b6b-ee12da00333d","system_id":"levelo_inurba_marseille","lat":43.30812,"lon":5.38141,"is_reserved":false,"is_disabled":false,"rental_uris":{"android":"levelo://app?vid=082f2932-fb82-4038-8b6b-ee12da00333d","ios":"levelo://app?vid=082f2932-fb82-4038-8b6b-ee12da00333d"},"vehicle_type_id":"4","last_reported":1690578333,"current_range_meters":8800,"station_id":"ce4bgt12rcd13ifvqce0","pricing_plan_id":"free"},{"bike_id":"ff9faa36-fb26-4716-9af8-aa55f3e580a5","system_id":"levelo_inurba_marseille","lat":43.304606,"lon":5.379026,"is_reserved":false,"is_disabled":false,"rental_uris":{"android":"levelo://app?vid=ff9faa36-fb26-4716-9af8-aa55f3e580a5","ios":"levelo://app?vid=ff9faa36-fb26-4716-9af8-aa55f3e580a5"},"vehicle_type_id":"4","last_reported":1690578333,"current_range_meters":13200,"station_id":"ce4bgup2rcd13ifvqcn0","pricing_plan_id":"free"},{"bike_id":"4ac4a68d-8f19-46b8-b414-3cb144f24ea1","system_id":"levelo_inurba_marseille","lat":43.302784,"lon":5.377158,"is_reserved":false,"is_disabled":false,"rental_uris":{"android":"levelo://app?vid=4ac4a68d-8f19-46b8-b414-3cb144f24ea1","ios":"levelo://app?vid=4ac4a68d-8f19-46b8-b414-3cb144f24ea1"},"vehicle_type_id":"4","last_reported":1690578333,"current_range_meters":4000,"station_id":"ce4bguh2rcd13ifvqcj0","pricing_plan_id":"free"},{"bike_id":"6df756b5-939b-409e-8963-2c8219d3dc83","system_id":"levelo_inurba_marseille","lat":43.302784,"lon":5.377158,"is_reserved":false,"is_disabled":false,"rental_uris":{"android":"levelo://app?vid=6df756b5-939b-409e-8963-2c8219d3dc83","ios":"levelo://app?vid=6df756b5-939b-409e-8963-2c8219d3dc83"},"vehicle_type_id":"4","last_reported":1690578333,"current_range_meters":28000,"station_id":"ce4bguh2rcd13ifvqcj0","pricing_plan_id":"free"},{"bike_id":"75ff86cb-717e-4db1-b27e-bd0adc8eeb80","system_id":"levelo_inurba_marseille","lat":43.30144,"lon":5.37418,"is_reserved":false,"is_disabled":false,"rental_uris":{"android":"levelo://app?vid=75ff86cb-717e-4db1-b27e-bd0adc8eeb80","ios":"levelo://app?vid=75ff86cb-717e-4db1-b27e-bd0adc8eeb80"},"vehicle_type_id":"4","last_reported":1690578333,"current_range_meters":13200,"station_id":"ce4bgs92rcd13ifvqcc0","pricing_plan_id":"free"},{"bike_id":"79cafeb9-3c6d-4b6a-88a8-23eee1aa4e0b","system_id":"levelo_inurba_marseille","lat":43.31992,"lon":5.38143,"is_reserved":false,"is_disabled":false,"rental_uris":{"android":"levelo://app?vid=79cafeb9-3c6d-4b6a-88a8-23eee1aa4e0b","ios":"levelo://app?vid=79cafeb9-3c6d-4b6a-88a8-23eee1aa4e0b"},"vehicle_type_id":"4","last_reported":1690578333,"current_range_meters":4000,"station_id":"ce4bhr12rcd13ifvqhpg","pricing_plan_id":"free"},{"bike_id":"fae40d23-e04d-4593-b69e-7f0abc2824dc","system_id":"levelo_inurba_marseille","lat":43.319935,"lon":5.381699,"is_reserved":false,"is_disabled":false,"rental_uris":{"android":"levelo://app?vid=fae40d23-e04d-4593-b69e-7f0abc2824dc","ios":"levelo://app?vid=fae40d23-e04d-4593-b69e-7f0abc2824dc"},"vehicle_type_id":"4","last_reported":1690578333,"current_range_meters":11600,"station_id":"ce4bhr12rcd13ifvqhpg","pricing_plan_id":"free"},{"bike_id":"4c150211-bb3f-4040-8716-b70cc96bfa06","system_id":"levelo_inurba_marseille","lat":43.313571,"lon":5.384829,"is_reserved":false,"is_disabled":false,"rental_uris":{"android":"levelo://app?vid=4c150211-bb3f-4040-8716-b70cc96bfa06","ios":"levelo://app?vid=4c150211-bb3f-4040-8716-b70cc96bfa06"},"vehicle_type_id":"4","last_reported":1690578333,"current_range_meters":13200,"station_id":"ce4bgt92rcd13ifvqcf0","pricing_plan_id":"free"},{"bike_id":"c7021a71-21cb-4a05-bb20-ea92885b545d","system_id":"levelo_inurba_marseille","lat":43.313571,"lon":5.384829,"is_reserved":false,"is_disabled":false,"rental_uris":{"android":"levelo://app?vid=c7021a71-21cb-4a05-bb20-ea92885b545d","ios":"levelo://app?vid=c7021a71-21cb-4a05-bb20-ea92885b545d"},"vehicle_type_id":"4","last_reported":1690578333,"current_range_meters":20800,"station_id":"ce4bgt92rcd13ifvqcf0","pricing_plan_id":"free"},{"bike_id":"574b58c5-7dc5-4cae-8a45-86c553117956","system_id":"levelo_inurba_marseille","lat":43.313571,"lon":5.384829,"is_reserved":false,"is_disabled":false,"rental_uris":{"android":"levelo://app?vid=574b58c5-7dc5-4cae-8a45-86c553117956","ios":"levelo://app?vid=574b58c5-7dc5-4cae-8a45-86c553117956"},"vehicle_type_id":"4","last_reported":1690578333,"current_range_meters":0,"station_id":"ce4bgt92rcd13ifvqcf0","pricing_plan_id":"free"},{"bike_id":"87367a22-8fb8-4a91-88f3-d883c04b6814","system_id":"levelo_inurba_marseille","lat":43.313571,"lon":5.384829,"is_reserved":false,"is_disabled":false,"rental_uris":{"android":"levelo://app?vid=87367a22-8fb8-4a91-88f3-d883c04b6814","ios":"levelo://app?vid=87367a22-8fb8-4a91-88f3-d883c04b6814"},"vehicle_type_id":"4","last_reported":1690578333,"current_range_meters":11200,"station_id":"ce4bgt92rcd13ifvqcf0","pricing_plan_id":"free"},{"bike_id":"3a47b20a-0e97-4bee-8549-afecac75762a","system_id":"levelo_inurba_marseille","lat":43.313571,"lon":5.384829,"is_reserved":false,"is_disabled":false,"rental_uris":{"android":"levelo://app?vid=3a47b20a-0e97-4bee-8549-afecac75762a","ios":"levelo://app?vid=3a47b20a-0e97-4bee-8549-afecac75762a"},"vehicle_type_id":"4","last_reported":1690578333,"current_range_meters":6000,"station_id":"ce4bgt92rcd13ifvqcf0","pricing_plan_id":"free"},{"bike_id":"dd65be34-29b9-49fe-8710-abce66d61ed1","system_id":"levelo_inurba_marseille","lat":43.313571,"lon":5.384829,"is_reserved":false,"is_disabled":false,"rental_uris":{"android":"levelo://app?vid=dd65be34-29b9-49fe-8710-abce66d61ed1","ios":"levelo://app?vid=dd65be34-29b9-49fe-8710-abce66d61ed1"},"vehicle_type_id":"4","last_reported":1690578333,"current_range_meters":31600,"station_id":"ce4bgt92rcd13ifvqcf0","pricing_plan_id":"free"},{"bike_id":"2b49b024-1caa-4be8-9888-55153f91a3e6","system_id":"levelo_inurba_marseille","lat":43.313571,"lon":5.384829,"is_reserved":false,"is_disabled":false,"rental_uris":{"android":"levelo://app?vid=2b49b024-1caa-4be8-9888-55153f91a3e6","ios":"levelo://app?vid=2b49b024-1caa-4be8-9888-55153f91a3e6"},"vehicle_type_id":"4","last_reported":1690578333,"current_range_meters":20000,"station_id":"ce4bgt92rcd13ifvqcf0","pricing_plan_id":"free"},{"bike_id":"27a17404-a5dc-41a7-924c-1bf974e79103","system_id":"levelo_inurba_marseille","lat":43.313571,"lon":5.384829,"is_reserved":false,"is_disabled":false,"rental_uris":{"android":"levelo://app?vid=27a17404-a5dc-41a7-924c-1bf974e79103","ios":"levelo://app?vid=27a17404-a5dc-41a7-924c-1bf974e79103"},"vehicle_type_id":"4","last_reported":1690578333,"current_range_meters":17200,"station_id":"ce4bgt92rcd13ifvqcf0","pricing_plan_id":"free"},{"bike_id":"2ae9404f-a42f-4fbd-9cc9-36710bde2274","system_id":"levelo_inurba_marseille","lat":43.313571,"lon":5.384829,"is_reserved":false,"is_disabled":false,"rental_uris":{"android":"levelo://app?vid=2ae9404f-a42f-4fbd-9cc9-36710bde2274","ios":"levelo://app?vid=2ae9404f-a42f-4fbd-9cc9-36710bde2274"},"vehicle_type_id":"4","last_reported":1690578333,"current_range_meters":25200,"station_id":"ce4bgt92rcd13ifvqcf0","pricing_plan_id":"free"},{"bike_id":"99830ec0-fce1-4390-b1de-f494e255257a","system_id":"levelo_inurba_marseille","lat":43.313571,"lon":5.384829,"is_reserved":false,"is_disabled":false,"rental_uris":{"android":"levelo://app?vid=99830ec0-fce1-4390-b1de-f494e255257a","ios":"levelo://app?vid=99830ec0-fce1-4390-b1de-f494e255257a"},"vehicle_type_id":"4","last_reported":1690578333,"current_range_meters":18000,"station_id":"ce4bgt92rcd13ifvqcf0","pricing_plan_id":"free"},{"bike_id":"b5c53b26-a07d-45e9-902d-4bd9e741c57f","system_id":"levelo_inurba_marseille","lat":43.31368,"lon":5.385,"is_reserved":false,"is_disabled":false,"rental_uris":{"android":"levelo://app?vid=b5c53b26-a07d-45e9-902d-4bd9e741c57f","ios":"levelo://app?vid=b5c53b26-a07d-45e9-902d-4bd9e741c57f"},"vehicle_type_id":"4","last_reported":1690578333,"current_range_meters":12000,"station_id":"ce4bgt92rcd13ifvqcf0","pricing_plan_id":"free"},{"bike_id":"27e61dca-a5f7-4312-8c21-b2753779d1e8","system_id":"levelo_inurba_marseille","lat":43.313571,"lon":5.384829,"is_reserved":false,"is_disabled":false,"rental_uris":{"android":"levelo://app?vid=27e61dca-a5f7-4312-8c21-b2753779d1e8","ios":"levelo://app?vid=27e61dca-a5f7-4312-8c21-b2753779d1e8"},"vehicle_type_id":"4","last_reported":1690578333,"current_range_meters":9600,"station_id":"ce4bgt92rcd13ifvqcf0","pricing_plan_id":"free"},{"bike_id":"f0304ab1-dca6-4ea5-983b-28ba2fec5708","system_id":"levelo_inurba_marseille","lat":43.304606,"lon":5.379026,"is_reserved":false,"is_disabled":false,"rental_uris":{"android":"levelo://app?vid=f0304ab1-dca6-4ea5-983b-28ba2fec5708","ios":"levelo://app?vid=f0304ab1-dca6-4ea5-983b-28ba2fec5708"},"vehicle_type_id":"4","last_reported":1690578333,"current_range_meters":23200,"station_id":"ce4bgup2rcd13ifvqcn0","pricing_plan_id":"free"},{"bike_id":"212aca5d-17ba-4363-a8d2-bdac56c696d7","system_id":"levelo_inurba_marseille","lat":43.29937,"lon":5.36551,"is_reserved":false,"is_disabled":false,"rental_uris":{"android":"levelo://app?vid=212aca5d-17ba-4363-a8d2-bdac56c696d7","ios":"levelo://app?vid=212aca5d-17ba-4363-a8d2-bdac56c696d7"},"vehicle_type_id":"4","last_reported":1690578333,"current_range_meters":10000,"station_id":"ce4bgm92rcd13ifvqbr0","pricing_plan_id":"free"},{"bike_id":"b522d010-58a3-4ade-a53a-57d85e5ca97d","system_id":"levelo_inurba_marseille","lat":43.29967,"lon":5.37168,"is_reserved":false,"is_disabled":false,"rental_uris":{"android":"levelo://app?vid=b522d010-58a3-4ade-a53a-57d85e5ca97d","ios":"levelo://app?vid=b522d010-58a3-4ade-a53a-57d85e5ca97d"},"vehicle_type_id":"4","last_reported":1690578333,"current_range_meters":1600,"station_id":"ce4bgr92rcd13ifvqc7g","pricing_plan_id":"free"},{"bike_id":"908e353b-87ba-413e-8bcf-56dfd783097d","system_id":"levelo_inurba_marseille","lat":43.30541,"lon":5.38419,"is_reserved":false,"is_disabled":false,"rental_uris":{"android":"levelo://app?vid=908e353b-87ba-413e-8bcf-56dfd783097d","ios":"levelo://app?vid=908e353b-87ba-413e-8bcf-56dfd783097d"},"vehicle_type_id":"4","last_reported":1690578333,"current_range_meters":19200,"station_id":"ce4bgg92rcd13ifvqb30","pricing_plan_id":"free"},{"bike_id":"d8568226-d560-434b-abc4-1910078314a7","system_id":"levelo_inurba_marseille","lat":43.305364,"lon":5.384119,"is_reserved":false,"is_disabled":false,"rental_uris":{"android":"levelo://app?vid=d8568226-d560-434b-abc4-1910078314a7","ios":"levelo://app?vid=d8568226-d560-434b-abc4-1910078314a7"},"vehicle_type_id":"4","last_reported":1690578333,"current_range_meters":31200,"station_id":"ce4bgg92rcd13ifvqb30","pricing_plan_id":"free"},{"bike_id":"30537d43-af02-4a10-b928-7b9b8cf633d2","system_id":"levelo_inurba_marseille","lat":43.305364,"lon":5.384119,"is_reserved":false,"is_disabled":false,"rental_uris":{"android":"levelo://app?vid=30537d43-af02-4a10-b928-7b9b8cf633d2","ios":"levelo://app?vid=30537d43-af02-4a10-b928-7b9b8cf633d2"},"vehicle_type_id":"4","last_reported":1690578333,"current_range_meters":29600,"station_id":"ce4bgg92rcd13ifvqb30","pricing_plan_id":"free"},{"bike_id":"d2e93ca8-13f7-4400-914e-f43c64b2f850","system_id":"levelo_inurba_marseille","lat":43.30541,"lon":5.38429,"is_reserved":false,"is_disabled":false,"rental_uris":{"android":"levelo://app?vid=d2e93ca8-13f7-4400-914e-f43c64b2f850","ios":"levelo://app?vid=d2e93ca8-13f7-4400-914e-f43c64b2f850"},"vehicle_type_id":"4","last_reported":1690578333,"current_range_meters":14400,"station_id":"ce4bgg92rcd13ifvqb30","pricing_plan_id":"free"},{"bike_id":"09368700-c732-442a-b037-fb0c8c23ab7e","system_id":"levelo_inurba_marseille","lat":43.305364,"lon":5.384119,"is_reserved":false,"is_disabled":false,"rental_uris":{"android":"levelo://app?vid=09368700-c732-442a-b037-fb0c8c23ab7e","ios":"levelo://app?vid=09368700-c732-442a-b037-fb0c8c23ab7e"},"vehicle_type_id":"4","last_reported":1690578333,"current_range_meters":7200,"station_id":"ce4bgg92rcd13ifvqb30","pricing_plan_id":"free"},{"bike_id":"52999ed6-ba1f-4278-8343-d6629cc9adb7","system_id":"levelo_inurba_marseille","lat":43.305364,"lon":5.384119,"is_reserved":false,"is_disabled":false,"rental_uris":{"android":"levelo://app?vid=52999ed6-ba1f-4278-8343-d6629cc9adb7","ios":"levelo://app?vid=52999ed6-ba1f-4278-8343-d6629cc9adb7"},"vehicle_type_id":"4","last_reported":1690578333,"current_range_meters":6000,"station_id":"ce4bgg92rcd13ifvqb30","pricing_plan_id":"free"},{"bike_id":"71d06fd6-be1f-463d-81d5-65c8c4c96be5","system_id":"levelo_inurba_marseille","lat":43.311722,"lon":5.387247,"is_reserved":false,"is_disabled":false,"rental_uris":{"android":"levelo://app?vid=71d06fd6-be1f-463d-81d5-65c8c4c96be5","ios":"levelo://app?vid=71d06fd6-be1f-463d-81d5-65c8c4c96be5"},"vehicle_type_id":"4","last_reported":1690578333,"current_range_meters":31200,"station_id":"ce4bgv12rcd13ifvqcp0","pricing_plan_id":"free"},{"bike_id":"b1fd32a0-526c-4c70-b207-de034c0e7755","system_id":"levelo_inurba_marseille","lat":43.299243,"lon":5.374807,"is_reserved":false,"is_disabled":false,"rental_uris":{"android":"levelo://app?vid=b1fd32a0-526c-4c70-b207-de034c0e7755","ios":"levelo://app?vid=b1fd32a0-526c-4c70-b207-de034c0e7755"},"vehicle_type_id":"4","last_reported":1690578333,"current_range_meters":0,"station_id":"ce4bgjh2rcd13ifvqbg0","pricing_plan_id":"free"},{"bike_id":"1d8c3ede-7f4b-4a88-8be0-528786bd7179","system_id":"levelo_inurba_marseille","lat":43.311722,"lon":5.387247,"is_reserved":false,"is_disabled":false,"rental_uris":{"android":"levelo://app?vid=1d8c3ede-7f4b-4a88-8be0-528786bd7179","ios":"levelo://app?vid=1d8c3ede-7f4b-4a88-8be0-528786bd7179"},"vehicle_type_id":"4","last_reported":1690578333,"current_range_meters":26000,"station_id":"ce4bgv12rcd13ifvqcp0","pricing_plan_id":"free"},{"bike_id":"946fae43-4f83-4b19-a643-bc6868249326","system_id":"levelo_inurba_marseille","lat":43.305364,"lon":5.384119,"is_reserved":false,"is_disabled":false,"rental_uris":{"android":"levelo://app?vid=946fae43-4f83-4b19-a643-bc6868249326","ios":"levelo://app?vid=946fae43-4f83-4b19-a643-bc6868249326"},"vehicle_type_id":"4","last_reported":1690578333,"current_range_meters":31200,"station_id":"ce4bgg92rcd13ifvqb30","pricing_plan_id":"free"},{"bike_id":"f176a775-8173-4308-b754-fa003b2b3fdd","system_id":"levelo_inurba_marseille","lat":43.311722,"lon":5.387247,"is_reserved":false,"is_disabled":false,"rental_uris":{"android":"levelo://app?vid=f176a775-8173-4308-b754-fa003b2b3fdd","ios":"levelo://app?vid=f176a775-8173-4308-b754-fa003b2b3fdd"},"vehicle_type_id":"4","last_reported":1690578333,"current_range_meters":32000,"station_id":"ce4bgv12rcd13ifvqcp0","pricing_plan_id":"free"},{"bike_id":"d7017a95-c784-4cfb-b9f8-5965a5c0693e","system_id":"levelo_inurba_marseille","lat":43.311722,"lon":5.387247,"is_reserved":false,"is_disabled":false,"rental_uris":{"android":"levelo://app?vid=d7017a95-c784-4cfb-b9f8-5965a5c0693e","ios":"levelo://app?vid=d7017a95-c784-4cfb-b9f8-5965a5c0693e"},"vehicle_type_id":"4","last_reported":1690578333,"current_range_meters":20800,"station_id":"ce4bgv12rcd13ifvqcp0","pricing_plan_id":"free"},{"bike_id":"67399532-22d3-4389-ab85-503e176021dc","system_id":"levelo_inurba_marseille","lat":43.299243,"lon":5.37481,"is_reserved":false,"is_disabled":false,"rental_uris":{"android":"levelo://app?vid=67399532-22d3-4389-ab85-503e176021dc","ios":"levelo://app?vid=67399532-22d3-4389-ab85-503e176021dc"},"vehicle_type_id":"4","last_reported":1690578333,"current_range_meters":24400,"station_id":"ce4bgjh2rcd13ifvqbg0","pricing_plan_id":"free"},{"bike_id":"08d266d1-7493-4a0c-aa6d-0867866071cc","system_id":"levelo_inurba_marseille","lat":43.311722,"lon":5.387247,"is_reserved":false,"is_disabled":false,"rental_uris":{"android":"levelo://app?vid=08d266d1-7493-4a0c-aa6d-0867866071cc","ios":"levelo://app?vid=08d266d1-7493-4a0c-aa6d-0867866071cc"},"vehicle_type_id":"4","last_reported":1690578333,"current_range_meters":31200,"station_id":"ce4bgv12rcd13ifvqcp0","pricing_plan_id":"free"},{"bike_id":"ed1c486f-baaf-469a-9aae-eed46ffaa90b","system_id":"levelo_inurba_marseille","lat":43.297794,"lon":5.370888,"is_reserved":false,"is_disabled":false,"rental_uris":{"android":"levelo://app?vid=ed1c486f-baaf-469a-9aae-eed46ffaa90b","ios":"levelo://app?vid=ed1c486f-baaf-469a-9aae-eed46ffaa90b"},"vehicle_type_id":"4","last_reported":1690578333,"current_range_meters":24800,"station_id":"ce4bgop2rcd13ifvqc1g","pricing_plan_id":"free"},{"bike_id":"fead3f1e-e9e6-4830-9da4-e98cba309113","system_id":"levelo_inurba_marseille","lat":43.32286,"lon":5.38262,"is_reserved":false,"is_disabled":false,"rental_uris":{"android":"levelo://app?vid=fead3f1e-e9e6-4830-9da4-e98cba309113","ios":"levelo://app?vid=fead3f1e-e9e6-4830-9da4-e98cba309113"},"vehicle_type_id":"4","last_reported":1690578333,"current_range_meters":20000,"station_id":"ce4bhr12rcd13ifvqhqg","pricing_plan_id":"free"},{"bike_id":"a196dbb0-0ca2-44b0-8b03-b7d3a734d20c","system_id":"levelo_inurba_marseille","lat":43.322872,"lon":5.382756,"is_reserved":false,"is_disabled":false,"rental_uris":{"android":"levelo://app?vid=a196dbb0-0ca2-44b0-8b03-b7d3a734d20c","ios":"levelo://app?vid=a196dbb0-0ca2-44b0-8b03-b7d3a734d20c"},"vehicle_type_id":"4","last_reported":1690578333,"current_range_meters":31200,"station_id":"ce4bhr12rcd13ifvqhqg","pricing_plan_id":"free"},{"bike_id":"21e6de08-1de0-4028-90e1-d5f8c6f040ad","system_id":"levelo_inurba_marseille","lat":43.297794,"lon":5.370888,"is_reserved":false,"is_disabled":false,"rental_uris":{"android":"levelo://app?vid=21e6de08-1de0-4028-90e1-d5f8c6f040ad","ios":"levelo://app?vid=21e6de08-1de0-4028-90e1-d5f8c6f040ad"},"vehicle_type_id":"4","last_reported":1690578333,"current_range_meters":27200,"station_id":"ce4bgop2rcd13ifvqc1g","pricing_plan_id":"free"},{"bike_id":"79bf6da4-5f08-488b-96b1-6e23f74ec5ec","system_id":"levelo_inurba_marseille","lat":43.32289,"lon":5.38271,"is_reserved":false,"is_disabled":false,"rental_uris":{"android":"levelo://app?vid=79bf6da4-5f08-488b-96b1-6e23f74ec5ec","ios":"levelo://app?vid=79bf6da4-5f08-488b-96b1-6e23f74ec5ec"},"vehicle_type_id":"4","last_reported":1690578333,"current_range_meters":19200,"station_id":"ce4bhr12rcd13ifvqhqg","pricing_plan_id":"free"},{"bike_id":"3641a761-0636-4e0b-b047-72e86565129d","system_id":"levelo_inurba_marseille","lat":43.32289,"lon":5.38271,"is_reserved":false,"is_disabled":false,"rental_uris":{"android":"levelo://app?vid=3641a761-0636-4e0b-b047-72e86565129d","ios":"levelo://app?vid=3641a761-0636-4e0b-b047-72e86565129d"},"vehicle_type_id":"4","last_reported":1690578333,"current_range_meters":31200,"station_id":"ce4bhr12rcd13ifvqhqg","pricing_plan_id":"free"},{"bike_id":"82f1e03d-e4c3-4aac-b6f0-c9fc3950fe62","system_id":"levelo_inurba_marseille","lat":43.322948,"lon":5.3827,"is_reserved":false,"is_disabled":false,"rental_uris":{"android":"levelo://app?vid=82f1e03d-e4c3-4aac-b6f0-c9fc3950fe62","ios":"levelo://app?vid=82f1e03d-e4c3-4aac-b6f0-c9fc3950fe62"},"vehicle_type_id":"4","last_reported":1690578333,"current_range_meters":27600,"station_id":"","pricing_plan_id":"free"},{"bike_id":"52f9e70d-445e-4f08-aa3a-17c624d8ff3d","system_id":"levelo_inurba_marseille","lat":43.32827,"lon":5.36689,"is_reserved":false,"is_disabled":false,"rental_uris":{"android":"levelo://app?vid=52f9e70d-445e-4f08-aa3a-17c624d8ff3d","ios":"levelo://app?vid=52f9e70d-445e-4f08-aa3a-17c624d8ff3d"},"vehicle_type_id":"4","last_reported":1690578333,"current_range_meters":6400,"station_id":"ce4bhs92rcd13ifvqi0g","pricing_plan_id":"free"},{"bike_id":"9d54f4c4-5c8b-4180-88ec-f26573944976","system_id":"levelo_inurba_marseille","lat":43.32831,"lon":5.36694,"is_reserved":false,"is_disabled":false,"rental_uris":{"android":"levelo://app?vid=9d54f4c4-5c8b-4180-88ec-f26573944976","ios":"levelo://app?vid=9d54f4c4-5c8b-4180-88ec-f26573944976"},"vehicle_type_id":"4","last_reported":1690578333,"current_range_meters":1600,"station_id":"ce4bhs92rcd13ifvqi0g","pricing_plan_id":"free"},{"bike_id":"992066fc-3fe2-456d-8de8-873a980dd583","system_id":"levelo_inurba_marseille","lat":43.297163,"lon":5.365866,"is_reserved":false,"is_disabled":false,"rental_uris":{"android":"levelo://app?vid=992066fc-3fe2-456d-8de8-873a980dd583","ios":"levelo://app?vid=992066fc-3fe2-456d-8de8-873a980dd583"},"vehicle_type_id":"4","last_reported":1690578333,"current_range_meters":30800,"station_id":"ce4bgn12rcd13ifvqbt0","pricing_plan_id":"free"},{"bike_id":"dd789220-e7b5-42c1-b9dc-dc4243148021","system_id":"levelo_inurba_marseille","lat":43.297163,"lon":5.365866,"is_reserved":false,"is_disabled":false,"rental_uris":{"android":"levelo://app?vid=dd789220-e7b5-42c1-b9dc-dc4243148021","ios":"levelo://app?vid=dd789220-e7b5-42c1-b9dc-dc4243148021"},"vehicle_type_id":"4","last_reported":1690578333,"current_range_meters":32000,"station_id":"ce4bgn12rcd13ifvqbt0","pricing_plan_id":"free"},{"bike_id":"e817874d-ceb4-45bc-aaf8-efb4e3c97601","system_id":"levelo_inurba_marseille","lat":43.2968,"lon":5.37291,"is_reserved":false,"is_disabled":false,"rental_uris":{"android":"levelo://app?vid=e817874d-ceb4-45bc-aaf8-efb4e3c97601","ios":"levelo://app?vid=e817874d-ceb4-45bc-aaf8-efb4e3c97601"},"vehicle_type_id":"4","last_reported":1690578333,"current_range_meters":24000,"station_id":"ce4bgk12rcd13ifvqbj0","pricing_plan_id":"free"},{"bike_id":"4f3047bb-4b2f-4b5e-bdc0-2fdb8072f0e3","system_id":"levelo_inurba_marseille","lat":43.2968,"lon":5.37291,"is_reserved":false,"is_disabled":false,"rental_uris":{"android":"levelo://app?vid=4f3047bb-4b2f-4b5e-bdc0-2fdb8072f0e3","ios":"levelo://app?vid=4f3047bb-4b2f-4b5e-bdc0-2fdb8072f0e3"},"vehicle_type_id":"4","last_reported":1690578333,"current_range_meters":22400,"station_id":"ce4bgk12rcd13ifvqbj0","pricing_plan_id":"free"},{"bike_id":"5c45e62f-62eb-4234-8574-16146a3d4e9c","system_id":"levelo_inurba_marseille","lat":43.2968,"lon":5.37291,"is_reserved":false,"is_disabled":false,"rental_uris":{"android":"levelo://app?vid=5c45e62f-62eb-4234-8574-16146a3d4e9c","ios":"levelo://app?vid=5c45e62f-62eb-4234-8574-16146a3d4e9c"},"vehicle_type_id":"4","last_reported":1690578333,"current_range_meters":16800,"station_id":"ce4bgk12rcd13ifvqbj0","pricing_plan_id":"free"},{"bike_id":"3a50d3ff-1638-436d-a104-9bd3c1877ca4","system_id":"levelo_inurba_marseille","lat":43.2968,"lon":5.37291,"is_reserved":false,"is_disabled":false,"rental_uris":{"android":"levelo://app?vid=3a50d3ff-1638-436d-a104-9bd3c1877ca4","ios":"levelo://app?vid=3a50d3ff-1638-436d-a104-9bd3c1877ca4"},"vehicle_type_id":"4","last_reported":1690578333,"current_range_meters":30000,"station_id":"ce4bgk12rcd13ifvqbj0","pricing_plan_id":"free"},{"bike_id":"1c284887-4c83-46cd-8360-dc69aa7653a3","system_id":"levelo_inurba_marseille","lat":43.29731,"lon":5.37685,"is_reserved":false,"is_disabled":false,"rental_uris":{"android":"levelo://app?vid=1c284887-4c83-46cd-8360-dc69aa7653a3","ios":"levelo://app?vid=1c284887-4c83-46cd-8360-dc69aa7653a3"},"vehicle_type_id":"4","last_reported":1690578333,"current_range_meters":4400,"station_id":"ce4bgkh2rcd13ifvqbl0","pricing_plan_id":"free"},{"bike_id":"4a3ea0bb-320d-4666-9ad3-e7aca8a0147d","system_id":"levelo_inurba_marseille","lat":43.296921,"lon":5.376579,"is_reserved":false,"is_disabled":false,"rental_uris":{"android":"levelo://app?vid=4a3ea0bb-320d-4666-9ad3-e7aca8a0147d","ios":"levelo://app?vid=4a3ea0bb-320d-4666-9ad3-e7aca8a0147d"},"vehicle_type_id":"4","last_reported":1690578333,"current_range_meters":17200,"station_id":"ce4bgkh2rcd13ifvqbl0","pricing_plan_id":"free"},{"bike_id":"42562d14-4b1a-4d88-a8a0-b807071c7c2d","system_id":"levelo_inurba_marseille","lat":43.29724,"lon":5.37705,"is_reserved":false,"is_disabled":false,"rental_uris":{"android":"levelo://app?vid=42562d14-4b1a-4d88-a8a0-b807071c7c2d","ios":"levelo://app?vid=42562d14-4b1a-4d88-a8a0-b807071c7c2d"},"vehicle_type_id":"4","last_reported":1690578333,"current_range_meters":4800,"station_id":"ce4bgkh2rcd13ifvqbl0","pricing_plan_id":"free"},{"bike_id":"5f6fa139-1f1a-4d87-adf0-b4be162887d3","system_id":"levelo_inurba_marseille","lat":43.29719,"lon":5.37692,"is_reserved":false,"is_disabled":false,"rental_uris":{"android":"levelo://app?vid=5f6fa139-1f1a-4d87-adf0-b4be162887d3","ios":"levelo://app?vid=5f6fa139-1f1a-4d87-adf0-b4be162887d3"},"vehicle_type_id":"4","last_reported":1690578333,"current_range_meters":9200,"station_id":"ce4bgkh2rcd13ifvqbl0","pricing_plan_id":"free"},{"bike_id":"c7bceb16-4360-4c0e-81a8-3c6ca7e24fa9","system_id":"levelo_inurba_marseille","lat":43.296921,"lon":5.376579,"is_reserved":false,"is_disabled":false,"rental_uris":{"android":"levelo://app?vid=c7bceb16-4360-4c0e-81a8-3c6ca7e24fa9","ios":"levelo://app?vid=c7bceb16-4360-4c0e-81a8-3c6ca7e24fa9"},"vehicle_type_id":"4","last_reported":1690578333,"current_range_meters":12000,"station_id":"ce4bgkh2rcd13ifvqbl0","pricing_plan_id":"free"},{"bike_id":"458b936c-c173-485b-ba3a-af72d081da83","system_id":"levelo_inurba_marseille","lat":43.29719,"lon":5.37693,"is_reserved":false,"is_disabled":false,"rental_uris":{"android":"levelo://app?vid=458b936c-c173-485b-ba3a-af72d081da83","ios":"levelo://app?vid=458b936c-c173-485b-ba3a-af72d081da83"},"vehicle_type_id":"4","last_reported":1690578333,"current_range_meters":6000,"station_id":"ce4bgkh2rcd13ifvqbl0","pricing_plan_id":"free"},{"bike_id":"1043d8ef-9a38-48c8-b946-39cf7f983e09","system_id":"levelo_inurba_marseille","lat":43.299028,"lon":5.381509,"is_reserved":false,"is_disabled":false,"rental_uris":{"android":"levelo://app?vid=1043d8ef-9a38-48c8-b946-39cf7f983e09","ios":"levelo://app?vid=1043d8ef-9a38-48c8-b946-39cf7f983e09"},"vehicle_type_id":"4","last_reported":1690578333,"current_range_meters":5200,"station_id":"ce4bgj12rcd13ifvqbc0","pricing_plan_id":"free"},{"bike_id":"ccb55c28-7f32-4fcf-ae4d-1c4acaec9c43","system_id":"levelo_inurba_marseille","lat":43.299028,"lon":5.381509,"is_reserved":false,"is_disabled":false,"rental_uris":{"android":"levelo://app?vid=ccb55c28-7f32-4fcf-ae4d-1c4acaec9c43","ios":"levelo://app?vid=ccb55c28-7f32-4fcf-ae4d-1c4acaec9c43"},"vehicle_type_id":"4","last_reported":1690578333,"current_range_meters":8000,"station_id":"ce4bgj12rcd13ifvqbc0","pricing_plan_id":"free"},{"bike_id":"bc14df58-ec9c-41ca-a108-5f7b12634d08","system_id":"levelo_inurba_marseille","lat":43.29712,"lon":5.37699,"is_reserved":false,"is_disabled":false,"rental_uris":{"android":"levelo://app?vid=bc14df58-ec9c-41ca-a108-5f7b12634d08","ios":"levelo://app?vid=bc14df58-ec9c-41ca-a108-5f7b12634d08"},"vehicle_type_id":"4","last_reported":1690578333,"current_range_meters":2800,"station_id":"ce4bgkh2rcd13ifvqbl0","pricing_plan_id":"free"},{"bike_id":"43889e57-d85f-4aab-a2b2-bff1a5431791","system_id":"levelo_inurba_marseille","lat":43.289184,"lon":5.366408,"is_reserved":false,"is_disabled":false,"rental_uris":{"android":"levelo://app?vid=43889e57-d85f-4aab-a2b2-bff1a5431791","ios":"levelo://app?vid=43889e57-d85f-4aab-a2b2-bff1a5431791"},"vehicle_type_id":"4","last_reported":1690578333,"current_range_meters":18800,"station_id":"ce4bhap2rcd13ifvqek0","pricing_plan_id":"free"},{"bike_id":"a690dc23-a06f-47c2-b192-332f02955ae8","system_id":"levelo_inurba_marseille","lat":43.299028,"lon":5.381509,"is_reserved":false,"is_disabled":false,"rental_uris":{"android":"levelo://app?vid=a690dc23-a06f-47c2-b192-332f02955ae8","ios":"levelo://app?vid=a690dc23-a06f-47c2-b192-332f02955ae8"},"vehicle_type_id":"4","last_reported":1690578333,"current_range_meters":16400,"station_id":"ce4bgj12rcd13ifvqbc0","pricing_plan_id":"free"},{"bike_id":"6ae8f20e-443e-42f5-a953-8b2d3a39386d","system_id":"levelo_inurba_marseille","lat":43.299028,"lon":5.381509,"is_reserved":false,"is_disabled":false,"rental_uris":{"android":"levelo://app?vid=6ae8f20e-443e-42f5-a953-8b2d3a39386d","ios":"levelo://app?vid=6ae8f20e-443e-42f5-a953-8b2d3a39386d"},"vehicle_type_id":"4","last_reported":1690578333,"current_range_meters":18000,"station_id":"ce4bgj12rcd13ifvqbc0","pricing_plan_id":"free"},{"bike_id":"7d741622-20eb-4d6d-a1b4-1109328ccaf4","system_id":"levelo_inurba_marseille","lat":43.309589,"lon":5.390258,"is_reserved":false,"is_disabled":false,"rental_uris":{"android":"levelo://app?vid=7d741622-20eb-4d6d-a1b4-1109328ccaf4","ios":"levelo://app?vid=7d741622-20eb-4d6d-a1b4-1109328ccaf4"},"vehicle_type_id":"4","last_reported":1690578333,"current_range_meters":14800,"station_id":"ce4bgup2rcd13ifvqco0","pricing_plan_id":"free"},{"bike_id":"f0b1921d-8fc5-42f6-8214-26455e772ce5","system_id":"levelo_inurba_marseille","lat":43.309589,"lon":5.390258,"is_reserved":false,"is_disabled":false,"rental_uris":{"android":"levelo://app?vid=f0b1921d-8fc5-42f6-8214-26455e772ce5","ios":"levelo://app?vid=f0b1921d-8fc5-42f6-8214-26455e772ce5"},"vehicle_type_id":"4","last_reported":1690578333,"current_range_meters":28800,"station_id":"ce4bgup2rcd13ifvqco0","pricing_plan_id":"free"},{"bike_id":"80996baf-8597-4552-b66a-a0139bedf903","system_id":"levelo_inurba_marseille","lat":43.309502,"lon":5.390365,"is_reserved":false,"is_disabled":false,"rental_uris":{"android":"levelo://app?vid=80996baf-8597-4552-b66a-a0139bedf903","ios":"levelo://app?vid=80996baf-8597-4552-b66a-a0139bedf903"},"vehicle_type_id":"4","last_reported":1690578333,"current_range_meters":5200,"station_id":"","pricing_plan_id":"free"},{"bike_id":"24a85520-21a6-483d-a552-90e295a7672a","system_id":"levelo_inurba_marseille","lat":43.317557,"lon":5.390173,"is_reserved":false,"is_disabled":false,"rental_uris":{"android":"levelo://app?vid=24a85520-21a6-483d-a552-90e295a7672a","ios":"levelo://app?vid=24a85520-21a6-483d-a552-90e295a7672a"},"vehicle_type_id":"4","last_reported":1690578333,"current_range_meters":24800,"station_id":"ce4bhqp2rcd13ifvqhng","pricing_plan_id":"free"},{"bike_id":"dd3ca477-5f9a-49ee-87d5-4e6b8703e878","system_id":"levelo_inurba_marseille","lat":43.317557,"lon":5.390173,"is_reserved":false,"is_disabled":false,"rental_uris":{"android":"levelo://app?vid=dd3ca477-5f9a-49ee-87d5-4e6b8703e878","ios":"levelo://app?vid=dd3ca477-5f9a-49ee-87d5-4e6b8703e878"},"vehicle_type_id":"4","last_reported":1690578333,"current_range_meters":31600,"station_id":"ce4bhqp2rcd13ifvqhng","pricing_plan_id":"free"},{"bike_id":"594d0f62-4875-49fc-96a3-7a330920800a","system_id":"levelo_inurba_marseille","lat":43.29803,"lon":5.38087,"is_reserved":false,"is_disabled":false,"rental_uris":{"android":"levelo://app?vid=594d0f62-4875-49fc-96a3-7a330920800a","ios":"levelo://app?vid=594d0f62-4875-49fc-96a3-7a330920800a"},"vehicle_type_id":"4","last_reported":1690578333,"current_range_meters":6800,"station_id":"ce4bgip2rcd13ifvqbb0","pricing_plan_id":"free"},{"bike_id":"f2f3b123-9f45-4126-bd8d-f9f0e8fc2b98","system_id":"levelo_inurba_marseille","lat":43.29806,"lon":5.38095,"is_reserved":false,"is_disabled":false,"rental_uris":{"android":"levelo://app?vid=f2f3b123-9f45-4126-bd8d-f9f0e8fc2b98","ios":"levelo://app?vid=f2f3b123-9f45-4126-bd8d-f9f0e8fc2b98"},"vehicle_type_id":"4","last_reported":1690578333,"current_range_meters":25600,"station_id":"ce4bgip2rcd13ifvqbb0","pricing_plan_id":"free"},{"bike_id":"b799b8a3-60ca-41e1-8a73-97aaf85ef91f","system_id":"levelo_inurba_marseille","lat":43.29583,"lon":5.37495,"is_reserved":false,"is_disabled":false,"rental_uris":{"android":"levelo://app?vid=b799b8a3-60ca-41e1-8a73-97aaf85ef91f","ios":"levelo://app?vid=b799b8a3-60ca-41e1-8a73-97aaf85ef91f"},"vehicle_type_id":"4","last_reported":1690578333,"current_range_meters":16400,"station_id":"","pricing_plan_id":"free"},{"bike_id":"cba34b7a-869f-48f0-82a7-b95a1041b9e6","system_id":"levelo_inurba_marseille","lat":43.298037,"lon":5.381066,"is_reserved":false,"is_disabled":false,"rental_uris":{"android":"levelo://app?vid=cba34b7a-869f-48f0-82a7-b95a1041b9e6","ios":"levelo://app?vid=cba34b7a-869f-48f0-82a7-b95a1041b9e6"},"vehicle_type_id":"4","last_reported":1690578333,"current_range_meters":4000,"station_id":"ce4bgip2rcd13ifvqbb0","pricing_plan_id":"free"},{"bike_id":"f5f2125e-0093-4bfd-b527-e594a316f584","system_id":"levelo_inurba_marseille","lat":43.30449,"lon":5.38889,"is_reserved":false,"is_disabled":false,"rental_uris":{"android":"levelo://app?vid=f5f2125e-0093-4bfd-b527-e594a316f584","ios":"levelo://app?vid=f5f2125e-0093-4bfd-b527-e594a316f584"},"vehicle_type_id":"4","last_reported":1690578333,"current_range_meters":6400,"station_id":"ce4bgk12rcd13ifvqbi0","pricing_plan_id":"free"},{"bike_id":"ec1224db-786c-41a9-b30a-2e290b979ca1","system_id":"levelo_inurba_marseille","lat":43.29575,"lon":5.37504,"is_reserved":false,"is_disabled":false,"rental_uris":{"android":"levelo://app?vid=ec1224db-786c-41a9-b30a-2e290b979ca1","ios":"levelo://app?vid=ec1224db-786c-41a9-b30a-2e290b979ca1"},"vehicle_type_id":"4","last_reported":1690578333,"current_range_meters":15200,"station_id":"ce4bgh92rcd13ifvqb50","pricing_plan_id":"free"},{"bike_id":"f4312261-5a52-4123-a757-23d4dafe11c2","system_id":"levelo_inurba_marseille","lat":43.29679,"lon":5.3784,"is_reserved":false,"is_disabled":false,"rental_uris":{"android":"levelo://app?vid=f4312261-5a52-4123-a757-23d4dafe11c2","ios":"levelo://app?vid=f4312261-5a52-4123-a757-23d4dafe11c2"},"vehicle_type_id":"4","last_reported":1690578333,"current_range_meters":0,"station_id":"","pricing_plan_id":"free"},{"bike_id":"72606423-fa5c-44a8-bc56-25ab90353d44","system_id":"levelo_inurba_marseille","lat":43.304278,"lon":5.388868,"is_reserved":false,"is_disabled":false,"rental_uris":{"android":"levelo://app?vid=72606423-fa5c-44a8-bc56-25ab90353d44","ios":"levelo://app?vid=72606423-fa5c-44a8-bc56-25ab90353d44"},"vehicle_type_id":"4","last_reported":1690578333,"current_range_meters":9200,"station_id":"ce4bgk12rcd13ifvqbi0","pricing_plan_id":"free"},{"bike_id":"53e5e741-6b99-454d-b8a9-b7f02d7be79a","system_id":"levelo_inurba_marseille","lat":43.304278,"lon":5.388868,"is_reserved":false,"is_disabled":false,"rental_uris":{"android":"levelo://app?vid=53e5e741-6b99-454d-b8a9-b7f02d7be79a","ios":"levelo://app?vid=53e5e741-6b99-454d-b8a9-b7f02d7be79a"},"vehicle_type_id":"4","last_reported":1690578333,"current_range_meters":26000,"station_id":"ce4bgk12rcd13ifvqbi0","pricing_plan_id":"free"},{"bike_id":"144d5228-66a2-4152-86da-f9c893555c60","system_id":"levelo_inurba_marseille","lat":43.30425,"lon":5.38882,"is_reserved":false,"is_disabled":false,"rental_uris":{"android":"levelo://app?vid=144d5228-66a2-4152-86da-f9c893555c60","ios":"levelo://app?vid=144d5228-66a2-4152-86da-f9c893555c60"},"vehicle_type_id":"4","last_reported":1690578333,"current_range_meters":12400,"station_id":"ce4bgk12rcd13ifvqbi0","pricing_plan_id":"free"},{"bike_id":"7426956a-654b-4bf8-8fbe-1c64bb9cfe71","system_id":"levelo_inurba_marseille","lat":43.304278,"lon":5.388868,"is_reserved":false,"is_disabled":false,"rental_uris":{"android":"levelo://app?vid=7426956a-654b-4bf8-8fbe-1c64bb9cfe71","ios":"levelo://app?vid=7426956a-654b-4bf8-8fbe-1c64bb9cfe71"},"vehicle_type_id":"4","last_reported":1690578333,"current_range_meters":0,"station_id":"ce4bgk12rcd13ifvqbi0","pricing_plan_id":"free"},{"bike_id":"45c2f52f-b601-4c78-941d-3ae8b5a6bbb1","system_id":"levelo_inurba_marseille","lat":43.296277,"lon":5.377108,"is_reserved":false,"is_disabled":false,"rental_uris":{"android":"levelo://app?vid=45c2f52f-b601-4c78-941d-3ae8b5a6bbb1","ios":"levelo://app?vid=45c2f52f-b601-4c78-941d-3ae8b5a6bbb1"},"vehicle_type_id":"4","last_reported":1690578333,"current_range_meters":10800,"station_id":"ce4bgi92rcd13ifvqb90","pricing_plan_id":"free"},{"bike_id":"13192aea-e25a-48c6-b566-cbfdf271522d","system_id":"levelo_inurba_marseille","lat":43.30428,"lon":5.38889,"is_reserved":false,"is_disabled":false,"rental_uris":{"android":"levelo://app?vid=13192aea-e25a-48c6-b566-cbfdf271522d","ios":"levelo://app?vid=13192aea-e25a-48c6-b566-cbfdf271522d"},"vehicle_type_id":"4","last_reported":1690578333,"current_range_meters":12400,"station_id":"ce4bgk12rcd13ifvqbi0","pricing_plan_id":"free"},{"bike_id":"e9af5798-bf49-4574-805f-b0a9f44c625e","system_id":"levelo_inurba_marseille","lat":43.30431,"lon":5.38896,"is_reserved":false,"is_disabled":false,"rental_uris":{"android":"levelo://app?vid=e9af5798-bf49-4574-805f-b0a9f44c625e","ios":"levelo://app?vid=e9af5798-bf49-4574-805f-b0a9f44c625e"},"vehicle_type_id":"4","last_reported":1690578333,"current_range_meters":16400,"station_id":"ce4bgk12rcd13ifvqbi0","pricing_plan_id":"free"},{"bike_id":"2d77db27-6885-4c3c-a2d2-ba16749c5831","system_id":"levelo_inurba_marseille","lat":43.296263,"lon":5.377094,"is_reserved":false,"is_disabled":false,"rental_uris":{"android":"levelo://app?vid=2d77db27-6885-4c3c-a2d2-ba16749c5831","ios":"levelo://app?vid=2d77db27-6885-4c3c-a2d2-ba16749c5831"},"vehicle_type_id":"4","last_reported":1690578333,"current_range_meters":11200,"station_id":"ce4bgi92rcd13ifvqb90","pricing_plan_id":"free"},{"bike_id":"5187045a-aa39-4cd1-ae92-fb7f32c8bad9","system_id":"levelo_inurba_marseille","lat":43.296263,"lon":5.377094,"is_reserved":false,"is_disabled":false,"rental_uris":{"android":"levelo://app?vid=5187045a-aa39-4cd1-ae92-fb7f32c8bad9","ios":"levelo://app?vid=5187045a-aa39-4cd1-ae92-fb7f32c8bad9"},"vehicle_type_id":"4","last_reported":1690578333,"current_range_meters":28400,"station_id":"ce4bgi92rcd13ifvqb90","pricing_plan_id":"free"},{"bike_id":"999fa25e-26b9-4c07-90b5-87101239d63d","system_id":"levelo_inurba_marseille","lat":43.296277,"lon":5.377108,"is_reserved":false,"is_disabled":false,"rental_uris":{"android":"levelo://app?vid=999fa25e-26b9-4c07-90b5-87101239d63d","ios":"levelo://app?vid=999fa25e-26b9-4c07-90b5-87101239d63d"},"vehicle_type_id":"4","last_reported":1690578333,"current_range_meters":16400,"station_id":"ce4bgi92rcd13ifvqb90","pricing_plan_id":"free"},{"bike_id":"5264fba2-2b0d-47f5-bf56-e194f34edc8c","system_id":"levelo_inurba_marseille","lat":43.296277,"lon":5.377108,"is_reserved":false,"is_disabled":false,"rental_uris":{"android":"levelo://app?vid=5264fba2-2b0d-47f5-bf56-e194f34edc8c","ios":"levelo://app?vid=5264fba2-2b0d-47f5-bf56-e194f34edc8c"},"vehicle_type_id":"4","last_reported":1690578333,"current_range_meters":18800,"station_id":"ce4bgi92rcd13ifvqb90","pricing_plan_id":"free"},{"bike_id":"f5e2230e-5d74-4d59-bc3b-b42c70f84edf","system_id":"levelo_inurba_marseille","lat":43.296277,"lon":5.377108,"is_reserved":false,"is_disabled":false,"rental_uris":{"android":"levelo://app?vid=f5e2230e-5d74-4d59-bc3b-b42c70f84edf","ios":"levelo://app?vid=f5e2230e-5d74-4d59-bc3b-b42c70f84edf"},"vehicle_type_id":"4","last_reported":1690578333,"current_range_meters":26800,"station_id":"ce4bgi92rcd13ifvqb90","pricing_plan_id":"free"},{"bike_id":"fd993871-00ee-4460-9405-ac8d891a6f57","system_id":"levelo_inurba_marseille","lat":43.296277,"lon":5.377108,"is_reserved":false,"is_disabled":false,"rental_uris":{"android":"levelo://app?vid=fd993871-00ee-4460-9405-ac8d891a6f57","ios":"levelo://app?vid=fd993871-00ee-4460-9405-ac8d891a6f57"},"vehicle_type_id":"4","last_reported":1690578333,"current_range_meters":6800,"station_id":"ce4bgi92rcd13ifvqb90","pricing_plan_id":"free"},{"bike_id":"65acabec-04e7-4c40-b817-a4c6b1b5a89f","system_id":"levelo_inurba_marseille","lat":43.29537,"lon":5.37508,"is_reserved":false,"is_disabled":false,"rental_uris":{"android":"levelo://app?vid=65acabec-04e7-4c40-b817-a4c6b1b5a89f","ios":"levelo://app?vid=65acabec-04e7-4c40-b817-a4c6b1b5a89f"},"vehicle_type_id":"4","last_reported":1690578333,"current_range_meters":28000,"station_id":"","pricing_plan_id":"free"},{"bike_id":"4634e743-7833-4f32-bd96-87789af5d4e9","system_id":"levelo_inurba_marseille","lat":43.32367,"lon":5.388836,"is_reserved":false,"is_disabled":false,"rental_uris":{"android":"levelo://app?vid=4634e743-7833-4f32-bd96-87789af5d4e9","ios":"levelo://app?vid=4634e743-7833-4f32-bd96-87789af5d4e9"},"vehicle_type_id":"4","last_reported":1690578333,"current_range_meters":18400,"station_id":"ce4bhqp2rcd13ifvqhog","pricing_plan_id":"free"},{"bike_id":"73182c36-4b48-47f9-a2fa-822963b9a359","system_id":"levelo_inurba_marseille","lat":43.29602,"lon":5.381084,"is_reserved":false,"is_disabled":false,"rental_uris":{"android":"levelo://app?vid=73182c36-4b48-47f9-a2fa-822963b9a359","ios":"levelo://app?vid=73182c36-4b48-47f9-a2fa-822963b9a359"},"vehicle_type_id":"4","last_reported":1690578333,"current_range_meters":29600,"station_id":"ce4bgl12rcd13ifvqbo0","pricing_plan_id":"free"},{"bike_id":"e5c26a9d-e95f-4a74-8b5f-40eb61511e36","system_id":"levelo_inurba_marseille","lat":43.29602,"lon":5.381084,"is_reserved":false,"is_disabled":false,"rental_uris":{"android":"levelo://app?vid=e5c26a9d-e95f-4a74-8b5f-40eb61511e36","ios":"levelo://app?vid=e5c26a9d-e95f-4a74-8b5f-40eb61511e36"},"vehicle_type_id":"4","last_reported":1690578333,"current_range_meters":22000,"station_id":"ce4bgl12rcd13ifvqbo0","pricing_plan_id":"free"},{"bike_id":"715038b9-4ebe-459c-a257-ad1ffff24675","system_id":"levelo_inurba_marseille","lat":43.29602,"lon":5.381084,"is_reserved":false,"is_disabled":false,"rental_uris":{"android":"levelo://app?vid=715038b9-4ebe-459c-a257-ad1ffff24675","ios":"levelo://app?vid=715038b9-4ebe-459c-a257-ad1ffff24675"},"vehicle_type_id":"4","last_reported":1690578333,"current_range_meters":3600,"station_id":"ce4bgl12rcd13ifvqbo0","pricing_plan_id":"free"},{"bike_id":"e19ce460-73b7-4bfd-b7c7-995d8e39cf36","system_id":"levelo_inurba_marseille","lat":43.29602,"lon":5.381084,"is_reserved":false,"is_disabled":false,"rental_uris":{"android":"levelo://app?vid=e19ce460-73b7-4bfd-b7c7-995d8e39cf36","ios":"levelo://app?vid=e19ce460-73b7-4bfd-b7c7-995d8e39cf36"},"vehicle_type_id":"4","last_reported":1690578333,"current_range_meters":800,"station_id":"ce4bgl12rcd13ifvqbo0","pricing_plan_id":"free"},{"bike_id":"135796ad-bba2-4ecd-8a54-09697810c55d","system_id":"levelo_inurba_marseille","lat":43.29602,"lon":5.381084,"is_reserved":false,"is_disabled":false,"rental_uris":{"android":"levelo://app?vid=135796ad-bba2-4ecd-8a54-09697810c55d","ios":"levelo://app?vid=135796ad-bba2-4ecd-8a54-09697810c55d"},"vehicle_type_id":"4","last_reported":1690578333,"current_range_meters":1200,"station_id":"ce4bgl12rcd13ifvqbo0","pricing_plan_id":"free"},{"bike_id":"3e5b29ba-f9aa-48ab-bd27-63063b21ce75","system_id":"levelo_inurba_marseille","lat":43.29602,"lon":5.381084,"is_reserved":false,"is_disabled":false,"rental_uris":{"android":"levelo://app?vid=3e5b29ba-f9aa-48ab-bd27-63063b21ce75","ios":"levelo://app?vid=3e5b29ba-f9aa-48ab-bd27-63063b21ce75"},"vehicle_type_id":"4","last_reported":1690578333,"current_range_meters":19200,"station_id":"ce4bgl12rcd13ifvqbo0","pricing_plan_id":"free"},{"bike_id":"3ef0d62b-7780-4648-be1b-ab805575d82d","system_id":"levelo_inurba_marseille","lat":43.29594,"lon":5.38098,"is_reserved":false,"is_disabled":false,"rental_uris":{"android":"levelo://app?vid=3ef0d62b-7780-4648-be1b-ab805575d82d","ios":"levelo://app?vid=3ef0d62b-7780-4648-be1b-ab805575d82d"},"vehicle_type_id":"4","last_reported":1690578333,"current_range_meters":22800,"station_id":"ce4bgl12rcd13ifvqbo0","pricing_plan_id":"free"},{"bike_id":"1f4eb3d0-3afa-4621-8b05-0d9f59a19f31","system_id":"levelo_inurba_marseille","lat":43.29602,"lon":5.381084,"is_reserved":false,"is_disabled":false,"rental_uris":{"android":"levelo://app?vid=1f4eb3d0-3afa-4621-8b05-0d9f59a19f31","ios":"levelo://app?vid=1f4eb3d0-3afa-4621-8b05-0d9f59a19f31"},"vehicle_type_id":"4","last_reported":1690578333,"current_range_meters":23600,"station_id":"ce4bgl12rcd13ifvqbo0","pricing_plan_id":"free"},{"bike_id":"e5122ef3-1138-46b4-96bb-cf4cf4126bd9","system_id":"levelo_inurba_marseille","lat":43.29305,"lon":5.3717,"is_reserved":false,"is_disabled":false,"rental_uris":{"android":"levelo://app?vid=e5122ef3-1138-46b4-96bb-cf4cf4126bd9","ios":"levelo://app?vid=e5122ef3-1138-46b4-96bb-cf4cf4126bd9"},"vehicle_type_id":"4","last_reported":1690578333,"current_range_meters":0,"station_id":"ce4bgh92rcd13ifvqb40","pricing_plan_id":"free"},{"bike_id":"4abd777f-4827-4c55-85d9-62b3f7cc4dd6","system_id":"levelo_inurba_marseille","lat":43.29363,"lon":5.37595,"is_reserved":false,"is_disabled":false,"rental_uris":{"android":"levelo://app?vid=4abd777f-4827-4c55-85d9-62b3f7cc4dd6","ios":"levelo://app?vid=4abd777f-4827-4c55-85d9-62b3f7cc4dd6"},"vehicle_type_id":"4","last_reported":1690578333,"current_range_meters":20000,"station_id":"","pricing_plan_id":"free"},{"bike_id":"05c95a2a-0246-47c5-a75c-0963cf038c30","system_id":"levelo_inurba_marseille","lat":43.29304,"lon":5.37465,"is_reserved":false,"is_disabled":false,"rental_uris":{"android":"levelo://app?vid=05c95a2a-0246-47c5-a75c-0963cf038c30","ios":"levelo://app?vid=05c95a2a-0246-47c5-a75c-0963cf038c30"},"vehicle_type_id":"4","last_reported":1690578333,"current_range_meters":22800,"station_id":"ce4bgi12rcd13ifvqb70","pricing_plan_id":"free"},{"bike_id":"62afb939-e30c-4cf9-9dae-35ae357e8c7c","system_id":"levelo_inurba_marseille","lat":43.305994,"lon":5.393687,"is_reserved":false,"is_disabled":false,"rental_uris":{"android":"levelo://app?vid=62afb939-e30c-4cf9-9dae-35ae357e8c7c","ios":"levelo://app?vid=62afb939-e30c-4cf9-9dae-35ae357e8c7c"},"vehicle_type_id":"4","last_reported":1690578333,"current_range_meters":18400,"station_id":"ce4bh0p2rcd13ifvqd80","pricing_plan_id":"free"},{"bike_id":"1040d8e8-5c3c-408e-8bda-83a3f07c8db7","system_id":"levelo_inurba_marseille","lat":43.305994,"lon":5.393687,"is_reserved":false,"is_disabled":false,"rental_uris":{"android":"levelo://app?vid=1040d8e8-5c3c-408e-8bda-83a3f07c8db7","ios":"levelo://app?vid=1040d8e8-5c3c-408e-8bda-83a3f07c8db7"},"vehicle_type_id":"4","last_reported":1690578333,"current_range_meters":28800,"station_id":"ce4bh0p2rcd13ifvqd80","pricing_plan_id":"free"},{"bike_id":"ee5636bb-6157-4d52-b93a-d020f101ca5a","system_id":"levelo_inurba_marseille","lat":43.30311,"lon":5.392,"is_reserved":false,"is_disabled":false,"rental_uris":{"android":"levelo://app?vid=ee5636bb-6157-4d52-b93a-d020f101ca5a","ios":"levelo://app?vid=ee5636bb-6157-4d52-b93a-d020f101ca5a"},"vehicle_type_id":"4","last_reported":1690578333,"current_range_meters":24000,"station_id":"ce4bgkh2rcd13ifvqbk0","pricing_plan_id":"free"},{"bike_id":"af7ad6fc-0710-48b7-b952-e9fc091a102f","system_id":"levelo_inurba_marseille","lat":43.29378,"lon":5.37849,"is_reserved":false,"is_disabled":false,"rental_uris":{"android":"levelo://app?vid=af7ad6fc-0710-48b7-b952-e9fc091a102f","ios":"levelo://app?vid=af7ad6fc-0710-48b7-b952-e9fc091a102f"},"vehicle_type_id":"4","last_reported":1690578333,"current_range_meters":5600,"station_id":"ce4bgjh2rcd13ifvqbf0","pricing_plan_id":"free"},{"bike_id":"88303d73-6a32-41ea-a846-e353dd407c96","system_id":"levelo_inurba_marseille","lat":43.30303,"lon":5.392221,"is_reserved":false,"is_disabled":false,"rental_uris":{"android":"levelo://app?vid=88303d73-6a32-41ea-a846-e353dd407c96","ios":"levelo://app?vid=88303d73-6a32-41ea-a846-e353dd407c96"},"vehicle_type_id":"4","last_reported":1690578333,"current_range_meters":22000,"station_id":"ce4bgkh2rcd13ifvqbk0","pricing_plan_id":"free"},{"bike_id":"396e3c2f-0c09-4b3f-8271-40796111d28c","system_id":"levelo_inurba_marseille","lat":43.302992,"lon":5.392136,"is_reserved":false,"is_disabled":false,"rental_uris":{"android":"levelo://app?vid=396e3c2f-0c09-4b3f-8271-40796111d28c","ios":"levelo://app?vid=396e3c2f-0c09-4b3f-8271-40796111d28c"},"vehicle_type_id":"4","last_reported":1690578333,"current_range_meters":6800,"station_id":"ce4bgkh2rcd13ifvqbk0","pricing_plan_id":"free"},{"bike_id":"4ea33085-77b8-472c-865e-1490fe620ec2","system_id":"levelo_inurba_marseille","lat":43.300852,"lon":5.390859,"is_reserved":false,"is_disabled":false,"rental_uris":{"android":"levelo://app?vid=4ea33085-77b8-472c-865e-1490fe620ec2","ios":"levelo://app?vid=4ea33085-77b8-472c-865e-1490fe620ec2"},"vehicle_type_id":"4","last_reported":1690578333,"current_range_meters":28800,"station_id":"ce4bh192rcd13ifvqdb0","pricing_plan_id":"free"},{"bike_id":"1a572529-e73f-438a-b501-ee85d2bfef41","system_id":"levelo_inurba_marseille","lat":43.300852,"lon":5.390859,"is_reserved":false,"is_disabled":false,"rental_uris":{"android":"levelo://app?vid=1a572529-e73f-438a-b501-ee85d2bfef41","ios":"levelo://app?vid=1a572529-e73f-438a-b501-ee85d2bfef41"},"vehicle_type_id":"4","last_reported":1690578333,"current_range_meters":32000,"station_id":"ce4bh192rcd13ifvqdb0","pricing_plan_id":"free"},{"bike_id":"9f85c849-740a-48e0-be7e-1191463403b8","system_id":"levelo_inurba_marseille","lat":43.300852,"lon":5.390859,"is_reserved":false,"is_disabled":false,"rental_uris":{"android":"levelo://app?vid=9f85c849-740a-48e0-be7e-1191463403b8","ios":"levelo://app?vid=9f85c849-740a-48e0-be7e-1191463403b8"},"vehicle_type_id":"4","last_reported":1690578333,"current_range_meters":29600,"station_id":"ce4bh192rcd13ifvqdb0","pricing_plan_id":"free"},{"bike_id":"3db02525-4c01-4708-b6a2-da871df09c70","system_id":"levelo_inurba_marseille","lat":43.300852,"lon":5.390859,"is_reserved":false,"is_disabled":false,"rental_uris":{"android":"levelo://app?vid=3db02525-4c01-4708-b6a2-da871df09c70","ios":"levelo://app?vid=3db02525-4c01-4708-b6a2-da871df09c70"},"vehicle_type_id":"4","last_reported":1690578333,"current_range_meters":27600,"station_id":"ce4bh192rcd13ifvqdb0","pricing_plan_id":"free"},{"bike_id":"d4f94131-70c1-4ab5-ab57-a459d6ee200b","system_id":"levelo_inurba_marseille","lat":43.300852,"lon":5.390859,"is_reserved":false,"is_disabled":false,"rental_uris":{"android":"levelo://app?vid=d4f94131-70c1-4ab5-ab57-a459d6ee200b","ios":"levelo://app?vid=d4f94131-70c1-4ab5-ab57-a459d6ee200b"},"vehicle_type_id":"4","last_reported":1690578333,"current_range_meters":21200,"station_id":"ce4bh192rcd13ifvqdb0","pricing_plan_id":"free"},{"bike_id":"39158feb-b972-40a2-8ff3-7c50f14d445b","system_id":"levelo_inurba_marseille","lat":43.292311,"lon":5.360731,"is_reserved":false,"is_disabled":false,"rental_uris":{"android":"levelo://app?vid=39158feb-b972-40a2-8ff3-7c50f14d445b","ios":"levelo://app?vid=39158feb-b972-40a2-8ff3-7c50f14d445b"},"vehicle_type_id":"4","last_reported":1690578333,"current_range_meters":11200,"station_id":"ce4bhbh2rcd13ifvqeqg","pricing_plan_id":"free"},{"bike_id":"3512e984-19da-4dc8-9a0e-faf5d8e92333","system_id":"levelo_inurba_marseille","lat":43.30101,"lon":5.3908,"is_reserved":false,"is_disabled":false,"rental_uris":{"android":"levelo://app?vid=3512e984-19da-4dc8-9a0e-faf5d8e92333","ios":"levelo://app?vid=3512e984-19da-4dc8-9a0e-faf5d8e92333"},"vehicle_type_id":"4","last_reported":1690578333,"current_range_meters":2400,"station_id":"ce4bh192rcd13ifvqdb0","pricing_plan_id":"free"},{"bike_id":"80aafe49-808c-45b6-adb3-7618ac33b986","system_id":"levelo_inurba_marseille","lat":43.30094,"lon":5.3908,"is_reserved":false,"is_disabled":false,"rental_uris":{"android":"levelo://app?vid=80aafe49-808c-45b6-adb3-7618ac33b986","ios":"levelo://app?vid=80aafe49-808c-45b6-adb3-7618ac33b986"},"vehicle_type_id":"4","last_reported":1690578333,"current_range_meters":31200,"station_id":"ce4bh192rcd13ifvqdb0","pricing_plan_id":"free"},{"bike_id":"8c1d0b48-f344-414d-b9ec-54c30d6a7cde","system_id":"levelo_inurba_marseille","lat":43.30098,"lon":5.39086,"is_reserved":false,"is_disabled":false,"rental_uris":{"android":"levelo://app?vid=8c1d0b48-f344-414d-b9ec-54c30d6a7cde","ios":"levelo://app?vid=8c1d0b48-f344-414d-b9ec-54c30d6a7cde"},"vehicle_type_id":"4","last_reported":1690578333,"current_range_meters":26400,"station_id":"ce4bh192rcd13ifvqdb0","pricing_plan_id":"free"},{"bike_id":"a35a5c33-6e6e-4f3b-a811-656fd9a4793b","system_id":"levelo_inurba_marseille","lat":43.29264,"lon":5.37612,"is_reserved":false,"is_disabled":false,"rental_uris":{"android":"levelo://app?vid=a35a5c33-6e6e-4f3b-a811-656fd9a4793b","ios":"levelo://app?vid=a35a5c33-6e6e-4f3b-a811-656fd9a4793b"},"vehicle_type_id":"4","last_reported":1690578333,"current_range_meters":29200,"station_id":"ce4bgi12rcd13ifvqb80","pricing_plan_id":"free"},{"bike_id":"a9a6b0c8-b57d-4caa-82d3-22cf5c477772","system_id":"levelo_inurba_marseille","lat":43.29181,"lon":5.37148,"is_reserved":false,"is_disabled":false,"rental_uris":{"android":"levelo://app?vid=a9a6b0c8-b57d-4caa-82d3-22cf5c477772","ios":"levelo://app?vid=a9a6b0c8-b57d-4caa-82d3-22cf5c477772"},"vehicle_type_id":"4","last_reported":1690578333,"current_range_meters":14000,"station_id":"ce4bha92rcd13ifvqeh0","pricing_plan_id":"free"},{"bike_id":"b8c695b6-67d6-49ce-8d65-4185bd7192d5","system_id":"levelo_inurba_marseille","lat":43.29876,"lon":5.38907,"is_reserved":false,"is_disabled":false,"rental_uris":{"android":"levelo://app?vid=b8c695b6-67d6-49ce-8d65-4185bd7192d5","ios":"levelo://app?vid=b8c695b6-67d6-49ce-8d65-4185bd7192d5"},"vehicle_type_id":"4","last_reported":1690578333,"current_range_meters":29600,"station_id":"ce4bh392rcd13ifvqdl0","pricing_plan_id":"free"},{"bike_id":"d6a0fed4-cb78-4fef-8536-2b5612ab4427","system_id":"levelo_inurba_marseille","lat":43.31323,"lon":5.39683,"is_reserved":false,"is_disabled":false,"rental_uris":{"android":"levelo://app?vid=d6a0fed4-cb78-4fef-8536-2b5612ab4427","ios":"levelo://app?vid=d6a0fed4-cb78-4fef-8536-2b5612ab4427"},"vehicle_type_id":"4","last_reported":1690578333,"current_range_meters":10400,"station_id":"ce4bgvp2rcd13ifvqcu0","pricing_plan_id":"free"},{"bike_id":"9dcf1ae2-99eb-41c8-a9d6-ccef7a60dd1e","system_id":"levelo_inurba_marseille","lat":43.31325,"lon":5.39683,"is_reserved":false,"is_disabled":false,"rental_uris":{"android":"levelo://app?vid=9dcf1ae2-99eb-41c8-a9d6-ccef7a60dd1e","ios":"levelo://app?vid=9dcf1ae2-99eb-41c8-a9d6-ccef7a60dd1e"},"vehicle_type_id":"4","last_reported":1690578333,"current_range_meters":31200,"station_id":"ce4bgvp2rcd13ifvqcu0","pricing_plan_id":"free"},{"bike_id":"eaab094d-a1df-4e2c-a547-817446eb4510","system_id":"levelo_inurba_marseille","lat":43.30885,"lon":5.39637,"is_reserved":false,"is_disabled":false,"rental_uris":{"android":"levelo://app?vid=eaab094d-a1df-4e2c-a547-817446eb4510","ios":"levelo://app?vid=eaab094d-a1df-4e2c-a547-817446eb4510"},"vehicle_type_id":"4","last_reported":1690578333,"current_range_meters":2800,"station_id":"ce4bh012rcd13ifvqcv0","pricing_plan_id":"free"},{"bike_id":"fa47b82b-35c8-496d-9043-0c1bf4c03aa8","system_id":"levelo_inurba_marseille","lat":43.309038,"lon":5.396546,"is_reserved":false,"is_disabled":false,"rental_uris":{"android":"levelo://app?vid=fa47b82b-35c8-496d-9043-0c1bf4c03aa8","ios":"levelo://app?vid=fa47b82b-35c8-496d-9043-0c1bf4c03aa8"},"vehicle_type_id":"4","last_reported":1690578333,"current_range_meters":10000,"station_id":"ce4bh012rcd13ifvqcv0","pricing_plan_id":"free"},{"bike_id":"2ce17796-67b5-4ed9-a4db-4937c010929f","system_id":"levelo_inurba_marseille","lat":43.31325,"lon":5.39686,"is_reserved":false,"is_disabled":false,"rental_uris":{"android":"levelo://app?vid=2ce17796-67b5-4ed9-a4db-4937c010929f","ios":"levelo://app?vid=2ce17796-67b5-4ed9-a4db-4937c010929f"},"vehicle_type_id":"4","last_reported":1690578333,"current_range_meters":31200,"station_id":"ce4bgvp2rcd13ifvqcu0","pricing_plan_id":"free"},{"bike_id":"f1bf4665-7ac2-4c69-9418-af76438cecd3","system_id":"levelo_inurba_marseille","lat":43.313291,"lon":5.396838,"is_reserved":false,"is_disabled":false,"rental_uris":{"android":"levelo://app?vid=f1bf4665-7ac2-4c69-9418-af76438cecd3","ios":"levelo://app?vid=f1bf4665-7ac2-4c69-9418-af76438cecd3"},"vehicle_type_id":"4","last_reported":1690578333,"current_range_meters":26000,"station_id":"ce4bgvp2rcd13ifvqcu0","pricing_plan_id":"free"},{"bike_id":"043b32ba-b15b-4c9a-9e51-318e1fc7853a","system_id":"levelo_inurba_marseille","lat":43.31329,"lon":5.39687,"is_reserved":false,"is_disabled":false,"rental_uris":{"android":"levelo://app?vid=043b32ba-b15b-4c9a-9e51-318e1fc7853a","ios":"levelo://app?vid=043b32ba-b15b-4c9a-9e51-318e1fc7853a"},"vehicle_type_id":"4","last_reported":1690578333,"current_range_meters":14800,"station_id":"ce4bgvp2rcd13ifvqcu0","pricing_plan_id":"free"},{"bike_id":"d562ac2f-56df-4c45-92fc-92925810f009","system_id":"levelo_inurba_marseille","lat":43.31326,"lon":5.39692,"is_reserved":false,"is_disabled":false,"rental_uris":{"android":"levelo://app?vid=d562ac2f-56df-4c45-92fc-92925810f009","ios":"levelo://app?vid=d562ac2f-56df-4c45-92fc-92925810f009"},"vehicle_type_id":"4","last_reported":1690578333,"current_range_meters":0,"station_id":"ce4bgvp2rcd13ifvqcu0","pricing_plan_id":"free"},{"bike_id":"e810061f-daa4-437a-8eb8-8ffdcd32f682","system_id":"levelo_inurba_marseille","lat":43.31333,"lon":5.39694,"is_reserved":false,"is_disabled":false,"rental_uris":{"android":"levelo://app?vid=e810061f-daa4-437a-8eb8-8ffdcd32f682","ios":"levelo://app?vid=e810061f-daa4-437a-8eb8-8ffdcd32f682"},"vehicle_type_id":"4","last_reported":1690578333,"current_range_meters":0,"station_id":"ce4bgvp2rcd13ifvqcu0","pricing_plan_id":"free"},{"bike_id":"d27e0bd8-e5f1-45cd-b93f-c6caab337e48","system_id":"levelo_inurba_marseille","lat":43.31325,"lon":5.39695,"is_reserved":false,"is_disabled":false,"rental_uris":{"android":"levelo://app?vid=d27e0bd8-e5f1-45cd-b93f-c6caab337e48","ios":"levelo://app?vid=d27e0bd8-e5f1-45cd-b93f-c6caab337e48"},"vehicle_type_id":"4","last_reported":1690578333,"current_range_meters":31200,"station_id":"ce4bgvp2rcd13ifvqcu0","pricing_plan_id":"free"},{"bike_id":"7305f0ae-51cf-4ef4-882d-4aa18b9c8dd4","system_id":"levelo_inurba_marseille","lat":43.31328,"lon":5.39696,"is_reserved":false,"is_disabled":false,"rental_uris":{"android":"levelo://app?vid=7305f0ae-51cf-4ef4-882d-4aa18b9c8dd4","ios":"levelo://app?vid=7305f0ae-51cf-4ef4-882d-4aa18b9c8dd4"},"vehicle_type_id":"4","last_reported":1690578333,"current_range_meters":20400,"station_id":"ce4bgvp2rcd13ifvqcu0","pricing_plan_id":"free"},{"bike_id":"3b3f08c0-4017-4788-b549-41717c77417a","system_id":"levelo_inurba_marseille","lat":43.30885,"lon":5.3965,"is_reserved":false,"is_disabled":false,"rental_uris":{"android":"levelo://app?vid=3b3f08c0-4017-4788-b549-41717c77417a","ios":"levelo://app?vid=3b3f08c0-4017-4788-b549-41717c77417a"},"vehicle_type_id":"4","last_reported":1690578333,"current_range_meters":25200,"station_id":"ce4bh012rcd13ifvqcv0","pricing_plan_id":"free"},{"bike_id":"057edfd5-b706-4429-a756-2198ca6081d8","system_id":"levelo_inurba_marseille","lat":43.31325,"lon":5.397,"is_reserved":false,"is_disabled":false,"rental_uris":{"android":"levelo://app?vid=057edfd5-b706-4429-a756-2198ca6081d8","ios":"levelo://app?vid=057edfd5-b706-4429-a756-2198ca6081d8"},"vehicle_type_id":"4","last_reported":1690578333,"current_range_meters":2800,"station_id":"ce4bgvp2rcd13ifvqcu0","pricing_plan_id":"free"},{"bike_id":"1150aede-8880-421f-9e81-6e6216b51a06","system_id":"levelo_inurba_marseille","lat":43.31327,"lon":5.397,"is_reserved":false,"is_disabled":false,"rental_uris":{"android":"levelo://app?vid=1150aede-8880-421f-9e81-6e6216b51a06","ios":"levelo://app?vid=1150aede-8880-421f-9e81-6e6216b51a06"},"vehicle_type_id":"4","last_reported":1690578333,"current_range_meters":10400,"station_id":"ce4bgvp2rcd13ifvqcu0","pricing_plan_id":"free"},{"bike_id":"25788a73-7e00-423c-a01e-0b7ef06f8893","system_id":"levelo_inurba_marseille","lat":43.29529,"lon":5.385581,"is_reserved":false,"is_disabled":false,"rental_uris":{"android":"levelo://app?vid=25788a73-7e00-423c-a01e-0b7ef06f8893","ios":"levelo://app?vid=25788a73-7e00-423c-a01e-0b7ef06f8893"},"vehicle_type_id":"4","last_reported":1690578333,"current_range_meters":16400,"station_id":"ce4bgih2rcd13ifvqba0","pricing_plan_id":"free"},{"bike_id":"2d7e1121-03a6-4932-b85f-1ef919f690d0","system_id":"levelo_inurba_marseille","lat":43.30889,"lon":5.39655,"is_reserved":false,"is_disabled":false,"rental_uris":{"android":"levelo://app?vid=2d7e1121-03a6-4932-b85f-1ef919f690d0","ios":"levelo://app?vid=2d7e1121-03a6-4932-b85f-1ef919f690d0"},"vehicle_type_id":"4","last_reported":1690578333,"current_range_meters":1600,"station_id":"ce4bh012rcd13ifvqcv0","pricing_plan_id":"free"},{"bike_id":"b073baed-7acc-4e3b-b0ca-7cf3ff8e4b53","system_id":"levelo_inurba_marseille","lat":43.29539,"lon":5.38533,"is_reserved":false,"is_disabled":false,"rental_uris":{"android":"levelo://app?vid=b073baed-7acc-4e3b-b0ca-7cf3ff8e4b53","ios":"levelo://app?vid=b073baed-7acc-4e3b-b0ca-7cf3ff8e4b53"},"vehicle_type_id":"4","last_reported":1690578333,"current_range_meters":10800,"station_id":"ce4bgih2rcd13ifvqba0","pricing_plan_id":"free"},{"bike_id":"5c8cb9f3-b18d-4f2c-9a56-50940aa7a91d","system_id":"levelo_inurba_marseille","lat":43.295446,"lon":5.385435,"is_reserved":false,"is_disabled":false,"rental_uris":{"android":"levelo://app?vid=5c8cb9f3-b18d-4f2c-9a56-50940aa7a91d","ios":"levelo://app?vid=5c8cb9f3-b18d-4f2c-9a56-50940aa7a91d"},"vehicle_type_id":"4","last_reported":1690578333,"current_range_meters":22800,"station_id":"ce4bgih2rcd13ifvqba0","pricing_plan_id":"free"},{"bike_id":"c1283aae-a5b2-4b88-b6f5-7d7481de71e2","system_id":"levelo_inurba_marseille","lat":43.29422,"lon":5.38307,"is_reserved":false,"is_disabled":false,"rental_uris":{"android":"levelo://app?vid=c1283aae-a5b2-4b88-b6f5-7d7481de71e2","ios":"levelo://app?vid=c1283aae-a5b2-4b88-b6f5-7d7481de71e2"},"vehicle_type_id":"4","last_reported":1690578333,"current_range_meters":12400,"station_id":"","pricing_plan_id":"free"},{"bike_id":"4b9a72fa-673c-4936-a636-1b4cc889f0ae","system_id":"levelo_inurba_marseille","lat":43.29535,"lon":5.38531,"is_reserved":false,"is_disabled":false,"rental_uris":{"android":"levelo://app?vid=4b9a72fa-673c-4936-a636-1b4cc889f0ae","ios":"levelo://app?vid=4b9a72fa-673c-4936-a636-1b4cc889f0ae"},"vehicle_type_id":"4","last_reported":1690578333,"current_range_meters":5200,"station_id":"ce4bgih2rcd13ifvqba0","pricing_plan_id":"free"},{"bike_id":"a3141e0b-b76e-46d8-aef9-76f1e353c4f3","system_id":"levelo_inurba_marseille","lat":43.29529,"lon":5.385581,"is_reserved":false,"is_disabled":false,"rental_uris":{"android":"levelo://app?vid=a3141e0b-b76e-46d8-aef9-76f1e353c4f3","ios":"levelo://app?vid=a3141e0b-b76e-46d8-aef9-76f1e353c4f3"},"vehicle_type_id":"4","last_reported":1690578333,"current_range_meters":30800,"station_id":"ce4bgih2rcd13ifvqba0","pricing_plan_id":"free"},{"bike_id":"9c87e720-676e-4209-99f2-59d7bb112bca","system_id":"levelo_inurba_marseille","lat":43.29537,"lon":5.38536,"is_reserved":false,"is_disabled":false,"rental_uris":{"android":"levelo://app?vid=9c87e720-676e-4209-99f2-59d7bb112bca","ios":"levelo://app?vid=9c87e720-676e-4209-99f2-59d7bb112bca"},"vehicle_type_id":"4","last_reported":1690578333,"current_range_meters":24400,"station_id":"ce4bgih2rcd13ifvqba0","pricing_plan_id":"free"},{"bike_id":"a103c4e6-e5ce-4f46-b703-5300a6154229","system_id":"levelo_inurba_marseille","lat":43.29529,"lon":5.385581,"is_reserved":false,"is_disabled":false,"rental_uris":{"android":"levelo://app?vid=a103c4e6-e5ce-4f46-b703-5300a6154229","ios":"levelo://app?vid=a103c4e6-e5ce-4f46-b703-5300a6154229"},"vehicle_type_id":"4","last_reported":1690578333,"current_range_meters":7200,"station_id":"ce4bgih2rcd13ifvqba0","pricing_plan_id":"free"},{"bike_id":"37d72d6b-b7f8-4349-a05f-dd2e55f29f8e","system_id":"levelo_inurba_marseille","lat":43.29537,"lon":5.38539,"is_reserved":false,"is_disabled":false,"rental_uris":{"android":"levelo://app?vid=37d72d6b-b7f8-4349-a05f-dd2e55f29f8e","ios":"levelo://app?vid=37d72d6b-b7f8-4349-a05f-dd2e55f29f8e"},"vehicle_type_id":"4","last_reported":1690578333,"current_range_meters":19600,"station_id":"ce4bgih2rcd13ifvqba0","pricing_plan_id":"free"},{"bike_id":"0ac7c8a8-44c1-46bf-9b93-a2f3937dae5c","system_id":"levelo_inurba_marseille","lat":43.29529,"lon":5.385581,"is_reserved":false,"is_disabled":false,"rental_uris":{"android":"levelo://app?vid=0ac7c8a8-44c1-46bf-9b93-a2f3937dae5c","ios":"levelo://app?vid=0ac7c8a8-44c1-46bf-9b93-a2f3937dae5c"},"vehicle_type_id":"4","last_reported":1690578333,"current_range_meters":0,"station_id":"ce4bgih2rcd13ifvqba0","pricing_plan_id":"free"},{"bike_id":"4f6d057b-40ff-4143-8e72-fae3fd6dfdca","system_id":"levelo_inurba_marseille","lat":43.29538,"lon":5.38542,"is_reserved":false,"is_disabled":false,"rental_uris":{"android":"levelo://app?vid=4f6d057b-40ff-4143-8e72-fae3fd6dfdca","ios":"levelo://app?vid=4f6d057b-40ff-4143-8e72-fae3fd6dfdca"},"vehicle_type_id":"4","last_reported":1690578333,"current_range_meters":16800,"station_id":"ce4bgih2rcd13ifvqba0","pricing_plan_id":"free"},{"bike_id":"6cd55b5f-4906-4908-bea8-4f6b2a67365b","system_id":"levelo_inurba_marseille","lat":43.29533,"lon":5.38536,"is_reserved":false,"is_disabled":false,"rental_uris":{"android":"levelo://app?vid=6cd55b5f-4906-4908-bea8-4f6b2a67365b","ios":"levelo://app?vid=6cd55b5f-4906-4908-bea8-4f6b2a67365b"},"vehicle_type_id":"4","last_reported":1690578333,"current_range_meters":5200,"station_id":"ce4bgih2rcd13ifvqba0","pricing_plan_id":"free"},{"bike_id":"03ccd69c-6b61-4ada-8622-76d2e82095a3","system_id":"levelo_inurba_marseille","lat":43.29529,"lon":5.385581,"is_reserved":false,"is_disabled":false,"rental_uris":{"android":"levelo://app?vid=03ccd69c-6b61-4ada-8622-76d2e82095a3","ios":"levelo://app?vid=03ccd69c-6b61-4ada-8622-76d2e82095a3"},"vehicle_type_id":"4","last_reported":1690578333,"current_range_meters":400,"station_id":"ce4bgih2rcd13ifvqba0","pricing_plan_id":"free"},{"bike_id":"438cef9f-1a77-437e-be5a-4e2ab2ad239c","system_id":"levelo_inurba_marseille","lat":43.29535,"lon":5.3854,"is_reserved":false,"is_disabled":false,"rental_uris":{"android":"levelo://app?vid=438cef9f-1a77-437e-be5a-4e2ab2ad239c","ios":"levelo://app?vid=438cef9f-1a77-437e-be5a-4e2ab2ad239c"},"vehicle_type_id":"4","last_reported":1690578333,"current_range_meters":1200,"station_id":"ce4bgih2rcd13ifvqba0","pricing_plan_id":"free"},{"bike_id":"859be63f-4505-42d2-b2e6-603a6f64c9bc","system_id":"levelo_inurba_marseille","lat":43.29531,"lon":5.38534,"is_reserved":false,"is_disabled":false,"rental_uris":{"android":"levelo://app?vid=859be63f-4505-42d2-b2e6-603a6f64c9bc","ios":"levelo://app?vid=859be63f-4505-42d2-b2e6-603a6f64c9bc"},"vehicle_type_id":"4","last_reported":1690578333,"current_range_meters":3600,"station_id":"ce4bgih2rcd13ifvqba0","pricing_plan_id":"free"},{"bike_id":"28f87a67-c566-413d-9ecb-cb352eea3559","system_id":"levelo_inurba_marseille","lat":43.29533,"lon":5.38541,"is_reserved":false,"is_disabled":false,"rental_uris":{"android":"levelo://app?vid=28f87a67-c566-413d-9ecb-cb352eea3559","ios":"levelo://app?vid=28f87a67-c566-413d-9ecb-cb352eea3559"},"vehicle_type_id":"4","last_reported":1690578333,"current_range_meters":6000,"station_id":"ce4bgih2rcd13ifvqba0","pricing_plan_id":"free"},{"bike_id":"8332855c-06f0-463d-83f8-cbc1f5aabf17","system_id":"levelo_inurba_marseille","lat":43.29533,"lon":5.38542,"is_reserved":false,"is_disabled":false,"rental_uris":{"android":"levelo://app?vid=8332855c-06f0-463d-83f8-cbc1f5aabf17","ios":"levelo://app?vid=8332855c-06f0-463d-83f8-cbc1f5aabf17"},"vehicle_type_id":"4","last_reported":1690578333,"current_range_meters":8800,"station_id":"ce4bgih2rcd13ifvqba0","pricing_plan_id":"free"},{"bike_id":"9a947065-29c8-4b45-a308-eadd41583861","system_id":"levelo_inurba_marseille","lat":43.2953,"lon":5.38538,"is_reserved":false,"is_disabled":false,"rental_uris":{"android":"levelo://app?vid=9a947065-29c8-4b45-a308-eadd41583861","ios":"levelo://app?vid=9a947065-29c8-4b45-a308-eadd41583861"},"vehicle_type_id":"4","last_reported":1690578333,"current_range_meters":1200,"station_id":"ce4bgih2rcd13ifvqba0","pricing_plan_id":"free"},{"bike_id":"384f4e5d-d992-44b1-8508-7d2670f2c87f","system_id":"levelo_inurba_marseille","lat":43.2953,"lon":5.38538,"is_reserved":false,"is_disabled":false,"rental_uris":{"android":"levelo://app?vid=384f4e5d-d992-44b1-8508-7d2670f2c87f","ios":"levelo://app?vid=384f4e5d-d992-44b1-8508-7d2670f2c87f"},"vehicle_type_id":"4","last_reported":1690578333,"current_range_meters":25200,"station_id":"ce4bgih2rcd13ifvqba0","pricing_plan_id":"free"},{"bike_id":"0e590f84-7458-4ad0-872f-a0e6cb4e0305","system_id":"levelo_inurba_marseille","lat":43.29527,"lon":5.38533,"is_reserved":false,"is_disabled":false,"rental_uris":{"android":"levelo://app?vid=0e590f84-7458-4ad0-872f-a0e6cb4e0305","ios":"levelo://app?vid=0e590f84-7458-4ad0-872f-a0e6cb4e0305"},"vehicle_type_id":"4","last_reported":1690578333,"current_range_meters":20400,"station_id":"ce4bgih2rcd13ifvqba0","pricing_plan_id":"free"},{"bike_id":"ec2755bc-43d9-45cf-994b-92416e877f9c","system_id":"levelo_inurba_marseille","lat":43.29526,"lon":5.38534,"is_reserved":false,"is_disabled":false,"rental_uris":{"android":"levelo://app?vid=ec2755bc-43d9-45cf-994b-92416e877f9c","ios":"levelo://app?vid=ec2755bc-43d9-45cf-994b-92416e877f9c"},"vehicle_type_id":"4","last_reported":1690578333,"current_range_meters":17600,"station_id":"ce4bgih2rcd13ifvqba0","pricing_plan_id":"free"},{"bike_id":"36af954a-736c-4f45-8e70-91676dd86ac5","system_id":"levelo_inurba_marseille","lat":43.29531,"lon":5.38544,"is_reserved":false,"is_disabled":false,"rental_uris":{"android":"levelo://app?vid=36af954a-736c-4f45-8e70-91676dd86ac5","ios":"levelo://app?vid=36af954a-736c-4f45-8e70-91676dd86ac5"},"vehicle_type_id":"4","last_reported":1690578333,"current_range_meters":5200,"station_id":"ce4bgih2rcd13ifvqba0","pricing_plan_id":"free"},{"bike_id":"4af68979-9830-4188-8be0-9f3d8e6dbd27","system_id":"levelo_inurba_marseille","lat":43.29527,"lon":5.38537,"is_reserved":false,"is_disabled":false,"rental_uris":{"android":"levelo://app?vid=4af68979-9830-4188-8be0-9f3d8e6dbd27","ios":"levelo://app?vid=4af68979-9830-4188-8be0-9f3d8e6dbd27"},"vehicle_type_id":"4","last_reported":1690578333,"current_range_meters":22000,"station_id":"ce4bgih2rcd13ifvqba0","pricing_plan_id":"free"},{"bike_id":"b4419a20-63bc-4b76-bbe4-50f18a560419","system_id":"levelo_inurba_marseille","lat":43.2953,"lon":5.38545,"is_reserved":false,"is_disabled":false,"rental_uris":{"android":"levelo://app?vid=b4419a20-63bc-4b76-bbe4-50f18a560419","ios":"levelo://app?vid=b4419a20-63bc-4b76-bbe4-50f18a560419"},"vehicle_type_id":"4","last_reported":1690578333,"current_range_meters":8000,"station_id":"ce4bgih2rcd13ifvqba0","pricing_plan_id":"free"},{"bike_id":"82325ae5-8ff8-419e-bf61-7e0437e1a3ff","system_id":"levelo_inurba_marseille","lat":43.2953,"lon":5.38545,"is_reserved":false,"is_disabled":false,"rental_uris":{"android":"levelo://app?vid=82325ae5-8ff8-419e-bf61-7e0437e1a3ff","ios":"levelo://app?vid=82325ae5-8ff8-419e-bf61-7e0437e1a3ff"},"vehicle_type_id":"4","last_reported":1690578333,"current_range_meters":8000,"station_id":"ce4bgih2rcd13ifvqba0","pricing_plan_id":"free"},{"bike_id":"93628db0-99a2-43af-b27c-d9b1971cca4b","system_id":"levelo_inurba_marseille","lat":43.2953,"lon":5.38546,"is_reserved":false,"is_disabled":false,"rental_uris":{"android":"levelo://app?vid=93628db0-99a2-43af-b27c-d9b1971cca4b","ios":"levelo://app?vid=93628db0-99a2-43af-b27c-d9b1971cca4b"},"vehicle_type_id":"4","last_reported":1690578333,"current_range_meters":12000,"station_id":"ce4bgih2rcd13ifvqba0","pricing_plan_id":"free"},{"bike_id":"bd730494-cd54-445a-b346-fbad0e577edb","system_id":"levelo_inurba_marseille","lat":43.29529,"lon":5.38547,"is_reserved":false,"is_disabled":false,"rental_uris":{"android":"levelo://app?vid=bd730494-cd54-445a-b346-fbad0e577edb","ios":"levelo://app?vid=bd730494-cd54-445a-b346-fbad0e577edb"},"vehicle_type_id":"4","last_reported":1690578333,"current_range_meters":12800,"station_id":"ce4bgih2rcd13ifvqba0","pricing_plan_id":"free"},{"bike_id":"9c268448-4703-4307-ba37-7d94fee13aaa","system_id":"levelo_inurba_marseille","lat":43.2953,"lon":5.38555,"is_reserved":false,"is_disabled":false,"rental_uris":{"android":"levelo://app?vid=9c268448-4703-4307-ba37-7d94fee13aaa","ios":"levelo://app?vid=9c268448-4703-4307-ba37-7d94fee13aaa"},"vehicle_type_id":"4","last_reported":1690578333,"current_range_meters":0,"station_id":"ce4bgih2rcd13ifvqba0","pricing_plan_id":"free"},{"bike_id":"ee3499c2-ad5c-41c5-a3b8-b85df31f421d","system_id":"levelo_inurba_marseille","lat":43.302008,"lon":5.394694,"is_reserved":false,"is_disabled":false,"rental_uris":{"android":"levelo://app?vid=ee3499c2-ad5c-41c5-a3b8-b85df31f421d","ios":"levelo://app?vid=ee3499c2-ad5c-41c5-a3b8-b85df31f421d"},"vehicle_type_id":"4","last_reported":1690578333,"current_range_meters":3600,"station_id":"ce4bh0p2rcd13ifvqd70","pricing_plan_id":"free"},{"bike_id":"5d30bff0-6d22-46a4-b6e0-02634874de14","system_id":"levelo_inurba_marseille","lat":43.302008,"lon":5.394694,"is_reserved":false,"is_disabled":false,"rental_uris":{"android":"levelo://app?vid=5d30bff0-6d22-46a4-b6e0-02634874de14","ios":"levelo://app?vid=5d30bff0-6d22-46a4-b6e0-02634874de14"},"vehicle_type_id":"4","last_reported":1690578333,"current_range_meters":4400,"station_id":"ce4bh0p2rcd13ifvqd70","pricing_plan_id":"free"},{"bike_id":"c3943b9c-b5eb-4975-89f5-3c1621b7f4ab","system_id":"levelo_inurba_marseille","lat":43.294326,"lon":5.386298,"is_reserved":false,"is_disabled":false,"rental_uris":{"android":"levelo://app?vid=c3943b9c-b5eb-4975-89f5-3c1621b7f4ab","ios":"levelo://app?vid=c3943b9c-b5eb-4975-89f5-3c1621b7f4ab"},"vehicle_type_id":"4","last_reported":1690578333,"current_range_meters":0,"station_id":"ce4bh2h2rcd13ifvqdh0","pricing_plan_id":"free"},{"bike_id":"85a4910c-0a6d-4483-b737-27f25f024128","system_id":"levelo_inurba_marseille","lat":43.29419,"lon":5.38612,"is_reserved":false,"is_disabled":false,"rental_uris":{"android":"levelo://app?vid=85a4910c-0a6d-4483-b737-27f25f024128","ios":"levelo://app?vid=85a4910c-0a6d-4483-b737-27f25f024128"},"vehicle_type_id":"4","last_reported":1690578333,"current_range_meters":25200,"station_id":"ce4bh2h2rcd13ifvqdh0","pricing_plan_id":"free"},{"bike_id":"df223fe6-5983-4d62-8868-ced93252f25a","system_id":"levelo_inurba_marseille","lat":43.29415,"lon":5.38607,"is_reserved":false,"is_disabled":false,"rental_uris":{"android":"levelo://app?vid=df223fe6-5983-4d62-8868-ced93252f25a","ios":"levelo://app?vid=df223fe6-5983-4d62-8868-ced93252f25a"},"vehicle_type_id":"4","last_reported":1690578333,"current_range_meters":0,"station_id":"","pricing_plan_id":"free"},{"bike_id":"babf4f7c-96a4-436d-9116-c8c4c5240904","system_id":"levelo_inurba_marseille","lat":43.29422,"lon":5.38621,"is_reserved":false,"is_disabled":false,"rental_uris":{"android":"levelo://app?vid=babf4f7c-96a4-436d-9116-c8c4c5240904","ios":"levelo://app?vid=babf4f7c-96a4-436d-9116-c8c4c5240904"},"vehicle_type_id":"4","last_reported":1690578333,"current_range_meters":22800,"station_id":"ce4bh2h2rcd13ifvqdh0","pricing_plan_id":"free"},{"bike_id":"34d2bbc4-7203-40ae-84ac-fbb1f78f9955","system_id":"levelo_inurba_marseille","lat":43.2942,"lon":5.38618,"is_reserved":false,"is_disabled":false,"rental_uris":{"android":"levelo://app?vid=34d2bbc4-7203-40ae-84ac-fbb1f78f9955","ios":"levelo://app?vid=34d2bbc4-7203-40ae-84ac-fbb1f78f9955"},"vehicle_type_id":"4","last_reported":1690578333,"current_range_meters":18400,"station_id":"ce4bh2h2rcd13ifvqdh0","pricing_plan_id":"free"},{"bike_id":"0b16db81-d269-43f0-8171-0f2c26e50db8","system_id":"levelo_inurba_marseille","lat":43.29422,"lon":5.38624,"is_reserved":false,"is_disabled":false,"rental_uris":{"android":"levelo://app?vid=0b16db81-d269-43f0-8171-0f2c26e50db8","ios":"levelo://app?vid=0b16db81-d269-43f0-8171-0f2c26e50db8"},"vehicle_type_id":"4","last_reported":1690578333,"current_range_meters":30400,"station_id":"ce4bh2h2rcd13ifvqdh0","pricing_plan_id":"free"},{"bike_id":"0ce11c38-1c58-4a7f-a6e5-8dce8f872970","system_id":"levelo_inurba_marseille","lat":43.29419,"lon":5.38619,"is_reserved":false,"is_disabled":false,"rental_uris":{"android":"levelo://app?vid=0ce11c38-1c58-4a7f-a6e5-8dce8f872970","ios":"levelo://app?vid=0ce11c38-1c58-4a7f-a6e5-8dce8f872970"},"vehicle_type_id":"4","last_reported":1690578333,"current_range_meters":21200,"station_id":"ce4bh2h2rcd13ifvqdh0","pricing_plan_id":"free"},{"bike_id":"4a52df8a-0e0d-462f-84ce-543dcd3f6da9","system_id":"levelo_inurba_marseille","lat":43.2942,"lon":5.38621,"is_reserved":false,"is_disabled":false,"rental_uris":{"android":"levelo://app?vid=4a52df8a-0e0d-462f-84ce-543dcd3f6da9","ios":"levelo://app?vid=4a52df8a-0e0d-462f-84ce-543dcd3f6da9"},"vehicle_type_id":"4","last_reported":1690578333,"current_range_meters":22000,"station_id":"ce4bh2h2rcd13ifvqdh0","pricing_plan_id":"free"},{"bike_id":"643e5f4a-91e3-4486-9456-a7e87e70a4d7","system_id":"levelo_inurba_marseille","lat":43.29421,"lon":5.38623,"is_reserved":false,"is_disabled":false,"rental_uris":{"android":"levelo://app?vid=643e5f4a-91e3-4486-9456-a7e87e70a4d7","ios":"levelo://app?vid=643e5f4a-91e3-4486-9456-a7e87e70a4d7"},"vehicle_type_id":"4","last_reported":1690578333,"current_range_meters":15200,"station_id":"ce4bh2h2rcd13ifvqdh0","pricing_plan_id":"free"},{"bike_id":"ab31116c-a0c9-4d7a-83af-856a586f52f8","system_id":"levelo_inurba_marseille","lat":43.29418,"lon":5.38618,"is_reserved":false,"is_disabled":false,"rental_uris":{"android":"levelo://app?vid=ab31116c-a0c9-4d7a-83af-856a586f52f8","ios":"levelo://app?vid=ab31116c-a0c9-4d7a-83af-856a586f52f8"},"vehicle_type_id":"4","last_reported":1690578333,"current_range_meters":13200,"station_id":"ce4bh2h2rcd13ifvqdh0","pricing_plan_id":"free"},{"bike_id":"412119d4-d582-4168-a851-ab6cd1a5ce1f","system_id":"levelo_inurba_marseille","lat":43.2942,"lon":5.38622,"is_reserved":false,"is_disabled":false,"rental_uris":{"android":"levelo://app?vid=412119d4-d582-4168-a851-ab6cd1a5ce1f","ios":"levelo://app?vid=412119d4-d582-4168-a851-ab6cd1a5ce1f"},"vehicle_type_id":"4","last_reported":1690578333,"current_range_meters":2800,"station_id":"ce4bh2h2rcd13ifvqdh0","pricing_plan_id":"free"},{"bike_id":"b5583ec3-1bd1-4fa4-ae80-1677b46b961c","system_id":"levelo_inurba_marseille","lat":43.294208,"lon":5.386253,"is_reserved":false,"is_disabled":false,"rental_uris":{"android":"levelo://app?vid=b5583ec3-1bd1-4fa4-ae80-1677b46b961c","ios":"levelo://app?vid=b5583ec3-1bd1-4fa4-ae80-1677b46b961c"},"vehicle_type_id":"4","last_reported":1690578333,"current_range_meters":30400,"station_id":"ce4bh2h2rcd13ifvqdh0","pricing_plan_id":"free"},{"bike_id":"94fb4c4b-45d3-43db-ab16-0526fd076166","system_id":"levelo_inurba_marseille","lat":43.29419,"lon":5.38622,"is_reserved":false,"is_disabled":false,"rental_uris":{"android":"levelo://app?vid=94fb4c4b-45d3-43db-ab16-0526fd076166","ios":"levelo://app?vid=94fb4c4b-45d3-43db-ab16-0526fd076166"},"vehicle_type_id":"4","last_reported":1690578333,"current_range_meters":31200,"station_id":"ce4bh2h2rcd13ifvqdh0","pricing_plan_id":"free"},{"bike_id":"c7219e69-5252-4933-8005-f3d09308785c","system_id":"levelo_inurba_marseille","lat":43.29416,"lon":5.38619,"is_reserved":false,"is_disabled":false,"rental_uris":{"android":"levelo://app?vid=c7219e69-5252-4933-8005-f3d09308785c","ios":"levelo://app?vid=c7219e69-5252-4933-8005-f3d09308785c"},"vehicle_type_id":"4","last_reported":1690578333,"current_range_meters":10400,"station_id":"ce4bh2h2rcd13ifvqdh0","pricing_plan_id":"free"},{"bike_id":"42b3ab20-e90b-4fbd-87e1-8042d70a6141","system_id":"levelo_inurba_marseille","lat":43.29417,"lon":5.38623,"is_reserved":false,"is_disabled":false,"rental_uris":{"android":"levelo://app?vid=42b3ab20-e90b-4fbd-87e1-8042d70a6141","ios":"levelo://app?vid=42b3ab20-e90b-4fbd-87e1-8042d70a6141"},"vehicle_type_id":"4","last_reported":1690578333,"current_range_meters":12400,"station_id":"ce4bh2h2rcd13ifvqdh0","pricing_plan_id":"free"},{"bike_id":"cc4f369f-35e1-4c45-ae75-72a609469db1","system_id":"levelo_inurba_marseille","lat":43.29416,"lon":5.38622,"is_reserved":false,"is_disabled":false,"rental_uris":{"android":"levelo://app?vid=cc4f369f-35e1-4c45-ae75-72a609469db1","ios":"levelo://app?vid=cc4f369f-35e1-4c45-ae75-72a609469db1"},"vehicle_type_id":"4","last_reported":1690578333,"current_range_meters":16000,"station_id":"ce4bh2h2rcd13ifvqdh0","pricing_plan_id":"free"},{"bike_id":"e1fa4322-73bc-453a-a37a-fe3114b4ef4a","system_id":"levelo_inurba_marseille","lat":43.29417,"lon":5.38625,"is_reserved":false,"is_disabled":false,"rental_uris":{"android":"levelo://app?vid=e1fa4322-73bc-453a-a37a-fe3114b4ef4a","ios":"levelo://app?vid=e1fa4322-73bc-453a-a37a-fe3114b4ef4a"},"vehicle_type_id":"4","last_reported":1690578333,"current_range_meters":14000,"station_id":"ce4bh2h2rcd13ifvqdh0","pricing_plan_id":"free"},{"bike_id":"d932aa2e-b143-4887-b714-f40555c2e515","system_id":"levelo_inurba_marseille","lat":43.294147,"lon":5.386209,"is_reserved":false,"is_disabled":false,"rental_uris":{"android":"levelo://app?vid=d932aa2e-b143-4887-b714-f40555c2e515","ios":"levelo://app?vid=d932aa2e-b143-4887-b714-f40555c2e515"},"vehicle_type_id":"4","last_reported":1690578333,"current_range_meters":10800,"station_id":"ce4bh2h2rcd13ifvqdh0","pricing_plan_id":"free"},{"bike_id":"b14ff2f4-5f78-44e7-942d-0cd14376edff","system_id":"levelo_inurba_marseille","lat":43.289184,"lon":5.366408,"is_reserved":false,"is_disabled":false,"rental_uris":{"android":"levelo://app?vid=b14ff2f4-5f78-44e7-942d-0cd14376edff","ios":"levelo://app?vid=b14ff2f4-5f78-44e7-942d-0cd14376edff"},"vehicle_type_id":"4","last_reported":1690578333,"current_range_meters":12400,"station_id":"ce4bhap2rcd13ifvqek0","pricing_plan_id":"free"},{"bike_id":"13c7325a-fc94-4f02-9851-1a497467b488","system_id":"levelo_inurba_marseille","lat":43.29416,"lon":5.38624,"is_reserved":false,"is_disabled":false,"rental_uris":{"android":"levelo://app?vid=13c7325a-fc94-4f02-9851-1a497467b488","ios":"levelo://app?vid=13c7325a-fc94-4f02-9851-1a497467b488"},"vehicle_type_id":"4","last_reported":1690578333,"current_range_meters":26000,"station_id":"ce4bh2h2rcd13ifvqdh0","pricing_plan_id":"free"},{"bike_id":"b8f9d19c-dee0-441b-8fde-b91d2cda24af","system_id":"levelo_inurba_marseille","lat":43.29417,"lon":5.38626,"is_reserved":false,"is_disabled":false,"rental_uris":{"android":"levelo://app?vid=b8f9d19c-dee0-441b-8fde-b91d2cda24af","ios":"levelo://app?vid=b8f9d19c-dee0-441b-8fde-b91d2cda24af"},"vehicle_type_id":"4","last_reported":1690578333,"current_range_meters":400,"station_id":"ce4bh2h2rcd13ifvqdh0","pricing_plan_id":"free"},{"bike_id":"a5c094f2-0048-47d4-9483-a4a217a39616","system_id":"levelo_inurba_marseille","lat":43.29419,"lon":5.3863,"is_reserved":false,"is_disabled":false,"rental_uris":{"android":"levelo://app?vid=a5c094f2-0048-47d4-9483-a4a217a39616","ios":"levelo://app?vid=a5c094f2-0048-47d4-9483-a4a217a39616"},"vehicle_type_id":"4","last_reported":1690578333,"current_range_meters":12000,"station_id":"ce4bh2h2rcd13ifvqdh0","pricing_plan_id":"free"},{"bike_id":"8d6dba6e-659c-4867-9d51-586f2f1ef766","system_id":"levelo_inurba_marseille","lat":43.29418,"lon":5.38631,"is_reserved":false,"is_disabled":false,"rental_uris":{"android":"levelo://app?vid=8d6dba6e-659c-4867-9d51-586f2f1ef766","ios":"levelo://app?vid=8d6dba6e-659c-4867-9d51-586f2f1ef766"},"vehicle_type_id":"4","last_reported":1690578333,"current_range_meters":13600,"station_id":"ce4bh2h2rcd13ifvqdh0","pricing_plan_id":"free"},{"bike_id":"a7796d5b-b7ab-4bc0-afb8-1b449807b766","system_id":"levelo_inurba_marseille","lat":43.294164,"lon":5.386285,"is_reserved":false,"is_disabled":false,"rental_uris":{"android":"levelo://app?vid=a7796d5b-b7ab-4bc0-afb8-1b449807b766","ios":"levelo://app?vid=a7796d5b-b7ab-4bc0-afb8-1b449807b766"},"vehicle_type_id":"4","last_reported":1690578333,"current_range_meters":31200,"station_id":"ce4bh2h2rcd13ifvqdh0","pricing_plan_id":"free"},{"bike_id":"ab28c488-1d57-4c33-aad1-f89482cfb3f3","system_id":"levelo_inurba_marseille","lat":43.2942,"lon":5.38636,"is_reserved":false,"is_disabled":false,"rental_uris":{"android":"levelo://app?vid=ab28c488-1d57-4c33-aad1-f89482cfb3f3","ios":"levelo://app?vid=ab28c488-1d57-4c33-aad1-f89482cfb3f3"},"vehicle_type_id":"4","last_reported":1690578333,"current_range_meters":16400,"station_id":"ce4bh2h2rcd13ifvqdh0","pricing_plan_id":"free"},{"bike_id":"3760bf1b-2a6c-41a6-8796-5b538fa32737","system_id":"levelo_inurba_marseille","lat":43.29414,"lon":5.38629,"is_reserved":false,"is_disabled":false,"rental_uris":{"android":"levelo://app?vid=3760bf1b-2a6c-41a6-8796-5b538fa32737","ios":"levelo://app?vid=3760bf1b-2a6c-41a6-8796-5b538fa32737"},"vehicle_type_id":"4","last_reported":1690578333,"current_range_meters":1600,"station_id":"ce4bh2h2rcd13ifvqdh0","pricing_plan_id":"free"},{"bike_id":"e5294a7a-bbe6-4c46-b0f4-414e085a93a1","system_id":"levelo_inurba_marseille","lat":43.29414,"lon":5.3863,"is_reserved":false,"is_disabled":false,"rental_uris":{"android":"levelo://app?vid=e5294a7a-bbe6-4c46-b0f4-414e085a93a1","ios":"levelo://app?vid=e5294a7a-bbe6-4c46-b0f4-414e085a93a1"},"vehicle_type_id":"4","last_reported":1690578333,"current_range_meters":31200,"station_id":"ce4bh2h2rcd13ifvqdh0","pricing_plan_id":"free"},{"bike_id":"582e13de-6d69-42c1-b74f-40fdf82609e7","system_id":"levelo_inurba_marseille","lat":43.29417,"lon":5.38636,"is_reserved":false,"is_disabled":false,"rental_uris":{"android":"levelo://app?vid=582e13de-6d69-42c1-b74f-40fdf82609e7","ios":"levelo://app?vid=582e13de-6d69-42c1-b74f-40fdf82609e7"},"vehicle_type_id":"4","last_reported":1690578333,"current_range_meters":24400,"station_id":"ce4bh2h2rcd13ifvqdh0","pricing_plan_id":"free"},{"bike_id":"f3f00ae3-498e-472b-8722-349921f34e7b","system_id":"levelo_inurba_marseille","lat":43.29415,"lon":5.38634,"is_reserved":false,"is_disabled":false,"rental_uris":{"android":"levelo://app?vid=f3f00ae3-498e-472b-8722-349921f34e7b","ios":"levelo://app?vid=f3f00ae3-498e-472b-8722-349921f34e7b"},"vehicle_type_id":"4","last_reported":1690578333,"current_range_meters":31200,"station_id":"ce4bh2h2rcd13ifvqdh0","pricing_plan_id":"free"},{"bike_id":"a413a036-60c9-4cb9-9ba5-470ea3eca817","system_id":"levelo_inurba_marseille","lat":43.2941,"lon":5.38625,"is_reserved":false,"is_disabled":false,"rental_uris":{"android":"levelo://app?vid=a413a036-60c9-4cb9-9ba5-470ea3eca817","ios":"levelo://app?vid=a413a036-60c9-4cb9-9ba5-470ea3eca817"},