{"last_updated":1684591581,"ttl":30,"version":"2.2","data":{"bikes":[{"bike_id":"a1c981e9-b61a-4f92-9da3-bc88edc1cf4a","system_id":"levelo_inurba_marseille","lat":43.31341,"lon":5.367098,"is_reserved":false,"is_disabled":false,"rental_uris":{"android":"levelo://app?vid=a1c981e9-b61a-4f92-9da3-bc88edc1cf4a","ios":"levelo://app?vid=a1c981e9-b61a-4f92-9da3-bc88edc1cf4a"},"vehicle_type_id":"4","last_reported":1684591581,"current_range_meters":25200,"station_id":"ce4bgr92rcd13ifvqc6g","pricing_plan_id":"free"},{"bike_id":"7bdf4c5f-5855-4aae-93f1-1f2abb30b761","system_id":"levelo_inurba_marseille","lat":43.31341,"lon":5.367098,"is_reserved":false,"is_disabled":false,"rental_uris":{"android":"levelo://app?vid=7bdf4c5f-5855-4aae-93f1-1f2abb30b761","ios":"levelo://app?vid=7bdf4c5f-5855-4aae-93f1-1f2abb30b761"},"vehicle_type_id":"4","last_reported":1684591581,"current_range_meters":31200,"station_id":"ce4bgr92rcd13ifvqc6g","pricing_plan_id":"free"},{"bike_id":"32b74d7b-e2eb-4609-add9-6dc4e28a0ff3","system_id":"levelo_inurba_marseille","lat":43.313391,"lon":5.36706,"is_reserved":false,"is_disabled":false,"rental_uris":{"android":"levelo://app?vid=32b74d7b-e2eb-4609-add9-6dc4e28a0ff3","ios":"levelo://app?vid=32b74d7b-e2eb-4609-add9-6dc4e28a0ff3"},"vehicle_type_id":"4","last_reported":1684591581,"current_range_meters":27200,"station_id":"ce4bgr92rcd13ifvqc6g","pricing_plan_id":"free"},{"bike_id":"31a6a8f8-35fd-49f7-9a38-8e1123c1c126","system_id":"levelo_inurba_marseille","lat":43.31341,"lon":5.367098,"is_reserved":false,"is_disabled":false,"rental_uris":{"android":"levelo://app?vid=31a6a8f8-35fd-49f7-9a38-8e1123c1c126","ios":"levelo://app?vid=31a6a8f8-35fd-49f7-9a38-8e1123c1c126"},"vehicle_type_id":"4","last_reported":1684591581,"current_range_meters":27600,"station_id":"ce4bgr92rcd13ifvqc6g","pricing_plan_id":"free"},{"bike_id":"423051dc-23e3-41ae-a453-4e9c309d34ab","system_id":"levelo_inurba_marseille","lat":43.31341,"lon":5.367098,"is_reserved":false,"is_disabled":false,"rental_uris":{"android":"levelo://app?vid=423051dc-23e3-41ae-a453-4e9c309d34ab","ios":"levelo://app?vid=423051dc-23e3-41ae-a453-4e9c309d34ab"},"vehicle_type_id":"4","last_reported":1684591581,"current_range_meters":29600,"station_id":"ce4bgr92rcd13ifvqc6g","pricing_plan_id":"free"},{"bike_id":"c11e8c0d-8f2e-4468-9d4a-529348fce7ac","system_id":"levelo_inurba_marseille","lat":43.31341,"lon":5.367098,"is_reserved":false,"is_disabled":false,"rental_uris":{"android":"levelo://app?vid=c11e8c0d-8f2e-4468-9d4a-529348fce7ac","ios":"levelo://app?vid=c11e8c0d-8f2e-4468-9d4a-529348fce7ac"},"vehicle_type_id":"4","last_reported":1684591581,"current_range_meters":29200,"station_id":"ce4bgr92rcd13ifvqc6g","pricing_plan_id":"free"},{"bike_id":"20fde61d-aed5-41e0-9434-8916e3d5604c","system_id":"levelo_inurba_marseille","lat":43.312239,"lon":5.368562,"is_reserved":false,"is_disabled":false,"rental_uris":{"android":"levelo://app?vid=20fde61d-aed5-41e0-9434-8916e3d5604c","ios":"levelo://app?vid=20fde61d-aed5-41e0-9434-8916e3d5604c"},"vehicle_type_id":"4","last_reported":1684591581,"current_range_meters":31200,"station_id":"ce4bgl92rcd13ifvqbq0","pricing_plan_id":"free"},{"bike_id":"bd3fba54-2a2a-4476-867f-d6a483911997","system_id":"levelo_inurba_marseille","lat":43.312239,"lon":5.368562,"is_reserved":false,"is_disabled":false,"rental_uris":{"android":"levelo://app?vid=bd3fba54-2a2a-4476-867f-d6a483911997","ios":"levelo://app?vid=bd3fba54-2a2a-4476-867f-d6a483911997"},"vehicle_type_id":"4","last_reported":1684591581,"current_range_meters":25600,"station_id":"ce4bgl92rcd13ifvqbq0","pricing_plan_id":"free"},{"bike_id":"79dc37ee-0d88-4a2b-81de-8f86b0985009","system_id":"levelo_inurba_marseille","lat":43.312239,"lon":5.368562,"is_reserved":false,"is_disabled":false,"rental_uris":{"android":"levelo://app?vid=79dc37ee-0d88-4a2b-81de-8f86b0985009","ios":"levelo://app?vid=79dc37ee-0d88-4a2b-81de-8f86b0985009"},"vehicle_type_id":"4","last_reported":1684591581,"current_range_meters":30800,"station_id":"ce4bgl92rcd13ifvqbq0","pricing_plan_id":"free"},{"bike_id":"ea1d2553-0976-465d-bf46-8c955c5ca023","system_id":"levelo_inurba_marseille","lat":43.312239,"lon":5.368562,"is_reserved":false,"is_disabled":false,"rental_uris":{"android":"levelo://app?vid=ea1d2553-0976-465d-bf46-8c955c5ca023","ios":"levelo://app?vid=ea1d2553-0976-465d-bf46-8c955c5ca023"},"vehicle_type_id":"4","last_reported":1684591581,"current_range_meters":17200,"station_id":"ce4bgl92rcd13ifvqbq0","pricing_plan_id":"free"},{"bike_id":"84ed3bdc-9f1c-4f57-b605-1024ebc41cdd","system_id":"levelo_inurba_marseille","lat":43.309076,"lon":5.368465,"is_reserved":false,"is_disabled":false,"rental_uris":{"android":"levelo://app?vid=84ed3bdc-9f1c-4f57-b605-1024ebc41cdd","ios":"levelo://app?vid=84ed3bdc-9f1c-4f57-b605-1024ebc41cdd"},"vehicle_type_id":"4","last_reported":1684591581,"current_range_meters":800,"station_id":"ce4bgn92rcd13ifvqbvg","pricing_plan_id":"free"},{"bike_id":"299ed06d-6905-4456-9dcd-f5b7994d2bf4","system_id":"levelo_inurba_marseille","lat":43.309076,"lon":5.368465,"is_reserved":false,"is_disabled":false,"rental_uris":{"android":"levelo://app?vid=299ed06d-6905-4456-9dcd-f5b7994d2bf4","ios":"levelo://app?vid=299ed06d-6905-4456-9dcd-f5b7994d2bf4"},"vehicle_type_id":"4","last_reported":1684591581,"current_range_meters":31200,"station_id":"ce4bgn92rcd13ifvqbvg","pricing_plan_id":"free"},{"bike_id":"686f6868-6048-4068-a64e-9bfcece3c84d","system_id":"levelo_inurba_marseille","lat":43.309076,"lon":5.368465,"is_reserved":false,"is_disabled":false,"rental_uris":{"android":"levelo://app?vid=686f6868-6048-4068-a64e-9bfcece3c84d","ios":"levelo://app?vid=686f6868-6048-4068-a64e-9bfcece3c84d"},"vehicle_type_id":"4","last_reported":1684591581,"current_range_meters":31200,"station_id":"ce4bgn92rcd13ifvqbvg","pricing_plan_id":"free"},{"bike_id":"a1e027ab-53cb-46c9-8aeb-56818a5c110b","system_id":"levelo_inurba_marseille","lat":43.309076,"lon":5.368465,"is_reserved":false,"is_disabled":false,"rental_uris":{"android":"levelo://app?vid=a1e027ab-53cb-46c9-8aeb-56818a5c110b","ios":"levelo://app?vid=a1e027ab-53cb-46c9-8aeb-56818a5c110b"},"vehicle_type_id":"4","last_reported":1684591581,"current_range_meters":16400,"station_id":"ce4bgn92rcd13ifvqbvg","pricing_plan_id":"free"},{"bike_id":"e91937b0-da17-46d0-ba39-a4caf0133c9c","system_id":"levelo_inurba_marseille","lat":43.309076,"lon":5.368465,"is_reserved":false,"is_disabled":false,"rental_uris":{"android":"levelo://app?vid=e91937b0-da17-46d0-ba39-a4caf0133c9c","ios":"levelo://app?vid=e91937b0-da17-46d0-ba39-a4caf0133c9c"},"vehicle_type_id":"4","last_reported":1684591581,"current_range_meters":29600,"station_id":"ce4bgn92rcd13ifvqbvg","pricing_plan_id":"free"},{"bike_id":"66bc97f1-3598-4445-9700-df7963716707","system_id":"levelo_inurba_marseille","lat":43.309076,"lon":5.368465,"is_reserved":false,"is_disabled":false,"rental_uris":{"android":"levelo://app?vid=66bc97f1-3598-4445-9700-df7963716707","ios":"levelo://app?vid=66bc97f1-3598-4445-9700-df7963716707"},"vehicle_type_id":"4","last_reported":1684591581,"current_range_meters":22400,"station_id":"ce4bgn92rcd13ifvqbvg","pricing_plan_id":"free"},{"bike_id":"da1ad83a-a696-4191-a6b4-71814f1ff6c6","system_id":"levelo_inurba_marseille","lat":43.309076,"lon":5.368465,"is_reserved":false,"is_disabled":false,"rental_uris":{"android":"levelo://app?vid=da1ad83a-a696-4191-a6b4-71814f1ff6c6","ios":"levelo://app?vid=da1ad83a-a696-4191-a6b4-71814f1ff6c6"},"vehicle_type_id":"4","last_reported":1684591581,"current_range_meters":29600,"station_id":"ce4bgn92rcd13ifvqbvg","pricing_plan_id":"free"},{"bike_id":"6eea5187-a1eb-4c6f-97e3-c1edbec314ea","system_id":"levelo_inurba_marseille","lat":43.309076,"lon":5.368465,"is_reserved":false,"is_disabled":false,"rental_uris":{"android":"levelo://app?vid=6eea5187-a1eb-4c6f-97e3-c1edbec314ea","ios":"levelo://app?vid=6eea5187-a1eb-4c6f-97e3-c1edbec314ea"},"vehicle_type_id":"4","last_reported":1684591581,"current_range_meters":26000,"station_id":"ce4bgn92rcd13ifvqbvg","pricing_plan_id":"free"},{"bike_id":"216d5b2c-006a-476d-b0b4-4dee0ac788c7","system_id":"levelo_inurba_marseille","lat":43.314811,"lon":5.373103,"is_reserved":false,"is_disabled":false,"rental_uris":{"android":"levelo://app?vid=216d5b2c-006a-476d-b0b4-4dee0ac788c7","ios":"levelo://app?vid=216d5b2c-006a-476d-b0b4-4dee0ac788c7"},"vehicle_type_id":"4","last_reported":1684591581,"current_range_meters":31200,"station_id":"ce4bgt12rcd13ifvqcd0","pricing_plan_id":"free"},{"bike_id":"d734d8f3-6c46-49d1-9671-0ad92bcd2953","system_id":"levelo_inurba_marseille","lat":43.314811,"lon":5.373103,"is_reserved":false,"is_disabled":false,"rental_uris":{"android":"levelo://app?vid=d734d8f3-6c46-49d1-9671-0ad92bcd2953","ios":"levelo://app?vid=d734d8f3-6c46-49d1-9671-0ad92bcd2953"},"vehicle_type_id":"4","last_reported":1684591581,"current_range_meters":31200,"station_id":"ce4bgt12rcd13ifvqcd0","pricing_plan_id":"free"},{"bike_id":"46a958db-deea-4536-9495-95f4bcdc056c","system_id":"levelo_inurba_marseille","lat":43.314811,"lon":5.373103,"is_reserved":false,"is_disabled":false,"rental_uris":{"android":"levelo://app?vid=46a958db-deea-4536-9495-95f4bcdc056c","ios":"levelo://app?vid=46a958db-deea-4536-9495-95f4bcdc056c"},"vehicle_type_id":"4","last_reported":1684591581,"current_range_meters":31200,"station_id":"ce4bgt12rcd13ifvqcd0","pricing_plan_id":"free"},{"bike_id":"3a096f4f-a78e-4234-8176-ea786084ef57","system_id":"levelo_inurba_marseille","lat":43.314811,"lon":5.373103,"is_reserved":false,"is_disabled":false,"rental_uris":{"android":"levelo://app?vid=3a096f4f-a78e-4234-8176-ea786084ef57","ios":"levelo://app?vid=3a096f4f-a78e-4234-8176-ea786084ef57"},"vehicle_type_id":"4","last_reported":1684591581,"current_range_meters":12400,"station_id":"ce4bgt12rcd13ifvqcd0","pricing_plan_id":"free"},{"bike_id":"76c859a9-43fe-4dfd-b4c0-cb5d7c555379","system_id":"levelo_inurba_marseille","lat":43.314811,"lon":5.373103,"is_reserved":false,"is_disabled":false,"rental_uris":{"android":"levelo://app?vid=76c859a9-43fe-4dfd-b4c0-cb5d7c555379","ios":"levelo://app?vid=76c859a9-43fe-4dfd-b4c0-cb5d7c555379"},"vehicle_type_id":"4","last_reported":1684591581,"current_range_meters":31600,"station_id":"ce4bgt12rcd13ifvqcd0","pricing_plan_id":"free"},{"bike_id":"a859eca8-c92d-499c-b94d-3fa3b6fe3d94","system_id":"levelo_inurba_marseille","lat":43.314811,"lon":5.373104,"is_reserved":false,"is_disabled":false,"rental_uris":{"android":"levelo://app?vid=a859eca8-c92d-499c-b94d-3fa3b6fe3d94","ios":"levelo://app?vid=a859eca8-c92d-499c-b94d-3fa3b6fe3d94"},"vehicle_type_id":"4","last_reported":1684591581,"current_range_meters":30800,"station_id":"ce4bgt12rcd13ifvqcd0","pricing_plan_id":"free"},{"bike_id":"9d24faaf-5c29-4e94-896c-1ae6942c7ab3","system_id":"levelo_inurba_marseille","lat":43.314811,"lon":5.373103,"is_reserved":false,"is_disabled":false,"rental_uris":{"android":"levelo://app?vid=9d24faaf-5c29-4e94-896c-1ae6942c7ab3","ios":"levelo://app?vid=9d24faaf-5c29-4e94-896c-1ae6942c7ab3"},"vehicle_type_id":"4","last_reported":1684591581,"current_range_meters":30000,"station_id":"ce4bgt12rcd13ifvqcd0","pricing_plan_id":"free"},{"bike_id":"3436ccba-2f1a-4549-bfba-555a9e7e3350","system_id":"levelo_inurba_marseille","lat":43.314811,"lon":5.373103,"is_reserved":false,"is_disabled":false,"rental_uris":{"android":"levelo://app?vid=3436ccba-2f1a-4549-bfba-555a9e7e3350","ios":"levelo://app?vid=3436ccba-2f1a-4549-bfba-555a9e7e3350"},"vehicle_type_id":"4","last_reported":1684591581,"current_range_meters":31200,"station_id":"ce4bgt12rcd13ifvqcd0","pricing_plan_id":"free"},{"bike_id":"9fb31f67-25a5-4ed0-a561-b971e76c31f6","system_id":"levelo_inurba_marseille","lat":43.314811,"lon":5.373103,"is_reserved":false,"is_disabled":false,"rental_uris":{"android":"levelo://app?vid=9fb31f67-25a5-4ed0-a561-b971e76c31f6","ios":"levelo://app?vid=9fb31f67-25a5-4ed0-a561-b971e76c31f6"},"vehicle_type_id":"4","last_reported":1684591581,"current_range_meters":20000,"station_id":"ce4bgt12rcd13ifvqcd0","pricing_plan_id":"free"},{"bike_id":"f1430af0-7f1d-41ac-a330-5ec023bd4fa5","system_id":"levelo_inurba_marseille","lat":43.314811,"lon":5.373103,"is_reserved":false,"is_disabled":false,"rental_uris":{"android":"levelo://app?vid=f1430af0-7f1d-41ac-a330-5ec023bd4fa5","ios":"levelo://app?vid=f1430af0-7f1d-41ac-a330-5ec023bd4fa5"},"vehicle_type_id":"4","last_reported":1684591581,"current_range_meters":12800,"station_id":"ce4bgt12rcd13ifvqcd0","pricing_plan_id":"free"},{"bike_id":"306387f1-7539-458d-9c7c-1d3f902480fc","system_id":"levelo_inurba_marseille","lat":43.314811,"lon":5.373103,"is_reserved":false,"is_disabled":false,"rental_uris":{"android":"levelo://app?vid=306387f1-7539-458d-9c7c-1d3f902480fc","ios":"levelo://app?vid=306387f1-7539-458d-9c7c-1d3f902480fc"},"vehicle_type_id":"4","last_reported":1684591581,"current_range_meters":19600,"station_id":"ce4bgt12rcd13ifvqcd0","pricing_plan_id":"free"},{"bike_id":"a34c9449-b94d-49b1-b470-4c2f93a03c7c","system_id":"levelo_inurba_marseille","lat":43.314811,"lon":5.373103,"is_reserved":false,"is_disabled":false,"rental_uris":{"android":"levelo://app?vid=a34c9449-b94d-49b1-b470-4c2f93a03c7c","ios":"levelo://app?vid=a34c9449-b94d-49b1-b470-4c2f93a03c7c"},"vehicle_type_id":"4","last_reported":1684591581,"current_range_meters":18400,"station_id":"ce4bgt12rcd13ifvqcd0","pricing_plan_id":"free"},{"bike_id":"6ca69b6f-42e7-45a5-a4a3-1d63b3381e4b","system_id":"levelo_inurba_marseille","lat":43.314811,"lon":5.373104,"is_reserved":false,"is_disabled":false,"rental_uris":{"android":"levelo://app?vid=6ca69b6f-42e7-45a5-a4a3-1d63b3381e4b","ios":"levelo://app?vid=6ca69b6f-42e7-45a5-a4a3-1d63b3381e4b"},"vehicle_type_id":"4","last_reported":1684591581,"current_range_meters":31200,"station_id":"ce4bgt12rcd13ifvqcd0","pricing_plan_id":"free"},{"bike_id":"9e5270e1-1231-48b4-9adc-97950d9aaf18","system_id":"levelo_inurba_marseille","lat":43.314811,"lon":5.373104,"is_reserved":false,"is_disabled":false,"rental_uris":{"android":"levelo://app?vid=9e5270e1-1231-48b4-9adc-97950d9aaf18","ios":"levelo://app?vid=9e5270e1-1231-48b4-9adc-97950d9aaf18"},"vehicle_type_id":"4","last_reported":1684591581,"current_range_meters":25600,"station_id":"ce4bgt12rcd13ifvqcd0","pricing_plan_id":"free"},{"bike_id":"26dde999-2413-42c5-b350-05f44cfcdbde","system_id":"levelo_inurba_marseille","lat":43.308614,"lon":5.372098,"is_reserved":false,"is_disabled":false,"rental_uris":{"android":"levelo://app?vid=26dde999-2413-42c5-b350-05f44cfcdbde","ios":"levelo://app?vid=26dde999-2413-42c5-b350-05f44cfcdbde"},"vehicle_type_id":"4","last_reported":1684591581,"current_range_meters":15600,"station_id":"ce4bguh2rcd13ifvqckg","pricing_plan_id":"free"},{"bike_id":"e8613228-ac2e-4ab8-bd07-4ab97d8f150d","system_id":"levelo_inurba_marseille","lat":43.308614,"lon":5.372098,"is_reserved":false,"is_disabled":false,"rental_uris":{"android":"levelo://app?vid=e8613228-ac2e-4ab8-bd07-4ab97d8f150d","ios":"levelo://app?vid=e8613228-ac2e-4ab8-bd07-4ab97d8f150d"},"vehicle_type_id":"4","last_reported":1684591581,"current_range_meters":16800,"station_id":"ce4bguh2rcd13ifvqckg","pricing_plan_id":"free"},{"bike_id":"acc655be-1ac8-44c3-bfe5-4d7c50c74af0","system_id":"levelo_inurba_marseille","lat":43.3054,"lon":5.36699,"is_reserved":false,"is_disabled":false,"rental_uris":{"android":"levelo://app?vid=acc655be-1ac8-44c3-bfe5-4d7c50c74af0","ios":"levelo://app?vid=acc655be-1ac8-44c3-bfe5-4d7c50c74af0"},"vehicle_type_id":"4","last_reported":1684591581,"current_range_meters":10000,"station_id":"ce4bgrp2rcd13ifvqc9g","pricing_plan_id":"free"},{"bike_id":"d65ab594-c925-4e27-a425-f9e57c7ba990","system_id":"levelo_inurba_marseille","lat":43.305368,"lon":5.367343,"is_reserved":false,"is_disabled":false,"rental_uris":{"android":"levelo://app?vid=d65ab594-c925-4e27-a425-f9e57c7ba990","ios":"levelo://app?vid=d65ab594-c925-4e27-a425-f9e57c7ba990"},"vehicle_type_id":"4","last_reported":1684591581,"current_range_meters":25200,"station_id":"ce4bgrp2rcd13ifvqc9g","pricing_plan_id":"free"},{"bike_id":"9403a7a0-5d8b-43d8-a916-4fdbfa9f2384","system_id":"levelo_inurba_marseille","lat":43.305368,"lon":5.367343,"is_reserved":false,"is_disabled":false,"rental_uris":{"android":"levelo://app?vid=9403a7a0-5d8b-43d8-a916-4fdbfa9f2384","ios":"levelo://app?vid=9403a7a0-5d8b-43d8-a916-4fdbfa9f2384"},"vehicle_type_id":"4","last_reported":1684591581,"current_range_meters":22800,"station_id":"ce4bgrp2rcd13ifvqc9g","pricing_plan_id":"free"},{"bike_id":"8aa2591e-2094-4d0f-96f0-ad11845aac4b","system_id":"levelo_inurba_marseille","lat":43.305368,"lon":5.367343,"is_reserved":false,"is_disabled":false,"rental_uris":{"android":"levelo://app?vid=8aa2591e-2094-4d0f-96f0-ad11845aac4b","ios":"levelo://app?vid=8aa2591e-2094-4d0f-96f0-ad11845aac4b"},"vehicle_type_id":"4","last_reported":1684591581,"current_range_meters":26000,"station_id":"ce4bgrp2rcd13ifvqc9g","pricing_plan_id":"free"},{"bike_id":"cb03a287-6c34-4e54-984d-4269d25ea655","system_id":"levelo_inurba_marseille","lat":43.305706,"lon":5.365654,"is_reserved":false,"is_disabled":false,"rental_uris":{"android":"levelo://app?vid=cb03a287-6c34-4e54-984d-4269d25ea655","ios":"levelo://app?vid=cb03a287-6c34-4e54-984d-4269d25ea655"},"vehicle_type_id":"4","last_reported":1684591581,"current_range_meters":6000,"station_id":"ce4bgs12rcd13ifvqcag","pricing_plan_id":"free"},{"bike_id":"c0708159-0da0-46fe-85ea-55ceb1fb1dfb","system_id":"levelo_inurba_marseille","lat":43.305989,"lon":5.37225,"is_reserved":false,"is_disabled":false,"rental_uris":{"android":"levelo://app?vid=c0708159-0da0-46fe-85ea-55ceb1fb1dfb","ios":"levelo://app?vid=c0708159-0da0-46fe-85ea-55ceb1fb1dfb"},"vehicle_type_id":"4","last_reported":1684591581,"current_range_meters":26800,"station_id":"ce4bgqh2rcd13ifvqc4g","pricing_plan_id":"free"},{"bike_id":"e58fedb9-a57d-4be1-8ab0-757e8b5b800f","system_id":"levelo_inurba_marseille","lat":43.31709,"lon":5.37653,"is_reserved":false,"is_disabled":false,"rental_uris":{"android":"levelo://app?vid=e58fedb9-a57d-4be1-8ab0-757e8b5b800f","ios":"levelo://app?vid=e58fedb9-a57d-4be1-8ab0-757e8b5b800f"},"vehicle_type_id":"4","last_reported":1684591581,"current_range_meters":4400,"station_id":"","pricing_plan_id":"free"},{"bike_id":"3fdf3590-377d-4457-aec6-c56425f43c68","system_id":"levelo_inurba_marseille","lat":43.31721,"lon":5.37661,"is_reserved":false,"is_disabled":false,"rental_uris":{"android":"levelo://app?vid=3fdf3590-377d-4457-aec6-c56425f43c68","ios":"levelo://app?vid=3fdf3590-377d-4457-aec6-c56425f43c68"},"vehicle_type_id":"4","last_reported":1684591581,"current_range_meters":400,"station_id":"","pricing_plan_id":"free"},{"bike_id":"c27523af-0050-40ba-86ce-6f147ab29d86","system_id":"levelo_inurba_marseille","lat":43.317075,"lon":5.377367,"is_reserved":false,"is_disabled":false,"rental_uris":{"android":"levelo://app?vid=c27523af-0050-40ba-86ce-6f147ab29d86","ios":"levelo://app?vid=c27523af-0050-40ba-86ce-6f147ab29d86"},"vehicle_type_id":"4","last_reported":1684591581,"current_range_meters":13200,"station_id":"ce4bgth2rcd13ifvqch0","pricing_plan_id":"free"},{"bike_id":"9f53324e-4118-4eb1-ae1f-c18ea90a6e62","system_id":"levelo_inurba_marseille","lat":43.31716,"lon":5.37742,"is_reserved":false,"is_disabled":false,"rental_uris":{"android":"levelo://app?vid=9f53324e-4118-4eb1-ae1f-c18ea90a6e62","ios":"levelo://app?vid=9f53324e-4118-4eb1-ae1f-c18ea90a6e62"},"vehicle_type_id":"4","last_reported":1684591581,"current_range_meters":28400,"station_id":"ce4bgth2rcd13ifvqch0","pricing_plan_id":"free"},{"bike_id":"1882916f-80f8-41b8-b1de-6c334bcf1f0b","system_id":"levelo_inurba_marseille","lat":43.317075,"lon":5.377367,"is_reserved":false,"is_disabled":false,"rental_uris":{"android":"levelo://app?vid=1882916f-80f8-41b8-b1de-6c334bcf1f0b","ios":"levelo://app?vid=1882916f-80f8-41b8-b1de-6c334bcf1f0b"},"vehicle_type_id":"4","last_reported":1684591581,"current_range_meters":31200,"station_id":"ce4bgth2rcd13ifvqch0","pricing_plan_id":"free"},{"bike_id":"0078ed9e-b1d3-4be5-b1d3-1bb4b000cc58","system_id":"levelo_inurba_marseille","lat":43.303046,"lon":5.368981,"is_reserved":false,"is_disabled":false,"rental_uris":{"android":"levelo://app?vid=0078ed9e-b1d3-4be5-b1d3-1bb4b000cc58","ios":"levelo://app?vid=0078ed9e-b1d3-4be5-b1d3-1bb4b000cc58"},"vehicle_type_id":"4","last_reported":1684591581,"current_range_meters":20000,"station_id":"ce4bgqh2rcd13ifvqc5g","pricing_plan_id":"free"},{"bike_id":"752d47ae-6d5c-4077-8a80-524f92481ff9","system_id":"levelo_inurba_marseille","lat":43.30306,"lon":5.36907,"is_reserved":false,"is_disabled":false,"rental_uris":{"android":"levelo://app?vid=752d47ae-6d5c-4077-8a80-524f92481ff9","ios":"levelo://app?vid=752d47ae-6d5c-4077-8a80-524f92481ff9"},"vehicle_type_id":"4","last_reported":1684591581,"current_range_meters":26800,"station_id":"ce4bgqh2rcd13ifvqc5g","pricing_plan_id":"free"},{"bike_id":"5192cc1a-7ddf-413c-9e2e-1b16a3fad126","system_id":"levelo_inurba_marseille","lat":43.303046,"lon":5.368981,"is_reserved":false,"is_disabled":false,"rental_uris":{"android":"levelo://app?vid=5192cc1a-7ddf-413c-9e2e-1b16a3fad126","ios":"levelo://app?vid=5192cc1a-7ddf-413c-9e2e-1b16a3fad126"},"vehicle_type_id":"4","last_reported":1684591581,"current_range_meters":30000,"station_id":"ce4bgqh2rcd13ifvqc5g","pricing_plan_id":"free"},{"bike_id":"6cef0f68-c55e-4c13-ac0e-9ddb93e38dd6","system_id":"levelo_inurba_marseille","lat":43.315289,"lon":5.380349,"is_reserved":false,"is_disabled":false,"rental_uris":{"android":"levelo://app?vid=6cef0f68-c55e-4c13-ac0e-9ddb93e38dd6","ios":"levelo://app?vid=6cef0f68-c55e-4c13-ac0e-9ddb93e38dd6"},"vehicle_type_id":"4","last_reported":1684591581,"current_range_meters":20000,"station_id":"ce4bhsp2rcd13ifvqi50","pricing_plan_id":"free"},{"bike_id":"d99c0da1-bfcd-4841-9f15-53b8169a05fe","system_id":"levelo_inurba_marseille","lat":43.315289,"lon":5.380349,"is_reserved":false,"is_disabled":false,"rental_uris":{"android":"levelo://app?vid=d99c0da1-bfcd-4841-9f15-53b8169a05fe","ios":"levelo://app?vid=d99c0da1-bfcd-4841-9f15-53b8169a05fe"},"vehicle_type_id":"4","last_reported":1684591581,"current_range_meters":10000,"station_id":"ce4bhsp2rcd13ifvqi50","pricing_plan_id":"free"},{"bike_id":"ab20cd49-961a-48e1-846d-65b515192c98","system_id":"levelo_inurba_marseille","lat":43.315289,"lon":5.380349,"is_reserved":false,"is_disabled":false,"rental_uris":{"android":"levelo://app?vid=ab20cd49-961a-48e1-846d-65b515192c98","ios":"levelo://app?vid=ab20cd49-961a-48e1-846d-65b515192c98"},"vehicle_type_id":"4","last_reported":1684591581,"current_range_meters":31200,"station_id":"ce4bhsp2rcd13ifvqi50","pricing_plan_id":"free"},{"bike_id":"c0fc9ba2-97ca-44ad-94ee-801e394fc084","system_id":"levelo_inurba_marseille","lat":43.301939,"lon":5.366286,"is_reserved":false,"is_disabled":false,"rental_uris":{"android":"levelo://app?vid=c0fc9ba2-97ca-44ad-94ee-801e394fc084","ios":"levelo://app?vid=c0fc9ba2-97ca-44ad-94ee-801e394fc084"},"vehicle_type_id":"4","last_reported":1684591581,"current_range_meters":25200,"station_id":"ce4bgrh2rcd13ifvqc8g","pricing_plan_id":"free"},{"bike_id":"3e98a62f-abff-482a-8455-88ddd6d662f4","system_id":"levelo_inurba_marseille","lat":43.301939,"lon":5.366286,"is_reserved":false,"is_disabled":false,"rental_uris":{"android":"levelo://app?vid=3e98a62f-abff-482a-8455-88ddd6d662f4","ios":"levelo://app?vid=3e98a62f-abff-482a-8455-88ddd6d662f4"},"vehicle_type_id":"4","last_reported":1684591581,"current_range_meters":25200,"station_id":"ce4bgrh2rcd13ifvqc8g","pricing_plan_id":"free"},{"bike_id":"a2672a26-d667-47ea-a140-b622372e21eb","system_id":"levelo_inurba_marseille","lat":43.301939,"lon":5.366286,"is_reserved":false,"is_disabled":false,"rental_uris":{"android":"levelo://app?vid=a2672a26-d667-47ea-a140-b622372e21eb","ios":"levelo://app?vid=a2672a26-d667-47ea-a140-b622372e21eb"},"vehicle_type_id":"4","last_reported":1684591581,"current_range_meters":25200,"station_id":"ce4bgrh2rcd13ifvqc8g","pricing_plan_id":"free"},{"bike_id":"19491058-54cd-454b-b832-db6bb06afd03","system_id":"levelo_inurba_marseille","lat":43.30469,"lon":5.37904,"is_reserved":false,"is_disabled":false,"rental_uris":{"android":"levelo://app?vid=19491058-54cd-454b-b832-db6bb06afd03","ios":"levelo://app?vid=19491058-54cd-454b-b832-db6bb06afd03"},"vehicle_type_id":"4","last_reported":1684591581,"current_range_meters":31200,"station_id":"ce4bgup2rcd13ifvqcn0","pricing_plan_id":"free"},{"bike_id":"df634721-f2a3-4f9d-8197-d7da6eee01c7","system_id":"levelo_inurba_marseille","lat":43.30465,"lon":5.37904,"is_reserved":false,"is_disabled":false,"rental_uris":{"android":"levelo://app?vid=df634721-f2a3-4f9d-8197-d7da6eee01c7","ios":"levelo://app?vid=df634721-f2a3-4f9d-8197-d7da6eee01c7"},"vehicle_type_id":"4","last_reported":1684591581,"current_range_meters":27600,"station_id":"ce4bgup2rcd13ifvqcn0","pricing_plan_id":"free"},{"bike_id":"6e51f503-ac6e-432c-bd63-6498705dcf5d","system_id":"levelo_inurba_marseille","lat":43.304606,"lon":5.379026,"is_reserved":false,"is_disabled":false,"rental_uris":{"android":"levelo://app?vid=6e51f503-ac6e-432c-bd63-6498705dcf5d","ios":"levelo://app?vid=6e51f503-ac6e-432c-bd63-6498705dcf5d"},"vehicle_type_id":"4","last_reported":1684591581,"current_range_meters":31200,"station_id":"ce4bgup2rcd13ifvqcn0","pricing_plan_id":"free"},{"bike_id":"e764740a-f089-4ab0-a09b-911654ea93b2","system_id":"levelo_inurba_marseille","lat":43.30463,"lon":5.37904,"is_reserved":false,"is_disabled":false,"rental_uris":{"android":"levelo://app?vid=e764740a-f089-4ab0-a09b-911654ea93b2","ios":"levelo://app?vid=e764740a-f089-4ab0-a09b-911654ea93b2"},"vehicle_type_id":"4","last_reported":1684591581,"current_range_meters":27600,"station_id":"ce4bgup2rcd13ifvqcn0","pricing_plan_id":"free"},{"bike_id":"dffcf47c-8275-40bd-95de-11ff439c8ade","system_id":"levelo_inurba_marseille","lat":43.3015,"lon":5.37407,"is_reserved":false,"is_disabled":false,"rental_uris":{"android":"levelo://app?vid=dffcf47c-8275-40bd-95de-11ff439c8ade","ios":"levelo://app?vid=dffcf47c-8275-40bd-95de-11ff439c8ade"},"vehicle_type_id":"4","last_reported":1684591581,"current_range_meters":20000,"station_id":"","pricing_plan_id":"free"},{"bike_id":"1ec14758-1fd7-4dd4-947b-8df783f13970","system_id":"levelo_inurba_marseille","lat":43.313571,"lon":5.384829,"is_reserved":false,"is_disabled":false,"rental_uris":{"android":"levelo://app?vid=1ec14758-1fd7-4dd4-947b-8df783f13970","ios":"levelo://app?vid=1ec14758-1fd7-4dd4-947b-8df783f13970"},"vehicle_type_id":"4","last_reported":1684591581,"current_range_meters":30000,"station_id":"ce4bgt92rcd13ifvqcf0","pricing_plan_id":"free"},{"bike_id":"f085e24f-df6d-4190-82c8-5a5a81653ac8","system_id":"levelo_inurba_marseille","lat":43.29945,"lon":5.36542,"is_reserved":false,"is_disabled":false,"rental_uris":{"android":"levelo://app?vid=f085e24f-df6d-4190-82c8-5a5a81653ac8","ios":"levelo://app?vid=f085e24f-df6d-4190-82c8-5a5a81653ac8"},"vehicle_type_id":"4","last_reported":1684591581,"current_range_meters":14800,"station_id":"ce4bgm92rcd13ifvqbr0","pricing_plan_id":"free"},{"bike_id":"8cbea5f7-dd48-4170-bfb8-6b7775f7369d","system_id":"levelo_inurba_marseille","lat":43.2993,"lon":5.36549,"is_reserved":false,"is_disabled":false,"rental_uris":{"android":"levelo://app?vid=8cbea5f7-dd48-4170-bfb8-6b7775f7369d","ios":"levelo://app?vid=8cbea5f7-dd48-4170-bfb8-6b7775f7369d"},"vehicle_type_id":"4","last_reported":1684591581,"current_range_meters":19600,"station_id":"ce4bgm92rcd13ifvqbr0","pricing_plan_id":"free"},{"bike_id":"80f05152-3bba-48fb-8357-a5ce030743be","system_id":"levelo_inurba_marseille","lat":43.298433,"lon":5.362774,"is_reserved":false,"is_disabled":false,"rental_uris":{"android":"levelo://app?vid=80f05152-3bba-48fb-8357-a5ce030743be","ios":"levelo://app?vid=80f05152-3bba-48fb-8357-a5ce030743be"},"vehicle_type_id":"4","last_reported":1684591581,"current_range_meters":29600,"station_id":"ce4bgpp2rcd13ifvqc3g","pricing_plan_id":"free"},{"bike_id":"aa7ff445-8562-4b4b-b18c-16a6ff539ecf","system_id":"levelo_inurba_marseille","lat":43.29852,"lon":5.36284,"is_reserved":false,"is_disabled":false,"rental_uris":{"android":"levelo://app?vid=aa7ff445-8562-4b4b-b18c-16a6ff539ecf","ios":"levelo://app?vid=aa7ff445-8562-4b4b-b18c-16a6ff539ecf"},"vehicle_type_id":"4","last_reported":1684591581,"current_range_meters":24000,"station_id":"ce4bgpp2rcd13ifvqc3g","pricing_plan_id":"free"},{"bike_id":"320ab738-dfa6-4ea6-9993-531b5553048f","system_id":"levelo_inurba_marseille","lat":43.298433,"lon":5.362774,"is_reserved":false,"is_disabled":false,"rental_uris":{"android":"levelo://app?vid=320ab738-dfa6-4ea6-9993-531b5553048f","ios":"levelo://app?vid=320ab738-dfa6-4ea6-9993-531b5553048f"},"vehicle_type_id":"4","last_reported":1684591581,"current_range_meters":32000,"station_id":"ce4bgpp2rcd13ifvqc3g","pricing_plan_id":"free"},{"bike_id":"26d77857-3c98-4927-8107-0e2c01be225c","system_id":"levelo_inurba_marseille","lat":43.298433,"lon":5.362774,"is_reserved":false,"is_disabled":false,"rental_uris":{"android":"levelo://app?vid=26d77857-3c98-4927-8107-0e2c01be225c","ios":"levelo://app?vid=26d77857-3c98-4927-8107-0e2c01be225c"},"vehicle_type_id":"4","last_reported":1684591581,"current_range_meters":16800,"station_id":"ce4bgpp2rcd13ifvqc3g","pricing_plan_id":"free"},{"bike_id":"6d1e8b38-67f0-4ea6-ad6d-a3fc170a7e9f","system_id":"levelo_inurba_marseille","lat":43.29853,"lon":5.36269,"is_reserved":false,"is_disabled":false,"rental_uris":{"android":"levelo://app?vid=6d1e8b38-67f0-4ea6-ad6d-a3fc170a7e9f","ios":"levelo://app?vid=6d1e8b38-67f0-4ea6-ad6d-a3fc170a7e9f"},"vehicle_type_id":"4","last_reported":1684591581,"current_range_meters":24800,"station_id":"ce4bgpp2rcd13ifvqc3g","pricing_plan_id":"free"},{"bike_id":"2270ac8a-49a6-49b5-9ef8-18e966394d46","system_id":"levelo_inurba_marseille","lat":43.298433,"lon":5.362774,"is_reserved":false,"is_disabled":false,"rental_uris":{"android":"levelo://app?vid=2270ac8a-49a6-49b5-9ef8-18e966394d46","ios":"levelo://app?vid=2270ac8a-49a6-49b5-9ef8-18e966394d46"},"vehicle_type_id":"4","last_reported":1684591581,"current_range_meters":4400,"station_id":"ce4bgpp2rcd13ifvqc3g","pricing_plan_id":"free"},{"bike_id":"01e96c95-256d-4b6d-bc1f-ffa12e6f4e5c","system_id":"levelo_inurba_marseille","lat":43.305364,"lon":5.384119,"is_reserved":false,"is_disabled":false,"rental_uris":{"android":"levelo://app?vid=01e96c95-256d-4b6d-bc1f-ffa12e6f4e5c","ios":"levelo://app?vid=01e96c95-256d-4b6d-bc1f-ffa12e6f4e5c"},"vehicle_type_id":"4","last_reported":1684591581,"current_range_meters":20400,"station_id":"ce4bgg92rcd13ifvqb30","pricing_plan_id":"free"},{"bike_id":"35f5a34b-c158-44b8-8293-482ab578f8cb","system_id":"levelo_inurba_marseille","lat":43.29844,"lon":5.36274,"is_reserved":false,"is_disabled":false,"rental_uris":{"android":"levelo://app?vid=35f5a34b-c158-44b8-8293-482ab578f8cb","ios":"levelo://app?vid=35f5a34b-c158-44b8-8293-482ab578f8cb"},"vehicle_type_id":"4","last_reported":1684591581,"current_range_meters":28000,"station_id":"ce4bgpp2rcd13ifvqc3g","pricing_plan_id":"free"},{"bike_id":"ed8d5811-c415-478c-b30e-895653ab7ccc","system_id":"levelo_inurba_marseille","lat":43.298433,"lon":5.362774,"is_reserved":false,"is_disabled":false,"rental_uris":{"android":"levelo://app?vid=ed8d5811-c415-478c-b30e-895653ab7ccc","ios":"levelo://app?vid=ed8d5811-c415-478c-b30e-895653ab7ccc"},"vehicle_type_id":"4","last_reported":1684591581,"current_range_meters":31200,"station_id":"ce4bgpp2rcd13ifvqc3g","pricing_plan_id":"free"},{"bike_id":"a31aff0a-c4e7-4d22-a2f7-60a11282f7ea","system_id":"levelo_inurba_marseille","lat":43.298433,"lon":5.362774,"is_reserved":false,"is_disabled":false,"rental_uris":{"android":"levelo://app?vid=a31aff0a-c4e7-4d22-a2f7-60a11282f7ea","ios":"levelo://app?vid=a31aff0a-c4e7-4d22-a2f7-60a11282f7ea"},"vehicle_type_id":"4","last_reported":1684591581,"current_range_meters":20400,"station_id":"ce4bgpp2rcd13ifvqc3g","pricing_plan_id":"free"},{"bike_id":"17758178-c0e1-4742-a332-e2df57be5107","system_id":"levelo_inurba_marseille","lat":43.29921,"lon":5.37461,"is_reserved":false,"is_disabled":false,"rental_uris":{"android":"levelo://app?vid=17758178-c0e1-4742-a332-e2df57be5107","ios":"levelo://app?vid=17758178-c0e1-4742-a332-e2df57be5107"},"vehicle_type_id":"4","last_reported":1684591581,"current_range_meters":24400,"station_id":"ce4bgjh2rcd13ifvqbg0","pricing_plan_id":"free"},{"bike_id":"50712111-04a1-497c-8d47-3898ce4a48a7","system_id":"levelo_inurba_marseille","lat":43.29842,"lon":5.36274,"is_reserved":false,"is_disabled":false,"rental_uris":{"android":"levelo://app?vid=50712111-04a1-497c-8d47-3898ce4a48a7","ios":"levelo://app?vid=50712111-04a1-497c-8d47-3898ce4a48a7"},"vehicle_type_id":"4","last_reported":1684591581,"current_range_meters":22800,"station_id":"ce4bgpp2rcd13ifvqc3g","pricing_plan_id":"free"},{"bike_id":"38bf2caf-492c-420a-8f64-c673a10130f0","system_id":"levelo_inurba_marseille","lat":43.298433,"lon":5.362774,"is_reserved":false,"is_disabled":false,"rental_uris":{"android":"levelo://app?vid=38bf2caf-492c-420a-8f64-c673a10130f0","ios":"levelo://app?vid=38bf2caf-492c-420a-8f64-c673a10130f0"},"vehicle_type_id":"4","last_reported":1684591581,"current_range_meters":31200,"station_id":"ce4bgpp2rcd13ifvqc3g","pricing_plan_id":"free"},{"bike_id":"6a37c2f6-9a0c-4fce-9917-dd86d0698391","system_id":"levelo_inurba_marseille","lat":43.298433,"lon":5.362774,"is_reserved":false,"is_disabled":false,"rental_uris":{"android":"levelo://app?vid=6a37c2f6-9a0c-4fce-9917-dd86d0698391","ios":"levelo://app?vid=6a37c2f6-9a0c-4fce-9917-dd86d0698391"},"vehicle_type_id":"4","last_reported":1684591581,"current_range_meters":31200,"station_id":"ce4bgpp2rcd13ifvqc3g","pricing_plan_id":"free"},{"bike_id":"75986c3f-c98a-45e6-b7f6-61d9a5778f8e","system_id":"levelo_inurba_marseille","lat":43.29915,"lon":5.37467,"is_reserved":false,"is_disabled":false,"rental_uris":{"android":"levelo://app?vid=75986c3f-c98a-45e6-b7f6-61d9a5778f8e","ios":"levelo://app?vid=75986c3f-c98a-45e6-b7f6-61d9a5778f8e"},"vehicle_type_id":"4","last_reported":1684591581,"current_range_meters":19200,"station_id":"ce4bgjh2rcd13ifvqbg0","pricing_plan_id":"free"},{"bike_id":"6c294f59-8e96-4711-8d8c-2e6d8d5b59d9","system_id":"levelo_inurba_marseille","lat":43.29911,"lon":5.37468,"is_reserved":false,"is_disabled":false,"rental_uris":{"android":"levelo://app?vid=6c294f59-8e96-4711-8d8c-2e6d8d5b59d9","ios":"levelo://app?vid=6c294f59-8e96-4711-8d8c-2e6d8d5b59d9"},"vehicle_type_id":"4","last_reported":1684591581,"current_range_meters":30400,"station_id":"ce4bgjh2rcd13ifvqbg0","pricing_plan_id":"free"},{"bike_id":"03f61aa8-dd38-4b6b-b039-96ac3fa905c4","system_id":"levelo_inurba_marseille","lat":43.299243,"lon":5.37481,"is_reserved":false,"is_disabled":false,"rental_uris":{"android":"levelo://app?vid=03f61aa8-dd38-4b6b-b039-96ac3fa905c4","ios":"levelo://app?vid=03f61aa8-dd38-4b6b-b039-96ac3fa905c4"},"vehicle_type_id":"4","last_reported":1684591581,"current_range_meters":24800,"station_id":"ce4bgjh2rcd13ifvqbg0","pricing_plan_id":"free"},{"bike_id":"baccddb9-da8e-42fc-958a-9e99316a1d47","system_id":"levelo_inurba_marseille","lat":43.299243,"lon":5.37481,"is_reserved":false,"is_disabled":false,"rental_uris":{"android":"levelo://app?vid=baccddb9-da8e-42fc-958a-9e99316a1d47","ios":"levelo://app?vid=baccddb9-da8e-42fc-958a-9e99316a1d47"},"vehicle_type_id":"4","last_reported":1684591581,"current_range_meters":31200,"station_id":"ce4bgjh2rcd13ifvqbg0","pricing_plan_id":"free"},{"bike_id":"71a7cd51-c98e-4b63-902f-c2f5a808a065","system_id":"levelo_inurba_marseille","lat":43.32769,"lon":5.36697,"is_reserved":false,"is_disabled":false,"rental_uris":{"android":"levelo://app?vid=71a7cd51-c98e-4b63-902f-c2f5a808a065","ios":"levelo://app?vid=71a7cd51-c98e-4b63-902f-c2f5a808a065"},"vehicle_type_id":"4","last_reported":1684591581,"current_range_meters":22400,"station_id":"","pricing_plan_id":"free"},{"bike_id":"5cf7ffc9-a389-4209-a251-5b3b341d543c","system_id":"levelo_inurba_marseille","lat":43.297794,"lon":5.370888,"is_reserved":false,"is_disabled":false,"rental_uris":{"android":"levelo://app?vid=5cf7ffc9-a389-4209-a251-5b3b341d543c","ios":"levelo://app?vid=5cf7ffc9-a389-4209-a251-5b3b341d543c"},"vehicle_type_id":"4","last_reported":1684591581,"current_range_meters":31200,"station_id":"ce4bgop2rcd13ifvqc1g","pricing_plan_id":"free"},{"bike_id":"84e15fd6-face-4f74-ae68-622a8a5b9866","system_id":"levelo_inurba_marseille","lat":43.29791,"lon":5.37098,"is_reserved":false,"is_disabled":false,"rental_uris":{"android":"levelo://app?vid=84e15fd6-face-4f74-ae68-622a8a5b9866","ios":"levelo://app?vid=84e15fd6-face-4f74-ae68-622a8a5b9866"},"vehicle_type_id":"4","last_reported":1684591581,"current_range_meters":11200,"station_id":"ce4bgop2rcd13ifvqc1g","pricing_plan_id":"free"},{"bike_id":"61a5c6cd-9ce3-4f7f-bde9-81fa0bac8326","system_id":"levelo_inurba_marseille","lat":43.2979,"lon":5.37094,"is_reserved":false,"is_disabled":false,"rental_uris":{"android":"levelo://app?vid=61a5c6cd-9ce3-4f7f-bde9-81fa0bac8326","ios":"levelo://app?vid=61a5c6cd-9ce3-4f7f-bde9-81fa0bac8326"},"vehicle_type_id":"4","last_reported":1684591581,"current_range_meters":26800,"station_id":"ce4bgop2rcd13ifvqc1g","pricing_plan_id":"free"},{"bike_id":"41a2b8f0-2bb4-48af-b01a-5624103b582f","system_id":"levelo_inurba_marseille","lat":43.29788,"lon":5.37096,"is_reserved":false,"is_disabled":false,"rental_uris":{"android":"levelo://app?vid=41a2b8f0-2bb4-48af-b01a-5624103b582f","ios":"levelo://app?vid=41a2b8f0-2bb4-48af-b01a-5624103b582f"},"vehicle_type_id":"4","last_reported":1684591581,"current_range_meters":22400,"station_id":"ce4bgop2rcd13ifvqc1g","pricing_plan_id":"free"},{"bike_id":"c93f1c63-b12b-4280-a8de-ee4084296d56","system_id":"levelo_inurba_marseille","lat":43.29786,"lon":5.37094,"is_reserved":false,"is_disabled":false,"rental_uris":{"android":"levelo://app?vid=c93f1c63-b12b-4280-a8de-ee4084296d56","ios":"levelo://app?vid=c93f1c63-b12b-4280-a8de-ee4084296d56"},"vehicle_type_id":"4","last_reported":1684591581,"current_range_meters":22000,"station_id":"ce4bgop2rcd13ifvqc1g","pricing_plan_id":"free"},{"bike_id":"3a71f41b-23a8-4407-ba65-e6ca37d7f313","system_id":"levelo_inurba_marseille","lat":43.29785,"lon":5.37095,"is_reserved":false,"is_disabled":false,"rental_uris":{"android":"levelo://app?vid=3a71f41b-23a8-4407-ba65-e6ca37d7f313","ios":"levelo://app?vid=3a71f41b-23a8-4407-ba65-e6ca37d7f313"},"vehicle_type_id":"4","last_reported":1684591581,"current_range_meters":28400,"station_id":"ce4bgop2rcd13ifvqc1g","pricing_plan_id":"free"},{"bike_id":"f3dca833-0d78-473c-8932-aba6100d2cc4","system_id":"levelo_inurba_marseille","lat":43.29784,"lon":5.37101,"is_reserved":false,"is_disabled":false,"rental_uris":{"android":"levelo://app?vid=f3dca833-0d78-473c-8932-aba6100d2cc4","ios":"levelo://app?vid=f3dca833-0d78-473c-8932-aba6100d2cc4"},"vehicle_type_id":"4","last_reported":1684591581,"current_range_meters":22800,"station_id":"ce4bgop2rcd13ifvqc1g","pricing_plan_id":"free"},{"bike_id":"b170e83f-556e-424f-a7a2-974cb62ee2e7","system_id":"levelo_inurba_marseille","lat":43.29783,"lon":5.37104,"is_reserved":false,"is_disabled":false,"rental_uris":{"android":"levelo://app?vid=b170e83f-556e-424f-a7a2-974cb62ee2e7","ios":"levelo://app?vid=b170e83f-556e-424f-a7a2-974cb62ee2e7"},"vehicle_type_id":"4","last_reported":1684591581,"current_range_meters":20400,"station_id":"ce4bgop2rcd13ifvqc1g","pricing_plan_id":"free"},{"bike_id":"5a5b6c01-5dbd-46cb-b139-b617309fc836","system_id":"levelo_inurba_marseille","lat":43.29783,"lon":5.37105,"is_reserved":false,"is_disabled":false,"rental_uris":{"android":"levelo://app?vid=5a5b6c01-5dbd-46cb-b139-b617309fc836","ios":"levelo://app?vid=5a5b6c01-5dbd-46cb-b139-b617309fc836"},"vehicle_type_id":"4","last_reported":1684591581,"current_range_meters":14800,"station_id":"ce4bgop2rcd13ifvqc1g","pricing_plan_id":"free"},{"bike_id":"f6125cd9-9865-47e7-b252-332a74b0e971","system_id":"levelo_inurba_marseille","lat":43.2978,"lon":5.37098,"is_reserved":false,"is_disabled":false,"rental_uris":{"android":"levelo://app?vid=f6125cd9-9865-47e7-b252-332a74b0e971","ios":"levelo://app?vid=f6125cd9-9865-47e7-b252-332a74b0e971"},"vehicle_type_id":"4","last_reported":1684591581,"current_range_meters":29600,"station_id":"ce4bgop2rcd13ifvqc1g","pricing_plan_id":"free"},{"bike_id":"64001894-e867-49a0-b7c1-d2b4e50b966d","system_id":"levelo_inurba_marseille","lat":43.29779,"lon":5.37101,"is_reserved":false,"is_disabled":false,"rental_uris":{"android":"levelo://app?vid=64001894-e867-49a0-b7c1-d2b4e50b966d","ios":"levelo://app?vid=64001894-e867-49a0-b7c1-d2b4e50b966d"},"vehicle_type_id":"4","last_reported":1684591581,"current_range_meters":14000,"station_id":"ce4bgop2rcd13ifvqc1g","pricing_plan_id":"free"},{"bike_id":"e7a3a56a-76f5-4073-9c29-330b5ea1259a","system_id":"levelo_inurba_marseille","lat":43.29776,"lon":5.37093,"is_reserved":false,"is_disabled":false,"rental_uris":{"android":"levelo://app?vid=e7a3a56a-76f5-4073-9c29-330b5ea1259a","ios":"levelo://app?vid=e7a3a56a-76f5-4073-9c29-330b5ea1259a"},"vehicle_type_id":"4","last_reported":1684591581,"current_range_meters":26400,"station_id":"ce4bgop2rcd13ifvqc1g","pricing_plan_id":"free"},{"bike_id":"bdb5c3dc-9c6e-4d87-9003-0a13dc97860e","system_id":"levelo_inurba_marseille","lat":43.29767,"lon":5.37101,"is_reserved":false,"is_disabled":false,"rental_uris":{"android":"levelo://app?vid=bdb5c3dc-9c6e-4d87-9003-0a13dc97860e","ios":"levelo://app?vid=bdb5c3dc-9c6e-4d87-9003-0a13dc97860e"},"vehicle_type_id":"4","last_reported":1684591581,"current_range_meters":19600,"station_id":"ce4bgop2rcd13ifvqc1g","pricing_plan_id":"free"},{"bike_id":"fccfd339-db22-4277-bdd0-196f87e474ac","system_id":"levelo_inurba_marseille","lat":43.328371,"lon":5.366909,"is_reserved":false,"is_disabled":false,"rental_uris":{"android":"levelo://app?vid=fccfd339-db22-4277-bdd0-196f87e474ac","ios":"levelo://app?vid=fccfd339-db22-4277-bdd0-196f87e474ac"},"vehicle_type_id":"4","last_reported":1684591581,"current_range_meters":23200,"station_id":"ce4bhs92rcd13ifvqi0g","pricing_plan_id":"free"},{"bike_id":"13796849-1748-4dda-9ae1-d3d533aca7c8","system_id":"levelo_inurba_marseille","lat":43.328371,"lon":5.366909,"is_reserved":false,"is_disabled":false,"rental_uris":{"android":"levelo://app?vid=13796849-1748-4dda-9ae1-d3d533aca7c8","ios":"levelo://app?vid=13796849-1748-4dda-9ae1-d3d533aca7c8"},"vehicle_type_id":"4","last_reported":1684591581,"current_range_meters":29200,"station_id":"ce4bhs92rcd13ifvqi0g","pricing_plan_id":"free"},{"bike_id":"a7fb6a73-9ebf-4b56-938e-67995ffda768","system_id":"levelo_inurba_marseille","lat":43.328371,"lon":5.366909,"is_reserved":false,"is_disabled":false,"rental_uris":{"android":"levelo://app?vid=a7fb6a73-9ebf-4b56-938e-67995ffda768","ios":"levelo://app?vid=a7fb6a73-9ebf-4b56-938e-67995ffda768"},"vehicle_type_id":"4","last_reported":1684591581,"current_range_meters":8000,"station_id":"ce4bhs92rcd13ifvqi0g","pricing_plan_id":"free"},{"bike_id":"3673c35b-391f-4003-994e-44607f503f73","system_id":"levelo_inurba_marseille","lat":43.32828,"lon":5.36687,"is_reserved":false,"is_disabled":false,"rental_uris":{"android":"levelo://app?vid=3673c35b-391f-4003-994e-44607f503f73","ios":"levelo://app?vid=3673c35b-391f-4003-994e-44607f503f73"},"vehicle_type_id":"4","last_reported":1684591581,"current_range_meters":17600,"station_id":"ce4bhs92rcd13ifvqi0g","pricing_plan_id":"free"},{"bike_id":"9d891959-73d6-4c5c-ad12-227228d64e9d","system_id":"levelo_inurba_marseille","lat":43.328371,"lon":5.366909,"is_reserved":false,"is_disabled":false,"rental_uris":{"android":"levelo://app?vid=9d891959-73d6-4c5c-ad12-227228d64e9d","ios":"levelo://app?vid=9d891959-73d6-4c5c-ad12-227228d64e9d"},"vehicle_type_id":"4","last_reported":1684591581,"current_range_meters":21200,"station_id":"ce4bhs92rcd13ifvqi0g","pricing_plan_id":"free"},{"bike_id":"ba5c8c6c-e147-43d7-893f-49a7e4be97c0","system_id":"levelo_inurba_marseille","lat":43.328371,"lon":5.366909,"is_reserved":false,"is_disabled":false,"rental_uris":{"android":"levelo://app?vid=ba5c8c6c-e147-43d7-893f-49a7e4be97c0","ios":"levelo://app?vid=ba5c8c6c-e147-43d7-893f-49a7e4be97c0"},"vehicle_type_id":"4","last_reported":1684591581,"current_range_meters":24000,"station_id":"ce4bhs92rcd13ifvqi0g","pricing_plan_id":"free"},{"bike_id":"411c53dc-8a67-493a-b123-b1e299cae53c","system_id":"levelo_inurba_marseille","lat":43.328371,"lon":5.366909,"is_reserved":false,"is_disabled":false,"rental_uris":{"android":"levelo://app?vid=411c53dc-8a67-493a-b123-b1e299cae53c","ios":"levelo://app?vid=411c53dc-8a67-493a-b123-b1e299cae53c"},"vehicle_type_id":"4","last_reported":1684591581,"current_range_meters":12400,"station_id":"ce4bhs92rcd13ifvqi0g","pricing_plan_id":"free"},{"bike_id":"bced0c1a-95c2-4986-b6d9-e055a1331248","system_id":"levelo_inurba_marseille","lat":43.328371,"lon":5.366909,"is_reserved":false,"is_disabled":false,"rental_uris":{"android":"levelo://app?vid=bced0c1a-95c2-4986-b6d9-e055a1331248","ios":"levelo://app?vid=bced0c1a-95c2-4986-b6d9-e055a1331248"},"vehicle_type_id":"4","last_reported":1684591581,"current_range_meters":5200,"station_id":"ce4bhs92rcd13ifvqi0g","pricing_plan_id":"free"},{"bike_id":"d1f64b76-cbe5-4e53-a67a-66531bad0298","system_id":"levelo_inurba_marseille","lat":43.32829,"lon":5.36683,"is_reserved":false,"is_disabled":false,"rental_uris":{"android":"levelo://app?vid=d1f64b76-cbe5-4e53-a67a-66531bad0298","ios":"levelo://app?vid=d1f64b76-cbe5-4e53-a67a-66531bad0298"},"vehicle_type_id":"4","last_reported":1684591581,"current_range_meters":19600,"station_id":"ce4bhs92rcd13ifvqi0g","pricing_plan_id":"free"},{"bike_id":"1dfa69e9-90dc-4fec-ad24-ae7ee48842e7","system_id":"levelo_inurba_marseille","lat":43.328371,"lon":5.366909,"is_reserved":false,"is_disabled":false,"rental_uris":{"android":"levelo://app?vid=1dfa69e9-90dc-4fec-ad24-ae7ee48842e7","ios":"levelo://app?vid=1dfa69e9-90dc-4fec-ad24-ae7ee48842e7"},"vehicle_type_id":"4","last_reported":1684591581,"current_range_meters":7600,"station_id":"ce4bhs92rcd13ifvqi0g","pricing_plan_id":"free"},{"bike_id":"237b88e9-7fa2-477a-9b72-3d7919f555cd","system_id":"levelo_inurba_marseille","lat":43.328371,"lon":5.366909,"is_reserved":false,"is_disabled":false,"rental_uris":{"android":"levelo://app?vid=237b88e9-7fa2-477a-9b72-3d7919f555cd","ios":"levelo://app?vid=237b88e9-7fa2-477a-9b72-3d7919f555cd"},"vehicle_type_id":"4","last_reported":1684591581,"current_range_meters":19200,"station_id":"ce4bhs92rcd13ifvqi0g","pricing_plan_id":"free"},{"bike_id":"ea717baf-6015-4faa-ba3a-a8529a7634b8","system_id":"levelo_inurba_marseille","lat":43.328371,"lon":5.366909,"is_reserved":false,"is_disabled":false,"rental_uris":{"android":"levelo://app?vid=ea717baf-6015-4faa-ba3a-a8529a7634b8","ios":"levelo://app?vid=ea717baf-6015-4faa-ba3a-a8529a7634b8"},"vehicle_type_id":"4","last_reported":1684591581,"current_range_meters":0,"station_id":"ce4bhs92rcd13ifvqi0g","pricing_plan_id":"free"},{"bike_id":"548efb9d-91f7-4f61-af0e-8e48476c6371","system_id":"levelo_inurba_marseille","lat":43.328371,"lon":5.366909,"is_reserved":false,"is_disabled":false,"rental_uris":{"android":"levelo://app?vid=548efb9d-91f7-4f61-af0e-8e48476c6371","ios":"levelo://app?vid=548efb9d-91f7-4f61-af0e-8e48476c6371"},"vehicle_type_id":"4","last_reported":1684591581,"current_range_meters":17600,"station_id":"ce4bhs92rcd13ifvqi0g","pricing_plan_id":"free"},{"bike_id":"e8063598-db3f-4fdd-9bcf-36991f1f3cee","system_id":"levelo_inurba_marseille","lat":43.328371,"lon":5.366909,"is_reserved":false,"is_disabled":false,"rental_uris":{"android":"levelo://app?vid=e8063598-db3f-4fdd-9bcf-36991f1f3cee","ios":"levelo://app?vid=e8063598-db3f-4fdd-9bcf-36991f1f3cee"},"vehicle_type_id":"4","last_reported":1684591581,"current_range_meters":16400,"station_id":"ce4bhs92rcd13ifvqi0g","pricing_plan_id":"free"},{"bike_id":"fb24a851-46e9-40c8-914f-4c0bfc6aa435","system_id":"levelo_inurba_marseille","lat":43.328371,"lon":5.366909,"is_reserved":false,"is_disabled":false,"rental_uris":{"android":"levelo://app?vid=fb24a851-46e9-40c8-914f-4c0bfc6aa435","ios":"levelo://app?vid=fb24a851-46e9-40c8-914f-4c0bfc6aa435"},"vehicle_type_id":"4","last_reported":1684591581,"current_range_meters":2400,"station_id":"ce4bhs92rcd13ifvqi0g","pricing_plan_id":"free"},{"bike_id":"319bc8f4-111f-40b7-8984-d3f0774dade7","system_id":"levelo_inurba_marseille","lat":43.328371,"lon":5.366909,"is_reserved":false,"is_disabled":false,"rental_uris":{"android":"levelo://app?vid=319bc8f4-111f-40b7-8984-d3f0774dade7","ios":"levelo://app?vid=319bc8f4-111f-40b7-8984-d3f0774dade7"},"vehicle_type_id":"4","last_reported":1684591581,"current_range_meters":15600,"station_id":"ce4bhs92rcd13ifvqi0g","pricing_plan_id":"free"},{"bike_id":"de338054-150d-4f92-8ba2-f43c70283500","system_id":"levelo_inurba_marseille","lat":43.328371,"lon":5.366909,"is_reserved":false,"is_disabled":false,"rental_uris":{"android":"levelo://app?vid=de338054-150d-4f92-8ba2-f43c70283500","ios":"levelo://app?vid=de338054-150d-4f92-8ba2-f43c70283500"},"vehicle_type_id":"4","last_reported":1684591581,"current_range_meters":20400,"station_id":"ce4bhs92rcd13ifvqi0g","pricing_plan_id":"free"},{"bike_id":"cb14320f-60cc-40fe-b80e-599c6a27bf8c","system_id":"levelo_inurba_marseille","lat":43.32834,"lon":5.3668,"is_reserved":false,"is_disabled":false,"rental_uris":{"android":"levelo://app?vid=cb14320f-60cc-40fe-b80e-599c6a27bf8c","ios":"levelo://app?vid=cb14320f-60cc-40fe-b80e-599c6a27bf8c"},"vehicle_type_id":"4","last_reported":1684591581,"current_range_meters":13200,"station_id":"ce4bhs92rcd13ifvqi0g","pricing_plan_id":"free"},{"bike_id":"86fb8896-d85e-4d67-ae3f-0892babd7ce2","system_id":"levelo_inurba_marseille","lat":43.328371,"lon":5.366912,"is_reserved":false,"is_disabled":false,"rental_uris":{"android":"levelo://app?vid=86fb8896-d85e-4d67-ae3f-0892babd7ce2","ios":"levelo://app?vid=86fb8896-d85e-4d67-ae3f-0892babd7ce2"},"vehicle_type_id":"4","last_reported":1684591581,"current_range_meters":24400,"station_id":"ce4bhs92rcd13ifvqi0g","pricing_plan_id":"free"},{"bike_id":"5cd7b71f-c4c6-429f-88a7-e63ae86ec05d","system_id":"levelo_inurba_marseille","lat":43.29715,"lon":5.36612,"is_reserved":false,"is_disabled":false,"rental_uris":{"android":"levelo://app?vid=5cd7b71f-c4c6-429f-88a7-e63ae86ec05d","ios":"levelo://app?vid=5cd7b71f-c4c6-429f-88a7-e63ae86ec05d"},"vehicle_type_id":"4","last_reported":1684591581,"current_range_meters":24400,"station_id":"","pricing_plan_id":"free"},{"bike_id":"617d3625-5e4d-40cf-92d2-83e6147636dd","system_id":"levelo_inurba_marseille","lat":43.328371,"lon":5.366909,"is_reserved":false,"is_disabled":false,"rental_uris":{"android":"levelo://app?vid=617d3625-5e4d-40cf-92d2-83e6147636dd","ios":"levelo://app?vid=617d3625-5e4d-40cf-92d2-83e6147636dd"},"vehicle_type_id":"4","last_reported":1684591581,"current_range_meters":20400,"station_id":"ce4bhs92rcd13ifvqi0g","pricing_plan_id":"free"},{"bike_id":"f018ea4a-0d1e-4b2b-9c26-cc6381a79889","system_id":"levelo_inurba_marseille","lat":43.328371,"lon":5.366909,"is_reserved":false,"is_disabled":false,"rental_uris":{"android":"levelo://app?vid=f018ea4a-0d1e-4b2b-9c26-cc6381a79889","ios":"levelo://app?vid=f018ea4a-0d1e-4b2b-9c26-cc6381a79889"},"vehicle_type_id":"4","last_reported":1684591581,"current_range_meters":4400,"station_id":"ce4bhs92rcd13ifvqi0g","pricing_plan_id":"free"},{"bike_id":"c2c67dfe-16cc-474d-bd9e-93d3551b4f79","system_id":"levelo_inurba_marseille","lat":43.328371,"lon":5.366909,"is_reserved":false,"is_disabled":false,"rental_uris":{"android":"levelo://app?vid=c2c67dfe-16cc-474d-bd9e-93d3551b4f79","ios":"levelo://app?vid=c2c67dfe-16cc-474d-bd9e-93d3551b4f79"},"vehicle_type_id":"4","last_reported":1684591581,"current_range_meters":16800,"station_id":"ce4bhs92rcd13ifvqi0g","pricing_plan_id":"free"},{"bike_id":"31cd6cc1-64a5-4cbb-97ce-a28159e08724","system_id":"levelo_inurba_marseille","lat":43.29709,"lon":5.3661,"is_reserved":false,"is_disabled":false,"rental_uris":{"android":"levelo://app?vid=31cd6cc1-64a5-4cbb-97ce-a28159e08724","ios":"levelo://app?vid=31cd6cc1-64a5-4cbb-97ce-a28159e08724"},"vehicle_type_id":"4","last_reported":1684591581,"current_range_meters":4800,"station_id":"","pricing_plan_id":"free"},{"bike_id":"bd0cd171-ddc8-443f-ad52-c3c60e0946fd","system_id":"levelo_inurba_marseille","lat":43.29709,"lon":5.36607,"is_reserved":false,"is_disabled":false,"rental_uris":{"android":"levelo://app?vid=bd0cd171-ddc8-443f-ad52-c3c60e0946fd","ios":"levelo://app?vid=bd0cd171-ddc8-443f-ad52-c3c60e0946fd"},"vehicle_type_id":"4","last_reported":1684591581,"current_range_meters":4400,"station_id":"","pricing_plan_id":"free"},{"bike_id":"27955cc2-1f6e-4990-84bb-52646cbea3f5","system_id":"levelo_inurba_marseille","lat":43.29705,"lon":5.36607,"is_reserved":false,"is_disabled":false,"rental_uris":{"android":"levelo://app?vid=27955cc2-1f6e-4990-84bb-52646cbea3f5","ios":"levelo://app?vid=27955cc2-1f6e-4990-84bb-52646cbea3f5"},"vehicle_type_id":"4","last_reported":1684591581,"current_range_meters":18800,"station_id":"","pricing_plan_id":"free"},{"bike_id":"dc66bf27-ad6e-4a96-bef9-1f4f3b737a8d","system_id":"levelo_inurba_marseille","lat":43.29703,"lon":5.36606,"is_reserved":false,"is_disabled":false,"rental_uris":{"android":"levelo://app?vid=dc66bf27-ad6e-4a96-bef9-1f4f3b737a8d","ios":"levelo://app?vid=dc66bf27-ad6e-4a96-bef9-1f4f3b737a8d"},"vehicle_type_id":"4","last_reported":1684591581,"current_range_meters":20000,"station_id":"","pricing_plan_id":"free"},{"bike_id":"7177c238-b634-4673-afd7-106280721fc5","system_id":"levelo_inurba_marseille","lat":43.29697,"lon":5.36614,"is_reserved":false,"is_disabled":false,"rental_uris":{"android":"levelo://app?vid=7177c238-b634-4673-afd7-106280721fc5","ios":"levelo://app?vid=7177c238-b634-4673-afd7-106280721fc5"},"vehicle_type_id":"4","last_reported":1684591581,"current_range_meters":25600,"station_id":"","pricing_plan_id":"free"},{"bike_id":"0217cea3-1210-4f38-a7bd-3c15dcd8a9b9","system_id":"levelo_inurba_marseille","lat":43.2968,"lon":5.37291,"is_reserved":false,"is_disabled":false,"rental_uris":{"android":"levelo://app?vid=0217cea3-1210-4f38-a7bd-3c15dcd8a9b9","ios":"levelo://app?vid=0217cea3-1210-4f38-a7bd-3c15dcd8a9b9"},"vehicle_type_id":"4","last_reported":1684591581,"current_range_meters":18000,"station_id":"ce4bgk12rcd13ifvqbj0","pricing_plan_id":"free"},{"bike_id":"947db61d-be67-4fc6-be8f-920973f33b76","system_id":"levelo_inurba_marseille","lat":43.2968,"lon":5.37291,"is_reserved":false,"is_disabled":false,"rental_uris":{"android":"levelo://app?vid=947db61d-be67-4fc6-be8f-920973f33b76","ios":"levelo://app?vid=947db61d-be67-4fc6-be8f-920973f33b76"},"vehicle_type_id":"4","last_reported":1684591581,"current_range_meters":8800,"station_id":"ce4bgk12rcd13ifvqbj0","pricing_plan_id":"free"},{"bike_id":"6bab12c8-ef23-4aaa-a574-f4a05ca63eb0","system_id":"levelo_inurba_marseille","lat":43.2968,"lon":5.37291,"is_reserved":false,"is_disabled":false,"rental_uris":{"android":"levelo://app?vid=6bab12c8-ef23-4aaa-a574-f4a05ca63eb0","ios":"levelo://app?vid=6bab12c8-ef23-4aaa-a574-f4a05ca63eb0"},"vehicle_type_id":"4","last_reported":1684591581,"current_range_meters":28800,"station_id":"ce4bgk12rcd13ifvqbj0","pricing_plan_id":"free"},{"bike_id":"831ee316-897c-440e-81d4-e84d52528fdc","system_id":"levelo_inurba_marseille","lat":43.2968,"lon":5.37291,"is_reserved":false,"is_disabled":false,"rental_uris":{"android":"levelo://app?vid=831ee316-897c-440e-81d4-e84d52528fdc","ios":"levelo://app?vid=831ee316-897c-440e-81d4-e84d52528fdc"},"vehicle_type_id":"4","last_reported":1684591581,"current_range_meters":27200,"station_id":"ce4bgk12rcd13ifvqbj0","pricing_plan_id":"free"},{"bike_id":"65922dc5-f3e9-442a-803a-13b672b44e88","system_id":"levelo_inurba_marseille","lat":43.2968,"lon":5.37291,"is_reserved":false,"is_disabled":false,"rental_uris":{"android":"levelo://app?vid=65922dc5-f3e9-442a-803a-13b672b44e88","ios":"levelo://app?vid=65922dc5-f3e9-442a-803a-13b672b44e88"},"vehicle_type_id":"4","last_reported":1684591581,"current_range_meters":28400,"station_id":"ce4bgk12rcd13ifvqbj0","pricing_plan_id":"free"},{"bike_id":"a10d20a8-090c-4977-8302-b75d6d4c0794","system_id":"levelo_inurba_marseille","lat":43.2968,"lon":5.37291,"is_reserved":false,"is_disabled":false,"rental_uris":{"android":"levelo://app?vid=a10d20a8-090c-4977-8302-b75d6d4c0794","ios":"levelo://app?vid=a10d20a8-090c-4977-8302-b75d6d4c0794"},"vehicle_type_id":"4","last_reported":1684591581,"current_range_meters":31200,"station_id":"ce4bgk12rcd13ifvqbj0","pricing_plan_id":"free"},{"bike_id":"8fd9343a-2fcc-420f-86ef-27715ca38bbc","system_id":"levelo_inurba_marseille","lat":43.2968,"lon":5.37291,"is_reserved":false,"is_disabled":false,"rental_uris":{"android":"levelo://app?vid=8fd9343a-2fcc-420f-86ef-27715ca38bbc","ios":"levelo://app?vid=8fd9343a-2fcc-420f-86ef-27715ca38bbc"},"vehicle_type_id":"4","last_reported":1684591581,"current_range_meters":18800,"station_id":"ce4bgk12rcd13ifvqbj0","pricing_plan_id":"free"},{"bike_id":"14060c1f-51a9-426a-86f0-e4083e7e25f7","system_id":"levelo_inurba_marseille","lat":43.296131,"lon":5.370791,"is_reserved":false,"is_disabled":false,"rental_uris":{"android":"levelo://app?vid=14060c1f-51a9-426a-86f0-e4083e7e25f7","ios":"levelo://app?vid=14060c1f-51a9-426a-86f0-e4083e7e25f7"},"vehicle_type_id":"4","last_reported":1684591581,"current_range_meters":31200,"station_id":"ce4bgnh2rcd13ifvqc0g","pricing_plan_id":"free"},{"bike_id":"23e608c2-8d0b-430f-a31a-bafcd14522bf","system_id":"levelo_inurba_marseille","lat":43.296131,"lon":5.370791,"is_reserved":false,"is_disabled":false,"rental_uris":{"android":"levelo://app?vid=23e608c2-8d0b-430f-a31a-bafcd14522bf","ios":"levelo://app?vid=23e608c2-8d0b-430f-a31a-bafcd14522bf"},"vehicle_type_id":"4","last_reported":1684591581,"current_range_meters":28800,"station_id":"ce4bgnh2rcd13ifvqc0g","pricing_plan_id":"free"},{"bike_id":"50d173d1-18ff-41f7-9eb8-ae9dc916a04c","system_id":"levelo_inurba_marseille","lat":43.296131,"lon":5.370791,"is_reserved":false,"is_disabled":false,"rental_uris":{"android":"levelo://app?vid=50d173d1-18ff-41f7-9eb8-ae9dc916a04c","ios":"levelo://app?vid=50d173d1-18ff-41f7-9eb8-ae9dc916a04c"},"vehicle_type_id":"4","last_reported":1684591581,"current_range_meters":22000,"station_id":"ce4bgnh2rcd13ifvqc0g","pricing_plan_id":"free"},{"bike_id":"d0ffa209-c60a-48f3-a217-0feb077dcc4e","system_id":"levelo_inurba_marseille","lat":43.29573,"lon":5.367355,"is_reserved":false,"is_disabled":false,"rental_uris":{"android":"levelo://app?vid=d0ffa209-c60a-48f3-a217-0feb077dcc4e","ios":"levelo://app?vid=d0ffa209-c60a-48f3-a217-0feb077dcc4e"},"vehicle_type_id":"4","last_reported":1684591581,"current_range_meters":26400,"station_id":"ce4bgph2rcd13ifvqc2g","pricing_plan_id":"free"},{"bike_id":"b569ec74-d11d-481e-9e33-1df8b84cca6b","system_id":"levelo_inurba_marseille","lat":43.29573,"lon":5.367355,"is_reserved":false,"is_disabled":false,"rental_uris":{"android":"levelo://app?vid=b569ec74-d11d-481e-9e33-1df8b84cca6b","ios":"levelo://app?vid=b569ec74-d11d-481e-9e33-1df8b84cca6b"},"vehicle_type_id":"4","last_reported":1684591581,"current_range_meters":31200,"station_id":"ce4bgph2rcd13ifvqc2g","pricing_plan_id":"free"},{"bike_id":"5cdf2c57-cff7-4641-86d0-e7b04fefee02","system_id":"levelo_inurba_marseille","lat":43.29573,"lon":5.367355,"is_reserved":false,"is_disabled":false,"rental_uris":{"android":"levelo://app?vid=5cdf2c57-cff7-4641-86d0-e7b04fefee02","ios":"levelo://app?vid=5cdf2c57-cff7-4641-86d0-e7b04fefee02"},"vehicle_type_id":"4","last_reported":1684591581,"current_range_meters":28000,"station_id":"ce4bgph2rcd13ifvqc2g","pricing_plan_id":"free"},{"bike_id":"1d0998d3-da8c-4aed-96f0-608a1f7a49d9","system_id":"levelo_inurba_marseille","lat":43.29573,"lon":5.367355,"is_reserved":false,"is_disabled":false,"rental_uris":{"android":"levelo://app?vid=1d0998d3-da8c-4aed-96f0-608a1f7a49d9","ios":"levelo://app?vid=1d0998d3-da8c-4aed-96f0-608a1f7a49d9"},"vehicle_type_id":"4","last_reported":1684591581,"current_range_meters":31200,"station_id":"ce4bgph2rcd13ifvqc2g","pricing_plan_id":"free"},{"bike_id":"961d69b5-7e0e-44c4-a861-e1ee014eb732","system_id":"levelo_inurba_marseille","lat":43.29573,"lon":5.367355,"is_reserved":false,"is_disabled":false,"rental_uris":{"android":"levelo://app?vid=961d69b5-7e0e-44c4-a861-e1ee014eb732","ios":"levelo://app?vid=961d69b5-7e0e-44c4-a861-e1ee014eb732"},"vehicle_type_id":"4","last_reported":1684591581,"current_range_meters":31200,"station_id":"ce4bgph2rcd13ifvqc2g","pricing_plan_id":"free"},{"bike_id":"45597619-a2d2-446d-83d6-cbc08a5eda02","system_id":"levelo_inurba_marseille","lat":43.29573,"lon":5.367355,"is_reserved":false,"is_disabled":false,"rental_uris":{"android":"levelo://app?vid=45597619-a2d2-446d-83d6-cbc08a5eda02","ios":"levelo://app?vid=45597619-a2d2-446d-83d6-cbc08a5eda02"},"vehicle_type_id":"4","last_reported":1684591581,"current_range_meters":6800,"station_id":"ce4bgph2rcd13ifvqc2g","pricing_plan_id":"free"},{"bike_id":"74166f0c-f025-4337-b9a4-f92648982067","system_id":"levelo_inurba_marseille","lat":43.296935,"lon":5.376544,"is_reserved":false,"is_disabled":false,"rental_uris":{"android":"levelo://app?vid=74166f0c-f025-4337-b9a4-f92648982067","ios":"levelo://app?vid=74166f0c-f025-4337-b9a4-f92648982067"},"vehicle_type_id":"4","last_reported":1684591581,"current_range_meters":24800,"station_id":"ce4bgkh2rcd13ifvqbl0","pricing_plan_id":"free"},{"bike_id":"61cf38cf-6c3e-42a7-ad5f-1d01dc2eef53","system_id":"levelo_inurba_marseille","lat":43.296921,"lon":5.376579,"is_reserved":false,"is_disabled":false,"rental_uris":{"android":"levelo://app?vid=61cf38cf-6c3e-42a7-ad5f-1d01dc2eef53","ios":"levelo://app?vid=61cf38cf-6c3e-42a7-ad5f-1d01dc2eef53"},"vehicle_type_id":"4","last_reported":1684591581,"current_range_meters":31200,"station_id":"ce4bgkh2rcd13ifvqbl0","pricing_plan_id":"free"},{"bike_id":"1e4c9481-d13d-4049-b27b-77d19c9da748","system_id":"levelo_inurba_marseille","lat":43.296921,"lon":5.376579,"is_reserved":false,"is_disabled":false,"rental_uris":{"android":"levelo://app?vid=1e4c9481-d13d-4049-b27b-77d19c9da748","ios":"levelo://app?vid=1e4c9481-d13d-4049-b27b-77d19c9da748"},"vehicle_type_id":"4","last_reported":1684591581,"current_range_meters":27200,"station_id":"ce4bgkh2rcd13ifvqbl0","pricing_plan_id":"free"},{"bike_id":"4494bcf4-d6fb-4eee-8798-521c234710e0","system_id":"levelo_inurba_marseille","lat":43.296921,"lon":5.376579,"is_reserved":false,"is_disabled":false,"rental_uris":{"android":"levelo://app?vid=4494bcf4-d6fb-4eee-8798-521c234710e0","ios":"levelo://app?vid=4494bcf4-d6fb-4eee-8798-521c234710e0"},"vehicle_type_id":"4","last_reported":1684591581,"current_range_meters":28000,"station_id":"ce4bgkh2rcd13ifvqbl0","pricing_plan_id":"free"},{"bike_id":"0a9a9b62-9b35-4271-ab6c-f0dc692e1503","system_id":"levelo_inurba_marseille","lat":43.296935,"lon":5.376544,"is_reserved":false,"is_disabled":false,"rental_uris":{"android":"levelo://app?vid=0a9a9b62-9b35-4271-ab6c-f0dc692e1503","ios":"levelo://app?vid=0a9a9b62-9b35-4271-ab6c-f0dc692e1503"},"vehicle_type_id":"4","last_reported":1684591581,"current_range_meters":31600,"station_id":"ce4bgkh2rcd13ifvqbl0","pricing_plan_id":"free"},{"bike_id":"8fdd3edb-c14e-4ade-8267-ad0f132c3423","system_id":"levelo_inurba_marseille","lat":43.296921,"lon":5.376579,"is_reserved":false,"is_disabled":false,"rental_uris":{"android":"levelo://app?vid=8fdd3edb-c14e-4ade-8267-ad0f132c3423","ios":"levelo://app?vid=8fdd3edb-c14e-4ade-8267-ad0f132c3423"},"vehicle_type_id":"4","last_reported":1684591581,"current_range_meters":31200,"station_id":"ce4bgkh2rcd13ifvqbl0","pricing_plan_id":"free"},{"bike_id":"5f6e5d8a-779d-43e4-b1d1-d2590d148ade","system_id":"levelo_inurba_marseille","lat":43.296935,"lon":5.376544,"is_reserved":false,"is_disabled":false,"rental_uris":{"android":"levelo://app?vid=5f6e5d8a-779d-43e4-b1d1-d2590d148ade","ios":"levelo://app?vid=5f6e5d8a-779d-43e4-b1d1-d2590d148ade"},"vehicle_type_id":"4","last_reported":1684591581,"current_range_meters":8800,"station_id":"ce4bgkh2rcd13ifvqbl0","pricing_plan_id":"free"},{"bike_id":"98f68e6c-56d3-41de-aaf8-accc4b0caa62","system_id":"levelo_inurba_marseille","lat":43.296921,"lon":5.376579,"is_reserved":false,"is_disabled":false,"rental_uris":{"android":"levelo://app?vid=98f68e6c-56d3-41de-aaf8-accc4b0caa62","ios":"levelo://app?vid=98f68e6c-56d3-41de-aaf8-accc4b0caa62"},"vehicle_type_id":"4","last_reported":1684591581,"current_range_meters":22400,"station_id":"ce4bgkh2rcd13ifvqbl0","pricing_plan_id":"free"},{"bike_id":"1e39ea9d-06ea-45ba-86f2-40d21d401018","system_id":"levelo_inurba_marseille","lat":43.296935,"lon":5.376544,"is_reserved":false,"is_disabled":false,"rental_uris":{"android":"levelo://app?vid=1e39ea9d-06ea-45ba-86f2-40d21d401018","ios":"levelo://app?vid=1e39ea9d-06ea-45ba-86f2-40d21d401018"},"vehicle_type_id":"4","last_reported":1684591581,"current_range_meters":3600,"station_id":"ce4bgkh2rcd13ifvqbl0","pricing_plan_id":"free"},{"bike_id":"68f628a9-44fb-4a91-b11d-b350139607c3","system_id":"levelo_inurba_marseille","lat":43.296935,"lon":5.376544,"is_reserved":false,"is_disabled":false,"rental_uris":{"android":"levelo://app?vid=68f628a9-44fb-4a91-b11d-b350139607c3","ios":"levelo://app?vid=68f628a9-44fb-4a91-b11d-b350139607c3"},"vehicle_type_id":"4","last_reported":1684591581,"current_range_meters":28000,"station_id":"ce4bgkh2rcd13ifvqbl0","pricing_plan_id":"free"},{"bike_id":"c2453d8a-3deb-4a0c-a989-94c9065b0438","system_id":"levelo_inurba_marseille","lat":43.296935,"lon":5.376544,"is_reserved":false,"is_disabled":false,"rental_uris":{"android":"levelo://app?vid=c2453d8a-3deb-4a0c-a989-94c9065b0438","ios":"levelo://app?vid=c2453d8a-3deb-4a0c-a989-94c9065b0438"},"vehicle_type_id":"4","last_reported":1684591581,"current_range_meters":16000,"station_id":"ce4bgkh2rcd13ifvqbl0","pricing_plan_id":"free"},{"bike_id":"630fb59d-7052-4476-a220-57bcee823e90","system_id":"levelo_inurba_marseille","lat":43.299028,"lon":5.381509,"is_reserved":false,"is_disabled":false,"rental_uris":{"android":"levelo://app?vid=630fb59d-7052-4476-a220-57bcee823e90","ios":"levelo://app?vid=630fb59d-7052-4476-a220-57bcee823e90"},"vehicle_type_id":"4","last_reported":1684591581,"current_range_meters":28400,"station_id":"ce4bgj12rcd13ifvqbc0","pricing_plan_id":"free"},{"bike_id":"fb93c5a0-9bd3-4259-a605-c6520d0c8359","system_id":"levelo_inurba_marseille","lat":43.31758,"lon":5.39013,"is_reserved":false,"is_disabled":false,"rental_uris":{"android":"levelo://app?vid=fb93c5a0-9bd3-4259-a605-c6520d0c8359","ios":"levelo://app?vid=fb93c5a0-9bd3-4259-a605-c6520d0c8359"},"vehicle_type_id":"4","last_reported":1684591581,"current_range_meters":26400,"station_id":"ce4bhqp2rcd13ifvqhng","pricing_plan_id":"free"},{"bike_id":"c71bdbf5-c60f-4aec-b07e-90c6350730af","system_id":"levelo_inurba_marseille","lat":43.317557,"lon":5.390173,"is_reserved":false,"is_disabled":false,"rental_uris":{"android":"levelo://app?vid=c71bdbf5-c60f-4aec-b07e-90c6350730af","ios":"levelo://app?vid=c71bdbf5-c60f-4aec-b07e-90c6350730af"},"vehicle_type_id":"4","last_reported":1684591581,"current_range_meters":15600,"station_id":"ce4bhqp2rcd13ifvqhng","pricing_plan_id":"free"},{"bike_id":"b25c9c4f-b923-4e1b-b4ed-21f0e58d8598","system_id":"levelo_inurba_marseille","lat":43.317557,"lon":5.390173,"is_reserved":false,"is_disabled":false,"rental_uris":{"android":"levelo://app?vid=b25c9c4f-b923-4e1b-b4ed-21f0e58d8598","ios":"levelo://app?vid=b25c9c4f-b923-4e1b-b4ed-21f0e58d8598"},"vehicle_type_id":"4","last_reported":1684591581,"current_range_meters":6800,"station_id":"ce4bhqp2rcd13ifvqhng","pricing_plan_id":"free"},{"bike_id":"e4053292-5222-41bd-82e1-22699b26d48e","system_id":"levelo_inurba_marseille","lat":43.317557,"lon":5.390173,"is_reserved":false,"is_disabled":false,"rental_uris":{"android":"levelo://app?vid=e4053292-5222-41bd-82e1-22699b26d48e","ios":"levelo://app?vid=e4053292-5222-41bd-82e1-22699b26d48e"},"vehicle_type_id":"4","last_reported":1684591581,"current_range_meters":15200,"station_id":"ce4bhqp2rcd13ifvqhng","pricing_plan_id":"free"},{"bike_id":"7ccdf964-879f-4af8-bcb9-0bfc70a2cad2","system_id":"levelo_inurba_marseille","lat":43.317557,"lon":5.390173,"is_reserved":false,"is_disabled":false,"rental_uris":{"android":"levelo://app?vid=7ccdf964-879f-4af8-bcb9-0bfc70a2cad2","ios":"levelo://app?vid=7ccdf964-879f-4af8-bcb9-0bfc70a2cad2"},"vehicle_type_id":"4","last_reported":1684591581,"current_range_meters":22800,"station_id":"ce4bhqp2rcd13ifvqhng","pricing_plan_id":"free"},{"bike_id":"35e4c587-bf05-4d93-915e-e6a4a7633266","system_id":"levelo_inurba_marseille","lat":43.295748,"lon":5.37522,"is_reserved":false,"is_disabled":false,"rental_uris":{"android":"levelo://app?vid=35e4c587-bf05-4d93-915e-e6a4a7633266","ios":"levelo://app?vid=35e4c587-bf05-4d93-915e-e6a4a7633266"},"vehicle_type_id":"4","last_reported":1684591581,"current_range_meters":400,"station_id":"ce4bgh92rcd13ifvqb50","pricing_plan_id":"free"},{"bike_id":"308b9c79-bd84-4e52-8df1-b9e114b2c86d","system_id":"levelo_inurba_marseille","lat":43.298037,"lon":5.381066,"is_reserved":false,"is_disabled":false,"rental_uris":{"android":"levelo://app?vid=308b9c79-bd84-4e52-8df1-b9e114b2c86d","ios":"levelo://app?vid=308b9c79-bd84-4e52-8df1-b9e114b2c86d"},"vehicle_type_id":"4","last_reported":1684591581,"current_range_meters":16400,"station_id":"ce4bgip2rcd13ifvqbb0","pricing_plan_id":"free"},{"bike_id":"46005e90-dd28-4ea0-adcc-81d63274430a","system_id":"levelo_inurba_marseille","lat":43.304278,"lon":5.388868,"is_reserved":false,"is_disabled":false,"rental_uris":{"android":"levelo://app?vid=46005e90-dd28-4ea0-adcc-81d63274430a","ios":"levelo://app?vid=46005e90-dd28-4ea0-adcc-81d63274430a"},"vehicle_type_id":"4","last_reported":1684591581,"current_range_meters":20800,"station_id":"ce4bgk12rcd13ifvqbi0","pricing_plan_id":"free"},{"bike_id":"0eee190c-9f12-4367-9fac-42d815f0fb98","system_id":"levelo_inurba_marseille","lat":43.304274,"lon":5.388873,"is_reserved":false,"is_disabled":false,"rental_uris":{"android":"levelo://app?vid=0eee190c-9f12-4367-9fac-42d815f0fb98","ios":"levelo://app?vid=0eee190c-9f12-4367-9fac-42d815f0fb98"},"vehicle_type_id":"4","last_reported":1684591581,"current_range_meters":27200,"station_id":"ce4bgk12rcd13ifvqbi0","pricing_plan_id":"free"},{"bike_id":"49e72c99-9816-4c84-99d3-e493e7f622a0","system_id":"levelo_inurba_marseille","lat":43.304274,"lon":5.388873,"is_reserved":false,"is_disabled":false,"rental_uris":{"android":"levelo://app?vid=49e72c99-9816-4c84-99d3-e493e7f622a0","ios":"levelo://app?vid=49e72c99-9816-4c84-99d3-e493e7f622a0"},"vehicle_type_id":"4","last_reported":1684591581,"current_range_meters":21200,"station_id":"ce4bgk12rcd13ifvqbi0","pricing_plan_id":"free"},{"bike_id":"d5ffec5f-7e43-400b-a8e2-663750d5ed52","system_id":"levelo_inurba_marseille","lat":43.29572,"lon":5.37522,"is_reserved":false,"is_disabled":false,"rental_uris":{"android":"levelo://app?vid=d5ffec5f-7e43-400b-a8e2-663750d5ed52","ios":"levelo://app?vid=d5ffec5f-7e43-400b-a8e2-663750d5ed52"},"vehicle_type_id":"4","last_reported":1684591581,"current_range_meters":7600,"station_id":"ce4bgh92rcd13ifvqb50","pricing_plan_id":"free"},{"bike_id":"3f6cd543-86db-4171-9c11-b2a4947235e2","system_id":"levelo_inurba_marseille","lat":43.29629,"lon":5.37721,"is_reserved":false,"is_disabled":false,"rental_uris":{"android":"levelo://app?vid=3f6cd543-86db-4171-9c11-b2a4947235e2","ios":"levelo://app?vid=3f6cd543-86db-4171-9c11-b2a4947235e2"},"vehicle_type_id":"4","last_reported":1684591581,"current_range_meters":30800,"station_id":"ce4bgi92rcd13ifvqb90","pricing_plan_id":"free"},{"bike_id":"e1e4c473-9671-4185-b0f0-839adec5c0de","system_id":"levelo_inurba_marseille","lat":43.304278,"lon":5.388868,"is_reserved":false,"is_disabled":false,"rental_uris":{"android":"levelo://app?vid=e1e4c473-9671-4185-b0f0-839adec5c0de","ios":"levelo://app?vid=e1e4c473-9671-4185-b0f0-839adec5c0de"},"vehicle_type_id":"4","last_reported":1684591581,"current_range_meters":7200,"station_id":"ce4bgk12rcd13ifvqbi0","pricing_plan_id":"free"},{"bike_id":"f635f0ef-1480-4566-87b2-f0d790c0d06a","system_id":"levelo_inurba_marseille","lat":43.298037,"lon":5.381066,"is_reserved":false,"is_disabled":false,"rental_uris":{"android":"levelo://app?vid=f635f0ef-1480-4566-87b2-f0d790c0d06a","ios":"levelo://app?vid=f635f0ef-1480-4566-87b2-f0d790c0d06a"},"vehicle_type_id":"4","last_reported":1684591581,"current_range_meters":0,"station_id":"ce4bgip2rcd13ifvqbb0","pricing_plan_id":"free"},{"bike_id":"cdaafd20-5dbd-436c-8bdc-f9b2322cb1b6","system_id":"levelo_inurba_marseille","lat":43.29556,"lon":5.37543,"is_reserved":false,"is_disabled":false,"rental_uris":{"android":"levelo://app?vid=cdaafd20-5dbd-436c-8bdc-f9b2322cb1b6","ios":"levelo://app?vid=cdaafd20-5dbd-436c-8bdc-f9b2322cb1b6"},"vehicle_type_id":"4","last_reported":1684591581,"current_range_meters":27600,"station_id":"","pricing_plan_id":"free"},{"bike_id":"bc8eddb5-c1f0-4443-9a2e-3f615a7e9e30","system_id":"levelo_inurba_marseille","lat":43.2953,"lon":5.37502,"is_reserved":false,"is_disabled":false,"rental_uris":{"android":"levelo://app?vid=bc8eddb5-c1f0-4443-9a2e-3f615a7e9e30","ios":"levelo://app?vid=bc8eddb5-c1f0-4443-9a2e-3f615a7e9e30"},"vehicle_type_id":"4","last_reported":1684591581,"current_range_meters":18800,"station_id":"ce4bgkp2rcd13ifvqbmg","pricing_plan_id":"free"},{"bike_id":"ff427a2d-0818-4552-9b2d-36cfbda81948","system_id":"levelo_inurba_marseille","lat":43.299717,"lon":5.384845,"is_reserved":false,"is_disabled":false,"rental_uris":{"android":"levelo://app?vid=ff427a2d-0818-4552-9b2d-36cfbda81948","ios":"levelo://app?vid=ff427a2d-0818-4552-9b2d-36cfbda81948"},"vehicle_type_id":"4","last_reported":1684591581,"current_range_meters":22800,"station_id":"ce4bgj92rcd13ifvqbd0","pricing_plan_id":"free"},{"bike_id":"4c0b22b1-4b8a-4a3f-817b-f12d5c257ed0","system_id":"levelo_inurba_marseille","lat":43.299717,"lon":5.384845,"is_reserved":false,"is_disabled":false,"rental_uris":{"android":"levelo://app?vid=4c0b22b1-4b8a-4a3f-817b-f12d5c257ed0","ios":"levelo://app?vid=4c0b22b1-4b8a-4a3f-817b-f12d5c257ed0"},"vehicle_type_id":"4","last_reported":1684591581,"current_range_meters":23600,"station_id":"ce4bgj92rcd13ifvqbd0","pricing_plan_id":"free"},{"bike_id":"b1d4067e-4d68-4ba1-84af-b58bbbbf4a99","system_id":"levelo_inurba_marseille","lat":43.29921,"lon":5.38532,"is_reserved":false,"is_disabled":false,"rental_uris":{"android":"levelo://app?vid=b1d4067e-4d68-4ba1-84af-b58bbbbf4a99","ios":"levelo://app?vid=b1d4067e-4d68-4ba1-84af-b58bbbbf4a99"},"vehicle_type_id":"4","last_reported":1684591581,"current_range_meters":13200,"station_id":"","pricing_plan_id":"free"},{"bike_id":"4ac8d894-44aa-44fe-a5bc-75ed68bed853","system_id":"levelo_inurba_marseille","lat":43.32363,"lon":5.38878,"is_reserved":false,"is_disabled":false,"rental_uris":{"android":"levelo://app?vid=4ac8d894-44aa-44fe-a5bc-75ed68bed853","ios":"levelo://app?vid=4ac8d894-44aa-44fe-a5bc-75ed68bed853"},"vehicle_type_id":"4","last_reported":1684591581,"current_range_meters":21200,"station_id":"ce4bhqp2rcd13ifvqhog","pricing_plan_id":"free"},{"bike_id":"e267f340-98f6-4e1c-9dff-034ba5864fb0","system_id":"levelo_inurba_marseille","lat":43.32363,"lon":5.38879,"is_reserved":false,"is_disabled":false,"rental_uris":{"android":"levelo://app?vid=e267f340-98f6-4e1c-9dff-034ba5864fb0","ios":"levelo://app?vid=e267f340-98f6-4e1c-9dff-034ba5864fb0"},"vehicle_type_id":"4","last_reported":1684591581,"current_range_meters":7600,"station_id":"ce4bhqp2rcd13ifvqhog","pricing_plan_id":"free"},{"bike_id":"5aa8bf14-824f-4a38-a4b7-43747be759d9","system_id":"levelo_inurba_marseille","lat":43.32372,"lon":5.3888,"is_reserved":false,"is_disabled":false,"rental_uris":{"android":"levelo://app?vid=5aa8bf14-824f-4a38-a4b7-43747be759d9","ios":"levelo://app?vid=5aa8bf14-824f-4a38-a4b7-43747be759d9"},"vehicle_type_id":"4","last_reported":1684591581,"current_range_meters":26800,"station_id":"ce4bhqp2rcd13ifvqhog","pricing_plan_id":"free"},{"bike_id":"e8f92355-1751-48f1-9009-ce20d1dfd819","system_id":"levelo_inurba_marseille","lat":43.3237,"lon":5.38882,"is_reserved":false,"is_disabled":false,"rental_uris":{"android":"levelo://app?vid=e8f92355-1751-48f1-9009-ce20d1dfd819","ios":"levelo://app?vid=e8f92355-1751-48f1-9009-ce20d1dfd819"},"vehicle_type_id":"4","last_reported":1684591581,"current_range_meters":21200,"station_id":"ce4bhqp2rcd13ifvqhog","pricing_plan_id":"free"},{"bike_id":"8fc3c30c-04ec-4e26-b3d0-61142c118949","system_id":"levelo_inurba_marseille","lat":43.29607,"lon":5.38101,"is_reserved":false,"is_disabled":false,"rental_uris":{"android":"levelo://app?vid=8fc3c30c-04ec-4e26-b3d0-61142c118949","ios":"levelo://app?vid=8fc3c30c-04ec-4e26-b3d0-61142c118949"},"vehicle_type_id":"4","last_reported":1684591581,"current_range_meters":20000,"station_id":"ce4bgl12rcd13ifvqbo0","pricing_plan_id":"free"},{"bike_id":"76c5eaa0-b9a9-4ae0-b347-b458cc1f230b","system_id":"levelo_inurba_marseille","lat":43.296,"lon":5.38102,"is_reserved":false,"is_disabled":false,"rental_uris":{"android":"levelo://app?vid=76c5eaa0-b9a9-4ae0-b347-b458cc1f230b","ios":"levelo://app?vid=76c5eaa0-b9a9-4ae0-b347-b458cc1f230b"},"vehicle_type_id":"4","last_reported":1684591581,"current_range_meters":16400,"station_id":"ce4bgl12rcd13ifvqbo0","pricing_plan_id":"free"},{"bike_id":"87b03062-7047-4070-bddb-8563469e4096","system_id":"levelo_inurba_marseille","lat":43.293249,"lon":5.371578,"is_reserved":false,"is_disabled":false,"rental_uris":{"android":"levelo://app?vid=87b03062-7047-4070-bddb-8563469e4096","ios":"levelo://app?vid=87b03062-7047-4070-bddb-8563469e4096"},"vehicle_type_id":"4","last_reported":1684591581,"current_range_meters":26800,"station_id":"ce4bgh92rcd13ifvqb40","pricing_plan_id":"free"},{"bike_id":"bfd15309-59db-4377-8738-461551f9fb9e","system_id":"levelo_inurba_marseille","lat":43.292749,"lon":5.368402,"is_reserved":false,"is_disabled":false,"rental_uris":{"android":"levelo://app?vid=bfd15309-59db-4377-8738-461551f9fb9e","ios":"levelo://app?vid=bfd15309-59db-4377-8738-461551f9fb9e"},"vehicle_type_id":"4","last_reported":1684591581,"current_range_meters":0,"station_id":"ce4bhbp2rcd13ifvqesg","pricing_plan_id":"free"},{"bike_id":"215bedff-a316-4949-ac9c-85974188ad5a","system_id":"levelo_inurba_marseille","lat":43.293249,"lon":5.371578,"is_reserved":false,"is_disabled":false,"rental_uris":{"android":"levelo://app?vid=215bedff-a316-4949-ac9c-85974188ad5a","ios":"levelo://app?vid=215bedff-a316-4949-ac9c-85974188ad5a"},"vehicle_type_id":"4","last_reported":1684591581,"current_range_meters":20400,"station_id":"ce4bgh92rcd13ifvqb40","pricing_plan_id":"free"},{"bike_id":"9eca7d51-e25c-4726-9f9f-ec8e12bd4a16","system_id":"levelo_inurba_marseille","lat":43.292749,"lon":5.368398,"is_reserved":false,"is_disabled":false,"rental_uris":{"android":"levelo://app?vid=9eca7d51-e25c-4726-9f9f-ec8e12bd4a16","ios":"levelo://app?vid=9eca7d51-e25c-4726-9f9f-ec8e12bd4a16"},"vehicle_type_id":"4","last_reported":1684591581,"current_range_meters":25600,"station_id":"ce4bhbp2rcd13ifvqesg","pricing_plan_id":"free"},{"bike_id":"9a2278af-6b4a-44a0-a457-f4574f3c00ba","system_id":"levelo_inurba_marseille","lat":43.302992,"lon":5.392136,"is_reserved":false,"is_disabled":false,"rental_uris":{"android":"levelo://app?vid=9a2278af-6b4a-44a0-a457-f4574f3c00ba","ios":"levelo://app?vid=9a2278af-6b4a-44a0-a457-f4574f3c00ba"},"vehicle_type_id":"4","last_reported":1684591581,"current_range_meters":30000,"station_id":"ce4bgkh2rcd13ifvqbk0","pricing_plan_id":"free"},{"bike_id":"7f90c6a3-f7ca-4e88-b0f5-7e15697ca3a1","system_id":"levelo_inurba_marseille","lat":43.2936,"lon":5.37835,"is_reserved":false,"is_disabled":false,"rental_uris":{"android":"levelo://app?vid=7f90c6a3-f7ca-4e88-b0f5-7e15697ca3a1","ios":"levelo://app?vid=7f90c6a3-f7ca-4e88-b0f5-7e15697ca3a1"},"vehicle_type_id":"4","last_reported":1684591581,"current_range_meters":17600,"station_id":"ce4bgjh2rcd13ifvqbf0","pricing_plan_id":"free"},{"bike_id":"6160cf2c-e7b8-4e78-8e0b-64b6cda3bb75","system_id":"levelo_inurba_marseille","lat":43.29222,"lon":5.36255,"is_reserved":false,"is_disabled":false,"rental_uris":{"android":"levelo://app?vid=6160cf2c-e7b8-4e78-8e0b-64b6cda3bb75","ios":"levelo://app?vid=6160cf2c-e7b8-4e78-8e0b-64b6cda3bb75"},"vehicle_type_id":"4","last_reported":1684591581,"current_range_meters":22800,"station_id":"ce4bhbh2rcd13ifvqepg","pricing_plan_id":"free"},{"bike_id":"1fa07e86-b6fb-410e-b8db-737a921b5e38","system_id":"levelo_inurba_marseille","lat":43.29365,"lon":5.37845,"is_reserved":false,"is_disabled":false,"rental_uris":{"android":"levelo://app?vid=1fa07e86-b6fb-410e-b8db-737a921b5e38","ios":"levelo://app?vid=1fa07e86-b6fb-410e-b8db-737a921b5e38"},"vehicle_type_id":"4","last_reported":1684591581,"current_range_meters":25200,"station_id":"ce4bgjh2rcd13ifvqbf0","pricing_plan_id":"free"},{"bike_id":"6c9b281a-dcaf-47d0-aff1-582228173fb2","system_id":"levelo_inurba_marseille","lat":43.300852,"lon":5.390859,"is_reserved":false,"is_disabled":false,"rental_uris":{"android":"levelo://app?vid=6c9b281a-dcaf-47d0-aff1-582228173fb2","ios":"levelo://app?vid=6c9b281a-dcaf-47d0-aff1-582228173fb2"},"vehicle_type_id":"4","last_reported":1684591581,"current_range_meters":23600,"station_id":"ce4bh192rcd13ifvqdb0","pricing_plan_id":"free"},{"bike_id":"7c363402-3e65-498e-af90-c4546974df34","system_id":"levelo_inurba_marseille","lat":43.292663,"lon":5.376394,"is_reserved":false,"is_disabled":false,"rental_uris":{"android":"levelo://app?vid=7c363402-3e65-498e-af90-c4546974df34","ios":"levelo://app?vid=7c363402-3e65-498e-af90-c4546974df34"},"vehicle_type_id":"4","last_reported":1684591581,"current_range_meters":26800,"station_id":"ce4bgi12rcd13ifvqb80","pricing_plan_id":"free"},{"bike_id":"5ad86c2d-be7b-41f9-ae87-50bfec5cac5e","system_id":"levelo_inurba_marseille","lat":43.292663,"lon":5.376389,"is_reserved":false,"is_disabled":false,"rental_uris":{"android":"levelo://app?vid=5ad86c2d-be7b-41f9-ae87-50bfec5cac5e","ios":"levelo://app?vid=5ad86c2d-be7b-41f9-ae87-50bfec5cac5e"},"vehicle_type_id":"4","last_reported":1684591581,"current_range_meters":14000,"station_id":"ce4bgi12rcd13ifvqb80","pricing_plan_id":"free"},{"bike_id":"5e92ca2c-5348-449c-8379-4673edd9213d","system_id":"levelo_inurba_marseille","lat":43.292663,"lon":5.376389,"is_reserved":false,"is_disabled":false,"rental_uris":{"android":"levelo://app?vid=5e92ca2c-5348-449c-8379-4673edd9213d","ios":"levelo://app?vid=5e92ca2c-5348-449c-8379-4673edd9213d"},"vehicle_type_id":"4","last_reported":1684591581,"current_range_meters":14800,"station_id":"ce4bgi12rcd13ifvqb80","pricing_plan_id":"free"},{"bike_id":"a55f0e8f-25ed-4dea-8a07-cf0582826aa0","system_id":"levelo_inurba_marseille","lat":43.292663,"lon":5.376389,"is_reserved":false,"is_disabled":false,"rental_uris":{"android":"levelo://app?vid=a55f0e8f-25ed-4dea-8a07-cf0582826aa0","ios":"levelo://app?vid=a55f0e8f-25ed-4dea-8a07-cf0582826aa0"},"vehicle_type_id":"4","last_reported":1684591581,"current_range_meters":16400,"station_id":"ce4bgi12rcd13ifvqb80","pricing_plan_id":"free"},{"bike_id":"48bba1ba-8daa-480f-b2c6-5ecb9354afe7","system_id":"levelo_inurba_marseille","lat":43.292663,"lon":5.376394,"is_reserved":false,"is_disabled":false,"rental_uris":{"android":"levelo://app?vid=48bba1ba-8daa-480f-b2c6-5ecb9354afe7","ios":"levelo://app?vid=48bba1ba-8daa-480f-b2c6-5ecb9354afe7"},"vehicle_type_id":"4","last_reported":1684591581,"current_range_meters":23600,"station_id":"ce4bgi12rcd13ifvqb80","pricing_plan_id":"free"},{"bike_id":"42d47c63-0091-4ece-97f0-119446e962cc","system_id":"levelo_inurba_marseille","lat":43.292663,"lon":5.376394,"is_reserved":false,"is_disabled":false,"rental_uris":{"android":"levelo://app?vid=42d47c63-0091-4ece-97f0-119446e962cc","ios":"levelo://app?vid=42d47c63-0091-4ece-97f0-119446e962cc"},"vehicle_type_id":"4","last_reported":1684591581,"current_range_meters":31600,"station_id":"ce4bgi12rcd13ifvqb80","pricing_plan_id":"free"},{"bike_id":"15d08f28-5749-4cff-861c-d8f92714e8e4","system_id":"levelo_inurba_marseille","lat":43.292663,"lon":5.376389,"is_reserved":false,"is_disabled":false,"rental_uris":{"android":"levelo://app?vid=15d08f28-5749-4cff-861c-d8f92714e8e4","ios":"levelo://app?vid=15d08f28-5749-4cff-861c-d8f92714e8e4"},"vehicle_type_id":"4","last_reported":1684591581,"current_range_meters":4400,"station_id":"ce4bgi12rcd13ifvqb80","pricing_plan_id":"free"},{"bike_id":"89f239ef-0132-433d-9141-cf07dc8f02a8","system_id":"levelo_inurba_marseille","lat":43.292663,"lon":5.376389,"is_reserved":false,"is_disabled":false,"rental_uris":{"android":"levelo://app?vid=89f239ef-0132-433d-9141-cf07dc8f02a8","ios":"levelo://app?vid=89f239ef-0132-433d-9141-cf07dc8f02a8"},"vehicle_type_id":"4","last_reported":1684591581,"current_range_meters":31200,"station_id":"ce4bgi12rcd13ifvqb80","pricing_plan_id":"free"},{"bike_id":"7320e3bf-172c-423d-b4cd-e4c916a813ea","system_id":"levelo_inurba_marseille","lat":43.291994,"lon":5.357886,"is_reserved":false,"is_disabled":false,"rental_uris":{"android":"levelo://app?vid=7320e3bf-172c-423d-b4cd-e4c916a813ea","ios":"levelo://app?vid=7320e3bf-172c-423d-b4cd-e4c916a813ea"},"vehicle_type_id":"4","last_reported":1684591581,"current_range_meters":0,"station_id":"ce4bhb12rcd13ifvqel0","pricing_plan_id":"free"},{"bike_id":"2b15815c-8301-4c7c-9ef7-e46bbd30ee94","system_id":"levelo_inurba_marseille","lat":43.291994,"lon":5.357886,"is_reserved":false,"is_disabled":false,"rental_uris":{"android":"levelo://app?vid=2b15815c-8301-4c7c-9ef7-e46bbd30ee94","ios":"levelo://app?vid=2b15815c-8301-4c7c-9ef7-e46bbd30ee94"},"vehicle_type_id":"4","last_reported":1684591581,"current_range_meters":29600,"station_id":"ce4bhb12rcd13ifvqel0","pricing_plan_id":"free"},{"bike_id":"cdca7460-4474-4450-bd6e-d3da660974aa","system_id":"levelo_inurba_marseille","lat":43.313291,"lon":5.396838,"is_reserved":false,"is_disabled":false,"rental_uris":{"android":"levelo://app?vid=cdca7460-4474-4450-bd6e-d3da660974aa","ios":"levelo://app?vid=cdca7460-4474-4450-bd6e-d3da660974aa"},"vehicle_type_id":"4","last_reported":1684591581,"current_range_meters":28800,"station_id":"ce4bgvp2rcd13ifvqcu0","pricing_plan_id":"free"},{"bike_id":"a2e2a362-7ce3-40c8-a949-9014c9f938a9","system_id":"levelo_inurba_marseille","lat":43.291994,"lon":5.357886,"is_reserved":false,"is_disabled":false,"rental_uris":{"android":"levelo://app?vid=a2e2a362-7ce3-40c8-a949-9014c9f938a9","ios":"levelo://app?vid=a2e2a362-7ce3-40c8-a949-9014c9f938a9"},"vehicle_type_id":"4","last_reported":1684591581,"current_range_meters":12400,"station_id":"ce4bhb12rcd13ifvqel0","pricing_plan_id":"free"},{"bike_id":"655308f3-f53d-4ff7-8177-35031161d832","system_id":"levelo_inurba_marseille","lat":43.31331,"lon":5.39693,"is_reserved":false,"is_disabled":false,"rental_uris":{"android":"levelo://app?vid=655308f3-f53d-4ff7-8177-35031161d832","ios":"levelo://app?vid=655308f3-f53d-4ff7-8177-35031161d832"},"vehicle_type_id":"4","last_reported":1684591581,"current_range_meters":22000,"station_id":"ce4bgvp2rcd13ifvqcu0","pricing_plan_id":"free"},{"bike_id":"00b4637a-42e4-41c2-b306-4969effcc106","system_id":"levelo_inurba_marseille","lat":43.30878,"lon":5.39647,"is_reserved":false,"is_disabled":false,"rental_uris":{"android":"levelo://app?vid=00b4637a-42e4-41c2-b306-4969effcc106","ios":"levelo://app?vid=00b4637a-42e4-41c2-b306-4969effcc106"},"vehicle_type_id":"4","last_reported":1684591581,"current_range_meters":31200,"station_id":"ce4bh012rcd13ifvqcv0","pricing_plan_id":"free"},{"bike_id":"b6f65e72-0ab1-404b-9924-9b34906d392e","system_id":"levelo_inurba_marseille","lat":43.291994,"lon":5.357886,"is_reserved":false,"is_disabled":false,"rental_uris":{"android":"levelo://app?vid=b6f65e72-0ab1-404b-9924-9b34906d392e","ios":"levelo://app?vid=b6f65e72-0ab1-404b-9924-9b34906d392e"},"vehicle_type_id":"4","last_reported":1684591581,"current_range_meters":18000,"station_id":"ce4bhb12rcd13ifvqel0","pricing_plan_id":"free"},{"bike_id":"be301964-702c-46eb-a6a1-d8014b3071a3","system_id":"levelo_inurba_marseille","lat":43.29529,"lon":5.385581,"is_reserved":false,"is_disabled":false,"rental_uris":{"android":"levelo://app?vid=be301964-702c-46eb-a6a1-d8014b3071a3","ios":"levelo://app?vid=be301964-702c-46eb-a6a1-d8014b3071a3"},"vehicle_type_id":"4","last_reported":1684591581,"current_range_meters":26800,"station_id":"ce4bgih2rcd13ifvqba0","pricing_plan_id":"free"},{"bike_id":"d2ae3085-2478-4856-a3eb-d79b11f9f3f2","system_id":"levelo_inurba_marseille","lat":43.309038,"lon":5.396546,"is_reserved":false,"is_disabled":false,"rental_uris":{"android":"levelo://app?vid=d2ae3085-2478-4856-a3eb-d79b11f9f3f2","ios":"levelo://app?vid=d2ae3085-2478-4856-a3eb-d79b11f9f3f2"},"vehicle_type_id":"4","last_reported":1684591581,"current_range_meters":4000,"station_id":"ce4bh012rcd13ifvqcv0","pricing_plan_id":"free"},{"bike_id":"3470de50-bf87-4a02-af67-d0cc5d451385","system_id":"levelo_inurba_marseille","lat":43.29529,"lon":5.385581,"is_reserved":false,"is_disabled":false,"rental_uris":{"android":"levelo://app?vid=3470de50-bf87-4a02-af67-d0cc5d451385","ios":"levelo://app?vid=3470de50-bf87-4a02-af67-d0cc5d451385"},"vehicle_type_id":"4","last_reported":1684591581,"current_range_meters":28000,"station_id":"ce4bgih2rcd13ifvqba0","pricing_plan_id":"free"},{"bike_id":"b4fd511d-dd80-48c5-b0e5-a198d2eac83e","system_id":"levelo_inurba_marseille","lat":43.309038,"lon":5.396546,"is_reserved":false,"is_disabled":false,"rental_uris":{"android":"levelo://app?vid=b4fd511d-dd80-48c5-b0e5-a198d2eac83e","ios":"levelo://app?vid=b4fd511d-dd80-48c5-b0e5-a198d2eac83e"},"vehicle_type_id":"4","last_reported":1684591581,"current_range_meters":25600,"station_id":"ce4bh012rcd13ifvqcv0","pricing_plan_id":"free"},{"bike_id":"4eb0beed-14be-4983-88d9-dfc09b440871","system_id":"levelo_inurba_marseille","lat":43.2953,"lon":5.38534,"is_reserved":false,"is_disabled":false,"rental_uris":{"android":"levelo://app?vid=4eb0beed-14be-4983-88d9-dfc09b440871","ios":"levelo://app?vid=4eb0beed-14be-4983-88d9-dfc09b440871"},"vehicle_type_id":"4","last_reported":1684591581,"current_range_meters":31200,"station_id":"ce4bgih2rcd13ifvqba0","pricing_plan_id":"free"},{"bike_id":"cd5dc463-93ec-47f7-ba5f-11d2e1cbeec1","system_id":"levelo_inurba_marseille","lat":43.29529,"lon":5.385581,"is_reserved":false,"is_disabled":false,"rental_uris":{"android":"levelo://app?vid=cd5dc463-93ec-47f7-ba5f-11d2e1cbeec1","ios":"levelo://app?vid=cd5dc463-93ec-47f7-ba5f-11d2e1cbeec1"},"vehicle_type_id":"4","last_reported":1684591581,"current_range_meters":30000,"station_id":"ce4bgih2rcd13ifvqba0","pricing_plan_id":"free"},{"bike_id":"fdff5b57-df02-42da-9ed7-6a2ab1dd33b3","system_id":"levelo_inurba_marseille","lat":43.295345,"lon":5.385444,"is_reserved":false,"is_disabled":false,"rental_uris":{"android":"levelo://app?vid=fdff5b57-df02-42da-9ed7-6a2ab1dd33b3","ios":"levelo://app?vid=fdff5b57-df02-42da-9ed7-6a2ab1dd33b3"},"vehicle_type_id":"4","last_reported":1684591581,"current_range_meters":30400,"station_id":"","pricing_plan_id":"free"},{"bike_id":"560fb464-6bff-4314-aa59-c1cb6143d36c","system_id":"levelo_inurba_marseille","lat":43.309038,"lon":5.396546,"is_reserved":false,"is_disabled":false,"rental_uris":{"android":"levelo://app?vid=560fb464-6bff-4314-aa59-c1cb6143d36c","ios":"levelo://app?vid=560fb464-6bff-4314-aa59-c1cb6143d36c"},"vehicle_type_id":"4","last_reported":1684591581,"current_range_meters":23200,"station_id":"ce4bh012rcd13ifvqcv0","pricing_plan_id":"free"},{"bike_id":"83a54c1f-be2d-4315-8a6e-c23d1dea63b0","system_id":"levelo_inurba_marseille","lat":43.309038,"lon":5.396546,"is_reserved":false,"is_disabled":false,"rental_uris":{"android":"levelo://app?vid=83a54c1f-be2d-4315-8a6e-c23d1dea63b0","ios":"levelo://app?vid=83a54c1f-be2d-4315-8a6e-c23d1dea63b0"},"vehicle_type_id":"4","last_reported":1684591581,"current_range_meters":19600,"station_id":"ce4bh012rcd13ifvqcv0","pricing_plan_id":"free"},{"bike_id":"a751c3b0-1da4-4e9f-b2cd-39369a6c9cbb","system_id":"levelo_inurba_marseille","lat":43.29529,"lon":5.385581,"is_reserved":false,"is_disabled":false,"rental_uris":{"android":"levelo://app?vid=a751c3b0-1da4-4e9f-b2cd-39369a6c9cbb","ios":"levelo://app?vid=a751c3b0-1da4-4e9f-b2cd-39369a6c9cbb"},"vehicle_type_id":"4","last_reported":1684591581,"current_range_meters":28400,"station_id":"ce4bgih2rcd13ifvqba0","pricing_plan_id":"free"},{"bike_id":"566e0094-d1c0-416d-8cc5-c6be50a1aac0","system_id":"levelo_inurba_marseille","lat":43.29534,"lon":5.38547,"is_reserved":false,"is_disabled":false,"rental_uris":{"android":"levelo://app?vid=566e0094-d1c0-416d-8cc5-c6be50a1aac0","ios":"levelo://app?vid=566e0094-d1c0-416d-8cc5-c6be50a1aac0"},"vehicle_type_id":"4","last_reported":1684591581,"current_range_meters":31200,"station_id":"ce4bgih2rcd13ifvqba0","pricing_plan_id":"free"},{"bike_id":"ecc16877-74ab-4d01-a0cb-e79a366524a9","system_id":"levelo_inurba_marseille","lat":43.309038,"lon":5.396546,"is_reserved":false,"is_disabled":false,"rental_uris":{"android":"levelo://app?vid=ecc16877-74ab-4d01-a0cb-e79a366524a9","ios":"levelo://app?vid=ecc16877-74ab-4d01-a0cb-e79a366524a9"},"vehicle_type_id":"4","last_reported":1684591581,"current_range_meters":28800,"station_id":"ce4bh012rcd13ifvqcv0","pricing_plan_id":"free"},{"bike_id":"d1880721-5aaa-49b7-8bfd-8e219aa7b685","system_id":"levelo_inurba_marseille","lat":43.29529,"lon":5.385581,"is_reserved":false,"is_disabled":false,"rental_uris":{"android":"levelo://app?vid=d1880721-5aaa-49b7-8bfd-8e219aa7b685","ios":"levelo://app?vid=d1880721-5aaa-49b7-8bfd-8e219aa7b685"},"vehicle_type_id":"4","last_reported":1684591581,"current_range_meters":25600,"station_id":"ce4bgih2rcd13ifvqba0","pricing_plan_id":"free"},{"bike_id":"e62c2968-2f57-44e1-b75a-6d0430935247","system_id":"levelo_inurba_marseille","lat":43.29527,"lon":5.38538,"is_reserved":false,"is_disabled":false,"rental_uris":{"android":"levelo://app?vid=e62c2968-2f57-44e1-b75a-6d0430935247","ios":"levelo://app?vid=e62c2968-2f57-44e1-b75a-6d0430935247"},"vehicle_type_id":"4","last_reported":1684591581,"current_range_meters":1600,"station_id":"ce4bgih2rcd13ifvqba0","pricing_plan_id":"free"},{"bike_id":"f3268f09-d994-406a-9340-8e1c7f831eb0","system_id":"levelo_inurba_marseille","lat":43.29529,"lon":5.385581,"is_reserved":false,"is_disabled":false,"rental_uris":{"android":"levelo://app?vid=f3268f09-d994-406a-9340-8e1c7f831eb0","ios":"levelo://app?vid=f3268f09-d994-406a-9340-8e1c7f831eb0"},"vehicle_type_id":"4","last_reported":1684591581,"current_range_meters":31200,"station_id":"ce4bgih2rcd13ifvqba0","pricing_plan_id":"free"},{"bike_id":"bb8ea98a-28b9-4be7-95a5-4c82a7e01094","system_id":"levelo_inurba_marseille","lat":43.29529,"lon":5.385581,"is_reserved":false,"is_disabled":false,"rental_uris":{"android":"levelo://app?vid=bb8ea98a-28b9-4be7-95a5-4c82a7e01094","ios":"levelo://app?vid=bb8ea98a-28b9-4be7-95a5-4c82a7e01094"},"vehicle_type_id":"4","last_reported":1684591581,"current_range_meters":21200,"station_id":"ce4bgih2rcd13ifvqba0","pricing_plan_id":"free"},{"bike_id":"5cceda14-0f37-4ad3-98af-caf2857f84c5","system_id":"levelo_inurba_marseille","lat":43.29529,"lon":5.385581,"is_reserved":false,"is_disabled":false,"rental_uris":{"android":"levelo://app?vid=5cceda14-0f37-4ad3-98af-caf2857f84c5","ios":"levelo://app?vid=5cceda14-0f37-4ad3-98af-caf2857f84c5"},"vehicle_type_id":"4","last_reported":1684591581,"current_range_meters":30000,"station_id":"ce4bgih2rcd13ifvqba0","pricing_plan_id":"free"},{"bike_id":"d7bd2624-3e3c-431c-a4e3-5d254ae7718d","system_id":"levelo_inurba_marseille","lat":43.302008,"lon":5.394694,"is_reserved":false,"is_disabled":false,"rental_uris":{"android":"levelo://app?vid=d7bd2624-3e3c-431c-a4e3-5d254ae7718d","ios":"levelo://app?vid=d7bd2624-3e3c-431c-a4e3-5d254ae7718d"},"vehicle_type_id":"4","last_reported":1684591581,"current_range_meters":11600,"station_id":"ce4bh0p2rcd13ifvqd70","pricing_plan_id":"free"},{"bike_id":"2b18f315-4351-4f75-b26c-e3d8351fb84c","system_id":"levelo_inurba_marseille","lat":43.30213,"lon":5.39465,"is_reserved":false,"is_disabled":false,"rental_uris":{"android":"levelo://app?vid=2b18f315-4351-4f75-b26c-e3d8351fb84c","ios":"levelo://app?vid=2b18f315-4351-4f75-b26c-e3d8351fb84c"},"vehicle_type_id":"4","last_reported":1684591581,"current_range_meters":30800,"station_id":"ce4bh0p2rcd13ifvqd70","pricing_plan_id":"free"},{"bike_id":"c7e495be-dde8-4533-9b29-383fe64c00d3","system_id":"levelo_inurba_marseille","lat":43.290624,"lon":5.359245,"is_reserved":false,"is_disabled":false,"rental_uris":{"android":"levelo://app?vid=c7e495be-dde8-4533-9b29-383fe64c00d3","ios":"levelo://app?vid=c7e495be-dde8-4533-9b29-383fe64c00d3"},"vehicle_type_id":"4","last_reported":1684591581,"current_range_meters":20800,"station_id":"ce4bha92rcd13ifvqeg0","pricing_plan_id":"free"},{"bike_id":"dfd67737-eb8c-45da-9a6a-2c8e69de4b91","system_id":"levelo_inurba_marseille","lat":43.294162,"lon":5.386292,"is_reserved":false,"is_disabled":false,"rental_uris":{"android":"levelo://app?vid=dfd67737-eb8c-45da-9a6a-2c8e69de4b91","ios":"levelo://app?vid=dfd67737-eb8c-45da-9a6a-2c8e69de4b91"},"vehicle_type_id":"4","last_reported":1684591581,"current_range_meters":16800,"station_id":"ce4bh2h2rcd13ifvqdh0","pricing_plan_id":"free"},{"bike_id":"a9b59679-254f-47b3-8672-7009c4a276ac","system_id":"levelo_inurba_marseille","lat":43.294153,"lon":5.386305,"is_reserved":false,"is_disabled":false,"rental_uris":{"android":"levelo://app?vid=a9b59679-254f-47b3-8672-7009c4a276ac","ios":"levelo://app?vid=a9b59679-254f-47b3-8672-7009c4a276ac"},"vehicle_type_id":"4","last_reported":1684591581,"current_range_meters":28800,"station_id":"ce4bh2h2rcd13ifvqdh0","pricing_plan_id":"free"},{"bike_id":"cd200062-53e4-4753-bf86-c3c1a99349ca","system_id":"levelo_inurba_marseille","lat":43.29045,"lon":5.37768,"is_reserved":false,"is_disabled":false,"rental_uris":{"android":"levelo://app?vid=cd200062-53e4-4753-bf86-c3c1a99349ca","ios":"levelo://app?vid=cd200062-53e4-4753-bf86-c3c1a99349ca"},"vehicle_type_id":"4","last_reported":1684591581,"current_range_meters":22000,"station_id":"","pricing_plan_id":"free"},{"bike_id":"6150a666-dbc7-4cda-a8cb-485d0a24a127","system_id":"levelo_inurba_marseille","lat":43.292642,"lon":5.384254,"is_reserved":false,"is_disabled":false,"rental_uris":{"android":"levelo://app?vid=6150a666-dbc7-4cda-a8cb-485d0a24a127","ios":"levelo://app?vid=6150a666-dbc7-4cda-a8cb-485d0a24a127"},"vehicle_type_id":"4","last_reported":1684591581,"current_range_meters":30000,"station_id":"ce4bh692rcd13ifvqea0","pricing_plan_id":"free"},{"bike_id":"dc561eec-74b8-4a9d-8360-fde7940ea8ed","system_id":"levelo_inurba_marseille","lat":43.33037,"lon":5.38919,"is_reserved":false,"is_disabled":false,"rental_uris":{"android":"levelo://app?vid=dc561eec-74b8-4a9d-8360-fde7940ea8ed","ios":"levelo://app?vid=dc561eec-74b8-4a9d-8360-fde7940ea8ed"},"vehicle_type_id":"4","last_reported":1684591581,"current_range_meters":18400,"station_id":"ce4bhr92rcd13ifvqhrg","pricing_plan_id":"free"},{"bike_id":"96e0b596-e6f6-47a0-8171-9b893f754b00","system_id":"levelo_inurba_marseille","lat":43.3304,"lon":5.38917,"is_reserved":false,"is_disabled":false,"rental_uris":{"android":"levelo://app?vid=96e0b596-e6f6-47a0-8171-9b893f754b00","ios":"levelo://app?vid=96e0b596-e6f6-47a0-8171-9b893f754b00"},"vehicle_type_id":"4","last_reported":1684591581,"current_range_meters":14800,"station_id":"ce4bhr92rcd13ifvqhrg","pricing_plan_id":"free"},{"bike_id":"4fddac79-b8a0-47a9-9c6e-2d3755c608db","system_id":"levelo_inurba_marseille","lat":43.33041,"lon":5.38917,"is_reserved":false,"is_disabled":false,"rental_uris":{"android":"levelo://app?vid=4fddac79-b8a0-47a9-9c6e-2d3755c608db","ios":"levelo://app?vid=4fddac79-b8a0-47a9-9c6e-2d3755c608db"},"vehicle_type_id":"4","last_reported":1684591581,"current_range_meters":18800,"station_id":"ce4bhr92rcd13ifvqhrg","pricing_plan_id":"free"},{"bike_id":"8781731e-f833-46a4-bb91-30f8e336c4dc","system_id":"levelo_inurba_marseille","lat":43.33041,"lon":5.38919,"is_reserved":false,"is_disabled":false,"rental_uris":{"android":"levelo://app?vid=8781731e-f833-46a4-bb91-30f8e336c4dc","ios":"levelo://app?vid=8781731e-f833-46a4-bb91-30f8e336c4dc"},