{"last_updated":1758726600,"ttl":60,"version":"2.2","data":{"bikes":[{"bike_id":"bd6039c4-f1ab-4292-b245-e38e78f9ce3d","system_id":"levelo_inurba_marseille","lat":43.3302,"lon":5.39044,"is_reserved":false,"is_disabled":true,"rental_uris":{"android":"levelo://app?vid=bd6039c4-f1ab-4292-b245-e38e78f9ce3d","ios":"levelo://app?vid=bd6039c4-f1ab-4292-b245-e38e78f9ce3d"},"vehicle_type_id":"4","last_reported":1758726600,"current_range_meters":2800,"station_id":"ce4bhr92rcd13ifvqhrg","pricing_plan_id":"cebpf4jnsgd1na2vs0mg"},{"bike_id":"c3b15ac0-c9fd-44af-8489-46eecf5e02d1","system_id":"levelo_inurba_marseille","lat":43.29628,"lon":5.37737,"is_reserved":false,"is_disabled":false,"rental_uris":{"android":"levelo://app?vid=c3b15ac0-c9fd-44af-8489-46eecf5e02d1","ios":"levelo://app?vid=c3b15ac0-c9fd-44af-8489-46eecf5e02d1"},"vehicle_type_id":"4","last_reported":1758726600,"current_range_meters":2800,"station_id":"ce4bgi92rcd13ifvqb90","pricing_plan_id":"cebpf4jnsgd1na2vs0mg"},{"bike_id":"a9e1728c-b865-4e94-b94d-c113672d0c36","system_id":"levelo_inurba_marseille","lat":43.28075,"lon":5.39665,"is_reserved":false,"is_disabled":false,"rental_uris":{"android":"levelo://app?vid=a9e1728c-b865-4e94-b94d-c113672d0c36","ios":"levelo://app?vid=a9e1728c-b865-4e94-b94d-c113672d0c36"},"vehicle_type_id":"4","last_reported":1758726600,"current_range_meters":3200,"station_id":"ce4bho12rcd13ifvqh2g","pricing_plan_id":"cebpf4jnsgd1na2vs0mg"},{"bike_id":"213937f4-0cd9-48b8-9d64-0b73c37bc721","system_id":"levelo_inurba_marseille","lat":43.29558,"lon":5.38174,"is_reserved":false,"is_disabled":false,"rental_uris":{"android":"levelo://app?vid=213937f4-0cd9-48b8-9d64-0b73c37bc721","ios":"levelo://app?vid=213937f4-0cd9-48b8-9d64-0b73c37bc721"},"vehicle_type_id":"4","last_reported":1758726600,"current_range_meters":3200,"station_id":"","pricing_plan_id":"cebpf4jnsgd1na2vs0mg"},{"bike_id":"d25fe0ce-95ac-44cd-adb6-9b477cfcb65f","system_id":"levelo_inurba_marseille","lat":43.225364,"lon":5.348375,"is_reserved":false,"is_disabled":false,"rental_uris":{"android":"levelo://app?vid=d25fe0ce-95ac-44cd-adb6-9b477cfcb65f","ios":"levelo://app?vid=d25fe0ce-95ac-44cd-adb6-9b477cfcb65f"},"vehicle_type_id":"4","last_reported":1758726600,"current_range_meters":3200,"station_id":"","pricing_plan_id":"cebpf4jnsgd1na2vs0mg"},{"bike_id":"b4a6d33f-f0fe-4a6c-a514-03d5538a5587","system_id":"levelo_inurba_marseille","lat":43.30135,"lon":5.39852,"is_reserved":false,"is_disabled":false,"rental_uris":{"android":"levelo://app?vid=b4a6d33f-f0fe-4a6c-a514-03d5538a5587","ios":"levelo://app?vid=b4a6d33f-f0fe-4a6c-a514-03d5538a5587"},"vehicle_type_id":"4","last_reported":1758726600,"current_range_meters":3200,"station_id":"ce4bh0h2rcd13ifvqd40","pricing_plan_id":"cebpf4jnsgd1na2vs0mg"},{"bike_id":"0a1ab1a5-b85e-4ac3-936e-fe171b7ebe82","system_id":"levelo_inurba_marseille","lat":43.296295,"lon":5.381289,"is_reserved":false,"is_disabled":false,"rental_uris":{"android":"levelo://app?vid=0a1ab1a5-b85e-4ac3-936e-fe171b7ebe82","ios":"levelo://app?vid=0a1ab1a5-b85e-4ac3-936e-fe171b7ebe82"},"vehicle_type_id":"4","last_reported":1758726600,"current_range_meters":3600,"station_id":"","pricing_plan_id":"cebpf4jnsgd1na2vs0mg"},{"bike_id":"2f22d421-11af-4253-95f9-34ebccc6843a","system_id":"levelo_inurba_marseille","lat":43.28952,"lon":5.36401,"is_reserved":false,"is_disabled":false,"rental_uris":{"android":"levelo://app?vid=2f22d421-11af-4253-95f9-34ebccc6843a","ios":"levelo://app?vid=2f22d421-11af-4253-95f9-34ebccc6843a"},"vehicle_type_id":"4","last_reported":1758726600,"current_range_meters":3600,"station_id":"ce4bhc92rcd13ifvqetg","pricing_plan_id":"cebpf4jnsgd1na2vs0mg"},{"bike_id":"aa9dbcf0-f58f-492f-b049-d4782521fbaa","system_id":"levelo_inurba_marseille","lat":43.30464,"lon":5.37913,"is_reserved":false,"is_disabled":false,"rental_uris":{"android":"levelo://app?vid=aa9dbcf0-f58f-492f-b049-d4782521fbaa","ios":"levelo://app?vid=aa9dbcf0-f58f-492f-b049-d4782521fbaa"},"vehicle_type_id":"4","last_reported":1758726600,"current_range_meters":3600,"station_id":"ce4bgup2rcd13ifvqcn0","pricing_plan_id":"cebpf4jnsgd1na2vs0mg"},{"bike_id":"eaf5366a-1d2e-40d7-a2b6-c1bd893bcdc1","system_id":"levelo_inurba_marseille","lat":43.279765,"lon":5.387432,"is_reserved":false,"is_disabled":false,"rental_uris":{"android":"levelo://app?vid=eaf5366a-1d2e-40d7-a2b6-c1bd893bcdc1","ios":"levelo://app?vid=eaf5366a-1d2e-40d7-a2b6-c1bd893bcdc1"},"vehicle_type_id":"4","last_reported":1758726600,"current_range_meters":1200,"station_id":"ce4bhg12rcd13ifvqf80","pricing_plan_id":"cebpf4jnsgd1na2vs0mg"},{"bike_id":"cb7b1582-a9dd-45ed-b21f-4ae5ca2389c1","system_id":"levelo_inurba_marseille","lat":43.25494,"lon":5.37646,"is_reserved":false,"is_disabled":false,"rental_uris":{"android":"levelo://app?vid=cb7b1582-a9dd-45ed-b21f-4ae5ca2389c1","ios":"levelo://app?vid=cb7b1582-a9dd-45ed-b21f-4ae5ca2389c1"},"vehicle_type_id":"4","last_reported":1758726600,"current_range_meters":4000,"station_id":"ce4bhh12rcd13ifvqff0","pricing_plan_id":"cebpf4jnsgd1na2vs0mg"},{"bike_id":"7c9945fa-0867-4be8-a9f5-968f61e37b49","system_id":"levelo_inurba_marseille","lat":43.24544,"lon":5.39527,"is_reserved":false,"is_disabled":false,"rental_uris":{"android":"levelo://app?vid=7c9945fa-0867-4be8-a9f5-968f61e37b49","ios":"levelo://app?vid=7c9945fa-0867-4be8-a9f5-968f61e37b49"},"vehicle_type_id":"4","last_reported":1758726600,"current_range_meters":4000,"station_id":"ce4bhlp2rcd13ifvqgjg","pricing_plan_id":"cebpf4jnsgd1na2vs0mg"},{"bike_id":"1efddf8d-578f-4e4c-8c3f-e3a8bd592ba4","system_id":"levelo_inurba_marseille","lat":43.29974,"lon":5.37389,"is_reserved":false,"is_disabled":false,"rental_uris":{"android":"levelo://app?vid=1efddf8d-578f-4e4c-8c3f-e3a8bd592ba4","ios":"levelo://app?vid=1efddf8d-578f-4e4c-8c3f-e3a8bd592ba4"},"vehicle_type_id":"4","last_reported":1758726600,"current_range_meters":4400,"station_id":"","pricing_plan_id":"cebpf4jnsgd1na2vs0mg"},{"bike_id":"4faec963-1ecc-4e3d-b8ad-6afefe0f68f5","system_id":"levelo_inurba_marseille","lat":43.29271,"lon":5.38452,"is_reserved":false,"is_disabled":false,"rental_uris":{"android":"levelo://app?vid=4faec963-1ecc-4e3d-b8ad-6afefe0f68f5","ios":"levelo://app?vid=4faec963-1ecc-4e3d-b8ad-6afefe0f68f5"},"vehicle_type_id":"4","last_reported":1758726600,"current_range_meters":4400,"station_id":"ce4bh692rcd13ifvqea0","pricing_plan_id":"cebpf4jnsgd1na2vs0mg"},{"bike_id":"cb6bf7d2-2ed1-47c4-b0a7-9c935f0ebf1a","system_id":"levelo_inurba_marseille","lat":43.26869,"lon":5.40651,"is_reserved":false,"is_disabled":false,"rental_uris":{"android":"levelo://app?vid=cb6bf7d2-2ed1-47c4-b0a7-9c935f0ebf1a","ios":"levelo://app?vid=cb6bf7d2-2ed1-47c4-b0a7-9c935f0ebf1a"},"vehicle_type_id":"4","last_reported":1758726600,"current_range_meters":4400,"station_id":"","pricing_plan_id":"cebpf4jnsgd1na2vs0mg"},{"bike_id":"82304ba4-71d4-444b-a52b-5e234edb762c","system_id":"levelo_inurba_marseille","lat":43.22945,"lon":5.35374,"is_reserved":false,"is_disabled":false,"rental_uris":{"android":"levelo://app?vid=82304ba4-71d4-444b-a52b-5e234edb762c","ios":"levelo://app?vid=82304ba4-71d4-444b-a52b-5e234edb762c"},"vehicle_type_id":"4","last_reported":1758726600,"current_range_meters":4400,"station_id":"","pricing_plan_id":"cebpf4jnsgd1na2vs0mg"},{"bike_id":"51a7f439-4849-410d-863c-c0ee8a654425","system_id":"levelo_inurba_marseille","lat":43.28724,"lon":5.3608,"is_reserved":false,"is_disabled":false,"rental_uris":{"android":"levelo://app?vid=51a7f439-4849-410d-863c-c0ee8a654425","ios":"levelo://app?vid=51a7f439-4849-410d-863c-c0ee8a654425"},"vehicle_type_id":"4","last_reported":1758726600,"current_range_meters":4800,"station_id":"cki0cbj6b192h4jlfktg","pricing_plan_id":"cebpf4jnsgd1na2vs0mg"},{"bike_id":"04932afa-4101-4616-885b-6096d525b99b","system_id":"levelo_inurba_marseille","lat":43.30105,"lon":5.39828,"is_reserved":false,"is_disabled":false,"rental_uris":{"android":"levelo://app?vid=04932afa-4101-4616-885b-6096d525b99b","ios":"levelo://app?vid=04932afa-4101-4616-885b-6096d525b99b"},"vehicle_type_id":"4","last_reported":1758726600,"current_range_meters":4800,"station_id":"ce4bh0h2rcd13ifvqd40","pricing_plan_id":"cebpf4jnsgd1na2vs0mg"},{"bike_id":"377b02c5-3c44-4276-8dd3-8b1d9caab308","system_id":"levelo_inurba_marseille","lat":43.29018,"lon":5.38136,"is_reserved":false,"is_disabled":false,"rental_uris":{"android":"levelo://app?vid=377b02c5-3c44-4276-8dd3-8b1d9caab308","ios":"levelo://app?vid=377b02c5-3c44-4276-8dd3-8b1d9caab308"},"vehicle_type_id":"4","last_reported":1758726600,"current_range_meters":4800,"station_id":"ce4bh4p2rcd13ifvqe1g","pricing_plan_id":"cebpf4jnsgd1na2vs0mg"},{"bike_id":"642c0d83-6a95-4f87-86b9-a4d2853229d9","system_id":"levelo_inurba_marseille","lat":43.29335,"lon":5.40603,"is_reserved":false,"is_disabled":false,"rental_uris":{"android":"levelo://app?vid=642c0d83-6a95-4f87-86b9-a4d2853229d9","ios":"levelo://app?vid=642c0d83-6a95-4f87-86b9-a4d2853229d9"},"vehicle_type_id":"4","last_reported":1758726600,"current_range_meters":4800,"station_id":"","pricing_plan_id":"cebpf4jnsgd1na2vs0mg"},{"bike_id":"78d96fb7-86be-4108-8224-ead0d21b203f","system_id":"levelo_inurba_marseille","lat":43.308,"lon":5.38156,"is_reserved":false,"is_disabled":false,"rental_uris":{"android":"levelo://app?vid=78d96fb7-86be-4108-8224-ead0d21b203f","ios":"levelo://app?vid=78d96fb7-86be-4108-8224-ead0d21b203f"},"vehicle_type_id":"4","last_reported":1758726600,"current_range_meters":5600,"station_id":"ce4bgt12rcd13ifvqce0","pricing_plan_id":"cebpf4jnsgd1na2vs0mg"},{"bike_id":"962b15bf-a341-4469-9450-c0428eb337e2","system_id":"levelo_inurba_marseille","lat":43.23118,"lon":5.43707,"is_reserved":false,"is_disabled":true,"rental_uris":{"android":"levelo://app?vid=962b15bf-a341-4469-9450-c0428eb337e2","ios":"levelo://app?vid=962b15bf-a341-4469-9450-c0428eb337e2"},"vehicle_type_id":"4","last_reported":1758726600,"current_range_meters":5600,"station_id":"ce4bhmp2rcd13ifvqgog","pricing_plan_id":"cebpf4jnsgd1na2vs0mg"},{"bike_id":"8d086ca4-e944-45de-9b40-9f669a480e1a","system_id":"levelo_inurba_marseille","lat":43.29781,"lon":5.39344,"is_reserved":false,"is_disabled":false,"rental_uris":{"android":"levelo://app?vid=8d086ca4-e944-45de-9b40-9f669a480e1a","ios":"levelo://app?vid=8d086ca4-e944-45de-9b40-9f669a480e1a"},"vehicle_type_id":"4","last_reported":1758726600,"current_range_meters":5600,"station_id":"chh1huq6cuj3fo74tm60","pricing_plan_id":"cebpf4jnsgd1na2vs0mg"},{"bike_id":"58db902b-14c1-4168-8bb0-49941b4f9b4c","system_id":"levelo_inurba_marseille","lat":43.33025,"lon":5.39049,"is_reserved":false,"is_disabled":false,"rental_uris":{"android":"levelo://app?vid=58db902b-14c1-4168-8bb0-49941b4f9b4c","ios":"levelo://app?vid=58db902b-14c1-4168-8bb0-49941b4f9b4c"},"vehicle_type_id":"4","last_reported":1758726600,"current_range_meters":5600,"station_id":"ce4bhr92rcd13ifvqhrg","pricing_plan_id":"cebpf4jnsgd1na2vs0mg"},{"bike_id":"b8d00a57-c220-463e-9e93-303b3b4cfd27","system_id":"levelo_inurba_marseille","lat":43.2741,"lon":5.39406,"is_reserved":false,"is_disabled":false,"rental_uris":{"android":"levelo://app?vid=b8d00a57-c220-463e-9e93-303b3b4cfd27","ios":"levelo://app?vid=b8d00a57-c220-463e-9e93-303b3b4cfd27"},"vehicle_type_id":"4","last_reported":1758726600,"current_range_meters":5600,"station_id":"ce4bhdp2rcd13ifvqf20","pricing_plan_id":"cebpf4jnsgd1na2vs0mg"},{"bike_id":"563ae156-2a03-4145-b787-efb33acc2d96","system_id":"levelo_inurba_marseille","lat":43.31686,"lon":5.40474,"is_reserved":false,"is_disabled":false,"rental_uris":{"android":"levelo://app?vid=563ae156-2a03-4145-b787-efb33acc2d96","ios":"levelo://app?vid=563ae156-2a03-4145-b787-efb33acc2d96"},"vehicle_type_id":"4","last_reported":1758726600,"current_range_meters":5600,"station_id":"ce4bh012rcd13ifvqd00","pricing_plan_id":"cebpf4jnsgd1na2vs0mg"},{"bike_id":"65ff7474-e4e9-456d-a6a3-8280959ad533","system_id":"levelo_inurba_marseille","lat":43.30887,"lon":5.39655,"is_reserved":false,"is_disabled":false,"rental_uris":{"android":"levelo://app?vid=65ff7474-e4e9-456d-a6a3-8280959ad533","ios":"levelo://app?vid=65ff7474-e4e9-456d-a6a3-8280959ad533"},"vehicle_type_id":"4","last_reported":1758726600,"current_range_meters":6000,"station_id":"ce4bh012rcd13ifvqcv0","pricing_plan_id":"cebpf4jnsgd1na2vs0mg"},{"bike_id":"3865fac2-28b7-4541-94c5-e2e2dd9139ae","system_id":"levelo_inurba_marseille","lat":43.2796,"lon":5.38746,"is_reserved":false,"is_disabled":false,"rental_uris":{"android":"levelo://app?vid=3865fac2-28b7-4541-94c5-e2e2dd9139ae","ios":"levelo://app?vid=3865fac2-28b7-4541-94c5-e2e2dd9139ae"},"vehicle_type_id":"4","last_reported":1758726600,"current_range_meters":6000,"station_id":"ce4bhg12rcd13ifvqf80","pricing_plan_id":"cebpf4jnsgd1na2vs0mg"},{"bike_id":"286ed924-3e53-4bef-9937-d0341fc1ac37","system_id":"levelo_inurba_marseille","lat":43.28672,"lon":5.38669,"is_reserved":false,"is_disabled":false,"rental_uris":{"android":"levelo://app?vid=286ed924-3e53-4bef-9937-d0341fc1ac37","ios":"levelo://app?vid=286ed924-3e53-4bef-9937-d0341fc1ac37"},"vehicle_type_id":"4","last_reported":1758726600,"current_range_meters":6400,"station_id":"ce4bh492rcd13ifvqdug","pricing_plan_id":"cebpf4jnsgd1na2vs0mg"},{"bike_id":"939538dc-20bd-4d94-8a10-8e1e0a179bc7","system_id":"levelo_inurba_marseille","lat":43.32966,"lon":5.40744,"is_reserved":false,"is_disabled":false,"rental_uris":{"android":"levelo://app?vid=939538dc-20bd-4d94-8a10-8e1e0a179bc7","ios":"levelo://app?vid=939538dc-20bd-4d94-8a10-8e1e0a179bc7"},"vehicle_type_id":"4","last_reported":1758726600,"current_range_meters":6400,"station_id":"","pricing_plan_id":"cebpf4jnsgd1na2vs0mg"},{"bike_id":"b8b4fbe1-3e43-4507-978f-e8f0f46b28b1","system_id":"levelo_inurba_marseille","lat":43.24956,"lon":5.40488,"is_reserved":false,"is_disabled":false,"rental_uris":{"android":"levelo://app?vid=b8b4fbe1-3e43-4507-978f-e8f0f46b28b1","ios":"levelo://app?vid=b8b4fbe1-3e43-4507-978f-e8f0f46b28b1"},"vehicle_type_id":"4","last_reported":1758726600,"current_range_meters":6400,"station_id":"st_d2ngiaodas8pm72gd1h0","pricing_plan_id":"cebpf4jnsgd1na2vs0mg"},{"bike_id":"355e741c-878f-4775-9222-3a4d87cf17a7","system_id":"levelo_inurba_marseille","lat":43.246684,"lon":5.381706,"is_reserved":false,"is_disabled":true,"rental_uris":{"android":"levelo://app?vid=355e741c-878f-4775-9222-3a4d87cf17a7","ios":"levelo://app?vid=355e741c-878f-4775-9222-3a4d87cf17a7"},"vehicle_type_id":"4","last_reported":1758726600,"current_range_meters":6400,"station_id":"ce4bhih2rcd13ifvqfr0","pricing_plan_id":"cebpf4jnsgd1na2vs0mg"},{"bike_id":"dacd1f16-0335-4623-853a-616ea9b6aecd","system_id":"levelo_inurba_marseille","lat":43.29522,"lon":5.39057,"is_reserved":false,"is_disabled":false,"rental_uris":{"android":"levelo://app?vid=dacd1f16-0335-4623-853a-616ea9b6aecd","ios":"levelo://app?vid=dacd1f16-0335-4623-853a-616ea9b6aecd"},"vehicle_type_id":"4","last_reported":1758726600,"current_range_meters":6000,"station_id":"ce4bh3p2rcd13ifvqdp0","pricing_plan_id":"cebpf4jnsgd1na2vs0mg"},{"bike_id":"c95e0c05-dd94-491f-8092-9c7978400114","system_id":"levelo_inurba_marseille","lat":43.335041,"lon":5.362359,"is_reserved":false,"is_disabled":false,"rental_uris":{"android":"levelo://app?vid=c95e0c05-dd94-491f-8092-9c7978400114","ios":"levelo://app?vid=c95e0c05-dd94-491f-8092-9c7978400114"},"vehicle_type_id":"4","last_reported":1758726600,"current_range_meters":6800,"station_id":"ce4bhs12rcd13ifvqhvg","pricing_plan_id":"cebpf4jnsgd1na2vs0mg"},{"bike_id":"0826a7cc-d1c4-4ffb-bdf1-9f8fd1e59321","system_id":"levelo_inurba_marseille","lat":43.28572,"lon":5.39488,"is_reserved":false,"is_disabled":false,"rental_uris":{"android":"levelo://app?vid=0826a7cc-d1c4-4ffb-bdf1-9f8fd1e59321","ios":"levelo://app?vid=0826a7cc-d1c4-4ffb-bdf1-9f8fd1e59321"},"vehicle_type_id":"4","last_reported":1758726600,"current_range_meters":6800,"station_id":"ce4bh292rcd13ifvqdg0","pricing_plan_id":"cebpf4jnsgd1na2vs0mg"},{"bike_id":"42d22dad-0a9d-4ec1-b43e-5dfe53a5d83c","system_id":"levelo_inurba_marseille","lat":43.27173,"lon":5.40991,"is_reserved":false,"is_disabled":false,"rental_uris":{"android":"levelo://app?vid=42d22dad-0a9d-4ec1-b43e-5dfe53a5d83c","ios":"levelo://app?vid=42d22dad-0a9d-4ec1-b43e-5dfe53a5d83c"},"vehicle_type_id":"4","last_reported":1758726600,"current_range_meters":6800,"station_id":"ce4bhl12rcd13ifvqgf0","pricing_plan_id":"cebpf4jnsgd1na2vs0mg"},{"bike_id":"437a501b-857f-4d4f-9a17-25ecd05bb635","system_id":"levelo_inurba_marseille","lat":43.27381,"lon":5.36242,"is_reserved":false,"is_disabled":false,"rental_uris":{"android":"levelo://app?vid=437a501b-857f-4d4f-9a17-25ecd05bb635","ios":"levelo://app?vid=437a501b-857f-4d4f-9a17-25ecd05bb635"},"vehicle_type_id":"4","last_reported":1758726600,"current_range_meters":7200,"station_id":"ce4bhbh2rcd13ifvqeo0","pricing_plan_id":"cebpf4jnsgd1na2vs0mg"},{"bike_id":"28fe443f-7a9f-4e7a-b1e2-1fdc28d5f5f3","system_id":"levelo_inurba_marseille","lat":43.23153,"lon":5.43718,"is_reserved":false,"is_disabled":false,"rental_uris":{"android":"levelo://app?vid=28fe443f-7a9f-4e7a-b1e2-1fdc28d5f5f3","ios":"levelo://app?vid=28fe443f-7a9f-4e7a-b1e2-1fdc28d5f5f3"},"vehicle_type_id":"4","last_reported":1758726600,"current_range_meters":7200,"station_id":"ce4bhmp2rcd13ifvqgog","pricing_plan_id":"cebpf4jnsgd1na2vs0mg"},{"bike_id":"cc712d3c-f9a2-4a52-83e5-c65200bdd3e0","system_id":"levelo_inurba_marseille","lat":43.23071,"lon":5.35487,"is_reserved":false,"is_disabled":false,"rental_uris":{"android":"levelo://app?vid=cc712d3c-f9a2-4a52-83e5-c65200bdd3e0","ios":"levelo://app?vid=cc712d3c-f9a2-4a52-83e5-c65200bdd3e0"},"vehicle_type_id":"4","last_reported":1758726600,"current_range_meters":7200,"station_id":"cpo3342slgdg3j2ifvpg","pricing_plan_id":"cebpf4jnsgd1na2vs0mg"},{"bike_id":"314600e1-8c06-48d8-93b2-0e07b118a015","system_id":"levelo_inurba_marseille","lat":43.21193,"lon":5.35076,"is_reserved":false,"is_disabled":false,"rental_uris":{"android":"levelo://app?vid=314600e1-8c06-48d8-93b2-0e07b118a015","ios":"levelo://app?vid=314600e1-8c06-48d8-93b2-0e07b118a015"},"vehicle_type_id":"4","last_reported":1758726600,"current_range_meters":7200,"station_id":"st_cvj6sg6p6f1abm77japg","pricing_plan_id":"cebpf4jnsgd1na2vs0mg"},{"bike_id":"addc1ce2-d1a6-4ae9-805d-00c5a9558322","system_id":"levelo_inurba_marseille","lat":43.29015,"lon":5.38135,"is_reserved":false,"is_disabled":false,"rental_uris":{"android":"levelo://app?vid=addc1ce2-d1a6-4ae9-805d-00c5a9558322","ios":"levelo://app?vid=addc1ce2-d1a6-4ae9-805d-00c5a9558322"},"vehicle_type_id":"4","last_reported":1758726600,"current_range_meters":7200,"station_id":"ce4bh4p2rcd13ifvqe1g","pricing_plan_id":"cebpf4jnsgd1na2vs0mg"},{"bike_id":"6f340c1b-ef55-49a7-be3d-93df20afb31d","system_id":"levelo_inurba_marseille","lat":43.30305,"lon":5.36904,"is_reserved":false,"is_disabled":false,"rental_uris":{"android":"levelo://app?vid=6f340c1b-ef55-49a7-be3d-93df20afb31d","ios":"levelo://app?vid=6f340c1b-ef55-49a7-be3d-93df20afb31d"},"vehicle_type_id":"4","last_reported":1758726600,"current_range_meters":8000,"station_id":"ce4bgqh2rcd13ifvqc5g","pricing_plan_id":"cebpf4jnsgd1na2vs0mg"},{"bike_id":"9b9f6e60-44ed-495e-9ae6-3538ea35964d","system_id":"levelo_inurba_marseille","lat":43.25002,"lon":5.38928,"is_reserved":false,"is_disabled":false,"rental_uris":{"android":"levelo://app?vid=9b9f6e60-44ed-495e-9ae6-3538ea35964d","ios":"levelo://app?vid=9b9f6e60-44ed-495e-9ae6-3538ea35964d"},"vehicle_type_id":"4","last_reported":1758726600,"current_range_meters":12800,"station_id":"ce4bhgp2rcd13ifvqfd0","pricing_plan_id":"cebpf4jnsgd1na2vs0mg"},{"bike_id":"5697a0d5-ba60-49ac-868b-7b4126300be1","system_id":"levelo_inurba_marseille","lat":43.29265,"lon":5.38436,"is_reserved":false,"is_disabled":false,"rental_uris":{"android":"levelo://app?vid=5697a0d5-ba60-49ac-868b-7b4126300be1","ios":"levelo://app?vid=5697a0d5-ba60-49ac-868b-7b4126300be1"},"vehicle_type_id":"4","last_reported":1758726600,"current_range_meters":8000,"station_id":"ce4bh692rcd13ifvqea0","pricing_plan_id":"cebpf4jnsgd1na2vs0mg"},{"bike_id":"b8d348e8-2a48-4432-bd21-7f0845e52b98","system_id":"levelo_inurba_marseille","lat":43.29263,"lon":5.40905,"is_reserved":false,"is_disabled":false,"rental_uris":{"android":"levelo://app?vid=b8d348e8-2a48-4432-bd21-7f0845e52b98","ios":"levelo://app?vid=b8d348e8-2a48-4432-bd21-7f0845e52b98"},"vehicle_type_id":"4","last_reported":1758726600,"current_range_meters":8000,"station_id":"ce4bh192rcd13ifvqdc0","pricing_plan_id":"cebpf4jnsgd1na2vs0mg"},{"bike_id":"56ea1ec7-493b-4831-9aa4-75c634a3d1b4","system_id":"levelo_inurba_marseille","lat":43.31128,"lon":5.3776,"is_reserved":false,"is_disabled":false,"rental_uris":{"android":"levelo://app?vid=56ea1ec7-493b-4831-9aa4-75c634a3d1b4","ios":"levelo://app?vid=56ea1ec7-493b-4831-9aa4-75c634a3d1b4"},"vehicle_type_id":"4","last_reported":1758726600,"current_range_meters":8400,"station_id":"ce4bgt92rcd13ifvqcg0","pricing_plan_id":"cebpf4jnsgd1na2vs0mg"},{"bike_id":"9e4189fd-0fea-4e66-bcb9-09b869406e3f","system_id":"levelo_inurba_marseille","lat":43.255798,"lon":5.382336,"is_reserved":false,"is_disabled":false,"rental_uris":{"android":"levelo://app?vid=9e4189fd-0fea-4e66-bcb9-09b869406e3f","ios":"levelo://app?vid=9e4189fd-0fea-4e66-bcb9-09b869406e3f"},"vehicle_type_id":"4","last_reported":1758726600,"current_range_meters":8400,"station_id":"ce4bhih2rcd13ifvqfs0","pricing_plan_id":"cebpf4jnsgd1na2vs0mg"},{"bike_id":"c1c5f29e-e39c-4935-83ad-3e33e5597d98","system_id":"levelo_inurba_marseille","lat":43.29185,"lon":5.3932,"is_reserved":false,"is_disabled":false,"rental_uris":{"android":"levelo://app?vid=c1c5f29e-e39c-4935-83ad-3e33e5597d98","ios":"levelo://app?vid=c1c5f29e-e39c-4935-83ad-3e33e5597d98"},"vehicle_type_id":"4","last_reported":1758726600,"current_range_meters":8400,"station_id":"ce4bh192rcd13ifvqdd0","pricing_plan_id":"cebpf4jnsgd1na2vs0mg"},{"bike_id":"22e0b0d6-ac16-490a-9aa9-43b43e44a1bc","system_id":"levelo_inurba_marseille","lat":43.24806,"lon":5.37457,"is_reserved":false,"is_disabled":false,"rental_uris":{"android":"levelo://app?vid=22e0b0d6-ac16-490a-9aa9-43b43e44a1bc","ios":"levelo://app?vid=22e0b0d6-ac16-490a-9aa9-43b43e44a1bc"},"vehicle_type_id":"4","last_reported":1758726600,"current_range_meters":8800,"station_id":"ce4bhgh2rcd13ifvqfb0","pricing_plan_id":"cebpf4jnsgd1na2vs0mg"},{"bike_id":"519cac12-1f51-4326-9769-c2f1797af1aa","system_id":"levelo_inurba_marseille","lat":43.30913,"lon":5.36818,"is_reserved":false,"is_disabled":false,"rental_uris":{"android":"levelo://app?vid=519cac12-1f51-4326-9769-c2f1797af1aa","ios":"levelo://app?vid=519cac12-1f51-4326-9769-c2f1797af1aa"},"vehicle_type_id":"4","last_reported":1758726600,"current_range_meters":8800,"station_id":"ce4bgn92rcd13ifvqbvg","pricing_plan_id":"cebpf4jnsgd1na2vs0mg"},{"bike_id":"5f7a5080-e77c-4892-a096-c578510b27d0","system_id":"levelo_inurba_marseille","lat":43.27947,"lon":5.41031,"is_reserved":false,"is_disabled":false,"rental_uris":{"android":"levelo://app?vid=5f7a5080-e77c-4892-a096-c578510b27d0","ios":"levelo://app?vid=5f7a5080-e77c-4892-a096-c578510b27d0"},"vehicle_type_id":"4","last_reported":1758726600,"current_range_meters":9200,"station_id":"ce4bhnp2rcd13ifvqh0g","pricing_plan_id":"cebpf4jnsgd1na2vs0mg"},{"bike_id":"4ce67155-9f15-4130-9400-f86685d8ecda","system_id":"levelo_inurba_marseille","lat":43.2977,"lon":5.36531,"is_reserved":false,"is_disabled":false,"rental_uris":{"android":"levelo://app?vid=4ce67155-9f15-4130-9400-f86685d8ecda","ios":"levelo://app?vid=4ce67155-9f15-4130-9400-f86685d8ecda"},"vehicle_type_id":"4","last_reported":1758726600,"current_range_meters":9200,"station_id":"","pricing_plan_id":"cebpf4jnsgd1na2vs0mg"},{"bike_id":"0ffe6ef2-8a0e-4c50-8795-1f6610db39a6","system_id":"levelo_inurba_marseille","lat":43.32293,"lon":5.3827,"is_reserved":false,"is_disabled":false,"rental_uris":{"android":"levelo://app?vid=0ffe6ef2-8a0e-4c50-8795-1f6610db39a6","ios":"levelo://app?vid=0ffe6ef2-8a0e-4c50-8795-1f6610db39a6"},"vehicle_type_id":"4","last_reported":1758726600,"current_range_meters":9200,"station_id":"ce4bhr12rcd13ifvqhqg","pricing_plan_id":"cebpf4jnsgd1na2vs0mg"},{"bike_id":"9c4a7bdb-c552-4dfd-8efb-40b9e0b0b147","system_id":"levelo_inurba_marseille","lat":43.30917,"lon":5.36754,"is_reserved":false,"is_disabled":false,"rental_uris":{"android":"levelo://app?vid=9c4a7bdb-c552-4dfd-8efb-40b9e0b0b147","ios":"levelo://app?vid=9c4a7bdb-c552-4dfd-8efb-40b9e0b0b147"},"vehicle_type_id":"4","last_reported":1758726600,"current_range_meters":9200,"station_id":"","pricing_plan_id":"cebpf4jnsgd1na2vs0mg"},{"bike_id":"7c0482c3-9253-4d1b-b4f3-be55cdb7721d","system_id":"levelo_inurba_marseille","lat":43.33757,"lon":5.37466,"is_reserved":false,"is_disabled":false,"rental_uris":{"android":"levelo://app?vid=7c0482c3-9253-4d1b-b4f3-be55cdb7721d","ios":"levelo://app?vid=7c0482c3-9253-4d1b-b4f3-be55cdb7721d"},"vehicle_type_id":"4","last_reported":1758726600,"current_range_meters":9600,"station_id":"","pricing_plan_id":"cebpf4jnsgd1na2vs0mg"},{"bike_id":"e19451c6-d36e-4cfa-92d5-c518c96c82d3","system_id":"levelo_inurba_marseille","lat":43.298469,"lon":5.374151,"is_reserved":false,"is_disabled":false,"rental_uris":{"android":"levelo://app?vid=e19451c6-d36e-4cfa-92d5-c518c96c82d3","ios":"levelo://app?vid=e19451c6-d36e-4cfa-92d5-c518c96c82d3"},"vehicle_type_id":"4","last_reported":1758726600,"current_range_meters":12400,"station_id":"ce4bgjh2rcd13ifvqbg0","pricing_plan_id":"cebpf4jnsgd1na2vs0mg"},{"bike_id":"71bea496-a76a-4d41-a5ec-9d52018fc0e3","system_id":"levelo_inurba_marseille","lat":43.32058,"lon":5.41523,"is_reserved":false,"is_disabled":false,"rental_uris":{"android":"levelo://app?vid=71bea496-a76a-4d41-a5ec-9d52018fc0e3","ios":"levelo://app?vid=71bea496-a76a-4d41-a5ec-9d52018fc0e3"},"vehicle_type_id":"4","last_reported":1758726600,"current_range_meters":9600,"station_id":"ce4bhq92rcd13ifvqhkg","pricing_plan_id":"cebpf4jnsgd1na2vs0mg"},{"bike_id":"bf195bca-e39c-430a-ab0d-d6a5832b9aa1","system_id":"levelo_inurba_marseille","lat":43.25118,"lon":5.4031,"is_reserved":false,"is_disabled":false,"rental_uris":{"android":"levelo://app?vid=bf195bca-e39c-430a-ab0d-d6a5832b9aa1","ios":"levelo://app?vid=bf195bca-e39c-430a-ab0d-d6a5832b9aa1"},"vehicle_type_id":"4","last_reported":1758726600,"current_range_meters":9600,"station_id":"ce4bhlh2rcd13ifvqgig","pricing_plan_id":"cebpf4jnsgd1na2vs0mg"},{"bike_id":"37575984-4cde-486c-9de4-e975e74940cb","system_id":"levelo_inurba_marseille","lat":43.28104,"lon":5.37832,"is_reserved":false,"is_disabled":false,"rental_uris":{"android":"levelo://app?vid=37575984-4cde-486c-9de4-e975e74940cb","ios":"levelo://app?vid=37575984-4cde-486c-9de4-e975e74940cb"},"vehicle_type_id":"4","last_reported":1758726600,"current_range_meters":9600,"station_id":"ce4bha12rcd13ifvqee0","pricing_plan_id":"cebpf4jnsgd1na2vs0mg"},{"bike_id":"7f74007b-a8b2-4387-94dd-22ac5767bf51","system_id":"levelo_inurba_marseille","lat":43.22557,"lon":5.41639,"is_reserved":false,"is_disabled":false,"rental_uris":{"android":"levelo://app?vid=7f74007b-a8b2-4387-94dd-22ac5767bf51","ios":"levelo://app?vid=7f74007b-a8b2-4387-94dd-22ac5767bf51"},"vehicle_type_id":"4","last_reported":1758726600,"current_range_meters":9600,"station_id":"st_d2o4gvlbi1j2169b742g","pricing_plan_id":"cebpf4jnsgd1na2vs0mg"},{"bike_id":"43d57fd4-047e-4ac8-97e5-ec9b96239472","system_id":"levelo_inurba_marseille","lat":43.33231,"lon":5.39821,"is_reserved":false,"is_disabled":false,"rental_uris":{"android":"levelo://app?vid=43d57fd4-047e-4ac8-97e5-ec9b96239472","ios":"levelo://app?vid=43d57fd4-047e-4ac8-97e5-ec9b96239472"},"vehicle_type_id":"4","last_reported":1758726600,"current_range_meters":9600,"station_id":"","pricing_plan_id":"cebpf4jnsgd1na2vs0mg"},{"bike_id":"4cdfebf9-c2c8-404e-9ebc-1917e140bc29","system_id":"levelo_inurba_marseille","lat":43.29827,"lon":5.38086,"is_reserved":false,"is_disabled":false,"rental_uris":{"android":"levelo://app?vid=4cdfebf9-c2c8-404e-9ebc-1917e140bc29","ios":"levelo://app?vid=4cdfebf9-c2c8-404e-9ebc-1917e140bc29"},"vehicle_type_id":"4","last_reported":1758726600,"current_range_meters":9600,"station_id":"ce4bgip2rcd13ifvqbb0","pricing_plan_id":"cebpf4jnsgd1na2vs0mg"},{"bike_id":"faeba0ec-8c8a-4091-973a-014da8b182bc","system_id":"levelo_inurba_marseille","lat":43.27673,"lon":5.38901,"is_reserved":false,"is_disabled":true,"rental_uris":{"android":"levelo://app?vid=faeba0ec-8c8a-4091-973a-014da8b182bc","ios":"levelo://app?vid=faeba0ec-8c8a-4091-973a-014da8b182bc"},"vehicle_type_id":"4","last_reported":1758726600,"current_range_meters":10000,"station_id":"ce4bhi12rcd13ifvqfo0","pricing_plan_id":"cebpf4jnsgd1na2vs0mg"},{"bike_id":"c16ce0d3-3ca5-489a-93da-64cdf3c726a9","system_id":"levelo_inurba_marseille","lat":43.28998,"lon":5.35616,"is_reserved":false,"is_disabled":false,"rental_uris":{"android":"levelo://app?vid=c16ce0d3-3ca5-489a-93da-64cdf3c726a9","ios":"levelo://app?vid=c16ce0d3-3ca5-489a-93da-64cdf3c726a9"},"vehicle_type_id":"4","last_reported":1758726600,"current_range_meters":10000,"station_id":"ce4bhb92rcd13ifvqen0","pricing_plan_id":"cebpf4jnsgd1na2vs0mg"},{"bike_id":"0b7900ab-5245-46c5-8303-a949738c0b66","system_id":"levelo_inurba_marseille","lat":43.286628,"lon":5.363492,"is_reserved":false,"is_disabled":false,"rental_uris":{"android":"levelo://app?vid=0b7900ab-5245-46c5-8303-a949738c0b66","ios":"levelo://app?vid=0b7900ab-5245-46c5-8303-a949738c0b66"},"vehicle_type_id":"4","last_reported":1758726600,"current_range_meters":10000,"station_id":"ce4bhah2rcd13ifvqej0","pricing_plan_id":"cebpf4jnsgd1na2vs0mg"},{"bike_id":"e35dc3d8-0dfe-4bd4-87f7-5d3ca8bee4e5","system_id":"levelo_inurba_marseille","lat":43.25095,"lon":5.42608,"is_reserved":false,"is_disabled":false,"rental_uris":{"android":"levelo://app?vid=e35dc3d8-0dfe-4bd4-87f7-5d3ca8bee4e5","ios":"levelo://app?vid=e35dc3d8-0dfe-4bd4-87f7-5d3ca8bee4e5"},"vehicle_type_id":"4","last_reported":1758726600,"current_range_meters":10000,"station_id":"","pricing_plan_id":"cebpf4jnsgd1na2vs0mg"},{"bike_id":"6e533b95-4dec-42aa-a6da-d20bed0492c9","system_id":"levelo_inurba_marseille","lat":43.29262,"lon":5.40902,"is_reserved":false,"is_disabled":false,"rental_uris":{"android":"levelo://app?vid=6e533b95-4dec-42aa-a6da-d20bed0492c9","ios":"levelo://app?vid=6e533b95-4dec-42aa-a6da-d20bed0492c9"},"vehicle_type_id":"4","last_reported":1758726600,"current_range_meters":9600,"station_id":"ce4bh192rcd13ifvqdc0","pricing_plan_id":"cebpf4jnsgd1na2vs0mg"},{"bike_id":"a7894b22-77b0-4dee-88e2-34efb2ac60cd","system_id":"levelo_inurba_marseille","lat":43.29265,"lon":5.37614,"is_reserved":false,"is_disabled":true,"rental_uris":{"android":"levelo://app?vid=a7894b22-77b0-4dee-88e2-34efb2ac60cd","ios":"levelo://app?vid=a7894b22-77b0-4dee-88e2-34efb2ac60cd"},"vehicle_type_id":"4","last_reported":1758726600,"current_range_meters":10800,"station_id":"","pricing_plan_id":"cebpf4jnsgd1na2vs0mg"},{"bike_id":"ea3579c9-6e0a-422d-bf7a-6d7084b1abec","system_id":"levelo_inurba_marseille","lat":43.304301,"lon":5.389161,"is_reserved":false,"is_disabled":false,"rental_uris":{"android":"levelo://app?vid=ea3579c9-6e0a-422d-bf7a-6d7084b1abec","ios":"levelo://app?vid=ea3579c9-6e0a-422d-bf7a-6d7084b1abec"},"vehicle_type_id":"4","last_reported":1758726600,"current_range_meters":9600,"station_id":"ce4bgk12rcd13ifvqbi0","pricing_plan_id":"cebpf4jnsgd1na2vs0mg"},{"bike_id":"7981bd57-1a91-436b-8601-50130d20e8be","system_id":"levelo_inurba_marseille","lat":43.21188,"lon":5.35067,"is_reserved":false,"is_disabled":false,"rental_uris":{"android":"levelo://app?vid=7981bd57-1a91-436b-8601-50130d20e8be","ios":"levelo://app?vid=7981bd57-1a91-436b-8601-50130d20e8be"},"vehicle_type_id":"4","last_reported":1758726600,"current_range_meters":10800,"station_id":"st_cvj6sg6p6f1abm77japg","pricing_plan_id":"cebpf4jnsgd1na2vs0mg"},{"bike_id":"952ee192-a3b8-45ab-8500-8f2bd0ec787c","system_id":"levelo_inurba_marseille","lat":43.28614,"lon":5.35108,"is_reserved":false,"is_disabled":false,"rental_uris":{"android":"levelo://app?vid=952ee192-a3b8-45ab-8500-8f2bd0ec787c","ios":"levelo://app?vid=952ee192-a3b8-45ab-8500-8f2bd0ec787c"},"vehicle_type_id":"4","last_reported":1758726600,"current_range_meters":10800,"station_id":"ce4bhch2rcd13ifvqeug","pricing_plan_id":"cebpf4jnsgd1na2vs0mg"},{"bike_id":"7f9b68d8-63ad-49e6-8739-2388cf0779b8","system_id":"levelo_inurba_marseille","lat":43.26199,"lon":5.37935,"is_reserved":false,"is_disabled":false,"rental_uris":{"android":"levelo://app?vid=7f9b68d8-63ad-49e6-8739-2388cf0779b8","ios":"levelo://app?vid=7f9b68d8-63ad-49e6-8739-2388cf0779b8"},"vehicle_type_id":"4","last_reported":1758726600,"current_range_meters":10800,"station_id":"ce4bhjp2rcd13ifvqg90","pricing_plan_id":"cebpf4jnsgd1na2vs0mg"},{"bike_id":"4a2ff28d-a9b2-4676-859c-d157faf6900e","system_id":"levelo_inurba_marseille","lat":43.29554,"lon":5.37508,"is_reserved":false,"is_disabled":false,"rental_uris":{"android":"levelo://app?vid=4a2ff28d-a9b2-4676-859c-d157faf6900e","ios":"levelo://app?vid=4a2ff28d-a9b2-4676-859c-d157faf6900e"},"vehicle_type_id":"4","last_reported":1758726600,"current_range_meters":10800,"station_id":"ce4bgh92rcd13ifvqb50","pricing_plan_id":"cebpf4jnsgd1na2vs0mg"},{"bike_id":"2ea87fee-002d-4311-8d20-65b68e2b21f4","system_id":"levelo_inurba_marseille","lat":43.30792,"lon":5.43539,"is_reserved":false,"is_disabled":false,"rental_uris":{"android":"levelo://app?vid=2ea87fee-002d-4311-8d20-65b68e2b21f4","ios":"levelo://app?vid=2ea87fee-002d-4311-8d20-65b68e2b21f4"},"vehicle_type_id":"4","last_reported":1758726600,"current_range_meters":10800,"station_id":"ce4bhph2rcd13ifvqheg","pricing_plan_id":"cebpf4jnsgd1na2vs0mg"},{"bike_id":"ebdc4c94-5756-4878-a1e7-8544dfd5d7b1","system_id":"levelo_inurba_marseille","lat":43.27315,"lon":5.39091,"is_reserved":false,"is_disabled":false,"rental_uris":{"android":"levelo://app?vid=ebdc4c94-5756-4878-a1e7-8544dfd5d7b1","ios":"levelo://app?vid=ebdc4c94-5756-4878-a1e7-8544dfd5d7b1"},"vehicle_type_id":"4","last_reported":1758726600,"current_range_meters":10800,"station_id":"ce4bhgp2rcd13ifvqfe0","pricing_plan_id":"cebpf4jnsgd1na2vs0mg"},{"bike_id":"514b5fdb-f81d-41c3-afe2-e88866964916","system_id":"levelo_inurba_marseille","lat":43.25085,"lon":5.39518,"is_reserved":false,"is_disabled":false,"rental_uris":{"android":"levelo://app?vid=514b5fdb-f81d-41c3-afe2-e88866964916","ios":"levelo://app?vid=514b5fdb-f81d-41c3-afe2-e88866964916"},"vehicle_type_id":"4","last_reported":1758726600,"current_range_meters":10800,"station_id":"ce4bhm12rcd13ifvqgkg","pricing_plan_id":"cebpf4jnsgd1na2vs0mg"},{"bike_id":"e92dd605-5039-432d-8739-2562f9154e8c","system_id":"levelo_inurba_marseille","lat":43.31121,"lon":5.37766,"is_reserved":false,"is_disabled":true,"rental_uris":{"android":"levelo://app?vid=e92dd605-5039-432d-8739-2562f9154e8c","ios":"levelo://app?vid=e92dd605-5039-432d-8739-2562f9154e8c"},"vehicle_type_id":"4","last_reported":1758726600,"current_range_meters":10800,"station_id":"ce4bgt92rcd13ifvqcg0","pricing_plan_id":"cebpf4jnsgd1na2vs0mg"},{"bike_id":"539e9723-ed46-4214-8288-76556ff9cfb9","system_id":"levelo_inurba_marseille","lat":43.29024,"lon":5.38127,"is_reserved":false,"is_disabled":false,"rental_uris":{"android":"levelo://app?vid=539e9723-ed46-4214-8288-76556ff9cfb9","ios":"levelo://app?vid=539e9723-ed46-4214-8288-76556ff9cfb9"},"vehicle_type_id":"4","last_reported":1758726600,"current_range_meters":10800,"station_id":"ce4bh4p2rcd13ifvqe1g","pricing_plan_id":"cebpf4jnsgd1na2vs0mg"},{"bike_id":"4e3ba1cc-8038-45ae-9768-ee6d0e4bbd6c","system_id":"levelo_inurba_marseille","lat":43.27907,"lon":5.39583,"is_reserved":false,"is_disabled":false,"rental_uris":{"android":"levelo://app?vid=4e3ba1cc-8038-45ae-9768-ee6d0e4bbd6c","ios":"levelo://app?vid=4e3ba1cc-8038-45ae-9768-ee6d0e4bbd6c"},"vehicle_type_id":"4","last_reported":1758726600,"current_range_meters":11200,"station_id":"ce4bhf92rcd13ifvqf40","pricing_plan_id":"cebpf4jnsgd1na2vs0mg"},{"bike_id":"a60abba9-f9b8-477b-8786-175fc2b6218b","system_id":"levelo_inurba_marseille","lat":43.30885,"lon":5.37164,"is_reserved":false,"is_disabled":false,"rental_uris":{"android":"levelo://app?vid=a60abba9-f9b8-477b-8786-175fc2b6218b","ios":"levelo://app?vid=a60abba9-f9b8-477b-8786-175fc2b6218b"},"vehicle_type_id":"4","last_reported":1758726600,"current_range_meters":11200,"station_id":"ce4bguh2rcd13ifvqckg","pricing_plan_id":"cebpf4jnsgd1na2vs0mg"},{"bike_id":"343c7549-bf08-44ce-9fe4-94fec5c5103f","system_id":"levelo_inurba_marseille","lat":43.29937,"lon":5.36532,"is_reserved":false,"is_disabled":false,"rental_uris":{"android":"levelo://app?vid=343c7549-bf08-44ce-9fe4-94fec5c5103f","ios":"levelo://app?vid=343c7549-bf08-44ce-9fe4-94fec5c5103f"},"vehicle_type_id":"4","last_reported":1758726600,"current_range_meters":11200,"station_id":"ce4bgm92rcd13ifvqbr0","pricing_plan_id":"cebpf4jnsgd1na2vs0mg"},{"bike_id":"2545a2b9-e1d6-4d39-889b-1321a8c263cf","system_id":"levelo_inurba_marseille","lat":43.27966,"lon":5.38684,"is_reserved":false,"is_disabled":false,"rental_uris":{"android":"levelo://app?vid=2545a2b9-e1d6-4d39-889b-1321a8c263cf","ios":"levelo://app?vid=2545a2b9-e1d6-4d39-889b-1321a8c263cf"},"vehicle_type_id":"4","last_reported":1758726600,"current_range_meters":11600,"station_id":"ce4bhg12rcd13ifvqf80","pricing_plan_id":"cebpf4jnsgd1na2vs0mg"},{"bike_id":"cfe671f1-8fb8-4a55-af29-0c740eae02eb","system_id":"levelo_inurba_marseille","lat":43.2495,"lon":5.40508,"is_reserved":false,"is_disabled":false,"rental_uris":{"android":"levelo://app?vid=cfe671f1-8fb8-4a55-af29-0c740eae02eb","ios":"levelo://app?vid=cfe671f1-8fb8-4a55-af29-0c740eae02eb"},"vehicle_type_id":"4","last_reported":1758726600,"current_range_meters":11600,"station_id":"st_d2ngiaodas8pm72gd1h0","pricing_plan_id":"cebpf4jnsgd1na2vs0mg"},{"bike_id":"8d3c490d-33e1-4720-842d-c0a9be86ebae","system_id":"levelo_inurba_marseille","lat":43.28047,"lon":5.36942,"is_reserved":false,"is_disabled":false,"rental_uris":{"android":"levelo://app?vid=8d3c490d-33e1-4720-842d-c0a9be86ebae","ios":"levelo://app?vid=8d3c490d-33e1-4720-842d-c0a9be86ebae"},"vehicle_type_id":"4","last_reported":1758726600,"current_range_meters":9600,"station_id":"ce4bha12rcd13ifvqef0","pricing_plan_id":"cebpf4jnsgd1na2vs0mg"},{"bike_id":"0f1650fe-7e07-4db9-9c9e-440f7f5b47d4","system_id":"levelo_inurba_marseille","lat":43.21193,"lon":5.35085,"is_reserved":false,"is_disabled":false,"rental_uris":{"android":"levelo://app?vid=0f1650fe-7e07-4db9-9c9e-440f7f5b47d4","ios":"levelo://app?vid=0f1650fe-7e07-4db9-9c9e-440f7f5b47d4"},"vehicle_type_id":"4","last_reported":1758726600,"current_range_meters":11600,"station_id":"st_cvj6sg6p6f1abm77japg","pricing_plan_id":"cebpf4jnsgd1na2vs0mg"},{"bike_id":"9feb0e0f-24fa-4463-b0f3-30472830c043","system_id":"levelo_inurba_marseille","lat":43.31757,"lon":5.39002,"is_reserved":false,"is_disabled":false,"rental_uris":{"android":"levelo://app?vid=9feb0e0f-24fa-4463-b0f3-30472830c043","ios":"levelo://app?vid=9feb0e0f-24fa-4463-b0f3-30472830c043"},"vehicle_type_id":"4","last_reported":1758726600,"current_range_meters":12000,"station_id":"ce4bhqp2rcd13ifvqhng","pricing_plan_id":"cebpf4jnsgd1na2vs0mg"},{"bike_id":"4fcacbae-960c-4c05-b76b-176aa67f7b4f","system_id":"levelo_inurba_marseille","lat":43.32067,"lon":5.36795,"is_reserved":false,"is_disabled":false,"rental_uris":{"android":"levelo://app?vid=4fcacbae-960c-4c05-b76b-176aa67f7b4f","ios":"levelo://app?vid=4fcacbae-960c-4c05-b76b-176aa67f7b4f"},"vehicle_type_id":"4","last_reported":1758726600,"current_range_meters":12000,"station_id":"ce4bhrh2rcd13ifvqhug","pricing_plan_id":"cebpf4jnsgd1na2vs0mg"},{"bike_id":"f051bd67-fe2f-4456-8da3-b16238fe7802","system_id":"levelo_inurba_marseille","lat":43.23195,"lon":5.39989,"is_reserved":false,"is_disabled":false,"rental_uris":{"android":"levelo://app?vid=f051bd67-fe2f-4456-8da3-b16238fe7802","ios":"levelo://app?vid=f051bd67-fe2f-4456-8da3-b16238fe7802"},"vehicle_type_id":"4","last_reported":1758726600,"current_range_meters":12000,"station_id":"ce4bhn12rcd13ifvqgqg","pricing_plan_id":"cebpf4jnsgd1na2vs0mg"},{"bike_id":"438ead59-de14-4fa0-a61d-03a70a4122ae","system_id":"levelo_inurba_marseille","lat":43.97269,"lon":4.89111,"is_reserved":false,"is_disabled":true,"rental_uris":{"android":"levelo://app?vid=438ead59-de14-4fa0-a61d-03a70a4122ae","ios":"levelo://app?vid=438ead59-de14-4fa0-a61d-03a70a4122ae"},"vehicle_type_id":"4","last_reported":1758726600,"current_range_meters":12000,"station_id":"","pricing_plan_id":"cebpf4jnsgd1na2vs0mg"},{"bike_id":"82487e12-45f7-413d-9b19-a07e6230afb4","system_id":"levelo_inurba_marseille","lat":43.2927,"lon":5.38438,"is_reserved":false,"is_disabled":false,"rental_uris":{"android":"levelo://app?vid=82487e12-45f7-413d-9b19-a07e6230afb4","ios":"levelo://app?vid=82487e12-45f7-413d-9b19-a07e6230afb4"},"vehicle_type_id":"4","last_reported":1758726600,"current_range_meters":12000,"station_id":"ce4bh692rcd13ifvqea0","pricing_plan_id":"cebpf4jnsgd1na2vs0mg"},{"bike_id":"8c0227e3-55e8-4994-aa0c-9b6ee99b7e26","system_id":"levelo_inurba_marseille","lat":43.23061,"lon":5.35476,"is_reserved":false,"is_disabled":false,"rental_uris":{"android":"levelo://app?vid=8c0227e3-55e8-4994-aa0c-9b6ee99b7e26","ios":"levelo://app?vid=8c0227e3-55e8-4994-aa0c-9b6ee99b7e26"},"vehicle_type_id":"4","last_reported":1758726600,"current_range_meters":12400,"station_id":"cpo3342slgdg3j2ifvpg","pricing_plan_id":"cebpf4jnsgd1na2vs0mg"},{"bike_id":"80f8ff07-07be-4e6b-a340-fbfcd2633e7b","system_id":"levelo_inurba_marseille","lat":43.29267,"lon":5.38435,"is_reserved":false,"is_disabled":false,"rental_uris":{"android":"levelo://app?vid=80f8ff07-07be-4e6b-a340-fbfcd2633e7b","ios":"levelo://app?vid=80f8ff07-07be-4e6b-a340-fbfcd2633e7b"},"vehicle_type_id":"4","last_reported":1758726600,"current_range_meters":12400,"station_id":"ce4bh692rcd13ifvqea0","pricing_plan_id":"cebpf4jnsgd1na2vs0mg"},{"bike_id":"b5097eea-9912-4be2-9cf9-14c224c5fab6","system_id":"levelo_inurba_marseille","lat":43.231978,"lon":5.355549,"is_reserved":false,"is_disabled":false,"rental_uris":{"android":"levelo://app?vid=b5097eea-9912-4be2-9cf9-14c224c5fab6","ios":"levelo://app?vid=b5097eea-9912-4be2-9cf9-14c224c5fab6"},"vehicle_type_id":"4","last_reported":1758726600,"current_range_meters":12400,"station_id":"ce4bhu92rcd13ifvqi70","pricing_plan_id":"cebpf4jnsgd1na2vs0mg"},{"bike_id":"06c10839-75c7-457b-804b-f341157fb4f3","system_id":"levelo_inurba_marseille","lat":43.25064,"lon":5.40454,"is_reserved":false,"is_disabled":false,"rental_uris":{"android":"levelo://app?vid=06c10839-75c7-457b-804b-f341157fb4f3","ios":"levelo://app?vid=06c10839-75c7-457b-804b-f341157fb4f3"},"vehicle_type_id":"4","last_reported":1758726600,"current_range_meters":12400,"station_id":"","pricing_plan_id":"cebpf4jnsgd1na2vs0mg"},{"bike_id":"2b142924-375d-48cb-93a3-16a1b9bf5e94","system_id":"levelo_inurba_marseille","lat":43.28613,"lon":5.35099,"is_reserved":false,"is_disabled":false,"rental_uris":{"android":"levelo://app?vid=2b142924-375d-48cb-93a3-16a1b9bf5e94","ios":"levelo://app?vid=2b142924-375d-48cb-93a3-16a1b9bf5e94"},"vehicle_type_id":"4","last_reported":1758726600,"current_range_meters":12400,"station_id":"ce4bhch2rcd13ifvqeug","pricing_plan_id":"cebpf4jnsgd1na2vs0mg"},{"bike_id":"cfc23815-fde0-4d00-8509-125558a0c152","system_id":"levelo_inurba_marseille","lat":43.2738,"lon":5.39381,"is_reserved":false,"is_disabled":false,"rental_uris":{"android":"levelo://app?vid=cfc23815-fde0-4d00-8509-125558a0c152","ios":"levelo://app?vid=cfc23815-fde0-4d00-8509-125558a0c152"},"vehicle_type_id":"4","last_reported":1758726600,"current_range_meters":12800,"station_id":"ce4bhdp2rcd13ifvqf20","pricing_plan_id":"cebpf4jnsgd1na2vs0mg"},{"bike_id":"775d2ad5-89ec-4ca2-aad6-292d6d92b011","system_id":"levelo_inurba_marseille","lat":43.32456,"lon":5.36569,"is_reserved":false,"is_disabled":false,"rental_uris":{"android":"levelo://app?vid=775d2ad5-89ec-4ca2-aad6-292d6d92b011","ios":"levelo://app?vid=775d2ad5-89ec-4ca2-aad6-292d6d92b011"},"vehicle_type_id":"4","last_reported":1758726600,"current_range_meters":12800,"station_id":"ce4bhs12rcd13ifvqhvg","pricing_plan_id":"cebpf4jnsgd1na2vs0mg"},{"bike_id":"5e9a0799-5f53-4d78-88d2-f36871ff816e","system_id":"levelo_inurba_marseille","lat":43.28851,"lon":5.35853,"is_reserved":false,"is_disabled":false,"rental_uris":{"android":"levelo://app?vid=5e9a0799-5f53-4d78-88d2-f36871ff816e","ios":"levelo://app?vid=5e9a0799-5f53-4d78-88d2-f36871ff816e"},"vehicle_type_id":"4","last_reported":1758726600,"current_range_meters":12800,"station_id":"ce4bhb12rcd13ifvqem0","pricing_plan_id":"cebpf4jnsgd1na2vs0mg"},{"bike_id":"8c7fb638-aa89-4dc5-b652-77ceb015b905","system_id":"levelo_inurba_marseille","lat":43.24947,"lon":5.40506,"is_reserved":false,"is_disabled":false,"rental_uris":{"android":"levelo://app?vid=8c7fb638-aa89-4dc5-b652-77ceb015b905","ios":"levelo://app?vid=8c7fb638-aa89-4dc5-b652-77ceb015b905"},"vehicle_type_id":"4","last_reported":1758726600,"current_range_meters":12800,"station_id":"st_d2ngiaodas8pm72gd1h0","pricing_plan_id":"cebpf4jnsgd1na2vs0mg"},{"bike_id":"e77cf95b-593b-4792-acf6-79c98b0a2e32","system_id":"levelo_inurba_marseille","lat":43.29974,"lon":5.38488,"is_reserved":false,"is_disabled":false,"rental_uris":{"android":"levelo://app?vid=e77cf95b-593b-4792-acf6-79c98b0a2e32","ios":"levelo://app?vid=e77cf95b-593b-4792-acf6-79c98b0a2e32"},"vehicle_type_id":"4","last_reported":1758726600,"current_range_meters":12800,"station_id":"ce4bgj92rcd13ifvqbd0","pricing_plan_id":"cebpf4jnsgd1na2vs0mg"},{"bike_id":"8b79dfd7-6e31-4690-800e-0ac3693027df","system_id":"levelo_inurba_marseille","lat":43.31533,"lon":5.38029,"is_reserved":false,"is_disabled":false,"rental_uris":{"android":"levelo://app?vid=8b79dfd7-6e31-4690-800e-0ac3693027df","ios":"levelo://app?vid=8b79dfd7-6e31-4690-800e-0ac3693027df"},"vehicle_type_id":"4","last_reported":1758726600,"current_range_meters":12800,"station_id":"ce4bhsp2rcd13ifvqi50","pricing_plan_id":"cebpf4jnsgd1na2vs0mg"},{"bike_id":"2ada81a1-f7dd-4502-90fc-7101765c2aec","system_id":"levelo_inurba_marseille","lat":43.28972,"lon":5.37841,"is_reserved":false,"is_disabled":false,"rental_uris":{"android":"levelo://app?vid=2ada81a1-f7dd-4502-90fc-7101765c2aec","ios":"levelo://app?vid=2ada81a1-f7dd-4502-90fc-7101765c2aec"},"vehicle_type_id":"4","last_reported":1758726600,"current_range_meters":12800,"station_id":"ce4bh9p2rcd13ifvqed0","pricing_plan_id":"cebpf4jnsgd1na2vs0mg"},{"bike_id":"2dd6197a-67ba-45ca-8a49-60002aa49494","system_id":"levelo_inurba_marseille","lat":43.31242,"lon":5.36867,"is_reserved":false,"is_disabled":false,"rental_uris":{"android":"levelo://app?vid=2dd6197a-67ba-45ca-8a49-60002aa49494","ios":"levelo://app?vid=2dd6197a-67ba-45ca-8a49-60002aa49494"},"vehicle_type_id":"4","last_reported":1758726600,"current_range_meters":12800,"station_id":"ce4bgl92rcd13ifvqbq0","pricing_plan_id":"cebpf4jnsgd1na2vs0mg"},{"bike_id":"528c3ca2-6e69-4088-b13a-99bd3c7e415f","system_id":"levelo_inurba_marseille","lat":43.23183,"lon":5.39979,"is_reserved":false,"is_disabled":false,"rental_uris":{"android":"levelo://app?vid=528c3ca2-6e69-4088-b13a-99bd3c7e415f","ios":"levelo://app?vid=528c3ca2-6e69-4088-b13a-99bd3c7e415f"},"vehicle_type_id":"4","last_reported":1758726600,"current_range_meters":12800,"station_id":"ce4bhn12rcd13ifvqgqg","pricing_plan_id":"cebpf4jnsgd1na2vs0mg"},{"bike_id":"52094713-4280-421b-b417-fe5c844f4daa","system_id":"levelo_inurba_marseille","lat":43.25113,"lon":5.40319,"is_reserved":false,"is_disabled":false,"rental_uris":{"android":"levelo://app?vid=52094713-4280-421b-b417-fe5c844f4daa","ios":"levelo://app?vid=52094713-4280-421b-b417-fe5c844f4daa"},"vehicle_type_id":"4","last_reported":1758726600,"current_range_meters":13600,"station_id":"ce4bhlh2rcd13ifvqgig","pricing_plan_id":"cebpf4jnsgd1na2vs0mg"},{"bike_id":"36b070bb-df09-4433-b99c-aab79ada22d5","system_id":"levelo_inurba_marseille","lat":43.29287,"lon":5.3744,"is_reserved":false,"is_disabled":false,"rental_uris":{"android":"levelo://app?vid=36b070bb-df09-4433-b99c-aab79ada22d5","ios":"levelo://app?vid=36b070bb-df09-4433-b99c-aab79ada22d5"},"vehicle_type_id":"4","last_reported":1758726600,"current_range_meters":13600,"station_id":"","pricing_plan_id":"cebpf4jnsgd1na2vs0mg"},{"bike_id":"f9af076b-c426-46f0-97f6-f6a5a530c8e2","system_id":"levelo_inurba_marseille","lat":43.32966,"lon":5.40752,"is_reserved":false,"is_disabled":false,"rental_uris":{"android":"levelo://app?vid=f9af076b-c426-46f0-97f6-f6a5a530c8e2","ios":"levelo://app?vid=f9af076b-c426-46f0-97f6-f6a5a530c8e2"},"vehicle_type_id":"4","last_reported":1758726600,"current_range_meters":13600,"station_id":"","pricing_plan_id":"cebpf4jnsgd1na2vs0mg"},{"bike_id":"ef00c611-56e3-4d87-83a8-6fad9627913a","system_id":"levelo_inurba_marseille","lat":43.308894,"lon":5.371943,"is_reserved":false,"is_disabled":false,"rental_uris":{"android":"levelo://app?vid=ef00c611-56e3-4d87-83a8-6fad9627913a","ios":"levelo://app?vid=ef00c611-56e3-4d87-83a8-6fad9627913a"},"vehicle_type_id":"4","last_reported":1758726600,"current_range_meters":14000,"station_id":"ce4bguh2rcd13ifvqckg","pricing_plan_id":"cebpf4jnsgd1na2vs0mg"},{"bike_id":"d5748f11-c747-445a-ba16-03e2bc50ef5f","system_id":"levelo_inurba_marseille","lat":43.23184,"lon":5.39995,"is_reserved":false,"is_disabled":false,"rental_uris":{"android":"levelo://app?vid=d5748f11-c747-445a-ba16-03e2bc50ef5f","ios":"levelo://app?vid=d5748f11-c747-445a-ba16-03e2bc50ef5f"},"vehicle_type_id":"4","last_reported":1758726600,"current_range_meters":14000,"station_id":"ce4bhn12rcd13ifvqgqg","pricing_plan_id":"cebpf4jnsgd1na2vs0mg"},{"bike_id":"a851cae0-b395-441e-9dd1-21300baf3396","system_id":"levelo_inurba_marseille","lat":43.315216,"lon":5.386875,"is_reserved":false,"is_disabled":false,"rental_uris":{"android":"levelo://app?vid=a851cae0-b395-441e-9dd1-21300baf3396","ios":"levelo://app?vid=a851cae0-b395-441e-9dd1-21300baf3396"},"vehicle_type_id":"4","last_reported":1758726600,"current_range_meters":14000,"station_id":"","pricing_plan_id":"cebpf4jnsgd1na2vs0mg"},{"bike_id":"903f6993-8c47-4753-8bfd-d68ee65a5086","system_id":"levelo_inurba_marseille","lat":43.28857,"lon":5.35855,"is_reserved":false,"is_disabled":false,"rental_uris":{"android":"levelo://app?vid=903f6993-8c47-4753-8bfd-d68ee65a5086","ios":"levelo://app?vid=903f6993-8c47-4753-8bfd-d68ee65a5086"},"vehicle_type_id":"4","last_reported":1758726600,"current_range_meters":14000,"station_id":"ce4bhb12rcd13ifvqem0","pricing_plan_id":"cebpf4jnsgd1na2vs0mg"},{"bike_id":"b48e70b2-53f1-4641-819c-a53cac59b8ed","system_id":"levelo_inurba_marseille","lat":43.258241,"lon":5.39439,"is_reserved":false,"is_disabled":false,"rental_uris":{"android":"levelo://app?vid=b48e70b2-53f1-4641-819c-a53cac59b8ed","ios":"levelo://app?vid=b48e70b2-53f1-4641-819c-a53cac59b8ed"},"vehicle_type_id":"4","last_reported":1758726600,"current_range_meters":14000,"station_id":"ce4bhip2rcd13ifvqft0","pricing_plan_id":"cebpf4jnsgd1na2vs0mg"},{"bike_id":"3501596e-52c3-4a5a-b7e5-ea644e0c42a1","system_id":"levelo_inurba_marseille","lat":43.30314,"lon":5.36906,"is_reserved":false,"is_disabled":false,"rental_uris":{"android":"levelo://app?vid=3501596e-52c3-4a5a-b7e5-ea644e0c42a1","ios":"levelo://app?vid=3501596e-52c3-4a5a-b7e5-ea644e0c42a1"},"vehicle_type_id":"4","last_reported":1758726600,"current_range_meters":14000,"station_id":"ce4bgqh2rcd13ifvqc5g","pricing_plan_id":"cebpf4jnsgd1na2vs0mg"},{"bike_id":"06b242f2-e2a0-4a2a-b939-5ce23dc43cec","system_id":"levelo_inurba_marseille","lat":43.2991,"lon":5.38155,"is_reserved":false,"is_disabled":false,"rental_uris":{"android":"levelo://app?vid=06b242f2-e2a0-4a2a-b939-5ce23dc43cec","ios":"levelo://app?vid=06b242f2-e2a0-4a2a-b939-5ce23dc43cec"},"vehicle_type_id":"4","last_reported":1758726600,"current_range_meters":14000,"station_id":"ce4bgj12rcd13ifvqbc0","pricing_plan_id":"cebpf4jnsgd1na2vs0mg"},{"bike_id":"ba806421-8fcb-4301-acf7-bdc445d3207b","system_id":"levelo_inurba_marseille","lat":43.26196,"lon":5.3793,"is_reserved":false,"is_disabled":false,"rental_uris":{"android":"levelo://app?vid=ba806421-8fcb-4301-acf7-bdc445d3207b","ios":"levelo://app?vid=ba806421-8fcb-4301-acf7-bdc445d3207b"},"vehicle_type_id":"4","last_reported":1758726600,"current_range_meters":14000,"station_id":"ce4bhjp2rcd13ifvqg90","pricing_plan_id":"cebpf4jnsgd1na2vs0mg"},{"bike_id":"cea30fe1-4e3f-40b0-b169-3e98f81a6b51","system_id":"levelo_inurba_marseille","lat":43.307876,"lon":5.376454,"is_reserved":false,"is_disabled":false,"rental_uris":{"android":"levelo://app?vid=cea30fe1-4e3f-40b0-b169-3e98f81a6b51","ios":"levelo://app?vid=cea30fe1-4e3f-40b0-b169-3e98f81a6b51"},"vehicle_type_id":"4","last_reported":1758726600,"current_range_meters":14400,"station_id":"ce4bgv92rcd13ifvqcq0","pricing_plan_id":"cebpf4jnsgd1na2vs0mg"},{"bike_id":"24dd6161-28b6-4540-9813-d35328ac83ee","system_id":"levelo_inurba_marseille","lat":43.29026,"lon":5.38133,"is_reserved":false,"is_disabled":false,"rental_uris":{"android":"levelo://app?vid=24dd6161-28b6-4540-9813-d35328ac83ee","ios":"levelo://app?vid=24dd6161-28b6-4540-9813-d35328ac83ee"},"vehicle_type_id":"4","last_reported":1758726600,"current_range_meters":14400,"station_id":"ce4bh4p2rcd13ifvqe1g","pricing_plan_id":"cebpf4jnsgd1na2vs0mg"},{"bike_id":"45da2f63-fcbe-4329-abbb-56a1a825057c","system_id":"levelo_inurba_marseille","lat":43.29931,"lon":5.36525,"is_reserved":false,"is_disabled":false,"rental_uris":{"android":"levelo://app?vid=45da2f63-fcbe-4329-abbb-56a1a825057c","ios":"levelo://app?vid=45da2f63-fcbe-4329-abbb-56a1a825057c"},"vehicle_type_id":"4","last_reported":1758726600,"current_range_meters":14400,"station_id":"ce4bgm92rcd13ifvqbr0","pricing_plan_id":"cebpf4jnsgd1na2vs0mg"},{"bike_id":"3cb1dae7-6bcd-41e5-b1b7-c1d25c751a99","system_id":"levelo_inurba_marseille","lat":43.337594,"lon":5.374419,"is_reserved":false,"is_disabled":false,"rental_uris":{"android":"levelo://app?vid=3cb1dae7-6bcd-41e5-b1b7-c1d25c751a99","ios":"levelo://app?vid=3cb1dae7-6bcd-41e5-b1b7-c1d25c751a99"},"vehicle_type_id":"4","last_reported":1758726600,"current_range_meters":14800,"station_id":"","pricing_plan_id":"cebpf4jnsgd1na2vs0mg"},{"bike_id":"fec29174-587c-4398-98e6-4311d9258ee2","system_id":"levelo_inurba_marseille","lat":43.29848,"lon":5.38909,"is_reserved":false,"is_disabled":false,"rental_uris":{"android":"levelo://app?vid=fec29174-587c-4398-98e6-4311d9258ee2","ios":"levelo://app?vid=fec29174-587c-4398-98e6-4311d9258ee2"},"vehicle_type_id":"4","last_reported":1758726600,"current_range_meters":14800,"station_id":"ce4bh392rcd13ifvqdl0","pricing_plan_id":"cebpf4jnsgd1na2vs0mg"},{"bike_id":"c5570e1e-2bc3-4923-8813-75e3cd68ada9","system_id":"levelo_inurba_marseille","lat":43.30134,"lon":5.39876,"is_reserved":false,"is_disabled":false,"rental_uris":{"android":"levelo://app?vid=c5570e1e-2bc3-4923-8813-75e3cd68ada9","ios":"levelo://app?vid=c5570e1e-2bc3-4923-8813-75e3cd68ada9"},"vehicle_type_id":"4","last_reported":1758726600,"current_range_meters":14800,"station_id":"ce4bh0h2rcd13ifvqd40","pricing_plan_id":"cebpf4jnsgd1na2vs0mg"},{"bike_id":"ce1962ba-e28f-4294-9935-9c7987d84909","system_id":"levelo_inurba_marseille","lat":43.293829,"lon":5.378441,"is_reserved":false,"is_disabled":false,"rental_uris":{"android":"levelo://app?vid=ce1962ba-e28f-4294-9935-9c7987d84909","ios":"levelo://app?vid=ce1962ba-e28f-4294-9935-9c7987d84909"},"vehicle_type_id":"4","last_reported":1758726600,"current_range_meters":14800,"station_id":"ce4bgjh2rcd13ifvqbf0","pricing_plan_id":"cebpf4jnsgd1na2vs0mg"},{"bike_id":"a21b1f60-d422-4070-be93-6b7e08d93542","system_id":"levelo_inurba_marseille","lat":43.3095,"lon":5.40652,"is_reserved":false,"is_disabled":false,"rental_uris":{"android":"levelo://app?vid=a21b1f60-d422-4070-be93-6b7e08d93542","ios":"levelo://app?vid=a21b1f60-d422-4070-be93-6b7e08d93542"},"vehicle_type_id":"4","last_reported":1758726600,"current_range_meters":15200,"station_id":"","pricing_plan_id":"cebpf4jnsgd1na2vs0mg"},{"bike_id":"437d7986-b229-44e1-a008-9743cfdd9fca","system_id":"levelo_inurba_marseille","lat":43.30151,"lon":5.3742,"is_reserved":false,"is_disabled":false,"rental_uris":{"android":"levelo://app?vid=437d7986-b229-44e1-a008-9743cfdd9fca","ios":"levelo://app?vid=437d7986-b229-44e1-a008-9743cfdd9fca"},"vehicle_type_id":"4","last_reported":1758726600,"current_range_meters":15200,"station_id":"ce4bgs92rcd13ifvqcc0","pricing_plan_id":"cebpf4jnsgd1na2vs0mg"},{"bike_id":"99d029d0-3781-455c-b6e2-22a6a7b0125f","system_id":"levelo_inurba_marseille","lat":43.31362,"lon":5.38503,"is_reserved":false,"is_disabled":false,"rental_uris":{"android":"levelo://app?vid=99d029d0-3781-455c-b6e2-22a6a7b0125f","ios":"levelo://app?vid=99d029d0-3781-455c-b6e2-22a6a7b0125f"},"vehicle_type_id":"4","last_reported":1758726600,"current_range_meters":15200,"station_id":"ce4bgt92rcd13ifvqcf0","pricing_plan_id":"cebpf4jnsgd1na2vs0mg"},{"bike_id":"57b14c92-2a17-45b3-beb1-cbb460ef441b","system_id":"levelo_inurba_marseille","lat":43.23175,"lon":5.39987,"is_reserved":false,"is_disabled":false,"rental_uris":{"android":"levelo://app?vid=57b14c92-2a17-45b3-beb1-cbb460ef441b","ios":"levelo://app?vid=57b14c92-2a17-45b3-beb1-cbb460ef441b"},"vehicle_type_id":"4","last_reported":1758726600,"current_range_meters":15200,"station_id":"ce4bhn12rcd13ifvqgqg","pricing_plan_id":"cebpf4jnsgd1na2vs0mg"},{"bike_id":"bf1244d3-d7e7-45bd-8580-d0cbc34b36e3","system_id":"levelo_inurba_marseille","lat":43.2256,"lon":5.41626,"is_reserved":false,"is_disabled":false,"rental_uris":{"android":"levelo://app?vid=bf1244d3-d7e7-45bd-8580-d0cbc34b36e3","ios":"levelo://app?vid=bf1244d3-d7e7-45bd-8580-d0cbc34b36e3"},"vehicle_type_id":"4","last_reported":1758726600,"current_range_meters":15200,"station_id":"st_d2o4gvlbi1j2169b742g","pricing_plan_id":"cebpf4jnsgd1na2vs0mg"},{"bike_id":"178af37d-dd54-4cf7-b80a-b996e0f2a163","system_id":"levelo_inurba_marseille","lat":43.21183,"lon":5.35078,"is_reserved":false,"is_disabled":false,"rental_uris":{"android":"levelo://app?vid=178af37d-dd54-4cf7-b80a-b996e0f2a163","ios":"levelo://app?vid=178af37d-dd54-4cf7-b80a-b996e0f2a163"},"vehicle_type_id":"4","last_reported":1758726600,"current_range_meters":15200,"station_id":"st_cvj6sg6p6f1abm77japg","pricing_plan_id":"cebpf4jnsgd1na2vs0mg"},{"bike_id":"1f245d0b-a243-4473-a434-d74cae53f5e3","system_id":"levelo_inurba_marseille","lat":43.32114,"lon":5.36767,"is_reserved":false,"is_disabled":false,"rental_uris":{"android":"levelo://app?vid=1f245d0b-a243-4473-a434-d74cae53f5e3","ios":"levelo://app?vid=1f245d0b-a243-4473-a434-d74cae53f5e3"},"vehicle_type_id":"4","last_reported":1758726600,"current_range_meters":15200,"station_id":"ce4bhrh2rcd13ifvqhug","pricing_plan_id":"cebpf4jnsgd1na2vs0mg"},{"bike_id":"e51defe2-9c1f-4f72-a92b-b86ca0f509b9","system_id":"levelo_inurba_marseille","lat":43.307933,"lon":5.38162,"is_reserved":false,"is_disabled":false,"rental_uris":{"android":"levelo://app?vid=e51defe2-9c1f-4f72-a92b-b86ca0f509b9","ios":"levelo://app?vid=e51defe2-9c1f-4f72-a92b-b86ca0f509b9"},"vehicle_type_id":"4","last_reported":1758726600,"current_range_meters":15200,"station_id":"ce4bgt12rcd13ifvqce0","pricing_plan_id":"cebpf4jnsgd1na2vs0mg"},{"bike_id":"e19472f1-87e0-4943-97f3-e785d2a10054","system_id":"levelo_inurba_marseille","lat":43.28799,"lon":5.42564,"is_reserved":false,"is_disabled":false,"rental_uris":{"android":"levelo://app?vid=e19472f1-87e0-4943-97f3-e785d2a10054","ios":"levelo://app?vid=e19472f1-87e0-4943-97f3-e785d2a10054"},"vehicle_type_id":"4","last_reported":1758726600,"current_range_meters":15200,"station_id":"","pricing_plan_id":"cebpf4jnsgd1na2vs0mg"},{"bike_id":"d9e1888b-5c06-4823-924b-a03611151086","system_id":"levelo_inurba_marseille","lat":43.2862,"lon":5.35106,"is_reserved":false,"is_disabled":false,"rental_uris":{"android":"levelo://app?vid=d9e1888b-5c06-4823-924b-a03611151086","ios":"levelo://app?vid=d9e1888b-5c06-4823-924b-a03611151086"},"vehicle_type_id":"4","last_reported":1758726600,"current_range_meters":16000,"station_id":"ce4bhch2rcd13ifvqeug","pricing_plan_id":"cebpf4jnsgd1na2vs0mg"},{"bike_id":"73ca9593-f198-4b7d-b8b3-53ee7621579d","system_id":"levelo_inurba_marseille","lat":43.28002,"lon":5.41666,"is_reserved":false,"is_disabled":false,"rental_uris":{"android":"levelo://app?vid=73ca9593-f198-4b7d-b8b3-53ee7621579d","ios":"levelo://app?vid=73ca9593-f198-4b7d-b8b3-53ee7621579d"},"vehicle_type_id":"4","last_reported":1758726600,"current_range_meters":16000,"station_id":"ce4bho12rcd13ifvqh1g","pricing_plan_id":"cebpf4jnsgd1na2vs0mg"},{"bike_id":"50c03ce7-6089-4ca2-9f23-f4c8c568a597","system_id":"levelo_inurba_marseille","lat":43.33784,"lon":5.37419,"is_reserved":false,"is_disabled":false,"rental_uris":{"android":"levelo://app?vid=50c03ce7-6089-4ca2-9f23-f4c8c568a597","ios":"levelo://app?vid=50c03ce7-6089-4ca2-9f23-f4c8c568a597"},"vehicle_type_id":"4","last_reported":1758726600,"current_range_meters":16000,"station_id":"","pricing_plan_id":"cebpf4jnsgd1na2vs0mg"},{"bike_id":"659ad0db-c8db-4870-9a77-3caaa174d2df","system_id":"levelo_inurba_marseille","lat":43.28039,"lon":5.36949,"is_reserved":false,"is_disabled":false,"rental_uris":{"android":"levelo://app?vid=659ad0db-c8db-4870-9a77-3caaa174d2df","ios":"levelo://app?vid=659ad0db-c8db-4870-9a77-3caaa174d2df"},"vehicle_type_id":"4","last_reported":1758726600,"current_range_meters":18800,"station_id":"ce4bha12rcd13ifvqef0","pricing_plan_id":"cebpf4jnsgd1na2vs0mg"},{"bike_id":"c7f6a08b-c655-4213-b2ba-7d02e7f382fe","system_id":"levelo_inurba_marseille","lat":43.27988,"lon":5.39483,"is_reserved":false,"is_disabled":false,"rental_uris":{"android":"levelo://app?vid=c7f6a08b-c655-4213-b2ba-7d02e7f382fe","ios":"levelo://app?vid=c7f6a08b-c655-4213-b2ba-7d02e7f382fe"},"vehicle_type_id":"4","last_reported":1758726600,"current_range_meters":16000,"station_id":"","pricing_plan_id":"cebpf4jnsgd1na2vs0mg"},{"bike_id":"16cee2f9-0604-4f00-85ee-c5690b0410f0","system_id":"levelo_inurba_marseille","lat":43.2862,"lon":5.35105,"is_reserved":false,"is_disabled":false,"rental_uris":{"android":"levelo://app?vid=16cee2f9-0604-4f00-85ee-c5690b0410f0","ios":"levelo://app?vid=16cee2f9-0604-4f00-85ee-c5690b0410f0"},"vehicle_type_id":"4","last_reported":1758726600,"current_range_meters":16000,"station_id":"ce4bhch2rcd13ifvqeug","pricing_plan_id":"cebpf4jnsgd1na2vs0mg"},{"bike_id":"f4be8450-7fe1-4174-9add-6974f3179728","system_id":"levelo_inurba_marseille","lat":43.28725,"lon":5.37935,"is_reserved":false,"is_disabled":false,"rental_uris":{"android":"levelo://app?vid=f4be8450-7fe1-4174-9add-6974f3179728","ios":"levelo://app?vid=f4be8450-7fe1-4174-9add-6974f3179728"},"vehicle_type_id":"4","last_reported":1758726600,"current_range_meters":16000,"station_id":"ce4bh9p2rcd13ifvqec0","pricing_plan_id":"cebpf4jnsgd1na2vs0mg"},{"bike_id":"44e5893e-d32e-41d3-b1af-0086017a344d","system_id":"levelo_inurba_marseille","lat":43.27666,"lon":5.38891,"is_reserved":false,"is_disabled":false,"rental_uris":{"android":"levelo://app?vid=44e5893e-d32e-41d3-b1af-0086017a344d","ios":"levelo://app?vid=44e5893e-d32e-41d3-b1af-0086017a344d"},"vehicle_type_id":"4","last_reported":1758726600,"current_range_meters":16400,"station_id":"ce4bhi12rcd13ifvqfo0","pricing_plan_id":"cebpf4jnsgd1na2vs0mg"},{"bike_id":"8eae954c-dab6-4303-94f5-569e1c483f62","system_id":"levelo_inurba_marseille","lat":43.294461,"lon":5.407438,"is_reserved":false,"is_disabled":false,"rental_uris":{"android":"levelo://app?vid=8eae954c-dab6-4303-94f5-569e1c483f62","ios":"levelo://app?vid=8eae954c-dab6-4303-94f5-569e1c483f62"},"vehicle_type_id":"4","last_reported":1758726600,"current_range_meters":16400,"station_id":"","pricing_plan_id":"cebpf4jnsgd1na2vs0mg"},{"bike_id":"0e9ca394-4351-4bf8-a641-f4e5215baf20","system_id":"levelo_inurba_marseille","lat":43.28252,"lon":5.35056,"is_reserved":false,"is_disabled":false,"rental_uris":{"android":"levelo://app?vid=0e9ca394-4351-4bf8-a641-f4e5215baf20","ios":"levelo://app?vid=0e9ca394-4351-4bf8-a641-f4e5215baf20"},"vehicle_type_id":"4","last_reported":1758726600,"current_range_meters":16400,"station_id":"ce4bhbp2rcd13ifvqerg","pricing_plan_id":"cebpf4jnsgd1na2vs0mg"},{"bike_id":"002673c7-e49b-40c2-82da-6cf2f4393eb8","system_id":"levelo_inurba_marseille","lat":43.304588,"lon":5.378964,"is_reserved":false,"is_disabled":true,"rental_uris":{"android":"levelo://app?vid=002673c7-e49b-40c2-82da-6cf2f4393eb8","ios":"levelo://app?vid=002673c7-e49b-40c2-82da-6cf2f4393eb8"},"vehicle_type_id":"4","last_reported":1758726600,"current_range_meters":16400,"station_id":"ce4bgup2rcd13ifvqcn0","pricing_plan_id":"cebpf4jnsgd1na2vs0mg"},{"bike_id":"129c8450-4cca-4e9f-b9f6-538b0080ad49","system_id":"levelo_inurba_marseille","lat":43.32548,"lon":5.38885,"is_reserved":false,"is_disabled":false,"rental_uris":{"android":"levelo://app?vid=129c8450-4cca-4e9f-b9f6-538b0080ad49","ios":"levelo://app?vid=129c8450-4cca-4e9f-b9f6-538b0080ad49"},"vehicle_type_id":"4","last_reported":1758726600,"current_range_meters":16400,"station_id":"","pricing_plan_id":"cebpf4jnsgd1na2vs0mg"},{"bike_id":"d2be082e-bd73-4203-addb-18871b3a9587","system_id":"levelo_inurba_marseille","lat":43.294263,"lon":5.374727,"is_reserved":false,"is_disabled":false,"rental_uris":{"android":"levelo://app?vid=d2be082e-bd73-4203-addb-18871b3a9587","ios":"levelo://app?vid=d2be082e-bd73-4203-addb-18871b3a9587"},"vehicle_type_id":"4","last_reported":1758726600,"current_range_meters":16400,"station_id":"","pricing_plan_id":"cebpf4jnsgd1na2vs0mg"},{"bike_id":"3a319be7-fef3-40df-96fe-6bdc37dc7081","system_id":"levelo_inurba_marseille","lat":43.28102,"lon":5.37832,"is_reserved":false,"is_disabled":false,"rental_uris":{"android":"levelo://app?vid=3a319be7-fef3-40df-96fe-6bdc37dc7081","ios":"levelo://app?vid=3a319be7-fef3-40df-96fe-6bdc37dc7081"},"vehicle_type_id":"4","last_reported":1758726600,"current_range_meters":16400,"station_id":"ce4bha12rcd13ifvqee0","pricing_plan_id":"cebpf4jnsgd1na2vs0mg"},{"bike_id":"63b3daeb-cf1c-4aa8-97b1-d5b690f0ac49","system_id":"levelo_inurba_marseille","lat":43.2812,"lon":5.43219,"is_reserved":false,"is_disabled":false,"rental_uris":{"android":"levelo://app?vid=63b3daeb-cf1c-4aa8-97b1-d5b690f0ac49","ios":"levelo://app?vid=63b3daeb-cf1c-4aa8-97b1-d5b690f0ac49"},"vehicle_type_id":"4","last_reported":1758726600,"current_range_meters":16400,"station_id":"","pricing_plan_id":"cebpf4jnsgd1na2vs0mg"},{"bike_id":"314d8272-0758-4eac-bb7f-300f535c69c4","system_id":"levelo_inurba_marseille","lat":43.30812,"lon":5.38164,"is_reserved":false,"is_disabled":false,"rental_uris":{"android":"levelo://app?vid=314d8272-0758-4eac-bb7f-300f535c69c4","ios":"levelo://app?vid=314d8272-0758-4eac-bb7f-300f535c69c4"},"vehicle_type_id":"4","last_reported":1758726600,"current_range_meters":16400,"station_id":"ce4bgt12rcd13ifvqce0","pricing_plan_id":"cebpf4jnsgd1na2vs0mg"},{"bike_id":"f984dee6-9eb9-43ae-8432-042a3a188686","system_id":"levelo_inurba_marseille","lat":43.29223,"lon":5.36061,"is_reserved":false,"is_disabled":false,"rental_uris":{"android":"levelo://app?vid=f984dee6-9eb9-43ae-8432-042a3a188686","ios":"levelo://app?vid=f984dee6-9eb9-43ae-8432-042a3a188686"},"vehicle_type_id":"4","last_reported":1758726600,"current_range_meters":16800,"station_id":"ce4bhbh2rcd13ifvqeqg","pricing_plan_id":"cebpf4jnsgd1na2vs0mg"},{"bike_id":"cdd9250b-20c0-48e2-b45b-56204b8135aa","system_id":"levelo_inurba_marseille","lat":43.30307,"lon":5.37663,"is_reserved":false,"is_disabled":false,"rental_uris":{"android":"levelo://app?vid=cdd9250b-20c0-48e2-b45b-56204b8135aa","ios":"levelo://app?vid=cdd9250b-20c0-48e2-b45b-56204b8135aa"},"vehicle_type_id":"4","last_reported":1758726600,"current_range_meters":16800,"station_id":"","pricing_plan_id":"cebpf4jnsgd1na2vs0mg"},{"bike_id":"6ce97256-6e29-4ee4-b817-ac92bdd5aea1","system_id":"levelo_inurba_marseille","lat":43.22534,"lon":5.34835,"is_reserved":false,"is_disabled":false,"rental_uris":{"android":"levelo://app?vid=6ce97256-6e29-4ee4-b817-ac92bdd5aea1","ios":"levelo://app?vid=6ce97256-6e29-4ee4-b817-ac92bdd5aea1"},"vehicle_type_id":"4","last_reported":1758726600,"current_range_meters":16800,"station_id":"","pricing_plan_id":"cebpf4jnsgd1na2vs0mg"},{"bike_id":"ad9a6248-1b43-4fc5-bfba-44f7d3067aab","system_id":"levelo_inurba_marseille","lat":43.21172,"lon":5.35073,"is_reserved":false,"is_disabled":false,"rental_uris":{"android":"levelo://app?vid=ad9a6248-1b43-4fc5-bfba-44f7d3067aab","ios":"levelo://app?vid=ad9a6248-1b43-4fc5-bfba-44f7d3067aab"},"vehicle_type_id":"4","last_reported":1758726600,"current_range_meters":16800,"station_id":"st_cvj6sg6p6f1abm77japg","pricing_plan_id":"cebpf4jnsgd1na2vs0mg"},{"bike_id":"4b3f53a8-67a5-4243-8ed9-87637ced91d0","system_id":"levelo_inurba_marseille","lat":43.268554,"lon":5.412677,"is_reserved":false,"is_disabled":false,"rental_uris":{"android":"levelo://app?vid=4b3f53a8-67a5-4243-8ed9-87637ced91d0","ios":"levelo://app?vid=4b3f53a8-67a5-4243-8ed9-87637ced91d0"},"vehicle_type_id":"4","last_reported":1758726600,"current_range_meters":16800,"station_id":"ce4bhk92rcd13ifvqgb0","pricing_plan_id":"cebpf4jnsgd1na2vs0mg"},{"bike_id":"c5e35d50-1334-4251-9e23-b568a1a449ad","system_id":"levelo_inurba_marseille","lat":43.30279,"lon":5.37689,"is_reserved":false,"is_disabled":false,"rental_uris":{"android":"levelo://app?vid=c5e35d50-1334-4251-9e23-b568a1a449ad","ios":"levelo://app?vid=c5e35d50-1334-4251-9e23-b568a1a449ad"},"vehicle_type_id":"4","last_reported":1758726600,"current_range_meters":16800,"station_id":"ce4bguh2rcd13ifvqcj0","pricing_plan_id":"cebpf4jnsgd1na2vs0mg"},{"bike_id":"a6ad0c6c-868d-42f3-ba54-573e1a175a36","system_id":"levelo_inurba_marseille","lat":43.26264,"lon":5.41291,"is_reserved":false,"is_disabled":false,"rental_uris":{"android":"levelo://app?vid=a6ad0c6c-868d-42f3-ba54-573e1a175a36","ios":"levelo://app?vid=a6ad0c6c-868d-42f3-ba54-573e1a175a36"},"vehicle_type_id":"4","last_reported":1758726600,"current_range_meters":16800,"station_id":"","pricing_plan_id":"cebpf4jnsgd1na2vs0mg"},{"bike_id":"081c34fd-baab-419a-ae23-2655f4c3c670","system_id":"levelo_inurba_marseille","lat":43.30798,"lon":5.38153,"is_reserved":false,"is_disabled":false,"rental_uris":{"android":"levelo://app?vid=081c34fd-baab-419a-ae23-2655f4c3c670","ios":"levelo://app?vid=081c34fd-baab-419a-ae23-2655f4c3c670"},"vehicle_type_id":"4","last_reported":1758726600,"current_range_meters":17200,"station_id":"ce4bgt12rcd13ifvqce0","pricing_plan_id":"cebpf4jnsgd1na2vs0mg"},{"bike_id":"e57b9920-a24e-4c74-a0ad-0e4f80344c9e","system_id":"levelo_inurba_marseille","lat":43.30095,"lon":5.39081,"is_reserved":false,"is_disabled":false,"rental_uris":{"android":"levelo://app?vid=e57b9920-a24e-4c74-a0ad-0e4f80344c9e","ios":"levelo://app?vid=e57b9920-a24e-4c74-a0ad-0e4f80344c9e"},"vehicle_type_id":"4","last_reported":1758726600,"current_range_meters":16800,"station_id":"ce4bh192rcd13ifvqdb0","pricing_plan_id":"cebpf4jnsgd1na2vs0mg"},{"bike_id":"10d1eea4-da2a-44bf-bae0-8e1593d0d992","system_id":"levelo_inurba_marseille","lat":43.26562,"lon":5.39007,"is_reserved":false,"is_disabled":false,"rental_uris":{"android":"levelo://app?vid=10d1eea4-da2a-44bf-bae0-8e1593d0d992","ios":"levelo://app?vid=10d1eea4-da2a-44bf-bae0-8e1593d0d992"},"vehicle_type_id":"4","last_reported":1758726600,"current_range_meters":16800,"station_id":"ce4bhe12rcd13ifvqf30","pricing_plan_id":"cebpf4jnsgd1na2vs0mg"},{"bike_id":"003515e8-8117-44bb-979d-5f47e8d50fda","system_id":"levelo_inurba_marseille","lat":43.30618,"lon":5.37568,"is_reserved":false,"is_disabled":false,"rental_uris":{"android":"levelo://app?vid=003515e8-8117-44bb-979d-5f47e8d50fda","ios":"levelo://app?vid=003515e8-8117-44bb-979d-5f47e8d50fda"},"vehicle_type_id":"4","last_reported":1758726600,"current_range_meters":17200,"station_id":"","pricing_plan_id":"cebpf4jnsgd1na2vs0mg"},{"bike_id":"5b2e4301-8a04-44b6-bb74-5f97ee4e1633","system_id":"levelo_inurba_marseille","lat":43.27366,"lon":5.3627,"is_reserved":false,"is_disabled":false,"rental_uris":{"android":"levelo://app?vid=5b2e4301-8a04-44b6-bb74-5f97ee4e1633","ios":"levelo://app?vid=5b2e4301-8a04-44b6-bb74-5f97ee4e1633"},"vehicle_type_id":"4","last_reported":1758726600,"current_range_meters":17200,"station_id":"ce4bhbh2rcd13ifvqeo0","pricing_plan_id":"cebpf4jnsgd1na2vs0mg"},{"bike_id":"2bd2a176-8590-4e06-8b8c-a96b49b7b36a","system_id":"levelo_inurba_marseille","lat":43.262237,"lon":5.404538,"is_reserved":false,"is_disabled":false,"rental_uris":{"android":"levelo://app?vid=2bd2a176-8590-4e06-8b8c-a96b49b7b36a","ios":"levelo://app?vid=2bd2a176-8590-4e06-8b8c-a96b49b7b36a"},"vehicle_type_id":"4","last_reported":1758726600,"current_range_meters":17200,"station_id":"","pricing_plan_id":"cebpf4jnsgd1na2vs0mg"},{"bike_id":"e58c4858-827b-4361-b036-b982a98a7c89","system_id":"levelo_inurba_marseille","lat":43.289429,"lon":5.396549,"is_reserved":false,"is_disabled":false,"rental_uris":{"android":"levelo://app?vid=e58c4858-827b-4361-b036-b982a98a7c89","ios":"levelo://app?vid=e58c4858-827b-4361-b036-b982a98a7c89"},"vehicle_type_id":"4","last_reported":1758726600,"current_range_meters":16800,"station_id":"ce4bh3h2rcd13ifvqdn0","pricing_plan_id":"cebpf4jnsgd1na2vs0mg"},{"bike_id":"7f26efef-5bca-4964-9649-a135cb9baf4f","system_id":"levelo_inurba_marseille","lat":43.2509,"lon":5.39501,"is_reserved":false,"is_disabled":false,"rental_uris":{"android":"levelo://app?vid=7f26efef-5bca-4964-9649-a135cb9baf4f","ios":"levelo://app?vid=7f26efef-5bca-4964-9649-a135cb9baf4f"},"vehicle_type_id":"4","last_reported":1758726600,"current_range_meters":17200,"station_id":"ce4bhm12rcd13ifvqgkg","pricing_plan_id":"cebpf4jnsgd1na2vs0mg"},{"bike_id":"307dc0d4-f0af-4144-8a09-1c97098433ca","system_id":"levelo_inurba_marseille","lat":43.27947,"lon":5.4106,"is_reserved":false,"is_disabled":false,"rental_uris":{"android":"levelo://app?vid=307dc0d4-f0af-4144-8a09-1c97098433ca","ios":"levelo://app?vid=307dc0d4-f0af-4144-8a09-1c97098433ca"},"vehicle_type_id":"4","last_reported":1758726600,"current_range_meters":17200,"station_id":"ce4bhnp2rcd13ifvqh0g","pricing_plan_id":"cebpf4jnsgd1na2vs0mg"},{"bike_id":"c3901b76-7e89-4227-8270-3218f68b67d5","system_id":"levelo_inurba_marseille","lat":43.27067,"lon":5.42281,"is_reserved":false,"is_disabled":false,"rental_uris":{"android":"levelo://app?vid=c3901b76-7e89-4227-8270-3218f68b67d5","ios":"levelo://app?vid=c3901b76-7e89-4227-8270-3218f68b67d5"},"vehicle_type_id":"4","last_reported":1758726600,"current_range_meters":17200,"station_id":"ce4bhk92rcd13ifvqgb0","pricing_plan_id":"cebpf4jnsgd1na2vs0mg"},{"bike_id":"fc763d0e-b3dd-402f-a248-6e6d074ef021","system_id":"levelo_inurba_marseille","lat":43.301361,"lon":5.398685,"is_reserved":false,"is_disabled":false,"rental_uris":{"android":"levelo://app?vid=fc763d0e-b3dd-402f-a248-6e6d074ef021","ios":"levelo://app?vid=fc763d0e-b3dd-402f-a248-6e6d074ef021"},"vehicle_type_id":"4","last_reported":1758726600,"current_range_meters":17200,"station_id":"ce4bh0h2rcd13ifvqd40","pricing_plan_id":"cebpf4jnsgd1na2vs0mg"},{"bike_id":"29237101-5788-433a-a817-fd7db1732b5b","system_id":"levelo_inurba_marseille","lat":43.28416,"lon":5.37506,"is_reserved":false,"is_disabled":false,"rental_uris":{"android":"levelo://app?vid=29237101-5788-433a-a817-fd7db1732b5b","ios":"levelo://app?vid=29237101-5788-433a-a817-fd7db1732b5b"},"vehicle_type_id":"4","last_reported":1758726600,"current_range_meters":17200,"station_id":"ce4bh412rcd13ifvqds0","pricing_plan_id":"cebpf4jnsgd1na2vs0mg"},{"bike_id":"212de2eb-8bbc-413c-b204-9fe1facd76e8","system_id":"levelo_inurba_marseille","lat":43.31329,"lon":5.37817,"is_reserved":false,"is_disabled":false,"rental_uris":{"android":"levelo://app?vid=212de2eb-8bbc-413c-b204-9fe1facd76e8","ios":"levelo://app?vid=212de2eb-8bbc-413c-b204-9fe1facd76e8"},"vehicle_type_id":"4","last_reported":1758726600,"current_range_meters":17200,"station_id":"","pricing_plan_id":"cebpf4jnsgd1na2vs0mg"},{"bike_id":"9634453d-ea15-49fd-b69e-cd846b289536","system_id":"levelo_inurba_marseille","lat":43.276558,"lon":5.389185,"is_reserved":false,"is_disabled":false,"rental_uris":{"android":"levelo://app?vid=9634453d-ea15-49fd-b69e-cd846b289536","ios":"levelo://app?vid=9634453d-ea15-49fd-b69e-cd846b289536"},"vehicle_type_id":"4","last_reported":1758726600,"current_range_meters":17600,"station_id":"ce4bhi12rcd13ifvqfo0","pricing_plan_id":"cebpf4jnsgd1na2vs0mg"},{"bike_id":"429b97eb-f7cc-4d35-b219-e8e26e3f47e0","system_id":"levelo_inurba_marseille","lat":43.27371,"lon":5.36245,"is_reserved":false,"is_disabled":false,"rental_uris":{"android":"levelo://app?vid=429b97eb-f7cc-4d35-b219-e8e26e3f47e0","ios":"levelo://app?vid=429b97eb-f7cc-4d35-b219-e8e26e3f47e0"},"vehicle_type_id":"4","last_reported":1758726600,"current_range_meters":17600,"station_id":"ce4bhbh2rcd13ifvqeo0","pricing_plan_id":"cebpf4jnsgd1na2vs0mg"},{"bike_id":"90e2fc7e-6adf-4e12-aec7-aaedcf3b94f6","system_id":"levelo_inurba_marseille","lat":43.30128,"lon":5.39877,"is_reserved":false,"is_disabled":false,"rental_uris":{"android":"levelo://app?vid=90e2fc7e-6adf-4e12-aec7-aaedcf3b94f6","ios":"levelo://app?vid=90e2fc7e-6adf-4e12-aec7-aaedcf3b94f6"},"vehicle_type_id":"4","last_reported":1758726600,"current_range_meters":17600,"station_id":"ce4bh0h2rcd13ifvqd40","pricing_plan_id":"cebpf4jnsgd1na2vs0mg"},{"bike_id":"2865e8a9-e6fd-47b8-8029-33c3420fdb82","system_id":"levelo_inurba_marseille","lat":43.29935,"lon":5.3654,"is_reserved":false,"is_disabled":false,"rental_uris":{"android":"levelo://app?vid=2865e8a9-e6fd-47b8-8029-33c3420fdb82","ios":"levelo://app?vid=2865e8a9-e6fd-47b8-8029-33c3420fdb82"},"vehicle_type_id":"4","last_reported":1758726600,"current_range_meters":17600,"station_id":"ce4bgm92rcd13ifvqbr0","pricing_plan_id":"cebpf4jnsgd1na2vs0mg"},{"bike_id":"a069d3a2-de65-4d0f-8bac-106276120994","system_id":"levelo_inurba_marseille","lat":43.26499,"lon":5.39534,"is_reserved":false,"is_disabled":false,"rental_uris":{"android":"levelo://app?vid=a069d3a2-de65-4d0f-8bac-106276120994","ios":"levelo://app?vid=a069d3a2-de65-4d0f-8bac-106276120994"},"vehicle_type_id":"4","last_reported":1758726600,"current_range_meters":17600,"station_id":"ce4bhi12rcd13ifvqfq0","pricing_plan_id":"cebpf4jnsgd1na2vs0mg"},{"bike_id":"e1864d3e-b11d-4ddc-8504-46d411ba79ba","system_id":"levelo_inurba_marseille","lat":43.25098,"lon":5.40323,"is_reserved":false,"is_disabled":false,"rental_uris":{"android":"levelo://app?vid=e1864d3e-b11d-4ddc-8504-46d411ba79ba","ios":"levelo://app?vid=e1864d3e-b11d-4ddc-8504-46d411ba79ba"},"vehicle_type_id":"4","last_reported":1758726600,"current_range_meters":17600,"station_id":"ce4bhlh2rcd13ifvqgig","pricing_plan_id":"cebpf4jnsgd1na2vs0mg"},{"bike_id":"1ecb3b02-6368-4681-8e12-03e2181b7e74","system_id":"levelo_inurba_marseille","lat":43.27376,"lon":5.36255,"is_reserved":false,"is_disabled":false,"rental_uris":{"android":"levelo://app?vid=1ecb3b02-6368-4681-8e12-03e2181b7e74","ios":"levelo://app?vid=1ecb3b02-6368-4681-8e12-03e2181b7e74"},"vehicle_type_id":"4","last_reported":1758726600,"current_range_meters":17600,"station_id":"ce4bhbh2rcd13ifvqeo0","pricing_plan_id":"cebpf4jnsgd1na2vs0mg"},{"bike_id":"9e2e8f94-5917-48bc-847d-c3b5905870af","system_id":"levelo_inurba_marseille","lat":43.26024,"lon":5.41746,"is_reserved":false,"is_disabled":false,"rental_uris":{"android":"levelo://app?vid=9e2e8f94-5917-48bc-847d-c3b5905870af","ios":"levelo://app?vid=9e2e8f94-5917-48bc-847d-c3b5905870af"},"vehicle_type_id":"4","last_reported":1758726600,"current_range_meters":17600,"station_id":"","pricing_plan_id":"cebpf4jnsgd1na2vs0mg"},{"bike_id":"46923300-e0d3-40c1-8c76-7dadc761100f","system_id":"levelo_inurba_marseille","lat":43.29047,"lon":5.35572,"is_reserved":false,"is_disabled":false,"rental_uris":{"android":"levelo://app?vid=46923300-e0d3-40c1-8c76-7dadc761100f","ios":"levelo://app?vid=46923300-e0d3-40c1-8c76-7dadc761100f"},"vehicle_type_id":"4","last_reported":1758726600,"current_range_meters":17600,"station_id":"ce4bhb92rcd13ifvqen0","pricing_plan_id":"cebpf4jnsgd1na2vs0mg"},{"bike_id":"c3fc2c56-8946-4650-8440-7460dd1f0882","system_id":"levelo_inurba_marseille","lat":43.23191,"lon":5.39973,"is_reserved":false,"is_disabled":false,"rental_uris":{"android":"levelo://app?vid=c3fc2c56-8946-4650-8440-7460dd1f0882","ios":"levelo://app?vid=c3fc2c56-8946-4650-8440-7460dd1f0882"},"vehicle_type_id":"4","last_reported":1758726600,"current_range_meters":17600,"station_id":"ce4bhn12rcd13ifvqgqg","pricing_plan_id":"cebpf4jnsgd1na2vs0mg"},{"bike_id":"36fca613-eae8-4b4c-a18b-bd7bad475ed2","system_id":"levelo_inurba_marseille","lat":43.31337,"lon":5.39681,"is_reserved":false,"is_disabled":false,"rental_uris":{"android":"levelo://app?vid=36fca613-eae8-4b4c-a18b-bd7bad475ed2","ios":"levelo://app?vid=36fca613-eae8-4b4c-a18b-bd7bad475ed2"},"vehicle_type_id":"4","last_reported":1758726600,"current_range_meters":17600,"station_id":"ce4bgvp2rcd13ifvqcu0","pricing_plan_id":"cebpf4jnsgd1na2vs0mg"},{"bike_id":"4c34b6b8-8480-406d-b597-2f3b65cf5063","system_id":"levelo_inurba_marseille","lat":43.30303,"lon":5.36893,"is_reserved":false,"is_disabled":false,"rental_uris":{"android":"levelo://app?vid=4c34b6b8-8480-406d-b597-2f3b65cf5063","ios":"levelo://app?vid=4c34b6b8-8480-406d-b597-2f3b65cf5063"},"vehicle_type_id":"4","last_reported":1758726600,"current_range_meters":17600,"station_id":"ce4bgqh2rcd13ifvqc5g","pricing_plan_id":"cebpf4jnsgd1na2vs0mg"},{"bike_id":"ecf1e153-3c54-4493-a695-6a6faa6c1043","system_id":"levelo_inurba_marseille","lat":43.26681,"lon":5.38267,"is_reserved":false,"is_disabled":false,"rental_uris":{"android":"levelo://app?vid=ecf1e153-3c54-4493-a695-6a6faa6c1043","ios":"levelo://app?vid=ecf1e153-3c54-4493-a695-6a6faa6c1043"},"vehicle_type_id":"4","last_reported":1758726600,"current_range_meters":19200,"station_id":"ce4bhg92rcd13ifvqf90","pricing_plan_id":"cebpf4jnsgd1na2vs0mg"},{"bike_id":"b33afcb9-323b-4b25-b34a-d7ff770bee10","system_id":"levelo_inurba_marseille","lat":43.27369,"lon":5.36238,"is_reserved":false,"is_disabled":false,"rental_uris":{"android":"levelo://app?vid=b33afcb9-323b-4b25-b34a-d7ff770bee10","ios":"levelo://app?vid=b33afcb9-323b-4b25-b34a-d7ff770bee10"},"vehicle_type_id":"4","last_reported":1758726600,"current_range_meters":18000,"station_id":"ce4bhbh2rcd13ifvqeo0","pricing_plan_id":"cebpf4jnsgd1na2vs0mg"},{"bike_id":"b5775aa0-5576-4774-b89d-e7e9b76567e4","system_id":"levelo_inurba_marseille","lat":43.290529,"lon":5.359157,"is_reserved":false,"is_disabled":false,"rental_uris":{"android":"levelo://app?vid=b5775aa0-5576-4774-b89d-e7e9b76567e4","ios":"levelo://app?vid=b5775aa0-5576-4774-b89d-e7e9b76567e4"},"vehicle_type_id":"4","last_reported":1758726600,"current_range_meters":18000,"station_id":"ce4bha92rcd13ifvqeg0","pricing_plan_id":"cebpf4jnsgd1na2vs0mg"},{"bike_id":"50573c44-2ac7-4362-836c-b45482c5299f","system_id":"levelo_inurba_marseille","lat":43.24623,"lon":5.43155,"is_reserved":false,"is_disabled":false,"rental_uris":{"android":"levelo://app?vid=50573c44-2ac7-4362-836c-b45482c5299f","ios":"levelo://app?vid=50573c44-2ac7-4362-836c-b45482c5299f"},"vehicle_type_id":"4","last_reported":1758726600,"current_range_meters":18000,"station_id":"st_d2m6c4gdas8pm72e190g","pricing_plan_id":"cebpf4jnsgd1na2vs0mg"},{"bike_id":"f38873eb-61f3-412d-a2d0-094a87602921","system_id":"levelo_inurba_marseille","lat":43.29517,"lon":5.394,"is_reserved":false,"is_disabled":false,"rental_uris":{"android":"levelo://app?vid=f38873eb-61f3-412d-a2d0-094a87602921","ios":"levelo://app?vid=f38873eb-61f3-412d-a2d0-094a87602921"},"vehicle_type_id":"4","last_reported":1758726600,"current_range_meters":19200,"station_id":"ce4bh292rcd13ifvqdf0","pricing_plan_id":"cebpf4jnsgd1na2vs0mg"},{"bike_id":"d0b27e63-b8df-4dbe-828c-cd22fb6e01cd","system_id":"levelo_inurba_marseille","lat":43.29264,"lon":5.37632,"is_reserved":false,"is_disabled":false,"rental_uris":{"android":"levelo://app?vid=d0b27e63-b8df-4dbe-828c-cd22fb6e01cd","ios":"levelo://app?vid=d0b27e63-b8df-4dbe-828c-cd22fb6e01cd"},"vehicle_type_id":"4","last_reported":1758726600,"current_range_meters":18000,"station_id":"ce4bgi12rcd13ifvqb80","pricing_plan_id":"cebpf4jnsgd1na2vs0mg"},{"bike_id":"8beb3c3c-ac9d-4ab4-9b1c-f2c93b4c1bcf","system_id":"levelo_inurba_marseille","lat":43.26559,"lon":5.40323,"is_reserved":false,"is_disabled":false,"rental_uris":{"android":"levelo://app?vid=8beb3c3c-ac9d-4ab4-9b1c-f2c93b4c1bcf","ios":"levelo://app?vid=8beb3c3c-ac9d-4ab4-9b1c-f2c93b4c1bcf"},"vehicle_type_id":"4","last_reported":1758726600,"current_range_meters":18000,"station_id":"ce4bhmp2rcd13ifvqgng","pricing_plan_id":"cebpf4jnsgd1na2vs0mg"},{"bike_id":"327c041e-5c9e-4b0d-a97c-a2dbaab036ae","system_id":"levelo_inurba_marseille","lat":43.3282,"lon":5.41029,"is_reserved":false,"is_disabled":false,"rental_uris":{"android":"levelo://app?vid=327c041e-5c9e-4b0d-a97c-a2dbaab036ae","ios":"levelo://app?vid=327c041e-5c9e-4b0d-a97c-a2dbaab036ae"},"vehicle_type_id":"4","last_reported":1758726600,"current_range_meters":18800,"station_id":"","pricing_plan_id":"cebpf4jnsgd1na2vs0mg"},{"bike_id":"ad143bc4-0025-4bdb-bd8a-f4eaa8fbe22d","system_id":"levelo_inurba_marseille","lat":43.28038,"lon":5.36943,"is_reserved":false,"is_disabled":false,"rental_uris":{"android":"levelo://app?vid=ad143bc4-0025-4bdb-bd8a-f4eaa8fbe22d","ios":"levelo://app?vid=ad143bc4-0025-4bdb-bd8a-f4eaa8fbe22d"},"vehicle_type_id":"4","last_reported":1758726600,"current_range_meters":18800,"station_id":"ce4bha12rcd13ifvqef0","pricing_plan_id":"cebpf4jnsgd1na2vs0mg"},{"bike_id":"725b1ff1-3894-44f1-a38e-91bc39cbab7e","system_id":"levelo_inurba_marseille","lat":43.246365,"lon":5.43138,"is_reserved":false,"is_disabled":false,"rental_uris":{"android":"levelo://app?vid=725b1ff1-3894-44f1-a38e-91bc39cbab7e","ios":"levelo://app?vid=725b1ff1-3894-44f1-a38e-91bc39cbab7e"},"vehicle_type_id":"4","last_reported":1758726600,"current_range_meters":18800,"station_id":"st_d2m6c4gdas8pm72e190g","pricing_plan_id":"cebpf4jnsgd1na2vs0mg"},{"bike_id":"a932b376-757e-4760-b510-416140cd436a","system_id":"levelo_inurba_marseille","lat":43.31279,"lon":5.401728,"is_reserved":false,"is_disabled":false,"rental_uris":{"android":"levelo://app?vid=a932b376-757e-4760-b510-416140cd436a","ios":"levelo://app?vid=a932b376-757e-4760-b510-416140cd436a"},"vehicle_type_id":"4","last_reported":1758726600,"current_range_meters":18800,"station_id":"ce4bh092rcd13ifvqd30","pricing_plan_id":"cebpf4jnsgd1na2vs0mg"},{"bike_id":"0c16ac8a-a536-4d89-a0b4-2803631fd83e","system_id":"levelo_inurba_marseille","lat":43.24989,"lon":5.38937,"is_reserved":false,"is_disabled":false,"rental_uris":{"android":"levelo://app?vid=0c16ac8a-a536-4d89-a0b4-2803631fd83e","ios":"levelo://app?vid=0c16ac8a-a536-4d89-a0b4-2803631fd83e"},"vehicle_type_id":"4","last_reported":1758726600,"current_range_meters":18800,"station_id":"ce4bhgp2rcd13ifvqfd0","pricing_plan_id":"cebpf4jnsgd1na2vs0mg"},{"bike_id":"16dffd37-99b5-45ab-8c70-67c7d9547543","system_id":"levelo_inurba_marseille","lat":43.26029,"lon":5.37557,"is_reserved":false,"is_disabled":false,"rental_uris":{"android":"levelo://app?vid=16dffd37-99b5-45ab-8c70-67c7d9547543","ios":"levelo://app?vid=16dffd37-99b5-45ab-8c70-67c7d9547543"},"vehicle_type_id":"4","last_reported":1758726600,"current_range_meters":18800,"station_id":"ce4bhgh2rcd13ifvqfa0","pricing_plan_id":"cebpf4jnsgd1na2vs0mg"},{"bike_id":"26f33f86-6cec-42fa-9a00-da2d787c3d26","system_id":"levelo_inurba_marseille","lat":43.30138,"lon":5.37416,"is_reserved":false,"is_disabled":false,"rental_uris":{"android":"levelo://app?vid=26f33f86-6cec-42fa-9a00-da2d787c3d26","ios":"levelo://app?vid=26f33f86-6cec-42fa-9a00-da2d787c3d26"},"vehicle_type_id":"4","last_reported":1758726600,"current_range_meters":18800,"station_id":"ce4bgs92rcd13ifvqcc0","pricing_plan_id":"cebpf4jnsgd1na2vs0mg"},{"bike_id":"d31d856a-933d-49cf-948f-ce03657dfc74","system_id":"levelo_inurba_marseille","lat":43.284249,"lon":5.349787,"is_reserved":false,"is_disabled":false,"rental_uris":{"android":"levelo://app?vid=d31d856a-933d-49cf-948f-ce03657dfc74","ios":"levelo://app?vid=d31d856a-933d-49cf-948f-ce03657dfc74"},"vehicle_type_id":"4","last_reported":1758726600,"current_range_meters":18800,"station_id":"ce4bhbh2rcd13ifvqepg","pricing_plan_id":"cebpf4jnsgd1na2vs0mg"},{"bike_id":"e71df8d7-c07c-4aab-bb2b-7f38181b407b","system_id":"levelo_inurba_marseille","lat":43.30596,"lon":5.37216,"is_reserved":false,"is_disabled":false,"rental_uris":{"android":"levelo://app?vid=e71df8d7-c07c-4aab-bb2b-7f38181b407b","ios":"levelo://app?vid=e71df8d7-c07c-4aab-bb2b-7f38181b407b"},"vehicle_type_id":"4","last_reported":1758726600,"current_range_meters":18800,"station_id":"ce4bgqh2rcd13ifvqc4g","pricing_plan_id":"cebpf4jnsgd1na2vs0mg"},{"bike_id":"566931d0-93ab-40f1-93fa-52171bbf5a22","system_id":"levelo_inurba_marseille","lat":43.25863,"lon":5.39912,"is_reserved":false,"is_disabled":false,"rental_uris":{"android":"levelo://app?vid=566931d0-93ab-40f1-93fa-52171bbf5a22","ios":"levelo://app?vid=566931d0-93ab-40f1-93fa-52171bbf5a22"},"vehicle_type_id":"4","last_reported":1758726600,"current_range_meters":18800,"station_id":"ce4bhl92rcd13ifvqghg","pricing_plan_id":"cebpf4jnsgd1na2vs0mg"},{"bike_id":"d09692db-4c04-417b-b999-76a617b90ee2","system_id":"levelo_inurba_marseille","lat":43.26804,"lon":5.40269,"is_reserved":false,"is_disabled":false,"rental_uris":{"android":"levelo://app?vid=d09692db-4c04-417b-b999-76a617b90ee2","ios":"levelo://app?vid=d09692db-4c04-417b-b999-76a617b90ee2"},"vehicle_type_id":"4","last_reported":1758726600,"current_range_meters":20000,"station_id":"ce501612rcd8frsf0b60","pricing_plan_id":"cebpf4jnsgd1na2vs0mg"},{"bike_id":"77d598a6-bfa8-4645-81e0-09e93145a394","system_id":"levelo_inurba_marseille","lat":43.313162,"lon":5.39679,"is_reserved":false,"is_disabled":false,"rental_uris":{"android":"levelo://app?vid=77d598a6-bfa8-4645-81e0-09e93145a394","ios":"levelo://app?vid=77d598a6-bfa8-4645-81e0-09e93145a394"},"vehicle_type_id":"4","last_reported":1758726600,"current_range_meters":18800,"station_id":"ce4bgvp2rcd13ifvqcu0","pricing_plan_id":"cebpf4jnsgd1na2vs0mg"},{"bike_id":"0b5e7d5e-4f7e-49ee-947f-fe60c70c4f00","system_id":"levelo_inurba_marseille","lat":43.2801,"lon":5.40009,"is_reserved":false,"is_disabled":false,"rental_uris":{"android":"levelo://app?vid=0b5e7d5e-4f7e-49ee-947f-fe60c70c4f00","ios":"levelo://app?vid=0b5e7d5e-4f7e-49ee-947f-fe60c70c4f00"},"vehicle_type_id":"4","last_reported":1758726600,"current_range_meters":18800,"station_id":"ce4bho92rcd13ifvqh4g","pricing_plan_id":"cebpf4jnsgd1na2vs0mg"},{"bike_id":"fa0257ae-60fe-44c2-b296-146368fccbd5","system_id":"levelo_inurba_marseille","lat":43.3055,"lon":5.36698,"is_reserved":false,"is_disabled":false,"rental_uris":{"android":"levelo://app?vid=fa0257ae-60fe-44c2-b296-146368fccbd5","ios":"levelo://app?vid=fa0257ae-60fe-44c2-b296-146368fccbd5"},"vehicle_type_id":"4","last_reported":1758726600,"current_range_meters":18800,"station_id":"ce4bgrp2rcd13ifvqc9g","pricing_plan_id":"cebpf4jnsgd1na2vs0mg"},{"bike_id":"4fe57f93-c7fa-4016-a246-de3d4b70ffd6","system_id":"levelo_inurba_marseille","lat":43.2988,"lon":5.38917,"is_reserved":false,"is_disabled":false,"rental_uris":{"android":"levelo://app?vid=4fe57f93-c7fa-4016-a246-de3d4b70ffd6","ios":"levelo://app?vid=4fe57f93-c7fa-4016-a246-de3d4b70ffd6"},"vehicle_type_id":"4","last_reported":1758726600,"current_range_meters":19200,"station_id":"ce4bh392rcd13ifvqdl0","pricing_plan_id":"cebpf4jnsgd1na2vs0mg"},{"bike_id":"fd5f9a01-5205-42b0-ae83-6622b7ba4bd6","system_id":"levelo_inurba_marseille","lat":43.29094,"lon":5.3815,"is_reserved":false,"is_disabled":false,"rental_uris":{"android":"levelo://app?vid=fd5f9a01-5205-42b0-ae83-6622b7ba4bd6","ios":"levelo://app?vid=fd5f9a01-5205-42b0-ae83-6622b7ba4bd6"},"vehicle_type_id":"4","last_reported":1758726600,"current_range_meters":19200,"station_id":"ce4bh512rcd13ifvqe2g","pricing_plan_id":"cebpf4jnsgd1na2vs0mg"},{"bike_id":"8f7d6830-a893-4944-880b-b3f683de5c0e","system_id":"levelo_inurba_marseille","lat":43.305995,"lon":5.372303,"is_reserved":false,"is_disabled":false,"rental_uris":{"android":"levelo://app?vid=8f7d6830-a893-4944-880b-b3f683de5c0e","ios":"levelo://app?vid=8f7d6830-a893-4944-880b-b3f683de5c0e"},"vehicle_type_id":"4","last_reported":1758726600,"current_range_meters":19200,"station_id":"ce4bgqh2rcd13ifvqc4g","pricing_plan_id":"cebpf4jnsgd1na2vs0mg"},{"bike_id":"d55f7cff-ce18-4107-992e-8cb8fb12b05f","system_id":"levelo_inurba_marseille","lat":43.2319,"lon":5.35562,"is_reserved":false,"is_disabled":false,"rental_uris":{"android":"levelo://app?vid=d55f7cff-ce18-4107-992e-8cb8fb12b05f","ios":"levelo://app?vid=d55f7cff-ce18-4107-992e-8cb8fb12b05f"},"vehicle_type_id":"4","last_reported":1758726600,"current_range_meters":19200,"station_id":"ce4bhu92rcd13ifvqi70","pricing_plan_id":"cebpf4jnsgd1na2vs0mg"},{"bike_id":"f897d300-643c-4c7a-951b-f56d70ef23ca","system_id":"levelo_inurba_marseille","lat":43.30323,"lon":5.39077,"is_reserved":false,"is_disabled":false,"rental_uris":{"android":"levelo://app?vid=f897d300-643c-4c7a-951b-f56d70ef23ca","ios":"levelo://app?vid=f897d300-643c-4c7a-951b-f56d70ef23ca"},"vehicle_type_id":"4","last_reported":1758726600,"current_range_meters":19200,"station_id":"","pricing_plan_id":"cebpf4jnsgd1na2vs0mg"},{"bike_id":"bac9ee5c-5545-49da-818c-077c8fa08d7f","system_id":"levelo_inurba_marseille","lat":43.21192,"lon":5.35072,"is_reserved":false,"is_disabled":false,"rental_uris":{"android":"levelo://app?vid=bac9ee5c-5545-49da-818c-077c8fa08d7f","ios":"levelo://app?vid=bac9ee5c-5545-49da-818c-077c8fa08d7f"},"vehicle_type_id":"4","last_reported":1758726600,"current_range_meters":19200,"station_id":"st_cvj6sg6p6f1abm77japg","pricing_plan_id":"cebpf4jnsgd1na2vs0mg"},{"bike_id":"175760d5-253d-4692-91bd-1ac0c3f225e0","system_id":"levelo_inurba_marseille","lat":43.30888,"lon":5.39638,"is_reserved":false,"is_disabled":false,"rental_uris":{"android":"levelo://app?vid=175760d5-253d-4692-91bd-1ac0c3f225e0","ios":"levelo://app?vid=175760d5-253d-4692-91bd-1ac0c3f225e0"},"vehicle_type_id":"4","last_reported":1758726600,"current_range_meters":19200,"station_id":"ce4bh012rcd13ifvqcv0","pricing_plan_id":"cebpf4jnsgd1na2vs0mg"},{"bike_id":"f799cfee-8db6-47d0-9211-1dd04a3e1a27","system_id":"levelo_inurba_marseille","lat":43.241801,"lon":5.397184,"is_reserved":false,"is_disabled":true,"rental_uris":{"android":"levelo://app?vid=f799cfee-8db6-47d0-9211-1dd04a3e1a27","ios":"levelo://app?vid=f799cfee-8db6-47d0-9211-1dd04a3e1a27"},"vehicle_type_id":"4","last_reported":1758726600,"current_range_meters":19200,"station_id":"ce4bhn12rcd13ifvqgpg","pricing_plan_id":"cebpf4jnsgd1na2vs0mg"},{"bike_id":"2d3edc94-444c-47f9-93ff-728f15923eff","system_id":"levelo_inurba_marseille","lat":43.313768,"lon":5.384775,"is_reserved":false,"is_disabled":false,"rental_uris":{"android":"levelo://app?vid=2d3edc94-444c-47f9-93ff-728f15923eff","ios":"levelo://app?vid=2d3edc94-444c-47f9-93ff-728f15923eff"},"vehicle_type_id":"4","last_reported":1758726600,"current_range_meters":18800,"station_id":"ce4bgt92rcd13ifvqcf0","pricing_plan_id":"cebpf4jnsgd1na2vs0mg"},{"bike_id":"098a0529-4ebc-46bc-a7e4-439a0d4574b8","system_id":"levelo_inurba_marseille","lat":43.312118,"lon":5.42475,"is_reserved":false,"is_disabled":false,"rental_uris":{"android":"levelo://app?vid=098a0529-4ebc-46bc-a7e4-439a0d4574b8","ios":"levelo://app?vid=098a0529-4ebc-46bc-a7e4-439a0d4574b8"},"vehicle_type_id":"4","last_reported":1758726600,"current_range_meters":19200,"station_id":"ce4bhp92rcd13ifvqhag","pricing_plan_id":"cebpf4jnsgd1na2vs0mg"},{"bike_id":"69de9079-d6dc-471d-ac03-72140e1ba18c","system_id":"levelo_inurba_marseille","lat":43.29846,"lon":5.36264,"is_reserved":false,"is_disabled":false,"rental_uris":{"android":"levelo://app?vid=69de9079-d6dc-471d-ac03-72140e1ba18c","ios":"levelo://app?vid=69de9079-d6dc-471d-ac03-72140e1ba18c"},"vehicle_type_id":"4","last_reported":1758726600,"current_range_meters":19600,"station_id":"ce4bgpp2rcd13ifvqc3g","pricing_plan_id":"cebpf4jnsgd1na2vs0mg"},{"bike_id":"145fa55b-c845-485e-ad17-517858e4040e","system_id":"levelo_inurba_marseille","lat":43.29369,"lon":5.3785,"is_reserved":false,"is_disabled":false,"rental_uris":{"android":"levelo://app?vid=145fa55b-c845-485e-ad17-517858e4040e","ios":"levelo://app?vid=145fa55b-c845-485e-ad17-517858e4040e"},"vehicle_type_id":"4","last_reported":1758726600,"current_range_meters":19600,"station_id":"ce4bgjh2rcd13ifvqbf0","pricing_plan_id":"cebpf4jnsgd1na2vs0mg"},{"bike_id":"7259b554-d939-421b-8cc8-5369527ce4fa","system_id":"levelo_inurba_marseille","lat":43.30135,"lon":5.3986,"is_reserved":false,"is_disabled":false,"rental_uris":{"android":"levelo://app?vid=7259b554-d939-421b-8cc8-5369527ce4fa","ios":"levelo://app?vid=7259b554-d939-421b-8cc8-5369527ce4fa"},"vehicle_type_id":"4","last_reported":1758726600,"current_range_meters":19600,"station_id":"ce4bh0h2rcd13ifvqd40","pricing_plan_id":"cebpf4jnsgd1na2vs0mg"},{"bike_id":"dec5e3d0-16cf-4f61-8905-2078866bf757","system_id":"levelo_inurba_marseille","lat":43.250845,"lon":5.395097,"is_reserved":false,"is_disabled":false,"rental_uris":{"android":"levelo://app?vid=dec5e3d0-16cf-4f61-8905-2078866bf757","ios":"levelo://app?vid=dec5e3d0-16cf-4f61-8905-2078866bf757"},"vehicle_type_id":"4","last_reported":1758726600,"current_range_meters":19600,"station_id":"ce4bhm12rcd13ifvqgkg","pricing_plan_id":"cebpf4jnsgd1na2vs0mg"},{"bike_id":"60804cbf-7ef8-43bc-b190-bde7175369ff","system_id":"levelo_inurba_marseille","lat":43.29518,"lon":5.39029,"is_reserved":false,"is_disabled":false,"rental_uris":{"android":"levelo://app?vid=60804cbf-7ef8-43bc-b190-bde7175369ff","ios":"levelo://app?vid=60804cbf-7ef8-43bc-b190-bde7175369ff"},"vehicle_type_id":"4","last_reported":1758726600,"current_range_meters":19600,"station_id":"ce4bh3p2rcd13ifvqdp0","pricing_plan_id":"cebpf4jnsgd1na2vs0mg"},{"bike_id":"3ed2fe6e-9e56-4ade-8296-6d0802e35e2d","system_id":"levelo_inurba_marseille","lat":43.299742,"lon":5.371717,"is_reserved":false,"is_disabled":false,"rental_uris":{"android":"levelo://app?vid=3ed2fe6e-9e56-4ade-8296-6d0802e35e2d","ios":"levelo://app?vid=3ed2fe6e-9e56-4ade-8296-6d0802e35e2d"},"vehicle_type_id":"4","last_reported":1758726600,"current_range_meters":19600,"station_id":"ce4bgr92rcd13ifvqc7g","pricing_plan_id":"cebpf4jnsgd1na2vs0mg"},{"bike_id":"041cd397-24ab-4e04-af23-07b961e161f4","system_id":"levelo_inurba_marseille","lat":43.337444,"lon":5.374475,"is_reserved":false,"is_disabled":false,"rental_uris":{"android":"levelo://app?vid=041cd397-24ab-4e04-af23-07b961e161f4","ios":"levelo://app?vid=041cd397-24ab-4e04-af23-07b961e161f4"},"vehicle_type_id":"4","last_reported":1758726600,"current_range_meters":19600,"station_id":"","pricing_plan_id":"cebpf4jnsgd1na2vs0mg"},{"bike_id":"0c1926bd-539d-4889-82ae-c0bedb40b6af","system_id":"levelo_inurba_marseille","lat":43.28936,"lon":5.39612,"is_reserved":false,"is_disabled":false,"rental_uris":{"android":"levelo://app?vid=0c1926bd-539d-4889-82ae-c0bedb40b6af","ios":"levelo://app?vid=0c1926bd-539d-4889-82ae-c0bedb40b6af"},"vehicle_type_id":"4","last_reported":1758726600,"current_range_meters":19600,"station_id":"ce4bh3h2rcd13ifvqdn0","pricing_plan_id":"cebpf4jnsgd1na2vs0mg"},{"bike_id":"b6ff3672-4e7c-404c-ab2a-bd902cf95e14","system_id":"levelo_inurba_marseille","lat":43.26844,"lon":5.40687,"is_reserved":false,"is_disabled":false,"rental_uris":{"android":"levelo://app?vid=b6ff3672-4e7c-404c-ab2a-bd902cf95e14","ios":"levelo://app?vid=b6ff3672-4e7c-404c-ab2a-bd902cf95e14"},"vehicle_type_id":"4","last_reported":1758726600,"current_range_meters":19600,"station_id":"","pricing_plan_id":"cebpf4jnsgd1na2vs0mg"},{"bike_id":"c55a3a38-41a3-45ea-82ec-160dd7ecccbb","system_id":"levelo_inurba_marseille","lat":43.27917,"lon":5.39575,"is_reserved":false,"is_disabled":false,"rental_uris":{"android":"levelo://app?vid=c55a3a38-41a3-45ea-82ec-160dd7ecccbb","ios":"levelo://app?vid=c55a3a38-41a3-45ea-82ec-160dd7ecccbb"},"vehicle_type_id":"4","last_reported":1758726600,"current_range_meters":19600,"station_id":"ce4bhf92rcd13ifvqf40","pricing_plan_id":"cebpf4jnsgd1na2vs0mg"},