{"last_updated":1685117271,"ttl":30,"version":"2.2","data":{"bikes":[{"bike_id":"07eb9f64-482b-4689-a39f-ad793d887ca9","system_id":"levelo_inurba_marseille","lat":43.30537,"lon":5.367345,"is_reserved":false,"is_disabled":false,"rental_uris":{"android":"levelo://app?vid=07eb9f64-482b-4689-a39f-ad793d887ca9","ios":"levelo://app?vid=07eb9f64-482b-4689-a39f-ad793d887ca9"},"vehicle_type_id":"4","last_reported":1685117271,"current_range_meters":0,"station_id":"ce4bgrp2rcd13ifvqc9g","pricing_plan_id":"free"},{"bike_id":"8677330c-4391-4423-b41e-97e55f179411","system_id":"levelo_inurba_marseille","lat":43.30537,"lon":5.367345,"is_reserved":false,"is_disabled":false,"rental_uris":{"android":"levelo://app?vid=8677330c-4391-4423-b41e-97e55f179411","ios":"levelo://app?vid=8677330c-4391-4423-b41e-97e55f179411"},"vehicle_type_id":"4","last_reported":1685117271,"current_range_meters":800,"station_id":"ce4bgrp2rcd13ifvqc9g","pricing_plan_id":"free"},{"bike_id":"b507b090-d1db-4525-a41b-554ee0cf60d0","system_id":"levelo_inurba_marseille","lat":43.305989,"lon":5.37225,"is_reserved":false,"is_disabled":false,"rental_uris":{"android":"levelo://app?vid=b507b090-d1db-4525-a41b-554ee0cf60d0","ios":"levelo://app?vid=b507b090-d1db-4525-a41b-554ee0cf60d0"},"vehicle_type_id":"4","last_reported":1685117271,"current_range_meters":6000,"station_id":"ce4bgqh2rcd13ifvqc4g","pricing_plan_id":"free"},{"bike_id":"a2023827-e262-44fe-9a4c-3034c771a5bf","system_id":"levelo_inurba_marseille","lat":43.305989,"lon":5.37225,"is_reserved":false,"is_disabled":false,"rental_uris":{"android":"levelo://app?vid=a2023827-e262-44fe-9a4c-3034c771a5bf","ios":"levelo://app?vid=a2023827-e262-44fe-9a4c-3034c771a5bf"},"vehicle_type_id":"4","last_reported":1685117271,"current_range_meters":9600,"station_id":"ce4bgqh2rcd13ifvqc4g","pricing_plan_id":"free"},{"bike_id":"b81f9f56-b869-421c-a26b-5fcd7de5474c","system_id":"levelo_inurba_marseille","lat":43.305989,"lon":5.37225,"is_reserved":false,"is_disabled":false,"rental_uris":{"android":"levelo://app?vid=b81f9f56-b869-421c-a26b-5fcd7de5474c","ios":"levelo://app?vid=b81f9f56-b869-421c-a26b-5fcd7de5474c"},"vehicle_type_id":"4","last_reported":1685117271,"current_range_meters":4000,"station_id":"ce4bgqh2rcd13ifvqc4g","pricing_plan_id":"free"},{"bike_id":"e917ed13-c5b8-4c08-b5ae-6d3a2e048f9e","system_id":"levelo_inurba_marseille","lat":43.305989,"lon":5.37225,"is_reserved":false,"is_disabled":false,"rental_uris":{"android":"levelo://app?vid=e917ed13-c5b8-4c08-b5ae-6d3a2e048f9e","ios":"levelo://app?vid=e917ed13-c5b8-4c08-b5ae-6d3a2e048f9e"},"vehicle_type_id":"4","last_reported":1685117271,"current_range_meters":0,"station_id":"ce4bgqh2rcd13ifvqc4g","pricing_plan_id":"free"},{"bike_id":"d04fed57-b44d-4155-b783-f48b19b5b09e","system_id":"levelo_inurba_marseille","lat":43.317075,"lon":5.377367,"is_reserved":false,"is_disabled":false,"rental_uris":{"android":"levelo://app?vid=d04fed57-b44d-4155-b783-f48b19b5b09e","ios":"levelo://app?vid=d04fed57-b44d-4155-b783-f48b19b5b09e"},"vehicle_type_id":"4","last_reported":1685117271,"current_range_meters":1200,"station_id":"ce4bgth2rcd13ifvqch0","pricing_plan_id":"free"},{"bike_id":"f47b8c93-abbd-42bc-9979-f8f6f8e17204","system_id":"levelo_inurba_marseille","lat":43.317075,"lon":5.377367,"is_reserved":false,"is_disabled":false,"rental_uris":{"android":"levelo://app?vid=f47b8c93-abbd-42bc-9979-f8f6f8e17204","ios":"levelo://app?vid=f47b8c93-abbd-42bc-9979-f8f6f8e17204"},"vehicle_type_id":"4","last_reported":1685117271,"current_range_meters":12000,"station_id":"ce4bgth2rcd13ifvqch0","pricing_plan_id":"free"},{"bike_id":"53b73a03-1ea9-4616-877f-850722ecc6a5","system_id":"levelo_inurba_marseille","lat":43.30357,"lon":5.36509,"is_reserved":false,"is_disabled":false,"rental_uris":{"android":"levelo://app?vid=53b73a03-1ea9-4616-877f-850722ecc6a5","ios":"levelo://app?vid=53b73a03-1ea9-4616-877f-850722ecc6a5"},"vehicle_type_id":"4","last_reported":1685117271,"current_range_meters":15200,"station_id":"","pricing_plan_id":"free"},{"bike_id":"c0b0d062-8275-40cf-8874-7d9d55ab7e88","system_id":"levelo_inurba_marseille","lat":43.31713,"lon":5.37832,"is_reserved":false,"is_disabled":false,"rental_uris":{"android":"levelo://app?vid=c0b0d062-8275-40cf-8874-7d9d55ab7e88","ios":"levelo://app?vid=c0b0d062-8275-40cf-8874-7d9d55ab7e88"},"vehicle_type_id":"4","last_reported":1685117271,"current_range_meters":24000,"station_id":"","pricing_plan_id":"free"},{"bike_id":"513987ec-67db-4da3-b239-a83acc09c537","system_id":"levelo_inurba_marseille","lat":43.308213,"lon":5.381587,"is_reserved":false,"is_disabled":false,"rental_uris":{"android":"levelo://app?vid=513987ec-67db-4da3-b239-a83acc09c537","ios":"levelo://app?vid=513987ec-67db-4da3-b239-a83acc09c537"},"vehicle_type_id":"4","last_reported":1685117271,"current_range_meters":2800,"station_id":"","pricing_plan_id":"free"},{"bike_id":"f7b862ae-1aa8-45c9-b202-0afc6770a555","system_id":"levelo_inurba_marseille","lat":43.304606,"lon":5.379026,"is_reserved":false,"is_disabled":false,"rental_uris":{"android":"levelo://app?vid=f7b862ae-1aa8-45c9-b202-0afc6770a555","ios":"levelo://app?vid=f7b862ae-1aa8-45c9-b202-0afc6770a555"},"vehicle_type_id":"4","last_reported":1685117271,"current_range_meters":23200,"station_id":"ce4bgup2rcd13ifvqcn0","pricing_plan_id":"free"},{"bike_id":"7319737a-e0eb-4e11-995b-8f27660124d1","system_id":"levelo_inurba_marseille","lat":43.295748,"lon":5.37522,"is_reserved":false,"is_disabled":false,"rental_uris":{"android":"levelo://app?vid=7319737a-e0eb-4e11-995b-8f27660124d1","ios":"levelo://app?vid=7319737a-e0eb-4e11-995b-8f27660124d1"},"vehicle_type_id":"4","last_reported":1685117271,"current_range_meters":1600,"station_id":"ce4bgh92rcd13ifvqb50","pricing_plan_id":"free"},{"bike_id":"349d9741-cc49-4a2d-b5cd-5c5cc0d1403f","system_id":"levelo_inurba_marseille","lat":43.30137,"lon":5.37412,"is_reserved":false,"is_disabled":false,"rental_uris":{"android":"levelo://app?vid=349d9741-cc49-4a2d-b5cd-5c5cc0d1403f","ios":"levelo://app?vid=349d9741-cc49-4a2d-b5cd-5c5cc0d1403f"},"vehicle_type_id":"4","last_reported":1685117271,"current_range_meters":27600,"station_id":"","pricing_plan_id":"free"},{"bike_id":"bfdcad51-97fc-4fc5-8b82-c545596782cd","system_id":"levelo_inurba_marseille","lat":43.319935,"lon":5.381699,"is_reserved":false,"is_disabled":false,"rental_uris":{"android":"levelo://app?vid=bfdcad51-97fc-4fc5-8b82-c545596782cd","ios":"levelo://app?vid=bfdcad51-97fc-4fc5-8b82-c545596782cd"},"vehicle_type_id":"4","last_reported":1685117271,"current_range_meters":28000,"station_id":"ce4bhr12rcd13ifvqhpg","pricing_plan_id":"free"},{"bike_id":"e5571f58-adb6-49b7-8c86-2d757ae8e1a0","system_id":"levelo_inurba_marseille","lat":43.319935,"lon":5.381699,"is_reserved":false,"is_disabled":false,"rental_uris":{"android":"levelo://app?vid=e5571f58-adb6-49b7-8c86-2d757ae8e1a0","ios":"levelo://app?vid=e5571f58-adb6-49b7-8c86-2d757ae8e1a0"},"vehicle_type_id":"4","last_reported":1685117271,"current_range_meters":17600,"station_id":"ce4bhr12rcd13ifvqhpg","pricing_plan_id":"free"},{"bike_id":"15085faf-94d1-454c-8de1-c9482918e24b","system_id":"levelo_inurba_marseille","lat":43.31995,"lon":5.38163,"is_reserved":false,"is_disabled":false,"rental_uris":{"android":"levelo://app?vid=15085faf-94d1-454c-8de1-c9482918e24b","ios":"levelo://app?vid=15085faf-94d1-454c-8de1-c9482918e24b"},"vehicle_type_id":"4","last_reported":1685117271,"current_range_meters":8400,"station_id":"ce4bhr12rcd13ifvqhpg","pricing_plan_id":"free"},{"bike_id":"bba0a9c4-edca-4f99-804b-d6e6cfd96ba4","system_id":"levelo_inurba_marseille","lat":43.313571,"lon":5.384829,"is_reserved":false,"is_disabled":false,"rental_uris":{"android":"levelo://app?vid=bba0a9c4-edca-4f99-804b-d6e6cfd96ba4","ios":"levelo://app?vid=bba0a9c4-edca-4f99-804b-d6e6cfd96ba4"},"vehicle_type_id":"4","last_reported":1685117271,"current_range_meters":400,"station_id":"ce4bgt92rcd13ifvqcf0","pricing_plan_id":"free"},{"bike_id":"0d6739ca-c2fe-4c7a-a843-4491068a992b","system_id":"levelo_inurba_marseille","lat":43.31356,"lon":5.38523,"is_reserved":false,"is_disabled":false,"rental_uris":{"android":"levelo://app?vid=0d6739ca-c2fe-4c7a-a843-4491068a992b","ios":"levelo://app?vid=0d6739ca-c2fe-4c7a-a843-4491068a992b"},"vehicle_type_id":"4","last_reported":1685117271,"current_range_meters":24000,"station_id":"","pricing_plan_id":"free"},{"bike_id":"0795638d-2f9f-4931-bce0-0a5d04aafa29","system_id":"levelo_inurba_marseille","lat":43.298433,"lon":5.362774,"is_reserved":false,"is_disabled":false,"rental_uris":{"android":"levelo://app?vid=0795638d-2f9f-4931-bce0-0a5d04aafa29","ios":"levelo://app?vid=0795638d-2f9f-4931-bce0-0a5d04aafa29"},"vehicle_type_id":"4","last_reported":1685117271,"current_range_meters":30400,"station_id":"ce4bgpp2rcd13ifvqc3g","pricing_plan_id":"free"},{"bike_id":"8fbcbc66-ffee-4765-aec6-77fda73e8634","system_id":"levelo_inurba_marseille","lat":43.298433,"lon":5.362774,"is_reserved":false,"is_disabled":false,"rental_uris":{"android":"levelo://app?vid=8fbcbc66-ffee-4765-aec6-77fda73e8634","ios":"levelo://app?vid=8fbcbc66-ffee-4765-aec6-77fda73e8634"},"vehicle_type_id":"4","last_reported":1685117271,"current_range_meters":0,"station_id":"ce4bgpp2rcd13ifvqc3g","pricing_plan_id":"free"},{"bike_id":"12f550c3-c404-4b46-9430-c9525a7e3bb6","system_id":"levelo_inurba_marseille","lat":43.298433,"lon":5.362774,"is_reserved":false,"is_disabled":false,"rental_uris":{"android":"levelo://app?vid=12f550c3-c404-4b46-9430-c9525a7e3bb6","ios":"levelo://app?vid=12f550c3-c404-4b46-9430-c9525a7e3bb6"},"vehicle_type_id":"4","last_reported":1685117271,"current_range_meters":26000,"station_id":"ce4bgpp2rcd13ifvqc3g","pricing_plan_id":"free"},{"bike_id":"403a06e0-9eb3-406a-a674-b146035a71df","system_id":"levelo_inurba_marseille","lat":43.299243,"lon":5.37481,"is_reserved":false,"is_disabled":false,"rental_uris":{"android":"levelo://app?vid=403a06e0-9eb3-406a-a674-b146035a71df","ios":"levelo://app?vid=403a06e0-9eb3-406a-a674-b146035a71df"},"vehicle_type_id":"4","last_reported":1685117271,"current_range_meters":0,"station_id":"ce4bgjh2rcd13ifvqbg0","pricing_plan_id":"free"},{"bike_id":"67126341-16a4-4014-8728-ec25c1fc6d71","system_id":"levelo_inurba_marseille","lat":43.297794,"lon":5.370888,"is_reserved":false,"is_disabled":false,"rental_uris":{"android":"levelo://app?vid=67126341-16a4-4014-8728-ec25c1fc6d71","ios":"levelo://app?vid=67126341-16a4-4014-8728-ec25c1fc6d71"},"vehicle_type_id":"4","last_reported":1685117271,"current_range_meters":29200,"station_id":"ce4bgop2rcd13ifvqc1g","pricing_plan_id":"free"},{"bike_id":"c1a05d9a-ad97-4a75-ac1f-858564516ae2","system_id":"levelo_inurba_marseille","lat":43.29721,"lon":5.36624,"is_reserved":false,"is_disabled":false,"rental_uris":{"android":"levelo://app?vid=c1a05d9a-ad97-4a75-ac1f-858564516ae2","ios":"levelo://app?vid=c1a05d9a-ad97-4a75-ac1f-858564516ae2"},"vehicle_type_id":"4","last_reported":1685117271,"current_range_meters":2400,"station_id":"","pricing_plan_id":"free"},{"bike_id":"15bdd509-ac6b-486d-a3af-74b1c552f2cb","system_id":"levelo_inurba_marseille","lat":43.32832,"lon":5.36688,"is_reserved":false,"is_disabled":false,"rental_uris":{"android":"levelo://app?vid=15bdd509-ac6b-486d-a3af-74b1c552f2cb","ios":"levelo://app?vid=15bdd509-ac6b-486d-a3af-74b1c552f2cb"},"vehicle_type_id":"4","last_reported":1685117271,"current_range_meters":15200,"station_id":"ce4bhs92rcd13ifvqi0g","pricing_plan_id":"free"},{"bike_id":"429b97c6-a371-4978-8ba9-f3c604051290","system_id":"levelo_inurba_marseille","lat":43.29716,"lon":5.36616,"is_reserved":false,"is_disabled":false,"rental_uris":{"android":"levelo://app?vid=429b97c6-a371-4978-8ba9-f3c604051290","ios":"levelo://app?vid=429b97c6-a371-4978-8ba9-f3c604051290"},"vehicle_type_id":"4","last_reported":1685117271,"current_range_meters":11600,"station_id":"","pricing_plan_id":"free"},{"bike_id":"bbf06f8d-4083-4a31-beff-723604c0f8b8","system_id":"levelo_inurba_marseille","lat":43.32835,"lon":5.36692,"is_reserved":false,"is_disabled":false,"rental_uris":{"android":"levelo://app?vid=bbf06f8d-4083-4a31-beff-723604c0f8b8","ios":"levelo://app?vid=bbf06f8d-4083-4a31-beff-723604c0f8b8"},"vehicle_type_id":"4","last_reported":1685117271,"current_range_meters":0,"station_id":"ce4bhs92rcd13ifvqi0g","pricing_plan_id":"free"},{"bike_id":"b5387c8b-1aeb-4c0b-bf7e-29bd1cef36b6","system_id":"levelo_inurba_marseille","lat":43.29714,"lon":5.36604,"is_reserved":false,"is_disabled":false,"rental_uris":{"android":"levelo://app?vid=b5387c8b-1aeb-4c0b-bf7e-29bd1cef36b6","ios":"levelo://app?vid=b5387c8b-1aeb-4c0b-bf7e-29bd1cef36b6"},"vehicle_type_id":"4","last_reported":1685117271,"current_range_meters":19200,"station_id":"","pricing_plan_id":"free"},{"bike_id":"4bd720e4-aec2-484b-bf84-7b6cf8400a43","system_id":"levelo_inurba_marseille","lat":43.29713,"lon":5.36606,"is_reserved":false,"is_disabled":false,"rental_uris":{"android":"levelo://app?vid=4bd720e4-aec2-484b-bf84-7b6cf8400a43","ios":"levelo://app?vid=4bd720e4-aec2-484b-bf84-7b6cf8400a43"},"vehicle_type_id":"4","last_reported":1685117271,"current_range_meters":11200,"station_id":"","pricing_plan_id":"free"},{"bike_id":"fd2f7b4b-349a-4854-83fe-5b667e45995a","system_id":"levelo_inurba_marseille","lat":43.3151,"lon":5.38924,"is_reserved":false,"is_disabled":false,"rental_uris":{"android":"levelo://app?vid=fd2f7b4b-349a-4854-83fe-5b667e45995a","ios":"levelo://app?vid=fd2f7b4b-349a-4854-83fe-5b667e45995a"},"vehicle_type_id":"4","last_reported":1685117271,"current_range_meters":24000,"station_id":"","pricing_plan_id":"free"},{"bike_id":"26ffb7c1-dfff-434c-8734-8723ca682b71","system_id":"levelo_inurba_marseille","lat":43.29597,"lon":5.36914,"is_reserved":false,"is_disabled":false,"rental_uris":{"android":"levelo://app?vid=26ffb7c1-dfff-434c-8734-8723ca682b71","ios":"levelo://app?vid=26ffb7c1-dfff-434c-8734-8723ca682b71"},"vehicle_type_id":"4","last_reported":1685117271,"current_range_meters":18000,"station_id":"","pricing_plan_id":"free"},{"bike_id":"521a2ae4-946b-47bf-ba22-cf10bef5a9f9","system_id":"levelo_inurba_marseille","lat":43.29623,"lon":5.37155,"is_reserved":false,"is_disabled":false,"rental_uris":{"android":"levelo://app?vid=521a2ae4-946b-47bf-ba22-cf10bef5a9f9","ios":"levelo://app?vid=521a2ae4-946b-47bf-ba22-cf10bef5a9f9"},"vehicle_type_id":"4","last_reported":1685117271,"current_range_meters":14000,"station_id":"ce4bgk12rcd13ifvqbj0","pricing_plan_id":"free"},{"bike_id":"a34cbb7e-3cde-47f8-8d8f-b0fbec205ae7","system_id":"levelo_inurba_marseille","lat":43.296129,"lon":5.370777,"is_reserved":false,"is_disabled":false,"rental_uris":{"android":"levelo://app?vid=a34cbb7e-3cde-47f8-8d8f-b0fbec205ae7","ios":"levelo://app?vid=a34cbb7e-3cde-47f8-8d8f-b0fbec205ae7"},"vehicle_type_id":"4","last_reported":1685117271,"current_range_meters":4400,"station_id":"ce4bgnh2rcd13ifvqc0g","pricing_plan_id":"free"},{"bike_id":"230e9ef9-48f9-42e1-92f6-686bc9dcb6bb","system_id":"levelo_inurba_marseille","lat":43.296131,"lon":5.370791,"is_reserved":false,"is_disabled":false,"rental_uris":{"android":"levelo://app?vid=230e9ef9-48f9-42e1-92f6-686bc9dcb6bb","ios":"levelo://app?vid=230e9ef9-48f9-42e1-92f6-686bc9dcb6bb"},"vehicle_type_id":"4","last_reported":1685117271,"current_range_meters":25600,"station_id":"ce4bgnh2rcd13ifvqc0g","pricing_plan_id":"free"},{"bike_id":"f932b5f9-b5d2-4f28-be2e-74e8dbcb06d0","system_id":"levelo_inurba_marseille","lat":43.299007,"lon":5.380795,"is_reserved":false,"is_disabled":false,"rental_uris":{"android":"levelo://app?vid=f932b5f9-b5d2-4f28-be2e-74e8dbcb06d0","ios":"levelo://app?vid=f932b5f9-b5d2-4f28-be2e-74e8dbcb06d0"},"vehicle_type_id":"4","last_reported":1685117271,"current_range_meters":12400,"station_id":"","pricing_plan_id":"free"},{"bike_id":"b2ccc6a7-4eec-44de-abee-48cb7e3d3ea1","system_id":"levelo_inurba_marseille","lat":43.299028,"lon":5.381509,"is_reserved":false,"is_disabled":false,"rental_uris":{"android":"levelo://app?vid=b2ccc6a7-4eec-44de-abee-48cb7e3d3ea1","ios":"levelo://app?vid=b2ccc6a7-4eec-44de-abee-48cb7e3d3ea1"},"vehicle_type_id":"4","last_reported":1685117271,"current_range_meters":25600,"station_id":"ce4bgj12rcd13ifvqbc0","pricing_plan_id":"free"},{"bike_id":"aaf20423-de86-4a5a-8f8a-3213a3eb4035","system_id":"levelo_inurba_marseille","lat":43.297064,"lon":5.376895,"is_reserved":false,"is_disabled":false,"rental_uris":{"android":"levelo://app?vid=aaf20423-de86-4a5a-8f8a-3213a3eb4035","ios":"levelo://app?vid=aaf20423-de86-4a5a-8f8a-3213a3eb4035"},"vehicle_type_id":"4","last_reported":1685117271,"current_range_meters":15600,"station_id":"","pricing_plan_id":"free"},{"bike_id":"7ab9ace0-f5ea-457a-bed7-ae738919f497","system_id":"levelo_inurba_marseille","lat":43.309589,"lon":5.390258,"is_reserved":false,"is_disabled":false,"rental_uris":{"android":"levelo://app?vid=7ab9ace0-f5ea-457a-bed7-ae738919f497","ios":"levelo://app?vid=7ab9ace0-f5ea-457a-bed7-ae738919f497"},"vehicle_type_id":"4","last_reported":1685117271,"current_range_meters":25200,"station_id":"ce4bgup2rcd13ifvqco0","pricing_plan_id":"free"},{"bike_id":"5689aeb4-256b-4c3a-b9ac-abee35e8c56d","system_id":"levelo_inurba_marseille","lat":43.304278,"lon":5.388868,"is_reserved":false,"is_disabled":false,"rental_uris":{"android":"levelo://app?vid=5689aeb4-256b-4c3a-b9ac-abee35e8c56d","ios":"levelo://app?vid=5689aeb4-256b-4c3a-b9ac-abee35e8c56d"},"vehicle_type_id":"4","last_reported":1685117271,"current_range_meters":0,"station_id":"ce4bgk12rcd13ifvqbi0","pricing_plan_id":"free"},{"bike_id":"1b161887-1ee1-4d2f-8ca7-e8f9f02e1981","system_id":"levelo_inurba_marseille","lat":43.317557,"lon":5.390173,"is_reserved":false,"is_disabled":false,"rental_uris":{"android":"levelo://app?vid=1b161887-1ee1-4d2f-8ca7-e8f9f02e1981","ios":"levelo://app?vid=1b161887-1ee1-4d2f-8ca7-e8f9f02e1981"},"vehicle_type_id":"4","last_reported":1685117271,"current_range_meters":18800,"station_id":"ce4bhqp2rcd13ifvqhng","pricing_plan_id":"free"},{"bike_id":"012e0871-66ac-47c8-9551-136bc8d51b44","system_id":"levelo_inurba_marseille","lat":43.298037,"lon":5.381066,"is_reserved":false,"is_disabled":false,"rental_uris":{"android":"levelo://app?vid=012e0871-66ac-47c8-9551-136bc8d51b44","ios":"levelo://app?vid=012e0871-66ac-47c8-9551-136bc8d51b44"},"vehicle_type_id":"4","last_reported":1685117271,"current_range_meters":20800,"station_id":"ce4bgip2rcd13ifvqbb0","pricing_plan_id":"free"},{"bike_id":"108cc8a0-9652-47e8-8502-068ac28f831f","system_id":"levelo_inurba_marseille","lat":43.298037,"lon":5.381066,"is_reserved":false,"is_disabled":false,"rental_uris":{"android":"levelo://app?vid=108cc8a0-9652-47e8-8502-068ac28f831f","ios":"levelo://app?vid=108cc8a0-9652-47e8-8502-068ac28f831f"},"vehicle_type_id":"4","last_reported":1685117271,"current_range_meters":29600,"station_id":"ce4bgip2rcd13ifvqbb0","pricing_plan_id":"free"},{"bike_id":"19b374d7-e473-4ce6-bb3f-c113bac8ce8c","system_id":"levelo_inurba_marseille","lat":43.298037,"lon":5.381066,"is_reserved":false,"is_disabled":false,"rental_uris":{"android":"levelo://app?vid=19b374d7-e473-4ce6-bb3f-c113bac8ce8c","ios":"levelo://app?vid=19b374d7-e473-4ce6-bb3f-c113bac8ce8c"},"vehicle_type_id":"4","last_reported":1685117271,"current_range_meters":30400,"station_id":"ce4bgip2rcd13ifvqbb0","pricing_plan_id":"free"},{"bike_id":"8dd68cbb-d5ac-4a4a-b764-9e52cfc4966c","system_id":"levelo_inurba_marseille","lat":43.298037,"lon":5.381066,"is_reserved":false,"is_disabled":false,"rental_uris":{"android":"levelo://app?vid=8dd68cbb-d5ac-4a4a-b764-9e52cfc4966c","ios":"levelo://app?vid=8dd68cbb-d5ac-4a4a-b764-9e52cfc4966c"},"vehicle_type_id":"4","last_reported":1685117271,"current_range_meters":20400,"station_id":"ce4bgip2rcd13ifvqbb0","pricing_plan_id":"free"},{"bike_id":"9af9cccb-9a35-48a8-a0c4-2158b0b3543c","system_id":"levelo_inurba_marseille","lat":43.2962,"lon":5.37728,"is_reserved":false,"is_disabled":false,"rental_uris":{"android":"levelo://app?vid=9af9cccb-9a35-48a8-a0c4-2158b0b3543c","ios":"levelo://app?vid=9af9cccb-9a35-48a8-a0c4-2158b0b3543c"},"vehicle_type_id":"4","last_reported":1685117271,"current_range_meters":6800,"station_id":"ce4bgi92rcd13ifvqb90","pricing_plan_id":"free"},{"bike_id":"6cb94a8a-a95b-4a70-a072-b2a0e5d9fcc6","system_id":"levelo_inurba_marseille","lat":43.296263,"lon":5.377094,"is_reserved":false,"is_disabled":false,"rental_uris":{"android":"levelo://app?vid=6cb94a8a-a95b-4a70-a072-b2a0e5d9fcc6","ios":"levelo://app?vid=6cb94a8a-a95b-4a70-a072-b2a0e5d9fcc6"},"vehicle_type_id":"4","last_reported":1685117271,"current_range_meters":26800,"station_id":"ce4bgi92rcd13ifvqb90","pricing_plan_id":"free"},{"bike_id":"35c1ad93-c8a7-42a9-9e63-d85d8c1454d3","system_id":"levelo_inurba_marseille","lat":43.296263,"lon":5.377094,"is_reserved":false,"is_disabled":false,"rental_uris":{"android":"levelo://app?vid=35c1ad93-c8a7-42a9-9e63-d85d8c1454d3","ios":"levelo://app?vid=35c1ad93-c8a7-42a9-9e63-d85d8c1454d3"},"vehicle_type_id":"4","last_reported":1685117271,"current_range_meters":15200,"station_id":"ce4bgi92rcd13ifvqb90","pricing_plan_id":"free"},{"bike_id":"cf7d91f0-62b4-40eb-8085-b4c259a14e6f","system_id":"levelo_inurba_marseille","lat":43.293249,"lon":5.371578,"is_reserved":false,"is_disabled":false,"rental_uris":{"android":"levelo://app?vid=cf7d91f0-62b4-40eb-8085-b4c259a14e6f","ios":"levelo://app?vid=cf7d91f0-62b4-40eb-8085-b4c259a14e6f"},"vehicle_type_id":"4","last_reported":1685117271,"current_range_meters":15600,"station_id":"ce4bgh92rcd13ifvqb40","pricing_plan_id":"free"},{"bike_id":"f18b79dc-3669-42df-bb1c-c35ce42bacee","system_id":"levelo_inurba_marseille","lat":43.295279,"lon":5.375048,"is_reserved":false,"is_disabled":false,"rental_uris":{"android":"levelo://app?vid=f18b79dc-3669-42df-bb1c-c35ce42bacee","ios":"levelo://app?vid=f18b79dc-3669-42df-bb1c-c35ce42bacee"},"vehicle_type_id":"4","last_reported":1685117271,"current_range_meters":20000,"station_id":"ce4bgkp2rcd13ifvqbmg","pricing_plan_id":"free"},{"bike_id":"37968730-2612-456d-8cba-cbd6c9565c01","system_id":"levelo_inurba_marseille","lat":43.295279,"lon":5.375048,"is_reserved":false,"is_disabled":false,"rental_uris":{"android":"levelo://app?vid=37968730-2612-456d-8cba-cbd6c9565c01","ios":"levelo://app?vid=37968730-2612-456d-8cba-cbd6c9565c01"},"vehicle_type_id":"4","last_reported":1685117271,"current_range_meters":400,"station_id":"ce4bgkp2rcd13ifvqbmg","pricing_plan_id":"free"},{"bike_id":"1ac10b3d-0ca3-4d42-8862-bf6581b947d9","system_id":"levelo_inurba_marseille","lat":43.299717,"lon":5.384845,"is_reserved":false,"is_disabled":false,"rental_uris":{"android":"levelo://app?vid=1ac10b3d-0ca3-4d42-8862-bf6581b947d9","ios":"levelo://app?vid=1ac10b3d-0ca3-4d42-8862-bf6581b947d9"},"vehicle_type_id":"4","last_reported":1685117271,"current_range_meters":4000,"station_id":"ce4bgj92rcd13ifvqbd0","pricing_plan_id":"free"},{"bike_id":"c7c3096c-16f4-480a-95e8-bed80989e496","system_id":"levelo_inurba_marseille","lat":43.32365,"lon":5.38889,"is_reserved":false,"is_disabled":false,"rental_uris":{"android":"levelo://app?vid=c7c3096c-16f4-480a-95e8-bed80989e496","ios":"levelo://app?vid=c7c3096c-16f4-480a-95e8-bed80989e496"},"vehicle_type_id":"4","last_reported":1685117271,"current_range_meters":1600,"station_id":"ce4bhqp2rcd13ifvqhog","pricing_plan_id":"free"},{"bike_id":"059f19d8-d926-4228-aaf9-fcb0966dccf5","system_id":"levelo_inurba_marseille","lat":43.29374,"lon":5.37274,"is_reserved":false,"is_disabled":false,"rental_uris":{"android":"levelo://app?vid=059f19d8-d926-4228-aaf9-fcb0966dccf5","ios":"levelo://app?vid=059f19d8-d926-4228-aaf9-fcb0966dccf5"},"vehicle_type_id":"4","last_reported":1685117271,"current_range_meters":16400,"station_id":"ce4bgk12rcd13ifvqbi0","pricing_plan_id":"free"},{"bike_id":"b6b73d78-4497-4cd0-81f5-7afb277379c9","system_id":"levelo_inurba_marseille","lat":43.293009,"lon":5.374584,"is_reserved":false,"is_disabled":false,"rental_uris":{"android":"levelo://app?vid=b6b73d78-4497-4cd0-81f5-7afb277379c9","ios":"levelo://app?vid=b6b73d78-4497-4cd0-81f5-7afb277379c9"},"vehicle_type_id":"4","last_reported":1685117271,"current_range_meters":5200,"station_id":"ce4bgi12rcd13ifvqb70","pricing_plan_id":"free"},{"bike_id":"adb2c009-726d-4640-bd9e-7ef4d3c244de","system_id":"levelo_inurba_marseille","lat":43.293009,"lon":5.374584,"is_reserved":false,"is_disabled":false,"rental_uris":{"android":"levelo://app?vid=adb2c009-726d-4640-bd9e-7ef4d3c244de","ios":"levelo://app?vid=adb2c009-726d-4640-bd9e-7ef4d3c244de"},"vehicle_type_id":"4","last_reported":1685117271,"current_range_meters":2800,"station_id":"ce4bgi12rcd13ifvqb70","pricing_plan_id":"free"},{"bike_id":"fc925317-9803-4de9-86d6-1132b5190e46","system_id":"levelo_inurba_marseille","lat":43.292311,"lon":5.360731,"is_reserved":false,"is_disabled":false,"rental_uris":{"android":"levelo://app?vid=fc925317-9803-4de9-86d6-1132b5190e46","ios":"levelo://app?vid=fc925317-9803-4de9-86d6-1132b5190e46"},"vehicle_type_id":"4","last_reported":1685117271,"current_range_meters":9200,"station_id":"ce4bhbh2rcd13ifvqeqg","pricing_plan_id":"free"},{"bike_id":"ab0dca78-d709-4308-847e-fcc9fb558147","system_id":"levelo_inurba_marseille","lat":43.292311,"lon":5.360731,"is_reserved":false,"is_disabled":false,"rental_uris":{"android":"levelo://app?vid=ab0dca78-d709-4308-847e-fcc9fb558147","ios":"levelo://app?vid=ab0dca78-d709-4308-847e-fcc9fb558147"},"vehicle_type_id":"4","last_reported":1685117271,"current_range_meters":22000,"station_id":"ce4bhbh2rcd13ifvqeqg","pricing_plan_id":"free"},{"bike_id":"a97a4598-4ac2-4b26-9ad9-d788897a4fa6","system_id":"levelo_inurba_marseille","lat":43.29216,"lon":5.3605,"is_reserved":false,"is_disabled":false,"rental_uris":{"android":"levelo://app?vid=a97a4598-4ac2-4b26-9ad9-d788897a4fa6","ios":"levelo://app?vid=a97a4598-4ac2-4b26-9ad9-d788897a4fa6"},"vehicle_type_id":"4","last_reported":1685117271,"current_range_meters":8800,"station_id":"ce4bhbh2rcd13ifvqeqg","pricing_plan_id":"free"},{"bike_id":"69ec30fa-15e7-4573-a279-cb81bfda7ebf","system_id":"levelo_inurba_marseille","lat":43.298764,"lon":5.388973,"is_reserved":false,"is_disabled":false,"rental_uris":{"android":"levelo://app?vid=69ec30fa-15e7-4573-a279-cb81bfda7ebf","ios":"levelo://app?vid=69ec30fa-15e7-4573-a279-cb81bfda7ebf"},"vehicle_type_id":"4","last_reported":1685117271,"current_range_meters":13600,"station_id":"ce4bh392rcd13ifvqdl0","pricing_plan_id":"free"},{"bike_id":"097556ac-833f-40d8-b281-58c8c0fec64a","system_id":"levelo_inurba_marseille","lat":43.298764,"lon":5.388973,"is_reserved":false,"is_disabled":false,"rental_uris":{"android":"levelo://app?vid=097556ac-833f-40d8-b281-58c8c0fec64a","ios":"levelo://app?vid=097556ac-833f-40d8-b281-58c8c0fec64a"},"vehicle_type_id":"4","last_reported":1685117271,"current_range_meters":11600,"station_id":"ce4bh392rcd13ifvqdl0","pricing_plan_id":"free"},{"bike_id":"6ea1546d-dd3e-4644-b8e1-81c1cce48915","system_id":"levelo_inurba_marseille","lat":43.298764,"lon":5.388973,"is_reserved":false,"is_disabled":false,"rental_uris":{"android":"levelo://app?vid=6ea1546d-dd3e-4644-b8e1-81c1cce48915","ios":"levelo://app?vid=6ea1546d-dd3e-4644-b8e1-81c1cce48915"},"vehicle_type_id":"4","last_reported":1685117271,"current_range_meters":19200,"station_id":"ce4bh392rcd13ifvqdl0","pricing_plan_id":"free"},{"bike_id":"f542d62c-63f0-4bfa-b683-8a0c117d860c","system_id":"levelo_inurba_marseille","lat":43.29163,"lon":5.37154,"is_reserved":false,"is_disabled":false,"rental_uris":{"android":"levelo://app?vid=f542d62c-63f0-4bfa-b683-8a0c117d860c","ios":"levelo://app?vid=f542d62c-63f0-4bfa-b683-8a0c117d860c"},"vehicle_type_id":"4","last_reported":1685117271,"current_range_meters":27600,"station_id":"ce4bha92rcd13ifvqeh0","pricing_plan_id":"free"},{"bike_id":"bdc79104-0879-4990-bc43-475aa2ba174a","system_id":"levelo_inurba_marseille","lat":43.291966,"lon":5.358004,"is_reserved":false,"is_disabled":false,"rental_uris":{"android":"levelo://app?vid=bdc79104-0879-4990-bc43-475aa2ba174a","ios":"levelo://app?vid=bdc79104-0879-4990-bc43-475aa2ba174a"},"vehicle_type_id":"4","last_reported":1685117271,"current_range_meters":31200,"station_id":"","pricing_plan_id":"free"},{"bike_id":"0905ee04-571a-47cb-981b-6068c47b28e3","system_id":"levelo_inurba_marseille","lat":43.30895,"lon":5.39661,"is_reserved":false,"is_disabled":false,"rental_uris":{"android":"levelo://app?vid=0905ee04-571a-47cb-981b-6068c47b28e3","ios":"levelo://app?vid=0905ee04-571a-47cb-981b-6068c47b28e3"},"vehicle_type_id":"4","last_reported":1685117271,"current_range_meters":12000,"station_id":"ce4bh012rcd13ifvqcv0","pricing_plan_id":"free"},{"bike_id":"6494b199-96eb-48a2-bc35-77c4495aa19c","system_id":"levelo_inurba_marseille","lat":43.29529,"lon":5.385581,"is_reserved":false,"is_disabled":false,"rental_uris":{"android":"levelo://app?vid=6494b199-96eb-48a2-bc35-77c4495aa19c","ios":"levelo://app?vid=6494b199-96eb-48a2-bc35-77c4495aa19c"},"vehicle_type_id":"4","last_reported":1685117271,"current_range_meters":17600,"station_id":"ce4bgih2rcd13ifvqba0","pricing_plan_id":"free"},{"bike_id":"247fde79-8b74-428e-a138-2e9c2b439379","system_id":"levelo_inurba_marseille","lat":43.29534,"lon":5.38553,"is_reserved":false,"is_disabled":false,"rental_uris":{"android":"levelo://app?vid=247fde79-8b74-428e-a138-2e9c2b439379","ios":"levelo://app?vid=247fde79-8b74-428e-a138-2e9c2b439379"},"vehicle_type_id":"4","last_reported":1685117271,"current_range_meters":0,"station_id":"ce4bgih2rcd13ifvqba0","pricing_plan_id":"free"},{"bike_id":"c0364414-91ef-4889-9d1e-5c7d2e1904b7","system_id":"levelo_inurba_marseille","lat":43.29529,"lon":5.385581,"is_reserved":false,"is_disabled":false,"rental_uris":{"android":"levelo://app?vid=c0364414-91ef-4889-9d1e-5c7d2e1904b7","ios":"levelo://app?vid=c0364414-91ef-4889-9d1e-5c7d2e1904b7"},"vehicle_type_id":"4","last_reported":1685117271,"current_range_meters":18800,"station_id":"ce4bgih2rcd13ifvqba0","pricing_plan_id":"free"},{"bike_id":"a7753f50-c8bc-4247-9a8e-2f29eb18142d","system_id":"levelo_inurba_marseille","lat":43.302008,"lon":5.394694,"is_reserved":false,"is_disabled":false,"rental_uris":{"android":"levelo://app?vid=a7753f50-c8bc-4247-9a8e-2f29eb18142d","ios":"levelo://app?vid=a7753f50-c8bc-4247-9a8e-2f29eb18142d"},"vehicle_type_id":"4","last_reported":1685117271,"current_range_meters":16000,"station_id":"ce4bh0p2rcd13ifvqd70","pricing_plan_id":"free"},{"bike_id":"910608d2-cca9-4673-9813-c97f5bbe3928","system_id":"levelo_inurba_marseille","lat":43.302008,"lon":5.394694,"is_reserved":false,"is_disabled":false,"rental_uris":{"android":"levelo://app?vid=910608d2-cca9-4673-9813-c97f5bbe3928","ios":"levelo://app?vid=910608d2-cca9-4673-9813-c97f5bbe3928"},"vehicle_type_id":"4","last_reported":1685117271,"current_range_meters":2000,"station_id":"ce4bh0p2rcd13ifvqd70","pricing_plan_id":"free"},{"bike_id":"f5d7daac-a4eb-4e2e-ab37-0c02d60c71fb","system_id":"levelo_inurba_marseille","lat":43.28938,"lon":5.36648,"is_reserved":false,"is_disabled":false,"rental_uris":{"android":"levelo://app?vid=f5d7daac-a4eb-4e2e-ab37-0c02d60c71fb","ios":"levelo://app?vid=f5d7daac-a4eb-4e2e-ab37-0c02d60c71fb"},"vehicle_type_id":"4","last_reported":1685117271,"current_range_meters":8000,"station_id":"ce4bhap2rcd13ifvqek0","pricing_plan_id":"free"},{"bike_id":"b076d192-2e7b-4af1-963a-6b6bce74f39b","system_id":"levelo_inurba_marseille","lat":43.28938,"lon":5.3664,"is_reserved":false,"is_disabled":false,"rental_uris":{"android":"levelo://app?vid=b076d192-2e7b-4af1-963a-6b6bce74f39b","ios":"levelo://app?vid=b076d192-2e7b-4af1-963a-6b6bce74f39b"},"vehicle_type_id":"4","last_reported":1685117271,"current_range_meters":24800,"station_id":"ce4bhap2rcd13ifvqek0","pricing_plan_id":"free"},{"bike_id":"7e313431-4d79-4b94-b818-9369f186fc73","system_id":"levelo_inurba_marseille","lat":43.289184,"lon":5.366408,"is_reserved":false,"is_disabled":false,"rental_uris":{"android":"levelo://app?vid=7e313431-4d79-4b94-b818-9369f186fc73","ios":"levelo://app?vid=7e313431-4d79-4b94-b818-9369f186fc73"},"vehicle_type_id":"4","last_reported":1685117271,"current_range_meters":12000,"station_id":"ce4bhap2rcd13ifvqek0","pricing_plan_id":"free"},{"bike_id":"2d633775-582f-46f6-921d-a7ae6eee7a60","system_id":"levelo_inurba_marseille","lat":43.289468,"lon":5.363719,"is_reserved":false,"is_disabled":false,"rental_uris":{"android":"levelo://app?vid=2d633775-582f-46f6-921d-a7ae6eee7a60","ios":"levelo://app?vid=2d633775-582f-46f6-921d-a7ae6eee7a60"},"vehicle_type_id":"4","last_reported":1685117271,"current_range_meters":2400,"station_id":"ce4bhc92rcd13ifvqetg","pricing_plan_id":"free"},{"bike_id":"439d6999-870e-4f1c-a16e-db4281e048bc","system_id":"levelo_inurba_marseille","lat":43.289468,"lon":5.363719,"is_reserved":false,"is_disabled":false,"rental_uris":{"android":"levelo://app?vid=439d6999-870e-4f1c-a16e-db4281e048bc","ios":"levelo://app?vid=439d6999-870e-4f1c-a16e-db4281e048bc"},"vehicle_type_id":"4","last_reported":1685117271,"current_range_meters":400,"station_id":"ce4bhc92rcd13ifvqetg","pricing_plan_id":"free"},{"bike_id":"99844350-ad44-472b-9a95-b58a0540b54e","system_id":"levelo_inurba_marseille","lat":43.292644,"lon":5.384257,"is_reserved":false,"is_disabled":false,"rental_uris":{"android":"levelo://app?vid=99844350-ad44-472b-9a95-b58a0540b54e","ios":"levelo://app?vid=99844350-ad44-472b-9a95-b58a0540b54e"},"vehicle_type_id":"4","last_reported":1685117271,"current_range_meters":2000,"station_id":"ce4bh692rcd13ifvqea0","pricing_plan_id":"free"},{"bike_id":"c751231a-84c4-4cfa-8c02-31b03bc7da1f","system_id":"levelo_inurba_marseille","lat":43.292642,"lon":5.384254,"is_reserved":false,"is_disabled":false,"rental_uris":{"android":"levelo://app?vid=c751231a-84c4-4cfa-8c02-31b03bc7da1f","ios":"levelo://app?vid=c751231a-84c4-4cfa-8c02-31b03bc7da1f"},"vehicle_type_id":"4","last_reported":1685117271,"current_range_meters":17600,"station_id":"ce4bh692rcd13ifvqea0","pricing_plan_id":"free"},{"bike_id":"3df8a634-f1c4-45fd-9243-1c28e27c9cab","system_id":"levelo_inurba_marseille","lat":43.292642,"lon":5.384254,"is_reserved":false,"is_disabled":false,"rental_uris":{"android":"levelo://app?vid=3df8a634-f1c4-45fd-9243-1c28e27c9cab","ios":"levelo://app?vid=3df8a634-f1c4-45fd-9243-1c28e27c9cab"},"vehicle_type_id":"4","last_reported":1685117271,"current_range_meters":26400,"station_id":"ce4bh692rcd13ifvqea0","pricing_plan_id":"free"},{"bike_id":"69dc694d-2c9e-4aa9-a4ce-cc1fd769c4bd","system_id":"levelo_inurba_marseille","lat":43.29262,"lon":5.38439,"is_reserved":false,"is_disabled":false,"rental_uris":{"android":"levelo://app?vid=69dc694d-2c9e-4aa9-a4ce-cc1fd769c4bd","ios":"levelo://app?vid=69dc694d-2c9e-4aa9-a4ce-cc1fd769c4bd"},"vehicle_type_id":"4","last_reported":1685117271,"current_range_meters":9200,"station_id":"ce4bh692rcd13ifvqea0","pricing_plan_id":"free"},{"bike_id":"f537d3da-9bab-4548-a12f-3f75143befaf","system_id":"levelo_inurba_marseille","lat":43.304296,"lon":5.397513,"is_reserved":false,"is_disabled":false,"rental_uris":{"android":"levelo://app?vid=f537d3da-9bab-4548-a12f-3f75143befaf","ios":"levelo://app?vid=f537d3da-9bab-4548-a12f-3f75143befaf"},"vehicle_type_id":"4","last_reported":1685117271,"current_range_meters":19200,"station_id":"ce4bh092rcd13ifvqd20","pricing_plan_id":"free"},{"bike_id":"7b8cb44b-17f4-43a4-a051-f20d86e8c989","system_id":"levelo_inurba_marseille","lat":43.29005,"lon":5.35625,"is_reserved":false,"is_disabled":false,"rental_uris":{"android":"levelo://app?vid=7b8cb44b-17f4-43a4-a051-f20d86e8c989","ios":"levelo://app?vid=7b8cb44b-17f4-43a4-a051-f20d86e8c989"},"vehicle_type_id":"4","last_reported":1685117271,"current_range_meters":27600,"station_id":"ce4bhb92rcd13ifvqen0","pricing_plan_id":"free"},{"bike_id":"36c69ede-ab0f-44e1-b9a3-7394433aef83","system_id":"levelo_inurba_marseille","lat":43.290103,"lon":5.356114,"is_reserved":false,"is_disabled":false,"rental_uris":{"android":"levelo://app?vid=36c69ede-ab0f-44e1-b9a3-7394433aef83","ios":"levelo://app?vid=36c69ede-ab0f-44e1-b9a3-7394433aef83"},"vehicle_type_id":"4","last_reported":1685117271,"current_range_meters":0,"station_id":"ce4bhb92rcd13ifvqen0","pricing_plan_id":"free"},{"bike_id":"a4937375-2286-4ec2-9535-e1fe60462978","system_id":"levelo_inurba_marseille","lat":43.289743,"lon":5.378304,"is_reserved":false,"is_disabled":false,"rental_uris":{"android":"levelo://app?vid=a4937375-2286-4ec2-9535-e1fe60462978","ios":"levelo://app?vid=a4937375-2286-4ec2-9535-e1fe60462978"},"vehicle_type_id":"4","last_reported":1685117271,"current_range_meters":18400,"station_id":"ce4bh9p2rcd13ifvqed0","pricing_plan_id":"free"},{"bike_id":"ed4f4561-65fd-4f89-aa54-ed18f5e791b8","system_id":"levelo_inurba_marseille","lat":43.29779,"lon":5.39342,"is_reserved":false,"is_disabled":false,"rental_uris":{"android":"levelo://app?vid=ed4f4561-65fd-4f89-aa54-ed18f5e791b8","ios":"levelo://app?vid=ed4f4561-65fd-4f89-aa54-ed18f5e791b8"},"vehicle_type_id":"4","last_reported":1685117271,"current_range_meters":13200,"station_id":"chh1huq6cuj3fo74tm60","pricing_plan_id":"free"},{"bike_id":"78bc28a7-8df4-4807-ae51-55494409d144","system_id":"levelo_inurba_marseille","lat":43.2978,"lon":5.39346,"is_reserved":false,"is_disabled":false,"rental_uris":{"android":"levelo://app?vid=78bc28a7-8df4-4807-ae51-55494409d144","ios":"levelo://app?vid=78bc28a7-8df4-4807-ae51-55494409d144"},"vehicle_type_id":"4","last_reported":1685117271,"current_range_meters":3600,"station_id":"chh1huq6cuj3fo74tm60","pricing_plan_id":"free"},{"bike_id":"15f15710-e759-4378-a130-e325625b6cbc","system_id":"levelo_inurba_marseille","lat":43.29789,"lon":5.39357,"is_reserved":false,"is_disabled":false,"rental_uris":{"android":"levelo://app?vid=15f15710-e759-4378-a130-e325625b6cbc","ios":"levelo://app?vid=15f15710-e759-4378-a130-e325625b6cbc"},"vehicle_type_id":"4","last_reported":1685117271,"current_range_meters":13600,"station_id":"chh1huq6cuj3fo74tm60","pricing_plan_id":"free"},{"bike_id":"943c3d1c-5b20-4612-96e9-53171b36fbf4","system_id":"levelo_inurba_marseille","lat":43.286039,"lon":5.370679,"is_reserved":false,"is_disabled":false,"rental_uris":{"android":"levelo://app?vid=943c3d1c-5b20-4612-96e9-53171b36fbf4","ios":"levelo://app?vid=943c3d1c-5b20-4612-96e9-53171b36fbf4"},"vehicle_type_id":"4","last_reported":1685117271,"current_range_meters":25200,"station_id":"ce4bht12rcd13ifvqi60","pricing_plan_id":"free"},{"bike_id":"23f81cad-f77f-498c-8ac3-edf4182d886c","system_id":"levelo_inurba_marseille","lat":43.29781,"lon":5.39353,"is_reserved":false,"is_disabled":false,"rental_uris":{"android":"levelo://app?vid=23f81cad-f77f-498c-8ac3-edf4182d886c","ios":"levelo://app?vid=23f81cad-f77f-498c-8ac3-edf4182d886c"},"vehicle_type_id":"4","last_reported":1685117271,"current_range_meters":11200,"station_id":"chh1huq6cuj3fo74tm60","pricing_plan_id":"free"},{"bike_id":"dbd9eafb-6ae6-4a78-8e1d-cea75e318ba6","system_id":"levelo_inurba_marseille","lat":43.28856,"lon":5.358371,"is_reserved":false,"is_disabled":false,"rental_uris":{"android":"levelo://app?vid=dbd9eafb-6ae6-4a78-8e1d-cea75e318ba6","ios":"levelo://app?vid=dbd9eafb-6ae6-4a78-8e1d-cea75e318ba6"},"vehicle_type_id":"4","last_reported":1685117271,"current_range_meters":24800,"station_id":"ce4bhb12rcd13ifvqem0","pricing_plan_id":"free"},{"bike_id":"4487acdc-81d0-481b-9936-c603ed01e56c","system_id":"levelo_inurba_marseille","lat":43.28856,"lon":5.358371,"is_reserved":false,"is_disabled":false,"rental_uris":{"android":"levelo://app?vid=4487acdc-81d0-481b-9936-c603ed01e56c","ios":"levelo://app?vid=4487acdc-81d0-481b-9936-c603ed01e56c"},"vehicle_type_id":"4","last_reported":1685117271,"current_range_meters":10000,"station_id":"ce4bhb12rcd13ifvqem0","pricing_plan_id":"free"},{"bike_id":"e7bdbf92-efa8-483f-b986-68dd61ccb0fa","system_id":"levelo_inurba_marseille","lat":43.28856,"lon":5.358371,"is_reserved":false,"is_disabled":false,"rental_uris":{"android":"levelo://app?vid=e7bdbf92-efa8-483f-b986-68dd61ccb0fa","ios":"levelo://app?vid=e7bdbf92-efa8-483f-b986-68dd61ccb0fa"},"vehicle_type_id":"4","last_reported":1685117271,"current_range_meters":21600,"station_id":"ce4bhb12rcd13ifvqem0","pricing_plan_id":"free"},{"bike_id":"935f330e-078a-443c-b026-2b1ca2e3e25c","system_id":"levelo_inurba_marseille","lat":43.28856,"lon":5.358371,"is_reserved":false,"is_disabled":false,"rental_uris":{"android":"levelo://app?vid=935f330e-078a-443c-b026-2b1ca2e3e25c","ios":"levelo://app?vid=935f330e-078a-443c-b026-2b1ca2e3e25c"},"vehicle_type_id":"4","last_reported":1685117271,"current_range_meters":11600,"station_id":"ce4bhb12rcd13ifvqem0","pricing_plan_id":"free"},{"bike_id":"24ec94ef-1fc1-41b4-8b33-0d6c86de6300","system_id":"levelo_inurba_marseille","lat":43.28794,"lon":5.37327,"is_reserved":false,"is_disabled":false,"rental_uris":{"android":"levelo://app?vid=24ec94ef-1fc1-41b4-8b33-0d6c86de6300","ios":"levelo://app?vid=24ec94ef-1fc1-41b4-8b33-0d6c86de6300"},"vehicle_type_id":"4","last_reported":1685117271,"current_range_meters":16800,"station_id":"","pricing_plan_id":"free"},{"bike_id":"02362672-78e1-4667-9a77-d71f91f94365","system_id":"levelo_inurba_marseille","lat":43.33754,"lon":5.37435,"is_reserved":false,"is_disabled":false,"rental_uris":{"android":"levelo://app?vid=02362672-78e1-4667-9a77-d71f91f94365","ios":"levelo://app?vid=02362672-78e1-4667-9a77-d71f91f94365"},"vehicle_type_id":"4","last_reported":1685117271,"current_range_meters":19600,"station_id":"","pricing_plan_id":"free"},{"bike_id":"141c14ea-594b-43ee-894e-8c44af1dcd73","system_id":"levelo_inurba_marseille","lat":43.33753,"lon":5.37454,"is_reserved":false,"is_disabled":false,"rental_uris":{"android":"levelo://app?vid=141c14ea-594b-43ee-894e-8c44af1dcd73","ios":"levelo://app?vid=141c14ea-594b-43ee-894e-8c44af1dcd73"},"vehicle_type_id":"4","last_reported":1685117271,"current_range_meters":15200,"station_id":"","pricing_plan_id":"free"},{"bike_id":"556c6db1-2600-4c2b-9521-aae8453517c1","system_id":"levelo_inurba_marseille","lat":43.33758,"lon":5.37443,"is_reserved":false,"is_disabled":false,"rental_uris":{"android":"levelo://app?vid=556c6db1-2600-4c2b-9521-aae8453517c1","ios":"levelo://app?vid=556c6db1-2600-4c2b-9521-aae8453517c1"},"vehicle_type_id":"4","last_reported":1685117271,"current_range_meters":21200,"station_id":"","pricing_plan_id":"free"},{"bike_id":"1490fad1-fe90-4399-a2f2-79545cf03a2b","system_id":"levelo_inurba_marseille","lat":43.337578,"lon":5.374791,"is_reserved":false,"is_disabled":false,"rental_uris":{"android":"levelo://app?vid=1490fad1-fe90-4399-a2f2-79545cf03a2b","ios":"levelo://app?vid=1490fad1-fe90-4399-a2f2-79545cf03a2b"},"vehicle_type_id":"4","last_reported":1685117271,"current_range_meters":30800,"station_id":"","pricing_plan_id":"free"},{"bike_id":"842ad599-51dc-4122-b74d-10da7e982b50","system_id":"levelo_inurba_marseille","lat":43.30642,"lon":5.401031,"is_reserved":false,"is_disabled":false,"rental_uris":{"android":"levelo://app?vid=842ad599-51dc-4122-b74d-10da7e982b50","ios":"levelo://app?vid=842ad599-51dc-4122-b74d-10da7e982b50"},"vehicle_type_id":"4","last_reported":1685117271,"current_range_meters":26000,"station_id":"ce4bh112rcd13ifvqda0","pricing_plan_id":"free"},{"bike_id":"fcee87e3-911b-4ace-ad7b-1703181f423b","system_id":"levelo_inurba_marseille","lat":43.30642,"lon":5.401031,"is_reserved":false,"is_disabled":false,"rental_uris":{"android":"levelo://app?vid=fcee87e3-911b-4ace-ad7b-1703181f423b","ios":"levelo://app?vid=fcee87e3-911b-4ace-ad7b-1703181f423b"},"vehicle_type_id":"4","last_reported":1685117271,"current_range_meters":4400,"station_id":"ce4bh112rcd13ifvqda0","pricing_plan_id":"free"},{"bike_id":"56ca24ec-ef78-4f81-8408-51fcadfdf81d","system_id":"levelo_inurba_marseille","lat":43.30642,"lon":5.401031,"is_reserved":false,"is_disabled":false,"rental_uris":{"android":"levelo://app?vid=56ca24ec-ef78-4f81-8408-51fcadfdf81d","ios":"levelo://app?vid=56ca24ec-ef78-4f81-8408-51fcadfdf81d"},"vehicle_type_id":"4","last_reported":1685117271,"current_range_meters":27200,"station_id":"ce4bh112rcd13ifvqda0","pricing_plan_id":"free"},{"bike_id":"9650321b-6f4d-4a9c-b6fb-b05eec823647","system_id":"levelo_inurba_marseille","lat":43.30642,"lon":5.401031,"is_reserved":false,"is_disabled":false,"rental_uris":{"android":"levelo://app?vid=9650321b-6f4d-4a9c-b6fb-b05eec823647","ios":"levelo://app?vid=9650321b-6f4d-4a9c-b6fb-b05eec823647"},"vehicle_type_id":"4","last_reported":1685117271,"current_range_meters":7200,"station_id":"ce4bh112rcd13ifvqda0","pricing_plan_id":"free"},{"bike_id":"defb2956-aecf-4662-9d8e-d5cd821c602c","system_id":"levelo_inurba_marseille","lat":43.30642,"lon":5.401031,"is_reserved":false,"is_disabled":false,"rental_uris":{"android":"levelo://app?vid=defb2956-aecf-4662-9d8e-d5cd821c602c","ios":"levelo://app?vid=defb2956-aecf-4662-9d8e-d5cd821c602c"},"vehicle_type_id":"4","last_reported":1685117271,"current_range_meters":800,"station_id":"ce4bh112rcd13ifvqda0","pricing_plan_id":"free"},{"bike_id":"0f915385-1fd5-4f54-896c-f56a11a31d3d","system_id":"levelo_inurba_marseille","lat":43.33781,"lon":5.37447,"is_reserved":false,"is_disabled":false,"rental_uris":{"android":"levelo://app?vid=0f915385-1fd5-4f54-896c-f56a11a31d3d","ios":"levelo://app?vid=0f915385-1fd5-4f54-896c-f56a11a31d3d"},"vehicle_type_id":"4","last_reported":1685117271,"current_range_meters":22800,"station_id":"","pricing_plan_id":"free"},{"bike_id":"eb8ac404-8a95-4fc7-819a-ea19315069af","system_id":"levelo_inurba_marseille","lat":43.33783,"lon":5.3744,"is_reserved":false,"is_disabled":false,"rental_uris":{"android":"levelo://app?vid=eb8ac404-8a95-4fc7-819a-ea19315069af","ios":"levelo://app?vid=eb8ac404-8a95-4fc7-819a-ea19315069af"},"vehicle_type_id":"4","last_reported":1685117271,"current_range_meters":27600,"station_id":"","pricing_plan_id":"free"},{"bike_id":"5bd96745-9a19-4fe7-b597-4db9cabdc957","system_id":"levelo_inurba_marseille","lat":43.3379,"lon":5.37428,"is_reserved":false,"is_disabled":false,"rental_uris":{"android":"levelo://app?vid=5bd96745-9a19-4fe7-b597-4db9cabdc957","ios":"levelo://app?vid=5bd96745-9a19-4fe7-b597-4db9cabdc957"},"vehicle_type_id":"4","last_reported":1685117271,"current_range_meters":29200,"station_id":"","pricing_plan_id":"free"},{"bike_id":"05906935-7269-41aa-953d-c08194d1e473","system_id":"levelo_inurba_marseille","lat":43.301117,"lon":5.398795,"is_reserved":false,"is_disabled":false,"rental_uris":{"android":"levelo://app?vid=05906935-7269-41aa-953d-c08194d1e473","ios":"levelo://app?vid=05906935-7269-41aa-953d-c08194d1e473"},"vehicle_type_id":"4","last_reported":1685117271,"current_range_meters":18000,"station_id":"ce4bh0h2rcd13ifvqd40","pricing_plan_id":"free"},{"bike_id":"b1b6d2f8-e1bc-4c60-b24b-06d08c64d2ea","system_id":"levelo_inurba_marseille","lat":43.295194,"lon":5.39397,"is_reserved":false,"is_disabled":false,"rental_uris":{"android":"levelo://app?vid=b1b6d2f8-e1bc-4c60-b24b-06d08c64d2ea","ios":"levelo://app?vid=b1b6d2f8-e1bc-4c60-b24b-06d08c64d2ea"},"vehicle_type_id":"4","last_reported":1685117271,"current_range_meters":26400,"station_id":"ce4bh292rcd13ifvqdf0","pricing_plan_id":"free"},{"bike_id":"9acfc62b-aca0-47da-9dab-bc8055a5f614","system_id":"levelo_inurba_marseille","lat":43.290345,"lon":5.38646,"is_reserved":false,"is_disabled":false,"rental_uris":{"android":"levelo://app?vid=9acfc62b-aca0-47da-9dab-bc8055a5f614","ios":"levelo://app?vid=9acfc62b-aca0-47da-9dab-bc8055a5f614"},"vehicle_type_id":"4","last_reported":1685117271,"current_range_meters":30000,"station_id":"ce4bh4p2rcd13ifvqe0g","pricing_plan_id":"free"},{"bike_id":"70878f5f-574c-4695-a3b2-a96f3dfebca2","system_id":"levelo_inurba_marseille","lat":43.30267,"lon":5.40077,"is_reserved":false,"is_disabled":false,"rental_uris":{"android":"levelo://app?vid=70878f5f-574c-4695-a3b2-a96f3dfebca2","ios":"levelo://app?vid=70878f5f-574c-4695-a3b2-a96f3dfebca2"},"vehicle_type_id":"4","last_reported":1685117271,"current_range_meters":25200,"station_id":"ce4bgvh2rcd13ifvqcs0","pricing_plan_id":"free"},{"bike_id":"6fc766bd-9a95-431d-946f-22975ed4d827","system_id":"levelo_inurba_marseille","lat":43.302759,"lon":5.400793,"is_reserved":false,"is_disabled":false,"rental_uris":{"android":"levelo://app?vid=6fc766bd-9a95-431d-946f-22975ed4d827","ios":"levelo://app?vid=6fc766bd-9a95-431d-946f-22975ed4d827"},"vehicle_type_id":"4","last_reported":1685117271,"current_range_meters":10800,"station_id":"ce4bgvh2rcd13ifvqcs0","pricing_plan_id":"free"},{"bike_id":"1b6c9cae-4883-49af-b06b-0d0e9fc5e57f","system_id":"levelo_inurba_marseille","lat":43.286039,"lon":5.370679,"is_reserved":false,"is_disabled":false,"rental_uris":{"android":"levelo://app?vid=1b6c9cae-4883-49af-b06b-0d0e9fc5e57f","ios":"levelo://app?vid=1b6c9cae-4883-49af-b06b-0d0e9fc5e57f"},"vehicle_type_id":"4","last_reported":1685117271,"current_range_meters":14400,"station_id":"ce4bht12rcd13ifvqi60","pricing_plan_id":"free"},{"bike_id":"222ae689-abf1-425d-a5fd-1f522e010012","system_id":"levelo_inurba_marseille","lat":43.286039,"lon":5.370679,"is_reserved":false,"is_disabled":false,"rental_uris":{"android":"levelo://app?vid=222ae689-abf1-425d-a5fd-1f522e010012","ios":"levelo://app?vid=222ae689-abf1-425d-a5fd-1f522e010012"},"vehicle_type_id":"4","last_reported":1685117271,"current_range_meters":16000,"station_id":"ce4bht12rcd13ifvqi60","pricing_plan_id":"free"},{"bike_id":"4d9d70a6-b736-47da-abe2-f14423d2eb04","system_id":"levelo_inurba_marseille","lat":43.316517,"lon":5.404375,"is_reserved":false,"is_disabled":false,"rental_uris":{"android":"levelo://app?vid=4d9d70a6-b736-47da-abe2-f14423d2eb04","ios":"levelo://app?vid=4d9d70a6-b736-47da-abe2-f14423d2eb04"},"vehicle_type_id":"4","last_reported":1685117271,"current_range_meters":16400,"station_id":"ce4bh012rcd13ifvqd00","pricing_plan_id":"free"},{"bike_id":"5050c9ee-14b9-4add-b547-107ed920e464","system_id":"levelo_inurba_marseille","lat":43.316517,"lon":5.404375,"is_reserved":false,"is_disabled":false,"rental_uris":{"android":"levelo://app?vid=5050c9ee-14b9-4add-b547-107ed920e464","ios":"levelo://app?vid=5050c9ee-14b9-4add-b547-107ed920e464"},"vehicle_type_id":"4","last_reported":1685117271,"current_range_meters":18400,"station_id":"ce4bh012rcd13ifvqd00","pricing_plan_id":"free"},{"bike_id":"0d3797b1-9250-4e83-9b94-f06dd814ba49","system_id":"levelo_inurba_marseille","lat":43.284534,"lon":5.358662,"is_reserved":false,"is_disabled":false,"rental_uris":{"android":"levelo://app?vid=0d3797b1-9250-4e83-9b94-f06dd814ba49","ios":"levelo://app?vid=0d3797b1-9250-4e83-9b94-f06dd814ba49"},"vehicle_type_id":"4","last_reported":1685117271,"current_range_meters":20800,"station_id":"ce4bhah2rcd13ifvqei0","pricing_plan_id":"free"},{"bike_id":"bce70aa3-96f1-40b1-9f86-1817828d83cc","system_id":"levelo_inurba_marseille","lat":43.284534,"lon":5.358662,"is_reserved":false,"is_disabled":false,"rental_uris":{"android":"levelo://app?vid=bce70aa3-96f1-40b1-9f86-1817828d83cc","ios":"levelo://app?vid=bce70aa3-96f1-40b1-9f86-1817828d83cc"},"vehicle_type_id":"4","last_reported":1685117271,"current_range_meters":18800,"station_id":"ce4bhah2rcd13ifvqei0","pricing_plan_id":"free"},{"bike_id":"c4809f32-f549-46a2-aef7-d5149773d7bc","system_id":"levelo_inurba_marseille","lat":43.285856,"lon":5.350771,"is_reserved":false,"is_disabled":false,"rental_uris":{"android":"levelo://app?vid=c4809f32-f549-46a2-aef7-d5149773d7bc","ios":"levelo://app?vid=c4809f32-f549-46a2-aef7-d5149773d7bc"},"vehicle_type_id":"4","last_reported":1685117271,"current_range_meters":31200,"station_id":"ce4bhch2rcd13ifvqeug","pricing_plan_id":"free"},{"bike_id":"49dd9f92-f8a3-4d92-9c0f-2b3426bd267a","system_id":"levelo_inurba_marseille","lat":43.286177,"lon":5.351134,"is_reserved":false,"is_disabled":false,"rental_uris":{"android":"levelo://app?vid=49dd9f92-f8a3-4d92-9c0f-2b3426bd267a","ios":"levelo://app?vid=49dd9f92-f8a3-4d92-9c0f-2b3426bd267a"},"vehicle_type_id":"4","last_reported":1685117271,"current_range_meters":17200,"station_id":"","pricing_plan_id":"free"},{"bike_id":"dde81dba-b77d-4e14-be61-33b62c0ecb22","system_id":"levelo_inurba_marseille","lat":43.28619,"lon":5.35104,"is_reserved":false,"is_disabled":false,"rental_uris":{"android":"levelo://app?vid=dde81dba-b77d-4e14-be61-33b62c0ecb22","ios":"levelo://app?vid=dde81dba-b77d-4e14-be61-33b62c0ecb22"},"vehicle_type_id":"4","last_reported":1685117271,"current_range_meters":19200,"station_id":"","pricing_plan_id":"free"},{"bike_id":"a04dcd87-72ba-4593-a420-06567a44c885","system_id":"levelo_inurba_marseille","lat":43.286174,"lon":5.351089,"is_reserved":false,"is_disabled":false,"rental_uris":{"android":"levelo://app?vid=a04dcd87-72ba-4593-a420-06567a44c885","ios":"levelo://app?vid=a04dcd87-72ba-4593-a420-06567a44c885"},"vehicle_type_id":"4","last_reported":1685117271,"current_range_meters":31200,"station_id":"","pricing_plan_id":"free"},{"bike_id":"91540ab3-7919-422e-bc33-5a6d98e697cc","system_id":"levelo_inurba_marseille","lat":43.285856,"lon":5.350771,"is_reserved":false,"is_disabled":false,"rental_uris":{"android":"levelo://app?vid=91540ab3-7919-422e-bc33-5a6d98e697cc","ios":"levelo://app?vid=91540ab3-7919-422e-bc33-5a6d98e697cc"},"vehicle_type_id":"4","last_reported":1685117271,"current_range_meters":31200,"station_id":"ce4bhch2rcd13ifvqeug","pricing_plan_id":"free"},{"bike_id":"3213a03d-8fed-47dc-908d-53f88519d7fa","system_id":"levelo_inurba_marseille","lat":43.28617,"lon":5.35106,"is_reserved":false,"is_disabled":false,"rental_uris":{"android":"levelo://app?vid=3213a03d-8fed-47dc-908d-53f88519d7fa","ios":"levelo://app?vid=3213a03d-8fed-47dc-908d-53f88519d7fa"},"vehicle_type_id":"4","last_reported":1685117271,"current_range_meters":31200,"station_id":"","pricing_plan_id":"free"},{"bike_id":"e4852b7c-913b-464a-a9e4-2ae7b432a76e","system_id":"levelo_inurba_marseille","lat":43.28617,"lon":5.35105,"is_reserved":false,"is_disabled":false,"rental_uris":{"android":"levelo://app?vid=e4852b7c-913b-464a-a9e4-2ae7b432a76e","ios":"levelo://app?vid=e4852b7c-913b-464a-a9e4-2ae7b432a76e"},"vehicle_type_id":"4","last_reported":1685117271,"current_range_meters":31200,"station_id":"","pricing_plan_id":"free"},{"bike_id":"18a291a1-3aec-4fa1-a48d-1805f14dd9ab","system_id":"levelo_inurba_marseille","lat":43.28617,"lon":5.35104,"is_reserved":false,"is_disabled":false,"rental_uris":{"android":"levelo://app?vid=18a291a1-3aec-4fa1-a48d-1805f14dd9ab","ios":"levelo://app?vid=18a291a1-3aec-4fa1-a48d-1805f14dd9ab"},"vehicle_type_id":"4","last_reported":1685117271,"current_range_meters":12400,"station_id":"","pricing_plan_id":"free"},{"bike_id":"8615e419-6141-4061-abad-4dcc3df9f42f","system_id":"levelo_inurba_marseille","lat":43.286165,"lon":5.351048,"is_reserved":false,"is_disabled":false,"rental_uris":{"android":"levelo://app?vid=8615e419-6141-4061-abad-4dcc3df9f42f","ios":"levelo://app?vid=8615e419-6141-4061-abad-4dcc3df9f42f"},"vehicle_type_id":"4","last_reported":1685117271,"current_range_meters":20400,"station_id":"","pricing_plan_id":"free"},{"bike_id":"f869904a-024a-40de-82df-96b2be6c425b","system_id":"levelo_inurba_marseille","lat":43.286163,"lon":5.351047,"is_reserved":false,"is_disabled":false,"rental_uris":{"android":"levelo://app?vid=f869904a-024a-40de-82df-96b2be6c425b","ios":"levelo://app?vid=f869904a-024a-40de-82df-96b2be6c425b"},"vehicle_type_id":"4","last_reported":1685117271,"current_range_meters":19200,"station_id":"","pricing_plan_id":"free"},{"bike_id":"c4d26c57-7abb-4084-be07-03a29a84f7b7","system_id":"levelo_inurba_marseille","lat":43.286158,"lon":5.351046,"is_reserved":false,"is_disabled":false,"rental_uris":{"android":"levelo://app?vid=c4d26c57-7abb-4084-be07-03a29a84f7b7","ios":"levelo://app?vid=c4d26c57-7abb-4084-be07-03a29a84f7b7"},"vehicle_type_id":"4","last_reported":1685117271,"current_range_meters":31200,"station_id":"","pricing_plan_id":"free"},{"bike_id":"7cc869a3-a3c3-44e7-ae73-0b10ccda392e","system_id":"levelo_inurba_marseille","lat":43.286149,"lon":5.351046,"is_reserved":false,"is_disabled":false,"rental_uris":{"android":"levelo://app?vid=7cc869a3-a3c3-44e7-ae73-0b10ccda392e","ios":"levelo://app?vid=7cc869a3-a3c3-44e7-ae73-0b10ccda392e"},"vehicle_type_id":"4","last_reported":1685117271,"current_range_meters":31200,"station_id":"","pricing_plan_id":"free"},{"bike_id":"67f54569-4e7b-4f15-9600-df95ecde1081","system_id":"levelo_inurba_marseille","lat":43.28614,"lon":5.35105,"is_reserved":false,"is_disabled":false,"rental_uris":{"android":"levelo://app?vid=67f54569-4e7b-4f15-9600-df95ecde1081","ios":"levelo://app?vid=67f54569-4e7b-4f15-9600-df95ecde1081"},"vehicle_type_id":"4","last_reported":1685117271,"current_range_meters":31200,"station_id":"","pricing_plan_id":"free"},{"bike_id":"4110b871-41e6-4837-9dc1-05c2e5d30e4e","system_id":"levelo_inurba_marseille","lat":43.28614,"lon":5.35104,"is_reserved":false,"is_disabled":false,"rental_uris":{"android":"levelo://app?vid=4110b871-41e6-4837-9dc1-05c2e5d30e4e","ios":"levelo://app?vid=4110b871-41e6-4837-9dc1-05c2e5d30e4e"},"vehicle_type_id":"4","last_reported":1685117271,"current_range_meters":29600,"station_id":"","pricing_plan_id":"free"},{"bike_id":"9e350f65-8654-426c-b72d-c59a4a678d20","system_id":"levelo_inurba_marseille","lat":43.286595,"lon":5.386795,"is_reserved":false,"is_disabled":false,"rental_uris":{"android":"levelo://app?vid=9e350f65-8654-426c-b72d-c59a4a678d20","ios":"levelo://app?vid=9e350f65-8654-426c-b72d-c59a4a678d20"},"vehicle_type_id":"4","last_reported":1685117271,"current_range_meters":0,"station_id":"ce4bh492rcd13ifvqdug","pricing_plan_id":"free"},{"bike_id":"a644e8bd-e10d-438d-b796-2f8488d89bec","system_id":"levelo_inurba_marseille","lat":43.286595,"lon":5.386795,"is_reserved":false,"is_disabled":false,"rental_uris":{"android":"levelo://app?vid=a644e8bd-e10d-438d-b796-2f8488d89bec","ios":"levelo://app?vid=a644e8bd-e10d-438d-b796-2f8488d89bec"},"vehicle_type_id":"4","last_reported":1685117271,"current_range_meters":6400,"station_id":"ce4bh492rcd13ifvqdug","pricing_plan_id":"free"},{"bike_id":"d71ef413-d1f3-418a-b855-bde244afe31e","system_id":"levelo_inurba_marseille","lat":43.286595,"lon":5.386795,"is_reserved":false,"is_disabled":false,"rental_uris":{"android":"levelo://app?vid=d71ef413-d1f3-418a-b855-bde244afe31e","ios":"levelo://app?vid=d71ef413-d1f3-418a-b855-bde244afe31e"},"vehicle_type_id":"4","last_reported":1685117271,"current_range_meters":2000,"station_id":"ce4bh492rcd13ifvqdug","pricing_plan_id":"free"},{"bike_id":"023cce88-e702-4ba2-b481-113ec3207a8d","system_id":"levelo_inurba_marseille","lat":43.286595,"lon":5.386795,"is_reserved":false,"is_disabled":false,"rental_uris":{"android":"levelo://app?vid=023cce88-e702-4ba2-b481-113ec3207a8d","ios":"levelo://app?vid=023cce88-e702-4ba2-b481-113ec3207a8d"},"vehicle_type_id":"4","last_reported":1685117271,"current_range_meters":0,"station_id":"ce4bh492rcd13ifvqdug","pricing_plan_id":"free"},{"bike_id":"5371bbd7-c92f-4fd0-bddb-eca2c7cd5808","system_id":"levelo_inurba_marseille","lat":43.323464,"lon":5.406297,"is_reserved":false,"is_disabled":false,"rental_uris":{"android":"levelo://app?vid=5371bbd7-c92f-4fd0-bddb-eca2c7cd5808","ios":"levelo://app?vid=5371bbd7-c92f-4fd0-bddb-eca2c7cd5808"},"vehicle_type_id":"4","last_reported":1685117271,"current_range_meters":31200,"station_id":"ce4bhq92rcd13ifvqhjg","pricing_plan_id":"free"},{"bike_id":"d5fd31a8-b7a4-48f5-9751-f4ba7b16e78e","system_id":"levelo_inurba_marseille","lat":43.323464,"lon":5.406297,"is_reserved":false,"is_disabled":false,"rental_uris":{"android":"levelo://app?vid=d5fd31a8-b7a4-48f5-9751-f4ba7b16e78e","ios":"levelo://app?vid=d5fd31a8-b7a4-48f5-9751-f4ba7b16e78e"},"vehicle_type_id":"4","last_reported":1685117271,"current_range_meters":31600,"station_id":"ce4bhq92rcd13ifvqhjg","pricing_plan_id":"free"},{"bike_id":"8a020ae7-a135-40f5-a875-00dfaa32e0ce","system_id":"levelo_inurba_marseille","lat":43.323464,"lon":5.406297,"is_reserved":false,"is_disabled":false,"rental_uris":{"android":"levelo://app?vid=8a020ae7-a135-40f5-a875-00dfaa32e0ce","ios":"levelo://app?vid=8a020ae7-a135-40f5-a875-00dfaa32e0ce"},"vehicle_type_id":"4","last_reported":1685117271,"current_range_meters":21600,"station_id":"ce4bhq92rcd13ifvqhjg","pricing_plan_id":"free"},{"bike_id":"e28a274d-67f0-472b-8b39-da84563c923e","system_id":"levelo_inurba_marseille","lat":43.323464,"lon":5.406297,"is_reserved":false,"is_disabled":false,"rental_uris":{"android":"levelo://app?vid=e28a274d-67f0-472b-8b39-da84563c923e","ios":"levelo://app?vid=e28a274d-67f0-472b-8b39-da84563c923e"},"vehicle_type_id":"4","last_reported":1685117271,"current_range_meters":28800,"station_id":"ce4bhq92rcd13ifvqhjg","pricing_plan_id":"free"},{"bike_id":"1aa7a5d0-6059-4174-8cbd-007670d70e43","system_id":"levelo_inurba_marseille","lat":43.323464,"lon":5.406297,"is_reserved":false,"is_disabled":false,"rental_uris":{"android":"levelo://app?vid=1aa7a5d0-6059-4174-8cbd-007670d70e43","ios":"levelo://app?vid=1aa7a5d0-6059-4174-8cbd-007670d70e43"},"vehicle_type_id":"4","last_reported":1685117271,"current_range_meters":5200,"station_id":"ce4bhq92rcd13ifvqhjg","pricing_plan_id":"free"},{"bike_id":"8233b1fc-cd93-4fa3-8a96-9704b82265f5","system_id":"levelo_inurba_marseille","lat":43.32342,"lon":5.40624,"is_reserved":false,"is_disabled":false,"rental_uris":{"android":"levelo://app?vid=8233b1fc-cd93-4fa3-8a96-9704b82265f5","ios":"levelo://app?vid=8233b1fc-cd93-4fa3-8a96-9704b82265f5"},"vehicle_type_id":"4","last_reported":1685117271,"current_range_meters":10400,"station_id":"ce4bhq92rcd13ifvqhjg","pricing_plan_id":"free"},{"bike_id":"8d7cc5a0-b695-475a-a6f2-797ebd5aa2e1","system_id":"levelo_inurba_marseille","lat":43.28424,"lon":5.34989,"is_reserved":false,"is_disabled":false,"rental_uris":{"android":"levelo://app?vid=8d7cc5a0-b695-475a-a6f2-797ebd5aa2e1","ios":"levelo://app?vid=8d7cc5a0-b695-475a-a6f2-797ebd5aa2e1"},"vehicle_type_id":"4","last_reported":1685117271,"current_range_meters":3600,"station_id":"ce4bhbh2rcd13ifvqepg","pricing_plan_id":"free"},{"bike_id":"8b274eb1-85b8-4a93-a50b-ca26de72bff9","system_id":"levelo_inurba_marseille","lat":43.284219,"lon":5.3497,"is_reserved":false,"is_disabled":false,"rental_uris":{"android":"levelo://app?vid=8b274eb1-85b8-4a93-a50b-ca26de72bff9","ios":"levelo://app?vid=8b274eb1-85b8-4a93-a50b-ca26de72bff9"},"vehicle_type_id":"4","last_reported":1685117271,"current_range_meters":26400,"station_id":"ce4bhbh2rcd13ifvqepg","pricing_plan_id":"free"},{"bike_id":"3b5da2c0-edf3-45a3-8a0a-019a98d5412a","system_id":"levelo_inurba_marseille","lat":43.28424,"lon":5.34989,"is_reserved":false,"is_disabled":false,"rental_uris":{"android":"levelo://app?vid=3b5da2c0-edf3-45a3-8a0a-019a98d5412a","ios":"levelo://app?vid=3b5da2c0-edf3-45a3-8a0a-019a98d5412a"},"vehicle_type_id":"4","last_reported":1685117271,"current_range_meters":28000,"station_id":"ce4bhbh2rcd13ifvqepg","pricing_plan_id":"free"},{"bike_id":"7497cf3a-da30-433b-b35c-7b88585b7d88","system_id":"levelo_inurba_marseille","lat":43.284217,"lon":5.349697,"is_reserved":false,"is_disabled":false,"rental_uris":{"android":"levelo://app?vid=7497cf3a-da30-433b-b35c-7b88585b7d88","ios":"levelo://app?vid=7497cf3a-da30-433b-b35c-7b88585b7d88"},"vehicle_type_id":"4","last_reported":1685117271,"current_range_meters":28000,"station_id":"ce4bhbh2rcd13ifvqepg","pricing_plan_id":"free"},{"bike_id":"ac982ae6-42ae-4c7d-82ab-4d1cafcd8812","system_id":"levelo_inurba_marseille","lat":43.28421,"lon":5.34985,"is_reserved":false,"is_disabled":false,"rental_uris":{"android":"levelo://app?vid=ac982ae6-42ae-4c7d-82ab-4d1cafcd8812","ios":"levelo://app?vid=ac982ae6-42ae-4c7d-82ab-4d1cafcd8812"},"vehicle_type_id":"4","last_reported":1685117271,"current_range_meters":17600,"station_id":"ce4bhbh2rcd13ifvqepg","pricing_plan_id":"free"},{"bike_id":"9ec743a5-3b94-4ba2-ae58-bc2fa485b465","system_id":"levelo_inurba_marseille","lat":43.284217,"lon":5.349697,"is_reserved":false,"is_disabled":false,"rental_uris":{"android":"levelo://app?vid=9ec743a5-3b94-4ba2-ae58-bc2fa485b465","ios":"levelo://app?vid=9ec743a5-3b94-4ba2-ae58-bc2fa485b465"},"vehicle_type_id":"4","last_reported":1685117271,"current_range_meters":31200,"station_id":"ce4bhbh2rcd13ifvqepg","pricing_plan_id":"free"},{"bike_id":"89a6cc19-d709-4246-858e-77026ac30d4f","system_id":"levelo_inurba_marseille","lat":43.28419,"lon":5.34988,"is_reserved":false,"is_disabled":false,"rental_uris":{"android":"levelo://app?vid=89a6cc19-d709-4246-858e-77026ac30d4f","ios":"levelo://app?vid=89a6cc19-d709-4246-858e-77026ac30d4f"},"vehicle_type_id":"4","last_reported":1685117271,"current_range_meters":19200,"station_id":"ce4bhbh2rcd13ifvqepg","pricing_plan_id":"free"},{"bike_id":"b0c6a50f-f17d-44e6-9928-e382f4a6369c","system_id":"levelo_inurba_marseille","lat":43.284217,"lon":5.349697,"is_reserved":false,"is_disabled":false,"rental_uris":{"android":"levelo://app?vid=b0c6a50f-f17d-44e6-9928-e382f4a6369c","ios":"levelo://app?vid=b0c6a50f-f17d-44e6-9928-e382f4a6369c"},"vehicle_type_id":"4","last_reported":1685117271,"current_range_meters":31200,"station_id":"ce4bhbh2rcd13ifvqepg","pricing_plan_id":"free"},{"bike_id":"81e026e6-ad0c-463a-90d0-c27c4336147b","system_id":"levelo_inurba_marseille","lat":43.284217,"lon":5.349697,"is_reserved":false,"is_disabled":false,"rental_uris":{"android":"levelo://app?vid=81e026e6-ad0c-463a-90d0-c27c4336147b","ios":"levelo://app?vid=81e026e6-ad0c-463a-90d0-c27c4336147b"},"vehicle_type_id":"4","last_reported":1685117271,"current_range_meters":30800,"station_id":"ce4bhbh2rcd13ifvqepg","pricing_plan_id":"free"},{"bike_id":"803bf64c-127a-4e30-8230-35a70536eb00","system_id":"levelo_inurba_marseille","lat":43.284217,"lon":5.349697,"is_reserved":false,"is_disabled":false,"rental_uris":{"android":"levelo://app?vid=803bf64c-127a-4e30-8230-35a70536eb00","ios":"levelo://app?vid=803bf64c-127a-4e30-8230-35a70536eb00"},"vehicle_type_id":"4","last_reported":1685117271,"current_range_meters":25600,"station_id":"ce4bhbh2rcd13ifvqepg","pricing_plan_id":"free"},{"bike_id":"80cd88e9-6145-400b-bfa2-bed9fbbd945f","system_id":"levelo_inurba_marseille","lat":43.2842,"lon":5.34979,"is_reserved":false,"is_disabled":false,"rental_uris":{"android":"levelo://app?vid=80cd88e9-6145-400b-bfa2-bed9fbbd945f","ios":"levelo://app?vid=80cd88e9-6145-400b-bfa2-bed9fbbd945f"},"vehicle_type_id":"4","last_reported":1685117271,"current_range_meters":31200,"station_id":"ce4bhbh2rcd13ifvqepg","pricing_plan_id":"free"},{"bike_id":"a1a65f11-c52f-4086-8ff6-ae2bb85d6b44","system_id":"levelo_inurba_marseille","lat":43.28418,"lon":5.34982,"is_reserved":false,"is_disabled":false,"rental_uris":{"android":"levelo://app?vid=a1a65f11-c52f-4086-8ff6-ae2bb85d6b44","ios":"levelo://app?vid=a1a65f11-c52f-4086-8ff6-ae2bb85d6b44"},"vehicle_type_id":"4","last_reported":1685117271,"current_range_meters":25200,"station_id":"ce4bhbh2rcd13ifvqepg","pricing_plan_id":"free"},{"bike_id":"97cc22b0-a116-4fee-ab26-d49cafb040a0","system_id":"levelo_inurba_marseille","lat":43.284217,"lon":5.349697,"is_reserved":false,"is_disabled":false,"rental_uris":{"android":"levelo://app?vid=97cc22b0-a116-4fee-ab26-d49cafb040a0","ios":"levelo://app?vid=97cc22b0-a116-4fee-ab26-d49cafb040a0"},"vehicle_type_id":"4","last_reported":1685117271,"current_range_meters":28400,"station_id":"ce4bhbh2rcd13ifvqepg","pricing_plan_id":"free"},{"bike_id":"5c5887f6-ac30-4285-9349-7a37785dfc48","system_id":"levelo_inurba_marseille","lat":43.28411,"lon":5.3498,"is_reserved":false,"is_disabled":false,"rental_uris":{"android":"levelo://app?vid=5c5887f6-ac30-4285-9349-7a37785dfc48","ios":"levelo://app?vid=5c5887f6-ac30-4285-9349-7a37785dfc48"},"vehicle_type_id":"4","last_reported":1685117271,"current_range_meters":31200,"station_id":"ce4bhbh2rcd13ifvqepg","pricing_plan_id":"free"},{"bike_id":"44aca793-9416-423f-814c-ace47abd9708","system_id":"levelo_inurba_marseille","lat":43.284111,"lon":5.3497,"is_reserved":false,"is_disabled":false,"rental_uris":{"android":"levelo://app?vid=44aca793-9416-423f-814c-ace47abd9708","ios":"levelo://app?vid=44aca793-9416-423f-814c-ace47abd9708"},"vehicle_type_id":"4","last_reported":1685117271,"current_range_meters":31200,"station_id":"ce4bhbh2rcd13ifvqepg","pricing_plan_id":"free"},{"bike_id":"a72fe822-ad11-4b74-bd9f-9d65f8e38ce3","system_id":"levelo_inurba_marseille","lat":43.284092,"lon":5.349652,"is_reserved":false,"is_disabled":false,"rental_uris":{"android":"levelo://app?vid=a72fe822-ad11-4b74-bd9f-9d65f8e38ce3","ios":"levelo://app?vid=a72fe822-ad11-4b74-bd9f-9d65f8e38ce3"},"vehicle_type_id":"4","last_reported":1685117271,"current_range_meters":14400,"station_id":"ce4bhbh2rcd13ifvqepg","pricing_plan_id":"free"},{"bike_id":"772db8f9-ab27-4fa3-b635-d77d7911a8bc","system_id":"levelo_inurba_marseille","lat":43.284217,"lon":5.349697,"is_reserved":false,"is_disabled":false,"rental_uris":{"android":"levelo://app?vid=772db8f9-ab27-4fa3-b635-d77d7911a8bc","ios":"levelo://app?vid=772db8f9-ab27-4fa3-b635-d77d7911a8bc"},"vehicle_type_id":"4","last_reported":1685117271,"current_range_meters":27600,"station_id":"ce4bhbh2rcd13ifvqepg","pricing_plan_id":"free"},{"bike_id":"8b3728d2-734d-4f75-af0c-37e8ab7c1162","system_id":"levelo_inurba_marseille","lat":43.283494,"lon":5.380945,"is_reserved":false,"is_disabled":false,"rental_uris":{"android":"levelo://app?vid=8b3728d2-734d-4f75-af0c-37e8ab7c1162","ios":"levelo://app?vid=8b3728d2-734d-4f75-af0c-37e8ab7c1162"},"vehicle_type_id":"4","last_reported":1685117271,"current_range_meters":24000,"station_id":"ce4bh412rcd13ifvqdr0","pricing_plan_id":"free"},{"bike_id":"d4c4265f-0494-4e50-a7a7-6d53ba898867","system_id":"levelo_inurba_marseille","lat":43.292724,"lon":5.401131,"is_reserved":false,"is_disabled":false,"rental_uris":{"android":"levelo://app?vid=d4c4265f-0494-4e50-a7a7-6d53ba898867","ios":"levelo://app?vid=d4c4265f-0494-4e50-a7a7-6d53ba898867"},"vehicle_type_id":"4","last_reported":1685117271,"current_range_meters":2000,"station_id":"ce4bh312rcd13ifvqdk0","pricing_plan_id":"free"},{"bike_id":"709df0ec-1628-413f-a444-1e7b1d073272","system_id":"levelo_inurba_marseille","lat":43.28278,"lon":5.35074,"is_reserved":false,"is_disabled":false,"rental_uris":{"android":"levelo://app?vid=709df0ec-1628-413f-a444-1e7b1d073272","ios":"levelo://app?vid=709df0ec-1628-413f-a444-1e7b1d073272"},"vehicle_type_id":"4","last_reported":1685117271,"current_range_meters":1600,"station_id":"ce4bhbp2rcd13ifvqerg","pricing_plan_id":"free"},{"bike_id":"40b19453-514f-4fa5-966c-30f2868fa07a","system_id":"levelo_inurba_marseille","lat":43.28278,"lon":5.35074,"is_reserved":false,"is_disabled":false,"rental_uris":{"android":"levelo://app?vid=40b19453-514f-4fa5-966c-30f2868fa07a","ios":"levelo://app?vid=40b19453-514f-4fa5-966c-30f2868fa07a"},"vehicle_type_id":"4","last_reported":1685117271,"current_range_meters":5600,"station_id":"ce4bhbp2rcd13ifvqerg","pricing_plan_id":"free"},{"bike_id":"6b54a7c0-fb18-4ecf-93c6-53a01a487f14","system_id":"levelo_inurba_marseille","lat":43.28272,"lon":5.3507,"is_reserved":false,"is_disabled":false,"rental_uris":{"android":"levelo://app?vid=6b54a7c0-fb18-4ecf-93c6-53a01a487f14","ios":"levelo://app?vid=6b54a7c0-fb18-4ecf-93c6-53a01a487f14"},"vehicle_type_id":"4","last_reported":1685117271,"current_range_meters":19200,"station_id":"ce4bhbp2rcd13ifvqerg","pricing_plan_id":"free"},{"bike_id":"c35d2e73-643e-40ea-ad3a-0d9d9f818f3f","system_id":"levelo_inurba_marseille","lat":43.28271,"lon":5.35072,"is_reserved":false,"is_disabled":false,"rental_uris":{"android":"levelo://app?vid=c35d2e73-643e-40ea-ad3a-0d9d9f818f3f","ios":"levelo://app?vid=c35d2e73-643e-40ea-ad3a-0d9d9f818f3f"},"vehicle_type_id":"4","last_reported":1685117271,"current_range_meters":7200,"station_id":"ce4bhbp2rcd13ifvqerg","pricing_plan_id":"free"},{"bike_id":"e3232dbb-0eba-40a2-a7c5-c4fc60dc0d2c","system_id":"levelo_inurba_marseille","lat":43.2827,"lon":5.35072,"is_reserved":false,"is_disabled":false,"rental_uris":{"android":"levelo://app?vid=e3232dbb-0eba-40a2-a7c5-c4fc60dc0d2c","ios":"levelo://app?vid=e3232dbb-0eba-40a2-a7c5-c4fc60dc0d2c"},"vehicle_type_id":"4","last_reported":1685117271,"current_range_meters":13600,"station_id":"ce4bhbp2rcd13ifvqerg","pricing_plan_id":"free"},{"bike_id":"fc626297-e4e4-49ad-830f-a6f110eb91e6","system_id":"levelo_inurba_marseille","lat":43.28269,"lon":5.35065,"is_reserved":false,"is_disabled":false,"rental_uris":{"android":"levelo://app?vid=fc626297-e4e4-49ad-830f-a6f110eb91e6","ios":"levelo://app?vid=fc626297-e4e4-49ad-830f-a6f110eb91e6"},"vehicle_type_id":"4","last_reported":1685117271,"current_range_meters":16800,"station_id":"ce4bhbp2rcd13ifvqerg","pricing_plan_id":"free"},{"bike_id":"c4fe44fc-6bf8-46f2-86ea-c7e3d5779d21","system_id":"levelo_inurba_marseille","lat":43.28268,"lon":5.35065,"is_reserved":false,"is_disabled":false,"rental_uris":{"android":"levelo://app?vid=c4fe44fc-6bf8-46f2-86ea-c7e3d5779d21","ios":"levelo://app?vid=c4fe44fc-6bf8-46f2-86ea-c7e3d5779d21"},"vehicle_type_id":"4","last_reported":1685117271,"current_range_meters":21600,"station_id":"ce4bhbp2rcd13ifvqerg","pricing_plan_id":"free"},{"bike_id":"ab5a6c8a-4b74-4883-b4a9-143e2a3228c6","system_id":"levelo_inurba_marseille","lat":43.28039,"lon":5.369297,"is_reserved":false,"is_disabled":false,"rental_uris":{"android":"levelo://app?vid=ab5a6c8a-4b74-4883-b4a9-143e2a3228c6","ios":"levelo://app?vid=ab5a6c8a-4b74-4883-b4a9-143e2a3228c6"},"vehicle_type_id":"4","last_reported":1685117271,"current_range_meters":31200,"station_id":"ce4bha12rcd13ifvqef0","pricing_plan_id":"free"},{"bike_id":"ab5cb2a0-f8e3-469b-a4e3-2941ba2625de","system_id":"levelo_inurba_marseille","lat":43.28039,"lon":5.369297,"is_reserved":false,"is_disabled":false,"rental_uris":{"android":"levelo://app?vid=ab5cb2a0-f8e3-469b-a4e3-2941ba2625de","ios":"levelo://app?vid=ab5cb2a0-f8e3-469b-a4e3-2941ba2625de"},"vehicle_type_id":"4","last_reported":1685117271,"current_range_meters":29200,"station_id":"ce4bha12rcd13ifvqef0","pricing_plan_id":"free"},{"bike_id":"0d316057-ba3d-427e-a014-633e43f9f85d","system_id":"levelo_inurba_marseille","lat":43.28039,"lon":5.369297,"is_reserved":false,"is_disabled":false,"rental_uris":{"android":"levelo://app?vid=0d316057-ba3d-427e-a014-633e43f9f85d","ios":"levelo://app?vid=0d316057-ba3d-427e-a014-633e43f9f85d"},"vehicle_type_id":"4","last_reported":1685117271,"current_range_meters":24000,"station_id":"ce4bha12rcd13ifvqef0","pricing_plan_id":"free"},{"bike_id":"4d86ce40-e406-44d0-9e2e-59dcfae65e59","system_id":"levelo_inurba_marseille","lat":43.29041,"lon":5.39947,"is_reserved":false,"is_disabled":false,"rental_uris":{"android":"levelo://app?vid=4d86ce40-e406-44d0-9e2e-59dcfae65e59","ios":"levelo://app?vid=4d86ce40-e406-44d0-9e2e-59dcfae65e59"},"vehicle_type_id":"4","last_reported":1685117271,"current_range_meters":0,"station_id":"ce4bh392rcd13ifvqdm0","pricing_plan_id":"free"},{"bike_id":"ef2fb39e-5bdd-44d8-a075-a3683862d6a0","system_id":"levelo_inurba_marseille","lat":43.29041,"lon":5.39972,"is_reserved":false,"is_disabled":false,"rental_uris":{"android":"levelo://app?vid=ef2fb39e-5bdd-44d8-a075-a3683862d6a0","ios":"levelo://app?vid=ef2fb39e-5bdd-44d8-a075-a3683862d6a0"},"vehicle_type_id":"4","last_reported":1685117271,"current_range_meters":1600,"station_id":"ce4bh392rcd13ifvqdm0","pricing_plan_id":"free"},{"bike_id":"21c20a26-8b4a-402b-9389-3e6431cf9786","system_id":"levelo_inurba_marseille","lat":43.29039,"lon":5.3997,"is_reserved":false,"is_disabled":false,"rental_uris":{"android":"levelo://app?vid=21c20a26-8b4a-402b-9389-3e6431cf9786","ios":"levelo://app?vid=21c20a26-8b4a-402b-9389-3e6431cf9786"},"vehicle_type_id":"4","last_reported":1685117271,"current_range_meters":21200,"station_id":"ce4bh392rcd13ifvqdm0","pricing_plan_id":"free"},{"bike_id":"4f907e93-7668-4e29-8200-9b9802170759","system_id":"levelo_inurba_marseille","lat":43.281044,"lon":5.378308,"is_reserved":false,"is_disabled":false,"rental_uris":{"android":"levelo://app?vid=4f907e93-7668-4e29-8200-9b9802170759","ios":"levelo://app?vid=4f907e93-7668-4e29-8200-9b9802170759"},"vehicle_type_id":"4","last_reported":1685117271,"current_range_meters":19200,"station_id":"ce4bha12rcd13ifvqee0","pricing_plan_id":"free"},{"bike_id":"61a50036-8fd4-4baf-8dab-5c338abad9a7","system_id":"levelo_inurba_marseille","lat":43.281044,"lon":5.378308,"is_reserved":false,"is_disabled":false,"rental_uris":{"android":"levelo://app?vid=61a50036-8fd4-4baf-8dab-5c338abad9a7","ios":"levelo://app?vid=61a50036-8fd4-4baf-8dab-5c338abad9a7"},"vehicle_type_id":"4","last_reported":1685117271,"current_range_meters":22400,"station_id":"ce4bha12rcd13ifvqee0","pricing_plan_id":"free"},{"bike_id":"47400147-93b0-4186-a7dc-f76d69d6b016","system_id":"levelo_inurba_marseille","lat":43.296263,"lon":5.40601,"is_reserved":false,"is_disabled":false,"rental_uris":{"android":"levelo://app?vid=47400147-93b0-4186-a7dc-f76d69d6b016","ios":"levelo://app?vid=47400147-93b0-4186-a7dc-f76d69d6b016"},"vehicle_type_id":"4","last_reported":1685117271,"current_range_meters":14400,"station_id":"ce4bh0h2rcd13ifvqd60","pricing_plan_id":"free"},{"bike_id":"11860358-8499-4bf2-aec0-8d6d23623831","system_id":"levelo_inurba_marseille","lat":43.28101,"lon":5.3785,"is_reserved":false,"is_disabled":false,"rental_uris":{"android":"levelo://app?vid=11860358-8499-4bf2-aec0-8d6d23623831","ios":"levelo://app?vid=11860358-8499-4bf2-aec0-8d6d23623831"},"vehicle_type_id":"4","last_reported":1685117271,"current_range_meters":17200,"station_id":"ce4bha12rcd13ifvqee0","pricing_plan_id":"free"},{"bike_id":"f430fc79-b1d3-4256-b693-403779fba30c","system_id":"levelo_inurba_marseille","lat":43.29637,"lon":5.40604,"is_reserved":false,"is_disabled":false,"rental_uris":{"android":"levelo://app?vid=f430fc79-b1d3-4256-b693-403779fba30c","ios":"levelo://app?vid=f430fc79-b1d3-4256-b693-403779fba30c"},"vehicle_type_id":"4","last_reported":1685117271,"current_range_meters":4400,"station_id":"ce4bh0h2rcd13ifvqd60","pricing_plan_id":"free"},{"bike_id":"21186776-022e-4f5e-8150-ea165694cbd1","system_id":"levelo_inurba_marseille","lat":43.284462,"lon":5.392121,"is_reserved":false,"is_disabled":false,"rental_uris":{"android":"levelo://app?vid=21186776-022e-4f5e-8150-ea165694cbd1","ios":"levelo://app?vid=21186776-022e-4f5e-8150-ea165694cbd1"},"vehicle_type_id":"4","last_reported":1685117271,"current_range_meters":1200,"station_id":"ce4bhoh2rcd13ifvqh5g","pricing_plan_id":"free"},{"bike_id":"dd327e82-df5c-43f5-bebe-c72b6ba1542f","system_id":"levelo_inurba_marseille","lat":43.284462,"lon":5.392121,"is_reserved":false,"is_disabled":false,"rental_uris":{"android":"levelo://app?vid=dd327e82-df5c-43f5-bebe-c72b6ba1542f","ios":"levelo://app?vid=dd327e82-df5c-43f5-bebe-c72b6ba1542f"},"vehicle_type_id":"4","last_reported":1685117271,"current_range_meters":3600,"station_id":"ce4bhoh2rcd13ifvqh5g","pricing_plan_id":"free"},{"bike_id":"ac3963b2-be8c-498c-ae2f-09e027148ade","system_id":"levelo_inurba_marseille","lat":43.287061,"lon":5.399911,"is_reserved":false,"is_disabled":false,"rental_uris":{"android":"levelo://app?vid=ac3963b2-be8c-498c-ae2f-09e027148ade","ios":"levelo://app?vid=ac3963b2-be8c-498c-ae2f-09e027148ade"},"vehicle_type_id":"4","last_reported":1685117271,"current_range_meters":8000,"station_id":"","pricing_plan_id":"free"},{"bike_id":"98b6b8dc-5136-4dd0-b95d-49d03a78a518","system_id":"levelo_inurba_marseille","lat":43.320045,"lon":5.415048,"is_reserved":false,"is_disabled":false,"rental_uris":{"android":"levelo://app?vid=98b6b8dc-5136-4dd0-b95d-49d03a78a518","ios":"levelo://app?vid=98b6b8dc-5136-4dd0-b95d-49d03a78a518"},"vehicle_type_id":"4","last_reported":1685117271,"current_range_meters":23600,"station_id":"ce4bhq92rcd13ifvqhkg","pricing_plan_id":"free"},{"bike_id":"4cf9740b-2e0c-4b0d-ba48-21964d517d06","system_id":"levelo_inurba_marseille","lat":43.27622,"lon":5.36111,"is_reserved":false,"is_disabled":false,"rental_uris":{"android":"levelo://app?vid=4cf9740b-2e0c-4b0d-ba48-21964d517d06","ios":"levelo://app?vid=4cf9740b-2e0c-4b0d-ba48-21964d517d06"},"vehicle_type_id":"4","last_reported":1685117271,"current_range_meters":18000,"station_id":"ce4bgj92rcd13ifvqbe0","pricing_plan_id":"free"},{"bike_id":"29ccf1ed-768a-4ac9-abfd-26b77b287c79","system_id":"levelo_inurba_marseille","lat":43.27621,"lon":5.36113,"is_reserved":false,"is_disabled":false,"rental_uris":{"android":"levelo://app?vid=29ccf1ed-768a-4ac9-abfd-26b77b287c79","ios":"levelo://app?vid=29ccf1ed-768a-4ac9-abfd-26b77b287c79"},"vehicle_type_id":"4","last_reported":1685117271,"current_range_meters":3200,"station_id":"ce4bgj92rcd13ifvqbe0","pricing_plan_id":"free"},{"bike_id":"0c7f4ed8-c258-4510-984d-ad6297004c3f","system_id":"levelo_inurba_marseille","lat":43.27621,"lon":5.36107,"is_reserved":false,"is_disabled":false,"rental_uris":{"android":"levelo://app?vid=0c7f4ed8-c258-4510-984d-ad6297004c3f","ios":"levelo://app?vid=0c7f4ed8-c258-4510-984d-ad6297004c3f"},"vehicle_type_id":"4","last_reported":1685117271,"current_range_meters":2000,"station_id":"ce4bgj92rcd13ifvqbe0","pricing_plan_id":"free"},{"bike_id":"b6789996-2a25-4da1-97a6-bd94ff18e4c5","system_id":"levelo_inurba_marseille","lat":43.27619,"lon":5.36112,"is_reserved":false,"is_disabled":false,"rental_uris":{"android":"levelo://app?vid=b6789996-2a25-4da1-97a6-bd94ff18e4c5","ios":"levelo://app?vid=b6789996-2a25-4da1-97a6-bd94ff18e4c5"},"vehicle_type_id":"4","last_reported":1685117271,"current_range_meters":24400,"station_id":"ce4bgj92rcd13ifvqbe0","pricing_plan_id":"free"},{"bike_id":"713aae44-19a1-4eea-9336-8c6d11084a47","system_id":"levelo_inurba_marseille","lat":43.27619,"lon":5.36103,"is_reserved":false,"is_disabled":false,"rental_uris":{"android":"levelo://app?vid=713aae44-19a1-4eea-9336-8c6d11084a47","ios":"levelo://app?vid=713aae44-19a1-4eea-9336-8c6d11084a47"},"vehicle_type_id":"4","last_reported":1685117271,"current_range_meters":8000,"station_id":"ce4bgj92rcd13ifvqbe0","pricing_plan_id":"free"},{"bike_id":"7dd2be40-d869-41db-93e9-a5ee8dc8df03","system_id":"levelo_inurba_marseille","lat":43.27618,"lon":5.36114,"is_reserved":false,"is_disabled":false,"rental_uris":{"android":"levelo://app?vid=7dd2be40-d869-41db-93e9-a5ee8dc8df03","ios":"levelo://app?vid=7dd2be40-d869-41db-93e9-a5ee8dc8df03"},"vehicle_type_id":"4","last_reported":1685117271,"current_range_meters":6000,"station_id":"ce4bgj92rcd13ifvqbe0","pricing_plan_id":"free"},{"bike_id":"0b193b3c-8023-4274-b218-288d34b7af09","system_id":"levelo_inurba_marseille","lat":43.280784,"lon":5.396622,"is_reserved":false,"is_disabled":false,"rental_uris":{"android":"levelo://app?vid=0b193b3c-8023-4274-b218-288d34b7af09","ios":"levelo://app?vid=0b193b3c-8023-4274-b218-288d34b7af09"},"vehicle_type_id":"4","last_reported":1685117271,"current_range_meters":5600,"station_id":"ce4bho12rcd13ifvqh2g","pricing_plan_id":"free"},{"bike_id":"41e34b71-57bd-49cb-9fb2-9f9358f7847c","system_id":"levelo_inurba_marseille","lat":43.27383,"lon":5.36253,"is_reserved":false,"is_disabled":false,"rental_uris":{"android":"levelo://app?vid=41e34b71-57bd-49cb-9fb2-9f9358f7847c","ios":"levelo://app?vid=41e34b71-57bd-49cb-9fb2-9f9358f7847c"},"vehicle_type_id":"4","last_reported":1685117271,"current_range_meters":0,"station_id":"","pricing_plan_id":"free"},{"bike_id":"df553ca0-bf72-4ff0-98d1-0bd7fd9a40e0","system_id":"levelo_inurba_marseille","lat":43.273613,"lon":5.362705,"is_reserved":false,"is_disabled":false,"rental_uris":{"android":"levelo://app?vid=df553ca0-bf72-4ff0-98d1-0bd7fd9a40e0","ios":"levelo://app?vid=df553ca0-bf72-4ff0-98d1-0bd7fd9a40e0"},"vehicle_type_id":"4","last_reported":1685117271,"current_range_meters":31200,"station_id":"ce4bhbh2rcd13ifvqeo0","pricing_plan_id":"free"},{"bike_id":"cb253bd9-763c-48ce-bcff-45cadd8048de","system_id":"levelo_inurba_marseille","lat":43.273609,"lon":5.362708,"is_reserved":false,"is_disabled":false,"rental_uris":{"android":"levelo://app?vid=cb253bd9-763c-48ce-bcff-45cadd8048de","ios":"levelo://app?vid=cb253bd9-763c-48ce-bcff-45cadd8048de"},"vehicle_type_id":"4","last_reported":1685117271,"current_range_meters":28400,"station_id":"ce4bhbh2rcd13ifvqeo0","pricing_plan_id":"free"},{"bike_id":"11bc3b88-c260-45de-af96-b32b6258daa7","system_id":"levelo_inurba_marseille","lat":43.273609,"lon":5.362708,"is_reserved":false,"is_disabled":false,"rental_uris":{"android":"levelo://app?vid=11bc3b88-c260-45de-af96-b32b6258daa7","ios":"levelo://app?vid=11bc3b88-c260-45de-af96-b32b6258daa7"},"vehicle_type_id":"4","last_reported":1685117271,"current_range_meters":28000,"station_id":"ce4bhbh2rcd13ifvqeo0","pricing_plan_id":"free"},{"bike_id":"9c9e1aaa-d40a-47cc-974f-4024047be166","system_id":"levelo_inurba_marseille","lat":43.27372,"lon":5.3626,"is_reserved":false,"is_disabled":false,"rental_uris":{"android":"levelo://app?vid=9c9e1aaa-d40a-47cc-974f-4024047be166","ios":"levelo://app?vid=9c9e1aaa-d40a-47cc-974f-4024047be166"},"vehicle_type_id":"4","last_reported":1685117271,"current_range_meters":26400,"station_id":"ce4bhbh2rcd13ifvqeo0","pricing_plan_id":"free"},{"bike_id":"dce6b700-b659-4265-9f2c-b92e10c533c2","system_id":"levelo_inurba_marseille","lat":43.273609,"lon":5.362708,"is_reserved":false,"is_disabled":false,"rental_uris":{"android":"levelo://app?vid=dce6b700-b659-4265-9f2c-b92e10c533c2","ios":"levelo://app?vid=dce6b700-b659-4265-9f2c-b92e10c533c2"},"vehicle_type_id":"4","last_reported":1685117271,"current_range_meters":30400,"station_id":"ce4bhbh2rcd13ifvqeo0","pricing_plan_id":"free"},{"bike_id":"c5a46114-51ca-4d34-9e01-5cc3b96ab2d6","system_id":"levelo_inurba_marseille","lat":43.273609,"lon":5.362708,"is_reserved":false,"is_disabled":false,"rental_uris":{"android":"levelo://app?vid=c5a46114-51ca-4d34-9e01-5cc3b96ab2d6","ios":"levelo://app?vid=c5a46114-51ca-4d34-9e01-5cc3b96ab2d6"},"vehicle_type_id":"4","last_reported":1685117271,"current_range_meters":29600,"station_id":"ce4bhbh2rcd13ifvqeo0","pricing_plan_id":"free"},{"bike_id":"eda41588-c6bb-4217-b40d-ef30560b3e3f","system_id":"levelo_inurba_marseille","lat":43.273609,"lon":5.362708,"is_reserved":false,"is_disabled":false,"rental_uris":{"android":"levelo://app?vid=eda41588-c6bb-4217-b40d-ef30560b3e3f","ios":"levelo://app?vid=eda41588-c6bb-4217-b40d-ef30560b3e3f"},"vehicle_type_id":"4","last_reported":1685117271,"current_range_meters":26000,"station_id":"ce4bhbh2rcd13ifvqeo0","pricing_plan_id":"free"},{"bike_id":"877b8e41-1dec-42d3-8070-90f4aba80554","system_id":"levelo_inurba_marseille","lat":43.273609,"lon":5.362708,"is_reserved":false,"is_disabled":false,"rental_uris":{"android":"levelo://app?vid=877b8e41-1dec-42d3-8070-90f4aba80554","ios":"levelo://app?vid=877b8e41-1dec-42d3-8070-90f4aba80554"},"vehicle_type_id":"4","last_reported":1685117271,"current_range_meters":31200,"station_id":"ce4bhbh2rcd13ifvqeo0","pricing_plan_id":"free"},{"bike_id":"d3b4d088-376c-476b-814e-a9d69a095c48","system_id":"levelo_inurba_marseille","lat":43.273609,"lon":5.362708,"is_reserved":false,"is_disabled":false,"rental_uris":{"android":"levelo://app?vid=d3b4d088-376c-476b-814e-a9d69a095c48","ios":"levelo://app?vid=d3b4d088-376c-476b-814e-a9d69a095c48"},"vehicle_type_id":"4","last_reported":1685117271,"current_range_meters":29600,"station_id":"ce4bhbh2rcd13ifvqeo0","pricing_plan_id":"free"},{"bike_id":"65070c2b-3a20-49aa-af1b-6e11644f66ab","system_id":"levelo_inurba_marseille","lat":43.273609,"lon":5.362708,"is_reserved":false,"is_disabled":false,"rental_uris":{"android":"levelo://app?vid=65070c2b-3a20-49aa-af1b-6e11644f66ab","ios":"levelo://app?vid=65070c2b-3a20-49aa-af1b-6e11644f66ab"},"vehicle_type_id":"4","last_reported":1685117271,"current_range_meters":18800,"station_id":"ce4bhbh2rcd13ifvqeo0","pricing_plan_id":"free"},{"bike_id":"62643c7c-0bed-418f-9165-b968db007cb1","system_id":"levelo_inurba_marseille","lat":43.273609,"lon":5.362708,"is_reserved":false,"is_disabled":false,"rental_uris":{"android":"levelo://app?vid=62643c7c-0bed-418f-9165-b968db007cb1","ios":"levelo://app?vid=62643c7c-0bed-418f-9165-b968db007cb1"},"vehicle_type_id":"4","last_reported":1685117271,"current_range_meters":31200,"station_id":"ce4bhbh2rcd13ifvqeo0","pricing_plan_id":"free"},{"bike_id":"44f4cc80-7eb3-4104-af16-e3987782a72c","system_id":"levelo_inurba_marseille","lat":43.276771,"lon":5.388799,"is_reserved":false,"is_disabled":false,"rental_uris":{"android":"levelo://app?vid=44f4cc80-7eb3-4104-af16-e3987782a72c","ios":"levelo://app?vid=44f4cc80-7eb3-4104-af16-e3987782a72c"},"vehicle_type_id":"4","last_reported":1685117271,"current_range_meters":18000,"station_id":"ce4bhi12rcd13ifvqfo0","pricing_plan_id":"free"},{"bike_id":"33159f1b-dfa5-4a49-91eb-38e9bc02bf92","system_id":"levelo_inurba_marseille","lat":43.317121,"lon":5.423936,"is_reserved":false,"is_disabled":false,"rental_uris":{"android":"levelo://app?vid=33159f1b-dfa5-4a49-91eb-38e9bc02bf92","ios":"levelo://app?vid=33159f1b-dfa5-4a49-91eb-38e9bc02bf92"},"vehicle_type_id":"4","last_reported":1685117271,"current_range_meters":5600,"station_id":"ce4bhp92rcd13ifvqhbg","pricing_plan_id":"free"},{"bike_id":"6691ecdc-0453-4621-9ff7-3fc958b2fe75","system_id":"levelo_inurba_marseille","lat":43.310785,"lon":5.424305,"is_reserved":false,"is_disabled":false,"rental_uris":{"android":"levelo://app?vid=6691ecdc-0453-4621-9ff7-3fc958b2fe75","ios":"levelo://app?vid=6691ecdc-0453-4621-9ff7-3fc958b2fe75"},"vehicle_type_id":"4","last_reported":1685117271,"current_range_meters":2000,"station_id":"ce4bhp92rcd13ifvqhag","pricing_plan_id":"free"},{"bike_id":"a9cd496b-03ed-41f0-9d84-ef7129a9ce31","system_id":"levelo_inurba_marseille","lat":43.31083,"lon":5.4243,"is_reserved":false,"is_disabled":false,"rental_uris":{"android":"levelo://app?vid=a9cd496b-03ed-41f0-9d84-ef7129a9ce31","ios":"levelo://app?vid=a9cd496b-03ed-41f0-9d84-ef7129a9ce31"},"vehicle_type_id":"4","last_reported":1685117271,"current_range_meters":29600,"station_id":"ce4bhp92rcd13ifvqhag","pricing_plan_id":"free"},{"bike_id":"c740b998-5ff5-4e4c-a7a8-32cbbd466b1a","system_id":"levelo_inurba_marseille","lat":43.295523,"lon":5.422926,"is_reserved":false,"is_disabled":false,"rental_uris":{"android":"levelo://app?vid=c740b998-5ff5-4e4c-a7a8-32cbbd466b1a","ios":"levelo://app?vid=c740b998-5ff5-4e4c-a7a8-32cbbd466b1a"},"vehicle_type_id":"4","last_reported":1685117271,"current_range_meters":28800,"station_id":"ce4bhph2rcd13ifvqhdg","pricing_plan_id":"free"},{"bike_id":"6d713c6e-b9c6-4bb9-9970-dd3ec8ae03ba","system_id":"levelo_inurba_marseille","lat":43.295511,"lon":5.422926,"is_reserved":false,"is_disabled":false,"rental_uris":{"android":"levelo://app?vid=6d713c6e-b9c6-4bb9-9970-dd3ec8ae03ba","ios":"levelo://app?vid=6d713c6e-b9c6-4bb9-9970-dd3ec8ae03ba"},"vehicle_type_id":"4","last_reported":1685117271,"current_range_meters":6000,"station_id":"ce4bhph2rcd13ifvqhdg","pricing_plan_id":"free"},{"bike_id":"9b6726c3-2155-41e0-996b-7245e0f8a1a9","system_id":"levelo_inurba_marseille","lat":43.295523,"lon":5.422926,"is_reserved":false,"is_disabled":false,"rental_uris":{"android":"levelo://app?vid=9b6726c3-2155-41e0-996b-7245e0f8a1a9","ios":"levelo://app?vid=9b6726c3-2155-41e0-996b-7245e0f8a1a9"},"vehicle_type_id":"4","last_reported":1685117271,"current_range_meters":12800,"station_id":"ce4bhph2rcd13ifvqhdg","pricing_plan_id":"free"},{"bike_id":"ea26ac50-170e-4ade-994e-50bb6152d902","system_id":"levelo_inurba_marseille","lat":43.29556,"lon":5.423,"is_reserved":false,"is_disabled":false,"rental_uris":{"android":"levelo://app?vid=ea26ac50-170e-4ade-994e-50bb6152d902","ios":"levelo://app?vid=ea26ac50-170e-4ade-994e-50bb6152d902"},"vehicle_type_id":"4","last_reported":1685117271,"current_range_meters":12800,"station_id":"ce4bhph2rcd13ifvqhdg","pricing_plan_id":"free"},{"bike_id":"0c620a7e-e99f-43d3-ba5f-713abb130c8f","system_id":"levelo_inurba_marseille","lat":43.278128,"lon":5.407195,"is_reserved":false,"is_disabled":false,"rental_uris":{"android":"levelo://app?vid=0c620a7e-e99f-43d3-ba5f-713abb130c8f","ios":"levelo://app?vid=0c620a7e-e99f-43d3-ba5f-713abb130c8f"},"vehicle_type_id":"4","last_reported":1685117271,"current_range_meters":18000,"station_id":"ce4bhnh2rcd13ifvqgtg","pricing_plan_id":"free"},{"bike_id":"7823f109-3306-4281-a3ed-f2a5440277d0","system_id":"levelo_inurba_marseille","lat":43.278128,"lon":5.407195,"is_reserved":false,"is_disabled":false,"rental_uris":{"android":"levelo://app?vid=7823f109-3306-4281-a3ed-f2a5440277d0","ios":"levelo://app?vid=7823f109-3306-4281-a3ed-f2a5440277d0"},"vehicle_type_id":"4","last_reported":1685117271,"current_range_meters":28800,"station_id":"ce4bhnh2rcd13ifvqgtg","pricing_plan_id":"free"},{"bike_id":"0be81108-a7a1-4aef-92ff-c16a0912c6dc","system_id":"levelo_inurba_marseille","lat":43.278128,"lon":5.407195,"is_reserved":false,"is_disabled":false,"rental_uris":{"android":"levelo://app?vid=0be81108-a7a1-4aef-92ff-c16a0912c6dc","ios":"levelo://app?vid=0be81108-a7a1-4aef-92ff-c16a0912c6dc"},"vehicle_type_id":"4","last_reported":1685117271,"current_range_meters":18800,"station_id":"ce4bhnh2rcd13ifvqgtg","pricing_plan_id":"free"},{"bike_id":"4dd7c059-75c5-47a0-96fd-50d0be211988","system_id":"levelo_inurba_marseille","lat":43.278128,"lon":5.407195,"is_reserved":false,"is_disabled":false,"rental_uris":{"android":"levelo://app?vid=4dd7c059-75c5-47a0-96fd-50d0be211988","ios":"levelo://app?vid=4dd7c059-75c5-47a0-96fd-50d0be211988"},"vehicle_type_id":"4","last_reported":1685117271,"current_range_meters":27600,"station_id":"ce4bhnh2rcd13ifvqgtg","pricing_plan_id":"free"},{"bike_id":"d6649733-d371-48ca-95b5-59afcc0ac417","system_id":"levelo_inurba_marseille","lat":43.269467,"lon":5.386439,"is_reserved":false,"is_disabled":false,"rental_uris":{"android":"levelo://app?vid=d6649733-d371-48ca-95b5-59afcc0ac417","ios":"levelo://app?vid=d6649733-d371-48ca-95b5-59afcc0ac417"},"vehicle_type_id":"4","last_reported":1685117271,"current_range_meters":0,"station_id":"ce4bhh92rcd13ifvqfh0","pricing_plan_id":"free"},{"bike_id":"d350819e-cd69-4241-83b7-1062384cf64c","system_id":"levelo_inurba_marseille","lat":43.269467,"lon":5.386439,"is_reserved":false,"is_disabled":false,"rental_uris":{"android":"levelo://app?vid=d350819e-cd69-4241-83b7-1062384cf64c","ios":"levelo://app?vid=d350819e-cd69-4241-83b7-1062384cf64c"},"vehicle_type_id":"4","last_reported":1685117271,"current_range_meters":0,"station_id":"ce4bhh92rcd13ifvqfh0","pricing_plan_id":"free"},{"bike_id":"bdee7450-0a63-4f37-994d-cf02cb289575","system_id":"levelo_inurba_marseille","lat":43.26554,"lon":5.37297,"is_reserved":false,"is_disabled":false,"rental_uris":{"android":"levelo://app?vid=bdee7450-0a63-4f37-994d-cf02cb289575","ios":"levelo://app?vid=bdee7450-0a63-4f37-994d-cf02cb289575"},"vehicle_type_id":"4","last_reported":1685117271,"current_range_meters":25600,"station_id":"ce4bhg12rcd13ifvqf70","pricing_plan_id":"free"},{"bike_id":"3c3373bf-c64b-4132-b905-aef1c612ca33","system_id":"levelo_inurba_marseille","lat":43.30802,"lon":5.43524,"is_reserved":false,"is_disabled":false,"rental_uris":{"android":"levelo://app?vid=3c3373bf-c64b-4132-b905-aef1c612ca33","ios":"levelo://app?vid=3c3373bf-c64b-4132-b905-aef1c612ca33"},"vehicle_type_id":"4","last_reported":1685117271,"current_range_meters":17600,"station_id":"","pricing_plan_id":"free"},{"bike_id":"b35a7040-bbda-43db-9397-f046555e255b","system_id":"levelo_inurba_marseille","lat":43.30807,"lon":5.43527,"is_reserved":false,"is_disabled":false,"rental_uris":{"android":"levelo://app?vid=b35a7040-bbda-43db-9397-f046555e255b","ios":"levelo://app?vid=b35a7040-bbda-43db-9397-f046555e255b"},"vehicle_type_id":"4","last_reported":1685117271,"current_range_meters":23600,"station_id":"","pricing_plan_id":"free"},{"bike_id":"2e18f64f-160d-4cc2-ab99-cf430a92b7d9","system_id":"levelo_inurba_marseille","lat":43.30804,"lon":5.43528,"is_reserved":false,"is_disabled":false,"rental_uris":{"android":"levelo://app?vid=2e18f64f-160d-4cc2-ab99-cf430a92b7d9","ios":"levelo://app?vid=2e18f64f-160d-4cc2-ab99-cf430a92b7d9"},"vehicle_type_id":"4","last_reported":1685117271,"current_range_meters":0,"station_id":"","pricing_plan_id":"free"},{"bike_id":"eb1e7463-04a7-4eb1-b297-dd018c79d527","system_id":"levelo_inurba_marseille","lat":43.30799,"lon":5.43528,"is_reserved":false,"is_disabled":false,"rental_uris":{"android":"levelo://app?vid=eb1e7463-04a7-4eb1-b297-dd018c79d527","ios":"levelo://app?vid=eb1e7463-04a7-4eb1-b297-dd018c79d527"},"vehicle_type_id":"4","last_reported":1685117271,"current_range_meters":800,"station_id":"","pricing_plan_id":"free"},{"bike_id":"bca27886-b8e1-4c5e-b2a1-05f2a1786c82","system_id":"levelo_inurba_marseille","lat":43.30796,"lon":5.43531,"is_reserved":false,"is_disabled":false,"rental_uris":{"android":"levelo://app?vid=bca27886-b8e1-4c5e-b2a1-05f2a1786c82","ios":"levelo://app?vid=bca27886-b8e1-4c5e-b2a1-05f2a1786c82"},"vehicle_type_id":"4","last_reported":1685117271,"current_range_meters":12000,"station_id":"","pricing_plan_id":"free"},{"bike_id":"c8927b33-ecbb-4576-82ba-944f44826feb","system_id":"levelo_inurba_marseille","lat":43.265569,"lon":5.390047,"is_reserved":false,"is_disabled":false,"rental_uris":{"android":"levelo://app?vid=c8927b33-ecbb-4576-82ba-944f44826feb","ios":"levelo://app?vid=c8927b33-ecbb-4576-82ba-944f44826feb"},"vehicle_type_id":"4","last_reported":1685117271,"current_range_meters":15200,"station_id":"ce4bhe12rcd13ifvqf30","pricing_plan_id":"free"},{"bike_id":"4cb45d65-ffc5-48ee-9a12-c56d838bd0e4","system_id":"levelo_inurba_marseille","lat":43.31714,"lon":5.43701,"is_reserved":false,"is_disabled":false,"rental_uris":{"android":"levelo://app?vid=4cb45d65-ffc5-48ee-9a12-c56d838bd0e4","ios":"levelo://app?vid=4cb45d65-ffc5-48ee-9a12-c56d838bd0e4"},"vehicle_type_id":"4","last_reported":1685117271,"current_range_meters":30000,"station_id":"ce4bhp92rcd13ifvqhcg","pricing_plan_id":"free"},{"bike_id":"6caacd0e-46b0-41a9-8c62-afb29db7e6c7","system_id":"levelo_inurba_marseille","lat":43.317104,"lon":5.436818,"is_reserved":false,"is_disabled":false,"rental_uris":{"android":"levelo://app?vid=6caacd0e-46b0-41a9-8c62-afb29db7e6c7","ios":"levelo://app?vid=6caacd0e-46b0-41a9-8c62-afb29db7e6c7"},"vehicle_type_id":"4","last_reported":1685117271,"current_range_meters":31200,"station_id":"ce4bhp92rcd13ifvqhcg","pricing_plan_id":"free"},{"bike_id":"3a4843bc-c238-477b-94cb-2576b8869aae","system_id":"levelo_inurba_marseille","lat":43.31714,"lon":5.43705,"is_reserved":false,"is_disabled":false,"rental_uris":{"android":"levelo://app?vid=3a4843bc-c238-477b-94cb-2576b8869aae","ios":"levelo://app?vid=3a4843bc-c238-477b-94cb-2576b8869aae"},"vehicle_type_id":"4","last_reported":1685117271,"current_range_meters":14400,"station_id":"ce4bhp92rcd13ifvqhcg","pricing_plan_id":"free"},{"bike_id":"97f92444-dc7f-4ac8-885e-43ac50454dc0","system_id":"levelo_inurba_marseille","lat":43.317104,"lon":5.436818,"is_reserved":false,"is_disabled":false,"rental_uris":{"android":"levelo://app?vid=97f92444-dc7f-4ac8-885e-43ac50454dc0","ios":"levelo://app?vid=97f92444-dc7f-4ac8-885e-43ac50454dc0"},"vehicle_type_id":"4","last_reported":1685117271,"current_range_meters":0,"station_id":"ce4bhp92rcd13ifvqhcg","pricing_plan_id":"free"},{"bike_id":"afb2fc54-e9ee-41f6-87d3-5a3dc67d4cd8","system_id":"levelo_inurba_marseille","lat":43.31711,"lon":5.43707,"is_reserved":false,"is_disabled":false,"rental_uris":{"android":"levelo://app?vid=afb2fc54-e9ee-41f6-87d3-5a3dc67d4cd8","ios":"levelo://app?vid=afb2fc54-e9ee-41f6-87d3-5a3dc67d4cd8"},"vehicle_type_id":"4","last_reported":1685117271,"current_range_meters":15200,"station_id":"ce4bhp92rcd13ifvqhcg","pricing_plan_id":"free"},{"bike_id":"a40b814c-8d11-48f9-af9c-8f2d70505adb","system_id":"levelo_inurba_marseille","lat":43.31713,"lon":5.43707,"is_reserved":false,"is_disabled":false,"rental_uris":{"android":"levelo://app?vid=a40b814c-8d11-48f9-af9c-8f2d70505adb","ios":"levelo://app?vid=a40b814c-8d11-48f9-af9c-8f2d70505adb"},"vehicle_type_id":"4","last_reported":1685117271,"current_range_meters":26000,"station_id":"ce4bhp92rcd13ifvqhcg","pricing_plan_id":"free"},{"bike_id":"56990df5-4ab3-436c-b634-7556f0ee525a","system_id":"levelo_inurba_marseille","lat":43.31713,"lon":5.43707,"is_reserved":false,"is_disabled":false,"rental_uris":{"android":"levelo://app?vid=56990df5-4ab3-436c-b634-7556f0ee525a","ios":"levelo://app?vid=56990df5-4ab3-436c-b634-7556f0ee525a"},"vehicle_type_id":"4","last_reported":1685117271,"current_range_meters":16800,"station_id":"ce4bhp92rcd13ifvqhcg","pricing_plan_id":"free"},