{"last_updated":1770918600,"ttl":60,"version":"2.2","data":{"bikes":[{"bike_id":"fe86c9ba-789d-48cb-b139-57215407552e","system_id":"levelo_inurba_marseille","lat":43.33762,"lon":5.37454,"is_reserved":false,"is_disabled":false,"rental_uris":{"android":"levelo://app?vid=fe86c9ba-789d-48cb-b139-57215407552e","ios":"levelo://app?vid=fe86c9ba-789d-48cb-b139-57215407552e"},"vehicle_type_id":"4","last_reported":1770918601,"current_range_meters":2800,"station_id":"","pricing_plan_id":"cebpf4jnsgd1na2vs0mg"},{"bike_id":"c827f785-6516-4690-a790-85d042f7f3d1","system_id":"levelo_inurba_marseille","lat":43.308617,"lon":5.39633,"is_reserved":false,"is_disabled":false,"rental_uris":{"android":"levelo://app?vid=c827f785-6516-4690-a790-85d042f7f3d1","ios":"levelo://app?vid=c827f785-6516-4690-a790-85d042f7f3d1"},"vehicle_type_id":"4","last_reported":1770918601,"current_range_meters":2800,"station_id":"ce4bh012rcd13ifvqcv0","pricing_plan_id":"cebpf4jnsgd1na2vs0mg"},{"bike_id":"6d150b77-ae17-47e1-8d5c-fd574757a1eb","system_id":"levelo_inurba_marseille","lat":43.27057,"lon":5.40261,"is_reserved":false,"is_disabled":false,"rental_uris":{"android":"levelo://app?vid=6d150b77-ae17-47e1-8d5c-fd574757a1eb","ios":"levelo://app?vid=6d150b77-ae17-47e1-8d5c-fd574757a1eb"},"vehicle_type_id":"4","last_reported":1770918601,"current_range_meters":2800,"station_id":"ce4bhk92rcd13ifvqgc0","pricing_plan_id":"cebpf4jnsgd1na2vs0mg"},{"bike_id":"08db55f9-a0dc-421d-97f0-0787336c9706","system_id":"levelo_inurba_marseille","lat":43.310714,"lon":5.383469,"is_reserved":false,"is_disabled":true,"rental_uris":{"android":"levelo://app?vid=08db55f9-a0dc-421d-97f0-0787336c9706","ios":"levelo://app?vid=08db55f9-a0dc-421d-97f0-0787336c9706"},"vehicle_type_id":"4","last_reported":1770918601,"current_range_meters":2800,"station_id":"ce4bgv92rcd13ifvqcr0","pricing_plan_id":"cebpf4jnsgd1na2vs0mg"},{"bike_id":"e540625c-af72-4fb9-a3a2-38f6e62fb690","system_id":"levelo_inurba_marseille","lat":43.29281,"lon":5.37453,"is_reserved":false,"is_disabled":false,"rental_uris":{"android":"levelo://app?vid=e540625c-af72-4fb9-a3a2-38f6e62fb690","ios":"levelo://app?vid=e540625c-af72-4fb9-a3a2-38f6e62fb690"},"vehicle_type_id":"4","last_reported":1770918601,"current_range_meters":2800,"station_id":"ce4bgi12rcd13ifvqb70","pricing_plan_id":"cebpf4jnsgd1na2vs0mg"},{"bike_id":"3e8cd274-6e48-44a5-b597-50f1b7c80de6","system_id":"levelo_inurba_marseille","lat":43.287,"lon":5.38635,"is_reserved":false,"is_disabled":false,"rental_uris":{"android":"levelo://app?vid=3e8cd274-6e48-44a5-b597-50f1b7c80de6","ios":"levelo://app?vid=3e8cd274-6e48-44a5-b597-50f1b7c80de6"},"vehicle_type_id":"4","last_reported":1770918601,"current_range_meters":2800,"station_id":"","pricing_plan_id":"cebpf4jnsgd1na2vs0mg"},{"bike_id":"75b2b8d4-4bda-4610-ac07-e8a9bbd5325e","system_id":"levelo_inurba_marseille","lat":43.301378,"lon":5.387719,"is_reserved":false,"is_disabled":false,"rental_uris":{"android":"levelo://app?vid=75b2b8d4-4bda-4610-ac07-e8a9bbd5325e","ios":"levelo://app?vid=75b2b8d4-4bda-4610-ac07-e8a9bbd5325e"},"vehicle_type_id":"4","last_reported":1770918601,"current_range_meters":2800,"station_id":"ce4bghh2rcd13ifvqb60","pricing_plan_id":"cebpf4jnsgd1na2vs0mg"},{"bike_id":"5bd37497-56d3-463c-8c1c-ae74e00d9de0","system_id":"levelo_inurba_marseille","lat":43.269396,"lon":5.402468,"is_reserved":false,"is_disabled":false,"rental_uris":{"android":"levelo://app?vid=5bd37497-56d3-463c-8c1c-ae74e00d9de0","ios":"levelo://app?vid=5bd37497-56d3-463c-8c1c-ae74e00d9de0"},"vehicle_type_id":"4","last_reported":1770918601,"current_range_meters":2800,"station_id":"cjm6bp8fraef2m0cb0m0","pricing_plan_id":"cebpf4jnsgd1na2vs0mg"},{"bike_id":"cdb5c25c-a15a-4142-a44d-9f93b3d885b7","system_id":"levelo_inurba_marseille","lat":43.28899,"lon":5.4315,"is_reserved":false,"is_disabled":true,"rental_uris":{"android":"levelo://app?vid=cdb5c25c-a15a-4142-a44d-9f93b3d885b7","ios":"levelo://app?vid=cdb5c25c-a15a-4142-a44d-9f93b3d885b7"},"vehicle_type_id":"4","last_reported":1770918601,"current_range_meters":2800,"station_id":"","pricing_plan_id":"cebpf4jnsgd1na2vs0mg"},{"bike_id":"395a43d0-a59b-479d-b68e-f3a7015ad985","system_id":"levelo_inurba_marseille","lat":43.29544,"lon":5.38548,"is_reserved":false,"is_disabled":false,"rental_uris":{"android":"levelo://app?vid=395a43d0-a59b-479d-b68e-f3a7015ad985","ios":"levelo://app?vid=395a43d0-a59b-479d-b68e-f3a7015ad985"},"vehicle_type_id":"4","last_reported":1770918601,"current_range_meters":2800,"station_id":"ce4bgih2rcd13ifvqba0","pricing_plan_id":"cebpf4jnsgd1na2vs0mg"},{"bike_id":"e4f5d6b4-5214-4f51-adc4-9a51cc1f0b62","system_id":"levelo_inurba_marseille","lat":43.29205,"lon":5.40867,"is_reserved":false,"is_disabled":true,"rental_uris":{"android":"levelo://app?vid=e4f5d6b4-5214-4f51-adc4-9a51cc1f0b62","ios":"levelo://app?vid=e4f5d6b4-5214-4f51-adc4-9a51cc1f0b62"},"vehicle_type_id":"4","last_reported":1770918601,"current_range_meters":2800,"station_id":"ce4bh192rcd13ifvqdc0","pricing_plan_id":"cebpf4jnsgd1na2vs0mg"},{"bike_id":"1a0d99f0-ee74-4956-bad4-992b0789ccc7","system_id":"levelo_inurba_marseille","lat":43.21287,"lon":5.35,"is_reserved":false,"is_disabled":false,"rental_uris":{"android":"levelo://app?vid=1a0d99f0-ee74-4956-bad4-992b0789ccc7","ios":"levelo://app?vid=1a0d99f0-ee74-4956-bad4-992b0789ccc7"},"vehicle_type_id":"4","last_reported":1770918601,"current_range_meters":3200,"station_id":"","pricing_plan_id":"cebpf4jnsgd1na2vs0mg"},{"bike_id":"b55cacf2-fdf9-4f3b-982f-67eea6b14678","system_id":"levelo_inurba_marseille","lat":43.31185,"lon":5.3905,"is_reserved":false,"is_disabled":false,"rental_uris":{"android":"levelo://app?vid=b55cacf2-fdf9-4f3b-982f-67eea6b14678","ios":"levelo://app?vid=b55cacf2-fdf9-4f3b-982f-67eea6b14678"},"vehicle_type_id":"4","last_reported":1770918601,"current_range_meters":3200,"station_id":"","pricing_plan_id":"cebpf4jnsgd1na2vs0mg"},{"bike_id":"ed5f093d-1aa3-4ff9-ab82-20bb031f1bc6","system_id":"levelo_inurba_marseille","lat":43.28525,"lon":5.44087,"is_reserved":false,"is_disabled":false,"rental_uris":{"android":"levelo://app?vid=ed5f093d-1aa3-4ff9-ab82-20bb031f1bc6","ios":"levelo://app?vid=ed5f093d-1aa3-4ff9-ab82-20bb031f1bc6"},"vehicle_type_id":"4","last_reported":1770918601,"current_range_meters":3200,"station_id":"","pricing_plan_id":"cebpf4jnsgd1na2vs0mg"},{"bike_id":"d16e8676-bb91-42bf-b68a-481193eb39f4","system_id":"levelo_inurba_marseille","lat":43.2469,"lon":5.38147,"is_reserved":false,"is_disabled":false,"rental_uris":{"android":"levelo://app?vid=d16e8676-bb91-42bf-b68a-481193eb39f4","ios":"levelo://app?vid=d16e8676-bb91-42bf-b68a-481193eb39f4"},"vehicle_type_id":"4","last_reported":1770918601,"current_range_meters":3200,"station_id":"ce4bhih2rcd13ifvqfr0","pricing_plan_id":"cebpf4jnsgd1na2vs0mg"},{"bike_id":"93e581ef-8eac-427e-9aa5-285ced9f2d6d","system_id":"levelo_inurba_marseille","lat":43.28002,"lon":5.40006,"is_reserved":false,"is_disabled":false,"rental_uris":{"android":"levelo://app?vid=93e581ef-8eac-427e-9aa5-285ced9f2d6d","ios":"levelo://app?vid=93e581ef-8eac-427e-9aa5-285ced9f2d6d"},"vehicle_type_id":"4","last_reported":1770918601,"current_range_meters":3200,"station_id":"ce4bho92rcd13ifvqh4g","pricing_plan_id":"cebpf4jnsgd1na2vs0mg"},{"bike_id":"44c6aa93-1f46-4cbd-a298-6cd74e811e92","system_id":"levelo_inurba_marseille","lat":43.21757,"lon":5.34601,"is_reserved":false,"is_disabled":false,"rental_uris":{"android":"levelo://app?vid=44c6aa93-1f46-4cbd-a298-6cd74e811e92","ios":"levelo://app?vid=44c6aa93-1f46-4cbd-a298-6cd74e811e92"},"vehicle_type_id":"4","last_reported":1770918601,"current_range_meters":3200,"station_id":"st_cvj6r9ubvosntc0bgbag","pricing_plan_id":"cebpf4jnsgd1na2vs0mg"},{"bike_id":"ff06daa0-f921-452b-a35f-ccc47adc3cc5","system_id":"levelo_inurba_marseille","lat":43.23188,"lon":5.39981,"is_reserved":false,"is_disabled":false,"rental_uris":{"android":"levelo://app?vid=ff06daa0-f921-452b-a35f-ccc47adc3cc5","ios":"levelo://app?vid=ff06daa0-f921-452b-a35f-ccc47adc3cc5"},"vehicle_type_id":"4","last_reported":1770918601,"current_range_meters":3200,"station_id":"ce4bhn12rcd13ifvqgqg","pricing_plan_id":"cebpf4jnsgd1na2vs0mg"},{"bike_id":"c4119786-0650-484e-ac5d-9b64a8808e93","system_id":"levelo_inurba_marseille","lat":43.24088,"lon":5.37753,"is_reserved":false,"is_disabled":false,"rental_uris":{"android":"levelo://app?vid=c4119786-0650-484e-ac5d-9b64a8808e93","ios":"levelo://app?vid=c4119786-0650-484e-ac5d-9b64a8808e93"},"vehicle_type_id":"4","last_reported":1770918601,"current_range_meters":3200,"station_id":"ce4bhnp2rcd13ifvqgvg","pricing_plan_id":"cebpf4jnsgd1na2vs0mg"},{"bike_id":"78be4120-6bc3-4171-9aac-1d48d26f6797","system_id":"levelo_inurba_marseille","lat":43.27421,"lon":5.39423,"is_reserved":false,"is_disabled":false,"rental_uris":{"android":"levelo://app?vid=78be4120-6bc3-4171-9aac-1d48d26f6797","ios":"levelo://app?vid=78be4120-6bc3-4171-9aac-1d48d26f6797"},"vehicle_type_id":"4","last_reported":1770918601,"current_range_meters":3200,"station_id":"ce4bhdp2rcd13ifvqf20","pricing_plan_id":"cebpf4jnsgd1na2vs0mg"},{"bike_id":"ae861497-9a22-4231-afa9-8238d5c5713c","system_id":"levelo_inurba_marseille","lat":43.241664,"lon":5.363915,"is_reserved":false,"is_disabled":false,"rental_uris":{"android":"levelo://app?vid=ae861497-9a22-4231-afa9-8238d5c5713c","ios":"levelo://app?vid=ae861497-9a22-4231-afa9-8238d5c5713c"},"vehicle_type_id":"4","last_reported":1770918601,"current_range_meters":3200,"station_id":"cpo36qri1sfpv3e86is0","pricing_plan_id":"cebpf4jnsgd1na2vs0mg"},{"bike_id":"6efe5f0a-6c4f-403e-907f-5428484845d2","system_id":"levelo_inurba_marseille","lat":43.3168,"lon":5.40382,"is_reserved":false,"is_disabled":false,"rental_uris":{"android":"levelo://app?vid=6efe5f0a-6c4f-403e-907f-5428484845d2","ios":"levelo://app?vid=6efe5f0a-6c4f-403e-907f-5428484845d2"},"vehicle_type_id":"4","last_reported":1770918601,"current_range_meters":3200,"station_id":"","pricing_plan_id":"cebpf4jnsgd1na2vs0mg"},{"bike_id":"def2ed91-4ec6-43dc-9be9-e41444d157d6","system_id":"levelo_inurba_marseille","lat":43.29277,"lon":5.40123,"is_reserved":false,"is_disabled":false,"rental_uris":{"android":"levelo://app?vid=def2ed91-4ec6-43dc-9be9-e41444d157d6","ios":"levelo://app?vid=def2ed91-4ec6-43dc-9be9-e41444d157d6"},"vehicle_type_id":"4","last_reported":1770918601,"current_range_meters":3200,"station_id":"ce4bh312rcd13ifvqdk0","pricing_plan_id":"cebpf4jnsgd1na2vs0mg"},{"bike_id":"36c53d5a-5c92-4a93-a701-4acedf0bbb26","system_id":"levelo_inurba_marseille","lat":43.26211,"lon":5.37443,"is_reserved":false,"is_disabled":false,"rental_uris":{"android":"levelo://app?vid=36c53d5a-5c92-4a93-a701-4acedf0bbb26","ios":"levelo://app?vid=36c53d5a-5c92-4a93-a701-4acedf0bbb26"},"vehicle_type_id":"4","last_reported":1770918601,"current_range_meters":3200,"station_id":"ce4bhgp2rcd13ifvqfc0","pricing_plan_id":"cebpf4jnsgd1na2vs0mg"},{"bike_id":"ff892a04-ae98-4fdf-81ac-3050c7d2c38a","system_id":"levelo_inurba_marseille","lat":43.26572,"lon":5.39,"is_reserved":false,"is_disabled":false,"rental_uris":{"android":"levelo://app?vid=ff892a04-ae98-4fdf-81ac-3050c7d2c38a","ios":"levelo://app?vid=ff892a04-ae98-4fdf-81ac-3050c7d2c38a"},"vehicle_type_id":"4","last_reported":1770918601,"current_range_meters":3600,"station_id":"ce4bhe12rcd13ifvqf30","pricing_plan_id":"cebpf4jnsgd1na2vs0mg"},{"bike_id":"9b7de680-e656-45c2-b846-8bd381e9ca89","system_id":"levelo_inurba_marseille","lat":43.304304,"lon":5.407099,"is_reserved":false,"is_disabled":false,"rental_uris":{"android":"levelo://app?vid=9b7de680-e656-45c2-b846-8bd381e9ca89","ios":"levelo://app?vid=9b7de680-e656-45c2-b846-8bd381e9ca89"},"vehicle_type_id":"4","last_reported":1770918601,"current_range_meters":3600,"station_id":"","pricing_plan_id":"cebpf4jnsgd1na2vs0mg"},{"bike_id":"ba364331-2a0a-4d38-8082-030e4d0ac4a8","system_id":"levelo_inurba_marseille","lat":43.26558,"lon":5.39026,"is_reserved":false,"is_disabled":false,"rental_uris":{"android":"levelo://app?vid=ba364331-2a0a-4d38-8082-030e4d0ac4a8","ios":"levelo://app?vid=ba364331-2a0a-4d38-8082-030e4d0ac4a8"},"vehicle_type_id":"4","last_reported":1770918601,"current_range_meters":3600,"station_id":"ce4bhe12rcd13ifvqf30","pricing_plan_id":"cebpf4jnsgd1na2vs0mg"},{"bike_id":"982ef594-b67f-4c66-ac3a-1cff5288fd97","system_id":"levelo_inurba_marseille","lat":43.29787,"lon":5.38108,"is_reserved":false,"is_disabled":false,"rental_uris":{"android":"levelo://app?vid=982ef594-b67f-4c66-ac3a-1cff5288fd97","ios":"levelo://app?vid=982ef594-b67f-4c66-ac3a-1cff5288fd97"},"vehicle_type_id":"4","last_reported":1770918601,"current_range_meters":3600,"station_id":"ce4bgip2rcd13ifvqbb0","pricing_plan_id":"cebpf4jnsgd1na2vs0mg"},{"bike_id":"ac9a885a-fe7d-4871-905c-95e91acf3aa8","system_id":"levelo_inurba_marseille","lat":43.22561,"lon":5.41617,"is_reserved":false,"is_disabled":false,"rental_uris":{"android":"levelo://app?vid=ac9a885a-fe7d-4871-905c-95e91acf3aa8","ios":"levelo://app?vid=ac9a885a-fe7d-4871-905c-95e91acf3aa8"},"vehicle_type_id":"4","last_reported":1770918601,"current_range_meters":3600,"station_id":"st_d2o4gvlbi1j2169b742g","pricing_plan_id":"cebpf4jnsgd1na2vs0mg"},{"bike_id":"66e08981-b95f-4ae0-8fde-07a4d1ef7b00","system_id":"levelo_inurba_marseille","lat":43.29197,"lon":5.39312,"is_reserved":false,"is_disabled":false,"rental_uris":{"android":"levelo://app?vid=66e08981-b95f-4ae0-8fde-07a4d1ef7b00","ios":"levelo://app?vid=66e08981-b95f-4ae0-8fde-07a4d1ef7b00"},"vehicle_type_id":"4","last_reported":1770918601,"current_range_meters":3600,"station_id":"ce4bh192rcd13ifvqdd0","pricing_plan_id":"cebpf4jnsgd1na2vs0mg"},{"bike_id":"ea43add3-a362-470a-a5cc-d8025d6650f6","system_id":"levelo_inurba_marseille","lat":43.25492,"lon":5.37651,"is_reserved":false,"is_disabled":false,"rental_uris":{"android":"levelo://app?vid=ea43add3-a362-470a-a5cc-d8025d6650f6","ios":"levelo://app?vid=ea43add3-a362-470a-a5cc-d8025d6650f6"},"vehicle_type_id":"4","last_reported":1770918601,"current_range_meters":3600,"station_id":"ce4bhh12rcd13ifvqff0","pricing_plan_id":"cebpf4jnsgd1na2vs0mg"},{"bike_id":"5bcf50d0-7af2-45f5-a725-03b88ab2d5ad","system_id":"levelo_inurba_marseille","lat":43.26516,"lon":5.39547,"is_reserved":false,"is_disabled":false,"rental_uris":{"android":"levelo://app?vid=5bcf50d0-7af2-45f5-a725-03b88ab2d5ad","ios":"levelo://app?vid=5bcf50d0-7af2-45f5-a725-03b88ab2d5ad"},"vehicle_type_id":"4","last_reported":1770918601,"current_range_meters":3600,"station_id":"ce4bhi12rcd13ifvqfq0","pricing_plan_id":"cebpf4jnsgd1na2vs0mg"},{"bike_id":"9a8f99ca-3b21-4509-bfcb-6e3d5415e3c2","system_id":"levelo_inurba_marseille","lat":43.29181,"lon":5.3931,"is_reserved":false,"is_disabled":false,"rental_uris":{"android":"levelo://app?vid=9a8f99ca-3b21-4509-bfcb-6e3d5415e3c2","ios":"levelo://app?vid=9a8f99ca-3b21-4509-bfcb-6e3d5415e3c2"},"vehicle_type_id":"4","last_reported":1770918601,"current_range_meters":3600,"station_id":"ce4bh192rcd13ifvqdd0","pricing_plan_id":"cebpf4jnsgd1na2vs0mg"},{"bike_id":"babdcd4a-655b-4e95-88f5-77a8529739da","system_id":"levelo_inurba_marseille","lat":43.2256,"lon":5.41635,"is_reserved":false,"is_disabled":false,"rental_uris":{"android":"levelo://app?vid=babdcd4a-655b-4e95-88f5-77a8529739da","ios":"levelo://app?vid=babdcd4a-655b-4e95-88f5-77a8529739da"},"vehicle_type_id":"4","last_reported":1770918601,"current_range_meters":3600,"station_id":"st_d2o4gvlbi1j2169b742g","pricing_plan_id":"cebpf4jnsgd1na2vs0mg"},{"bike_id":"8be7ea8f-e075-4c38-b956-bcf6bcd91a00","system_id":"levelo_inurba_marseille","lat":43.28208,"lon":5.39075,"is_reserved":false,"is_disabled":false,"rental_uris":{"android":"levelo://app?vid=8be7ea8f-e075-4c38-b956-bcf6bcd91a00","ios":"levelo://app?vid=8be7ea8f-e075-4c38-b956-bcf6bcd91a00"},"vehicle_type_id":"4","last_reported":1770918601,"current_range_meters":3600,"station_id":"ce4bhn92rcd13ifvqgsg","pricing_plan_id":"cebpf4jnsgd1na2vs0mg"},{"bike_id":"0d60f49b-2168-485f-9c8c-8bf326d0ba55","system_id":"levelo_inurba_marseille","lat":43.24505,"lon":5.4245,"is_reserved":false,"is_disabled":false,"rental_uris":{"android":"levelo://app?vid=0d60f49b-2168-485f-9c8c-8bf326d0ba55","ios":"levelo://app?vid=0d60f49b-2168-485f-9c8c-8bf326d0ba55"},"vehicle_type_id":"4","last_reported":1770918601,"current_range_meters":4000,"station_id":"","pricing_plan_id":"cebpf4jnsgd1na2vs0mg"},{"bike_id":"11e89557-b7ab-4c78-855c-3f9580806aaa","system_id":"levelo_inurba_marseille","lat":43.30836,"lon":5.3831,"is_reserved":false,"is_disabled":false,"rental_uris":{"android":"levelo://app?vid=11e89557-b7ab-4c78-855c-3f9580806aaa","ios":"levelo://app?vid=11e89557-b7ab-4c78-855c-3f9580806aaa"},"vehicle_type_id":"4","last_reported":1770918601,"current_range_meters":4000,"station_id":"","pricing_plan_id":"cebpf4jnsgd1na2vs0mg"},{"bike_id":"3c00cb7a-a2be-4a59-bd2d-87edb1e58bc1","system_id":"levelo_inurba_marseille","lat":43.29284,"lon":5.36845,"is_reserved":false,"is_disabled":false,"rental_uris":{"android":"levelo://app?vid=3c00cb7a-a2be-4a59-bd2d-87edb1e58bc1","ios":"levelo://app?vid=3c00cb7a-a2be-4a59-bd2d-87edb1e58bc1"},"vehicle_type_id":"4","last_reported":1770918601,"current_range_meters":4000,"station_id":"ce4bhbp2rcd13ifvqesg","pricing_plan_id":"cebpf4jnsgd1na2vs0mg"},{"bike_id":"9e3bc487-b0e5-43b2-98b8-caa6f87f206e","system_id":"levelo_inurba_marseille","lat":43.31722,"lon":5.37767,"is_reserved":false,"is_disabled":false,"rental_uris":{"android":"levelo://app?vid=9e3bc487-b0e5-43b2-98b8-caa6f87f206e","ios":"levelo://app?vid=9e3bc487-b0e5-43b2-98b8-caa6f87f206e"},"vehicle_type_id":"4","last_reported":1770918601,"current_range_meters":4000,"station_id":"ce4bgth2rcd13ifvqch0","pricing_plan_id":"cebpf4jnsgd1na2vs0mg"},{"bike_id":"47423f7a-747c-4b59-ba0a-ecee1764689f","system_id":"levelo_inurba_marseille","lat":43.24382,"lon":5.3707,"is_reserved":false,"is_disabled":false,"rental_uris":{"android":"levelo://app?vid=47423f7a-747c-4b59-ba0a-ecee1764689f","ios":"levelo://app?vid=47423f7a-747c-4b59-ba0a-ecee1764689f"},"vehicle_type_id":"4","last_reported":1770918601,"current_range_meters":4000,"station_id":"ce4bhhh2rcd13ifvqfk0","pricing_plan_id":"cebpf4jnsgd1na2vs0mg"},{"bike_id":"9aec714d-515d-4e78-9d45-9abe640e8105","system_id":"levelo_inurba_marseille","lat":43.25583,"lon":5.38243,"is_reserved":false,"is_disabled":false,"rental_uris":{"android":"levelo://app?vid=9aec714d-515d-4e78-9d45-9abe640e8105","ios":"levelo://app?vid=9aec714d-515d-4e78-9d45-9abe640e8105"},"vehicle_type_id":"4","last_reported":1770918601,"current_range_meters":4000,"station_id":"ce4bhih2rcd13ifvqfs0","pricing_plan_id":"cebpf4jnsgd1na2vs0mg"},{"bike_id":"3aef8620-296a-4e5a-aa54-267d8039b5b8","system_id":"levelo_inurba_marseille","lat":43.25001,"lon":5.38922,"is_reserved":false,"is_disabled":false,"rental_uris":{"android":"levelo://app?vid=3aef8620-296a-4e5a-aa54-267d8039b5b8","ios":"levelo://app?vid=3aef8620-296a-4e5a-aa54-267d8039b5b8"},"vehicle_type_id":"4","last_reported":1770918601,"current_range_meters":4000,"station_id":"ce4bhgp2rcd13ifvqfd0","pricing_plan_id":"cebpf4jnsgd1na2vs0mg"},{"bike_id":"b9341703-d125-4300-bbb5-3d52a708b479","system_id":"levelo_inurba_marseille","lat":43.31281,"lon":5.40159,"is_reserved":false,"is_disabled":false,"rental_uris":{"android":"levelo://app?vid=b9341703-d125-4300-bbb5-3d52a708b479","ios":"levelo://app?vid=b9341703-d125-4300-bbb5-3d52a708b479"},"vehicle_type_id":"4","last_reported":1770918601,"current_range_meters":4000,"station_id":"ce4bh092rcd13ifvqd30","pricing_plan_id":"cebpf4jnsgd1na2vs0mg"},{"bike_id":"cc43a2a6-4df1-46ee-89a5-e5908a5338ed","system_id":"levelo_inurba_marseille","lat":43.28476,"lon":5.484,"is_reserved":false,"is_disabled":false,"rental_uris":{"android":"levelo://app?vid=cc43a2a6-4df1-46ee-89a5-e5908a5338ed","ios":"levelo://app?vid=cc43a2a6-4df1-46ee-89a5-e5908a5338ed"},"vehicle_type_id":"4","last_reported":1770918601,"current_range_meters":4000,"station_id":"st_d3svhcjqgbts73a3dn0g","pricing_plan_id":"cebpf4jnsgd1na2vs0mg"},{"bike_id":"03617585-27bf-4591-84a0-4d6d4f89c69b","system_id":"levelo_inurba_marseille","lat":43.28719,"lon":5.37932,"is_reserved":false,"is_disabled":false,"rental_uris":{"android":"levelo://app?vid=03617585-27bf-4591-84a0-4d6d4f89c69b","ios":"levelo://app?vid=03617585-27bf-4591-84a0-4d6d4f89c69b"},"vehicle_type_id":"4","last_reported":1770918601,"current_range_meters":4400,"station_id":"ce4bh9p2rcd13ifvqec0","pricing_plan_id":"cebpf4jnsgd1na2vs0mg"},{"bike_id":"fdcca747-1f0c-4265-9d25-6a349973ec5d","system_id":"levelo_inurba_marseille","lat":43.33161,"lon":5.37703,"is_reserved":false,"is_disabled":false,"rental_uris":{"android":"levelo://app?vid=fdcca747-1f0c-4265-9d25-6a349973ec5d","ios":"levelo://app?vid=fdcca747-1f0c-4265-9d25-6a349973ec5d"},"vehicle_type_id":"4","last_reported":1770918601,"current_range_meters":4400,"station_id":"st_d46cu089ee8s73dldbu0","pricing_plan_id":"cebpf4jnsgd1na2vs0mg"},{"bike_id":"aebcff3c-e87d-4c1f-b215-8b4f98bb72a6","system_id":"levelo_inurba_marseille","lat":43.2807,"lon":5.39663,"is_reserved":false,"is_disabled":false,"rental_uris":{"android":"levelo://app?vid=aebcff3c-e87d-4c1f-b215-8b4f98bb72a6","ios":"levelo://app?vid=aebcff3c-e87d-4c1f-b215-8b4f98bb72a6"},"vehicle_type_id":"4","last_reported":1770918601,"current_range_meters":4400,"station_id":"ce4bho12rcd13ifvqh2g","pricing_plan_id":"cebpf4jnsgd1na2vs0mg"},{"bike_id":"b6617a61-12dd-4860-a8b7-39ae05487499","system_id":"levelo_inurba_marseille","lat":43.28118,"lon":5.37849,"is_reserved":false,"is_disabled":false,"rental_uris":{"android":"levelo://app?vid=b6617a61-12dd-4860-a8b7-39ae05487499","ios":"levelo://app?vid=b6617a61-12dd-4860-a8b7-39ae05487499"},"vehicle_type_id":"4","last_reported":1770918601,"current_range_meters":4400,"station_id":"ce4bha12rcd13ifvqee0","pricing_plan_id":"cebpf4jnsgd1na2vs0mg"},{"bike_id":"2ef08d45-e000-41e8-ba2f-a58428355b0a","system_id":"levelo_inurba_marseille","lat":43.29045,"lon":5.37559,"is_reserved":false,"is_disabled":false,"rental_uris":{"android":"levelo://app?vid=2ef08d45-e000-41e8-ba2f-a58428355b0a","ios":"levelo://app?vid=2ef08d45-e000-41e8-ba2f-a58428355b0a"},"vehicle_type_id":"4","last_reported":1770918601,"current_range_meters":4400,"station_id":"ce4bh692rcd13ifvqe90","pricing_plan_id":"cebpf4jnsgd1na2vs0mg"},{"bike_id":"81af0cb0-04eb-448e-b031-1dbc1aa2e818","system_id":"levelo_inurba_marseille","lat":43.29027,"lon":5.38642,"is_reserved":false,"is_disabled":false,"rental_uris":{"android":"levelo://app?vid=81af0cb0-04eb-448e-b031-1dbc1aa2e818","ios":"levelo://app?vid=81af0cb0-04eb-448e-b031-1dbc1aa2e818"},"vehicle_type_id":"4","last_reported":1770918601,"current_range_meters":4400,"station_id":"ce4bh4p2rcd13ifvqe0g","pricing_plan_id":"cebpf4jnsgd1na2vs0mg"},{"bike_id":"cdcf98af-fbd4-45ec-8fda-7e7138e2bf12","system_id":"levelo_inurba_marseille","lat":43.291995,"lon":5.357982,"is_reserved":false,"is_disabled":false,"rental_uris":{"android":"levelo://app?vid=cdcf98af-fbd4-45ec-8fda-7e7138e2bf12","ios":"levelo://app?vid=cdcf98af-fbd4-45ec-8fda-7e7138e2bf12"},"vehicle_type_id":"4","last_reported":1770918601,"current_range_meters":4800,"station_id":"ce4bhb12rcd13ifvqel0","pricing_plan_id":"cebpf4jnsgd1na2vs0mg"},{"bike_id":"5fda65b6-7f98-4bf6-b2de-a2c95ed917cc","system_id":"levelo_inurba_marseille","lat":43.25445,"lon":5.38438,"is_reserved":false,"is_disabled":false,"rental_uris":{"android":"levelo://app?vid=5fda65b6-7f98-4bf6-b2de-a2c95ed917cc","ios":"levelo://app?vid=5fda65b6-7f98-4bf6-b2de-a2c95ed917cc"},"vehicle_type_id":"4","last_reported":1770918601,"current_range_meters":4800,"station_id":"","pricing_plan_id":"cebpf4jnsgd1na2vs0mg"},{"bike_id":"9df37f38-bf9c-48be-950b-9c6e85cf91ef","system_id":"levelo_inurba_marseille","lat":43.26946,"lon":5.38636,"is_reserved":false,"is_disabled":false,"rental_uris":{"android":"levelo://app?vid=9df37f38-bf9c-48be-950b-9c6e85cf91ef","ios":"levelo://app?vid=9df37f38-bf9c-48be-950b-9c6e85cf91ef"},"vehicle_type_id":"4","last_reported":1770918601,"current_range_meters":4800,"station_id":"ce4bhh92rcd13ifvqfh0","pricing_plan_id":"cebpf4jnsgd1na2vs0mg"},{"bike_id":"1cff19dd-13bd-4100-8738-53cfc3fb1fd4","system_id":"levelo_inurba_marseille","lat":43.28721,"lon":5.3609,"is_reserved":false,"is_disabled":false,"rental_uris":{"android":"levelo://app?vid=1cff19dd-13bd-4100-8738-53cfc3fb1fd4","ios":"levelo://app?vid=1cff19dd-13bd-4100-8738-53cfc3fb1fd4"},"vehicle_type_id":"4","last_reported":1770918601,"current_range_meters":4800,"station_id":"cki0cbj6b192h4jlfktg","pricing_plan_id":"cebpf4jnsgd1na2vs0mg"},{"bike_id":"754fa21f-89f9-4b04-8e7f-52113352eabb","system_id":"levelo_inurba_marseille","lat":43.29631,"lon":5.40599,"is_reserved":false,"is_disabled":false,"rental_uris":{"android":"levelo://app?vid=754fa21f-89f9-4b04-8e7f-52113352eabb","ios":"levelo://app?vid=754fa21f-89f9-4b04-8e7f-52113352eabb"},"vehicle_type_id":"4","last_reported":1770918601,"current_range_meters":5600,"station_id":"ce4bh0h2rcd13ifvqd60","pricing_plan_id":"cebpf4jnsgd1na2vs0mg"},{"bike_id":"d997c6b7-acb1-4efa-ae35-2d8c161e2e69","system_id":"levelo_inurba_marseille","lat":43.23196,"lon":5.35533,"is_reserved":false,"is_disabled":false,"rental_uris":{"android":"levelo://app?vid=d997c6b7-acb1-4efa-ae35-2d8c161e2e69","ios":"levelo://app?vid=d997c6b7-acb1-4efa-ae35-2d8c161e2e69"},"vehicle_type_id":"4","last_reported":1770918601,"current_range_meters":5600,"station_id":"ce4bhu92rcd13ifvqi70","pricing_plan_id":"cebpf4jnsgd1na2vs0mg"},{"bike_id":"6673ac44-296d-4959-9b90-4bd46007de83","system_id":"levelo_inurba_marseille","lat":43.24396,"lon":5.3705,"is_reserved":false,"is_disabled":false,"rental_uris":{"android":"levelo://app?vid=6673ac44-296d-4959-9b90-4bd46007de83","ios":"levelo://app?vid=6673ac44-296d-4959-9b90-4bd46007de83"},"vehicle_type_id":"4","last_reported":1770918601,"current_range_meters":5600,"station_id":"ce4bhhh2rcd13ifvqfk0","pricing_plan_id":"cebpf4jnsgd1na2vs0mg"},{"bike_id":"741bad27-d738-40be-95bc-bba4b38ae040","system_id":"levelo_inurba_marseille","lat":43.3133,"lon":5.39714,"is_reserved":false,"is_disabled":false,"rental_uris":{"android":"levelo://app?vid=741bad27-d738-40be-95bc-bba4b38ae040","ios":"levelo://app?vid=741bad27-d738-40be-95bc-bba4b38ae040"},"vehicle_type_id":"4","last_reported":1770918601,"current_range_meters":5600,"station_id":"ce4bgvp2rcd13ifvqcu0","pricing_plan_id":"cebpf4jnsgd1na2vs0mg"},{"bike_id":"9387d6d3-e05e-4460-8f14-710d1ab65f1c","system_id":"levelo_inurba_marseille","lat":43.32502,"lon":5.383,"is_reserved":false,"is_disabled":false,"rental_uris":{"android":"levelo://app?vid=9387d6d3-e05e-4460-8f14-710d1ab65f1c","ios":"levelo://app?vid=9387d6d3-e05e-4460-8f14-710d1ab65f1c"},"vehicle_type_id":"4","last_reported":1770918601,"current_range_meters":5600,"station_id":"st_d4asgbiv49dc73anf9m0","pricing_plan_id":"cebpf4jnsgd1na2vs0mg"},{"bike_id":"dddd8dae-2150-40e8-9b96-7bf9dacad978","system_id":"levelo_inurba_marseille","lat":43.29896,"lon":5.43667,"is_reserved":false,"is_disabled":false,"rental_uris":{"android":"levelo://app?vid=dddd8dae-2150-40e8-9b96-7bf9dacad978","ios":"levelo://app?vid=dddd8dae-2150-40e8-9b96-7bf9dacad978"},"vehicle_type_id":"4","last_reported":1770918601,"current_range_meters":5600,"station_id":"ce4bhpp2rcd13ifvqhfg","pricing_plan_id":"cebpf4jnsgd1na2vs0mg"},{"bike_id":"65e9c232-153b-4e21-9142-db1dc9fdfabc","system_id":"levelo_inurba_marseille","lat":43.2808,"lon":5.39666,"is_reserved":false,"is_disabled":false,"rental_uris":{"android":"levelo://app?vid=65e9c232-153b-4e21-9142-db1dc9fdfabc","ios":"levelo://app?vid=65e9c232-153b-4e21-9142-db1dc9fdfabc"},"vehicle_type_id":"4","last_reported":1770918601,"current_range_meters":5600,"station_id":"ce4bho12rcd13ifvqh2g","pricing_plan_id":"cebpf4jnsgd1na2vs0mg"},{"bike_id":"e0ec9ea1-d837-4369-9b7d-94e15b3121d6","system_id":"levelo_inurba_marseille","lat":43.29002,"lon":5.35607,"is_reserved":false,"is_disabled":false,"rental_uris":{"android":"levelo://app?vid=e0ec9ea1-d837-4369-9b7d-94e15b3121d6","ios":"levelo://app?vid=e0ec9ea1-d837-4369-9b7d-94e15b3121d6"},"vehicle_type_id":"4","last_reported":1770918601,"current_range_meters":5600,"station_id":"ce4bhb92rcd13ifvqen0","pricing_plan_id":"cebpf4jnsgd1na2vs0mg"},{"bike_id":"3c5c6609-8465-4d83-a88e-0be8a67010c7","system_id":"levelo_inurba_marseille","lat":43.28999,"lon":5.35612,"is_reserved":false,"is_disabled":false,"rental_uris":{"android":"levelo://app?vid=3c5c6609-8465-4d83-a88e-0be8a67010c7","ios":"levelo://app?vid=3c5c6609-8465-4d83-a88e-0be8a67010c7"},"vehicle_type_id":"4","last_reported":1770918601,"current_range_meters":5600,"station_id":"ce4bhb92rcd13ifvqen0","pricing_plan_id":"cebpf4jnsgd1na2vs0mg"},{"bike_id":"e0532c05-6087-488c-8b2a-6f4e3e4bd01f","system_id":"levelo_inurba_marseille","lat":43.30667,"lon":5.40067,"is_reserved":false,"is_disabled":false,"rental_uris":{"android":"levelo://app?vid=e0532c05-6087-488c-8b2a-6f4e3e4bd01f","ios":"levelo://app?vid=e0532c05-6087-488c-8b2a-6f4e3e4bd01f"},"vehicle_type_id":"4","last_reported":1770918601,"current_range_meters":5600,"station_id":"ce4bh112rcd13ifvqda0","pricing_plan_id":"cebpf4jnsgd1na2vs0mg"},{"bike_id":"4eea8287-5744-4826-aede-ff10343e7484","system_id":"levelo_inurba_marseille","lat":43.30011,"lon":5.3652,"is_reserved":false,"is_disabled":false,"rental_uris":{"android":"levelo://app?vid=4eea8287-5744-4826-aede-ff10343e7484","ios":"levelo://app?vid=4eea8287-5744-4826-aede-ff10343e7484"},"vehicle_type_id":"4","last_reported":1770918601,"current_range_meters":5600,"station_id":"","pricing_plan_id":"cebpf4jnsgd1na2vs0mg"},{"bike_id":"b0a1e80f-7afc-488d-9bcc-dc37674a952f","system_id":"levelo_inurba_marseille","lat":43.265654,"lon":5.390111,"is_reserved":false,"is_disabled":false,"rental_uris":{"android":"levelo://app?vid=b0a1e80f-7afc-488d-9bcc-dc37674a952f","ios":"levelo://app?vid=b0a1e80f-7afc-488d-9bcc-dc37674a952f"},"vehicle_type_id":"4","last_reported":1770918601,"current_range_meters":5600,"station_id":"ce4bhe12rcd13ifvqf30","pricing_plan_id":"cebpf4jnsgd1na2vs0mg"},{"bike_id":"da6d29e8-9360-4ed3-8562-2408c1cf78c6","system_id":"levelo_inurba_marseille","lat":43.27806,"lon":5.40715,"is_reserved":false,"is_disabled":false,"rental_uris":{"android":"levelo://app?vid=da6d29e8-9360-4ed3-8562-2408c1cf78c6","ios":"levelo://app?vid=da6d29e8-9360-4ed3-8562-2408c1cf78c6"},"vehicle_type_id":"4","last_reported":1770918601,"current_range_meters":6000,"station_id":"ce4bhnh2rcd13ifvqgtg","pricing_plan_id":"cebpf4jnsgd1na2vs0mg"},{"bike_id":"eb153995-5d33-4b1d-a5c0-ee8cc4302ea8","system_id":"levelo_inurba_marseille","lat":43.26541,"lon":5.3903,"is_reserved":false,"is_disabled":false,"rental_uris":{"android":"levelo://app?vid=eb153995-5d33-4b1d-a5c0-ee8cc4302ea8","ios":"levelo://app?vid=eb153995-5d33-4b1d-a5c0-ee8cc4302ea8"},"vehicle_type_id":"4","last_reported":1770918601,"current_range_meters":6000,"station_id":"ce4bhe12rcd13ifvqf30","pricing_plan_id":"cebpf4jnsgd1na2vs0mg"},{"bike_id":"7be9b5cd-2937-447d-86be-539a0c97ddbd","system_id":"levelo_inurba_marseille","lat":43.28695,"lon":5.37389,"is_reserved":false,"is_disabled":false,"rental_uris":{"android":"levelo://app?vid=7be9b5cd-2937-447d-86be-539a0c97ddbd","ios":"levelo://app?vid=7be9b5cd-2937-447d-86be-539a0c97ddbd"},"vehicle_type_id":"4","last_reported":1770918601,"current_range_meters":6000,"station_id":"ce4bh3p2rcd13ifvqdq0","pricing_plan_id":"cebpf4jnsgd1na2vs0mg"},{"bike_id":"406b8143-680c-411e-8da6-8818c609b259","system_id":"levelo_inurba_marseille","lat":43.22934,"lon":5.35378,"is_reserved":false,"is_disabled":false,"rental_uris":{"android":"levelo://app?vid=406b8143-680c-411e-8da6-8818c609b259","ios":"levelo://app?vid=406b8143-680c-411e-8da6-8818c609b259"},"vehicle_type_id":"4","last_reported":1770918601,"current_range_meters":6000,"station_id":"cpo3532slgdg3j2ikp40","pricing_plan_id":"cebpf4jnsgd1na2vs0mg"},{"bike_id":"6b6b8e1a-32bc-4d97-990f-b14bb1394893","system_id":"levelo_inurba_marseille","lat":43.30905,"lon":5.36845,"is_reserved":false,"is_disabled":false,"rental_uris":{"android":"levelo://app?vid=6b6b8e1a-32bc-4d97-990f-b14bb1394893","ios":"levelo://app?vid=6b6b8e1a-32bc-4d97-990f-b14bb1394893"},"vehicle_type_id":"4","last_reported":1770918601,"current_range_meters":6000,"station_id":"ce4bgn92rcd13ifvqbvg","pricing_plan_id":"cebpf4jnsgd1na2vs0mg"},{"bike_id":"9523bcc9-b639-4cad-bf19-ca9ff92ab5a5","system_id":"levelo_inurba_marseille","lat":43.28612,"lon":5.35114,"is_reserved":false,"is_disabled":false,"rental_uris":{"android":"levelo://app?vid=9523bcc9-b639-4cad-bf19-ca9ff92ab5a5","ios":"levelo://app?vid=9523bcc9-b639-4cad-bf19-ca9ff92ab5a5"},"vehicle_type_id":"4","last_reported":1770918601,"current_range_meters":6000,"station_id":"ce4bhch2rcd13ifvqeug","pricing_plan_id":"cebpf4jnsgd1na2vs0mg"},{"bike_id":"71c6dc62-9484-47dd-bf26-66d03c0346ab","system_id":"levelo_inurba_marseille","lat":43.27913,"lon":5.39593,"is_reserved":false,"is_disabled":false,"rental_uris":{"android":"levelo://app?vid=71c6dc62-9484-47dd-bf26-66d03c0346ab","ios":"levelo://app?vid=71c6dc62-9484-47dd-bf26-66d03c0346ab"},"vehicle_type_id":"4","last_reported":1770918601,"current_range_meters":6000,"station_id":"ce4bhf92rcd13ifvqf40","pricing_plan_id":"cebpf4jnsgd1na2vs0mg"},{"bike_id":"78288666-4320-47d1-a1d4-5d9b6e0518e9","system_id":"levelo_inurba_marseille","lat":43.29586,"lon":5.36758,"is_reserved":false,"is_disabled":false,"rental_uris":{"android":"levelo://app?vid=78288666-4320-47d1-a1d4-5d9b6e0518e9","ios":"levelo://app?vid=78288666-4320-47d1-a1d4-5d9b6e0518e9"},"vehicle_type_id":"4","last_reported":1770918601,"current_range_meters":6000,"station_id":"ce4bgph2rcd13ifvqc2g","pricing_plan_id":"cebpf4jnsgd1na2vs0mg"},{"bike_id":"3acd2e3f-2647-4c97-be7c-a08f5bcb1e60","system_id":"levelo_inurba_marseille","lat":43.274727,"lon":5.41585,"is_reserved":false,"is_disabled":false,"rental_uris":{"android":"levelo://app?vid=3acd2e3f-2647-4c97-be7c-a08f5bcb1e60","ios":"levelo://app?vid=3acd2e3f-2647-4c97-be7c-a08f5bcb1e60"},"vehicle_type_id":"4","last_reported":1770918601,"current_range_meters":6000,"station_id":"","pricing_plan_id":"cebpf4jnsgd1na2vs0mg"},{"bike_id":"c6b8d042-0248-4ae9-b96f-5b25377cefeb","system_id":"levelo_inurba_marseille","lat":43.27967,"lon":5.38612,"is_reserved":false,"is_disabled":false,"rental_uris":{"android":"levelo://app?vid=c6b8d042-0248-4ae9-b96f-5b25377cefeb","ios":"levelo://app?vid=c6b8d042-0248-4ae9-b96f-5b25377cefeb"},"vehicle_type_id":"4","last_reported":1770918601,"current_range_meters":6000,"station_id":"","pricing_plan_id":"cebpf4jnsgd1na2vs0mg"},{"bike_id":"ba74d672-5fc1-4e8b-b34c-87e02de43f95","system_id":"levelo_inurba_marseille","lat":43.30539,"lon":5.36527,"is_reserved":false,"is_disabled":false,"rental_uris":{"android":"levelo://app?vid=ba74d672-5fc1-4e8b-b34c-87e02de43f95","ios":"levelo://app?vid=ba74d672-5fc1-4e8b-b34c-87e02de43f95"},"vehicle_type_id":"4","last_reported":1770918601,"current_range_meters":6000,"station_id":"ce4bgs12rcd13ifvqcag","pricing_plan_id":"cebpf4jnsgd1na2vs0mg"},{"bike_id":"cbb05c8d-a380-4a25-aa6c-24b1e16ff9ec","system_id":"levelo_inurba_marseille","lat":43.25506,"lon":5.37654,"is_reserved":false,"is_disabled":false,"rental_uris":{"android":"levelo://app?vid=cbb05c8d-a380-4a25-aa6c-24b1e16ff9ec","ios":"levelo://app?vid=cbb05c8d-a380-4a25-aa6c-24b1e16ff9ec"},"vehicle_type_id":"4","last_reported":1770918601,"current_range_meters":6000,"station_id":"ce4bhh12rcd13ifvqff0","pricing_plan_id":"cebpf4jnsgd1na2vs0mg"},{"bike_id":"67a0890d-434c-4883-b3e1-d1ab5c7b984b","system_id":"levelo_inurba_marseille","lat":43.28917,"lon":5.38388,"is_reserved":false,"is_disabled":false,"rental_uris":{"android":"levelo://app?vid=67a0890d-434c-4883-b3e1-d1ab5c7b984b","ios":"levelo://app?vid=67a0890d-434c-4883-b3e1-d1ab5c7b984b"},"vehicle_type_id":"4","last_reported":1770918601,"current_range_meters":6000,"station_id":"ce4bh612rcd13ifvqe6g","pricing_plan_id":"cebpf4jnsgd1na2vs0mg"},{"bike_id":"1666b265-643d-41e7-bcc3-6167a6d49f91","system_id":"levelo_inurba_marseille","lat":43.22533,"lon":5.34847,"is_reserved":false,"is_disabled":false,"rental_uris":{"android":"levelo://app?vid=1666b265-643d-41e7-bcc3-6167a6d49f91","ios":"levelo://app?vid=1666b265-643d-41e7-bcc3-6167a6d49f91"},"vehicle_type_id":"4","last_reported":1770918601,"current_range_meters":6400,"station_id":"","pricing_plan_id":"cebpf4jnsgd1na2vs0mg"},{"bike_id":"6d3818ab-969d-46f1-93b2-5caf9d3aa870","system_id":"levelo_inurba_marseille","lat":43.24991,"lon":5.38944,"is_reserved":false,"is_disabled":false,"rental_uris":{"android":"levelo://app?vid=6d3818ab-969d-46f1-93b2-5caf9d3aa870","ios":"levelo://app?vid=6d3818ab-969d-46f1-93b2-5caf9d3aa870"},"vehicle_type_id":"4","last_reported":1770918601,"current_range_meters":6400,"station_id":"ce4bhgp2rcd13ifvqfd0","pricing_plan_id":"cebpf4jnsgd1na2vs0mg"},{"bike_id":"adedccca-d77d-4967-91ed-2661b5b510ba","system_id":"levelo_inurba_marseille","lat":43.22539,"lon":5.4162,"is_reserved":false,"is_disabled":false,"rental_uris":{"android":"levelo://app?vid=adedccca-d77d-4967-91ed-2661b5b510ba","ios":"levelo://app?vid=adedccca-d77d-4967-91ed-2661b5b510ba"},"vehicle_type_id":"4","last_reported":1770918601,"current_range_meters":6400,"station_id":"st_d2o4gvlbi1j2169b742g","pricing_plan_id":"cebpf4jnsgd1na2vs0mg"},{"bike_id":"8c0ab109-a2e0-4c76-a9ec-0ce3a7ff8081","system_id":"levelo_inurba_marseille","lat":43.26563,"lon":5.40322,"is_reserved":false,"is_disabled":false,"rental_uris":{"android":"levelo://app?vid=8c0ab109-a2e0-4c76-a9ec-0ce3a7ff8081","ios":"levelo://app?vid=8c0ab109-a2e0-4c76-a9ec-0ce3a7ff8081"},"vehicle_type_id":"4","last_reported":1770918601,"current_range_meters":6400,"station_id":"ce4bhmp2rcd13ifvqgng","pricing_plan_id":"cebpf4jnsgd1na2vs0mg"},{"bike_id":"dce03ffd-fed8-46d7-a0fc-507d65921ae6","system_id":"levelo_inurba_marseille","lat":43.27997,"lon":5.41665,"is_reserved":false,"is_disabled":false,"rental_uris":{"android":"levelo://app?vid=dce03ffd-fed8-46d7-a0fc-507d65921ae6","ios":"levelo://app?vid=dce03ffd-fed8-46d7-a0fc-507d65921ae6"},"vehicle_type_id":"4","last_reported":1770918601,"current_range_meters":6400,"station_id":"ce4bho12rcd13ifvqh1g","pricing_plan_id":"cebpf4jnsgd1na2vs0mg"},{"bike_id":"0b98a9f2-b4e6-4d72-9367-260f75d9f75b","system_id":"levelo_inurba_marseille","lat":43.25072,"lon":5.39522,"is_reserved":false,"is_disabled":false,"rental_uris":{"android":"levelo://app?vid=0b98a9f2-b4e6-4d72-9367-260f75d9f75b","ios":"levelo://app?vid=0b98a9f2-b4e6-4d72-9367-260f75d9f75b"},"vehicle_type_id":"4","last_reported":1770918601,"current_range_meters":6400,"station_id":"ce4bhm12rcd13ifvqgkg","pricing_plan_id":"cebpf4jnsgd1na2vs0mg"},{"bike_id":"10abcb71-23de-4180-8560-5833e29cc1f1","system_id":"levelo_inurba_marseille","lat":43.27614,"lon":5.36103,"is_reserved":false,"is_disabled":false,"rental_uris":{"android":"levelo://app?vid=10abcb71-23de-4180-8560-5833e29cc1f1","ios":"levelo://app?vid=10abcb71-23de-4180-8560-5833e29cc1f1"},"vehicle_type_id":"4","last_reported":1770918601,"current_range_meters":6400,"station_id":"ce4bgj92rcd13ifvqbe0","pricing_plan_id":"cebpf4jnsgd1na2vs0mg"},{"bike_id":"241addb2-7484-42ce-893e-9b8916a4e2d0","system_id":"levelo_inurba_marseille","lat":43.28697,"lon":5.38667,"is_reserved":false,"is_disabled":false,"rental_uris":{"android":"levelo://app?vid=241addb2-7484-42ce-893e-9b8916a4e2d0","ios":"levelo://app?vid=241addb2-7484-42ce-893e-9b8916a4e2d0"},"vehicle_type_id":"4","last_reported":1770918601,"current_range_meters":6400,"station_id":"ce4bh492rcd13ifvqdug","pricing_plan_id":"cebpf4jnsgd1na2vs0mg"},{"bike_id":"33c8fd7b-cd02-40e8-b2b7-476212909eef","system_id":"levelo_inurba_marseille","lat":43.27959,"lon":5.38741,"is_reserved":false,"is_disabled":false,"rental_uris":{"android":"levelo://app?vid=33c8fd7b-cd02-40e8-b2b7-476212909eef","ios":"levelo://app?vid=33c8fd7b-cd02-40e8-b2b7-476212909eef"},"vehicle_type_id":"4","last_reported":1770918601,"current_range_meters":6400,"station_id":"ce4bhg12rcd13ifvqf80","pricing_plan_id":"cebpf4jnsgd1na2vs0mg"},{"bike_id":"eb9d66ff-a612-4121-8b67-1d84deda7e3a","system_id":"levelo_inurba_marseille","lat":43.3313,"lon":5.37643,"is_reserved":false,"is_disabled":false,"rental_uris":{"android":"levelo://app?vid=eb9d66ff-a612-4121-8b67-1d84deda7e3a","ios":"levelo://app?vid=eb9d66ff-a612-4121-8b67-1d84deda7e3a"},"vehicle_type_id":"4","last_reported":1770918601,"current_range_meters":6400,"station_id":"st_d46cu089ee8s73dldbu0","pricing_plan_id":"cebpf4jnsgd1na2vs0mg"},{"bike_id":"66f81b12-068e-4842-9f7f-21352f3ce3dd","system_id":"levelo_inurba_marseille","lat":43.30299,"lon":5.36882,"is_reserved":false,"is_disabled":false,"rental_uris":{"android":"levelo://app?vid=66f81b12-068e-4842-9f7f-21352f3ce3dd","ios":"levelo://app?vid=66f81b12-068e-4842-9f7f-21352f3ce3dd"},"vehicle_type_id":"4","last_reported":1770918601,"current_range_meters":6400,"station_id":"ce4bgqh2rcd13ifvqc5g","pricing_plan_id":"cebpf4jnsgd1na2vs0mg"},{"bike_id":"1860cee0-c708-4679-a32e-b7ac1e48fdce","system_id":"levelo_inurba_marseille","lat":43.29887,"lon":5.39717,"is_reserved":false,"is_disabled":false,"rental_uris":{"android":"levelo://app?vid=1860cee0-c708-4679-a32e-b7ac1e48fdce","ios":"levelo://app?vid=1860cee0-c708-4679-a32e-b7ac1e48fdce"},"vehicle_type_id":"4","last_reported":1770918601,"current_range_meters":6400,"station_id":"ce4bh0h2rcd13ifvqd50","pricing_plan_id":"cebpf4jnsgd1na2vs0mg"},{"bike_id":"6f36e1ce-a732-4813-9d77-efe6e46c862d","system_id":"levelo_inurba_marseille","lat":43.28615,"lon":5.35105,"is_reserved":false,"is_disabled":false,"rental_uris":{"android":"levelo://app?vid=6f36e1ce-a732-4813-9d77-efe6e46c862d","ios":"levelo://app?vid=6f36e1ce-a732-4813-9d77-efe6e46c862d"},"vehicle_type_id":"4","last_reported":1770918601,"current_range_meters":6400,"station_id":"ce4bhch2rcd13ifvqeug","pricing_plan_id":"cebpf4jnsgd1na2vs0mg"},{"bike_id":"6a1cfcbe-e32a-439e-a968-714a4b55e721","system_id":"levelo_inurba_marseille","lat":43.281026,"lon":5.378383,"is_reserved":false,"is_disabled":true,"rental_uris":{"android":"levelo://app?vid=6a1cfcbe-e32a-439e-a968-714a4b55e721","ios":"levelo://app?vid=6a1cfcbe-e32a-439e-a968-714a4b55e721"},"vehicle_type_id":"4","last_reported":1770918601,"current_range_meters":6400,"station_id":"ce4bha12rcd13ifvqee0","pricing_plan_id":"cebpf4jnsgd1na2vs0mg"},{"bike_id":"6e2fc0d4-a25b-4469-96ca-042c68399b84","system_id":"levelo_inurba_marseille","lat":43.290542,"lon":5.371517,"is_reserved":false,"is_disabled":false,"rental_uris":{"android":"levelo://app?vid=6e2fc0d4-a25b-4469-96ca-042c68399b84","ios":"levelo://app?vid=6e2fc0d4-a25b-4469-96ca-042c68399b84"},"vehicle_type_id":"4","last_reported":1770918601,"current_range_meters":6800,"station_id":"ce4bh5p2rcd13ifvqe4g","pricing_plan_id":"cebpf4jnsgd1na2vs0mg"},{"bike_id":"5f6ae4c8-a7cd-4f3b-9adf-671bbd618c70","system_id":"levelo_inurba_marseille","lat":43.25563,"lon":5.38222,"is_reserved":false,"is_disabled":false,"rental_uris":{"android":"levelo://app?vid=5f6ae4c8-a7cd-4f3b-9adf-671bbd618c70","ios":"levelo://app?vid=5f6ae4c8-a7cd-4f3b-9adf-671bbd618c70"},"vehicle_type_id":"4","last_reported":1770918601,"current_range_meters":6800,"station_id":"ce4bhih2rcd13ifvqfs0","pricing_plan_id":"cebpf4jnsgd1na2vs0mg"},{"bike_id":"c4d52c50-a89f-445e-af8c-f5d7fd1b3a38","system_id":"levelo_inurba_marseille","lat":43.29932,"lon":5.36531,"is_reserved":false,"is_disabled":false,"rental_uris":{"android":"levelo://app?vid=c4d52c50-a89f-445e-af8c-f5d7fd1b3a38","ios":"levelo://app?vid=c4d52c50-a89f-445e-af8c-f5d7fd1b3a38"},"vehicle_type_id":"4","last_reported":1770918601,"current_range_meters":6800,"station_id":"ce4bgm92rcd13ifvqbr0","pricing_plan_id":"cebpf4jnsgd1na2vs0mg"},{"bike_id":"52c5007b-88c9-4d1c-9fe2-488c4cdcfbef","system_id":"levelo_inurba_marseille","lat":43.25868,"lon":5.39888,"is_reserved":false,"is_disabled":false,"rental_uris":{"android":"levelo://app?vid=52c5007b-88c9-4d1c-9fe2-488c4cdcfbef","ios":"levelo://app?vid=52c5007b-88c9-4d1c-9fe2-488c4cdcfbef"},"vehicle_type_id":"4","last_reported":1770918601,"current_range_meters":6800,"station_id":"ce4bhl92rcd13ifvqghg","pricing_plan_id":"cebpf4jnsgd1na2vs0mg"},{"bike_id":"c79ede62-b18f-43b2-ba8b-0a82a66c7da5","system_id":"levelo_inurba_marseille","lat":43.31605,"lon":5.3802,"is_reserved":false,"is_disabled":false,"rental_uris":{"android":"levelo://app?vid=c79ede62-b18f-43b2-ba8b-0a82a66c7da5","ios":"levelo://app?vid=c79ede62-b18f-43b2-ba8b-0a82a66c7da5"},"vehicle_type_id":"4","last_reported":1770918601,"current_range_meters":6800,"station_id":"","pricing_plan_id":"cebpf4jnsgd1na2vs0mg"},{"bike_id":"e44df137-3a9f-4865-a2d3-769a6f5bfc14","system_id":"levelo_inurba_marseille","lat":43.309122,"lon":5.368487,"is_reserved":false,"is_disabled":false,"rental_uris":{"android":"levelo://app?vid=e44df137-3a9f-4865-a2d3-769a6f5bfc14","ios":"levelo://app?vid=e44df137-3a9f-4865-a2d3-769a6f5bfc14"},"vehicle_type_id":"4","last_reported":1770918601,"current_range_meters":6800,"station_id":"","pricing_plan_id":"cebpf4jnsgd1na2vs0mg"},{"bike_id":"238821cc-a40e-43a6-b8cb-1fa5bcc333c9","system_id":"levelo_inurba_marseille","lat":43.3175,"lon":5.39017,"is_reserved":false,"is_disabled":false,"rental_uris":{"android":"levelo://app?vid=238821cc-a40e-43a6-b8cb-1fa5bcc333c9","ios":"levelo://app?vid=238821cc-a40e-43a6-b8cb-1fa5bcc333c9"},"vehicle_type_id":"4","last_reported":1770918601,"current_range_meters":6800,"station_id":"ce4bhqp2rcd13ifvqhng","pricing_plan_id":"cebpf4jnsgd1na2vs0mg"},{"bike_id":"2d062516-f96d-4bc1-86f0-aa3654535a01","system_id":"levelo_inurba_marseille","lat":43.29753,"lon":5.42781,"is_reserved":false,"is_disabled":false,"rental_uris":{"android":"levelo://app?vid=2d062516-f96d-4bc1-86f0-aa3654535a01","ios":"levelo://app?vid=2d062516-f96d-4bc1-86f0-aa3654535a01"},"vehicle_type_id":"4","last_reported":1770918601,"current_range_meters":6800,"station_id":"st_d3md5207bmas73dh9klg","pricing_plan_id":"cebpf4jnsgd1na2vs0mg"},{"bike_id":"302665be-d566-4d4f-a3f1-8aa69ea5f13a","system_id":"levelo_inurba_marseille","lat":43.28453,"lon":5.392,"is_reserved":false,"is_disabled":false,"rental_uris":{"android":"levelo://app?vid=302665be-d566-4d4f-a3f1-8aa69ea5f13a","ios":"levelo://app?vid=302665be-d566-4d4f-a3f1-8aa69ea5f13a"},"vehicle_type_id":"4","last_reported":1770918601,"current_range_meters":6800,"station_id":"ce4bhoh2rcd13ifvqh5g","pricing_plan_id":"cebpf4jnsgd1na2vs0mg"},{"bike_id":"dcdfe35c-53ef-4294-a44f-95b37c3f1715","system_id":"levelo_inurba_marseille","lat":43.25116,"lon":5.4032,"is_reserved":false,"is_disabled":false,"rental_uris":{"android":"levelo://app?vid=dcdfe35c-53ef-4294-a44f-95b37c3f1715","ios":"levelo://app?vid=dcdfe35c-53ef-4294-a44f-95b37c3f1715"},"vehicle_type_id":"4","last_reported":1770918601,"current_range_meters":6800,"station_id":"ce4bhlh2rcd13ifvqgig","pricing_plan_id":"cebpf4jnsgd1na2vs0mg"},{"bike_id":"197e3adc-92aa-4015-a8ad-f6274bf6b5bb","system_id":"levelo_inurba_marseille","lat":43.330364,"lon":5.390259,"is_reserved":false,"is_disabled":false,"rental_uris":{"android":"levelo://app?vid=197e3adc-92aa-4015-a8ad-f6274bf6b5bb","ios":"levelo://app?vid=197e3adc-92aa-4015-a8ad-f6274bf6b5bb"},"vehicle_type_id":"4","last_reported":1770918601,"current_range_meters":6800,"station_id":"ce4bhr92rcd13ifvqhrg","pricing_plan_id":"cebpf4jnsgd1na2vs0mg"},{"bike_id":"1dbb69cb-8222-4e8a-9ca2-6df7c935fc4f","system_id":"levelo_inurba_marseille","lat":43.24691,"lon":5.37393,"is_reserved":false,"is_disabled":false,"rental_uris":{"android":"levelo://app?vid=1dbb69cb-8222-4e8a-9ca2-6df7c935fc4f","ios":"levelo://app?vid=1dbb69cb-8222-4e8a-9ca2-6df7c935fc4f"},"vehicle_type_id":"4","last_reported":1770918601,"current_range_meters":6800,"station_id":"ce4bhgh2rcd13ifvqfb0","pricing_plan_id":"cebpf4jnsgd1na2vs0mg"},{"bike_id":"e65ccbc5-b5c7-44d0-b5ad-174693865abe","system_id":"levelo_inurba_marseille","lat":43.28459,"lon":5.35881,"is_reserved":false,"is_disabled":false,"rental_uris":{"android":"levelo://app?vid=e65ccbc5-b5c7-44d0-b5ad-174693865abe","ios":"levelo://app?vid=e65ccbc5-b5c7-44d0-b5ad-174693865abe"},"vehicle_type_id":"4","last_reported":1770918601,"current_range_meters":6800,"station_id":"ce4bhah2rcd13ifvqei0","pricing_plan_id":"cebpf4jnsgd1na2vs0mg"},{"bike_id":"6d94361a-e0ab-44b1-a35e-db2dc15ed265","system_id":"levelo_inurba_marseille","lat":43.22559,"lon":5.41628,"is_reserved":false,"is_disabled":false,"rental_uris":{"android":"levelo://app?vid=6d94361a-e0ab-44b1-a35e-db2dc15ed265","ios":"levelo://app?vid=6d94361a-e0ab-44b1-a35e-db2dc15ed265"},"vehicle_type_id":"4","last_reported":1770918601,"current_range_meters":6800,"station_id":"st_d2o4gvlbi1j2169b742g","pricing_plan_id":"cebpf4jnsgd1na2vs0mg"},{"bike_id":"864cec40-0ff3-4697-9da2-81d63157f80b","system_id":"levelo_inurba_marseille","lat":43.29755,"lon":5.42792,"is_reserved":false,"is_disabled":false,"rental_uris":{"android":"levelo://app?vid=864cec40-0ff3-4697-9da2-81d63157f80b","ios":"levelo://app?vid=864cec40-0ff3-4697-9da2-81d63157f80b"},"vehicle_type_id":"4","last_reported":1770918601,"current_range_meters":6800,"station_id":"st_d3md5207bmas73dh9klg","pricing_plan_id":"cebpf4jnsgd1na2vs0mg"},{"bike_id":"54d9bbdc-7953-4c7a-9307-20e79460ea47","system_id":"levelo_inurba_marseille","lat":43.29229,"lon":5.36073,"is_reserved":false,"is_disabled":false,"rental_uris":{"android":"levelo://app?vid=54d9bbdc-7953-4c7a-9307-20e79460ea47","ios":"levelo://app?vid=54d9bbdc-7953-4c7a-9307-20e79460ea47"},"vehicle_type_id":"4","last_reported":1770918601,"current_range_meters":6800,"station_id":"ce4bhbh2rcd13ifvqeqg","pricing_plan_id":"cebpf4jnsgd1na2vs0mg"},{"bike_id":"34597344-3517-4161-8c4e-ad3953cc8cfb","system_id":"levelo_inurba_marseille","lat":43.28693,"lon":5.37395,"is_reserved":false,"is_disabled":false,"rental_uris":{"android":"levelo://app?vid=34597344-3517-4161-8c4e-ad3953cc8cfb","ios":"levelo://app?vid=34597344-3517-4161-8c4e-ad3953cc8cfb"},"vehicle_type_id":"4","last_reported":1770918601,"current_range_meters":7200,"station_id":"ce4bh3p2rcd13ifvqdq0","pricing_plan_id":"cebpf4jnsgd1na2vs0mg"},{"bike_id":"dbd40afb-0d84-4f0f-b160-b60a14900963","system_id":"levelo_inurba_marseille","lat":43.26055,"lon":5.39395,"is_reserved":false,"is_disabled":false,"rental_uris":{"android":"levelo://app?vid=dbd40afb-0d84-4f0f-b160-b60a14900963","ios":"levelo://app?vid=dbd40afb-0d84-4f0f-b160-b60a14900963"},"vehicle_type_id":"4","last_reported":1770918601,"current_range_meters":7200,"station_id":"ce4bhh92rcd13ifvqfj0","pricing_plan_id":"cebpf4jnsgd1na2vs0mg"},{"bike_id":"b909fa79-5381-4b98-bd67-3119cb88c03c","system_id":"levelo_inurba_marseille","lat":43.299191,"lon":5.363384,"is_reserved":false,"is_disabled":true,"rental_uris":{"android":"levelo://app?vid=b909fa79-5381-4b98-bd67-3119cb88c03c","ios":"levelo://app?vid=b909fa79-5381-4b98-bd67-3119cb88c03c"},"vehicle_type_id":"4","last_reported":1770918601,"current_range_meters":7200,"station_id":"","pricing_plan_id":"cebpf4jnsgd1na2vs0mg"},{"bike_id":"661c1ad9-8e78-490b-aa77-0dd317a910f6","system_id":"levelo_inurba_marseille","lat":43.272041,"lon":5.391918,"is_reserved":false,"is_disabled":true,"rental_uris":{"android":"levelo://app?vid=661c1ad9-8e78-490b-aa77-0dd317a910f6","ios":"levelo://app?vid=661c1ad9-8e78-490b-aa77-0dd317a910f6"},"vehicle_type_id":"4","last_reported":1770918601,"current_range_meters":7200,"station_id":"ce4bhhp2rcd13ifvqfm0","pricing_plan_id":"cebpf4jnsgd1na2vs0mg"},{"bike_id":"6b49fa0a-6226-4e6c-9f94-68ff4fd2f09e","system_id":"levelo_inurba_marseille","lat":43.29548,"lon":5.38535,"is_reserved":false,"is_disabled":false,"rental_uris":{"android":"levelo://app?vid=6b49fa0a-6226-4e6c-9f94-68ff4fd2f09e","ios":"levelo://app?vid=6b49fa0a-6226-4e6c-9f94-68ff4fd2f09e"},"vehicle_type_id":"4","last_reported":1770918601,"current_range_meters":7200,"station_id":"ce4bgih2rcd13ifvqba0","pricing_plan_id":"cebpf4jnsgd1na2vs0mg"},{"bike_id":"0079d939-22bf-4727-96d8-2fe94825e5ef","system_id":"levelo_inurba_marseille","lat":43.27626,"lon":5.36102,"is_reserved":false,"is_disabled":false,"rental_uris":{"android":"levelo://app?vid=0079d939-22bf-4727-96d8-2fe94825e5ef","ios":"levelo://app?vid=0079d939-22bf-4727-96d8-2fe94825e5ef"},"vehicle_type_id":"4","last_reported":1770918601,"current_range_meters":7200,"station_id":"ce4bgj92rcd13ifvqbe0","pricing_plan_id":"cebpf4jnsgd1na2vs0mg"},{"bike_id":"63616dc6-da91-4b0e-b74a-66f0aa885642","system_id":"levelo_inurba_marseille","lat":43.33021,"lon":5.39035,"is_reserved":false,"is_disabled":false,"rental_uris":{"android":"levelo://app?vid=63616dc6-da91-4b0e-b74a-66f0aa885642","ios":"levelo://app?vid=63616dc6-da91-4b0e-b74a-66f0aa885642"},"vehicle_type_id":"4","last_reported":1770918601,"current_range_meters":7200,"station_id":"ce4bhr92rcd13ifvqhrg","pricing_plan_id":"cebpf4jnsgd1na2vs0mg"},{"bike_id":"c035d78e-ce88-4f77-ba16-9faa9ce19f7f","system_id":"levelo_inurba_marseille","lat":43.3143,"lon":5.37316,"is_reserved":false,"is_disabled":false,"rental_uris":{"android":"levelo://app?vid=c035d78e-ce88-4f77-ba16-9faa9ce19f7f","ios":"levelo://app?vid=c035d78e-ce88-4f77-ba16-9faa9ce19f7f"},"vehicle_type_id":"4","last_reported":1770918601,"current_range_meters":7200,"station_id":"","pricing_plan_id":"cebpf4jnsgd1na2vs0mg"},{"bike_id":"6a7ba975-0a2d-40a5-b6d9-c3e8afe92f2c","system_id":"levelo_inurba_marseille","lat":43.312033,"lon":5.387117,"is_reserved":false,"is_disabled":true,"rental_uris":{"android":"levelo://app?vid=6a7ba975-0a2d-40a5-b6d9-c3e8afe92f2c","ios":"levelo://app?vid=6a7ba975-0a2d-40a5-b6d9-c3e8afe92f2c"},"vehicle_type_id":"4","last_reported":1770918601,"current_range_meters":7200,"station_id":"ce4bgv12rcd13ifvqcp0","pricing_plan_id":"cebpf4jnsgd1na2vs0mg"},{"bike_id":"a59884a8-fdaf-482a-b711-c0ccdae09049","system_id":"levelo_inurba_marseille","lat":43.29863,"lon":5.38902,"is_reserved":false,"is_disabled":false,"rental_uris":{"android":"levelo://app?vid=a59884a8-fdaf-482a-b711-c0ccdae09049","ios":"levelo://app?vid=a59884a8-fdaf-482a-b711-c0ccdae09049"},"vehicle_type_id":"4","last_reported":1770918601,"current_range_meters":7200,"station_id":"ce4bh392rcd13ifvqdl0","pricing_plan_id":"cebpf4jnsgd1na2vs0mg"},{"bike_id":"37a3e5fd-6429-42db-92d5-0caaf26cb646","system_id":"levelo_inurba_marseille","lat":43.25328,"lon":5.42162,"is_reserved":false,"is_disabled":false,"rental_uris":{"android":"levelo://app?vid=37a3e5fd-6429-42db-92d5-0caaf26cb646","ios":"levelo://app?vid=37a3e5fd-6429-42db-92d5-0caaf26cb646"},"vehicle_type_id":"4","last_reported":1770918601,"current_range_meters":7200,"station_id":"st_d2m65c5bi1j21697t3ng","pricing_plan_id":"cebpf4jnsgd1na2vs0mg"},{"bike_id":"76a38d49-c53a-42c4-9ea3-54b27ab7599d","system_id":"levelo_inurba_marseille","lat":43.24154,"lon":5.39722,"is_reserved":false,"is_disabled":false,"rental_uris":{"android":"levelo://app?vid=76a38d49-c53a-42c4-9ea3-54b27ab7599d","ios":"levelo://app?vid=76a38d49-c53a-42c4-9ea3-54b27ab7599d"},"vehicle_type_id":"4","last_reported":1770918601,"current_range_meters":7200,"station_id":"ce4bhn12rcd13ifvqgpg","pricing_plan_id":"cebpf4jnsgd1na2vs0mg"},{"bike_id":"d8b6a072-419c-49e9-943b-96638def8c6d","system_id":"levelo_inurba_marseille","lat":43.30468,"lon":5.37908,"is_reserved":false,"is_disabled":false,"rental_uris":{"android":"levelo://app?vid=d8b6a072-419c-49e9-943b-96638def8c6d","ios":"levelo://app?vid=d8b6a072-419c-49e9-943b-96638def8c6d"},"vehicle_type_id":"4","last_reported":1770918601,"current_range_meters":7200,"station_id":"ce4bgup2rcd13ifvqcn0","pricing_plan_id":"cebpf4jnsgd1na2vs0mg"},{"bike_id":"989b5b08-d948-4be9-bc29-7318c8ff2142","system_id":"levelo_inurba_marseille","lat":43.24639,"lon":5.43137,"is_reserved":false,"is_disabled":false,"rental_uris":{"android":"levelo://app?vid=989b5b08-d948-4be9-bc29-7318c8ff2142","ios":"levelo://app?vid=989b5b08-d948-4be9-bc29-7318c8ff2142"},"vehicle_type_id":"4","last_reported":1770918601,"current_range_meters":7200,"station_id":"st_d2m6c4gdas8pm72e190g","pricing_plan_id":"cebpf4jnsgd1na2vs0mg"},{"bike_id":"670b6626-7a7a-49d6-916e-8662b13cd228","system_id":"levelo_inurba_marseille","lat":43.30475,"lon":5.37899,"is_reserved":false,"is_disabled":false,"rental_uris":{"android":"levelo://app?vid=670b6626-7a7a-49d6-916e-8662b13cd228","ios":"levelo://app?vid=670b6626-7a7a-49d6-916e-8662b13cd228"},"vehicle_type_id":"4","last_reported":1770918601,"current_range_meters":7200,"station_id":"ce4bgup2rcd13ifvqcn0","pricing_plan_id":"cebpf4jnsgd1na2vs0mg"},{"bike_id":"aac6bd2c-e5bc-4379-b6c9-d58651a9561a","system_id":"levelo_inurba_marseille","lat":43.28943,"lon":5.39625,"is_reserved":false,"is_disabled":false,"rental_uris":{"android":"levelo://app?vid=aac6bd2c-e5bc-4379-b6c9-d58651a9561a","ios":"levelo://app?vid=aac6bd2c-e5bc-4379-b6c9-d58651a9561a"},"vehicle_type_id":"4","last_reported":1770918601,"current_range_meters":7200,"station_id":"ce4bh3h2rcd13ifvqdn0","pricing_plan_id":"cebpf4jnsgd1na2vs0mg"},{"bike_id":"85ca329a-9c55-4be1-b2da-c3d917ed6363","system_id":"levelo_inurba_marseille","lat":43.24542,"lon":5.39529,"is_reserved":false,"is_disabled":false,"rental_uris":{"android":"levelo://app?vid=85ca329a-9c55-4be1-b2da-c3d917ed6363","ios":"levelo://app?vid=85ca329a-9c55-4be1-b2da-c3d917ed6363"},"vehicle_type_id":"4","last_reported":1770918601,"current_range_meters":8000,"station_id":"ce4bhlp2rcd13ifvqgjg","pricing_plan_id":"cebpf4jnsgd1na2vs0mg"},{"bike_id":"4e0f9367-7bac-4416-a504-19f0c84a5aa3","system_id":"levelo_inurba_marseille","lat":43.28168,"lon":5.42656,"is_reserved":false,"is_disabled":false,"rental_uris":{"android":"levelo://app?vid=4e0f9367-7bac-4416-a504-19f0c84a5aa3","ios":"levelo://app?vid=4e0f9367-7bac-4416-a504-19f0c84a5aa3"},"vehicle_type_id":"4","last_reported":1770918601,"current_range_meters":8000,"station_id":"ce4bhnh2rcd13ifvqgug","pricing_plan_id":"cebpf4jnsgd1na2vs0mg"},{"bike_id":"558b0286-85fc-49cb-b13d-aa40847d1ce9","system_id":"levelo_inurba_marseille","lat":43.25002,"lon":5.3893,"is_reserved":false,"is_disabled":false,"rental_uris":{"android":"levelo://app?vid=558b0286-85fc-49cb-b13d-aa40847d1ce9","ios":"levelo://app?vid=558b0286-85fc-49cb-b13d-aa40847d1ce9"},"vehicle_type_id":"4","last_reported":1770918601,"current_range_meters":8000,"station_id":"ce4bhgp2rcd13ifvqfd0","pricing_plan_id":"cebpf4jnsgd1na2vs0mg"},{"bike_id":"3ad331d6-b4d1-49c7-b940-96959fff84a3","system_id":"levelo_inurba_marseille","lat":43.28621,"lon":5.35092,"is_reserved":false,"is_disabled":false,"rental_uris":{"android":"levelo://app?vid=3ad331d6-b4d1-49c7-b940-96959fff84a3","ios":"levelo://app?vid=3ad331d6-b4d1-49c7-b940-96959fff84a3"},"vehicle_type_id":"4","last_reported":1770918601,"current_range_meters":8000,"station_id":"ce4bhch2rcd13ifvqeug","pricing_plan_id":"cebpf4jnsgd1na2vs0mg"},{"bike_id":"8fba30e2-5f21-47ce-8e1b-b9bc7fa0597f","system_id":"levelo_inurba_marseille","lat":43.28073,"lon":5.39662,"is_reserved":false,"is_disabled":false,"rental_uris":{"android":"levelo://app?vid=8fba30e2-5f21-47ce-8e1b-b9bc7fa0597f","ios":"levelo://app?vid=8fba30e2-5f21-47ce-8e1b-b9bc7fa0597f"},"vehicle_type_id":"4","last_reported":1770918601,"current_range_meters":8000,"station_id":"ce4bho12rcd13ifvqh2g","pricing_plan_id":"cebpf4jnsgd1na2vs0mg"},{"bike_id":"6d146b90-da11-4bbb-b527-7da7e2561db2","system_id":"levelo_inurba_marseille","lat":43.28482,"lon":5.48384,"is_reserved":false,"is_disabled":false,"rental_uris":{"android":"levelo://app?vid=6d146b90-da11-4bbb-b527-7da7e2561db2","ios":"levelo://app?vid=6d146b90-da11-4bbb-b527-7da7e2561db2"},"vehicle_type_id":"4","last_reported":1770918601,"current_range_meters":8000,"station_id":"st_d3svhcjqgbts73a3dn0g","pricing_plan_id":"cebpf4jnsgd1na2vs0mg"},{"bike_id":"44b82be7-a2b9-42f1-8560-17e8ec787592","system_id":"levelo_inurba_marseille","lat":43.30918,"lon":5.36861,"is_reserved":false,"is_disabled":false,"rental_uris":{"android":"levelo://app?vid=44b82be7-a2b9-42f1-8560-17e8ec787592","ios":"levelo://app?vid=44b82be7-a2b9-42f1-8560-17e8ec787592"},"vehicle_type_id":"4","last_reported":1770918601,"current_range_meters":8000,"station_id":"ce4bgn92rcd13ifvqbvg","pricing_plan_id":"cebpf4jnsgd1na2vs0mg"},{"bike_id":"1bf3c557-9b1e-42be-bafe-0a6443919d9f","system_id":"levelo_inurba_marseille","lat":43.33361,"lon":5.41056,"is_reserved":false,"is_disabled":false,"rental_uris":{"android":"levelo://app?vid=1bf3c557-9b1e-42be-bafe-0a6443919d9f","ios":"levelo://app?vid=1bf3c557-9b1e-42be-bafe-0a6443919d9f"},"vehicle_type_id":"4","last_reported":1770918601,"current_range_meters":8000,"station_id":"","pricing_plan_id":"cebpf4jnsgd1na2vs0mg"},{"bike_id":"09ad556f-b6d8-43a2-9c08-0649a70ab239","system_id":"levelo_inurba_marseille","lat":43.29624,"lon":5.37728,"is_reserved":false,"is_disabled":false,"rental_uris":{"android":"levelo://app?vid=09ad556f-b6d8-43a2-9c08-0649a70ab239","ios":"levelo://app?vid=09ad556f-b6d8-43a2-9c08-0649a70ab239"},"vehicle_type_id":"4","last_reported":1770918601,"current_range_meters":8000,"station_id":"ce4bgi92rcd13ifvqb90","pricing_plan_id":"cebpf4jnsgd1na2vs0mg"},{"bike_id":"8f3a9ea3-3d5f-4beb-8e6c-40222b0c90d4","system_id":"levelo_inurba_marseille","lat":43.28382,"lon":5.3535,"is_reserved":false,"is_disabled":false,"rental_uris":{"android":"levelo://app?vid=8f3a9ea3-3d5f-4beb-8e6c-40222b0c90d4","ios":"levelo://app?vid=8f3a9ea3-3d5f-4beb-8e6c-40222b0c90d4"},"vehicle_type_id":"4","last_reported":1770918601,"current_range_meters":8000,"station_id":"","pricing_plan_id":"cebpf4jnsgd1na2vs0mg"},{"bike_id":"e61f8348-ac76-4cea-92f8-334c0273949b","system_id":"levelo_inurba_marseille","lat":43.246379,"lon":5.431423,"is_reserved":false,"is_disabled":false,"rental_uris":{"android":"levelo://app?vid=e61f8348-ac76-4cea-92f8-334c0273949b","ios":"levelo://app?vid=e61f8348-ac76-4cea-92f8-334c0273949b"},"vehicle_type_id":"4","last_reported":1770918601,"current_range_meters":8000,"station_id":"st_d2m6c4gdas8pm72e190g","pricing_plan_id":"cebpf4jnsgd1na2vs0mg"},{"bike_id":"353c69de-afce-47cc-a9e1-0e9d876979bc","system_id":"levelo_inurba_marseille","lat":43.31176,"lon":5.3871,"is_reserved":false,"is_disabled":false,"rental_uris":{"android":"levelo://app?vid=353c69de-afce-47cc-a9e1-0e9d876979bc","ios":"levelo://app?vid=353c69de-afce-47cc-a9e1-0e9d876979bc"},"vehicle_type_id":"4","last_reported":1770918601,"current_range_meters":8000,"station_id":"ce4bgv12rcd13ifvqcp0","pricing_plan_id":"cebpf4jnsgd1na2vs0mg"},{"bike_id":"eb195778-2ee3-4073-a261-addf2b73e777","system_id":"levelo_inurba_marseille","lat":43.255017,"lon":5.376502,"is_reserved":false,"is_disabled":false,"rental_uris":{"android":"levelo://app?vid=eb195778-2ee3-4073-a261-addf2b73e777","ios":"levelo://app?vid=eb195778-2ee3-4073-a261-addf2b73e777"},"vehicle_type_id":"4","last_reported":1770918601,"current_range_meters":8000,"station_id":"ce4bhh12rcd13ifvqff0","pricing_plan_id":"cebpf4jnsgd1na2vs0mg"},{"bike_id":"5f348d5e-054d-4245-a843-1faf4394a349","system_id":"levelo_inurba_marseille","lat":43.30733,"lon":5.4243,"is_reserved":false,"is_disabled":false,"rental_uris":{"android":"levelo://app?vid=5f348d5e-054d-4245-a843-1faf4394a349","ios":"levelo://app?vid=5f348d5e-054d-4245-a843-1faf4394a349"},"vehicle_type_id":"4","last_reported":1770918601,"current_range_meters":8000,"station_id":"st_cvj6ca6bvosntc0bfgr0","pricing_plan_id":"cebpf4jnsgd1na2vs0mg"},{"bike_id":"31ec33af-4b5b-47df-a935-7478bd3c999f","system_id":"levelo_inurba_marseille","lat":43.253391,"lon":5.421701,"is_reserved":false,"is_disabled":false,"rental_uris":{"android":"levelo://app?vid=31ec33af-4b5b-47df-a935-7478bd3c999f","ios":"levelo://app?vid=31ec33af-4b5b-47df-a935-7478bd3c999f"},"vehicle_type_id":"4","last_reported":1770918601,"current_range_meters":8000,"station_id":"st_d2m65c5bi1j21697t3ng","pricing_plan_id":"cebpf4jnsgd1na2vs0mg"},{"bike_id":"e434deab-6374-49bc-bae9-9738847971c7","system_id":"levelo_inurba_marseille","lat":43.31773,"lon":5.39016,"is_reserved":false,"is_disabled":false,"rental_uris":{"android":"levelo://app?vid=e434deab-6374-49bc-bae9-9738847971c7","ios":"levelo://app?vid=e434deab-6374-49bc-bae9-9738847971c7"},"vehicle_type_id":"4","last_reported":1770918601,"current_range_meters":8000,"station_id":"ce4bhqp2rcd13ifvqhng","pricing_plan_id":"cebpf4jnsgd1na2vs0mg"},{"bike_id":"cb9be5fc-0f8f-4012-b222-62b158765b42","system_id":"levelo_inurba_marseille","lat":43.22928,"lon":5.35396,"is_reserved":false,"is_disabled":false,"rental_uris":{"android":"levelo://app?vid=cb9be5fc-0f8f-4012-b222-62b158765b42","ios":"levelo://app?vid=cb9be5fc-0f8f-4012-b222-62b158765b42"},"vehicle_type_id":"4","last_reported":1770918601,"current_range_meters":8000,"station_id":"cpo3532slgdg3j2ikp40","pricing_plan_id":"cebpf4jnsgd1na2vs0mg"},{"bike_id":"41536ba6-5dd4-4add-a646-491b9fa39068","system_id":"levelo_inurba_marseille","lat":43.24445,"lon":5.42538,"is_reserved":false,"is_disabled":false,"rental_uris":{"android":"levelo://app?vid=41536ba6-5dd4-4add-a646-491b9fa39068","ios":"levelo://app?vid=41536ba6-5dd4-4add-a646-491b9fa39068"},"vehicle_type_id":"4","last_reported":1770918601,"current_range_meters":8000,"station_id":"st_d4a3vfp97mjs738cd8kg","pricing_plan_id":"cebpf4jnsgd1na2vs0mg"},{"bike_id":"46795c32-d155-4823-a0f3-872b06d1e11d","system_id":"levelo_inurba_marseille","lat":43.217475,"lon":5.34607,"is_reserved":false,"is_disabled":false,"rental_uris":{"android":"levelo://app?vid=46795c32-d155-4823-a0f3-872b06d1e11d","ios":"levelo://app?vid=46795c32-d155-4823-a0f3-872b06d1e11d"},"vehicle_type_id":"4","last_reported":1770918601,"current_range_meters":8000,"station_id":"","pricing_plan_id":"cebpf4jnsgd1na2vs0mg"},{"bike_id":"07fd4ce4-c8f3-46e0-b106-e9cf290a3452","system_id":"levelo_inurba_marseille","lat":43.2903,"lon":5.386425,"is_reserved":false,"is_disabled":false,"rental_uris":{"android":"levelo://app?vid=07fd4ce4-c8f3-46e0-b106-e9cf290a3452","ios":"levelo://app?vid=07fd4ce4-c8f3-46e0-b106-e9cf290a3452"},"vehicle_type_id":"4","last_reported":1770918601,"current_range_meters":8000,"station_id":"ce4bh4p2rcd13ifvqe0g","pricing_plan_id":"cebpf4jnsgd1na2vs0mg"},{"bike_id":"e9e4254c-88e1-4455-ab5a-76f874f4f560","system_id":"levelo_inurba_marseille","lat":43.286,"lon":5.39887,"is_reserved":false,"is_disabled":false,"rental_uris":{"android":"levelo://app?vid=e9e4254c-88e1-4455-ab5a-76f874f4f560","ios":"levelo://app?vid=e9e4254c-88e1-4455-ab5a-76f874f4f560"},"vehicle_type_id":"4","last_reported":1770918601,"current_range_meters":8400,"station_id":"st_d4a7ka997mjs738ck50g","pricing_plan_id":"cebpf4jnsgd1na2vs0mg"},{"bike_id":"52683c27-ad63-43c1-8a50-a75fb84808e6","system_id":"levelo_inurba_marseille","lat":43.2507,"lon":5.39512,"is_reserved":false,"is_disabled":false,"rental_uris":{"android":"levelo://app?vid=52683c27-ad63-43c1-8a50-a75fb84808e6","ios":"levelo://app?vid=52683c27-ad63-43c1-8a50-a75fb84808e6"},"vehicle_type_id":"4","last_reported":1770918601,"current_range_meters":8400,"station_id":"ce4bhm12rcd13ifvqgkg","pricing_plan_id":"cebpf4jnsgd1na2vs0mg"},{"bike_id":"9faee6f2-457c-410c-b197-c5102d1e22ad","system_id":"levelo_inurba_marseille","lat":43.231862,"lon":5.399866,"is_reserved":false,"is_disabled":false,"rental_uris":{"android":"levelo://app?vid=9faee6f2-457c-410c-b197-c5102d1e22ad","ios":"levelo://app?vid=9faee6f2-457c-410c-b197-c5102d1e22ad"},"vehicle_type_id":"4","last_reported":1770918601,"current_range_meters":8400,"station_id":"ce4bhn12rcd13ifvqgqg","pricing_plan_id":"cebpf4jnsgd1na2vs0mg"},{"bike_id":"9e49c384-30c1-4f45-a8df-9663175b8696","system_id":"levelo_inurba_marseille","lat":43.24468,"lon":5.42534,"is_reserved":false,"is_disabled":false,"rental_uris":{"android":"levelo://app?vid=9e49c384-30c1-4f45-a8df-9663175b8696","ios":"levelo://app?vid=9e49c384-30c1-4f45-a8df-9663175b8696"},"vehicle_type_id":"4","last_reported":1770918601,"current_range_meters":8400,"station_id":"st_d4a3vfp97mjs738cd8kg","pricing_plan_id":"cebpf4jnsgd1na2vs0mg"},{"bike_id":"5ff157dc-e3aa-4305-ad39-dfa58cf64b9c","system_id":"levelo_inurba_marseille","lat":43.240803,"lon":5.377383,"is_reserved":false,"is_disabled":false,"rental_uris":{"android":"levelo://app?vid=5ff157dc-e3aa-4305-ad39-dfa58cf64b9c","ios":"levelo://app?vid=5ff157dc-e3aa-4305-ad39-dfa58cf64b9c"},"vehicle_type_id":"4","last_reported":1770918601,"current_range_meters":8400,"station_id":"ce4bhnp2rcd13ifvqgvg","pricing_plan_id":"cebpf4jnsgd1na2vs0mg"},{"bike_id":"bb6faa0c-4182-45af-b174-e42f3eae8837","system_id":"levelo_inurba_marseille","lat":43.24651,"lon":5.3889,"is_reserved":false,"is_disabled":false,"rental_uris":{"android":"levelo://app?vid=bb6faa0c-4182-45af-b174-e42f3eae8837","ios":"levelo://app?vid=bb6faa0c-4182-45af-b174-e42f3eae8837"},"vehicle_type_id":"4","last_reported":1770918601,"current_range_meters":8400,"station_id":"ce4bhg12rcd13ifvqf60","pricing_plan_id":"cebpf4jnsgd1na2vs0mg"},{"bike_id":"f588e3cf-fd7a-4496-a11a-9313151efa87","system_id":"levelo_inurba_marseille","lat":43.26951,"lon":5.38632,"is_reserved":false,"is_disabled":false,"rental_uris":{"android":"levelo://app?vid=f588e3cf-fd7a-4496-a11a-9313151efa87","ios":"levelo://app?vid=f588e3cf-fd7a-4496-a11a-9313151efa87"},"vehicle_type_id":"4","last_reported":1770918601,"current_range_meters":8400,"station_id":"ce4bhh92rcd13ifvqfh0","pricing_plan_id":"cebpf4jnsgd1na2vs0mg"},{"bike_id":"a311edce-7eaa-44a5-b845-c7ac5f407308","system_id":"levelo_inurba_marseille","lat":43.28152,"lon":5.42684,"is_reserved":false,"is_disabled":false,"rental_uris":{"android":"levelo://app?vid=a311edce-7eaa-44a5-b845-c7ac5f407308","ios":"levelo://app?vid=a311edce-7eaa-44a5-b845-c7ac5f407308"},"vehicle_type_id":"4","last_reported":1770918601,"current_range_meters":8400,"station_id":"ce4bhnh2rcd13ifvqgug","pricing_plan_id":"cebpf4jnsgd1na2vs0mg"},{"bike_id":"48ef2e5e-395e-487a-9e41-360aad012a1f","system_id":"levelo_inurba_marseille","lat":43.26212,"lon":5.37443,"is_reserved":false,"is_disabled":false,"rental_uris":{"android":"levelo://app?vid=48ef2e5e-395e-487a-9e41-360aad012a1f","ios":"levelo://app?vid=48ef2e5e-395e-487a-9e41-360aad012a1f"},"vehicle_type_id":"4","last_reported":1770918601,"current_range_meters":8400,"station_id":"ce4bhgp2rcd13ifvqfc0","pricing_plan_id":"cebpf4jnsgd1na2vs0mg"},{"bike_id":"40452636-8d5c-4483-9aa3-a6ea0d66c3ee","system_id":"levelo_inurba_marseille","lat":43.31059,"lon":5.39332,"is_reserved":false,"is_disabled":false,"rental_uris":{"android":"levelo://app?vid=40452636-8d5c-4483-9aa3-a6ea0d66c3ee","ios":"levelo://app?vid=40452636-8d5c-4483-9aa3-a6ea0d66c3ee"},"vehicle_type_id":"4","last_reported":1770918601,"current_range_meters":8400,"station_id":"","pricing_plan_id":"cebpf4jnsgd1na2vs0mg"},{"bike_id":"b5cfe035-0ac5-4157-91b6-fb5d92305462","system_id":"levelo_inurba_marseille","lat":43.281536,"lon":5.426402,"is_reserved":false,"is_disabled":false,"rental_uris":{"android":"levelo://app?vid=b5cfe035-0ac5-4157-91b6-fb5d92305462","ios":"levelo://app?vid=b5cfe035-0ac5-4157-91b6-fb5d92305462"},"vehicle_type_id":"4","last_reported":1770918601,"current_range_meters":8400,"station_id":"ce4bhnh2rcd13ifvqgug","pricing_plan_id":"cebpf4jnsgd1na2vs0mg"},{"bike_id":"68a5a3fe-4396-4a80-a16e-5d07f2ee08ba","system_id":"levelo_inurba_marseille","lat":43.29555,"lon":5.42293,"is_reserved":false,"is_disabled":false,"rental_uris":{"android":"levelo://app?vid=68a5a3fe-4396-4a80-a16e-5d07f2ee08ba","ios":"levelo://app?vid=68a5a3fe-4396-4a80-a16e-5d07f2ee08ba"},"vehicle_type_id":"4","last_reported":1770918601,"current_range_meters":8400,"station_id":"ce4bhph2rcd13ifvqhdg","pricing_plan_id":"cebpf4jnsgd1na2vs0mg"},{"bike_id":"c0d21250-70f7-405b-91f7-061919265b15","system_id":"levelo_inurba_marseille","lat":43.337444,"lon":5.374475,"is_reserved":false,"is_disabled":false,"rental_uris":{"android":"levelo://app?vid=c0d21250-70f7-405b-91f7-061919265b15","ios":"levelo://app?vid=c0d21250-70f7-405b-91f7-061919265b15"},"vehicle_type_id":"4","last_reported":1770918601,"current_range_meters":8400,"station_id":"","pricing_plan_id":"cebpf4jnsgd1na2vs0mg"},{"bike_id":"1d2595e7-24ec-4837-ac2e-333261d8dae0","system_id":"levelo_inurba_marseille","lat":43.22539,"lon":5.41606,"is_reserved":false,"is_disabled":false,"rental_uris":{"android":"levelo://app?vid=1d2595e7-24ec-4837-ac2e-333261d8dae0","ios":"levelo://app?vid=1d2595e7-24ec-4837-ac2e-333261d8dae0"},"vehicle_type_id":"4","last_reported":1770918601,"current_range_meters":8400,"station_id":"st_d2o4gvlbi1j2169b742g","pricing_plan_id":"cebpf4jnsgd1na2vs0mg"},{"bike_id":"7b37adcb-6ffe-4fa3-9609-a6a4a944a1cf","system_id":"levelo_inurba_marseille","lat":43.305428,"lon":5.367029,"is_reserved":false,"is_disabled":false,"rental_uris":{"android":"levelo://app?vid=7b37adcb-6ffe-4fa3-9609-a6a4a944a1cf","ios":"levelo://app?vid=7b37adcb-6ffe-4fa3-9609-a6a4a944a1cf"},"vehicle_type_id":"4","last_reported":1770918601,"current_range_meters":8400,"station_id":"ce4bgrp2rcd13ifvqc9g","pricing_plan_id":"cebpf4jnsgd1na2vs0mg"},{"bike_id":"05797971-b1fa-4e10-9a08-cd7f223bbe55","system_id":"levelo_inurba_marseille","lat":43.217493,"lon":5.346153,"is_reserved":false,"is_disabled":false,"rental_uris":{"android":"levelo://app?vid=05797971-b1fa-4e10-9a08-cd7f223bbe55","ios":"levelo://app?vid=05797971-b1fa-4e10-9a08-cd7f223bbe55"},"vehicle_type_id":"4","last_reported":1770918601,"current_range_meters":8400,"station_id":"st_cvj6r9ubvosntc0bgbag","pricing_plan_id":"cebpf4jnsgd1na2vs0mg"},{"bike_id":"f5dfc69a-605e-4870-9f15-288a758bb79e","system_id":"levelo_inurba_marseille","lat":43.29757,"lon":5.42775,"is_reserved":false,"is_disabled":false,"rental_uris":{"android":"levelo://app?vid=f5dfc69a-605e-4870-9f15-288a758bb79e","ios":"levelo://app?vid=f5dfc69a-605e-4870-9f15-288a758bb79e"},"vehicle_type_id":"4","last_reported":1770918601,"current_range_meters":8400,"station_id":"st_d3md5207bmas73dh9klg","pricing_plan_id":"cebpf4jnsgd1na2vs0mg"},{"bike_id":"27931943-85db-4ed9-bf22-5714a3482b69","system_id":"levelo_inurba_marseille","lat":43.31531,"lon":5.38043,"is_reserved":false,"is_disabled":true,"rental_uris":{"android":"levelo://app?vid=27931943-85db-4ed9-bf22-5714a3482b69","ios":"levelo://app?vid=27931943-85db-4ed9-bf22-5714a3482b69"},"vehicle_type_id":"4","last_reported":1770918601,"current_range_meters":8400,"station_id":"ce4bhsp2rcd13ifvqi50","pricing_plan_id":"cebpf4jnsgd1na2vs0mg"},{"bike_id":"3e4e13a4-e02b-4423-9527-ddd9b2621fe8","system_id":"levelo_inurba_marseille","lat":43.29571,"lon":5.3752,"is_reserved":false,"is_disabled":false,"rental_uris":{"android":"levelo://app?vid=3e4e13a4-e02b-4423-9527-ddd9b2621fe8","ios":"levelo://app?vid=3e4e13a4-e02b-4423-9527-ddd9b2621fe8"},"vehicle_type_id":"4","last_reported":1770918601,"current_range_meters":8400,"station_id":"ce4bgh92rcd13ifvqb50","pricing_plan_id":"cebpf4jnsgd1na2vs0mg"},{"bike_id":"af6f359b-e892-4575-a5b8-5886b4958ec2","system_id":"levelo_inurba_marseille","lat":43.28416,"lon":5.37503,"is_reserved":false,"is_disabled":false,"rental_uris":{"android":"levelo://app?vid=af6f359b-e892-4575-a5b8-5886b4958ec2","ios":"levelo://app?vid=af6f359b-e892-4575-a5b8-5886b4958ec2"},"vehicle_type_id":"4","last_reported":1770918601,"current_range_meters":8400,"station_id":"ce4bh412rcd13ifvqds0","pricing_plan_id":"cebpf4jnsgd1na2vs0mg"},{"bike_id":"f45293d6-4615-4b71-8a82-5fb46a80b0f5","system_id":"levelo_inurba_marseille","lat":43.23403,"lon":5.4122,"is_reserved":false,"is_disabled":false,"rental_uris":{"android":"levelo://app?vid=f45293d6-4615-4b71-8a82-5fb46a80b0f5","ios":"levelo://app?vid=f45293d6-4615-4b71-8a82-5fb46a80b0f5"},"vehicle_type_id":"4","last_reported":1770918601,"current_range_meters":8400,"station_id":"","pricing_plan_id":"cebpf4jnsgd1na2vs0mg"},{"bike_id":"2cdaaecc-f3f1-45ea-a338-8e3592ee7872","system_id":"levelo_inurba_marseille","lat":43.319941,"lon":5.381658,"is_reserved":false,"is_disabled":false,"rental_uris":{"android":"levelo://app?vid=2cdaaecc-f3f1-45ea-a338-8e3592ee7872","ios":"levelo://app?vid=2cdaaecc-f3f1-45ea-a338-8e3592ee7872"},"vehicle_type_id":"4","last_reported":1770918601,"current_range_meters":8400,"station_id":"ce4bhbh2rcd13ifvqeqg","pricing_plan_id":"cebpf4jnsgd1na2vs0mg"},{"bike_id":"a0f00b77-3668-4cb1-9cb3-dbbe136dba2b","system_id":"levelo_inurba_marseille","lat":43.255814,"lon":5.382284,"is_reserved":false,"is_disabled":false,"rental_uris":{"android":"levelo://app?vid=a0f00b77-3668-4cb1-9cb3-dbbe136dba2b","ios":"levelo://app?vid=a0f00b77-3668-4cb1-9cb3-dbbe136dba2b"},"vehicle_type_id":"4","last_reported":1770918601,"current_range_meters":8400,"station_id":"ce4bhih2rcd13ifvqfs0","pricing_plan_id":"cebpf4jnsgd1na2vs0mg"},{"bike_id":"12cd40cb-2fcd-4c1b-95d1-58d07323fb4a","system_id":"levelo_inurba_marseille","lat":43.24462,"lon":5.42531,"is_reserved":false,"is_disabled":false,"rental_uris":{"android":"levelo://app?vid=12cd40cb-2fcd-4c1b-95d1-58d07323fb4a","ios":"levelo://app?vid=12cd40cb-2fcd-4c1b-95d1-58d07323fb4a"},"vehicle_type_id":"4","last_reported":1770918601,"current_range_meters":8400,"station_id":"st_d4a3vfp97mjs738cd8kg","pricing_plan_id":"cebpf4jnsgd1na2vs0mg"},{"bike_id":"ab2b49aa-7574-41ea-aafd-20e44f598b0a","system_id":"levelo_inurba_marseille","lat":43.33155,"lon":5.37686,"is_reserved":false,"is_disabled":false,"rental_uris":{"android":"levelo://app?vid=ab2b49aa-7574-41ea-aafd-20e44f598b0a","ios":"levelo://app?vid=ab2b49aa-7574-41ea-aafd-20e44f598b0a"},"vehicle_type_id":"4","last_reported":1770918601,"current_range_meters":8400,"station_id":"st_d46cu089ee8s73dldbu0","pricing_plan_id":"cebpf4jnsgd1na2vs0mg"},{"bike_id":"32726a3c-9f83-4689-84aa-08e8377eed60","system_id":"levelo_inurba_marseille","lat":43.23784,"lon":5.36637,"is_reserved":false,"is_disabled":true,"rental_uris":{"android":"levelo://app?vid=32726a3c-9f83-4689-84aa-08e8377eed60","ios":"levelo://app?vid=32726a3c-9f83-4689-84aa-08e8377eed60"},"vehicle_type_id":"4","last_reported":1770918601,"current_range_meters":8400,"station_id":"st_d3nk18o9ro0c73en2l3g","pricing_plan_id":"cebpf4jnsgd1na2vs0mg"},{"bike_id":"51ad0198-092e-4860-b994-3420575955f1","system_id":"levelo_inurba_marseille","lat":43.22527,"lon":5.34833,"is_reserved":false,"is_disabled":false,"rental_uris":{"android":"levelo://app?vid=51ad0198-092e-4860-b994-3420575955f1","ios":"levelo://app?vid=51ad0198-092e-4860-b994-3420575955f1"},"vehicle_type_id":"4","last_reported":1770918601,"current_range_meters":8800,"station_id":"st_cvj5dfep6f1abm77gieg","pricing_plan_id":"cebpf4jnsgd1na2vs0mg"},{"bike_id":"a36a501d-66ea-4d00-b993-a3999cf54632","system_id":"levelo_inurba_marseille","lat":43.29013,"lon":5.38138,"is_reserved":false,"is_disabled":false,"rental_uris":{"android":"levelo://app?vid=a36a501d-66ea-4d00-b993-a3999cf54632","ios":"levelo://app?vid=a36a501d-66ea-4d00-b993-a3999cf54632"},"vehicle_type_id":"4","last_reported":1770918601,"current_range_meters":8800,"station_id":"ce4bh4p2rcd13ifvqe1g","pricing_plan_id":"cebpf4jnsgd1na2vs0mg"},{"bike_id":"ac52a5ce-7f7a-4b61-9f02-7e0649364a6f","system_id":"levelo_inurba_marseille","lat":43.30806,"lon":5.38155,"is_reserved":false,"is_disabled":false,"rental_uris":{"android":"levelo://app?vid=ac52a5ce-7f7a-4b61-9f02-7e0649364a6f","ios":"levelo://app?vid=ac52a5ce-7f7a-4b61-9f02-7e0649364a6f"},"vehicle_type_id":"4","last_reported":1770918601,"current_range_meters":8800,"station_id":"ce4bgt12rcd13ifvqce0","pricing_plan_id":"cebpf4jnsgd1na2vs0mg"},{"bike_id":"045d07ca-3a14-4554-9f95-0aba57d1bccf","system_id":"levelo_inurba_marseille","lat":43.25574,"lon":5.38232,"is_reserved":false,"is_disabled":false,"rental_uris":{"android":"levelo://app?vid=045d07ca-3a14-4554-9f95-0aba57d1bccf","ios":"levelo://app?vid=045d07ca-3a14-4554-9f95-0aba57d1bccf"},"vehicle_type_id":"4","last_reported":1770918601,"current_range_meters":8800,"station_id":"ce4bhih2rcd13ifvqfs0","pricing_plan_id":"cebpf4jnsgd1na2vs0mg"},{"bike_id":"6f992222-ec7a-488c-a1d3-988179372f4d","system_id":"levelo_inurba_marseille","lat":43.21743,"lon":5.34612,"is_reserved":false,"is_disabled":false,"rental_uris":{"android":"levelo://app?vid=6f992222-ec7a-488c-a1d3-988179372f4d","ios":"levelo://app?vid=6f992222-ec7a-488c-a1d3-988179372f4d"},"vehicle_type_id":"4","last_reported":1770918601,"current_range_meters":8800,"station_id":"st_cvj6r9ubvosntc0bgbag","pricing_plan_id":"cebpf4jnsgd1na2vs0mg"},{"bike_id":"7575d724-0d9c-4138-a11d-3592614c0cb1","system_id":"levelo_inurba_marseille","lat":43.26055,"lon":5.39401,"is_reserved":false,"is_disabled":false,"rental_uris":{"android":"levelo://app?vid=7575d724-0d9c-4138-a11d-3592614c0cb1","ios":"levelo://app?vid=7575d724-0d9c-4138-a11d-3592614c0cb1"},"vehicle_type_id":"4","last_reported":1770918601,"current_range_meters":8800,"station_id":"ce4bhh92rcd13ifvqfj0","pricing_plan_id":"cebpf4jnsgd1na2vs0mg"},{"bike_id":"c2f5d1a4-742e-46c9-9342-dba529c9dee7","system_id":"levelo_inurba_marseille","lat":43.31493,"lon":5.44531,"is_reserved":false,"is_disabled":false,"rental_uris":{"android":"levelo://app?vid=c2f5d1a4-742e-46c9-9342-dba529c9dee7","ios":"levelo://app?vid=c2f5d1a4-742e-46c9-9342-dba529c9dee7"},"vehicle_type_id":"4","last_reported":1770918601,"current_range_meters":8800,"station_id":"","pricing_plan_id":"cebpf4jnsgd1na2vs0mg"},{"bike_id":"9490a26f-1ee4-42a7-b4d6-589b3dd386d7","system_id":"levelo_inurba_marseille","lat":43.25107,"lon":5.40317,"is_reserved":false,"is_disabled":false,"rental_uris":{"android":"levelo://app?vid=9490a26f-1ee4-42a7-b4d6-589b3dd386d7","ios":"levelo://app?vid=9490a26f-1ee4-42a7-b4d6-589b3dd386d7"},"vehicle_type_id":"4","last_reported":1770918601,"current_range_meters":8800,"station_id":"ce4bhlh2rcd13ifvqgig","pricing_plan_id":"cebpf4jnsgd1na2vs0mg"},{"bike_id":"76ea5260-ff82-43e8-a377-4f3ddffee2c7","system_id":"levelo_inurba_marseille","lat":43.29782,"lon":5.4281,"is_reserved":false,"is_disabled":false,"rental_uris":{"android":"levelo://app?vid=76ea5260-ff82-43e8-a377-4f3ddffee2c7","ios":"levelo://app?vid=76ea5260-ff82-43e8-a377-4f3ddffee2c7"},"vehicle_type_id":"4","last_reported":1770918601,"current_range_meters":8800,"station_id":"st_d3md5207bmas73dh9klg","pricing_plan_id":"cebpf4jnsgd1na2vs0mg"},{"bike_id":"e9bc80d7-da69-4a68-8028-378da5bc11d9","system_id":"levelo_inurba_marseille","lat":43.30326,"lon":5.40441,"is_reserved":false,"is_disabled":false,"rental_uris":{"android":"levelo://app?vid=e9bc80d7-da69-4a68-8028-378da5bc11d9","ios":"levelo://app?vid=e9bc80d7-da69-4a68-8028-378da5bc11d9"},"vehicle_type_id":"4","last_reported":1770918601,"current_range_meters":8800,"station_id":"ce4bh012rcd13ifvqd10","pricing_plan_id":"cebpf4jnsgd1na2vs0mg"},{"bike_id":"92588619-48e9-4625-b507-4fd197ecde95","system_id":"levelo_inurba_marseille","lat":43.287,"lon":5.37406,"is_reserved":false,"is_disabled":false,"rental_uris":{"android":"levelo://app?vid=92588619-48e9-4625-b507-4fd197ecde95","ios":"levelo://app?vid=92588619-48e9-4625-b507-4fd197ecde95"},"vehicle_type_id":"4","last_reported":1770918601,"current_range_meters":8800,"station_id":"ce4bh3p2rcd13ifvqdq0","pricing_plan_id":"cebpf4jnsgd1na2vs0mg"},{"bike_id":"4f785b51-706d-4e6b-840d-b600485d9428","system_id":"levelo_inurba_marseille","lat":43.29788,"lon":5.38098,"is_reserved":false,"is_disabled":false,"rental_uris":{"android":"levelo://app?vid=4f785b51-706d-4e6b-840d-b600485d9428","ios":"levelo://app?vid=4f785b51-706d-4e6b-840d-b600485d9428"},"vehicle_type_id":"4","last_reported":1770918601,"current_range_meters":8800,"station_id":"ce4bgip2rcd13ifvqbb0","pricing_plan_id":"cebpf4jnsgd1na2vs0mg"},{"bike_id":"73c62504-2cd7-419b-869f-ce57dcab994c","system_id":"levelo_inurba_marseille","lat":43.29639,"lon":5.37724,"is_reserved":false,"is_disabled":false,"rental_uris":{"android":"levelo://app?vid=73c62504-2cd7-419b-869f-ce57dcab994c","ios":"levelo://app?vid=73c62504-2cd7-419b-869f-ce57dcab994c"},"vehicle_type_id":"4","last_reported":1770918601,"current_range_meters":8800,"station_id":"ce4bgi92rcd13ifvqb90","pricing_plan_id":"cebpf4jnsgd1na2vs0mg"},{"bike_id":"dcc73e7b-ae74-4d03-8773-ad68f43ead10","system_id":"levelo_inurba_marseille","lat":43.28106,"lon":5.37836,"is_reserved":false,"is_disabled":false,"rental_uris":{"android":"levelo://app?vid=dcc73e7b-ae74-4d03-8773-ad68f43ead10","ios":"levelo://app?vid=dcc73e7b-ae74-4d03-8773-ad68f43ead10"},"vehicle_type_id":"4","last_reported":1770918601,"current_range_meters":8800,"station_id":"ce4bha12rcd13ifvqee0","pricing_plan_id":"cebpf4jnsgd1na2vs0mg"},{"bike_id":"842946bd-75b3-4dae-b499-e5e2fd7aceb3","system_id":"levelo_inurba_marseille","lat":43.31696,"lon":5.4046,"is_reserved":false,"is_disabled":false,"rental_uris":{"android":"levelo://app?vid=842946bd-75b3-4dae-b499-e5e2fd7aceb3","ios":"levelo://app?vid=842946bd-75b3-4dae-b499-e5e2fd7aceb3"},"vehicle_type_id":"4","last_reported":1770918601,"current_range_meters":9200,"station_id":"ce4bh012rcd13ifvqd00","pricing_plan_id":"cebpf4jnsgd1na2vs0mg"},{"bike_id":"65aac124-f4af-40a9-969f-9b86b76af09b","system_id":"levelo_inurba_marseille","lat":43.29448,"lon":5.395761,"is_reserved":false,"is_disabled":false,"rental_uris":{"android":"levelo://app?vid=65aac124-f4af-40a9-969f-9b86b76af09b","ios":"levelo://app?vid=65aac124-f4af-40a9-969f-9b86b76af09b"},"vehicle_type_id":"4","last_reported":1770918601,"current_range_meters":9200,"station_id":"","pricing_plan_id":"cebpf4jnsgd1na2vs0mg"},{"bike_id":"806dba28-6b5b-471d-afa9-5e9335f17ebb","system_id":"levelo_inurba_marseille","lat":43.29282,"lon":5.409,"is_reserved":false,"is_disabled":true,"rental_uris":{"android":"levelo://app?vid=806dba28-6b5b-471d-afa9-5e9335f17ebb","ios":"levelo://app?vid=806dba28-6b5b-471d-afa9-5e9335f17ebb"},"vehicle_type_id":"4","last_reported":1770918601,"current_range_meters":9200,"station_id":"ce4bh192rcd13ifvqdc0","pricing_plan_id":"cebpf4jnsgd1na2vs0mg"},{"bike_id":"abce2bc2-435a-41b2-ad4b-ce66cbf18f5f","system_id":"levelo_inurba_marseille","lat":43.26206,"lon":5.3744,"is_reserved":false,"is_disabled":false,"rental_uris":{"android":"levelo://app?vid=abce2bc2-435a-41b2-ad4b-ce66cbf18f5f","ios":"levelo://app?vid=abce2bc2-435a-41b2-ad4b-ce66cbf18f5f"},"vehicle_type_id":"4","last_reported":1770918601,"current_range_meters":9200,"station_id":"ce4bhgp2rcd13ifvqfc0","pricing_plan_id":"cebpf4jnsgd1na2vs0mg"},{"bike_id":"4fabe8f2-3686-4595-b208-5b1849f1d59a","system_id":"levelo_inurba_marseille","lat":43.21746,"lon":5.34599,"is_reserved":false,"is_disabled":false,"rental_uris":{"android":"levelo://app?vid=4fabe8f2-3686-4595-b208-5b1849f1d59a","ios":"levelo://app?vid=4fabe8f2-3686-4595-b208-5b1849f1d59a"},"vehicle_type_id":"4","last_reported":1770918601,"current_range_meters":9200,"station_id":"st_cvj6r9ubvosntc0bgbag","pricing_plan_id":"cebpf4jnsgd1na2vs0mg"},{"bike_id":"1666a0e7-ccfb-4a46-816c-bd1b996f577e","system_id":"levelo_inurba_marseille","lat":43.28654,"lon":5.38389,"is_reserved":false,"is_disabled":false,"rental_uris":{"android":"levelo://app?vid=1666a0e7-ccfb-4a46-816c-bd1b996f577e","ios":"levelo://app?vid=1666a0e7-ccfb-4a46-816c-bd1b996f577e"},"vehicle_type_id":"4","last_reported":1770918601,"current_range_meters":9200,"station_id":"","pricing_plan_id":"cebpf4jnsgd1na2vs0mg"},{"bike_id":"93725e72-f70f-4719-bd45-6e8dae37f80a","system_id":"levelo_inurba_marseille","lat":43.29523,"lon":5.39031,"is_reserved":false,"is_disabled":false,"rental_uris":{"android":"levelo://app?vid=93725e72-f70f-4719-bd45-6e8dae37f80a","ios":"levelo://app?vid=93725e72-f70f-4719-bd45-6e8dae37f80a"},"vehicle_type_id":"4","last_reported":1770918601,"current_range_meters":9200,"station_id":"ce4bh3p2rcd13ifvqdp0","pricing_plan_id":"cebpf4jnsgd1na2vs0mg"},{"bike_id":"1fda2318-5942-4788-9736-e5a9eab5d456","system_id":"levelo_inurba_marseille","lat":43.261943,"lon":5.37451,"is_reserved":false,"is_disabled":false,"rental_uris":{"android":"levelo://app?vid=1fda2318-5942-4788-9736-e5a9eab5d456","ios":"levelo://app?vid=1fda2318-5942-4788-9736-e5a9eab5d456"},"vehicle_type_id":"4","last_reported":1770918601,"current_range_meters":9200,"station_id":"ce4bhgp2rcd13ifvqfc0","pricing_plan_id":"cebpf4jnsgd1na2vs0mg"},{"bike_id":"a094603f-6b66-45dc-8cf7-e15513c5be6b","system_id":"levelo_inurba_marseille","lat":43.29838,"lon":5.36269,"is_reserved":false,"is_disabled":false,"rental_uris":{"android":"levelo://app?vid=a094603f-6b66-45dc-8cf7-e15513c5be6b","ios":"levelo://app?vid=a094603f-6b66-45dc-8cf7-e15513c5be6b"},"vehicle_type_id":"4","last_reported":1770918601,"current_range_meters":9200,"station_id":"ce4bgpp2rcd13ifvqc3g","pricing_plan_id":"cebpf4jnsgd1na2vs0mg"},{"bike_id":"0270cee7-d38d-40e7-8096-229f09bfe278","system_id":"levelo_inurba_marseille","lat":43.250022,"lon":5.389245,"is_reserved":false,"is_disabled":false,"rental_uris":{"android":"levelo://app?vid=0270cee7-d38d-40e7-8096-229f09bfe278","ios":"levelo://app?vid=0270cee7-d38d-40e7-8096-229f09bfe278"},"vehicle_type_id":"4","last_reported":1770918601,"current_range_meters":9200,"station_id":"ce4bhgp2rcd13ifvqfd0","pricing_plan_id":"cebpf4jnsgd1na2vs0mg"},{"bike_id":"5e6b363c-3285-4065-aa55-8f6ad4524674","system_id":"levelo_inurba_marseille","lat":43.211973,"lon":5.350677,"is_reserved":false,"is_disabled":false,"rental_uris":{"android":"levelo://app?vid=5e6b363c-3285-4065-aa55-8f6ad4524674","ios":"levelo://app?vid=5e6b363c-3285-4065-aa55-8f6ad4524674"},"vehicle_type_id":"4","last_reported":1770918601,"current_range_meters":9200,"station_id":"st_cvj6sg6p6f1abm77japg","pricing_plan_id":"cebpf4jnsgd1na2vs0mg"},{"bike_id":"7578ca6a-41b9-4d16-80d9-987a7c1630a9","system_id":"levelo_inurba_marseille","lat":43.24644,"lon":5.38873,"is_reserved":false,"is_disabled":false,"rental_uris":{"android":"levelo://app?vid=7578ca6a-41b9-4d16-80d9-987a7c1630a9","ios":"levelo://app?vid=7578ca6a-41b9-4d16-80d9-987a7c1630a9"},"vehicle_type_id":"4","last_reported":1770918601,"current_range_meters":9200,"station_id":"ce4bhg12rcd13ifvqf60","pricing_plan_id":"cebpf4jnsgd1na2vs0mg"},{"bike_id":"b0a9a7e2-a7fb-49d4-aea9-3e28881d7edc","system_id":"levelo_inurba_marseille","lat":43.24072,"lon":5.37762,"is_reserved":false,"is_disabled":false,"rental_uris":{"android":"levelo://app?vid=b0a9a7e2-a7fb-49d4-aea9-3e28881d7edc","ios":"levelo://app?vid=b0a9a7e2-a7fb-49d4-aea9-3e28881d7edc"},"vehicle_type_id":"4","last_reported":1770918601,"current_range_meters":9200,"station_id":"ce4bhnp2rcd13ifvqgvg","pricing_plan_id":"cebpf4jnsgd1na2vs0mg"},{"bike_id":"734e9e76-6634-4c7b-9538-92de58de1426","system_id":"levelo_inurba_marseille","lat":43.29279,"lon":5.38441,"is_reserved":false,"is_disabled":false,"rental_uris":{"android":"levelo://app?vid=734e9e76-6634-4c7b-9538-92de58de1426","ios":"levelo://app?vid=734e9e76-6634-4c7b-9538-92de58de1426"},"vehicle_type_id":"4","last_reported":1770918601,"current_range_meters":9200,"station_id":"ce4bh692rcd13ifvqea0","pricing_plan_id":"cebpf4jnsgd1na2vs0mg"},{"bike_id":"300bd048-5059-4d92-acd1-4068b19629fb","system_id":"levelo_inurba_marseille","lat":43.2685,"lon":5.40672,"is_reserved":false,"is_disabled":false,"rental_uris":{"android":"levelo://app?vid=300bd048-5059-4d92-acd1-4068b19629fb","ios":"levelo://app?vid=300bd048-5059-4d92-acd1-4068b19629fb"},"vehicle_type_id":"4","last_reported":1770918601,"current_range_meters":9200,"station_id":"","pricing_plan_id":"cebpf4jnsgd1na2vs0mg"},{"bike_id":"fb9805e1-9a80-4d67-9ae0-f372d8da2f42","system_id":"levelo_inurba_marseille","lat":43.31499,"lon":5.43913,"is_reserved":false,"is_disabled":false,"rental_uris":{"android":"levelo://app?vid=fb9805e1-9a80-4d67-9ae0-f372d8da2f42","ios":"levelo://app?vid=fb9805e1-9a80-4d67-9ae0-f372d8da2f42"},"vehicle_type_id":"4","last_reported":1770918601,"current_range_meters":9200,"station_id":"","pricing_plan_id":"cebpf4jnsgd1na2vs0mg"},{"bike_id":"45237fac-2b63-4cb5-9822-d1c3cd2a94c4","system_id":"levelo_inurba_marseille","lat":43.31423,"lon":5.40297,"is_reserved":false,"is_disabled":false,"rental_uris":{"android":"levelo://app?vid=45237fac-2b63-4cb5-9822-d1c3cd2a94c4","ios":"levelo://app?vid=45237fac-2b63-4cb5-9822-d1c3cd2a94c4"},"vehicle_type_id":"4","last_reported":1770918601,"current_range_meters":9200,"station_id":"","pricing_plan_id":"cebpf4jnsgd1na2vs0mg"},{"bike_id":"b2cbcb77-d124-40b9-94e0-3f6323d9ab6c","system_id":"levelo_inurba_marseille","lat":43.31281,"lon":5.40159,"is_reserved":false,"is_disabled":false,"rental_uris":{"android":"levelo://app?vid=b2cbcb77-d124-40b9-94e0-3f6323d9ab6c","ios":"levelo://app?vid=b2cbcb77-d124-40b9-94e0-3f6323d9ab6c"},"vehicle_type_id":"4","last_reported":1770918601,"current_range_meters":9600,"station_id":"ce4bh092rcd13ifvqd30","pricing_plan_id":"cebpf4jnsgd1na2vs0mg"},{"bike_id":"cae3340b-dabf-42ee-b29f-fab64d3e6b2c","system_id":"levelo_inurba_marseille","lat":43.24085,"lon":5.37749,"is_reserved":false,"is_disabled":false,"rental_uris":{"android":"levelo://app?vid=cae3340b-dabf-42ee-b29f-fab64d3e6b2c","ios":"levelo://app?vid=cae3340b-dabf-42ee-b29f-fab64d3e6b2c"},"vehicle_type_id":"4","last_reported":1770918601,"current_range_meters":9600,"station_id":"ce4bhnp2rcd13ifvqgvg","pricing_plan_id":"cebpf4jnsgd1na2vs0mg"},{"bike_id":"014613de-69aa-4aca-9291-67750cce2e69","system_id":"levelo_inurba_marseille","lat":43.28491,"lon":5.48381,"is_reserved":false,"is_disabled":false,"rental_uris":{"android":"levelo://app?vid=014613de-69aa-4aca-9291-67750cce2e69","ios":"levelo://app?vid=014613de-69aa-4aca-9291-67750cce2e69"},"vehicle_type_id":"4","last_reported":1770918601,"current_range_meters":9600,"station_id":"","pricing_plan_id":"cebpf4jnsgd1na2vs0mg"},{"bike_id":"2371def1-989e-4f10-9583-8a26ad076153","system_id":"levelo_inurba_marseille","lat":43.28402,"lon":5.37485,"is_reserved":false,"is_disabled":false,"rental_uris":{"android":"levelo://app?vid=2371def1-989e-4f10-9583-8a26ad076153","ios":"levelo://app?vid=2371def1-989e-4f10-9583-8a26ad076153"},"vehicle_type_id":"4","last_reported":1770918601,"current_range_meters":9600,"station_id":"ce4bh412rcd13ifvqds0","pricing_plan_id":"cebpf4jnsgd1na2vs0mg"},{"bike_id":"b39ba1aa-7b31-4368-898e-d2ae177a7edd","system_id":"levelo_inurba_marseille","lat":43.26539,"lon":5.37298,"is_reserved":false,"is_disabled":false,"rental_uris":{"android":"levelo://app?vid=b39ba1aa-7b31-4368-898e-d2ae177a7edd","ios":"levelo://app?vid=b39ba1aa-7b31-4368-898e-d2ae177a7edd"},"vehicle_type_id":"4","last_reported":1770918601,"current_range_meters":9600,"station_id":"ce4bhg12rcd13ifvqf70","pricing_plan_id":"cebpf4jnsgd1na2vs0mg"},{"bike_id":"bbf76c20-722d-4091-93ed-579710f24304","system_id":"levelo_inurba_marseille","lat":43.24387,"lon":5.37058,"is_reserved":false,"is_disabled":false,"rental_uris":{"android":"levelo://app?vid=bbf76c20-722d-4091-93ed-579710f24304","ios":"levelo://app?vid=bbf76c20-722d-4091-93ed-579710f24304"},"vehicle_type_id":"4","last_reported":1770918601,"current_range_meters":9600,"station_id":"ce4bhhh2rcd13ifvqfk0","pricing_plan_id":"cebpf4jnsgd1na2vs0mg"},{"bike_id":"71a49fd3-35c5-47b0-9364-fe0fe8285ced","system_id":"levelo_inurba_marseille","lat":43.2319,"lon":5.39984,"is_reserved":false,"is_disabled":false,"rental_uris":{"android":"levelo://app?vid=71a49fd3-35c5-47b0-9364-fe0fe8285ced","ios":"levelo://app?vid=71a49fd3-35c5-47b0-9364-fe0fe8285ced"},"vehicle_type_id":"4","last_reported":1770918601,"current_range_meters":9600,"station_id":"ce4bhn12rcd13ifvqgqg","pricing_plan_id":"cebpf4jnsgd1na2vs0mg"},{"bike_id":"a2290f60-f9d0-4b5d-9718-a438128d3b89","system_id":"levelo_inurba_marseille","lat":43.26548,"lon":5.37287,"is_reserved":false,"is_disabled":false,"rental_uris":{"android":"levelo://app?vid=a2290f60-f9d0-4b5d-9718-a438128d3b89","ios":"levelo://app?vid=a2290f60-f9d0-4b5d-9718-a438128d3b89"},"vehicle_type_id":"4","last_reported":1770918601,"current_range_meters":9600,"station_id":"ce4bhg12rcd13ifvqf70","pricing_plan_id":"cebpf4jnsgd1na2vs0mg"},{"bike_id":"2f1de842-3422-4371-b8a9-3ba6bbfc7f42","system_id":"levelo_inurba_marseille","lat":43.2861,"lon":5.37059,"is_reserved":false,"is_disabled":false,"rental_uris":{"android":"levelo://app?vid=2f1de842-3422-4371-b8a9-3ba6bbfc7f42","ios":"levelo://app?vid=2f1de842-3422-4371-b8a9-3ba6bbfc7f42"},"vehicle_type_id":"4","last_reported":1770918601,"current_range_meters":9600,"station_id":"ce4bht12rcd13ifvqi60","pricing_plan_id":"cebpf4jnsgd1na2vs0mg"},{"bike_id":"9ce3ef11-b923-4e36-8ae4-66b5075536aa","system_id":"levelo_inurba_marseille","lat":43.23131,"lon":5.43726,"is_reserved":false,"is_disabled":false,"rental_uris":{"android":"levelo://app?vid=9ce3ef11-b923-4e36-8ae4-66b5075536aa","ios":"levelo://app?vid=9ce3ef11-b923-4e36-8ae4-66b5075536aa"},"vehicle_type_id":"4","last_reported":1770918601,"current_range_meters":9600,"station_id":"ce4bhmp2rcd13ifvqgog","pricing_plan_id":"cebpf4jnsgd1na2vs0mg"},{"bike_id":"410684d1-9bfb-4d62-af7a-b3a54dec4491","system_id":"levelo_inurba_marseille","lat":43.29019,"lon":5.38644,"is_reserved":false,"is_disabled":false,"rental_uris":{"android":"levelo://app?vid=410684d1-9bfb-4d62-af7a-b3a54dec4491","ios":"levelo://app?vid=410684d1-9bfb-4d62-af7a-b3a54dec4491"},"vehicle_type_id":"4","last_reported":1770918601,"current_range_meters":9600,"station_id":"ce4bh4p2rcd13ifvqe0g","pricing_plan_id":"cebpf4jnsgd1na2vs0mg"},{"bike_id":"3d7064d4-06a6-4949-90cc-67a4c36d4bb7","system_id":"levelo_inurba_marseille","lat":43.30462,"lon":5.37905,"is_reserved":false,"is_disabled":false,"rental_uris":{"android":"levelo://app?vid=3d7064d4-06a6-4949-90cc-67a4c36d4bb7","ios":"levelo://app?vid=3d7064d4-06a6-4949-90cc-67a4c36d4bb7"},"vehicle_type_id":"4","last_reported":1770918601,"current_range_meters":9600,"station_id":"ce4bgup2rcd13ifvqcn0","pricing_plan_id":"cebpf4jnsgd1na2vs0mg"},{"bike_id":"8b6c6055-11c8-47ef-a755-295c17d6052d","system_id":"levelo_inurba_marseille","lat":43.28151,"lon":5.42643,"is_reserved":false,"is_disabled":false,"rental_uris":{"android":"levelo://app?vid=8b6c6055-11c8-47ef-a755-295c17d6052d","ios":"levelo://app?vid=8b6c6055-11c8-47ef-a755-295c17d6052d"},"vehicle_type_id":"4","last_reported":1770918601,"current_range_meters":9600,"station_id":"ce4bhnh2rcd13ifvqgug","pricing_plan_id":"cebpf4jnsgd1na2vs0mg"},{"bike_id":"2de5dc27-fdb2-44e2-93e3-9837b9b9ac42","system_id":"levelo_inurba_marseille","lat":43.29548,"lon":5.38538,"is_reserved":false,"is_disabled":false,"rental_uris":{"android":"levelo://app?vid=2de5dc27-fdb2-44e2-93e3-9837b9b9ac42","ios":"levelo://app?vid=2de5dc27-fdb2-44e2-93e3-9837b9b9ac42"},"vehicle_type_id":"4","last_reported":1770918601,"current_range_meters":9600,"station_id":"ce4bgih2rcd13ifvqba0","pricing_plan_id":"cebpf4jnsgd1na2vs0mg"},{"bike_id":"8b9dda30-a538-4c56-8057-4354e193017c","system_id":"levelo_inurba_marseille","lat":43.29225,"lon":5.3604,"is_reserved":false,"is_disabled":false,"rental_uris":{"android":"levelo://app?vid=8b9dda30-a538-4c56-8057-4354e193017c","ios":"levelo://app?vid=8b9dda30-a538-4c56-8057-4354e193017c"},"vehicle_type_id":"4","last_reported":1770918601,"current_range_meters":9600,"station_id":"ce4bhbh2rcd13ifvqeqg","pricing_plan_id":"cebpf4jnsgd1na2vs0mg"},{"bike_id":"6f99a1ca-f27b-4f97-8757-369d652d64d0","system_id":"levelo_inurba_marseille","lat":43.27946,"lon":5.41043,"is_reserved":false,"is_disabled":false,"rental_uris":{"android":"levelo://app?vid=6f99a1ca-f27b-4f97-8757-369d652d64d0","ios":"levelo://app?vid=6f99a1ca-f27b-4f97-8757-369d652d64d0"},"vehicle_type_id":"4","last_reported":1770918601,"current_range_meters":9600,"station_id":"ce4bhnp2rcd13ifvqh0g","pricing_plan_id":"cebpf4jnsgd1na2vs0mg"},{"bike_id":"0306c95f-f529-44ab-b08d-8558da05b6c6","system_id":"levelo_inurba_marseille","lat":43.25333,"lon":5.42162,"is_reserved":false,"is_disabled":false,"rental_uris":{"android":"levelo://app?vid=0306c95f-f529-44ab-b08d-8558da05b6c6","ios":"levelo://app?vid=0306c95f-f529-44ab-b08d-8558da05b6c6"},"vehicle_type_id":"4","last_reported":1770918601,"current_range_meters":9600,"station_id":"st_d2m65c5bi1j21697t3ng","pricing_plan_id":"cebpf4jnsgd1na2vs0mg"},{"bike_id":"541be48f-052c-4583-a059-09a102eff348","system_id":"levelo_inurba_marseille","lat":43.29722,"lon":5.36606,"is_reserved":false,"is_disabled":false,"rental_uris":{"android":"levelo://app?vid=541be48f-052c-4583-a059-09a102eff348","ios":"levelo://app?vid=541be48f-052c-4583-a059-09a102eff348"},"vehicle_type_id":"4","last_reported":1770918601,"current_range_meters":9600,"station_id":"ce4bgn12rcd13ifvqbt0","pricing_plan_id":"cebpf4jnsgd1na2vs0mg"},