{"last_updated":1730614406,"ttl":60,"version":"2.2","data":{"bikes":[{"bike_id":"daa5500f-6039-4d77-bf02-00710b3acec6","system_id":"levelo_inurba_marseille","lat":43.25937,"lon":5.40915,"is_reserved":false,"is_disabled":false,"rental_uris":{"android":"levelo://app?vid=daa5500f-6039-4d77-bf02-00710b3acec6","ios":"levelo://app?vid=daa5500f-6039-4d77-bf02-00710b3acec6"},"vehicle_type_id":"4","last_reported":1730614406,"current_range_meters":6800,"station_id":"ce4bhm92rcd13ifvqglg","pricing_plan_id":"cebpf4jnsgd1na2vs0mg"},{"bike_id":"2acfc2b2-8dbb-4e8e-88cd-56d90f75bbc8","system_id":"levelo_inurba_marseille","lat":43.27808,"lon":5.40752,"is_reserved":false,"is_disabled":false,"rental_uris":{"android":"levelo://app?vid=2acfc2b2-8dbb-4e8e-88cd-56d90f75bbc8","ios":"levelo://app?vid=2acfc2b2-8dbb-4e8e-88cd-56d90f75bbc8"},"vehicle_type_id":"4","last_reported":1730614406,"current_range_meters":38800,"station_id":"ce4bhnh2rcd13ifvqgtg","pricing_plan_id":"cebpf4jnsgd1na2vs0mg"},{"bike_id":"b2208492-3a90-45d4-9964-766200fbca1d","system_id":"levelo_inurba_marseille","lat":43.30599,"lon":5.37226,"is_reserved":false,"is_disabled":false,"rental_uris":{"android":"levelo://app?vid=b2208492-3a90-45d4-9964-766200fbca1d","ios":"levelo://app?vid=b2208492-3a90-45d4-9964-766200fbca1d"},"vehicle_type_id":"4","last_reported":1730614406,"current_range_meters":36800,"station_id":"ce4bgqh2rcd13ifvqc4g","pricing_plan_id":"cebpf4jnsgd1na2vs0mg"},{"bike_id":"5662c3ec-16ac-4646-ad92-7b800105b64d","system_id":"levelo_inurba_marseille","lat":43.2511,"lon":5.40333,"is_reserved":false,"is_disabled":false,"rental_uris":{"android":"levelo://app?vid=5662c3ec-16ac-4646-ad92-7b800105b64d","ios":"levelo://app?vid=5662c3ec-16ac-4646-ad92-7b800105b64d"},"vehicle_type_id":"4","last_reported":1730614406,"current_range_meters":8000,"station_id":"ce4bhlh2rcd13ifvqgig","pricing_plan_id":"cebpf4jnsgd1na2vs0mg"},{"bike_id":"ef905ccb-094d-49fd-89b7-9c270a631138","system_id":"levelo_inurba_marseille","lat":43.30254,"lon":5.40059,"is_reserved":false,"is_disabled":false,"rental_uris":{"android":"levelo://app?vid=ef905ccb-094d-49fd-89b7-9c270a631138","ios":"levelo://app?vid=ef905ccb-094d-49fd-89b7-9c270a631138"},"vehicle_type_id":"4","last_reported":1730614406,"current_range_meters":31200,"station_id":"ce4bgvh2rcd13ifvqcs0","pricing_plan_id":"cebpf4jnsgd1na2vs0mg"},{"bike_id":"c9135176-387e-46e9-a941-0ebcd8259ed9","system_id":"levelo_inurba_marseille","lat":43.29253,"lon":5.40914,"is_reserved":false,"is_disabled":false,"rental_uris":{"android":"levelo://app?vid=c9135176-387e-46e9-a941-0ebcd8259ed9","ios":"levelo://app?vid=c9135176-387e-46e9-a941-0ebcd8259ed9"},"vehicle_type_id":"4","last_reported":1730614406,"current_range_meters":32000,"station_id":"ce4bh192rcd13ifvqdc0","pricing_plan_id":"cebpf4jnsgd1na2vs0mg"},{"bike_id":"4c6246a4-6094-437e-8304-0ef2ce800373","system_id":"levelo_inurba_marseille","lat":43.26196,"lon":5.3745,"is_reserved":false,"is_disabled":false,"rental_uris":{"android":"levelo://app?vid=4c6246a4-6094-437e-8304-0ef2ce800373","ios":"levelo://app?vid=4c6246a4-6094-437e-8304-0ef2ce800373"},"vehicle_type_id":"4","last_reported":1730614406,"current_range_meters":38800,"station_id":"ce4bhgp2rcd13ifvqfc0","pricing_plan_id":"cebpf4jnsgd1na2vs0mg"},{"bike_id":"28aa8fa8-f63b-4178-8926-c2a33a53a040","system_id":"levelo_inurba_marseille","lat":43.28458,"lon":5.35887,"is_reserved":false,"is_disabled":false,"rental_uris":{"android":"levelo://app?vid=28aa8fa8-f63b-4178-8926-c2a33a53a040","ios":"levelo://app?vid=28aa8fa8-f63b-4178-8926-c2a33a53a040"},"vehicle_type_id":"4","last_reported":1730614406,"current_range_meters":37600,"station_id":"ce4bhah2rcd13ifvqei0","pricing_plan_id":"cebpf4jnsgd1na2vs0mg"},{"bike_id":"d8474b11-3da8-4703-9e3c-f7203eda963e","system_id":"levelo_inurba_marseille","lat":43.29453,"lon":5.39753,"is_reserved":false,"is_disabled":false,"rental_uris":{"android":"levelo://app?vid=d8474b11-3da8-4703-9e3c-f7203eda963e","ios":"levelo://app?vid=d8474b11-3da8-4703-9e3c-f7203eda963e"},"vehicle_type_id":"4","last_reported":1730614406,"current_range_meters":34000,"station_id":"ce4bh3h2rcd13ifvqdo0","pricing_plan_id":"cebpf4jnsgd1na2vs0mg"},{"bike_id":"f09a2e3e-a687-4ccb-9ce7-accc19389448","system_id":"levelo_inurba_marseille","lat":43.239624,"lon":5.366293,"is_reserved":false,"is_disabled":false,"rental_uris":{"android":"levelo://app?vid=f09a2e3e-a687-4ccb-9ce7-accc19389448","ios":"levelo://app?vid=f09a2e3e-a687-4ccb-9ce7-accc19389448"},"vehicle_type_id":"4","last_reported":1730614406,"current_range_meters":38800,"station_id":"ce4bhi12rcd13ifvqfp0","pricing_plan_id":"cebpf4jnsgd1na2vs0mg"},{"bike_id":"3b142ed8-dad4-4c8e-8ee5-2ab75f6954b3","system_id":"levelo_inurba_marseille","lat":43.28441,"lon":5.39189,"is_reserved":false,"is_disabled":false,"rental_uris":{"android":"levelo://app?vid=3b142ed8-dad4-4c8e-8ee5-2ab75f6954b3","ios":"levelo://app?vid=3b142ed8-dad4-4c8e-8ee5-2ab75f6954b3"},"vehicle_type_id":"4","last_reported":1730614406,"current_range_meters":30400,"station_id":"ce4bhoh2rcd13ifvqh5g","pricing_plan_id":"cebpf4jnsgd1na2vs0mg"},{"bike_id":"c8510f52-755d-4904-97e5-da8d5e0f4e03","system_id":"levelo_inurba_marseille","lat":43.28938,"lon":5.36395,"is_reserved":false,"is_disabled":false,"rental_uris":{"android":"levelo://app?vid=c8510f52-755d-4904-97e5-da8d5e0f4e03","ios":"levelo://app?vid=c8510f52-755d-4904-97e5-da8d5e0f4e03"},"vehicle_type_id":"4","last_reported":1730614406,"current_range_meters":25200,"station_id":"ce4bhc92rcd13ifvqetg","pricing_plan_id":"cebpf4jnsgd1na2vs0mg"},{"bike_id":"578eb1da-bafd-4680-a32e-1e17baa994e5","system_id":"levelo_inurba_marseille","lat":43.2792,"lon":5.39588,"is_reserved":false,"is_disabled":false,"rental_uris":{"android":"levelo://app?vid=578eb1da-bafd-4680-a32e-1e17baa994e5","ios":"levelo://app?vid=578eb1da-bafd-4680-a32e-1e17baa994e5"},"vehicle_type_id":"4","last_reported":1730614406,"current_range_meters":30000,"station_id":"ce4bhf92rcd13ifvqf40","pricing_plan_id":"cebpf4jnsgd1na2vs0mg"},{"bike_id":"463a5fa2-247f-46f7-a9ca-b55d6029c4c8","system_id":"levelo_inurba_marseille","lat":43.275016,"lon":5.424496,"is_reserved":false,"is_disabled":false,"rental_uris":{"android":"levelo://app?vid=463a5fa2-247f-46f7-a9ca-b55d6029c4c8","ios":"levelo://app?vid=463a5fa2-247f-46f7-a9ca-b55d6029c4c8"},"vehicle_type_id":"4","last_reported":1730614406,"current_range_meters":38800,"station_id":"ce4bhn92rcd13ifvqgrg","pricing_plan_id":"cebpf4jnsgd1na2vs0mg"},{"bike_id":"70d0eb74-7e1e-429b-809a-299b75aad810","system_id":"levelo_inurba_marseille","lat":43.27559,"lon":5.38435,"is_reserved":false,"is_disabled":false,"rental_uris":{"android":"levelo://app?vid=70d0eb74-7e1e-429b-809a-299b75aad810","ios":"levelo://app?vid=70d0eb74-7e1e-429b-809a-299b75aad810"},"vehicle_type_id":"4","last_reported":1730614406,"current_range_meters":32800,"station_id":"ce4bhh92rcd13ifvqfi0","pricing_plan_id":"cebpf4jnsgd1na2vs0mg"},{"bike_id":"349640ab-a259-4535-8677-fa1a5c63992f","system_id":"levelo_inurba_marseille","lat":43.31069,"lon":5.38346,"is_reserved":false,"is_disabled":false,"rental_uris":{"android":"levelo://app?vid=349640ab-a259-4535-8677-fa1a5c63992f","ios":"levelo://app?vid=349640ab-a259-4535-8677-fa1a5c63992f"},"vehicle_type_id":"4","last_reported":1730614406,"current_range_meters":22800,"station_id":"ce4bgv92rcd13ifvqcr0","pricing_plan_id":"cebpf4jnsgd1na2vs0mg"},{"bike_id":"e144e1df-d688-47fd-b9b8-8449f8de3b99","system_id":"levelo_inurba_marseille","lat":43.28933,"lon":5.36402,"is_reserved":false,"is_disabled":false,"rental_uris":{"android":"levelo://app?vid=e144e1df-d688-47fd-b9b8-8449f8de3b99","ios":"levelo://app?vid=e144e1df-d688-47fd-b9b8-8449f8de3b99"},"vehicle_type_id":"4","last_reported":1730614406,"current_range_meters":34800,"station_id":"ce4bhc92rcd13ifvqetg","pricing_plan_id":"cebpf4jnsgd1na2vs0mg"},{"bike_id":"7c742342-036e-4e20-af2f-732ff5eef3fe","system_id":"levelo_inurba_marseille","lat":43.306,"lon":5.37222,"is_reserved":false,"is_disabled":false,"rental_uris":{"android":"levelo://app?vid=7c742342-036e-4e20-af2f-732ff5eef3fe","ios":"levelo://app?vid=7c742342-036e-4e20-af2f-732ff5eef3fe"},"vehicle_type_id":"4","last_reported":1730614406,"current_range_meters":39200,"station_id":"ce4bgqh2rcd13ifvqc4g","pricing_plan_id":"cebpf4jnsgd1na2vs0mg"},{"bike_id":"16869cb2-a83c-40e2-9d7b-80e1114c2015","system_id":"levelo_inurba_marseille","lat":43.22921,"lon":5.35379,"is_reserved":false,"is_disabled":false,"rental_uris":{"android":"levelo://app?vid=16869cb2-a83c-40e2-9d7b-80e1114c2015","ios":"levelo://app?vid=16869cb2-a83c-40e2-9d7b-80e1114c2015"},"vehicle_type_id":"4","last_reported":1730614406,"current_range_meters":38400,"station_id":"cpo3532slgdg3j2ikp40","pricing_plan_id":"cebpf4jnsgd1na2vs0mg"},{"bike_id":"5818a6ac-2d40-4bf0-a920-aefa2e8a89fa","system_id":"levelo_inurba_marseille","lat":43.2649,"lon":5.39549,"is_reserved":false,"is_disabled":false,"rental_uris":{"android":"levelo://app?vid=5818a6ac-2d40-4bf0-a920-aefa2e8a89fa","ios":"levelo://app?vid=5818a6ac-2d40-4bf0-a920-aefa2e8a89fa"},"vehicle_type_id":"4","last_reported":1730614406,"current_range_meters":25200,"station_id":"ce4bhi12rcd13ifvqfq0","pricing_plan_id":"cebpf4jnsgd1na2vs0mg"},{"bike_id":"19635d09-a8d1-4f0d-8934-de2bc8e9e9f6","system_id":"levelo_inurba_marseille","lat":43.28354,"lon":5.3811,"is_reserved":false,"is_disabled":false,"rental_uris":{"android":"levelo://app?vid=19635d09-a8d1-4f0d-8934-de2bc8e9e9f6","ios":"levelo://app?vid=19635d09-a8d1-4f0d-8934-de2bc8e9e9f6"},"vehicle_type_id":"4","last_reported":1730614406,"current_range_meters":39200,"station_id":"ce4bh412rcd13ifvqdr0","pricing_plan_id":"cebpf4jnsgd1na2vs0mg"},{"bike_id":"ca24fe88-b330-4350-a8e2-62306e0ea695","system_id":"levelo_inurba_marseille","lat":43.270538,"lon":5.402609,"is_reserved":false,"is_disabled":false,"rental_uris":{"android":"levelo://app?vid=ca24fe88-b330-4350-a8e2-62306e0ea695","ios":"levelo://app?vid=ca24fe88-b330-4350-a8e2-62306e0ea695"},"vehicle_type_id":"4","last_reported":1730614406,"current_range_meters":7200,"station_id":"ce4bhk92rcd13ifvqgc0","pricing_plan_id":"cebpf4jnsgd1na2vs0mg"},{"bike_id":"0972dff4-0ffd-444a-9b01-c65e8bd02fda","system_id":"levelo_inurba_marseille","lat":43.26655,"lon":5.42532,"is_reserved":false,"is_disabled":false,"rental_uris":{"android":"levelo://app?vid=0972dff4-0ffd-444a-9b01-c65e8bd02fda","ios":"levelo://app?vid=0972dff4-0ffd-444a-9b01-c65e8bd02fda"},"vehicle_type_id":"4","last_reported":1730614406,"current_range_meters":2000,"station_id":"","pricing_plan_id":"cebpf4jnsgd1na2vs0mg"},{"bike_id":"3aae935e-f19b-4b82-860a-9e86c4796487","system_id":"levelo_inurba_marseille","lat":43.25863,"lon":5.39898,"is_reserved":false,"is_disabled":false,"rental_uris":{"android":"levelo://app?vid=3aae935e-f19b-4b82-860a-9e86c4796487","ios":"levelo://app?vid=3aae935e-f19b-4b82-860a-9e86c4796487"},"vehicle_type_id":"4","last_reported":1730614406,"current_range_meters":6400,"station_id":"ce4bhl92rcd13ifvqghg","pricing_plan_id":"cebpf4jnsgd1na2vs0mg"},{"bike_id":"09cd329c-1fa7-4b20-a274-2cdef2d8cd4f","system_id":"levelo_inurba_marseille","lat":43.24073,"lon":5.37756,"is_reserved":false,"is_disabled":false,"rental_uris":{"android":"levelo://app?vid=09cd329c-1fa7-4b20-a274-2cdef2d8cd4f","ios":"levelo://app?vid=09cd329c-1fa7-4b20-a274-2cdef2d8cd4f"},"vehicle_type_id":"4","last_reported":1730614406,"current_range_meters":38400,"station_id":"ce4bhnp2rcd13ifvqgvg","pricing_plan_id":"cebpf4jnsgd1na2vs0mg"},{"bike_id":"60b1bb62-9591-4289-b228-572329c85e90","system_id":"levelo_inurba_marseille","lat":43.30251,"lon":5.40061,"is_reserved":false,"is_disabled":false,"rental_uris":{"android":"levelo://app?vid=60b1bb62-9591-4289-b228-572329c85e90","ios":"levelo://app?vid=60b1bb62-9591-4289-b228-572329c85e90"},"vehicle_type_id":"4","last_reported":1730614406,"current_range_meters":19200,"station_id":"ce4bgvh2rcd13ifvqcs0","pricing_plan_id":"cebpf4jnsgd1na2vs0mg"},{"bike_id":"750ef8cf-4e1b-4907-b457-aebbb2bb1456","system_id":"levelo_inurba_marseille","lat":43.26944,"lon":5.40257,"is_reserved":false,"is_disabled":false,"rental_uris":{"android":"levelo://app?vid=750ef8cf-4e1b-4907-b457-aebbb2bb1456","ios":"levelo://app?vid=750ef8cf-4e1b-4907-b457-aebbb2bb1456"},"vehicle_type_id":"4","last_reported":1730614406,"current_range_meters":31200,"station_id":"cjm6bp8fraef2m0cb0m0","pricing_plan_id":"cebpf4jnsgd1na2vs0mg"},{"bike_id":"3c330f08-508b-4866-b688-f0374209e3dc","system_id":"levelo_inurba_marseille","lat":43.25115,"lon":5.40328,"is_reserved":false,"is_disabled":false,"rental_uris":{"android":"levelo://app?vid=3c330f08-508b-4866-b688-f0374209e3dc","ios":"levelo://app?vid=3c330f08-508b-4866-b688-f0374209e3dc"},"vehicle_type_id":"4","last_reported":1730614406,"current_range_meters":16000,"station_id":"ce4bhlh2rcd13ifvqgig","pricing_plan_id":"cebpf4jnsgd1na2vs0mg"},{"bike_id":"4147bbfb-4b14-4aca-b782-8ec6c0473609","system_id":"levelo_inurba_marseille","lat":43.23595,"lon":5.40352,"is_reserved":false,"is_disabled":false,"rental_uris":{"android":"levelo://app?vid=4147bbfb-4b14-4aca-b782-8ec6c0473609","ios":"levelo://app?vid=4147bbfb-4b14-4aca-b782-8ec6c0473609"},"vehicle_type_id":"4","last_reported":1730614406,"current_range_meters":23200,"station_id":"","pricing_plan_id":"cebpf4jnsgd1na2vs0mg"},{"bike_id":"956cb6c1-438b-4ad7-b1b1-07747e6b225a","system_id":"levelo_inurba_marseille","lat":43.29194,"lon":5.39315,"is_reserved":false,"is_disabled":false,"rental_uris":{"android":"levelo://app?vid=956cb6c1-438b-4ad7-b1b1-07747e6b225a","ios":"levelo://app?vid=956cb6c1-438b-4ad7-b1b1-07747e6b225a"},"vehicle_type_id":"4","last_reported":1730614406,"current_range_meters":28000,"station_id":"ce4bh192rcd13ifvqdd0","pricing_plan_id":"cebpf4jnsgd1na2vs0mg"},{"bike_id":"544023ec-9270-4974-8448-54ce637c9af0","system_id":"levelo_inurba_marseille","lat":43.28847,"lon":5.35842,"is_reserved":false,"is_disabled":false,"rental_uris":{"android":"levelo://app?vid=544023ec-9270-4974-8448-54ce637c9af0","ios":"levelo://app?vid=544023ec-9270-4974-8448-54ce637c9af0"},"vehicle_type_id":"4","last_reported":1730614406,"current_range_meters":38800,"station_id":"ce4bhb12rcd13ifvqem0","pricing_plan_id":"cebpf4jnsgd1na2vs0mg"},{"bike_id":"aef0d4b4-5890-451a-9605-60648a0744d1","system_id":"levelo_inurba_marseille","lat":43.33025,"lon":5.39053,"is_reserved":false,"is_disabled":false,"rental_uris":{"android":"levelo://app?vid=aef0d4b4-5890-451a-9605-60648a0744d1","ios":"levelo://app?vid=aef0d4b4-5890-451a-9605-60648a0744d1"},"vehicle_type_id":"4","last_reported":1730614406,"current_range_meters":25200,"station_id":"ce4bhr92rcd13ifvqhrg","pricing_plan_id":"cebpf4jnsgd1na2vs0mg"},{"bike_id":"22cb7bf5-d924-4c42-b792-42240584238f","system_id":"levelo_inurba_marseille","lat":43.23153,"lon":5.43724,"is_reserved":false,"is_disabled":false,"rental_uris":{"android":"levelo://app?vid=22cb7bf5-d924-4c42-b792-42240584238f","ios":"levelo://app?vid=22cb7bf5-d924-4c42-b792-42240584238f"},"vehicle_type_id":"4","last_reported":1730614406,"current_range_meters":37600,"station_id":"ce4bhmp2rcd13ifvqgog","pricing_plan_id":"cebpf4jnsgd1na2vs0mg"},{"bike_id":"f3644f25-acbb-49ac-ab9c-e91b11f01fa4","system_id":"levelo_inurba_marseille","lat":43.25867,"lon":5.39904,"is_reserved":false,"is_disabled":false,"rental_uris":{"android":"levelo://app?vid=f3644f25-acbb-49ac-ab9c-e91b11f01fa4","ios":"levelo://app?vid=f3644f25-acbb-49ac-ab9c-e91b11f01fa4"},"vehicle_type_id":"4","last_reported":1730614406,"current_range_meters":27200,"station_id":"ce4bhl92rcd13ifvqghg","pricing_plan_id":"cebpf4jnsgd1na2vs0mg"},{"bike_id":"eeda0a49-c95e-447a-b118-263faeb6a58f","system_id":"levelo_inurba_marseille","lat":43.3145,"lon":5.37391,"is_reserved":false,"is_disabled":false,"rental_uris":{"android":"levelo://app?vid=eeda0a49-c95e-447a-b118-263faeb6a58f","ios":"levelo://app?vid=eeda0a49-c95e-447a-b118-263faeb6a58f"},"vehicle_type_id":"4","last_reported":1730614406,"current_range_meters":16800,"station_id":"","pricing_plan_id":"cebpf4jnsgd1na2vs0mg"},{"bike_id":"027401ef-440e-4512-8a98-114934251273","system_id":"levelo_inurba_marseille","lat":43.27059,"lon":5.40265,"is_reserved":false,"is_disabled":false,"rental_uris":{"android":"levelo://app?vid=027401ef-440e-4512-8a98-114934251273","ios":"levelo://app?vid=027401ef-440e-4512-8a98-114934251273"},"vehicle_type_id":"4","last_reported":1730614406,"current_range_meters":28800,"station_id":"ce4bhk92rcd13ifvqgc0","pricing_plan_id":"cebpf4jnsgd1na2vs0mg"},{"bike_id":"b3e3d2fe-c276-4883-af68-8ff6e4926bab","system_id":"levelo_inurba_marseille","lat":43.25106,"lon":5.40328,"is_reserved":false,"is_disabled":false,"rental_uris":{"android":"levelo://app?vid=b3e3d2fe-c276-4883-af68-8ff6e4926bab","ios":"levelo://app?vid=b3e3d2fe-c276-4883-af68-8ff6e4926bab"},"vehicle_type_id":"4","last_reported":1730614406,"current_range_meters":32000,"station_id":"ce4bhlh2rcd13ifvqgig","pricing_plan_id":"cebpf4jnsgd1na2vs0mg"},{"bike_id":"1c491c83-6d95-4733-bcd3-d913645851d2","system_id":"levelo_inurba_marseille","lat":43.28406,"lon":5.37517,"is_reserved":false,"is_disabled":false,"rental_uris":{"android":"levelo://app?vid=1c491c83-6d95-4733-bcd3-d913645851d2","ios":"levelo://app?vid=1c491c83-6d95-4733-bcd3-d913645851d2"},"vehicle_type_id":"4","last_reported":1730614406,"current_range_meters":38800,"station_id":"ce4bh412rcd13ifvqds0","pricing_plan_id":"cebpf4jnsgd1na2vs0mg"},{"bike_id":"8c700365-5361-436a-a6a9-30a114bbca07","system_id":"levelo_inurba_marseille","lat":43.284643,"lon":5.358901,"is_reserved":false,"is_disabled":false,"rental_uris":{"android":"levelo://app?vid=8c700365-5361-436a-a6a9-30a114bbca07","ios":"levelo://app?vid=8c700365-5361-436a-a6a9-30a114bbca07"},"vehicle_type_id":"4","last_reported":1730614406,"current_range_meters":25200,"station_id":"ce4bhah2rcd13ifvqei0","pricing_plan_id":"cebpf4jnsgd1na2vs0mg"},{"bike_id":"19a6d47e-53d7-42cf-9934-34fc3fd9053c","system_id":"levelo_inurba_marseille","lat":43.32289,"lon":5.38273,"is_reserved":false,"is_disabled":false,"rental_uris":{"android":"levelo://app?vid=19a6d47e-53d7-42cf-9934-34fc3fd9053c","ios":"levelo://app?vid=19a6d47e-53d7-42cf-9934-34fc3fd9053c"},"vehicle_type_id":"4","last_reported":1730614406,"current_range_meters":36800,"station_id":"ce4bhr12rcd13ifvqhqg","pricing_plan_id":"cebpf4jnsgd1na2vs0mg"},{"bike_id":"6e2c93b7-ebb4-422a-b427-e48707211c9b","system_id":"levelo_inurba_marseille","lat":43.30423,"lon":5.41293,"is_reserved":false,"is_disabled":false,"rental_uris":{"android":"levelo://app?vid=6e2c93b7-ebb4-422a-b427-e48707211c9b","ios":"levelo://app?vid=6e2c93b7-ebb4-422a-b427-e48707211c9b"},"vehicle_type_id":"4","last_reported":1730614406,"current_range_meters":39200,"station_id":"ce4bhop2rcd13ifvqh8g","pricing_plan_id":"cebpf4jnsgd1na2vs0mg"},{"bike_id":"b8f9d2ad-48b8-4fa6-9457-d84ee72bf475","system_id":"levelo_inurba_marseille","lat":43.30805,"lon":5.43532,"is_reserved":false,"is_disabled":false,"rental_uris":{"android":"levelo://app?vid=b8f9d2ad-48b8-4fa6-9457-d84ee72bf475","ios":"levelo://app?vid=b8f9d2ad-48b8-4fa6-9457-d84ee72bf475"},"vehicle_type_id":"4","last_reported":1730614406,"current_range_meters":14000,"station_id":"ce4bhph2rcd13ifvqheg","pricing_plan_id":"cebpf4jnsgd1na2vs0mg"},{"bike_id":"9261d8fd-2b22-40f2-b50d-5da3e250e66c","system_id":"levelo_inurba_marseille","lat":43.27616,"lon":5.36119,"is_reserved":false,"is_disabled":false,"rental_uris":{"android":"levelo://app?vid=9261d8fd-2b22-40f2-b50d-5da3e250e66c","ios":"levelo://app?vid=9261d8fd-2b22-40f2-b50d-5da3e250e66c"},"vehicle_type_id":"4","last_reported":1730614406,"current_range_meters":7200,"station_id":"ce4bgj92rcd13ifvqbe0","pricing_plan_id":"cebpf4jnsgd1na2vs0mg"},{"bike_id":"3ff434e7-d97e-42fe-864b-d72cec550722","system_id":"levelo_inurba_marseille","lat":43.2511,"lon":5.40332,"is_reserved":false,"is_disabled":false,"rental_uris":{"android":"levelo://app?vid=3ff434e7-d97e-42fe-864b-d72cec550722","ios":"levelo://app?vid=3ff434e7-d97e-42fe-864b-d72cec550722"},"vehicle_type_id":"4","last_reported":1730614406,"current_range_meters":27600,"station_id":"ce4bhlh2rcd13ifvqgig","pricing_plan_id":"cebpf4jnsgd1na2vs0mg"},{"bike_id":"62567c44-6575-4800-85dc-335520f77987","system_id":"levelo_inurba_marseille","lat":43.28851,"lon":5.35863,"is_reserved":false,"is_disabled":false,"rental_uris":{"android":"levelo://app?vid=62567c44-6575-4800-85dc-335520f77987","ios":"levelo://app?vid=62567c44-6575-4800-85dc-335520f77987"},"vehicle_type_id":"4","last_reported":1730614406,"current_range_meters":38800,"station_id":"ce4bhb12rcd13ifvqem0","pricing_plan_id":"cebpf4jnsgd1na2vs0mg"},{"bike_id":"a3ff93bb-1257-42af-aa61-6a8dc0551888","system_id":"levelo_inurba_marseille","lat":43.31722,"lon":5.42403,"is_reserved":false,"is_disabled":false,"rental_uris":{"android":"levelo://app?vid=a3ff93bb-1257-42af-aa61-6a8dc0551888","ios":"levelo://app?vid=a3ff93bb-1257-42af-aa61-6a8dc0551888"},"vehicle_type_id":"4","last_reported":1730614406,"current_range_meters":14800,"station_id":"ce4bhp92rcd13ifvqhbg","pricing_plan_id":"cebpf4jnsgd1na2vs0mg"},{"bike_id":"dba3c29b-3433-4dd1-a290-c8b09348f9fc","system_id":"levelo_inurba_marseille","lat":43.26061,"lon":5.39404,"is_reserved":false,"is_disabled":false,"rental_uris":{"android":"levelo://app?vid=dba3c29b-3433-4dd1-a290-c8b09348f9fc","ios":"levelo://app?vid=dba3c29b-3433-4dd1-a290-c8b09348f9fc"},"vehicle_type_id":"4","last_reported":1730614406,"current_range_meters":39200,"station_id":"ce4bhh92rcd13ifvqfj0","pricing_plan_id":"cebpf4jnsgd1na2vs0mg"},{"bike_id":"6323ae90-eaed-4799-998b-6223d9f08d3d","system_id":"levelo_inurba_marseille","lat":43.29195,"lon":5.39316,"is_reserved":false,"is_disabled":false,"rental_uris":{"android":"levelo://app?vid=6323ae90-eaed-4799-998b-6223d9f08d3d","ios":"levelo://app?vid=6323ae90-eaed-4799-998b-6223d9f08d3d"},"vehicle_type_id":"4","last_reported":1730614406,"current_range_meters":38000,"station_id":"ce4bh192rcd13ifvqdd0","pricing_plan_id":"cebpf4jnsgd1na2vs0mg"},{"bike_id":"598535da-1e32-42e0-bd65-4ba25549dd70","system_id":"levelo_inurba_marseille","lat":43.31445,"lon":5.37377,"is_reserved":false,"is_disabled":false,"rental_uris":{"android":"levelo://app?vid=598535da-1e32-42e0-bd65-4ba25549dd70","ios":"levelo://app?vid=598535da-1e32-42e0-bd65-4ba25549dd70"},"vehicle_type_id":"4","last_reported":1730614406,"current_range_meters":32000,"station_id":"","pricing_plan_id":"cebpf4jnsgd1na2vs0mg"},{"bike_id":"2378f453-72a7-4eb2-ab3b-946285d406fd","system_id":"levelo_inurba_marseille","lat":43.29217,"lon":5.37747,"is_reserved":false,"is_disabled":false,"rental_uris":{"android":"levelo://app?vid=2378f453-72a7-4eb2-ab3b-946285d406fd","ios":"levelo://app?vid=2378f453-72a7-4eb2-ab3b-946285d406fd"},"vehicle_type_id":"4","last_reported":1730614406,"current_range_meters":16000,"station_id":"ce4bgi12rcd13ifvqb70","pricing_plan_id":"cebpf4jnsgd1na2vs0mg"},{"bike_id":"99d7c7dc-2e91-4267-811b-4302f16a1504","system_id":"levelo_inurba_marseille","lat":43.251115,"lon":5.403229,"is_reserved":false,"is_disabled":false,"rental_uris":{"android":"levelo://app?vid=99d7c7dc-2e91-4267-811b-4302f16a1504","ios":"levelo://app?vid=99d7c7dc-2e91-4267-811b-4302f16a1504"},"vehicle_type_id":"4","last_reported":1730614406,"current_range_meters":2800,"station_id":"ce4bhlh2rcd13ifvqgig","pricing_plan_id":"cebpf4jnsgd1na2vs0mg"},{"bike_id":"2fecd123-2276-416f-a249-18b8dca5a399","system_id":"levelo_inurba_marseille","lat":43.32366,"lon":5.38893,"is_reserved":false,"is_disabled":false,"rental_uris":{"android":"levelo://app?vid=2fecd123-2276-416f-a249-18b8dca5a399","ios":"levelo://app?vid=2fecd123-2276-416f-a249-18b8dca5a399"},"vehicle_type_id":"4","last_reported":1730614406,"current_range_meters":13600,"station_id":"ce4bhqp2rcd13ifvqhog","pricing_plan_id":"cebpf4jnsgd1na2vs0mg"},{"bike_id":"9bfeaeda-6102-4015-87d9-d5f8319db063","system_id":"levelo_inurba_marseille","lat":43.27918,"lon":5.39578,"is_reserved":false,"is_disabled":false,"rental_uris":{"android":"levelo://app?vid=9bfeaeda-6102-4015-87d9-d5f8319db063","ios":"levelo://app?vid=9bfeaeda-6102-4015-87d9-d5f8319db063"},"vehicle_type_id":"4","last_reported":1730614406,"current_range_meters":9600,"station_id":"ce4bhf92rcd13ifvqf40","pricing_plan_id":"cebpf4jnsgd1na2vs0mg"},{"bike_id":"66db9776-16e5-46ec-8dae-5270ee1c00e8","system_id":"levelo_inurba_marseille","lat":43.27992,"lon":5.41671,"is_reserved":false,"is_disabled":false,"rental_uris":{"android":"levelo://app?vid=66db9776-16e5-46ec-8dae-5270ee1c00e8","ios":"levelo://app?vid=66db9776-16e5-46ec-8dae-5270ee1c00e8"},"vehicle_type_id":"4","last_reported":1730614406,"current_range_meters":24800,"station_id":"ce4bho12rcd13ifvqh1g","pricing_plan_id":"cebpf4jnsgd1na2vs0mg"},{"bike_id":"73c275bf-7a27-4795-a2af-ee837a10340a","system_id":"levelo_inurba_marseille","lat":43.29193,"lon":5.39337,"is_reserved":false,"is_disabled":false,"rental_uris":{"android":"levelo://app?vid=73c275bf-7a27-4795-a2af-ee837a10340a","ios":"levelo://app?vid=73c275bf-7a27-4795-a2af-ee837a10340a"},"vehicle_type_id":"4","last_reported":1730614406,"current_range_meters":38400,"station_id":"ce4bh192rcd13ifvqdd0","pricing_plan_id":"cebpf4jnsgd1na2vs0mg"},{"bike_id":"ea6eac24-7b51-434a-8f51-d28eece06440","system_id":"levelo_inurba_marseille","lat":43.288023,"lon":5.361046,"is_reserved":false,"is_disabled":false,"rental_uris":{"android":"levelo://app?vid=ea6eac24-7b51-434a-8f51-d28eece06440","ios":"levelo://app?vid=ea6eac24-7b51-434a-8f51-d28eece06440"},"vehicle_type_id":"4","last_reported":1730614406,"current_range_meters":10000,"station_id":"","pricing_plan_id":"cebpf4jnsgd1na2vs0mg"},{"bike_id":"c8bc0fc0-23c5-474e-a882-80adf31d90df","system_id":"levelo_inurba_marseille","lat":43.28705,"lon":5.39984,"is_reserved":false,"is_disabled":false,"rental_uris":{"android":"levelo://app?vid=c8bc0fc0-23c5-474e-a882-80adf31d90df","ios":"levelo://app?vid=c8bc0fc0-23c5-474e-a882-80adf31d90df"},"vehicle_type_id":"4","last_reported":1730614406,"current_range_meters":38800,"station_id":"ce4bho92rcd13ifvqh3g","pricing_plan_id":"cebpf4jnsgd1na2vs0mg"},{"bike_id":"53141788-0a03-4d07-8d55-227a71cc620e","system_id":"levelo_inurba_marseille","lat":43.29886,"lon":5.38908,"is_reserved":false,"is_disabled":false,"rental_uris":{"android":"levelo://app?vid=53141788-0a03-4d07-8d55-227a71cc620e","ios":"levelo://app?vid=53141788-0a03-4d07-8d55-227a71cc620e"},"vehicle_type_id":"4","last_reported":1730614406,"current_range_meters":37600,"station_id":"ce4bh392rcd13ifvqdl0","pricing_plan_id":"cebpf4jnsgd1na2vs0mg"},{"bike_id":"76ba84d0-dc5b-448d-ad77-dd1f6b9fbaa7","system_id":"levelo_inurba_marseille","lat":43.26958,"lon":5.38626,"is_reserved":false,"is_disabled":false,"rental_uris":{"android":"levelo://app?vid=76ba84d0-dc5b-448d-ad77-dd1f6b9fbaa7","ios":"levelo://app?vid=76ba84d0-dc5b-448d-ad77-dd1f6b9fbaa7"},"vehicle_type_id":"4","last_reported":1730614406,"current_range_meters":38800,"station_id":"ce4bhh92rcd13ifvqfh0","pricing_plan_id":"cebpf4jnsgd1na2vs0mg"},{"bike_id":"fd65c101-fe44-4b83-ac31-6e5e2a049bdc","system_id":"levelo_inurba_marseille","lat":43.28683,"lon":5.38681,"is_reserved":false,"is_disabled":false,"rental_uris":{"android":"levelo://app?vid=fd65c101-fe44-4b83-ac31-6e5e2a049bdc","ios":"levelo://app?vid=fd65c101-fe44-4b83-ac31-6e5e2a049bdc"},"vehicle_type_id":"4","last_reported":1730614406,"current_range_meters":17200,"station_id":"ce4bh492rcd13ifvqdug","pricing_plan_id":"cebpf4jnsgd1na2vs0mg"},{"bike_id":"fb60f436-07fe-4450-a0d1-374a6c3171e4","system_id":"levelo_inurba_marseille","lat":43.29006,"lon":5.35611,"is_reserved":false,"is_disabled":false,"rental_uris":{"android":"levelo://app?vid=fb60f436-07fe-4450-a0d1-374a6c3171e4","ios":"levelo://app?vid=fb60f436-07fe-4450-a0d1-374a6c3171e4"},"vehicle_type_id":"4","last_reported":1730614406,"current_range_meters":33600,"station_id":"ce4bhb92rcd13ifvqen0","pricing_plan_id":"cebpf4jnsgd1na2vs0mg"},{"bike_id":"a1f78ab3-4e75-44e2-a948-d2b63dc06c7f","system_id":"levelo_inurba_marseille","lat":43.31332,"lon":5.39705,"is_reserved":false,"is_disabled":false,"rental_uris":{"android":"levelo://app?vid=a1f78ab3-4e75-44e2-a948-d2b63dc06c7f","ios":"levelo://app?vid=a1f78ab3-4e75-44e2-a948-d2b63dc06c7f"},"vehicle_type_id":"4","last_reported":1730614406,"current_range_meters":38000,"station_id":"ce4bgvp2rcd13ifvqcu0","pricing_plan_id":"cebpf4jnsgd1na2vs0mg"},{"bike_id":"c8893d8e-f81f-4744-85fb-448d69741653","system_id":"levelo_inurba_marseille","lat":43.27613,"lon":5.36113,"is_reserved":false,"is_disabled":false,"rental_uris":{"android":"levelo://app?vid=c8893d8e-f81f-4744-85fb-448d69741653","ios":"levelo://app?vid=c8893d8e-f81f-4744-85fb-448d69741653"},"vehicle_type_id":"4","last_reported":1730614406,"current_range_meters":8000,"station_id":"ce4bgj92rcd13ifvqbe0","pricing_plan_id":"cebpf4jnsgd1na2vs0mg"},{"bike_id":"91c2fc9b-f4a8-48d8-8406-b54bc4bec169","system_id":"levelo_inurba_marseille","lat":43.29195,"lon":5.35814,"is_reserved":false,"is_disabled":false,"rental_uris":{"android":"levelo://app?vid=91c2fc9b-f4a8-48d8-8406-b54bc4bec169","ios":"levelo://app?vid=91c2fc9b-f4a8-48d8-8406-b54bc4bec169"},"vehicle_type_id":"4","last_reported":1730614406,"current_range_meters":38400,"station_id":"ce4bhb12rcd13ifvqel0","pricing_plan_id":"cebpf4jnsgd1na2vs0mg"},{"bike_id":"28a1f131-18c7-4a58-81ac-573655f32bef","system_id":"levelo_inurba_marseille","lat":43.287004,"lon":5.373943,"is_reserved":false,"is_disabled":false,"rental_uris":{"android":"levelo://app?vid=28a1f131-18c7-4a58-81ac-573655f32bef","ios":"levelo://app?vid=28a1f131-18c7-4a58-81ac-573655f32bef"},"vehicle_type_id":"4","last_reported":1730614406,"current_range_meters":34800,"station_id":"ce4bh3p2rcd13ifvqdq0","pricing_plan_id":"cebpf4jnsgd1na2vs0mg"},{"bike_id":"d5bdf440-de6f-4bf3-9aaa-d81dd81e2ef7","system_id":"levelo_inurba_marseille","lat":43.31725,"lon":5.42404,"is_reserved":false,"is_disabled":false,"rental_uris":{"android":"levelo://app?vid=d5bdf440-de6f-4bf3-9aaa-d81dd81e2ef7","ios":"levelo://app?vid=d5bdf440-de6f-4bf3-9aaa-d81dd81e2ef7"},"vehicle_type_id":"4","last_reported":1730614406,"current_range_meters":38400,"station_id":"ce4bhp92rcd13ifvqhbg","pricing_plan_id":"cebpf4jnsgd1na2vs0mg"},{"bike_id":"264d4768-e819-437b-8292-2e4e716c0b1e","system_id":"levelo_inurba_marseille","lat":43.28852,"lon":5.39323,"is_reserved":false,"is_disabled":false,"rental_uris":{"android":"levelo://app?vid=264d4768-e819-437b-8292-2e4e716c0b1e","ios":"levelo://app?vid=264d4768-e819-437b-8292-2e4e716c0b1e"},"vehicle_type_id":"4","last_reported":1730614406,"current_range_meters":38000,"station_id":"ce4bh2p2rcd13ifvqdi0","pricing_plan_id":"cebpf4jnsgd1na2vs0mg"},{"bike_id":"3b7b5df4-9521-42f4-847d-dc13fd129948","system_id":"levelo_inurba_marseille","lat":43.2837,"lon":5.38633,"is_reserved":false,"is_disabled":false,"rental_uris":{"android":"levelo://app?vid=3b7b5df4-9521-42f4-847d-dc13fd129948","ios":"levelo://app?vid=3b7b5df4-9521-42f4-847d-dc13fd129948"},"vehicle_type_id":"4","last_reported":1730614406,"current_range_meters":39200,"station_id":"ce4bh492rcd13ifvqdvg","pricing_plan_id":"cebpf4jnsgd1na2vs0mg"},{"bike_id":"60b2fd11-3cbf-4232-bd92-7ecebd78b656","system_id":"levelo_inurba_marseille","lat":43.2835,"lon":5.38113,"is_reserved":false,"is_disabled":false,"rental_uris":{"android":"levelo://app?vid=60b2fd11-3cbf-4232-bd92-7ecebd78b656","ios":"levelo://app?vid=60b2fd11-3cbf-4232-bd92-7ecebd78b656"},"vehicle_type_id":"4","last_reported":1730614406,"current_range_meters":38400,"station_id":"ce4bh412rcd13ifvqdr0","pricing_plan_id":"cebpf4jnsgd1na2vs0mg"},{"bike_id":"15dfa336-cdc5-4e32-a889-621804f040c0","system_id":"levelo_inurba_marseille","lat":43.27814,"lon":5.40711,"is_reserved":false,"is_disabled":false,"rental_uris":{"android":"levelo://app?vid=15dfa336-cdc5-4e32-a889-621804f040c0","ios":"levelo://app?vid=15dfa336-cdc5-4e32-a889-621804f040c0"},"vehicle_type_id":"4","last_reported":1730614406,"current_range_meters":38000,"station_id":"ce4bhnh2rcd13ifvqgtg","pricing_plan_id":"cebpf4jnsgd1na2vs0mg"},{"bike_id":"229d9a32-79b7-4f8e-8885-55369bff5631","system_id":"levelo_inurba_marseille","lat":43.2904,"lon":5.39971,"is_reserved":false,"is_disabled":false,"rental_uris":{"android":"levelo://app?vid=229d9a32-79b7-4f8e-8885-55369bff5631","ios":"levelo://app?vid=229d9a32-79b7-4f8e-8885-55369bff5631"},"vehicle_type_id":"4","last_reported":1730614406,"current_range_meters":32000,"station_id":"ce4bh392rcd13ifvqdm0","pricing_plan_id":"cebpf4jnsgd1na2vs0mg"},{"bike_id":"75576e24-6890-4288-9aa5-db2804891d6f","system_id":"levelo_inurba_marseille","lat":43.26943,"lon":5.40245,"is_reserved":false,"is_disabled":false,"rental_uris":{"android":"levelo://app?vid=75576e24-6890-4288-9aa5-db2804891d6f","ios":"levelo://app?vid=75576e24-6890-4288-9aa5-db2804891d6f"},"vehicle_type_id":"4","last_reported":1730614406,"current_range_meters":38800,"station_id":"cjm6bp8fraef2m0cb0m0","pricing_plan_id":"cebpf4jnsgd1na2vs0mg"},{"bike_id":"e79c4254-4bc4-4047-b95c-94e62a1af652","system_id":"levelo_inurba_marseille","lat":43.29569,"lon":5.39971,"is_reserved":false,"is_disabled":false,"rental_uris":{"android":"levelo://app?vid=e79c4254-4bc4-4047-b95c-94e62a1af652","ios":"levelo://app?vid=e79c4254-4bc4-4047-b95c-94e62a1af652"},"vehicle_type_id":"4","last_reported":1730614406,"current_range_meters":27200,"station_id":"ce4bh312rcd13ifvqdj0","pricing_plan_id":"cebpf4jnsgd1na2vs0mg"},{"bike_id":"54337fac-085e-4782-bad6-db9a84abd2e2","system_id":"levelo_inurba_marseille","lat":43.31701,"lon":5.3776,"is_reserved":false,"is_disabled":false,"rental_uris":{"android":"levelo://app?vid=54337fac-085e-4782-bad6-db9a84abd2e2","ios":"levelo://app?vid=54337fac-085e-4782-bad6-db9a84abd2e2"},"vehicle_type_id":"4","last_reported":1730614406,"current_range_meters":38400,"station_id":"ce4bgth2rcd13ifvqch0","pricing_plan_id":"cebpf4jnsgd1na2vs0mg"},{"bike_id":"067f8d51-b65c-422f-9eef-fff392264ea6","system_id":"levelo_inurba_marseille","lat":43.289374,"lon":5.363938,"is_reserved":false,"is_disabled":false,"rental_uris":{"android":"levelo://app?vid=067f8d51-b65c-422f-9eef-fff392264ea6","ios":"levelo://app?vid=067f8d51-b65c-422f-9eef-fff392264ea6"},"vehicle_type_id":"4","last_reported":1730614406,"current_range_meters":33200,"station_id":"ce4bhc92rcd13ifvqetg","pricing_plan_id":"cebpf4jnsgd1na2vs0mg"},{"bike_id":"6fe1e01f-f651-4904-8dfc-c417b231506b","system_id":"levelo_inurba_marseille","lat":43.2868,"lon":5.38669,"is_reserved":false,"is_disabled":false,"rental_uris":{"android":"levelo://app?vid=6fe1e01f-f651-4904-8dfc-c417b231506b","ios":"levelo://app?vid=6fe1e01f-f651-4904-8dfc-c417b231506b"},"vehicle_type_id":"4","last_reported":1730614406,"current_range_meters":38400,"station_id":"ce4bh492rcd13ifvqdug","pricing_plan_id":"cebpf4jnsgd1na2vs0mg"},{"bike_id":"4c380e39-1aa2-44a0-a0a1-4904d2a07143","system_id":"levelo_inurba_marseille","lat":43.25119,"lon":5.40321,"is_reserved":false,"is_disabled":false,"rental_uris":{"android":"levelo://app?vid=4c380e39-1aa2-44a0-a0a1-4904d2a07143","ios":"levelo://app?vid=4c380e39-1aa2-44a0-a0a1-4904d2a07143"},"vehicle_type_id":"4","last_reported":1730614406,"current_range_meters":32800,"station_id":"ce4bhlh2rcd13ifvqgig","pricing_plan_id":"cebpf4jnsgd1na2vs0mg"},{"bike_id":"551b2b3f-bd56-485c-8f32-235c28833653","system_id":"levelo_inurba_marseille","lat":43.27996,"lon":5.41672,"is_reserved":false,"is_disabled":false,"rental_uris":{"android":"levelo://app?vid=551b2b3f-bd56-485c-8f32-235c28833653","ios":"levelo://app?vid=551b2b3f-bd56-485c-8f32-235c28833653"},"vehicle_type_id":"4","last_reported":1730614406,"current_range_meters":36800,"station_id":"ce4bho12rcd13ifvqh1g","pricing_plan_id":"cebpf4jnsgd1na2vs0mg"},{"bike_id":"242a0022-7ff2-4146-b8c8-168460a54332","system_id":"levelo_inurba_marseille","lat":43.28695,"lon":5.374,"is_reserved":false,"is_disabled":false,"rental_uris":{"android":"levelo://app?vid=242a0022-7ff2-4146-b8c8-168460a54332","ios":"levelo://app?vid=242a0022-7ff2-4146-b8c8-168460a54332"},"vehicle_type_id":"4","last_reported":1730614406,"current_range_meters":38800,"station_id":"ce4bh3p2rcd13ifvqdq0","pricing_plan_id":"cebpf4jnsgd1na2vs0mg"},{"bike_id":"6157d426-3266-4deb-ace6-913f4e23e949","system_id":"levelo_inurba_marseille","lat":43.31714,"lon":5.4371,"is_reserved":false,"is_disabled":false,"rental_uris":{"android":"levelo://app?vid=6157d426-3266-4deb-ace6-913f4e23e949","ios":"levelo://app?vid=6157d426-3266-4deb-ace6-913f4e23e949"},"vehicle_type_id":"4","last_reported":1730614406,"current_range_meters":37600,"station_id":"ce4bhp92rcd13ifvqhcg","pricing_plan_id":"cebpf4jnsgd1na2vs0mg"},{"bike_id":"bb77766c-bd6a-4d75-b2a0-07423588e7be","system_id":"levelo_inurba_marseille","lat":43.32,"lon":5.38153,"is_reserved":false,"is_disabled":false,"rental_uris":{"android":"levelo://app?vid=bb77766c-bd6a-4d75-b2a0-07423588e7be","ios":"levelo://app?vid=bb77766c-bd6a-4d75-b2a0-07423588e7be"},"vehicle_type_id":"4","last_reported":1730614406,"current_range_meters":35200,"station_id":"ce4bhr12rcd13ifvqhpg","pricing_plan_id":"cebpf4jnsgd1na2vs0mg"},{"bike_id":"933e88ac-d979-43a7-a64b-221565f81a6f","system_id":"levelo_inurba_marseille","lat":43.23952,"lon":5.36642,"is_reserved":false,"is_disabled":false,"rental_uris":{"android":"levelo://app?vid=933e88ac-d979-43a7-a64b-221565f81a6f","ios":"levelo://app?vid=933e88ac-d979-43a7-a64b-221565f81a6f"},"vehicle_type_id":"4","last_reported":1730614406,"current_range_meters":38400,"station_id":"ce4bhi12rcd13ifvqfp0","pricing_plan_id":"cebpf4jnsgd1na2vs0mg"},{"bike_id":"0de993bb-b64a-4032-abce-b87c2b2ec7e9","system_id":"levelo_inurba_marseille","lat":43.28155,"lon":5.42647,"is_reserved":false,"is_disabled":false,"rental_uris":{"android":"levelo://app?vid=0de993bb-b64a-4032-abce-b87c2b2ec7e9","ios":"levelo://app?vid=0de993bb-b64a-4032-abce-b87c2b2ec7e9"},"vehicle_type_id":"4","last_reported":1730614406,"current_range_meters":38400,"station_id":"ce4bhnh2rcd13ifvqgug","pricing_plan_id":"cebpf4jnsgd1na2vs0mg"},{"bike_id":"72fd602c-780c-42ef-9cd3-d4034bdd1835","system_id":"levelo_inurba_marseille","lat":43.29283,"lon":5.4013,"is_reserved":false,"is_disabled":false,"rental_uris":{"android":"levelo://app?vid=72fd602c-780c-42ef-9cd3-d4034bdd1835","ios":"levelo://app?vid=72fd602c-780c-42ef-9cd3-d4034bdd1835"},"vehicle_type_id":"4","last_reported":1730614406,"current_range_meters":32400,"station_id":"ce4bh312rcd13ifvqdk0","pricing_plan_id":"cebpf4jnsgd1na2vs0mg"},{"bike_id":"354a6fd1-74b0-49f0-98b7-db661db92bd6","system_id":"levelo_inurba_marseille","lat":43.28265,"lon":5.35077,"is_reserved":false,"is_disabled":false,"rental_uris":{"android":"levelo://app?vid=354a6fd1-74b0-49f0-98b7-db661db92bd6","ios":"levelo://app?vid=354a6fd1-74b0-49f0-98b7-db661db92bd6"},"vehicle_type_id":"4","last_reported":1730614406,"current_range_meters":36800,"station_id":"ce4bhbp2rcd13ifvqerg","pricing_plan_id":"cebpf4jnsgd1na2vs0mg"},{"bike_id":"69295eff-cedc-4c7f-b846-077388dbe1b6","system_id":"levelo_inurba_marseille","lat":43.298,"lon":5.39065,"is_reserved":false,"is_disabled":false,"rental_uris":{"android":"levelo://app?vid=69295eff-cedc-4c7f-b846-077388dbe1b6","ios":"levelo://app?vid=69295eff-cedc-4c7f-b846-077388dbe1b6"},"vehicle_type_id":"4","last_reported":1730614406,"current_range_meters":19200,"station_id":"","pricing_plan_id":"cebpf4jnsgd1na2vs0mg"},{"bike_id":"11ee8ae6-18fc-4610-8389-a9f2e3518592","system_id":"levelo_inurba_marseille","lat":43.29903,"lon":5.38149,"is_reserved":false,"is_disabled":false,"rental_uris":{"android":"levelo://app?vid=11ee8ae6-18fc-4610-8389-a9f2e3518592","ios":"levelo://app?vid=11ee8ae6-18fc-4610-8389-a9f2e3518592"},"vehicle_type_id":"4","last_reported":1730614406,"current_range_meters":28000,"station_id":"ce4bgj12rcd13ifvqbc0","pricing_plan_id":"cebpf4jnsgd1na2vs0mg"},{"bike_id":"0736e038-f5ae-4847-9760-abcc8cf50b00","system_id":"levelo_inurba_marseille","lat":43.3014,"lon":5.39883,"is_reserved":false,"is_disabled":false,"rental_uris":{"android":"levelo://app?vid=0736e038-f5ae-4847-9760-abcc8cf50b00","ios":"levelo://app?vid=0736e038-f5ae-4847-9760-abcc8cf50b00"},"vehicle_type_id":"4","last_reported":1730614406,"current_range_meters":30400,"station_id":"ce4bh0h2rcd13ifvqd40","pricing_plan_id":"cebpf4jnsgd1na2vs0mg"},{"bike_id":"fd5904ae-87c2-409c-86c6-cedc16820701","system_id":"levelo_inurba_marseille","lat":43.31171,"lon":5.3871,"is_reserved":false,"is_disabled":false,"rental_uris":{"android":"levelo://app?vid=fd5904ae-87c2-409c-86c6-cedc16820701","ios":"levelo://app?vid=fd5904ae-87c2-409c-86c6-cedc16820701"},"vehicle_type_id":"4","last_reported":1730614406,"current_range_meters":36800,"station_id":"ce4bgv12rcd13ifvqcp0","pricing_plan_id":"cebpf4jnsgd1na2vs0mg"},{"bike_id":"b9fd93d9-e34c-46a8-83b6-0d0cc667a268","system_id":"levelo_inurba_marseille","lat":43.24807,"lon":5.37454,"is_reserved":false,"is_disabled":false,"rental_uris":{"android":"levelo://app?vid=b9fd93d9-e34c-46a8-83b6-0d0cc667a268","ios":"levelo://app?vid=b9fd93d9-e34c-46a8-83b6-0d0cc667a268"},"vehicle_type_id":"4","last_reported":1730614406,"current_range_meters":38000,"station_id":"ce4bhgh2rcd13ifvqfb0","pricing_plan_id":"cebpf4jnsgd1na2vs0mg"},{"bike_id":"2006c763-5d5d-4a90-b0eb-2cbd7baf8745","system_id":"levelo_inurba_marseille","lat":43.29675,"lon":5.39188,"is_reserved":false,"is_disabled":false,"rental_uris":{"android":"levelo://app?vid=2006c763-5d5d-4a90-b0eb-2cbd7baf8745","ios":"levelo://app?vid=2006c763-5d5d-4a90-b0eb-2cbd7baf8745"},"vehicle_type_id":"4","last_reported":1730614406,"current_range_meters":21600,"station_id":"","pricing_plan_id":"cebpf4jnsgd1na2vs0mg"},{"bike_id":"255ea6d3-7ac6-4345-8335-502748145960","system_id":"levelo_inurba_marseille","lat":43.2418,"lon":5.39736,"is_reserved":false,"is_disabled":false,"rental_uris":{"android":"levelo://app?vid=255ea6d3-7ac6-4345-8335-502748145960","ios":"levelo://app?vid=255ea6d3-7ac6-4345-8335-502748145960"},"vehicle_type_id":"4","last_reported":1730614406,"current_range_meters":34000,"station_id":"ce4bhn12rcd13ifvqgpg","pricing_plan_id":"cebpf4jnsgd1na2vs0mg"},{"bike_id":"b71aec61-79a9-4056-9e3a-b2a2b46e4408","system_id":"levelo_inurba_marseille","lat":43.28158,"lon":5.42649,"is_reserved":false,"is_disabled":false,"rental_uris":{"android":"levelo://app?vid=b71aec61-79a9-4056-9e3a-b2a2b46e4408","ios":"levelo://app?vid=b71aec61-79a9-4056-9e3a-b2a2b46e4408"},"vehicle_type_id":"4","last_reported":1730614406,"current_range_meters":18000,"station_id":"ce4bhnh2rcd13ifvqgug","pricing_plan_id":"cebpf4jnsgd1na2vs0mg"},{"bike_id":"a5e5686b-78b3-4a90-88b3-8326b4aff7e8","system_id":"levelo_inurba_marseille","lat":43.31073,"lon":5.38351,"is_reserved":false,"is_disabled":false,"rental_uris":{"android":"levelo://app?vid=a5e5686b-78b3-4a90-88b3-8326b4aff7e8","ios":"levelo://app?vid=a5e5686b-78b3-4a90-88b3-8326b4aff7e8"},"vehicle_type_id":"4","last_reported":1730614406,"current_range_meters":34000,"station_id":"ce4bgv92rcd13ifvqcr0","pricing_plan_id":"cebpf4jnsgd1na2vs0mg"},{"bike_id":"6ddef4ed-eee5-4bca-8f96-5fa68f00685b","system_id":"levelo_inurba_marseille","lat":43.30606,"lon":5.37218,"is_reserved":false,"is_disabled":false,"rental_uris":{"android":"levelo://app?vid=6ddef4ed-eee5-4bca-8f96-5fa68f00685b","ios":"levelo://app?vid=6ddef4ed-eee5-4bca-8f96-5fa68f00685b"},"vehicle_type_id":"4","last_reported":1730614406,"current_range_meters":32000,"station_id":"ce4bgqh2rcd13ifvqc4g","pricing_plan_id":"cebpf4jnsgd1na2vs0mg"},{"bike_id":"d44c011e-46f8-493c-be76-a26178c2219f","system_id":"levelo_inurba_marseille","lat":43.28663,"lon":5.36358,"is_reserved":false,"is_disabled":false,"rental_uris":{"android":"levelo://app?vid=d44c011e-46f8-493c-be76-a26178c2219f","ios":"levelo://app?vid=d44c011e-46f8-493c-be76-a26178c2219f"},"vehicle_type_id":"4","last_reported":1730614406,"current_range_meters":38800,"station_id":"ce4bhah2rcd13ifvqej0","pricing_plan_id":"cebpf4jnsgd1na2vs0mg"},{"bike_id":"8365c946-beae-47ce-87c4-1094a86c3535","system_id":"levelo_inurba_marseille","lat":43.25113,"lon":5.40323,"is_reserved":false,"is_disabled":false,"rental_uris":{"android":"levelo://app?vid=8365c946-beae-47ce-87c4-1094a86c3535","ios":"levelo://app?vid=8365c946-beae-47ce-87c4-1094a86c3535"},"vehicle_type_id":"4","last_reported":1730614406,"current_range_meters":38800,"station_id":"ce4bhlh2rcd13ifvqgig","pricing_plan_id":"cebpf4jnsgd1na2vs0mg"},{"bike_id":"1891da9e-84eb-4db0-8985-88dfff9d5a7d","system_id":"levelo_inurba_marseille","lat":43.30417,"lon":5.41285,"is_reserved":false,"is_disabled":false,"rental_uris":{"android":"levelo://app?vid=1891da9e-84eb-4db0-8985-88dfff9d5a7d","ios":"levelo://app?vid=1891da9e-84eb-4db0-8985-88dfff9d5a7d"},"vehicle_type_id":"4","last_reported":1730614406,"current_range_meters":24800,"station_id":"ce4bhop2rcd13ifvqh8g","pricing_plan_id":"cebpf4jnsgd1na2vs0mg"},{"bike_id":"5a16a1d7-fcff-4bbb-a040-afd12b10f6b1","system_id":"levelo_inurba_marseille","lat":43.30799,"lon":5.38165,"is_reserved":false,"is_disabled":false,"rental_uris":{"android":"levelo://app?vid=5a16a1d7-fcff-4bbb-a040-afd12b10f6b1","ios":"levelo://app?vid=5a16a1d7-fcff-4bbb-a040-afd12b10f6b1"},"vehicle_type_id":"4","last_reported":1730614406,"current_range_meters":39200,"station_id":"ce4bgt12rcd13ifvqce0","pricing_plan_id":"cebpf4jnsgd1na2vs0mg"},{"bike_id":"8415b057-9b50-4fe5-80f4-bcd9c5e9cdef","system_id":"levelo_inurba_marseille","lat":43.28037,"lon":5.36945,"is_reserved":false,"is_disabled":false,"rental_uris":{"android":"levelo://app?vid=8415b057-9b50-4fe5-80f4-bcd9c5e9cdef","ios":"levelo://app?vid=8415b057-9b50-4fe5-80f4-bcd9c5e9cdef"},"vehicle_type_id":"4","last_reported":1730614406,"current_range_meters":5600,"station_id":"ce4bha12rcd13ifvqef0","pricing_plan_id":"cebpf4jnsgd1na2vs0mg"},{"bike_id":"1b760ddd-e34d-491f-9c82-3266310982c8","system_id":"levelo_inurba_marseille","lat":43.26563,"lon":5.37286,"is_reserved":false,"is_disabled":false,"rental_uris":{"android":"levelo://app?vid=1b760ddd-e34d-491f-9c82-3266310982c8","ios":"levelo://app?vid=1b760ddd-e34d-491f-9c82-3266310982c8"},"vehicle_type_id":"4","last_reported":1730614406,"current_range_meters":4400,"station_id":"ce4bhg12rcd13ifvqf70","pricing_plan_id":"cebpf4jnsgd1na2vs0mg"},{"bike_id":"f23be71f-f673-44e6-b886-5c52a18cc4aa","system_id":"levelo_inurba_marseille","lat":43.284101,"lon":5.375166,"is_reserved":false,"is_disabled":false,"rental_uris":{"android":"levelo://app?vid=f23be71f-f673-44e6-b886-5c52a18cc4aa","ios":"levelo://app?vid=f23be71f-f673-44e6-b886-5c52a18cc4aa"},"vehicle_type_id":"4","last_reported":1730614406,"current_range_meters":38800,"station_id":"ce4bh412rcd13ifvqds0","pricing_plan_id":"cebpf4jnsgd1na2vs0mg"},{"bike_id":"21483753-6e07-48a8-89e9-1b914b21f119","system_id":"levelo_inurba_marseille","lat":43.30948,"lon":5.3903,"is_reserved":false,"is_disabled":false,"rental_uris":{"android":"levelo://app?vid=21483753-6e07-48a8-89e9-1b914b21f119","ios":"levelo://app?vid=21483753-6e07-48a8-89e9-1b914b21f119"},"vehicle_type_id":"4","last_reported":1730614406,"current_range_meters":22400,"station_id":"ce4bgup2rcd13ifvqco0","pricing_plan_id":"cebpf4jnsgd1na2vs0mg"},{"bike_id":"d3ae8054-535d-4288-b44c-84c3071021e3","system_id":"levelo_inurba_marseille","lat":43.25112,"lon":5.40324,"is_reserved":false,"is_disabled":false,"rental_uris":{"android":"levelo://app?vid=d3ae8054-535d-4288-b44c-84c3071021e3","ios":"levelo://app?vid=d3ae8054-535d-4288-b44c-84c3071021e3"},"vehicle_type_id":"4","last_reported":1730614406,"current_range_meters":16000,"station_id":"ce4bhlh2rcd13ifvqgig","pricing_plan_id":"cebpf4jnsgd1na2vs0mg"},{"bike_id":"38f76228-741a-4f06-9884-77f77e60cf4a","system_id":"levelo_inurba_marseille","lat":43.23061,"lon":5.40508,"is_reserved":false,"is_disabled":false,"rental_uris":{"android":"levelo://app?vid=38f76228-741a-4f06-9884-77f77e60cf4a","ios":"levelo://app?vid=38f76228-741a-4f06-9884-77f77e60cf4a"},"vehicle_type_id":"4","last_reported":1730614406,"current_range_meters":7200,"station_id":"","pricing_plan_id":"cebpf4jnsgd1na2vs0mg"},{"bike_id":"1e337e8c-1ba4-4386-ae7f-0381fae966f8","system_id":"levelo_inurba_marseille","lat":43.317,"lon":5.37769,"is_reserved":false,"is_disabled":false,"rental_uris":{"android":"levelo://app?vid=1e337e8c-1ba4-4386-ae7f-0381fae966f8","ios":"levelo://app?vid=1e337e8c-1ba4-4386-ae7f-0381fae966f8"},"vehicle_type_id":"4","last_reported":1730614406,"current_range_meters":32400,"station_id":"ce4bgth2rcd13ifvqch0","pricing_plan_id":"cebpf4jnsgd1na2vs0mg"},{"bike_id":"61497ec0-6b91-4085-893e-2dc4cbab5392","system_id":"levelo_inurba_marseille","lat":43.32369,"lon":5.38898,"is_reserved":false,"is_disabled":false,"rental_uris":{"android":"levelo://app?vid=61497ec0-6b91-4085-893e-2dc4cbab5392","ios":"levelo://app?vid=61497ec0-6b91-4085-893e-2dc4cbab5392"},"vehicle_type_id":"4","last_reported":1730614406,"current_range_meters":24400,"station_id":"ce4bhqp2rcd13ifvqhog","pricing_plan_id":"cebpf4jnsgd1na2vs0mg"},{"bike_id":"21f0deb2-cc7f-4625-b4fb-7f1b443a14ac","system_id":"levelo_inurba_marseille","lat":43.28378,"lon":5.38642,"is_reserved":false,"is_disabled":false,"rental_uris":{"android":"levelo://app?vid=21f0deb2-cc7f-4625-b4fb-7f1b443a14ac","ios":"levelo://app?vid=21f0deb2-cc7f-4625-b4fb-7f1b443a14ac"},"vehicle_type_id":"4","last_reported":1730614406,"current_range_meters":32800,"station_id":"ce4bh492rcd13ifvqdvg","pricing_plan_id":"cebpf4jnsgd1na2vs0mg"},{"bike_id":"889215a8-e707-4816-a3e4-27d415c3aab1","system_id":"levelo_inurba_marseille","lat":43.29276,"lon":5.40134,"is_reserved":false,"is_disabled":false,"rental_uris":{"android":"levelo://app?vid=889215a8-e707-4816-a3e4-27d415c3aab1","ios":"levelo://app?vid=889215a8-e707-4816-a3e4-27d415c3aab1"},"vehicle_type_id":"4","last_reported":1730614406,"current_range_meters":38800,"station_id":"ce4bh312rcd13ifvqdk0","pricing_plan_id":"cebpf4jnsgd1na2vs0mg"},{"bike_id":"2d1b510e-28ee-43bd-99a9-d8972623938f","system_id":"levelo_inurba_marseille","lat":43.28405,"lon":5.37516,"is_reserved":false,"is_disabled":false,"rental_uris":{"android":"levelo://app?vid=2d1b510e-28ee-43bd-99a9-d8972623938f","ios":"levelo://app?vid=2d1b510e-28ee-43bd-99a9-d8972623938f"},"vehicle_type_id":"4","last_reported":1730614406,"current_range_meters":10800,"station_id":"ce4bh412rcd13ifvqds0","pricing_plan_id":"cebpf4jnsgd1na2vs0mg"},{"bike_id":"e55d8d6f-7394-4584-af8a-c65aaa7989ef","system_id":"levelo_inurba_marseille","lat":43.26068,"lon":5.39393,"is_reserved":false,"is_disabled":false,"rental_uris":{"android":"levelo://app?vid=e55d8d6f-7394-4584-af8a-c65aaa7989ef","ios":"levelo://app?vid=e55d8d6f-7394-4584-af8a-c65aaa7989ef"},"vehicle_type_id":"4","last_reported":1730614406,"current_range_meters":6800,"station_id":"ce4bhh92rcd13ifvqfj0","pricing_plan_id":"cebpf4jnsgd1na2vs0mg"},{"bike_id":"2171b370-882b-48fc-80a1-24884f7d3b56","system_id":"levelo_inurba_marseille","lat":43.3054,"lon":5.38425,"is_reserved":false,"is_disabled":false,"rental_uris":{"android":"levelo://app?vid=2171b370-882b-48fc-80a1-24884f7d3b56","ios":"levelo://app?vid=2171b370-882b-48fc-80a1-24884f7d3b56"},"vehicle_type_id":"4","last_reported":1730614406,"current_range_meters":38800,"station_id":"ce4bgg92rcd13ifvqb30","pricing_plan_id":"cebpf4jnsgd1na2vs0mg"},{"bike_id":"d3f56f17-ac1a-464c-b9d7-9bc3311153ab","system_id":"levelo_inurba_marseille","lat":43.24669,"lon":5.3816,"is_reserved":false,"is_disabled":false,"rental_uris":{"android":"levelo://app?vid=d3f56f17-ac1a-464c-b9d7-9bc3311153ab","ios":"levelo://app?vid=d3f56f17-ac1a-464c-b9d7-9bc3311153ab"},"vehicle_type_id":"4","last_reported":1730614406,"current_range_meters":6000,"station_id":"ce4bhih2rcd13ifvqfr0","pricing_plan_id":"cebpf4jnsgd1na2vs0mg"},{"bike_id":"c9836de4-dae6-4bfc-aef6-8b7c0c537e63","system_id":"levelo_inurba_marseille","lat":43.25869,"lon":5.39898,"is_reserved":false,"is_disabled":false,"rental_uris":{"android":"levelo://app?vid=c9836de4-dae6-4bfc-aef6-8b7c0c537e63","ios":"levelo://app?vid=c9836de4-dae6-4bfc-aef6-8b7c0c537e63"},"vehicle_type_id":"4","last_reported":1730614406,"current_range_meters":38800,"station_id":"ce4bhl92rcd13ifvqghg","pricing_plan_id":"cebpf4jnsgd1na2vs0mg"},{"bike_id":"3a63cdb9-541a-46b5-b98d-4808f2a40168","system_id":"levelo_inurba_marseille","lat":43.29446,"lon":5.3975,"is_reserved":false,"is_disabled":false,"rental_uris":{"android":"levelo://app?vid=3a63cdb9-541a-46b5-b98d-4808f2a40168","ios":"levelo://app?vid=3a63cdb9-541a-46b5-b98d-4808f2a40168"},"vehicle_type_id":"4","last_reported":1730614406,"current_range_meters":20400,"station_id":"ce4bh3h2rcd13ifvqdo0","pricing_plan_id":"cebpf4jnsgd1na2vs0mg"},{"bike_id":"38475408-a590-43ad-9d81-70bf6c6edf3e","system_id":"levelo_inurba_marseille","lat":43.28271,"lon":5.35079,"is_reserved":false,"is_disabled":false,"rental_uris":{"android":"levelo://app?vid=38475408-a590-43ad-9d81-70bf6c6edf3e","ios":"levelo://app?vid=38475408-a590-43ad-9d81-70bf6c6edf3e"},"vehicle_type_id":"4","last_reported":1730614406,"current_range_meters":38800,"station_id":"ce4bhbp2rcd13ifvqerg","pricing_plan_id":"cebpf4jnsgd1na2vs0mg"},{"bike_id":"529faf86-6b7c-4adc-b233-8e2adc8826d2","system_id":"levelo_inurba_marseille","lat":43.24804,"lon":5.37459,"is_reserved":false,"is_disabled":false,"rental_uris":{"android":"levelo://app?vid=529faf86-6b7c-4adc-b233-8e2adc8826d2","ios":"levelo://app?vid=529faf86-6b7c-4adc-b233-8e2adc8826d2"},"vehicle_type_id":"4","last_reported":1730614406,"current_range_meters":38400,"station_id":"ce4bhgh2rcd13ifvqfb0","pricing_plan_id":"cebpf4jnsgd1na2vs0mg"},{"bike_id":"76867c33-2a30-4764-ab43-24e998b967a2","system_id":"levelo_inurba_marseille","lat":43.25,"lon":5.38931,"is_reserved":false,"is_disabled":false,"rental_uris":{"android":"levelo://app?vid=76867c33-2a30-4764-ab43-24e998b967a2","ios":"levelo://app?vid=76867c33-2a30-4764-ab43-24e998b967a2"},"vehicle_type_id":"4","last_reported":1730614406,"current_range_meters":38800,"station_id":"ce4bhgp2rcd13ifvqfd0","pricing_plan_id":"cebpf4jnsgd1na2vs0mg"},{"bike_id":"e712b4bf-48ef-4b84-aa58-a26dceb1077d","system_id":"levelo_inurba_marseille","lat":43.24673,"lon":5.38158,"is_reserved":false,"is_disabled":false,"rental_uris":{"android":"levelo://app?vid=e712b4bf-48ef-4b84-aa58-a26dceb1077d","ios":"levelo://app?vid=e712b4bf-48ef-4b84-aa58-a26dceb1077d"},"vehicle_type_id":"4","last_reported":1730614406,"current_range_meters":32400,"station_id":"ce4bhih2rcd13ifvqfr0","pricing_plan_id":"cebpf4jnsgd1na2vs0mg"},{"bike_id":"49f0f2d2-d3bb-4098-8c41-801a52b040be","system_id":"levelo_inurba_marseille","lat":43.28347,"lon":5.38111,"is_reserved":false,"is_disabled":false,"rental_uris":{"android":"levelo://app?vid=49f0f2d2-d3bb-4098-8c41-801a52b040be","ios":"levelo://app?vid=49f0f2d2-d3bb-4098-8c41-801a52b040be"},"vehicle_type_id":"4","last_reported":1730614406,"current_range_meters":38000,"station_id":"ce4bh412rcd13ifvqdr0","pricing_plan_id":"cebpf4jnsgd1na2vs0mg"},{"bike_id":"d4472d20-9c4b-4c70-ad00-3a005519a429","system_id":"levelo_inurba_marseille","lat":43.35425,"lon":5.35711,"is_reserved":false,"is_disabled":false,"rental_uris":{"android":"levelo://app?vid=d4472d20-9c4b-4c70-ad00-3a005519a429","ios":"levelo://app?vid=d4472d20-9c4b-4c70-ad00-3a005519a429"},"vehicle_type_id":"4","last_reported":1730614406,"current_range_meters":16800,"station_id":"","pricing_plan_id":"cebpf4jnsgd1na2vs0mg"},{"bike_id":"6338020e-474a-4c99-b365-eea26fe54739","system_id":"levelo_inurba_marseille","lat":43.3229,"lon":5.38278,"is_reserved":false,"is_disabled":false,"rental_uris":{"android":"levelo://app?vid=6338020e-474a-4c99-b365-eea26fe54739","ios":"levelo://app?vid=6338020e-474a-4c99-b365-eea26fe54739"},"vehicle_type_id":"4","last_reported":1730614406,"current_range_meters":38800,"station_id":"ce4bhr12rcd13ifvqhqg","pricing_plan_id":"cebpf4jnsgd1na2vs0mg"},{"bike_id":"7dc33034-781d-4ebf-9295-58711817662e","system_id":"levelo_inurba_marseille","lat":43.28695,"lon":5.39984,"is_reserved":false,"is_disabled":false,"rental_uris":{"android":"levelo://app?vid=7dc33034-781d-4ebf-9295-58711817662e","ios":"levelo://app?vid=7dc33034-781d-4ebf-9295-58711817662e"},"vehicle_type_id":"4","last_reported":1730614406,"current_range_meters":18800,"station_id":"ce4bho92rcd13ifvqh3g","pricing_plan_id":"cebpf4jnsgd1na2vs0mg"},{"bike_id":"4b222da4-8442-4555-b643-ea7c217414d0","system_id":"levelo_inurba_marseille","lat":43.27565,"lon":5.38432,"is_reserved":false,"is_disabled":false,"rental_uris":{"android":"levelo://app?vid=4b222da4-8442-4555-b643-ea7c217414d0","ios":"levelo://app?vid=4b222da4-8442-4555-b643-ea7c217414d0"},"vehicle_type_id":"4","last_reported":1730614406,"current_range_meters":6800,"station_id":"ce4bhh92rcd13ifvqfi0","pricing_plan_id":"cebpf4jnsgd1na2vs0mg"},{"bike_id":"ccf8f0af-3836-45e1-85d1-316001fc9f42","system_id":"levelo_inurba_marseille","lat":43.28699,"lon":5.37394,"is_reserved":false,"is_disabled":false,"rental_uris":{"android":"levelo://app?vid=ccf8f0af-3836-45e1-85d1-316001fc9f42","ios":"levelo://app?vid=ccf8f0af-3836-45e1-85d1-316001fc9f42"},"vehicle_type_id":"4","last_reported":1730614406,"current_range_meters":38800,"station_id":"ce4bh3p2rcd13ifvqdq0","pricing_plan_id":"cebpf4jnsgd1na2vs0mg"},{"bike_id":"99081d31-0c8e-498b-8e95-c319e84336b8","system_id":"levelo_inurba_marseille","lat":43.290088,"lon":5.356102,"is_reserved":false,"is_disabled":false,"rental_uris":{"android":"levelo://app?vid=99081d31-0c8e-498b-8e95-c319e84336b8","ios":"levelo://app?vid=99081d31-0c8e-498b-8e95-c319e84336b8"},"vehicle_type_id":"4","last_reported":1730614406,"current_range_meters":38800,"station_id":"ce4bhb92rcd13ifvqen0","pricing_plan_id":"cebpf4jnsgd1na2vs0mg"},{"bike_id":"63fe1a56-1065-4411-8df2-d10145b6c510","system_id":"levelo_inurba_marseille","lat":43.30468,"lon":5.37909,"is_reserved":false,"is_disabled":false,"rental_uris":{"android":"levelo://app?vid=63fe1a56-1065-4411-8df2-d10145b6c510","ios":"levelo://app?vid=63fe1a56-1065-4411-8df2-d10145b6c510"},"vehicle_type_id":"4","last_reported":1730614406,"current_range_meters":38800,"station_id":"ce4bgup2rcd13ifvqcn0","pricing_plan_id":"cebpf4jnsgd1na2vs0mg"},{"bike_id":"c75783be-3c14-4f9d-98a2-e74758d1ce23","system_id":"levelo_inurba_marseille","lat":43.28273,"lon":5.35083,"is_reserved":false,"is_disabled":false,"rental_uris":{"android":"levelo://app?vid=c75783be-3c14-4f9d-98a2-e74758d1ce23","ios":"levelo://app?vid=c75783be-3c14-4f9d-98a2-e74758d1ce23"},"vehicle_type_id":"4","last_reported":1730614406,"current_range_meters":36400,"station_id":"ce4bhbp2rcd13ifvqerg","pricing_plan_id":"cebpf4jnsgd1na2vs0mg"},{"bike_id":"72376235-6028-4de4-9dcf-027dcc193d0c","system_id":"levelo_inurba_marseille","lat":43.28945,"lon":5.36633,"is_reserved":false,"is_disabled":false,"rental_uris":{"android":"levelo://app?vid=72376235-6028-4de4-9dcf-027dcc193d0c","ios":"levelo://app?vid=72376235-6028-4de4-9dcf-027dcc193d0c"},"vehicle_type_id":"4","last_reported":1730614406,"current_range_meters":37600,"station_id":"ce4bhap2rcd13ifvqek0","pricing_plan_id":"cebpf4jnsgd1na2vs0mg"},{"bike_id":"c8c577b1-54df-4968-971a-f95b297dc964","system_id":"levelo_inurba_marseille","lat":43.29947,"lon":5.36555,"is_reserved":false,"is_disabled":false,"rental_uris":{"android":"levelo://app?vid=c8c577b1-54df-4968-971a-f95b297dc964","ios":"levelo://app?vid=c8c577b1-54df-4968-971a-f95b297dc964"},"vehicle_type_id":"4","last_reported":1730614406,"current_range_meters":32800,"station_id":"ce4bgm92rcd13ifvqbr0","pricing_plan_id":"cebpf4jnsgd1na2vs0mg"},{"bike_id":"d38e2970-cd95-460c-8752-b0514e97e786","system_id":"levelo_inurba_marseille","lat":43.30649,"lon":5.40082,"is_reserved":false,"is_disabled":false,"rental_uris":{"android":"levelo://app?vid=d38e2970-cd95-460c-8752-b0514e97e786","ios":"levelo://app?vid=d38e2970-cd95-460c-8752-b0514e97e786"},"vehicle_type_id":"4","last_reported":1730614406,"current_range_meters":34800,"station_id":"ce4bh112rcd13ifvqda0","pricing_plan_id":"cebpf4jnsgd1na2vs0mg"},{"bike_id":"7d1d8b3c-0803-4bf6-9721-d7161499653f","system_id":"levelo_inurba_marseille","lat":43.2408,"lon":5.37766,"is_reserved":false,"is_disabled":false,"rental_uris":{"android":"levelo://app?vid=7d1d8b3c-0803-4bf6-9721-d7161499653f","ios":"levelo://app?vid=7d1d8b3c-0803-4bf6-9721-d7161499653f"},"vehicle_type_id":"4","last_reported":1730614406,"current_range_meters":22000,"station_id":"ce4bhnp2rcd13ifvqgvg","pricing_plan_id":"cebpf4jnsgd1na2vs0mg"},{"bike_id":"f35cd096-8317-409a-9875-97da0ea574d4","system_id":"levelo_inurba_marseille","lat":43.32539,"lon":5.414541,"is_reserved":false,"is_disabled":false,"rental_uris":{"android":"levelo://app?vid=f35cd096-8317-409a-9875-97da0ea574d4","ios":"levelo://app?vid=f35cd096-8317-409a-9875-97da0ea574d4"},"vehicle_type_id":"4","last_reported":1730614406,"current_range_meters":37600,"station_id":"ce4bhq12rcd13ifvqhhg","pricing_plan_id":"cebpf4jnsgd1na2vs0mg"},{"bike_id":"75dcde3b-e30e-49c9-94a8-71caa44482f1","system_id":"levelo_inurba_marseille","lat":43.315348,"lon":5.380355,"is_reserved":false,"is_disabled":false,"rental_uris":{"android":"levelo://app?vid=75dcde3b-e30e-49c9-94a8-71caa44482f1","ios":"levelo://app?vid=75dcde3b-e30e-49c9-94a8-71caa44482f1"},"vehicle_type_id":"4","last_reported":1730614406,"current_range_meters":38800,"station_id":"ce4bhsp2rcd13ifvqi50","pricing_plan_id":"cebpf4jnsgd1na2vs0mg"},{"bike_id":"cd194c66-cb39-46cf-9fd8-b3971b5f865f","system_id":"levelo_inurba_marseille","lat":43.31488,"lon":5.37297,"is_reserved":false,"is_disabled":false,"rental_uris":{"android":"levelo://app?vid=cd194c66-cb39-46cf-9fd8-b3971b5f865f","ios":"levelo://app?vid=cd194c66-cb39-46cf-9fd8-b3971b5f865f"},"vehicle_type_id":"4","last_reported":1730614406,"current_range_meters":29600,"station_id":"ce4bgt12rcd13ifvqcd0","pricing_plan_id":"cebpf4jnsgd1na2vs0mg"},{"bike_id":"ab11e65a-42d3-4df0-b261-d368b51a3e50","system_id":"levelo_inurba_marseille","lat":43.314941,"lon":5.373103,"is_reserved":false,"is_disabled":false,"rental_uris":{"android":"levelo://app?vid=ab11e65a-42d3-4df0-b261-d368b51a3e50","ios":"levelo://app?vid=ab11e65a-42d3-4df0-b261-d368b51a3e50"},"vehicle_type_id":"4","last_reported":1730614406,"current_range_meters":37600,"station_id":"ce4bgt12rcd13ifvqcd0","pricing_plan_id":"cebpf4jnsgd1na2vs0mg"},{"bike_id":"1ddde7ff-3953-4942-bfab-1d2712b93546","system_id":"levelo_inurba_marseille","lat":43.31717,"lon":5.3776,"is_reserved":false,"is_disabled":false,"rental_uris":{"android":"levelo://app?vid=1ddde7ff-3953-4942-bfab-1d2712b93546","ios":"levelo://app?vid=1ddde7ff-3953-4942-bfab-1d2712b93546"},"vehicle_type_id":"4","last_reported":1730614406,"current_range_meters":38800,"station_id":"ce4bgth2rcd13ifvqch0","pricing_plan_id":"cebpf4jnsgd1na2vs0mg"},{"bike_id":"7261abbc-bef1-40b4-8225-29e060af6a97","system_id":"levelo_inurba_marseille","lat":43.27988,"lon":5.41664,"is_reserved":false,"is_disabled":false,"rental_uris":{"android":"levelo://app?vid=7261abbc-bef1-40b4-8225-29e060af6a97","ios":"levelo://app?vid=7261abbc-bef1-40b4-8225-29e060af6a97"},"vehicle_type_id":"4","last_reported":1730614406,"current_range_meters":38000,"station_id":"ce4bho12rcd13ifvqh1g","pricing_plan_id":"cebpf4jnsgd1na2vs0mg"},{"bike_id":"1d9cf179-b508-4afd-8083-368b80ce465d","system_id":"levelo_inurba_marseille","lat":43.25823,"lon":5.39429,"is_reserved":false,"is_disabled":false,"rental_uris":{"android":"levelo://app?vid=1d9cf179-b508-4afd-8083-368b80ce465d","ios":"levelo://app?vid=1d9cf179-b508-4afd-8083-368b80ce465d"},"vehicle_type_id":"4","last_reported":1730614406,"current_range_meters":28000,"station_id":"ce4bhip2rcd13ifvqft0","pricing_plan_id":"cebpf4jnsgd1na2vs0mg"},{"bike_id":"0d69bc68-9478-4e8c-9f2c-071d6fa26c33","system_id":"levelo_inurba_marseille","lat":43.2846,"lon":5.35894,"is_reserved":false,"is_disabled":false,"rental_uris":{"android":"levelo://app?vid=0d69bc68-9478-4e8c-9f2c-071d6fa26c33","ios":"levelo://app?vid=0d69bc68-9478-4e8c-9f2c-071d6fa26c33"},"vehicle_type_id":"4","last_reported":1730614406,"current_range_meters":14800,"station_id":"ce4bhah2rcd13ifvqei0","pricing_plan_id":"cebpf4jnsgd1na2vs0mg"},{"bike_id":"18402065-9e87-476b-95ad-30853de181a0","system_id":"levelo_inurba_marseille","lat":43.32455,"lon":5.45543,"is_reserved":false,"is_disabled":false,"rental_uris":{"android":"levelo://app?vid=18402065-9e87-476b-95ad-30853de181a0","ios":"levelo://app?vid=18402065-9e87-476b-95ad-30853de181a0"},"vehicle_type_id":"4","last_reported":1730614406,"current_range_meters":4400,"station_id":"","pricing_plan_id":"cebpf4jnsgd1na2vs0mg"},{"bike_id":"2573c78b-8e91-4015-bba1-598cab8ef4ef","system_id":"levelo_inurba_marseille","lat":43.29274,"lon":5.40121,"is_reserved":false,"is_disabled":false,"rental_uris":{"android":"levelo://app?vid=2573c78b-8e91-4015-bba1-598cab8ef4ef","ios":"levelo://app?vid=2573c78b-8e91-4015-bba1-598cab8ef4ef"},"vehicle_type_id":"4","last_reported":1730614406,"current_range_meters":36800,"station_id":"ce4bh312rcd13ifvqdk0","pricing_plan_id":"cebpf4jnsgd1na2vs0mg"},{"bike_id":"eec19395-2e17-468b-b160-2203495fa39c","system_id":"levelo_inurba_marseille","lat":43.28703,"lon":5.39987,"is_reserved":false,"is_disabled":false,"rental_uris":{"android":"levelo://app?vid=eec19395-2e17-468b-b160-2203495fa39c","ios":"levelo://app?vid=eec19395-2e17-468b-b160-2203495fa39c"},"vehicle_type_id":"4","last_reported":1730614406,"current_range_meters":27600,"station_id":"ce4bho92rcd13ifvqh3g","pricing_plan_id":"cebpf4jnsgd1na2vs0mg"},{"bike_id":"4eb01b0d-49fc-48ee-b782-54d621657f1b","system_id":"levelo_inurba_marseille","lat":43.31906,"lon":5.40746,"is_reserved":false,"is_disabled":false,"rental_uris":{"android":"levelo://app?vid=4eb01b0d-49fc-48ee-b782-54d621657f1b","ios":"levelo://app?vid=4eb01b0d-49fc-48ee-b782-54d621657f1b"},"vehicle_type_id":"4","last_reported":1730614406,"current_range_meters":32400,"station_id":"ce4bhq12rcd13ifvqhig","pricing_plan_id":"cebpf4jnsgd1na2vs0mg"},{"bike_id":"f90730aa-8241-4aad-86b2-c4b4611fa5ea","system_id":"levelo_inurba_marseille","lat":43.25937,"lon":5.4091,"is_reserved":false,"is_disabled":false,"rental_uris":{"android":"levelo://app?vid=f90730aa-8241-4aad-86b2-c4b4611fa5ea","ios":"levelo://app?vid=f90730aa-8241-4aad-86b2-c4b4611fa5ea"},"vehicle_type_id":"4","last_reported":1730614406,"current_range_meters":16800,"station_id":"ce4bhm92rcd13ifvqglg","pricing_plan_id":"cebpf4jnsgd1na2vs0mg"},{"bike_id":"28770d90-a747-4aa7-b51e-4e499c6f7582","system_id":"levelo_inurba_marseille","lat":43.33722,"lon":5.39181,"is_reserved":false,"is_disabled":false,"rental_uris":{"android":"levelo://app?vid=28770d90-a747-4aa7-b51e-4e499c6f7582","ios":"levelo://app?vid=28770d90-a747-4aa7-b51e-4e499c6f7582"},"vehicle_type_id":"4","last_reported":1730614406,"current_range_meters":30000,"station_id":"ce4bhr92rcd13ifvqhsg","pricing_plan_id":"cebpf4jnsgd1na2vs0mg"},{"bike_id":"d85910d8-d412-4b12-a122-3b51215851f8","system_id":"levelo_inurba_marseille","lat":43.31086,"lon":5.38365,"is_reserved":false,"is_disabled":false,"rental_uris":{"android":"levelo://app?vid=d85910d8-d412-4b12-a122-3b51215851f8","ios":"levelo://app?vid=d85910d8-d412-4b12-a122-3b51215851f8"},"vehicle_type_id":"4","last_reported":1730614406,"current_range_meters":31200,"station_id":"ce4bgv92rcd13ifvqcr0","pricing_plan_id":"cebpf4jnsgd1na2vs0mg"},{"bike_id":"61f26f1a-3012-4bcc-bbf3-435c78ebab81","system_id":"levelo_inurba_marseille","lat":43.27926,"lon":5.39572,"is_reserved":false,"is_disabled":false,"rental_uris":{"android":"levelo://app?vid=61f26f1a-3012-4bcc-bbf3-435c78ebab81","ios":"levelo://app?vid=61f26f1a-3012-4bcc-bbf3-435c78ebab81"},"vehicle_type_id":"4","last_reported":1730614406,"current_range_meters":27600,"station_id":"ce4bhf92rcd13ifvqf40","pricing_plan_id":"cebpf4jnsgd1na2vs0mg"},{"bike_id":"641b0db7-7360-4136-aa22-f190f407c863","system_id":"levelo_inurba_marseille","lat":43.29795,"lon":5.393379,"is_reserved":false,"is_disabled":false,"rental_uris":{"android":"levelo://app?vid=641b0db7-7360-4136-aa22-f190f407c863","ios":"levelo://app?vid=641b0db7-7360-4136-aa22-f190f407c863"},"vehicle_type_id":"4","last_reported":1730614406,"current_range_meters":26000,"station_id":"chh1huq6cuj3fo74tm60","pricing_plan_id":"cebpf4jnsgd1na2vs0mg"},{"bike_id":"751eec01-23b0-49aa-a2a3-e2d658155f8b","system_id":"levelo_inurba_marseille","lat":43.27173,"lon":5.40995,"is_reserved":false,"is_disabled":false,"rental_uris":{"android":"levelo://app?vid=751eec01-23b0-49aa-a2a3-e2d658155f8b","ios":"levelo://app?vid=751eec01-23b0-49aa-a2a3-e2d658155f8b"},"vehicle_type_id":"4","last_reported":1730614406,"current_range_meters":38800,"station_id":"ce4bhl12rcd13ifvqgf0","pricing_plan_id":"cebpf4jnsgd1na2vs0mg"},{"bike_id":"c7a6a60a-ebc3-43dc-847c-5817f23f3b49","system_id":"levelo_inurba_marseille","lat":43.25723,"lon":5.41105,"is_reserved":false,"is_disabled":false,"rental_uris":{"android":"levelo://app?vid=c7a6a60a-ebc3-43dc-847c-5817f23f3b49","ios":"levelo://app?vid=c7a6a60a-ebc3-43dc-847c-5817f23f3b49"},"vehicle_type_id":"4","last_reported":1730614406,"current_range_meters":7200,"station_id":"ce4bhkp2rcd13ifvqgd0","pricing_plan_id":"cebpf4jnsgd1na2vs0mg"},{"bike_id":"18d27624-2602-4653-ba11-7dedb28b39c0","system_id":"levelo_inurba_marseille","lat":43.30931,"lon":5.40144,"is_reserved":false,"is_disabled":false,"rental_uris":{"android":"levelo://app?vid=18d27624-2602-4653-ba11-7dedb28b39c0","ios":"levelo://app?vid=18d27624-2602-4653-ba11-7dedb28b39c0"},"vehicle_type_id":"4","last_reported":1730614406,"current_range_meters":24800,"station_id":"ce4bgvp2rcd13ifvqct0","pricing_plan_id":"cebpf4jnsgd1na2vs0mg"},{"bike_id":"1b22afb1-e566-455d-9848-d8ff891e663e","system_id":"levelo_inurba_marseille","lat":43.251159,"lon":5.403229,"is_reserved":false,"is_disabled":false,"rental_uris":{"android":"levelo://app?vid=1b22afb1-e566-455d-9848-d8ff891e663e","ios":"levelo://app?vid=1b22afb1-e566-455d-9848-d8ff891e663e"},"vehicle_type_id":"4","last_reported":1730614406,"current_range_meters":25200,"station_id":"ce4bhlh2rcd13ifvqgig","pricing_plan_id":"cebpf4jnsgd1na2vs0mg"},{"bike_id":"2d7cf0bd-f581-4576-a46e-1b0ef1769b3b","system_id":"levelo_inurba_marseille","lat":43.30953,"lon":5.39044,"is_reserved":false,"is_disabled":false,"rental_uris":{"android":"levelo://app?vid=2d7cf0bd-f581-4576-a46e-1b0ef1769b3b","ios":"levelo://app?vid=2d7cf0bd-f581-4576-a46e-1b0ef1769b3b"},"vehicle_type_id":"4","last_reported":1730614406,"current_range_meters":30400,"station_id":"ce4bgup2rcd13ifvqco0","pricing_plan_id":"cebpf4jnsgd1na2vs0mg"},{"bike_id":"0bbdb248-f4da-4d2c-bd87-5a0fa0739dd4","system_id":"levelo_inurba_marseille","lat":43.24074,"lon":5.37769,"is_reserved":false,"is_disabled":false,"rental_uris":{"android":"levelo://app?vid=0bbdb248-f4da-4d2c-bd87-5a0fa0739dd4","ios":"levelo://app?vid=0bbdb248-f4da-4d2c-bd87-5a0fa0739dd4"},"vehicle_type_id":"4","last_reported":1730614406,"current_range_meters":10800,"station_id":"ce4bhnp2rcd13ifvqgvg","pricing_plan_id":"cebpf4jnsgd1na2vs0mg"},{"bike_id":"37fe25be-a49e-4e62-a3e8-43f60282b067","system_id":"levelo_inurba_marseille","lat":43.28608,"lon":5.37071,"is_reserved":false,"is_disabled":false,"rental_uris":{"android":"levelo://app?vid=37fe25be-a49e-4e62-a3e8-43f60282b067","ios":"levelo://app?vid=37fe25be-a49e-4e62-a3e8-43f60282b067"},"vehicle_type_id":"4","last_reported":1730614406,"current_range_meters":22800,"station_id":"ce4bht12rcd13ifvqi60","pricing_plan_id":"cebpf4jnsgd1na2vs0mg"},{"bike_id":"c1e3f1fb-a976-4c88-946a-c0964acf9cad","system_id":"levelo_inurba_marseille","lat":43.27569,"lon":5.38437,"is_reserved":false,"is_disabled":false,"rental_uris":{"android":"levelo://app?vid=c1e3f1fb-a976-4c88-946a-c0964acf9cad","ios":"levelo://app?vid=c1e3f1fb-a976-4c88-946a-c0964acf9cad"},"vehicle_type_id":"4","last_reported":1730614406,"current_range_meters":39200,"station_id":"ce4bhh92rcd13ifvqfi0","pricing_plan_id":"cebpf4jnsgd1na2vs0mg"},{"bike_id":"3c142b9f-6d00-4e72-b257-549ba12f3702","system_id":"levelo_inurba_marseille","lat":43.29259,"lon":5.40908,"is_reserved":false,"is_disabled":false,"rental_uris":{"android":"levelo://app?vid=3c142b9f-6d00-4e72-b257-549ba12f3702","ios":"levelo://app?vid=3c142b9f-6d00-4e72-b257-549ba12f3702"},"vehicle_type_id":"4","last_reported":1730614406,"current_range_meters":33200,"station_id":"ce4bh192rcd13ifvqdc0","pricing_plan_id":"cebpf4jnsgd1na2vs0mg"},{"bike_id":"dfcf6a89-a923-4ca9-beae-4b01cfe38b57","system_id":"levelo_inurba_marseille","lat":43.31081,"lon":5.38362,"is_reserved":false,"is_disabled":false,"rental_uris":{"android":"levelo://app?vid=dfcf6a89-a923-4ca9-beae-4b01cfe38b57","ios":"levelo://app?vid=dfcf6a89-a923-4ca9-beae-4b01cfe38b57"},"vehicle_type_id":"4","last_reported":1730614406,"current_range_meters":22000,"station_id":"ce4bgv92rcd13ifvqcr0","pricing_plan_id":"cebpf4jnsgd1na2vs0mg"},{"bike_id":"4addb393-0f42-41ab-9a9c-32e4a28c4f71","system_id":"levelo_inurba_marseille","lat":43.26213,"lon":5.37442,"is_reserved":false,"is_disabled":false,"rental_uris":{"android":"levelo://app?vid=4addb393-0f42-41ab-9a9c-32e4a28c4f71","ios":"levelo://app?vid=4addb393-0f42-41ab-9a9c-32e4a28c4f71"},"vehicle_type_id":"4","last_reported":1730614406,"current_range_meters":36000,"station_id":"ce4bhgp2rcd13ifvqfc0","pricing_plan_id":"cebpf4jnsgd1na2vs0mg"},{"bike_id":"67f27790-369c-496e-9dda-769f0bfe7cd4","system_id":"levelo_inurba_marseille","lat":43.25501,"lon":5.37653,"is_reserved":false,"is_disabled":false,"rental_uris":{"android":"levelo://app?vid=67f27790-369c-496e-9dda-769f0bfe7cd4","ios":"levelo://app?vid=67f27790-369c-496e-9dda-769f0bfe7cd4"},"vehicle_type_id":"4","last_reported":1730614406,"current_range_meters":38400,"station_id":"ce4bhh12rcd13ifvqff0","pricing_plan_id":"cebpf4jnsgd1na2vs0mg"},{"bike_id":"e4076913-25a7-4304-83b4-9b1933c6ed9b","system_id":"levelo_inurba_marseille","lat":43.27995,"lon":5.40016,"is_reserved":false,"is_disabled":false,"rental_uris":{"android":"levelo://app?vid=e4076913-25a7-4304-83b4-9b1933c6ed9b","ios":"levelo://app?vid=e4076913-25a7-4304-83b4-9b1933c6ed9b"},"vehicle_type_id":"4","last_reported":1730614406,"current_range_meters":38800,"station_id":"ce4bho92rcd13ifvqh4g","pricing_plan_id":"cebpf4jnsgd1na2vs0mg"},{"bike_id":"f41faf26-2aaa-4db7-82f9-2606b3f6cffd","system_id":"levelo_inurba_marseille","lat":43.30934,"lon":5.40146,"is_reserved":false,"is_disabled":false,"rental_uris":{"android":"levelo://app?vid=f41faf26-2aaa-4db7-82f9-2606b3f6cffd","ios":"levelo://app?vid=f41faf26-2aaa-4db7-82f9-2606b3f6cffd"},"vehicle_type_id":"4","last_reported":1730614406,"current_range_meters":23200,"station_id":"ce4bgvp2rcd13ifvqct0","pricing_plan_id":"cebpf4jnsgd1na2vs0mg"},{"bike_id":"24ffd7c5-6473-484d-9c6b-b6420825c8ed","system_id":"levelo_inurba_marseille","lat":43.29898,"lon":5.43665,"is_reserved":false,"is_disabled":false,"rental_uris":{"android":"levelo://app?vid=24ffd7c5-6473-484d-9c6b-b6420825c8ed","ios":"levelo://app?vid=24ffd7c5-6473-484d-9c6b-b6420825c8ed"},"vehicle_type_id":"4","last_reported":1730614406,"current_range_meters":38800,"station_id":"ce4bhpp2rcd13ifvqhfg","pricing_plan_id":"cebpf4jnsgd1na2vs0mg"},{"bike_id":"977219da-76a7-4d8f-a196-6e4f2d9787c4","system_id":"levelo_inurba_marseille","lat":43.26785,"lon":5.39432,"is_reserved":false,"is_disabled":false,"rental_uris":{"android":"levelo://app?vid=977219da-76a7-4d8f-a196-6e4f2d9787c4","ios":"levelo://app?vid=977219da-76a7-4d8f-a196-6e4f2d9787c4"},"vehicle_type_id":"4","last_reported":1730614406,"current_range_meters":38000,"station_id":"ce4bhh12rcd13ifvqfg0","pricing_plan_id":"cebpf4jnsgd1na2vs0mg"},{"bike_id":"85a63d61-293f-4adc-846f-079a8da5970c","system_id":"levelo_inurba_marseille","lat":43.2835,"lon":5.38109,"is_reserved":false,"is_disabled":false,"rental_uris":{"android":"levelo://app?vid=85a63d61-293f-4adc-846f-079a8da5970c","ios":"levelo://app?vid=85a63d61-293f-4adc-846f-079a8da5970c"},"vehicle_type_id":"4","last_reported":1730614406,"current_range_meters":10800,"station_id":"ce4bh412rcd13ifvqdr0","pricing_plan_id":"cebpf4jnsgd1na2vs0mg"},{"bike_id":"3e83e42e-84a1-4fa6-80cb-e77919db3747","system_id":"levelo_inurba_marseille","lat":43.251199,"lon":5.40319,"is_reserved":false,"is_disabled":false,"rental_uris":{"android":"levelo://app?vid=3e83e42e-84a1-4fa6-80cb-e77919db3747","ios":"levelo://app?vid=3e83e42e-84a1-4fa6-80cb-e77919db3747"},"vehicle_type_id":"4","last_reported":1730614406,"current_range_meters":19600,"station_id":"ce4bhlh2rcd13ifvqgig","pricing_plan_id":"cebpf4jnsgd1na2vs0mg"},{"bike_id":"6e6c1416-464f-4f03-9742-bebcc8a06f1e","system_id":"levelo_inurba_marseille","lat":43.31758,"lon":5.39015,"is_reserved":false,"is_disabled":false,"rental_uris":{"android":"levelo://app?vid=6e6c1416-464f-4f03-9742-bebcc8a06f1e","ios":"levelo://app?vid=6e6c1416-464f-4f03-9742-bebcc8a06f1e"},"vehicle_type_id":"4","last_reported":1730614406,"current_range_meters":38800,"station_id":"ce4bhqp2rcd13ifvqhng","pricing_plan_id":"cebpf4jnsgd1na2vs0mg"},{"bike_id":"68ee4823-8219-4e40-934b-3c46becc94f7","system_id":"levelo_inurba_marseille","lat":43.31074,"lon":5.38357,"is_reserved":false,"is_disabled":false,"rental_uris":{"android":"levelo://app?vid=68ee4823-8219-4e40-934b-3c46becc94f7","ios":"levelo://app?vid=68ee4823-8219-4e40-934b-3c46becc94f7"},"vehicle_type_id":"4","last_reported":1730614406,"current_range_meters":30800,"station_id":"ce4bgv92rcd13ifvqcr0","pricing_plan_id":"cebpf4jnsgd1na2vs0mg"},{"bike_id":"c14b910d-c438-4986-9edc-d74caf84b8bd","system_id":"levelo_inurba_marseille","lat":43.25825,"lon":5.39432,"is_reserved":false,"is_disabled":false,"rental_uris":{"android":"levelo://app?vid=c14b910d-c438-4986-9edc-d74caf84b8bd","ios":"levelo://app?vid=c14b910d-c438-4986-9edc-d74caf84b8bd"},"vehicle_type_id":"4","last_reported":1730614406,"current_range_meters":38800,"station_id":"ce4bhip2rcd13ifvqft0","pricing_plan_id":"cebpf4jnsgd1na2vs0mg"},{"bike_id":"92c54c22-1b80-485c-bf71-bfc1e98b94d2","system_id":"levelo_inurba_marseille","lat":43.29039,"lon":5.39976,"is_reserved":false,"is_disabled":false,"rental_uris":{"android":"levelo://app?vid=92c54c22-1b80-485c-bf71-bfc1e98b94d2","ios":"levelo://app?vid=92c54c22-1b80-485c-bf71-bfc1e98b94d2"},"vehicle_type_id":"4","last_reported":1730614406,"current_range_meters":34000,"station_id":"ce4bh392rcd13ifvqdm0","pricing_plan_id":"cebpf4jnsgd1na2vs0mg"},{"bike_id":"4b775463-cf5a-40b4-8149-f6b055abd79c","system_id":"levelo_inurba_marseille","lat":43.26487,"lon":5.39552,"is_reserved":false,"is_disabled":false,"rental_uris":{"android":"levelo://app?vid=4b775463-cf5a-40b4-8149-f6b055abd79c","ios":"levelo://app?vid=4b775463-cf5a-40b4-8149-f6b055abd79c"},"vehicle_type_id":"4","last_reported":1730614406,"current_range_meters":38400,"station_id":"ce4bhi12rcd13ifvqfq0","pricing_plan_id":"cebpf4jnsgd1na2vs0mg"},{"bike_id":"8db110e7-67ba-4660-9ad0-490ee93fab14","system_id":"levelo_inurba_marseille","lat":43.30797,"lon":5.38169,"is_reserved":false,"is_disabled":false,"rental_uris":{"android":"levelo://app?vid=8db110e7-67ba-4660-9ad0-490ee93fab14","ios":"levelo://app?vid=8db110e7-67ba-4660-9ad0-490ee93fab14"},"vehicle_type_id":"4","last_reported":1730614406,"current_range_meters":27600,"station_id":"ce4bgt12rcd13ifvqce0","pricing_plan_id":"cebpf4jnsgd1na2vs0mg"},{"bike_id":"b5aac5ca-e4da-48dc-8d9b-90b641ecb1ea","system_id":"levelo_inurba_marseille","lat":43.27075,"lon":5.42282,"is_reserved":false,"is_disabled":false,"rental_uris":{"android":"levelo://app?vid=b5aac5ca-e4da-48dc-8d9b-90b641ecb1ea","ios":"levelo://app?vid=b5aac5ca-e4da-48dc-8d9b-90b641ecb1ea"},"vehicle_type_id":"4","last_reported":1730614406,"current_range_meters":38400,"station_id":"ce4bhk92rcd13ifvqgb0","pricing_plan_id":"cebpf4jnsgd1na2vs0mg"},{"bike_id":"b2d284dc-f1c7-4801-80ea-9b41b504091e","system_id":"levelo_inurba_marseille","lat":43.30597,"lon":5.37216,"is_reserved":false,"is_disabled":false,"rental_uris":{"android":"levelo://app?vid=b2d284dc-f1c7-4801-80ea-9b41b504091e","ios":"levelo://app?vid=b2d284dc-f1c7-4801-80ea-9b41b504091e"},"vehicle_type_id":"4","last_reported":1730614406,"current_range_meters":32800,"station_id":"ce4bgqh2rcd13ifvqc4g","pricing_plan_id":"cebpf4jnsgd1na2vs0mg"},{"bike_id":"5bed4c60-b912-42f6-b099-933c6ebb8aca","system_id":"levelo_inurba_marseille","lat":43.2583,"lon":5.3943,"is_reserved":false,"is_disabled":false,"rental_uris":{"android":"levelo://app?vid=5bed4c60-b912-42f6-b099-933c6ebb8aca","ios":"levelo://app?vid=5bed4c60-b912-42f6-b099-933c6ebb8aca"},"vehicle_type_id":"4","last_reported":1730614406,"current_range_meters":36800,"station_id":"ce4bhip2rcd13ifvqft0","pricing_plan_id":"cebpf4jnsgd1na2vs0mg"},{"bike_id":"f83073ed-6616-4982-9b44-90dc927b86fa","system_id":"levelo_inurba_marseille","lat":43.30252,"lon":5.4006,"is_reserved":false,"is_disabled":false,"rental_uris":{"android":"levelo://app?vid=f83073ed-6616-4982-9b44-90dc927b86fa","ios":"levelo://app?vid=f83073ed-6616-4982-9b44-90dc927b86fa"},"vehicle_type_id":"4","last_reported":1730614406,"current_range_meters":28000,"station_id":"ce4bgvh2rcd13ifvqcs0","pricing_plan_id":"cebpf4jnsgd1na2vs0mg"},{"bike_id":"7c52dca3-7bef-4bad-9fba-b9cb071437ae","system_id":"levelo_inurba_marseille","lat":43.30811,"lon":5.38156,"is_reserved":false,"is_disabled":false,"rental_uris":{"android":"levelo://app?vid=7c52dca3-7bef-4bad-9fba-b9cb071437ae","ios":"levelo://app?vid=7c52dca3-7bef-4bad-9fba-b9cb071437ae"},"vehicle_type_id":"4","last_reported":1730614406,"current_range_meters":30000,"station_id":"ce4bgt12rcd13ifvqce0","pricing_plan_id":"cebpf4jnsgd1na2vs0mg"},{"bike_id":"e4c327ef-91e6-45d8-acea-b018f56189b1","system_id":"levelo_inurba_marseille","lat":43.28719,"lon":5.39997,"is_reserved":false,"is_disabled":false,"rental_uris":{"android":"levelo://app?vid=e4c327ef-91e6-45d8-acea-b018f56189b1","ios":"levelo://app?vid=e4c327ef-91e6-45d8-acea-b018f56189b1"},"vehicle_type_id":"4","last_reported":1730614406,"current_range_meters":36800,"station_id":"ce4bho92rcd13ifvqh3g","pricing_plan_id":"cebpf4jnsgd1na2vs0mg"},{"bike_id":"0ed19e93-f1b8-43b5-bce6-546c496d7ed7","system_id":"levelo_inurba_marseille","lat":43.297304,"lon":5.37686,"is_reserved":false,"is_disabled":false,"rental_uris":{"android":"levelo://app?vid=0ed19e93-f1b8-43b5-bce6-546c496d7ed7","ios":"levelo://app?vid=0ed19e93-f1b8-43b5-bce6-546c496d7ed7"},"vehicle_type_id":"4","last_reported":1730614406,"current_range_meters":37600,"station_id":"ce4bgkh2rcd13ifvqbl0","pricing_plan_id":"cebpf4jnsgd1na2vs0mg"},{"bike_id":"391ffe5e-43fd-4312-9196-a8696c38e0ab","system_id":"levelo_inurba_marseille","lat":43.33724,"lon":5.3918,"is_reserved":false,"is_disabled":false,"rental_uris":{"android":"levelo://app?vid=391ffe5e-43fd-4312-9196-a8696c38e0ab","ios":"levelo://app?vid=391ffe5e-43fd-4312-9196-a8696c38e0ab"},"vehicle_type_id":"4","last_reported":1730614406,"current_range_meters":33200,"station_id":"ce4bhr92rcd13ifvqhsg","pricing_plan_id":"cebpf4jnsgd1na2vs0mg"},{"bike_id":"44062d9d-68c9-40e6-abbd-6934a4ae966d","system_id":"levelo_inurba_marseille","lat":43.28943,"lon":5.36631,"is_reserved":false,"is_disabled":false,"rental_uris":{"android":"levelo://app?vid=44062d9d-68c9-40e6-abbd-6934a4ae966d","ios":"levelo://app?vid=44062d9d-68c9-40e6-abbd-6934a4ae966d"},"vehicle_type_id":"4","last_reported":1730614406,"current_range_meters":36400,"station_id":"ce4bhap2rcd13ifvqek0","pricing_plan_id":"cebpf4jnsgd1na2vs0mg"},{"bike_id":"853bab73-c324-4805-9610-3c8850fef994","system_id":"levelo_inurba_marseille","lat":43.26487,"lon":5.39554,"is_reserved":false,"is_disabled":false,"rental_uris":{"android":"levelo://app?vid=853bab73-c324-4805-9610-3c8850fef994","ios":"levelo://app?vid=853bab73-c324-4805-9610-3c8850fef994"},"vehicle_type_id":"4","last_reported":1730614406,"current_range_meters":18000,"station_id":"ce4bhi12rcd13ifvqfq0","pricing_plan_id":"cebpf4jnsgd1na2vs0mg"},{"bike_id":"8c67d340-801d-46e5-b910-2f8aff3ff078","system_id":"levelo_inurba_marseille","lat":43.33318,"lon":5.37079,"is_reserved":false,"is_disabled":false,"rental_uris":{"android":"levelo://app?vid=8c67d340-801d-46e5-b910-2f8aff3ff078","ios":"levelo://app?vid=8c67d340-801d-46e5-b910-2f8aff3ff078"},"vehicle_type_id":"4","last_reported":1730614406,"current_range_meters":7200,"station_id":"","pricing_plan_id":"cebpf4jnsgd1na2vs0mg"},{"bike_id":"4a54db5d-2977-47eb-bcae-c8880baddda0","system_id":"levelo_inurba_marseille","lat":43.24994,"lon":5.38944,"is_reserved":false,"is_disabled":false,"rental_uris":{"android":"levelo://app?vid=4a54db5d-2977-47eb-bcae-c8880baddda0","ios":"levelo://app?vid=4a54db5d-2977-47eb-bcae-c8880baddda0"},"vehicle_type_id":"4","last_reported":1730614406,"current_range_meters":31200,"station_id":"ce4bhgp2rcd13ifvqfd0","pricing_plan_id":"cebpf4jnsgd1na2vs0mg"},{"bike_id":"54cc4ec6-c46d-4e95-9bf2-2a04f02a40ab","system_id":"levelo_inurba_marseille","lat":43.28416,"lon":5.37505,"is_reserved":false,"is_disabled":false,"rental_uris":{"android":"levelo://app?vid=54cc4ec6-c46d-4e95-9bf2-2a04f02a40ab","ios":"levelo://app?vid=54cc4ec6-c46d-4e95-9bf2-2a04f02a40ab"},"vehicle_type_id":"4","last_reported":1730614406,"current_range_meters":37600,"station_id":"ce4bh412rcd13ifvqds0","pricing_plan_id":"cebpf4jnsgd1na2vs0mg"},{"bike_id":"921069e2-e506-477e-8730-9e0ff76dae61","system_id":"levelo_inurba_marseille","lat":43.24076,"lon":5.37767,"is_reserved":false,"is_disabled":false,"rental_uris":{"android":"levelo://app?vid=921069e2-e506-477e-8730-9e0ff76dae61","ios":"levelo://app?vid=921069e2-e506-477e-8730-9e0ff76dae61"},"vehicle_type_id":"4","last_reported":1730614406,"current_range_meters":37600,"station_id":"ce4bhnp2rcd13ifvqgvg","pricing_plan_id":"cebpf4jnsgd1na2vs0mg"},{"bike_id":"e2634b22-5f17-4345-a889-22a44b7f45e9","system_id":"levelo_inurba_marseille","lat":43.27997,"lon":5.40021,"is_reserved":false,"is_disabled":false,"rental_uris":{"android":"levelo://app?vid=e2634b22-5f17-4345-a889-22a44b7f45e9","ios":"levelo://app?vid=e2634b22-5f17-4345-a889-22a44b7f45e9"},"vehicle_type_id":"4","last_reported":1730614406,"current_range_meters":18800,"station_id":"ce4bho92rcd13ifvqh4g","pricing_plan_id":"cebpf4jnsgd1na2vs0mg"},{"bike_id":"61414efe-131d-4b67-88a9-f5b9c1773029","system_id":"levelo_inurba_marseille","lat":43.28481,"lon":5.38551,"is_reserved":false,"is_disabled":false,"rental_uris":{"android":"levelo://app?vid=61414efe-131d-4b67-88a9-f5b9c1773029","ios":"levelo://app?vid=61414efe-131d-4b67-88a9-f5b9c1773029"},"vehicle_type_id":"4","last_reported":1730614406,"current_range_meters":16000,"station_id":"ce4bh8p2rcd13ifvqeb0","pricing_plan_id":"cebpf4jnsgd1na2vs0mg"},{"bike_id":"704eba55-73fe-495c-8b3d-68b1d87c8902","system_id":"levelo_inurba_marseille","lat":43.29799,"lon":5.4042,"is_reserved":false,"is_disabled":false,"rental_uris":{"android":"levelo://app?vid=704eba55-73fe-495c-8b3d-68b1d87c8902","ios":"levelo://app?vid=704eba55-73fe-495c-8b3d-68b1d87c8902"},"vehicle_type_id":"4","last_reported":1730614406,"current_range_meters":23200,"station_id":"ce4bh112rcd13ifvqd90","pricing_plan_id":"cebpf4jnsgd1na2vs0mg"},{"bike_id":"b5c5b826-7f17-4ea6-9a4c-55108d171aa0","system_id":"levelo_inurba_marseille","lat":43.31277,"lon":5.40173,"is_reserved":false,"is_disabled":false,"rental_uris":{"android":"levelo://app?vid=b5c5b826-7f17-4ea6-9a4c-55108d171aa0","ios":"levelo://app?vid=b5c5b826-7f17-4ea6-9a4c-55108d171aa0"},"vehicle_type_id":"4","last_reported":1730614406,"current_range_meters":27600,"station_id":"ce4bh092rcd13ifvqd30","pricing_plan_id":"cebpf4jnsgd1na2vs0mg"},{"bike_id":"3c90fc8f-ed1d-4e88-8797-d27a0c30fd70","system_id":"levelo_inurba_marseille","lat":43.25721,"lon":5.411121,"is_reserved":false,"is_disabled":false,"rental_uris":{"android":"levelo://app?vid=3c90fc8f-ed1d-4e88-8797-d27a0c30fd70","ios":"levelo://app?vid=3c90fc8f-ed1d-4e88-8797-d27a0c30fd70"},"vehicle_type_id":"4","last_reported":1730614406,"current_range_meters":38800,"station_id":"ce4bhkp2rcd13ifvqgd0","pricing_plan_id":"cebpf4jnsgd1na2vs0mg"},{"bike_id":"d16597ad-1553-4bf6-a420-22d1707e70d3","system_id":"levelo_inurba_marseille","lat":43.32663,"lon":5.41003,"is_reserved":false,"is_disabled":false,"rental_uris":{"android":"levelo://app?vid=d16597ad-1553-4bf6-a420-22d1707e70d3","ios":"levelo://app?vid=d16597ad-1553-4bf6-a420-22d1707e70d3"},"vehicle_type_id":"4","last_reported":1730614406,"current_range_meters":39200,"station_id":"ce4bhpp2rcd13ifvqhgg","pricing_plan_id":"cebpf4jnsgd1na2vs0mg"},{"bike_id":"4046578d-64b0-4da2-a67a-24cc0a3c974f","system_id":"levelo_inurba_marseille","lat":43.304392,"lon":5.388967,"is_reserved":false,"is_disabled":false,"rental_uris":{"android":"levelo://app?vid=4046578d-64b0-4da2-a67a-24cc0a3c974f","ios":"levelo://app?vid=4046578d-64b0-4da2-a67a-24cc0a3c974f"},"vehicle_type_id":"4","last_reported":1730614406,"current_range_meters":39200,"station_id":"ce4bgk12rcd13ifvqbi0","pricing_plan_id":"cebpf4jnsgd1na2vs0mg"},{"bike_id":"1b76da04-24af-4551-be92-5b5e0e7c5288","system_id":"levelo_inurba_marseille","lat":43.27491,"lon":5.4246,"is_reserved":false,"is_disabled":false,"rental_uris":{"android":"levelo://app?vid=1b76da04-24af-4551-be92-5b5e0e7c5288","ios":"levelo://app?vid=1b76da04-24af-4551-be92-5b5e0e7c5288"},"vehicle_type_id":"4","last_reported":1730614406,"current_range_meters":38800,"station_id":"ce4bhn92rcd13ifvqgrg","pricing_plan_id":"cebpf4jnsgd1na2vs0mg"},{"bike_id":"4469e99a-2719-48f6-aca4-9a1555f33b5a","system_id":"levelo_inurba_marseille","lat":43.29799,"lon":5.3812,"is_reserved":false,"is_disabled":false,"rental_uris":{"android":"levelo://app?vid=4469e99a-2719-48f6-aca4-9a1555f33b5a","ios":"levelo://app?vid=4469e99a-2719-48f6-aca4-9a1555f33b5a"},"vehicle_type_id":"4","last_reported":1730614406,"current_range_meters":19600,"station_id":"ce4bgip2rcd13ifvqbb0","pricing_plan_id":"cebpf4jnsgd1na2vs0mg"},{"bike_id":"540e2233-9952-44d3-9e22-d0acfe51609d","system_id":"levelo_inurba_marseille","lat":43.30439,"lon":5.38895,"is_reserved":false,"is_disabled":false,"rental_uris":{"android":"levelo://app?vid=540e2233-9952-44d3-9e22-d0acfe51609d","ios":"levelo://app?vid=540e2233-9952-44d3-9e22-d0acfe51609d"},"vehicle_type_id":"4","last_reported":1730614406,"current_range_meters":38400,"station_id":"ce4bgk12rcd13ifvqbi0","pricing_plan_id":"cebpf4jnsgd1na2vs0mg"},{"bike_id":"03523498-bdf2-43d9-aa27-669f03c4fc00","system_id":"levelo_inurba_marseille","lat":43.28935,"lon":5.36393,"is_reserved":false,"is_disabled":false,"rental_uris":{"android":"levelo://app?vid=03523498-bdf2-43d9-aa27-669f03c4fc00","ios":"levelo://app?vid=03523498-bdf2-43d9-aa27-669f03c4fc00"},"vehicle_type_id":"4","last_reported":1730614406,"current_range_meters":16000,"station_id":"ce4bhc92rcd13ifvqetg","pricing_plan_id":"cebpf4jnsgd1na2vs0mg"},{"bike_id":"aec75234-6564-49c7-9ae2-e5c212e97cf0","system_id":"levelo_inurba_marseille","lat":43.30652,"lon":5.4009,"is_reserved":false,"is_disabled":false,"rental_uris":{"android":"levelo://app?vid=aec75234-6564-49c7-9ae2-e5c212e97cf0","ios":"levelo://app?vid=aec75234-6564-49c7-9ae2-e5c212e97cf0"},"vehicle_type_id":"4","last_reported":1730614406,"current_range_meters":39200,"station_id":"ce4bh112rcd13ifvqda0","pricing_plan_id":"cebpf4jnsgd1na2vs0mg"},{"bike_id":"b2249bc4-50da-41dd-bac2-772151234d9e","system_id":"levelo_inurba_marseille","lat":43.24649,"lon":5.38895,"is_reserved":false,"is_disabled":false,"rental_uris":{"android":"levelo://app?vid=b2249bc4-50da-41dd-bac2-772151234d9e","ios":"levelo://app?vid=b2249bc4-50da-41dd-bac2-772151234d9e"},"vehicle_type_id":"4","last_reported":1730614406,"current_range_meters":37600,"station_id":"ce4bhg12rcd13ifvqf60","pricing_plan_id":"cebpf4jnsgd1na2vs0mg"},{"bike_id":"d5324ca5-5a3a-4892-bb8c-7dbf331e6ea6","system_id":"levelo_inurba_marseille","lat":43.32481,"lon":5.36576,"is_reserved":false,"is_disabled":false,"rental_uris":{"android":"levelo://app?vid=d5324ca5-5a3a-4892-bb8c-7dbf331e6ea6","ios":"levelo://app?vid=d5324ca5-5a3a-4892-bb8c-7dbf331e6ea6"},"vehicle_type_id":"4","last_reported":1730614406,"current_range_meters":39200,"station_id":"ce4bhs12rcd13ifvqhvg","pricing_plan_id":"cebpf4jnsgd1na2vs0mg"},{"bike_id":"e78203ce-34b1-4163-a0e0-e2d232fb52b4","system_id":"levelo_inurba_marseille","lat":43.30194,"lon":5.36617,"is_reserved":false,"is_disabled":false,"rental_uris":{"android":"levelo://app?vid=e78203ce-34b1-4163-a0e0-e2d232fb52b4","ios":"levelo://app?vid=e78203ce-34b1-4163-a0e0-e2d232fb52b4"},"vehicle_type_id":"4","last_reported":1730614406,"current_range_meters":38800,"station_id":"ce4bgrh2rcd13ifvqc8g","pricing_plan_id":"cebpf4jnsgd1na2vs0mg"},{"bike_id":"6be7270a-2704-4485-a493-6b103dd8c08b","system_id":"levelo_inurba_marseille","lat":43.2894,"lon":5.36635,"is_reserved":false,"is_disabled":false,"rental_uris":{"android":"levelo://app?vid=6be7270a-2704-4485-a493-6b103dd8c08b","ios":"levelo://app?vid=6be7270a-2704-4485-a493-6b103dd8c08b"},"vehicle_type_id":"4","last_reported":1730614406,"current_range_meters":38800,"station_id":"ce4bhap2rcd13ifvqek0","pricing_plan_id":"cebpf4jnsgd1na2vs0mg"},{"bike_id":"508d06dc-5186-47db-9a1e-12e21771d59f","system_id":"levelo_inurba_marseille","lat":43.28715,"lon":5.37946,"is_reserved":false,"is_disabled":false,"rental_uris":{"android":"levelo://app?vid=508d06dc-5186-47db-9a1e-12e21771d59f","ios":"levelo://app?vid=508d06dc-5186-47db-9a1e-12e21771d59f"},"vehicle_type_id":"4","last_reported":1730614406,"current_range_meters":38800,"station_id":"ce4bh9p2rcd13ifvqec0","pricing_plan_id":"cebpf4jnsgd1na2vs0mg"},{"bike_id":"2761995a-ee86-4ea3-a322-4933e1cca2b3","system_id":"levelo_inurba_marseille","lat":43.28706,"lon":5.39983,"is_reserved":false,"is_disabled":false,"rental_uris":{"android":"levelo://app?vid=2761995a-ee86-4ea3-a322-4933e1cca2b3","ios":"levelo://app?vid=2761995a-ee86-4ea3-a322-4933e1cca2b3"},"vehicle_type_id":"4","last_reported":1730614406,"current_range_meters":36400,"station_id":"ce4bho92rcd13ifvqh3g","pricing_plan_id":"cebpf4jnsgd1na2vs0mg"},{"bike_id":"5c74527c-010a-411f-8275-f8d2754af41e","system_id":"levelo_inurba_marseille","lat":43.28155,"lon":5.426411,"is_reserved":false,"is_disabled":false,"rental_uris":{"android":"levelo://app?vid=5c74527c-010a-411f-8275-f8d2754af41e","ios":"levelo://app?vid=5c74527c-010a-411f-8275-f8d2754af41e"},"vehicle_type_id":"4","last_reported":1730614406,"current_range_meters":38400,"station_id":"ce4bhnh2rcd13ifvqgug","pricing_plan_id":"cebpf4jnsgd1na2vs0mg"},{"bike_id":"048d7dd7-b96c-4fc9-b7b8-0a94d881b93b","system_id":"levelo_inurba_marseille","lat":43.290039,"lon":5.356076,"is_reserved":false,"is_disabled":false,"rental_uris":{"android":"levelo://app?vid=048d7dd7-b96c-4fc9-b7b8-0a94d881b93b","ios":"levelo://app?vid=048d7dd7-b96c-4fc9-b7b8-0a94d881b93b"},"vehicle_type_id":"4","last_reported":1730614406,"current_range_meters":2800,"station_id":"ce4bhb92rcd13ifvqen0","pricing_plan_id":"cebpf4jnsgd1na2vs0mg"},{"bike_id":"92ce6d4a-e55a-47e8-9fd5-0286331b069e","system_id":"levelo_inurba_marseille","lat":43.2573,"lon":5.41107,"is_reserved":false,"is_disabled":false,"rental_uris":{"android":"levelo://app?vid=92ce6d4a-e55a-47e8-9fd5-0286331b069e","ios":"levelo://app?vid=92ce6d4a-e55a-47e8-9fd5-0286331b069e"},"vehicle_type_id":"4","last_reported":1730614406,"current_range_meters":38000,"station_id":"ce4bhkp2rcd13ifvqgd0","pricing_plan_id":"cebpf4jnsgd1na2vs0mg"},{"bike_id":"2f070280-4a41-4b0b-97a9-7595779ce0c9","system_id":"levelo_inurba_marseille","lat":43.30254,"lon":5.40055,"is_reserved":false,"is_disabled":false,"rental_uris":{"android":"levelo://app?vid=2f070280-4a41-4b0b-97a9-7595779ce0c9","ios":"levelo://app?vid=2f070280-4a41-4b0b-97a9-7595779ce0c9"},"vehicle_type_id":"4","last_reported":1730614406,"current_range_meters":35600,"station_id":"ce4bgvh2rcd13ifvqcs0","pricing_plan_id":"cebpf4jnsgd1na2vs0mg"},{"bike_id":"ef99b779-9220-4b62-8f05-a9f54a9fbdcd","system_id":"levelo_inurba_marseille","lat":43.30595,"lon":5.39355,"is_reserved":false,"is_disabled":false,"rental_uris":{"android":"levelo://app?vid=ef99b779-9220-4b62-8f05-a9f54a9fbdcd","ios":"levelo://app?vid=ef99b779-9220-4b62-8f05-a9f54a9fbdcd"},"vehicle_type_id":"4","last_reported":1730614406,"current_range_meters":14800,"station_id":"ce4bh0p2rcd13ifvqd80","pricing_plan_id":"cebpf4jnsgd1na2vs0mg"},{"bike_id":"c36500d8-3c1b-40b4-b412-de69c457b9cb","system_id":"levelo_inurba_marseille","lat":43.27609,"lon":5.4176,"is_reserved":false,"is_disabled":false,"rental_uris":{"android":"levelo://app?vid=c36500d8-3c1b-40b4-b412-de69c457b9cb","ios":"levelo://app?vid=c36500d8-3c1b-40b4-b412-de69c457b9cb"},"vehicle_type_id":"4","last_reported":1730614406,"current_range_meters":8800,"station_id":"","pricing_plan_id":"cebpf4jnsgd1na2vs0mg"},{"bike_id":"477d9759-9655-4541-82c7-c27c886d0ee2","system_id":"levelo_inurba_marseille","lat":43.27812,"lon":5.40721,"is_reserved":false,"is_disabled":false,"rental_uris":{"android":"levelo://app?vid=477d9759-9655-4541-82c7-c27c886d0ee2","ios":"levelo://app?vid=477d9759-9655-4541-82c7-c27c886d0ee2"},"vehicle_type_id":"4","last_reported":1730614406,"current_range_meters":37600,"station_id":"ce4bhnh2rcd13ifvqgtg","pricing_plan_id":"cebpf4jnsgd1na2vs0mg"},{"bike_id":"944fddd6-b40e-4821-9ea8-a89df4cf3005","system_id":"levelo_inurba_marseille","lat":43.28702,"lon":5.37401,"is_reserved":false,"is_disabled":false,"rental_uris":{"android":"levelo://app?vid=944fddd6-b40e-4821-9ea8-a89df4cf3005","ios":"levelo://app?vid=944fddd6-b40e-4821-9ea8-a89df4cf3005"},"vehicle_type_id":"4","last_reported":1730614406,"current_range_meters":26800,"station_id":"ce4bh3p2rcd13ifvqdq0","pricing_plan_id":"cebpf4jnsgd1na2vs0mg"},{"bike_id":"0ccb3142-79fe-4218-9a43-31a24baec800","system_id":"levelo_inurba_marseille","lat":43.28409,"lon":5.37517,"is_reserved":false,"is_disabled":false,"rental_uris":{"android":"levelo://app?vid=0ccb3142-79fe-4218-9a43-31a24baec800","ios":"levelo://app?vid=0ccb3142-79fe-4218-9a43-31a24baec800"},"vehicle_type_id":"4","last_reported":1730614406,"current_range_meters":28000,"station_id":"ce4bh412rcd13ifvqds0","pricing_plan_id":"cebpf4jnsgd1na2vs0mg"},{"bike_id":"5fccdc8c-66d4-4706-9e7b-ab05bf10c1d2","system_id":"levelo_inurba_marseille","lat":43.279473,"lon":5.41041,"is_reserved":false,"is_disabled":false,"rental_uris":{"android":"levelo://app?vid=5fccdc8c-66d4-4706-9e7b-ab05bf10c1d2","ios":"levelo://app?vid=5fccdc8c-66d4-4706-9e7b-ab05bf10c1d2"},"vehicle_type_id":"4","last_reported":1730614406,"current_range_meters":10000,"station_id":"ce4bhnp2rcd13ifvqh0g","pricing_plan_id":"cebpf4jnsgd1na2vs0mg"},{"bike_id":"ab9cb399-eeb7-4811-b418-db73fb440597","system_id":"levelo_inurba_marseille","lat":43.262011,"lon":5.379324,"is_reserved":false,"is_disabled":false,"rental_uris":{"android":"levelo://app?vid=ab9cb399-eeb7-4811-b418-db73fb440597","ios":"levelo://app?vid=ab9cb399-eeb7-4811-b418-db73fb440597"},"vehicle_type_id":"4","last_reported":1730614406,"current_range_meters":38800,"station_id":"ce4bhjp2rcd13ifvqg90","pricing_plan_id":"cebpf4jnsgd1na2vs0mg"},{"bike_id":"7f708895-ae9d-4c2a-9981-bf6833a6bb38","system_id":"levelo_inurba_marseille","lat":43.28699,"lon":5.39983,"is_reserved":false,"is_disabled":false,"rental_uris":{"android":"levelo://app?vid=7f708895-ae9d-4c2a-9981-bf6833a6bb38","ios":"levelo://app?vid=7f708895-ae9d-4c2a-9981-bf6833a6bb38"},"vehicle_type_id":"4","last_reported":1730614406,"current_range_meters":38800,"station_id":"ce4bho92rcd13ifvqh3g","pricing_plan_id":"cebpf4jnsgd1na2vs0mg"},{"bike_id":"ace45a37-cd21-442d-a052-72e120b857af","system_id":"levelo_inurba_marseille","lat":43.30613,"lon":5.37223,"is_reserved":false,"is_disabled":false,"rental_uris":{"android":"levelo://app?vid=ace45a37-cd21-442d-a052-72e120b857af","ios":"levelo://app?vid=ace45a37-cd21-442d-a052-72e120b857af"},"vehicle_type_id":"4","last_reported":1730614406,"current_range_meters":37600,"station_id":"ce4bgqh2rcd13ifvqc4g","pricing_plan_id":"cebpf4jnsgd1na2vs0mg"},{"bike_id":"09e15d1a-bbf9-41a4-8ebc-257359c10669","system_id":"levelo_inurba_marseille","lat":43.30312,"lon":5.36888,"is_reserved":false,"is_disabled":false,"rental_uris":{"android":"levelo://app?vid=09e15d1a-bbf9-41a4-8ebc-257359c10669","ios":"levelo://app?vid=09e15d1a-bbf9-41a4-8ebc-257359c10669"},"vehicle_type_id":"4","last_reported":1730614406,"current_range_meters":36400,"station_id":"ce4bgqh2rcd13ifvqc5g","pricing_plan_id":"cebpf4jnsgd1na2vs0mg"},