{"last_updated":1691604510,"ttl":30,"version":"2.2","data":{"bikes":[{"bike_id":"705e7b29-1936-41d5-9701-4cae80307524","system_id":"levelo_inurba_marseille","lat":43.312239,"lon":5.368562,"is_reserved":false,"is_disabled":false,"rental_uris":{"android":"levelo://app?vid=705e7b29-1936-41d5-9701-4cae80307524","ios":"levelo://app?vid=705e7b29-1936-41d5-9701-4cae80307524"},"vehicle_type_id":"4","last_reported":1691604510,"current_range_meters":23600,"station_id":"ce4bgl92rcd13ifvqbq0","pricing_plan_id":"free"},{"bike_id":"ffba1dea-472b-44b7-adde-22b00558be56","system_id":"levelo_inurba_marseille","lat":43.312239,"lon":5.368562,"is_reserved":false,"is_disabled":false,"rental_uris":{"android":"levelo://app?vid=ffba1dea-472b-44b7-adde-22b00558be56","ios":"levelo://app?vid=ffba1dea-472b-44b7-adde-22b00558be56"},"vehicle_type_id":"4","last_reported":1691604510,"current_range_meters":4000,"station_id":"ce4bgl92rcd13ifvqbq0","pricing_plan_id":"free"},{"bike_id":"28f8b4c3-f115-49fd-9063-fff1f14c4979","system_id":"levelo_inurba_marseille","lat":43.309076,"lon":5.368465,"is_reserved":false,"is_disabled":false,"rental_uris":{"android":"levelo://app?vid=28f8b4c3-f115-49fd-9063-fff1f14c4979","ios":"levelo://app?vid=28f8b4c3-f115-49fd-9063-fff1f14c4979"},"vehicle_type_id":"4","last_reported":1691604510,"current_range_meters":1600,"station_id":"ce4bgn92rcd13ifvqbvg","pricing_plan_id":"free"},{"bike_id":"10d1de8f-eeb8-42ab-8878-01a0b820532a","system_id":"levelo_inurba_marseille","lat":43.309076,"lon":5.368465,"is_reserved":false,"is_disabled":false,"rental_uris":{"android":"levelo://app?vid=10d1de8f-eeb8-42ab-8878-01a0b820532a","ios":"levelo://app?vid=10d1de8f-eeb8-42ab-8878-01a0b820532a"},"vehicle_type_id":"4","last_reported":1691604510,"current_range_meters":13200,"station_id":"ce4bgn92rcd13ifvqbvg","pricing_plan_id":"free"},{"bike_id":"e4296b0c-0c1f-40d9-aa6a-2d3d1e33efa6","system_id":"levelo_inurba_marseille","lat":43.31489,"lon":5.37308,"is_reserved":false,"is_disabled":false,"rental_uris":{"android":"levelo://app?vid=e4296b0c-0c1f-40d9-aa6a-2d3d1e33efa6","ios":"levelo://app?vid=e4296b0c-0c1f-40d9-aa6a-2d3d1e33efa6"},"vehicle_type_id":"4","last_reported":1691604510,"current_range_meters":0,"station_id":"ce4bgt12rcd13ifvqcd0","pricing_plan_id":"free"},{"bike_id":"25e194c0-0e1b-44e5-8af9-267b646885fc","system_id":"levelo_inurba_marseille","lat":43.314811,"lon":5.373104,"is_reserved":false,"is_disabled":false,"rental_uris":{"android":"levelo://app?vid=25e194c0-0e1b-44e5-8af9-267b646885fc","ios":"levelo://app?vid=25e194c0-0e1b-44e5-8af9-267b646885fc"},"vehicle_type_id":"4","last_reported":1691604510,"current_range_meters":400,"station_id":"ce4bgt12rcd13ifvqcd0","pricing_plan_id":"free"},{"bike_id":"d9bfec9c-2a97-4669-b215-c98a85e102db","system_id":"levelo_inurba_marseille","lat":43.305368,"lon":5.367343,"is_reserved":false,"is_disabled":false,"rental_uris":{"android":"levelo://app?vid=d9bfec9c-2a97-4669-b215-c98a85e102db","ios":"levelo://app?vid=d9bfec9c-2a97-4669-b215-c98a85e102db"},"vehicle_type_id":"4","last_reported":1691604510,"current_range_meters":26400,"station_id":"ce4bgrp2rcd13ifvqc9g","pricing_plan_id":"free"},{"bike_id":"9304b1c6-3fb5-4417-b9d0-198072026010","system_id":"levelo_inurba_marseille","lat":43.3061,"lon":5.37231,"is_reserved":false,"is_disabled":false,"rental_uris":{"android":"levelo://app?vid=9304b1c6-3fb5-4417-b9d0-198072026010","ios":"levelo://app?vid=9304b1c6-3fb5-4417-b9d0-198072026010"},"vehicle_type_id":"4","last_reported":1691604510,"current_range_meters":23600,"station_id":"","pricing_plan_id":"free"},{"bike_id":"d807099d-9cea-40d2-b69d-e88d024761e9","system_id":"levelo_inurba_marseille","lat":43.31119,"lon":5.37762,"is_reserved":false,"is_disabled":false,"rental_uris":{"android":"levelo://app?vid=d807099d-9cea-40d2-b69d-e88d024761e9","ios":"levelo://app?vid=d807099d-9cea-40d2-b69d-e88d024761e9"},"vehicle_type_id":"4","last_reported":1691604510,"current_range_meters":29600,"station_id":"ce4bgt92rcd13ifvqcg0","pricing_plan_id":"free"},{"bike_id":"4f717866-d364-4e9a-b3c1-01d819498732","system_id":"levelo_inurba_marseille","lat":43.30819,"lon":5.37669,"is_reserved":false,"is_disabled":false,"rental_uris":{"android":"levelo://app?vid=4f717866-d364-4e9a-b3c1-01d819498732","ios":"levelo://app?vid=4f717866-d364-4e9a-b3c1-01d819498732"},"vehicle_type_id":"4","last_reported":1691604510,"current_range_meters":30400,"station_id":"ce4bgv92rcd13ifvqcq0","pricing_plan_id":"free"},{"bike_id":"4577e4e1-3be8-4fda-806c-2508181485e3","system_id":"levelo_inurba_marseille","lat":43.317075,"lon":5.377367,"is_reserved":false,"is_disabled":false,"rental_uris":{"android":"levelo://app?vid=4577e4e1-3be8-4fda-806c-2508181485e3","ios":"levelo://app?vid=4577e4e1-3be8-4fda-806c-2508181485e3"},"vehicle_type_id":"4","last_reported":1691604510,"current_range_meters":3200,"station_id":"ce4bgth2rcd13ifvqch0","pricing_plan_id":"free"},{"bike_id":"20b5ce43-c7f1-4b3b-b3b7-a6912248472f","system_id":"levelo_inurba_marseille","lat":43.317075,"lon":5.377367,"is_reserved":false,"is_disabled":false,"rental_uris":{"android":"levelo://app?vid=20b5ce43-c7f1-4b3b-b3b7-a6912248472f","ios":"levelo://app?vid=20b5ce43-c7f1-4b3b-b3b7-a6912248472f"},"vehicle_type_id":"4","last_reported":1691604510,"current_range_meters":31200,"station_id":"ce4bgth2rcd13ifvqch0","pricing_plan_id":"free"},{"bike_id":"65affa8a-9878-4fb2-aeeb-5e00e608d8f2","system_id":"levelo_inurba_marseille","lat":43.317075,"lon":5.377367,"is_reserved":false,"is_disabled":false,"rental_uris":{"android":"levelo://app?vid=65affa8a-9878-4fb2-aeeb-5e00e608d8f2","ios":"levelo://app?vid=65affa8a-9878-4fb2-aeeb-5e00e608d8f2"},"vehicle_type_id":"4","last_reported":1691604510,"current_range_meters":31200,"station_id":"ce4bgth2rcd13ifvqch0","pricing_plan_id":"free"},{"bike_id":"dbadef06-daaa-4454-a704-981a09e77f2d","system_id":"levelo_inurba_marseille","lat":43.317075,"lon":5.377367,"is_reserved":false,"is_disabled":false,"rental_uris":{"android":"levelo://app?vid=dbadef06-daaa-4454-a704-981a09e77f2d","ios":"levelo://app?vid=dbadef06-daaa-4454-a704-981a09e77f2d"},"vehicle_type_id":"4","last_reported":1691604510,"current_range_meters":30400,"station_id":"ce4bgth2rcd13ifvqch0","pricing_plan_id":"free"},{"bike_id":"e2eeb3c0-a12a-4085-8d10-eabb17bc6f6b","system_id":"levelo_inurba_marseille","lat":43.303046,"lon":5.368981,"is_reserved":false,"is_disabled":false,"rental_uris":{"android":"levelo://app?vid=e2eeb3c0-a12a-4085-8d10-eabb17bc6f6b","ios":"levelo://app?vid=e2eeb3c0-a12a-4085-8d10-eabb17bc6f6b"},"vehicle_type_id":"4","last_reported":1691604510,"current_range_meters":0,"station_id":"ce4bgqh2rcd13ifvqc5g","pricing_plan_id":"free"},{"bike_id":"911d9108-fe93-494e-811a-d1513353bbc7","system_id":"levelo_inurba_marseille","lat":43.31533,"lon":5.38027,"is_reserved":false,"is_disabled":false,"rental_uris":{"android":"levelo://app?vid=911d9108-fe93-494e-811a-d1513353bbc7","ios":"levelo://app?vid=911d9108-fe93-494e-811a-d1513353bbc7"},"vehicle_type_id":"4","last_reported":1691604510,"current_range_meters":24000,"station_id":"ce4bhsp2rcd13ifvqi50","pricing_plan_id":"free"},{"bike_id":"f765004e-5592-4094-9422-e3617acd8bac","system_id":"levelo_inurba_marseille","lat":43.31532,"lon":5.38028,"is_reserved":false,"is_disabled":false,"rental_uris":{"android":"levelo://app?vid=f765004e-5592-4094-9422-e3617acd8bac","ios":"levelo://app?vid=f765004e-5592-4094-9422-e3617acd8bac"},"vehicle_type_id":"4","last_reported":1691604510,"current_range_meters":8400,"station_id":"ce4bhsp2rcd13ifvqi50","pricing_plan_id":"free"},{"bike_id":"206e1ce1-7361-4c48-90b5-c1026165d4c3","system_id":"levelo_inurba_marseille","lat":43.30471,"lon":5.37909,"is_reserved":false,"is_disabled":false,"rental_uris":{"android":"levelo://app?vid=206e1ce1-7361-4c48-90b5-c1026165d4c3","ios":"levelo://app?vid=206e1ce1-7361-4c48-90b5-c1026165d4c3"},"vehicle_type_id":"4","last_reported":1691604510,"current_range_meters":0,"station_id":"","pricing_plan_id":"free"},{"bike_id":"86576cbc-a055-4026-9535-f887faf8a24f","system_id":"levelo_inurba_marseille","lat":43.302784,"lon":5.377158,"is_reserved":false,"is_disabled":false,"rental_uris":{"android":"levelo://app?vid=86576cbc-a055-4026-9535-f887faf8a24f","ios":"levelo://app?vid=86576cbc-a055-4026-9535-f887faf8a24f"},"vehicle_type_id":"4","last_reported":1691604510,"current_range_meters":5600,"station_id":"ce4bguh2rcd13ifvqcj0","pricing_plan_id":"free"},{"bike_id":"439e26b6-5aeb-4ffd-988d-cf6445c58a12","system_id":"levelo_inurba_marseille","lat":43.302784,"lon":5.377158,"is_reserved":false,"is_disabled":false,"rental_uris":{"android":"levelo://app?vid=439e26b6-5aeb-4ffd-988d-cf6445c58a12","ios":"levelo://app?vid=439e26b6-5aeb-4ffd-988d-cf6445c58a12"},"vehicle_type_id":"4","last_reported":1691604510,"current_range_meters":400,"station_id":"ce4bguh2rcd13ifvqcj0","pricing_plan_id":"free"},{"bike_id":"25455a81-edf5-45e5-963d-c9d26f536cce","system_id":"levelo_inurba_marseille","lat":43.302784,"lon":5.377158,"is_reserved":false,"is_disabled":false,"rental_uris":{"android":"levelo://app?vid=25455a81-edf5-45e5-963d-c9d26f536cce","ios":"levelo://app?vid=25455a81-edf5-45e5-963d-c9d26f536cce"},"vehicle_type_id":"4","last_reported":1691604510,"current_range_meters":2400,"station_id":"ce4bguh2rcd13ifvqcj0","pricing_plan_id":"free"},{"bike_id":"34d34957-3a05-48d3-a56a-489b167561fb","system_id":"levelo_inurba_marseille","lat":43.31987,"lon":5.38136,"is_reserved":false,"is_disabled":false,"rental_uris":{"android":"levelo://app?vid=34d34957-3a05-48d3-a56a-489b167561fb","ios":"levelo://app?vid=34d34957-3a05-48d3-a56a-489b167561fb"},"vehicle_type_id":"4","last_reported":1691604510,"current_range_meters":31200,"station_id":"ce4bhr12rcd13ifvqhpg","pricing_plan_id":"free"},{"bike_id":"eb9ca236-8bea-4a16-80b9-f4dcd1570b49","system_id":"levelo_inurba_marseille","lat":43.319935,"lon":5.381699,"is_reserved":false,"is_disabled":false,"rental_uris":{"android":"levelo://app?vid=eb9ca236-8bea-4a16-80b9-f4dcd1570b49","ios":"levelo://app?vid=eb9ca236-8bea-4a16-80b9-f4dcd1570b49"},"vehicle_type_id":"4","last_reported":1691604510,"current_range_meters":19200,"station_id":"ce4bhr12rcd13ifvqhpg","pricing_plan_id":"free"},{"bike_id":"7b419518-ea7f-4da5-b99a-931cff3ce7fb","system_id":"levelo_inurba_marseille","lat":43.31997,"lon":5.38149,"is_reserved":false,"is_disabled":false,"rental_uris":{"android":"levelo://app?vid=7b419518-ea7f-4da5-b99a-931cff3ce7fb","ios":"levelo://app?vid=7b419518-ea7f-4da5-b99a-931cff3ce7fb"},"vehicle_type_id":"4","last_reported":1691604510,"current_range_meters":30800,"station_id":"ce4bhr12rcd13ifvqhpg","pricing_plan_id":"free"},{"bike_id":"3420ec79-f87d-44c9-98c3-2b417005b10a","system_id":"levelo_inurba_marseille","lat":43.31355,"lon":5.38488,"is_reserved":false,"is_disabled":false,"rental_uris":{"android":"levelo://app?vid=3420ec79-f87d-44c9-98c3-2b417005b10a","ios":"levelo://app?vid=3420ec79-f87d-44c9-98c3-2b417005b10a"},"vehicle_type_id":"4","last_reported":1691604510,"current_range_meters":5200,"station_id":"ce4bgt92rcd13ifvqcf0","pricing_plan_id":"free"},{"bike_id":"f787ef6e-09dd-4b50-a087-54730ef0d335","system_id":"levelo_inurba_marseille","lat":43.29931,"lon":5.36544,"is_reserved":false,"is_disabled":false,"rental_uris":{"android":"levelo://app?vid=f787ef6e-09dd-4b50-a087-54730ef0d335","ios":"levelo://app?vid=f787ef6e-09dd-4b50-a087-54730ef0d335"},"vehicle_type_id":"4","last_reported":1691604510,"current_range_meters":29200,"station_id":"ce4bgm92rcd13ifvqbr0","pricing_plan_id":"free"},{"bike_id":"15b2f289-e8da-4c30-a721-2cf15799ace1","system_id":"levelo_inurba_marseille","lat":43.31985,"lon":5.38268,"is_reserved":false,"is_disabled":false,"rental_uris":{"android":"levelo://app?vid=15b2f289-e8da-4c30-a721-2cf15799ace1","ios":"levelo://app?vid=15b2f289-e8da-4c30-a721-2cf15799ace1"},"vehicle_type_id":"4","last_reported":1691604510,"current_range_meters":4800,"station_id":"","pricing_plan_id":"free"},{"bike_id":"23b8b2b9-00e8-480a-b5f0-ad77d0889434","system_id":"levelo_inurba_marseille","lat":43.32663,"lon":5.36725,"is_reserved":false,"is_disabled":false,"rental_uris":{"android":"levelo://app?vid=23b8b2b9-00e8-480a-b5f0-ad77d0889434","ios":"levelo://app?vid=23b8b2b9-00e8-480a-b5f0-ad77d0889434"},"vehicle_type_id":"4","last_reported":1691604510,"current_range_meters":21600,"station_id":"","pricing_plan_id":"free"},{"bike_id":"de2a09a8-2bcb-43cc-984a-c94ff3033b1e","system_id":"levelo_inurba_marseille","lat":43.29869,"lon":5.36642,"is_reserved":false,"is_disabled":false,"rental_uris":{"android":"levelo://app?vid=de2a09a8-2bcb-43cc-984a-c94ff3033b1e","ios":"levelo://app?vid=de2a09a8-2bcb-43cc-984a-c94ff3033b1e"},"vehicle_type_id":"4","last_reported":1691604510,"current_range_meters":22800,"station_id":"","pricing_plan_id":"free"},{"bike_id":"2daa7011-03e0-4b5c-aaf1-e98ac49c68b6","system_id":"levelo_inurba_marseille","lat":43.319935,"lon":5.381699,"is_reserved":false,"is_disabled":false,"rental_uris":{"android":"levelo://app?vid=2daa7011-03e0-4b5c-aaf1-e98ac49c68b6","ios":"levelo://app?vid=2daa7011-03e0-4b5c-aaf1-e98ac49c68b6"},"vehicle_type_id":"4","last_reported":1691604510,"current_range_meters":20800,"station_id":"ce4bhr12rcd13ifvqhpg","pricing_plan_id":"free"},{"bike_id":"1702fb99-6fad-4d44-b8d1-bb56e20f00f4","system_id":"levelo_inurba_marseille","lat":43.298433,"lon":5.362774,"is_reserved":false,"is_disabled":false,"rental_uris":{"android":"levelo://app?vid=1702fb99-6fad-4d44-b8d1-bb56e20f00f4","ios":"levelo://app?vid=1702fb99-6fad-4d44-b8d1-bb56e20f00f4"},"vehicle_type_id":"4","last_reported":1691604510,"current_range_meters":0,"station_id":"ce4bgpp2rcd13ifvqc3g","pricing_plan_id":"free"},{"bike_id":"f9b8c525-26c4-4bd3-8d6b-480bed3178b1","system_id":"levelo_inurba_marseille","lat":43.298433,"lon":5.362774,"is_reserved":false,"is_disabled":false,"rental_uris":{"android":"levelo://app?vid=f9b8c525-26c4-4bd3-8d6b-480bed3178b1","ios":"levelo://app?vid=f9b8c525-26c4-4bd3-8d6b-480bed3178b1"},"vehicle_type_id":"4","last_reported":1691604510,"current_range_meters":13200,"station_id":"ce4bgpp2rcd13ifvqc3g","pricing_plan_id":"free"},{"bike_id":"68917661-55c0-4abe-80ea-dc0422e3e14a","system_id":"levelo_inurba_marseille","lat":43.298433,"lon":5.362774,"is_reserved":false,"is_disabled":false,"rental_uris":{"android":"levelo://app?vid=68917661-55c0-4abe-80ea-dc0422e3e14a","ios":"levelo://app?vid=68917661-55c0-4abe-80ea-dc0422e3e14a"},"vehicle_type_id":"4","last_reported":1691604510,"current_range_meters":29200,"station_id":"ce4bgpp2rcd13ifvqc3g","pricing_plan_id":"free"},{"bike_id":"2297afaf-3346-41aa-9562-f1f48dfb2cd6","system_id":"levelo_inurba_marseille","lat":43.305364,"lon":5.384119,"is_reserved":false,"is_disabled":false,"rental_uris":{"android":"levelo://app?vid=2297afaf-3346-41aa-9562-f1f48dfb2cd6","ios":"levelo://app?vid=2297afaf-3346-41aa-9562-f1f48dfb2cd6"},"vehicle_type_id":"4","last_reported":1691604510,"current_range_meters":0,"station_id":"ce4bgg92rcd13ifvqb30","pricing_plan_id":"free"},{"bike_id":"92ee613d-b76c-45b0-809a-827f5dca619a","system_id":"levelo_inurba_marseille","lat":43.298433,"lon":5.362774,"is_reserved":false,"is_disabled":false,"rental_uris":{"android":"levelo://app?vid=92ee613d-b76c-45b0-809a-827f5dca619a","ios":"levelo://app?vid=92ee613d-b76c-45b0-809a-827f5dca619a"},"vehicle_type_id":"4","last_reported":1691604510,"current_range_meters":11600,"station_id":"ce4bgpp2rcd13ifvqc3g","pricing_plan_id":"free"},{"bike_id":"24a7dc4b-8638-44c1-9575-aea627564ebe","system_id":"levelo_inurba_marseille","lat":43.298433,"lon":5.362774,"is_reserved":false,"is_disabled":false,"rental_uris":{"android":"levelo://app?vid=24a7dc4b-8638-44c1-9575-aea627564ebe","ios":"levelo://app?vid=24a7dc4b-8638-44c1-9575-aea627564ebe"},"vehicle_type_id":"4","last_reported":1691604510,"current_range_meters":9200,"station_id":"ce4bgpp2rcd13ifvqc3g","pricing_plan_id":"free"},{"bike_id":"cdb60edd-68af-4125-8bf6-d9969710d63d","system_id":"levelo_inurba_marseille","lat":43.2985,"lon":5.36273,"is_reserved":false,"is_disabled":false,"rental_uris":{"android":"levelo://app?vid=cdb60edd-68af-4125-8bf6-d9969710d63d","ios":"levelo://app?vid=cdb60edd-68af-4125-8bf6-d9969710d63d"},"vehicle_type_id":"4","last_reported":1691604510,"current_range_meters":18400,"station_id":"","pricing_plan_id":"free"},{"bike_id":"285ebe3b-8ab0-48ea-a83e-0e49b459f176","system_id":"levelo_inurba_marseille","lat":43.298433,"lon":5.362774,"is_reserved":false,"is_disabled":false,"rental_uris":{"android":"levelo://app?vid=285ebe3b-8ab0-48ea-a83e-0e49b459f176","ios":"levelo://app?vid=285ebe3b-8ab0-48ea-a83e-0e49b459f176"},"vehicle_type_id":"4","last_reported":1691604510,"current_range_meters":6000,"station_id":"ce4bgpp2rcd13ifvqc3g","pricing_plan_id":"free"},{"bike_id":"a67ac802-9939-42bf-b9be-d58a40b0b065","system_id":"levelo_inurba_marseille","lat":43.298433,"lon":5.362774,"is_reserved":false,"is_disabled":false,"rental_uris":{"android":"levelo://app?vid=a67ac802-9939-42bf-b9be-d58a40b0b065","ios":"levelo://app?vid=a67ac802-9939-42bf-b9be-d58a40b0b065"},"vehicle_type_id":"4","last_reported":1691604510,"current_range_meters":19600,"station_id":"ce4bgpp2rcd13ifvqc3g","pricing_plan_id":"free"},{"bike_id":"ef8ff4d2-4f76-49bb-8c93-e6f4198d6e01","system_id":"levelo_inurba_marseille","lat":43.298433,"lon":5.362774,"is_reserved":false,"is_disabled":false,"rental_uris":{"android":"levelo://app?vid=ef8ff4d2-4f76-49bb-8c93-e6f4198d6e01","ios":"levelo://app?vid=ef8ff4d2-4f76-49bb-8c93-e6f4198d6e01"},"vehicle_type_id":"4","last_reported":1691604510,"current_range_meters":20400,"station_id":"ce4bgpp2rcd13ifvqc3g","pricing_plan_id":"free"},{"bike_id":"b485ae59-7bb5-4a2a-aab5-ee6648e05395","system_id":"levelo_inurba_marseille","lat":43.298433,"lon":5.362774,"is_reserved":false,"is_disabled":false,"rental_uris":{"android":"levelo://app?vid=b485ae59-7bb5-4a2a-aab5-ee6648e05395","ios":"levelo://app?vid=b485ae59-7bb5-4a2a-aab5-ee6648e05395"},"vehicle_type_id":"4","last_reported":1691604510,"current_range_meters":17600,"station_id":"ce4bgpp2rcd13ifvqc3g","pricing_plan_id":"free"},{"bike_id":"03101269-8e0b-443b-9aa1-ef8ad3291ddc","system_id":"levelo_inurba_marseille","lat":43.298433,"lon":5.362774,"is_reserved":false,"is_disabled":false,"rental_uris":{"android":"levelo://app?vid=03101269-8e0b-443b-9aa1-ef8ad3291ddc","ios":"levelo://app?vid=03101269-8e0b-443b-9aa1-ef8ad3291ddc"},"vehicle_type_id":"4","last_reported":1691604510,"current_range_meters":0,"station_id":"ce4bgpp2rcd13ifvqc3g","pricing_plan_id":"free"},{"bike_id":"f31c37ef-2cbf-49a5-9a3e-5617b723eed7","system_id":"levelo_inurba_marseille","lat":43.3054,"lon":5.38425,"is_reserved":false,"is_disabled":false,"rental_uris":{"android":"levelo://app?vid=f31c37ef-2cbf-49a5-9a3e-5617b723eed7","ios":"levelo://app?vid=f31c37ef-2cbf-49a5-9a3e-5617b723eed7"},"vehicle_type_id":"4","last_reported":1691604510,"current_range_meters":4800,"station_id":"ce4bgg92rcd13ifvqb30","pricing_plan_id":"free"},{"bike_id":"3487b5f3-f347-41d2-b607-67630439aa0b","system_id":"levelo_inurba_marseille","lat":43.298433,"lon":5.362774,"is_reserved":false,"is_disabled":false,"rental_uris":{"android":"levelo://app?vid=3487b5f3-f347-41d2-b607-67630439aa0b","ios":"levelo://app?vid=3487b5f3-f347-41d2-b607-67630439aa0b"},"vehicle_type_id":"4","last_reported":1691604510,"current_range_meters":2800,"station_id":"ce4bgpp2rcd13ifvqc3g","pricing_plan_id":"free"},{"bike_id":"4aa23e23-27e7-46a6-a87e-e492d5bc0456","system_id":"levelo_inurba_marseille","lat":43.298433,"lon":5.362774,"is_reserved":false,"is_disabled":false,"rental_uris":{"android":"levelo://app?vid=4aa23e23-27e7-46a6-a87e-e492d5bc0456","ios":"levelo://app?vid=4aa23e23-27e7-46a6-a87e-e492d5bc0456"},"vehicle_type_id":"4","last_reported":1691604510,"current_range_meters":2000,"station_id":"ce4bgpp2rcd13ifvqc3g","pricing_plan_id":"free"},{"bike_id":"97c19ab2-7049-44ee-a1d0-d92db5940788","system_id":"levelo_inurba_marseille","lat":43.298433,"lon":5.362774,"is_reserved":false,"is_disabled":false,"rental_uris":{"android":"levelo://app?vid=97c19ab2-7049-44ee-a1d0-d92db5940788","ios":"levelo://app?vid=97c19ab2-7049-44ee-a1d0-d92db5940788"},"vehicle_type_id":"4","last_reported":1691604510,"current_range_meters":8400,"station_id":"ce4bgpp2rcd13ifvqc3g","pricing_plan_id":"free"},{"bike_id":"474e08fc-8a65-4cdb-9885-058c50958bbf","system_id":"levelo_inurba_marseille","lat":43.298433,"lon":5.362774,"is_reserved":false,"is_disabled":false,"rental_uris":{"android":"levelo://app?vid=474e08fc-8a65-4cdb-9885-058c50958bbf","ios":"levelo://app?vid=474e08fc-8a65-4cdb-9885-058c50958bbf"},"vehicle_type_id":"4","last_reported":1691604510,"current_range_meters":5600,"station_id":"ce4bgpp2rcd13ifvqc3g","pricing_plan_id":"free"},{"bike_id":"7a47665a-c1cc-448f-9eff-74460d0115b6","system_id":"levelo_inurba_marseille","lat":43.298433,"lon":5.362774,"is_reserved":false,"is_disabled":false,"rental_uris":{"android":"levelo://app?vid=7a47665a-c1cc-448f-9eff-74460d0115b6","ios":"levelo://app?vid=7a47665a-c1cc-448f-9eff-74460d0115b6"},"vehicle_type_id":"4","last_reported":1691604510,"current_range_meters":7200,"station_id":"ce4bgpp2rcd13ifvqc3g","pricing_plan_id":"free"},{"bike_id":"7a3d8031-69a3-44b9-a260-d4c36acb72af","system_id":"levelo_inurba_marseille","lat":43.298433,"lon":5.362774,"is_reserved":false,"is_disabled":false,"rental_uris":{"android":"levelo://app?vid=7a3d8031-69a3-44b9-a260-d4c36acb72af","ios":"levelo://app?vid=7a3d8031-69a3-44b9-a260-d4c36acb72af"},"vehicle_type_id":"4","last_reported":1691604510,"current_range_meters":13200,"station_id":"ce4bgpp2rcd13ifvqc3g","pricing_plan_id":"free"},{"bike_id":"547e1ea3-81e4-408b-b0c9-9003b96c3b1c","system_id":"levelo_inurba_marseille","lat":43.298433,"lon":5.362774,"is_reserved":false,"is_disabled":false,"rental_uris":{"android":"levelo://app?vid=547e1ea3-81e4-408b-b0c9-9003b96c3b1c","ios":"levelo://app?vid=547e1ea3-81e4-408b-b0c9-9003b96c3b1c"},"vehicle_type_id":"4","last_reported":1691604510,"current_range_meters":8000,"station_id":"ce4bgpp2rcd13ifvqc3g","pricing_plan_id":"free"},{"bike_id":"630e1aa0-a397-46df-b865-cddd2e1532e2","system_id":"levelo_inurba_marseille","lat":43.30534,"lon":5.38425,"is_reserved":false,"is_disabled":false,"rental_uris":{"android":"levelo://app?vid=630e1aa0-a397-46df-b865-cddd2e1532e2","ios":"levelo://app?vid=630e1aa0-a397-46df-b865-cddd2e1532e2"},"vehicle_type_id":"4","last_reported":1691604510,"current_range_meters":23600,"station_id":"ce4bgg92rcd13ifvqb30","pricing_plan_id":"free"},{"bike_id":"4466d71a-57f3-4f20-9c23-2f42ebd0029f","system_id":"levelo_inurba_marseille","lat":43.298433,"lon":5.362774,"is_reserved":false,"is_disabled":false,"rental_uris":{"android":"levelo://app?vid=4466d71a-57f3-4f20-9c23-2f42ebd0029f","ios":"levelo://app?vid=4466d71a-57f3-4f20-9c23-2f42ebd0029f"},"vehicle_type_id":"4","last_reported":1691604510,"current_range_meters":16800,"station_id":"ce4bgpp2rcd13ifvqc3g","pricing_plan_id":"free"},{"bike_id":"26087240-4a17-4440-8cb8-2381318bd17d","system_id":"levelo_inurba_marseille","lat":43.30533,"lon":5.38427,"is_reserved":false,"is_disabled":false,"rental_uris":{"android":"levelo://app?vid=26087240-4a17-4440-8cb8-2381318bd17d","ios":"levelo://app?vid=26087240-4a17-4440-8cb8-2381318bd17d"},"vehicle_type_id":"4","last_reported":1691604510,"current_range_meters":23600,"station_id":"ce4bgg92rcd13ifvqb30","pricing_plan_id":"free"},{"bike_id":"30537d43-af02-4a10-b928-7b9b8cf633d2","system_id":"levelo_inurba_marseille","lat":43.305265,"lon":5.384239,"is_reserved":false,"is_disabled":false,"rental_uris":{"android":"levelo://app?vid=30537d43-af02-4a10-b928-7b9b8cf633d2","ios":"levelo://app?vid=30537d43-af02-4a10-b928-7b9b8cf633d2"},"vehicle_type_id":"4","last_reported":1691604510,"current_range_meters":19200,"station_id":"ce4bgg92rcd13ifvqb30","pricing_plan_id":"free"},{"bike_id":"b57bea40-dd40-4fae-918e-cf27c2d33b78","system_id":"levelo_inurba_marseille","lat":43.298433,"lon":5.362774,"is_reserved":false,"is_disabled":false,"rental_uris":{"android":"levelo://app?vid=b57bea40-dd40-4fae-918e-cf27c2d33b78","ios":"levelo://app?vid=b57bea40-dd40-4fae-918e-cf27c2d33b78"},"vehicle_type_id":"4","last_reported":1691604510,"current_range_meters":18400,"station_id":"ce4bgpp2rcd13ifvqc3g","pricing_plan_id":"free"},{"bike_id":"504871cd-baf9-4744-840e-6695c3a4fb96","system_id":"levelo_inurba_marseille","lat":43.299243,"lon":5.374807,"is_reserved":false,"is_disabled":false,"rental_uris":{"android":"levelo://app?vid=504871cd-baf9-4744-840e-6695c3a4fb96","ios":"levelo://app?vid=504871cd-baf9-4744-840e-6695c3a4fb96"},"vehicle_type_id":"4","last_reported":1691604510,"current_range_meters":6400,"station_id":"ce4bgjh2rcd13ifvqbg0","pricing_plan_id":"free"},{"bike_id":"e12b4729-a1d9-4909-9759-e5b8690101b0","system_id":"levelo_inurba_marseille","lat":43.30045,"lon":5.37859,"is_reserved":false,"is_disabled":false,"rental_uris":{"android":"levelo://app?vid=e12b4729-a1d9-4909-9759-e5b8690101b0","ios":"levelo://app?vid=e12b4729-a1d9-4909-9759-e5b8690101b0"},"vehicle_type_id":"4","last_reported":1691604510,"current_range_meters":13600,"station_id":"","pricing_plan_id":"free"},{"bike_id":"54c5aa39-e6c9-43cb-8407-542207e6a3df","system_id":"levelo_inurba_marseille","lat":43.297774,"lon":5.370875,"is_reserved":false,"is_disabled":false,"rental_uris":{"android":"levelo://app?vid=54c5aa39-e6c9-43cb-8407-542207e6a3df","ios":"levelo://app?vid=54c5aa39-e6c9-43cb-8407-542207e6a3df"},"vehicle_type_id":"4","last_reported":1691604510,"current_range_meters":5600,"station_id":"ce4bgop2rcd13ifvqc1g","pricing_plan_id":"free"},{"bike_id":"c1985dca-d03f-4ab4-b9a6-dc7d5212f48f","system_id":"levelo_inurba_marseille","lat":43.297774,"lon":5.370875,"is_reserved":false,"is_disabled":false,"rental_uris":{"android":"levelo://app?vid=c1985dca-d03f-4ab4-b9a6-dc7d5212f48f","ios":"levelo://app?vid=c1985dca-d03f-4ab4-b9a6-dc7d5212f48f"},"vehicle_type_id":"4","last_reported":1691604510,"current_range_meters":21600,"station_id":"ce4bgop2rcd13ifvqc1g","pricing_plan_id":"free"},{"bike_id":"0964d76d-30f9-413f-a119-25e84ab8361d","system_id":"levelo_inurba_marseille","lat":43.297774,"lon":5.370875,"is_reserved":false,"is_disabled":false,"rental_uris":{"android":"levelo://app?vid=0964d76d-30f9-413f-a119-25e84ab8361d","ios":"levelo://app?vid=0964d76d-30f9-413f-a119-25e84ab8361d"},"vehicle_type_id":"4","last_reported":1691604510,"current_range_meters":30400,"station_id":"ce4bgop2rcd13ifvqc1g","pricing_plan_id":"free"},{"bike_id":"3a574de3-b31f-4b53-9fcf-1545808be757","system_id":"levelo_inurba_marseille","lat":43.32288,"lon":5.3826,"is_reserved":false,"is_disabled":false,"rental_uris":{"android":"levelo://app?vid=3a574de3-b31f-4b53-9fcf-1545808be757","ios":"levelo://app?vid=3a574de3-b31f-4b53-9fcf-1545808be757"},"vehicle_type_id":"4","last_reported":1691604510,"current_range_meters":24800,"station_id":"ce4bhr12rcd13ifvqhqg","pricing_plan_id":"free"},{"bike_id":"f0620734-0399-4780-9d51-210b6ae5a669","system_id":"levelo_inurba_marseille","lat":43.32826,"lon":5.36674,"is_reserved":false,"is_disabled":false,"rental_uris":{"android":"levelo://app?vid=f0620734-0399-4780-9d51-210b6ae5a669","ios":"levelo://app?vid=f0620734-0399-4780-9d51-210b6ae5a669"},"vehicle_type_id":"4","last_reported":1691604510,"current_range_meters":15600,"station_id":"ce4bhs92rcd13ifvqi0g","pricing_plan_id":"free"},{"bike_id":"9ee6703a-60c5-4a2b-90b4-e13264cfa7f8","system_id":"levelo_inurba_marseille","lat":43.32828,"lon":5.36681,"is_reserved":false,"is_disabled":false,"rental_uris":{"android":"levelo://app?vid=9ee6703a-60c5-4a2b-90b4-e13264cfa7f8","ios":"levelo://app?vid=9ee6703a-60c5-4a2b-90b4-e13264cfa7f8"},"vehicle_type_id":"4","last_reported":1691604510,"current_range_meters":25600,"station_id":"ce4bhs92rcd13ifvqi0g","pricing_plan_id":"free"},{"bike_id":"ce159aed-fb57-4b5d-9c65-2b8765c0d2b9","system_id":"levelo_inurba_marseille","lat":43.32831,"lon":5.3669,"is_reserved":false,"is_disabled":false,"rental_uris":{"android":"levelo://app?vid=ce159aed-fb57-4b5d-9c65-2b8765c0d2b9","ios":"levelo://app?vid=ce159aed-fb57-4b5d-9c65-2b8765c0d2b9"},"vehicle_type_id":"4","last_reported":1691604510,"current_range_meters":800,"station_id":"ce4bhs92rcd13ifvqi0g","pricing_plan_id":"free"},{"bike_id":"6c07802e-eabb-4be4-8191-56650cfbf2cf","system_id":"levelo_inurba_marseille","lat":43.297163,"lon":5.365866,"is_reserved":false,"is_disabled":false,"rental_uris":{"android":"levelo://app?vid=6c07802e-eabb-4be4-8191-56650cfbf2cf","ios":"levelo://app?vid=6c07802e-eabb-4be4-8191-56650cfbf2cf"},"vehicle_type_id":"4","last_reported":1691604510,"current_range_meters":24800,"station_id":"ce4bgn12rcd13ifvqbt0","pricing_plan_id":"free"},{"bike_id":"63b6e9a3-af83-4713-bb31-c0bce39a3dcd","system_id":"levelo_inurba_marseille","lat":43.297163,"lon":5.365866,"is_reserved":false,"is_disabled":false,"rental_uris":{"android":"levelo://app?vid=63b6e9a3-af83-4713-bb31-c0bce39a3dcd","ios":"levelo://app?vid=63b6e9a3-af83-4713-bb31-c0bce39a3dcd"},"vehicle_type_id":"4","last_reported":1691604510,"current_range_meters":6800,"station_id":"ce4bgn12rcd13ifvqbt0","pricing_plan_id":"free"},{"bike_id":"dd789220-e7b5-42c1-b9dc-dc4243148021","system_id":"levelo_inurba_marseille","lat":43.297163,"lon":5.365866,"is_reserved":false,"is_disabled":false,"rental_uris":{"android":"levelo://app?vid=dd789220-e7b5-42c1-b9dc-dc4243148021","ios":"levelo://app?vid=dd789220-e7b5-42c1-b9dc-dc4243148021"},"vehicle_type_id":"4","last_reported":1691604510,"current_range_meters":32000,"station_id":"ce4bgn12rcd13ifvqbt0","pricing_plan_id":"free"},{"bike_id":"7d704378-824d-46ee-ad12-65e49775c9cc","system_id":"levelo_inurba_marseille","lat":43.297163,"lon":5.365866,"is_reserved":false,"is_disabled":false,"rental_uris":{"android":"levelo://app?vid=7d704378-824d-46ee-ad12-65e49775c9cc","ios":"levelo://app?vid=7d704378-824d-46ee-ad12-65e49775c9cc"},"vehicle_type_id":"4","last_reported":1691604510,"current_range_meters":30800,"station_id":"ce4bgn12rcd13ifvqbt0","pricing_plan_id":"free"},{"bike_id":"07ef7da9-5777-4280-8ded-b7f935cf93bf","system_id":"levelo_inurba_marseille","lat":43.297163,"lon":5.365866,"is_reserved":false,"is_disabled":false,"rental_uris":{"android":"levelo://app?vid=07ef7da9-5777-4280-8ded-b7f935cf93bf","ios":"levelo://app?vid=07ef7da9-5777-4280-8ded-b7f935cf93bf"},"vehicle_type_id":"4","last_reported":1691604510,"current_range_meters":30400,"station_id":"ce4bgn12rcd13ifvqbt0","pricing_plan_id":"free"},{"bike_id":"e5a43445-e9a4-4403-97cc-94a21a49e35e","system_id":"levelo_inurba_marseille","lat":43.29573,"lon":5.367355,"is_reserved":false,"is_disabled":false,"rental_uris":{"android":"levelo://app?vid=e5a43445-e9a4-4403-97cc-94a21a49e35e","ios":"levelo://app?vid=e5a43445-e9a4-4403-97cc-94a21a49e35e"},"vehicle_type_id":"4","last_reported":1691604510,"current_range_meters":4400,"station_id":"ce4bgph2rcd13ifvqc2g","pricing_plan_id":"free"},{"bike_id":"861aa4a0-6f36-460f-8623-dfb83d8ec969","system_id":"levelo_inurba_marseille","lat":43.29573,"lon":5.367355,"is_reserved":false,"is_disabled":false,"rental_uris":{"android":"levelo://app?vid=861aa4a0-6f36-460f-8623-dfb83d8ec969","ios":"levelo://app?vid=861aa4a0-6f36-460f-8623-dfb83d8ec969"},"vehicle_type_id":"4","last_reported":1691604510,"current_range_meters":2000,"station_id":"ce4bgph2rcd13ifvqc2g","pricing_plan_id":"free"},{"bike_id":"59025ca3-0927-4e71-a407-28cf1fb5641b","system_id":"levelo_inurba_marseille","lat":43.309589,"lon":5.390258,"is_reserved":false,"is_disabled":false,"rental_uris":{"android":"levelo://app?vid=59025ca3-0927-4e71-a407-28cf1fb5641b","ios":"levelo://app?vid=59025ca3-0927-4e71-a407-28cf1fb5641b"},"vehicle_type_id":"4","last_reported":1691604510,"current_range_meters":8000,"station_id":"ce4bgup2rcd13ifvqco0","pricing_plan_id":"free"},{"bike_id":"4ac2e1cb-ccbf-4b9a-b24d-70e9e0a66a09","system_id":"levelo_inurba_marseille","lat":43.317557,"lon":5.390173,"is_reserved":false,"is_disabled":false,"rental_uris":{"android":"levelo://app?vid=4ac2e1cb-ccbf-4b9a-b24d-70e9e0a66a09","ios":"levelo://app?vid=4ac2e1cb-ccbf-4b9a-b24d-70e9e0a66a09"},"vehicle_type_id":"4","last_reported":1691604510,"current_range_meters":31600,"station_id":"ce4bhqp2rcd13ifvqhng","pricing_plan_id":"free"},{"bike_id":"e77b3d0f-7a57-4c82-b455-52a093522c55","system_id":"levelo_inurba_marseille","lat":43.317557,"lon":5.390173,"is_reserved":false,"is_disabled":false,"rental_uris":{"android":"levelo://app?vid=e77b3d0f-7a57-4c82-b455-52a093522c55","ios":"levelo://app?vid=e77b3d0f-7a57-4c82-b455-52a093522c55"},"vehicle_type_id":"4","last_reported":1691604510,"current_range_meters":26000,"station_id":"ce4bhqp2rcd13ifvqhng","pricing_plan_id":"free"},{"bike_id":"38795b4d-66c8-4f7f-85fd-a43fd1cba755","system_id":"levelo_inurba_marseille","lat":43.317557,"lon":5.390173,"is_reserved":false,"is_disabled":false,"rental_uris":{"android":"levelo://app?vid=38795b4d-66c8-4f7f-85fd-a43fd1cba755","ios":"levelo://app?vid=38795b4d-66c8-4f7f-85fd-a43fd1cba755"},"vehicle_type_id":"4","last_reported":1691604510,"current_range_meters":26000,"station_id":"ce4bhqp2rcd13ifvqhng","pricing_plan_id":"free"},{"bike_id":"67bf6f54-0066-4632-bd5e-6c18d78f8763","system_id":"levelo_inurba_marseille","lat":43.317557,"lon":5.390173,"is_reserved":false,"is_disabled":false,"rental_uris":{"android":"levelo://app?vid=67bf6f54-0066-4632-bd5e-6c18d78f8763","ios":"levelo://app?vid=67bf6f54-0066-4632-bd5e-6c18d78f8763"},"vehicle_type_id":"4","last_reported":1691604510,"current_range_meters":30000,"station_id":"ce4bhqp2rcd13ifvqhng","pricing_plan_id":"free"},{"bike_id":"cda89c10-5809-407d-8993-297b4f94564d","system_id":"levelo_inurba_marseille","lat":43.317557,"lon":5.390173,"is_reserved":false,"is_disabled":false,"rental_uris":{"android":"levelo://app?vid=cda89c10-5809-407d-8993-297b4f94564d","ios":"levelo://app?vid=cda89c10-5809-407d-8993-297b4f94564d"},"vehicle_type_id":"4","last_reported":1691604510,"current_range_meters":22000,"station_id":"ce4bhqp2rcd13ifvqhng","pricing_plan_id":"free"},{"bike_id":"bbdf66e1-433b-4a72-929b-a9f7a519bdb2","system_id":"levelo_inurba_marseille","lat":43.317557,"lon":5.390173,"is_reserved":false,"is_disabled":false,"rental_uris":{"android":"levelo://app?vid=bbdf66e1-433b-4a72-929b-a9f7a519bdb2","ios":"levelo://app?vid=bbdf66e1-433b-4a72-929b-a9f7a519bdb2"},"vehicle_type_id":"4","last_reported":1691604510,"current_range_meters":30400,"station_id":"ce4bhqp2rcd13ifvqhng","pricing_plan_id":"free"},{"bike_id":"f0d506b5-1334-4bf3-b008-61812ced1ee1","system_id":"levelo_inurba_marseille","lat":43.317557,"lon":5.390173,"is_reserved":false,"is_disabled":false,"rental_uris":{"android":"levelo://app?vid=f0d506b5-1334-4bf3-b008-61812ced1ee1","ios":"levelo://app?vid=f0d506b5-1334-4bf3-b008-61812ced1ee1"},"vehicle_type_id":"4","last_reported":1691604510,"current_range_meters":26400,"station_id":"ce4bhqp2rcd13ifvqhng","pricing_plan_id":"free"},{"bike_id":"c9a98471-02a3-49e7-a142-d24aa78de1dd","system_id":"levelo_inurba_marseille","lat":43.298037,"lon":5.381066,"is_reserved":false,"is_disabled":false,"rental_uris":{"android":"levelo://app?vid=c9a98471-02a3-49e7-a142-d24aa78de1dd","ios":"levelo://app?vid=c9a98471-02a3-49e7-a142-d24aa78de1dd"},"vehicle_type_id":"4","last_reported":1691604510,"current_range_meters":0,"station_id":"ce4bgip2rcd13ifvqbb0","pricing_plan_id":"free"},{"bike_id":"ac13597a-d370-41b7-aa3e-3984d878532e","system_id":"levelo_inurba_marseille","lat":43.29576,"lon":5.37516,"is_reserved":false,"is_disabled":false,"rental_uris":{"android":"levelo://app?vid=ac13597a-d370-41b7-aa3e-3984d878532e","ios":"levelo://app?vid=ac13597a-d370-41b7-aa3e-3984d878532e"},"vehicle_type_id":"4","last_reported":1691604510,"current_range_meters":16800,"station_id":"ce4bgh92rcd13ifvqb50","pricing_plan_id":"free"},{"bike_id":"95bc4c53-288c-4511-ab79-8a1c7ddc0604","system_id":"levelo_inurba_marseille","lat":43.304278,"lon":5.388868,"is_reserved":false,"is_disabled":false,"rental_uris":{"android":"levelo://app?vid=95bc4c53-288c-4511-ab79-8a1c7ddc0604","ios":"levelo://app?vid=95bc4c53-288c-4511-ab79-8a1c7ddc0604"},"vehicle_type_id":"4","last_reported":1691604510,"current_range_meters":400,"station_id":"ce4bgk12rcd13ifvqbi0","pricing_plan_id":"free"},{"bike_id":"a4df99ce-0488-49dd-a888-94686f562e88","system_id":"levelo_inurba_marseille","lat":43.295748,"lon":5.37522,"is_reserved":false,"is_disabled":false,"rental_uris":{"android":"levelo://app?vid=a4df99ce-0488-49dd-a888-94686f562e88","ios":"levelo://app?vid=a4df99ce-0488-49dd-a888-94686f562e88"},"vehicle_type_id":"4","last_reported":1691604510,"current_range_meters":29200,"station_id":"ce4bgh92rcd13ifvqb50","pricing_plan_id":"free"},{"bike_id":"10d59d8e-bfbf-4344-904c-f619f0c6fd8d","system_id":"levelo_inurba_marseille","lat":43.299717,"lon":5.384845,"is_reserved":false,"is_disabled":false,"rental_uris":{"android":"levelo://app?vid=10d59d8e-bfbf-4344-904c-f619f0c6fd8d","ios":"levelo://app?vid=10d59d8e-bfbf-4344-904c-f619f0c6fd8d"},"vehicle_type_id":"4","last_reported":1691604510,"current_range_meters":20800,"station_id":"ce4bgj92rcd13ifvqbd0","pricing_plan_id":"free"},{"bike_id":"fd0e660e-922a-43ee-9353-983d56238c1a","system_id":"levelo_inurba_marseille","lat":43.299717,"lon":5.384845,"is_reserved":false,"is_disabled":false,"rental_uris":{"android":"levelo://app?vid=fd0e660e-922a-43ee-9353-983d56238c1a","ios":"levelo://app?vid=fd0e660e-922a-43ee-9353-983d56238c1a"},"vehicle_type_id":"4","last_reported":1691604510,"current_range_meters":0,"station_id":"ce4bgj92rcd13ifvqbd0","pricing_plan_id":"free"},{"bike_id":"2d8b254a-87f3-4049-a7bc-03fd28f94150","system_id":"levelo_inurba_marseille","lat":43.32366,"lon":5.38882,"is_reserved":false,"is_disabled":false,"rental_uris":{"android":"levelo://app?vid=2d8b254a-87f3-4049-a7bc-03fd28f94150","ios":"levelo://app?vid=2d8b254a-87f3-4049-a7bc-03fd28f94150"},"vehicle_type_id":"4","last_reported":1691604510,"current_range_meters":18800,"station_id":"ce4bhqp2rcd13ifvqhog","pricing_plan_id":"free"},{"bike_id":"6f0b93fd-8723-4d3f-90e1-5206594729d8","system_id":"levelo_inurba_marseille","lat":43.293222,"lon":5.371758,"is_reserved":false,"is_disabled":false,"rental_uris":{"android":"levelo://app?vid=6f0b93fd-8723-4d3f-90e1-5206594729d8","ios":"levelo://app?vid=6f0b93fd-8723-4d3f-90e1-5206594729d8"},"vehicle_type_id":"4","last_reported":1691604510,"current_range_meters":15600,"station_id":"ce4bgh92rcd13ifvqb40","pricing_plan_id":"free"},{"bike_id":"63e038fd-690f-43dc-a0c2-ac35f9036639","system_id":"levelo_inurba_marseille","lat":43.29301,"lon":5.37169,"is_reserved":false,"is_disabled":false,"rental_uris":{"android":"levelo://app?vid=63e038fd-690f-43dc-a0c2-ac35f9036639","ios":"levelo://app?vid=63e038fd-690f-43dc-a0c2-ac35f9036639"},"vehicle_type_id":"4","last_reported":1691604510,"current_range_meters":14400,"station_id":"ce4bgh92rcd13ifvqb40","pricing_plan_id":"free"},{"bike_id":"dbe406a0-e31d-4174-932b-0d8d584d17c2","system_id":"levelo_inurba_marseille","lat":43.292749,"lon":5.368402,"is_reserved":false,"is_disabled":false,"rental_uris":{"android":"levelo://app?vid=dbe406a0-e31d-4174-932b-0d8d584d17c2","ios":"levelo://app?vid=dbe406a0-e31d-4174-932b-0d8d584d17c2"},"vehicle_type_id":"4","last_reported":1691604510,"current_range_meters":31200,"station_id":"ce4bhbp2rcd13ifvqesg","pricing_plan_id":"free"},{"bike_id":"835dbe68-e474-4ce1-b133-121b086fbc17","system_id":"levelo_inurba_marseille","lat":43.29303,"lon":5.37443,"is_reserved":false,"is_disabled":false,"rental_uris":{"android":"levelo://app?vid=835dbe68-e474-4ce1-b133-121b086fbc17","ios":"levelo://app?vid=835dbe68-e474-4ce1-b133-121b086fbc17"},"vehicle_type_id":"4","last_reported":1691604510,"current_range_meters":11600,"station_id":"ce4bgi12rcd13ifvqb70","pricing_plan_id":"free"},{"bike_id":"658cc83a-3aaa-4555-9c15-98e47106d476","system_id":"levelo_inurba_marseille","lat":43.293009,"lon":5.374584,"is_reserved":false,"is_disabled":false,"rental_uris":{"android":"levelo://app?vid=658cc83a-3aaa-4555-9c15-98e47106d476","ios":"levelo://app?vid=658cc83a-3aaa-4555-9c15-98e47106d476"},"vehicle_type_id":"4","last_reported":1691604510,"current_range_meters":24400,"station_id":"ce4bgi12rcd13ifvqb70","pricing_plan_id":"free"},{"bike_id":"ecc1f5a8-0748-4a54-b86a-6df6f357f5be","system_id":"levelo_inurba_marseille","lat":43.293009,"lon":5.374584,"is_reserved":false,"is_disabled":false,"rental_uris":{"android":"levelo://app?vid=ecc1f5a8-0748-4a54-b86a-6df6f357f5be","ios":"levelo://app?vid=ecc1f5a8-0748-4a54-b86a-6df6f357f5be"},"vehicle_type_id":"4","last_reported":1691604510,"current_range_meters":18000,"station_id":"ce4bgi12rcd13ifvqb70","pricing_plan_id":"free"},{"bike_id":"e21bb2c2-eacf-4475-8a5a-28fa3f53e9ca","system_id":"levelo_inurba_marseille","lat":43.305994,"lon":5.393687,"is_reserved":false,"is_disabled":false,"rental_uris":{"android":"levelo://app?vid=e21bb2c2-eacf-4475-8a5a-28fa3f53e9ca","ios":"levelo://app?vid=e21bb2c2-eacf-4475-8a5a-28fa3f53e9ca"},"vehicle_type_id":"4","last_reported":1691604510,"current_range_meters":9600,"station_id":"ce4bh0p2rcd13ifvqd80","pricing_plan_id":"free"},{"bike_id":"f135c39c-16c3-41eb-9519-dd07c8d21c49","system_id":"levelo_inurba_marseille","lat":43.293009,"lon":5.374584,"is_reserved":false,"is_disabled":false,"rental_uris":{"android":"levelo://app?vid=f135c39c-16c3-41eb-9519-dd07c8d21c49","ios":"levelo://app?vid=f135c39c-16c3-41eb-9519-dd07c8d21c49"},"vehicle_type_id":"4","last_reported":1691604510,"current_range_meters":13200,"station_id":"ce4bgi12rcd13ifvqb70","pricing_plan_id":"free"},{"bike_id":"decaaaa2-e3a5-44d6-aa4a-34169174e4ed","system_id":"levelo_inurba_marseille","lat":43.306,"lon":5.39357,"is_reserved":false,"is_disabled":false,"rental_uris":{"android":"levelo://app?vid=decaaaa2-e3a5-44d6-aa4a-34169174e4ed","ios":"levelo://app?vid=decaaaa2-e3a5-44d6-aa4a-34169174e4ed"},"vehicle_type_id":"4","last_reported":1691604510,"current_range_meters":19600,"station_id":"ce4bh0p2rcd13ifvqd80","pricing_plan_id":"free"},{"bike_id":"e78b7567-4448-4d0b-9bb6-6774c148eae9","system_id":"levelo_inurba_marseille","lat":43.30593,"lon":5.39355,"is_reserved":false,"is_disabled":false,"rental_uris":{"android":"levelo://app?vid=e78b7567-4448-4d0b-9bb6-6774c148eae9","ios":"levelo://app?vid=e78b7567-4448-4d0b-9bb6-6774c148eae9"},"vehicle_type_id":"4","last_reported":1691604510,"current_range_meters":16800,"station_id":"ce4bh0p2rcd13ifvqd80","pricing_plan_id":"free"},{"bike_id":"cfb8f683-d154-435f-a4d5-3e1001e459c2","system_id":"levelo_inurba_marseille","lat":43.293009,"lon":5.374584,"is_reserved":false,"is_disabled":false,"rental_uris":{"android":"levelo://app?vid=cfb8f683-d154-435f-a4d5-3e1001e459c2","ios":"levelo://app?vid=cfb8f683-d154-435f-a4d5-3e1001e459c2"},"vehicle_type_id":"4","last_reported":1691604510,"current_range_meters":0,"station_id":"ce4bgi12rcd13ifvqb70","pricing_plan_id":"free"},{"bike_id":"a733212b-3216-42da-8180-3125848d49b3","system_id":"levelo_inurba_marseille","lat":43.30595,"lon":5.39357,"is_reserved":false,"is_disabled":false,"rental_uris":{"android":"levelo://app?vid=a733212b-3216-42da-8180-3125848d49b3","ios":"levelo://app?vid=a733212b-3216-42da-8180-3125848d49b3"},"vehicle_type_id":"4","last_reported":1691604510,"current_range_meters":29200,"station_id":"ce4bh0p2rcd13ifvqd80","pricing_plan_id":"free"},{"bike_id":"8b383ea7-42b6-4088-8f87-21f6b0590b9d","system_id":"levelo_inurba_marseille","lat":43.30589,"lon":5.39357,"is_reserved":false,"is_disabled":false,"rental_uris":{"android":"levelo://app?vid=8b383ea7-42b6-4088-8f87-21f6b0590b9d","ios":"levelo://app?vid=8b383ea7-42b6-4088-8f87-21f6b0590b9d"},"vehicle_type_id":"4","last_reported":1691604510,"current_range_meters":12800,"station_id":"ce4bh0p2rcd13ifvqd80","pricing_plan_id":"free"},{"bike_id":"a42ebdff-cf7a-400f-943a-a2241b9b1cd8","system_id":"levelo_inurba_marseille","lat":43.30591,"lon":5.39361,"is_reserved":false,"is_disabled":false,"rental_uris":{"android":"levelo://app?vid=a42ebdff-cf7a-400f-943a-a2241b9b1cd8","ios":"levelo://app?vid=a42ebdff-cf7a-400f-943a-a2241b9b1cd8"},"vehicle_type_id":"4","last_reported":1691604510,"current_range_meters":26000,"station_id":"ce4bh0p2rcd13ifvqd80","pricing_plan_id":"free"},{"bike_id":"070b5a0f-72a4-4129-b10e-e8f0a9fc7b9e","system_id":"levelo_inurba_marseille","lat":43.29378,"lon":5.37855,"is_reserved":false,"is_disabled":false,"rental_uris":{"android":"levelo://app?vid=070b5a0f-72a4-4129-b10e-e8f0a9fc7b9e","ios":"levelo://app?vid=070b5a0f-72a4-4129-b10e-e8f0a9fc7b9e"},"vehicle_type_id":"4","last_reported":1691604510,"current_range_meters":19200,"station_id":"ce4bgjh2rcd13ifvqbf0","pricing_plan_id":"free"},{"bike_id":"f051fcb7-ddf6-4136-88b0-4c96defdb654","system_id":"levelo_inurba_marseille","lat":43.2936,"lon":5.37835,"is_reserved":false,"is_disabled":false,"rental_uris":{"android":"levelo://app?vid=f051fcb7-ddf6-4136-88b0-4c96defdb654","ios":"levelo://app?vid=f051fcb7-ddf6-4136-88b0-4c96defdb654"},"vehicle_type_id":"4","last_reported":1691604510,"current_range_meters":23200,"station_id":"ce4bgjh2rcd13ifvqbf0","pricing_plan_id":"free"},{"bike_id":"34c8f76b-ea41-431f-8ceb-8efcd9cf5a19","system_id":"levelo_inurba_marseille","lat":43.292663,"lon":5.376394,"is_reserved":false,"is_disabled":false,"rental_uris":{"android":"levelo://app?vid=34c8f76b-ea41-431f-8ceb-8efcd9cf5a19","ios":"levelo://app?vid=34c8f76b-ea41-431f-8ceb-8efcd9cf5a19"},"vehicle_type_id":"4","last_reported":1691604510,"current_range_meters":4000,"station_id":"ce4bgi12rcd13ifvqb80","pricing_plan_id":"free"},{"bike_id":"1e7441d5-b57a-467d-9dfa-d7f4520e3316","system_id":"levelo_inurba_marseille","lat":43.298764,"lon":5.388973,"is_reserved":false,"is_disabled":false,"rental_uris":{"android":"levelo://app?vid=1e7441d5-b57a-467d-9dfa-d7f4520e3316","ios":"levelo://app?vid=1e7441d5-b57a-467d-9dfa-d7f4520e3316"},"vehicle_type_id":"4","last_reported":1691604510,"current_range_meters":15200,"station_id":"ce4bh392rcd13ifvqdl0","pricing_plan_id":"free"},{"bike_id":"a636c797-d86a-4289-8c3d-16c32704e027","system_id":"levelo_inurba_marseille","lat":43.298764,"lon":5.388973,"is_reserved":false,"is_disabled":false,"rental_uris":{"android":"levelo://app?vid=a636c797-d86a-4289-8c3d-16c32704e027","ios":"levelo://app?vid=a636c797-d86a-4289-8c3d-16c32704e027"},"vehicle_type_id":"4","last_reported":1691604510,"current_range_meters":25600,"station_id":"ce4bh392rcd13ifvqdl0","pricing_plan_id":"free"},{"bike_id":"0bb911c7-1b5b-4fcb-ace8-bf42a67efd16","system_id":"levelo_inurba_marseille","lat":43.29529,"lon":5.385581,"is_reserved":false,"is_disabled":false,"rental_uris":{"android":"levelo://app?vid=0bb911c7-1b5b-4fcb-ace8-bf42a67efd16","ios":"levelo://app?vid=0bb911c7-1b5b-4fcb-ace8-bf42a67efd16"},"vehicle_type_id":"4","last_reported":1691604510,"current_range_meters":5600,"station_id":"ce4bgih2rcd13ifvqba0","pricing_plan_id":"free"},{"bike_id":"f109dc12-7e68-4750-b715-b231687892a7","system_id":"levelo_inurba_marseille","lat":43.290779,"lon":5.371482,"is_reserved":false,"is_disabled":false,"rental_uris":{"android":"levelo://app?vid=f109dc12-7e68-4750-b715-b231687892a7","ios":"levelo://app?vid=f109dc12-7e68-4750-b715-b231687892a7"},"vehicle_type_id":"4","last_reported":1691604510,"current_range_meters":13200,"station_id":"ce4bh5p2rcd13ifvqe4g","pricing_plan_id":"free"},{"bike_id":"b14eba22-ef1a-4fde-bbe0-fa1fd6b9c7a1","system_id":"levelo_inurba_marseille","lat":43.302008,"lon":5.394694,"is_reserved":false,"is_disabled":false,"rental_uris":{"android":"levelo://app?vid=b14eba22-ef1a-4fde-bbe0-fa1fd6b9c7a1","ios":"levelo://app?vid=b14eba22-ef1a-4fde-bbe0-fa1fd6b9c7a1"},"vehicle_type_id":"4","last_reported":1691604510,"current_range_meters":6400,"station_id":"ce4bh0p2rcd13ifvqd70","pricing_plan_id":"free"},{"bike_id":"9def81b0-6d2a-4d5f-b16d-565677f0a060","system_id":"levelo_inurba_marseille","lat":43.302008,"lon":5.394694,"is_reserved":false,"is_disabled":false,"rental_uris":{"android":"levelo://app?vid=9def81b0-6d2a-4d5f-b16d-565677f0a060","ios":"levelo://app?vid=9def81b0-6d2a-4d5f-b16d-565677f0a060"},"vehicle_type_id":"4","last_reported":1691604510,"current_range_meters":6000,"station_id":"ce4bh0p2rcd13ifvqd70","pricing_plan_id":"free"},{"bike_id":"545e9e23-9101-49b0-98d5-f26fcdb6fe97","system_id":"levelo_inurba_marseille","lat":43.290327,"lon":5.375711,"is_reserved":false,"is_disabled":false,"rental_uris":{"android":"levelo://app?vid=545e9e23-9101-49b0-98d5-f26fcdb6fe97","ios":"levelo://app?vid=545e9e23-9101-49b0-98d5-f26fcdb6fe97"},"vehicle_type_id":"4","last_reported":1691604510,"current_range_meters":18800,"station_id":"ce4bh692rcd13ifvqe90","pricing_plan_id":"free"},{"bike_id":"142f19e3-cc16-4a70-b0a6-af5721bd1e31","system_id":"levelo_inurba_marseille","lat":43.29421,"lon":5.38617,"is_reserved":false,"is_disabled":false,"rental_uris":{"android":"levelo://app?vid=142f19e3-cc16-4a70-b0a6-af5721bd1e31","ios":"levelo://app?vid=142f19e3-cc16-4a70-b0a6-af5721bd1e31"},"vehicle_type_id":"4","last_reported":1691604510,"current_range_meters":17200,"station_id":"ce4bh2h2rcd13ifvqdh0","pricing_plan_id":"free"},{"bike_id":"d940b020-1784-4ff7-91b1-a4f1ad7a07ea","system_id":"levelo_inurba_marseille","lat":43.294165,"lon":5.386093,"is_reserved":false,"is_disabled":false,"rental_uris":{"android":"levelo://app?vid=d940b020-1784-4ff7-91b1-a4f1ad7a07ea","ios":"levelo://app?vid=d940b020-1784-4ff7-91b1-a4f1ad7a07ea"},"vehicle_type_id":"4","last_reported":1691604510,"current_range_meters":6800,"station_id":"ce4bh2h2rcd13ifvqdh0","pricing_plan_id":"free"},{"bike_id":"4bb5aef3-e13c-4858-9f3b-ee8ca63fd405","system_id":"levelo_inurba_marseille","lat":43.294162,"lon":5.386292,"is_reserved":false,"is_disabled":false,"rental_uris":{"android":"levelo://app?vid=4bb5aef3-e13c-4858-9f3b-ee8ca63fd405","ios":"levelo://app?vid=4bb5aef3-e13c-4858-9f3b-ee8ca63fd405"},"vehicle_type_id":"4","last_reported":1691604510,"current_range_meters":16000,"station_id":"ce4bh2h2rcd13ifvqdh0","pricing_plan_id":"free"},{"bike_id":"e75db1bb-be2f-4122-8f6f-869e4a11a09f","system_id":"levelo_inurba_marseille","lat":43.294162,"lon":5.386292,"is_reserved":false,"is_disabled":false,"rental_uris":{"android":"levelo://app?vid=e75db1bb-be2f-4122-8f6f-869e4a11a09f","ios":"levelo://app?vid=e75db1bb-be2f-4122-8f6f-869e4a11a09f"},"vehicle_type_id":"4","last_reported":1691604510,"current_range_meters":5200,"station_id":"ce4bh2h2rcd13ifvqdh0","pricing_plan_id":"free"},{"bike_id":"c469bf25-a6a0-4389-8dff-a8c8cb2dcf1d","system_id":"levelo_inurba_marseille","lat":43.294162,"lon":5.386292,"is_reserved":false,"is_disabled":false,"rental_uris":{"android":"levelo://app?vid=c469bf25-a6a0-4389-8dff-a8c8cb2dcf1d","ios":"levelo://app?vid=c469bf25-a6a0-4389-8dff-a8c8cb2dcf1d"},"vehicle_type_id":"4","last_reported":1691604510,"current_range_meters":0,"station_id":"ce4bh2h2rcd13ifvqdh0","pricing_plan_id":"free"},{"bike_id":"81cf0a1f-c52a-4e9f-bebc-1527def9cc35","system_id":"levelo_inurba_marseille","lat":43.294162,"lon":5.386292,"is_reserved":false,"is_disabled":false,"rental_uris":{"android":"levelo://app?vid=81cf0a1f-c52a-4e9f-bebc-1527def9cc35","ios":"levelo://app?vid=81cf0a1f-c52a-4e9f-bebc-1527def9cc35"},"vehicle_type_id":"4","last_reported":1691604510,"current_range_meters":12000,"station_id":"ce4bh2h2rcd13ifvqdh0","pricing_plan_id":"free"},{"bike_id":"44c1acc0-0d09-4861-8847-16a3cd4ba591","system_id":"levelo_inurba_marseille","lat":43.29412,"lon":5.38624,"is_reserved":false,"is_disabled":false,"rental_uris":{"android":"levelo://app?vid=44c1acc0-0d09-4861-8847-16a3cd4ba591","ios":"levelo://app?vid=44c1acc0-0d09-4861-8847-16a3cd4ba591"},"vehicle_type_id":"4","last_reported":1691604510,"current_range_meters":22000,"station_id":"ce4bh2h2rcd13ifvqdh0","pricing_plan_id":"free"},{"bike_id":"3fd592cb-628e-4a83-ab73-eef69dab76b9","system_id":"levelo_inurba_marseille","lat":43.29408,"lon":5.38627,"is_reserved":false,"is_disabled":false,"rental_uris":{"android":"levelo://app?vid=3fd592cb-628e-4a83-ab73-eef69dab76b9","ios":"levelo://app?vid=3fd592cb-628e-4a83-ab73-eef69dab76b9"},"vehicle_type_id":"4","last_reported":1691604510,"current_range_meters":14400,"station_id":"ce4bh2h2rcd13ifvqdh0","pricing_plan_id":"free"},{"bike_id":"05c7fbc2-70d9-4ce2-8192-3330c49bff77","system_id":"levelo_inurba_marseille","lat":43.289184,"lon":5.366408,"is_reserved":false,"is_disabled":false,"rental_uris":{"android":"levelo://app?vid=05c7fbc2-70d9-4ce2-8192-3330c49bff77","ios":"levelo://app?vid=05c7fbc2-70d9-4ce2-8192-3330c49bff77"},"vehicle_type_id":"4","last_reported":1691604510,"current_range_meters":31200,"station_id":"ce4bhap2rcd13ifvqek0","pricing_plan_id":"free"},{"bike_id":"22ea7788-c6d3-406f-aaa4-f7bee81449d4","system_id":"levelo_inurba_marseille","lat":43.28941,"lon":5.36384,"is_reserved":false,"is_disabled":false,"rental_uris":{"android":"levelo://app?vid=22ea7788-c6d3-406f-aaa4-f7bee81449d4","ios":"levelo://app?vid=22ea7788-c6d3-406f-aaa4-f7bee81449d4"},"vehicle_type_id":"4","last_reported":1691604510,"current_range_meters":24800,"station_id":"ce4bhc92rcd13ifvqetg","pricing_plan_id":"free"},{"bike_id":"071ef72f-3a53-41eb-893d-773a94cccde7","system_id":"levelo_inurba_marseille","lat":43.304296,"lon":5.397513,"is_reserved":false,"is_disabled":false,"rental_uris":{"android":"levelo://app?vid=071ef72f-3a53-41eb-893d-773a94cccde7","ios":"levelo://app?vid=071ef72f-3a53-41eb-893d-773a94cccde7"},"vehicle_type_id":"4","last_reported":1691604510,"current_range_meters":12800,"station_id":"ce4bh092rcd13ifvqd20","pricing_plan_id":"free"},{"bike_id":"153ba6e9-d30e-4573-9b95-82a07cbb4e61","system_id":"levelo_inurba_marseille","lat":43.29269,"lon":5.38431,"is_reserved":false,"is_disabled":false,"rental_uris":{"android":"levelo://app?vid=153ba6e9-d30e-4573-9b95-82a07cbb4e61","ios":"levelo://app?vid=153ba6e9-d30e-4573-9b95-82a07cbb4e61"},"vehicle_type_id":"4","last_reported":1691604510,"current_range_meters":27600,"station_id":"ce4bh692rcd13ifvqea0","pricing_plan_id":"free"},{"bike_id":"ed9f1478-ab78-4c7f-9eac-7c87dd7a9af0","system_id":"levelo_inurba_marseille","lat":43.29041,"lon":5.399634,"is_reserved":false,"is_disabled":false,"rental_uris":{"android":"levelo://app?vid=ed9f1478-ab78-4c7f-9eac-7c87dd7a9af0","ios":"levelo://app?vid=ed9f1478-ab78-4c7f-9eac-7c87dd7a9af0"},"vehicle_type_id":"4","last_reported":1691604510,"current_range_meters":9600,"station_id":"ce4bh392rcd13ifvqdm0","pricing_plan_id":"free"},{"bike_id":"a1dc9e8a-df74-426b-a66b-2bcdac613300","system_id":"levelo_inurba_marseille","lat":43.29264,"lon":5.38438,"is_reserved":false,"is_disabled":false,"rental_uris":{"android":"levelo://app?vid=a1dc9e8a-df74-426b-a66b-2bcdac613300","ios":"levelo://app?vid=a1dc9e8a-df74-426b-a66b-2bcdac613300"},"vehicle_type_id":"4","last_reported":1691604510,"current_range_meters":2800,"station_id":"ce4bh692rcd13ifvqea0","pricing_plan_id":"free"},{"bike_id":"54e9443c-b811-41c7-899e-88aff9c270e6","system_id":"levelo_inurba_marseille","lat":43.292644,"lon":5.384257,"is_reserved":false,"is_disabled":false,"rental_uris":{"android":"levelo://app?vid=54e9443c-b811-41c7-899e-88aff9c270e6","ios":"levelo://app?vid=54e9443c-b811-41c7-899e-88aff9c270e6"},"vehicle_type_id":"4","last_reported":1691604510,"current_range_meters":15600,"station_id":"ce4bh692rcd13ifvqea0","pricing_plan_id":"free"},{"bike_id":"216d6d7f-b91d-4244-b1e1-6492c1753a42","system_id":"levelo_inurba_marseille","lat":43.29263,"lon":5.38442,"is_reserved":false,"is_disabled":false,"rental_uris":{"android":"levelo://app?vid=216d6d7f-b91d-4244-b1e1-6492c1753a42","ios":"levelo://app?vid=216d6d7f-b91d-4244-b1e1-6492c1753a42"},"vehicle_type_id":"4","last_reported":1691604510,"current_range_meters":4400,"station_id":"ce4bh692rcd13ifvqea0","pricing_plan_id":"free"},{"bike_id":"f69f1e2b-ee2a-48d9-8097-51589c67addf","system_id":"levelo_inurba_marseille","lat":43.29258,"lon":5.38433,"is_reserved":false,"is_disabled":false,"rental_uris":{"android":"levelo://app?vid=f69f1e2b-ee2a-48d9-8097-51589c67addf","ios":"levelo://app?vid=f69f1e2b-ee2a-48d9-8097-51589c67addf"},"vehicle_type_id":"4","last_reported":1691604510,"current_range_meters":23200,"station_id":"ce4bh692rcd13ifvqea0","pricing_plan_id":"free"},{"bike_id":"3af4bc0d-5bb5-4f2f-837a-c23cb27688e4","system_id":"levelo_inurba_marseille","lat":43.29261,"lon":5.38442,"is_reserved":false,"is_disabled":false,"rental_uris":{"android":"levelo://app?vid=3af4bc0d-5bb5-4f2f-837a-c23cb27688e4","ios":"levelo://app?vid=3af4bc0d-5bb5-4f2f-837a-c23cb27688e4"},"vehicle_type_id":"4","last_reported":1691604510,"current_range_meters":400,"station_id":"ce4bh692rcd13ifvqea0","pricing_plan_id":"free"},{"bike_id":"0c84fab0-43dc-46b9-b85b-4f34fbb6491a","system_id":"levelo_inurba_marseille","lat":43.292627,"lon":5.384458,"is_reserved":false,"is_disabled":false,"rental_uris":{"android":"levelo://app?vid=0c84fab0-43dc-46b9-b85b-4f34fbb6491a","ios":"levelo://app?vid=0c84fab0-43dc-46b9-b85b-4f34fbb6491a"},"vehicle_type_id":"4","last_reported":1691604510,"current_range_meters":12800,"station_id":"ce4bh692rcd13ifvqea0","pricing_plan_id":"free"},{"bike_id":"8c00034a-0f8c-499d-9e56-f3b3571c206c","system_id":"levelo_inurba_marseille","lat":43.2926,"lon":5.38443,"is_reserved":false,"is_disabled":false,"rental_uris":{"android":"levelo://app?vid=8c00034a-0f8c-499d-9e56-f3b3571c206c","ios":"levelo://app?vid=8c00034a-0f8c-499d-9e56-f3b3571c206c"},"vehicle_type_id":"4","last_reported":1691604510,"current_range_meters":8000,"station_id":"ce4bh692rcd13ifvqea0","pricing_plan_id":"free"},{"bike_id":"7aeff44e-0bb5-4422-9e0e-c3ce1f76ff08","system_id":"levelo_inurba_marseille","lat":43.29257,"lon":5.38443,"is_reserved":false,"is_disabled":false,"rental_uris":{"android":"levelo://app?vid=7aeff44e-0bb5-4422-9e0e-c3ce1f76ff08","ios":"levelo://app?vid=7aeff44e-0bb5-4422-9e0e-c3ce1f76ff08"},"vehicle_type_id":"4","last_reported":1691604510,"current_range_meters":28800,"station_id":"ce4bh692rcd13ifvqea0","pricing_plan_id":"free"},{"bike_id":"f8bf6a9c-58da-4368-a1c1-f966be94a14b","system_id":"levelo_inurba_marseille","lat":43.33045,"lon":5.38907,"is_reserved":false,"is_disabled":false,"rental_uris":{"android":"levelo://app?vid=f8bf6a9c-58da-4368-a1c1-f966be94a14b","ios":"levelo://app?vid=f8bf6a9c-58da-4368-a1c1-f966be94a14b"},"vehicle_type_id":"4","last_reported":1691604510,"current_range_meters":30800,"station_id":"ce4bhr92rcd13ifvqhrg","pricing_plan_id":"free"},{"bike_id":"1d39cb6b-9879-4e3f-8a27-1c570603366e","system_id":"levelo_inurba_marseille","lat":43.33046,"lon":5.38906,"is_reserved":false,"is_disabled":false,"rental_uris":{"android":"levelo://app?vid=1d39cb6b-9879-4e3f-8a27-1c570603366e","ios":"levelo://app?vid=1d39cb6b-9879-4e3f-8a27-1c570603366e"},"vehicle_type_id":"4","last_reported":1691604510,"current_range_meters":31200,"station_id":"ce4bhr92rcd13ifvqhrg","pricing_plan_id":"free"},{"bike_id":"f71aed5b-352a-4d4c-967b-b7e0283ec3d5","system_id":"levelo_inurba_marseille","lat":43.33046,"lon":5.38913,"is_reserved":false,"is_disabled":false,"rental_uris":{"android":"levelo://app?vid=f71aed5b-352a-4d4c-967b-b7e0283ec3d5","ios":"levelo://app?vid=f71aed5b-352a-4d4c-967b-b7e0283ec3d5"},"vehicle_type_id":"4","last_reported":1691604510,"current_range_meters":28800,"station_id":"ce4bhr92rcd13ifvqhrg","pricing_plan_id":"free"},{"bike_id":"14357752-db31-47b1-95c6-de41d410230d","system_id":"levelo_inurba_marseille","lat":43.290104,"lon":5.356111,"is_reserved":false,"is_disabled":false,"rental_uris":{"android":"levelo://app?vid=14357752-db31-47b1-95c6-de41d410230d","ios":"levelo://app?vid=14357752-db31-47b1-95c6-de41d410230d"},"vehicle_type_id":"4","last_reported":1691604510,"current_range_meters":28400,"station_id":"ce4bhb92rcd13ifvqen0","pricing_plan_id":"free"},{"bike_id":"8e283159-654c-4aea-b0c3-ff3cdad6f9b7","system_id":"levelo_inurba_marseille","lat":43.290104,"lon":5.356111,"is_reserved":false,"is_disabled":false,"rental_uris":{"android":"levelo://app?vid=8e283159-654c-4aea-b0c3-ff3cdad6f9b7","ios":"levelo://app?vid=8e283159-654c-4aea-b0c3-ff3cdad6f9b7"},"vehicle_type_id":"4","last_reported":1691604510,"current_range_meters":31200,"station_id":"ce4bhb92rcd13ifvqen0","pricing_plan_id":"free"},{"bike_id":"7b78d55e-e99c-4fa7-968a-c672d6912f00","system_id":"levelo_inurba_marseille","lat":43.290104,"lon":5.356111,"is_reserved":false,"is_disabled":false,"rental_uris":{"android":"levelo://app?vid=7b78d55e-e99c-4fa7-968a-c672d6912f00","ios":"levelo://app?vid=7b78d55e-e99c-4fa7-968a-c672d6912f00"},"vehicle_type_id":"4","last_reported":1691604510,"current_range_meters":31600,"station_id":"ce4bhb92rcd13ifvqen0","pricing_plan_id":"free"},{"bike_id":"c2e9ef91-c9a0-4925-bf66-c19f84f6c2ca","system_id":"levelo_inurba_marseille","lat":43.290053,"lon":5.356187,"is_reserved":false,"is_disabled":false,"rental_uris":{"android":"levelo://app?vid=c2e9ef91-c9a0-4925-bf66-c19f84f6c2ca","ios":"levelo://app?vid=c2e9ef91-c9a0-4925-bf66-c19f84f6c2ca"},"vehicle_type_id":"4","last_reported":1691604510,"current_range_meters":17600,"station_id":"","pricing_plan_id":"free"},{"bike_id":"816893d1-4537-4c1d-849b-9050ec6d6cc2","system_id":"levelo_inurba_marseille","lat":43.29005,"lon":5.35612,"is_reserved":false,"is_disabled":false,"rental_uris":{"android":"levelo://app?vid=816893d1-4537-4c1d-849b-9050ec6d6cc2","ios":"levelo://app?vid=816893d1-4537-4c1d-849b-9050ec6d6cc2"},"vehicle_type_id":"4","last_reported":1691604510,"current_range_meters":7600,"station_id":"ce4bhb92rcd13ifvqen0","pricing_plan_id":"free"},{"bike_id":"915f802e-f31b-4c71-8de0-2a5fc39e5970","system_id":"levelo_inurba_marseille","lat":43.33041,"lon":5.38928,"is_reserved":false,"is_disabled":false,"rental_uris":{"android":"levelo://app?vid=915f802e-f31b-4c71-8de0-2a5fc39e5970","ios":"levelo://app?vid=915f802e-f31b-4c71-8de0-2a5fc39e5970"},"vehicle_type_id":"4","last_reported":1691604510,"current_range_meters":13600,"station_id":"ce4bhr92rcd13ifvqhrg","pricing_plan_id":"free"},{"bike_id":"6570ff5a-33b8-451e-87dc-2152d5a5013c","system_id":"levelo_inurba_marseille","lat":43.29006,"lon":5.35602,"is_reserved":false,"is_disabled":false,"rental_uris":{"android":"levelo://app?vid=6570ff5a-33b8-451e-87dc-2152d5a5013c","ios":"levelo://app?vid=6570ff5a-33b8-451e-87dc-2152d5a5013c"},"vehicle_type_id":"4","last_reported":1691604510,"current_range_meters":31200,"station_id":"ce4bhb92rcd13ifvqen0","pricing_plan_id":"free"},{"bike_id":"0e98e272-1bb5-4ed2-ae15-ca6e088f7a7c","system_id":"levelo_inurba_marseille","lat":43.290104,"lon":5.356111,"is_reserved":false,"is_disabled":false,"rental_uris":{"android":"levelo://app?vid=0e98e272-1bb5-4ed2-ae15-ca6e088f7a7c","ios":"levelo://app?vid=0e98e272-1bb5-4ed2-ae15-ca6e088f7a7c"},"vehicle_type_id":"4","last_reported":1691604510,"current_range_meters":6800,"station_id":"ce4bhb92rcd13ifvqen0","pricing_plan_id":"free"},{"bike_id":"d4e3f746-fa39-4e63-8a59-24e775554cc9","system_id":"levelo_inurba_marseille","lat":43.290104,"lon":5.356111,"is_reserved":false,"is_disabled":false,"rental_uris":{"android":"levelo://app?vid=d4e3f746-fa39-4e63-8a59-24e775554cc9","ios":"levelo://app?vid=d4e3f746-fa39-4e63-8a59-24e775554cc9"},"vehicle_type_id":"4","last_reported":1691604510,"current_range_meters":6400,"station_id":"ce4bhb92rcd13ifvqen0","pricing_plan_id":"free"},{"bike_id":"5be18124-2c70-4b45-8c3c-b098439e3a12","system_id":"levelo_inurba_marseille","lat":43.290104,"lon":5.356111,"is_reserved":false,"is_disabled":false,"rental_uris":{"android":"levelo://app?vid=5be18124-2c70-4b45-8c3c-b098439e3a12","ios":"levelo://app?vid=5be18124-2c70-4b45-8c3c-b098439e3a12"},"vehicle_type_id":"4","last_reported":1691604510,"current_range_meters":2000,"station_id":"ce4bhb92rcd13ifvqen0","pricing_plan_id":"free"},{"bike_id":"d92191b5-3897-428d-989c-4b986c7a7e64","system_id":"levelo_inurba_marseille","lat":43.29002,"lon":5.35603,"is_reserved":false,"is_disabled":false,"rental_uris":{"android":"levelo://app?vid=d92191b5-3897-428d-989c-4b986c7a7e64","ios":"levelo://app?vid=d92191b5-3897-428d-989c-4b986c7a7e64"},"vehicle_type_id":"4","last_reported":1691604510,"current_range_meters":30800,"station_id":"ce4bhb92rcd13ifvqen0","pricing_plan_id":"free"},{"bike_id":"149f673d-fe5d-4679-8bb0-042be9578f03","system_id":"levelo_inurba_marseille","lat":43.295169,"lon":5.390426,"is_reserved":false,"is_disabled":false,"rental_uris":{"android":"levelo://app?vid=149f673d-fe5d-4679-8bb0-042be9578f03","ios":"levelo://app?vid=149f673d-fe5d-4679-8bb0-042be9578f03"},"vehicle_type_id":"4","last_reported":1691604510,"current_range_meters":27200,"station_id":"ce4bh3p2rcd13ifvqdp0","pricing_plan_id":"free"},{"bike_id":"3c566267-7b33-4eb0-b38e-a29af0fc1464","system_id":"levelo_inurba_marseille","lat":43.297815,"lon":5.393548,"is_reserved":false,"is_disabled":false,"rental_uris":{"android":"levelo://app?vid=3c566267-7b33-4eb0-b38e-a29af0fc1464","ios":"levelo://app?vid=3c566267-7b33-4eb0-b38e-a29af0fc1464"},"vehicle_type_id":"4","last_reported":1691604510,"current_range_meters":1200,"station_id":"chh1huq6cuj3fo74tm60","pricing_plan_id":"free"},{"bike_id":"67b660fa-b31f-4ceb-8bb3-eb208b14f26f","system_id":"levelo_inurba_marseille","lat":43.297815,"lon":5.393548,"is_reserved":false,"is_disabled":false,"rental_uris":{"android":"levelo://app?vid=67b660fa-b31f-4ceb-8bb3-eb208b14f26f","ios":"levelo://app?vid=67b660fa-b31f-4ceb-8bb3-eb208b14f26f"},"vehicle_type_id":"4","last_reported":1691604510,"current_range_meters":4400,"station_id":"chh1huq6cuj3fo74tm60","pricing_plan_id":"free"},{"bike_id":"3d22777f-754b-4c19-912f-5c65671fa9ea","system_id":"levelo_inurba_marseille","lat":43.295169,"lon":5.390426,"is_reserved":false,"is_disabled":false,"rental_uris":{"android":"levelo://app?vid=3d22777f-754b-4c19-912f-5c65671fa9ea","ios":"levelo://app?vid=3d22777f-754b-4c19-912f-5c65671fa9ea"},"vehicle_type_id":"4","last_reported":1691604510,"current_range_meters":10000,"station_id":"ce4bh3p2rcd13ifvqdp0","pricing_plan_id":"free"},{"bike_id":"32681564-96cf-4f7e-ba04-543baab997fa","system_id":"levelo_inurba_marseille","lat":43.295169,"lon":5.390426,"is_reserved":false,"is_disabled":false,"rental_uris":{"android":"levelo://app?vid=32681564-96cf-4f7e-ba04-543baab997fa","ios":"levelo://app?vid=32681564-96cf-4f7e-ba04-543baab997fa"},"vehicle_type_id":"4","last_reported":1691604510,"current_range_meters":3600,"station_id":"ce4bh3p2rcd13ifvqdp0","pricing_plan_id":"free"},{"bike_id":"8b03faab-a467-46b0-8e9c-59a1c2862941","system_id":"levelo_inurba_marseille","lat":43.31278,"lon":5.40166,"is_reserved":false,"is_disabled":false,"rental_uris":{"android":"levelo://app?vid=8b03faab-a467-46b0-8e9c-59a1c2862941","ios":"levelo://app?vid=8b03faab-a467-46b0-8e9c-59a1c2862941"},"vehicle_type_id":"4","last_reported":1691604510,"current_range_meters":400,"station_id":"ce4bh092rcd13ifvqd30","pricing_plan_id":"free"},{"bike_id":"b8a49fd5-a6df-4c6b-9a07-49f1a8160363","system_id":"levelo_inurba_marseille","lat":43.31271,"lon":5.40166,"is_reserved":false,"is_disabled":false,"rental_uris":{"android":"levelo://app?vid=b8a49fd5-a6df-4c6b-9a07-49f1a8160363","ios":"levelo://app?vid=b8a49fd5-a6df-4c6b-9a07-49f1a8160363"},"vehicle_type_id":"4","last_reported":1691604510,"current_range_meters":29600,"station_id":"ce4bh092rcd13ifvqd30","pricing_plan_id":"free"},{"bike_id":"ddb9a041-0264-4f85-aaf6-ebf4508186d0","system_id":"levelo_inurba_marseille","lat":43.31273,"lon":5.40167,"is_reserved":false,"is_disabled":false,"rental_uris":{"android":"levelo://app?vid=ddb9a041-0264-4f85-aaf6-ebf4508186d0","ios":"levelo://app?vid=ddb9a041-0264-4f85-aaf6-ebf4508186d0"},"vehicle_type_id":"4","last_reported":1691604510,"current_range_meters":0,"station_id":"ce4bh092rcd13ifvqd30","pricing_plan_id":"free"},{"bike_id":"440b9443-7576-4521-88ec-806ed3efcf41","system_id":"levelo_inurba_marseille","lat":43.3127,"lon":5.40167,"is_reserved":false,"is_disabled":false,"rental_uris":{"android":"levelo://app?vid=440b9443-7576-4521-88ec-806ed3efcf41","ios":"levelo://app?vid=440b9443-7576-4521-88ec-806ed3efcf41"},"vehicle_type_id":"4","last_reported":1691604510,"current_range_meters":7200,"station_id":"ce4bh092rcd13ifvqd30","pricing_plan_id":"free"},{"bike_id":"96a7e133-ad38-41ab-b969-cbad7d327acd","system_id":"levelo_inurba_marseille","lat":43.31275,"lon":5.40169,"is_reserved":false,"is_disabled":false,"rental_uris":{"android":"levelo://app?vid=96a7e133-ad38-41ab-b969-cbad7d327acd","ios":"levelo://app?vid=96a7e133-ad38-41ab-b969-cbad7d327acd"},"vehicle_type_id":"4","last_reported":1691604510,"current_range_meters":16400,"station_id":"ce4bh092rcd13ifvqd30","pricing_plan_id":"free"},{"bike_id":"54f657a4-af18-4926-87f9-260209eefb83","system_id":"levelo_inurba_marseille","lat":43.31273,"lon":5.40169,"is_reserved":false,"is_disabled":false,"rental_uris":{"android":"levelo://app?vid=54f657a4-af18-4926-87f9-260209eefb83","ios":"levelo://app?vid=54f657a4-af18-4926-87f9-260209eefb83"},"vehicle_type_id":"4","last_reported":1691604510,"current_range_meters":2400,"station_id":"ce4bh092rcd13ifvqd30","pricing_plan_id":"free"},{"bike_id":"c1cb1847-0d57-450a-b4fe-682f2720cde5","system_id":"levelo_inurba_marseille","lat":43.31276,"lon":5.40172,"is_reserved":false,"is_disabled":false,"rental_uris":{"android":"levelo://app?vid=c1cb1847-0d57-450a-b4fe-682f2720cde5","ios":"levelo://app?vid=c1cb1847-0d57-450a-b4fe-682f2720cde5"},"vehicle_type_id":"4","last_reported":1691604510,"current_range_meters":5600,"station_id":"ce4bh092rcd13ifvqd30","pricing_plan_id":"free"},{"bike_id":"6fbe7c27-fd6f-4ff1-bc28-4459cd1f7923","system_id":"levelo_inurba_marseille","lat":43.31275,"lon":5.40176,"is_reserved":false,"is_disabled":false,"rental_uris":{"android":"levelo://app?vid=6fbe7c27-fd6f-4ff1-bc28-4459cd1f7923","ios":"levelo://app?vid=6fbe7c27-fd6f-4ff1-bc28-4459cd1f7923"},"vehicle_type_id":"4","last_reported":1691604510,"current_range_meters":9200,"station_id":"ce4bh092rcd13ifvqd30","pricing_plan_id":"free"},{"bike_id":"79f51269-0f00-4d2f-9cf6-ad88ad18e014","system_id":"levelo_inurba_marseille","lat":43.33759,"lon":5.37443,"is_reserved":false,"is_disabled":false,"rental_uris":{"android":"levelo://app?vid=79f51269-0f00-4d2f-9cf6-ad88ad18e014","ios":"levelo://app?vid=79f51269-0f00-4d2f-9cf6-ad88ad18e014"},"vehicle_type_id":"4","last_reported":1691604510,"current_range_meters":28400,"station_id":"","pricing_plan_id":"free"},{"bike_id":"4bc49612-abff-4e5f-b302-69b9d486f3da","system_id":"levelo_inurba_marseille","lat":43.3065,"lon":5.40086,"is_reserved":false,"is_disabled":false,"rental_uris":{"android":"levelo://app?vid=4bc49612-abff-4e5f-b302-69b9d486f3da","ios":"levelo://app?vid=4bc49612-abff-4e5f-b302-69b9d486f3da"},"vehicle_type_id":"4","last_reported":1691604510,"current_range_meters":8800,"station_id":"ce4bh112rcd13ifvqda0","pricing_plan_id":"free"},{"bike_id":"587f2a5e-97aa-4562-ad3a-7a9ad8b5b318","system_id":"levelo_inurba_marseille","lat":43.3376,"lon":5.37457,"is_reserved":false,"is_disabled":false,"rental_uris":{"android":"levelo://app?vid=587f2a5e-97aa-4562-ad3a-7a9ad8b5b318","ios":"levelo://app?vid=587f2a5e-97aa-4562-ad3a-7a9ad8b5b318"},"vehicle_type_id":"4","last_reported":1691604510,"current_range_meters":29200,"station_id":"","pricing_plan_id":"free"},{"bike_id":"3585088c-1fad-4eca-b223-780202197d91","system_id":"levelo_inurba_marseille","lat":43.33017,"lon":5.3925,"is_reserved":false,"is_disabled":false,"rental_uris":{"android":"levelo://app?vid=3585088c-1fad-4eca-b223-780202197d91","ios":"levelo://app?vid=3585088c-1fad-4eca-b223-780202197d91"},"vehicle_type_id":"4","last_reported":1691604510,"current_range_meters":7600,"station_id":"","pricing_plan_id":"free"},{"bike_id":"4b9f1532-6aa4-40ef-a66c-57f6cb88fa02","system_id":"levelo_inurba_marseille","lat":43.30642,"lon":5.401031,"is_reserved":false,"is_disabled":false,"rental_uris":{"android":"levelo://app?vid=4b9f1532-6aa4-40ef-a66c-57f6cb88fa02","ios":"levelo://app?vid=4b9f1532-6aa4-40ef-a66c-57f6cb88fa02"},"vehicle_type_id":"4","last_reported":1691604510,"current_range_meters":30000,"station_id":"ce4bh112rcd13ifvqda0","pricing_plan_id":"free"},{"bike_id":"8a1bc748-74b1-4f85-ad63-1db8c00a4bba","system_id":"levelo_inurba_marseille","lat":43.30636,"lon":5.40089,"is_reserved":false,"is_disabled":false,"rental_uris":{"android":"levelo://app?vid=8a1bc748-74b1-4f85-ad63-1db8c00a4bba","ios":"levelo://app?vid=8a1bc748-74b1-4f85-ad63-1db8c00a4bba"},"vehicle_type_id":"4","last_reported":1691604510,"current_range_meters":5200,"station_id":"ce4bh112rcd13ifvqda0","pricing_plan_id":"free"},{"bike_id":"abd6fc1c-6c0a-497d-a59c-23e8e732dbcf","system_id":"levelo_inurba_marseille","lat":43.30642,"lon":5.401031,"is_reserved":false,"is_disabled":false,"rental_uris":{"android":"levelo://app?vid=abd6fc1c-6c0a-497d-a59c-23e8e732dbcf","ios":"levelo://app?vid=abd6fc1c-6c0a-497d-a59c-23e8e732dbcf"},"vehicle_type_id":"4","last_reported":1691604510,"current_range_meters":800,"station_id":"ce4bh112rcd13ifvqda0","pricing_plan_id":"free"},{"bike_id":"dbbdc40c-8da4-4e13-8f41-c2a35c4a2938","system_id":"levelo_inurba_marseille","lat":43.298681,"lon":5.397225,"is_reserved":false,"is_disabled":false,"rental_uris":{"android":"levelo://app?vid=dbbdc40c-8da4-4e13-8f41-c2a35c4a2938","ios":"levelo://app?vid=dbbdc40c-8da4-4e13-8f41-c2a35c4a2938"},"vehicle_type_id":"4","last_reported":1691604510,"current_range_meters":21600,"station_id":"ce4bh0h2rcd13ifvqd50","pricing_plan_id":"free"},{"bike_id":"cf06521c-3a23-493a-b3b7-9f85cacc4a23","system_id":"levelo_inurba_marseille","lat":43.286591,"lon":5.363346,"is_reserved":false,"is_disabled":false,"rental_uris":{"android":"levelo://app?vid=cf06521c-3a23-493a-b3b7-9f85cacc4a23","ios":"levelo://app?vid=cf06521c-3a23-493a-b3b7-9f85cacc4a23"},"vehicle_type_id":"4","last_reported":1691604510,"current_range_meters":26400,"station_id":"ce4bhah2rcd13ifvqej0","pricing_plan_id":"free"},{"bike_id":"0a9b23d2-0ee1-4022-9c8b-2bdb3b4ec813","system_id":"levelo_inurba_marseille","lat":43.286591,"lon":5.363346,"is_reserved":false,"is_disabled":false,"rental_uris":{"android":"levelo://app?vid=0a9b23d2-0ee1-4022-9c8b-2bdb3b4ec813","ios":"levelo://app?vid=0a9b23d2-0ee1-4022-9c8b-2bdb3b4ec813"},"vehicle_type_id":"4","last_reported":1691604510,"current_range_meters":13600,"station_id":"ce4bhah2rcd13ifvqej0","pricing_plan_id":"free"},{"bike_id":"2c3df343-bc1c-4eb8-b5f5-75a560bc4a09","system_id":"levelo_inurba_marseille","lat":43.298681,"lon":5.397225,"is_reserved":false,"is_disabled":false,"rental_uris":{"android":"levelo://app?vid=2c3df343-bc1c-4eb8-b5f5-75a560bc4a09","ios":"levelo://app?vid=2c3df343-bc1c-4eb8-b5f5-75a560bc4a09"},"vehicle_type_id":"4","last_reported":1691604510,"current_range_meters":31200,"station_id":"ce4bh0h2rcd13ifvqd50","pricing_plan_id":"free"},{"bike_id":"75199276-b705-4ad7-b6a9-49aeaa84628a","system_id":"levelo_inurba_marseille","lat":43.286591,"lon":5.363346,"is_reserved":false,"is_disabled":false,"rental_uris":{"android":"levelo://app?vid=75199276-b705-4ad7-b6a9-49aeaa84628a","ios":"levelo://app?vid=75199276-b705-4ad7-b6a9-49aeaa84628a"},"vehicle_type_id":"4","last_reported":1691604510,"current_range_meters":31600,"station_id":"ce4bhah2rcd13ifvqej0","pricing_plan_id":"free"},{"bike_id":"9ddab9a8-16ee-45cd-88d2-c18ddc918fa8","system_id":"levelo_inurba_marseille","lat":43.286593,"lon":5.363346,"is_reserved":false,"is_disabled":false,"rental_uris":{"android":"levelo://app?vid=9ddab9a8-16ee-45cd-88d2-c18ddc918fa8","ios":"levelo://app?vid=9ddab9a8-16ee-45cd-88d2-c18ddc918fa8"},"vehicle_type_id":"4","last_reported":1691604510,"current_range_meters":31200,"station_id":"ce4bhah2rcd13ifvqej0","pricing_plan_id":"free"},{"bike_id":"bb81291d-9350-4038-8a76-7f01f74a7886","system_id":"levelo_inurba_marseille","lat":43.302548,"lon":5.400568,"is_reserved":false,"is_disabled":false,"rental_uris":{"android":"levelo://app?vid=bb81291d-9350-4038-8a76-7f01f74a7886","ios":"levelo://app?vid=bb81291d-9350-4038-8a76-7f01f74a7886"},"vehicle_type_id":"4","last_reported":1691604510,"current_range_meters":0,"station_id":"","pricing_plan_id":"free"},{"bike_id":"12ab795d-5f62-4c6e-a84d-6ecd6847281b","system_id":"levelo_inurba_marseille","lat":43.302759,"lon":5.400793,"is_reserved":false,"is_disabled":false,"rental_uris":{"android":"levelo://app?vid=12ab795d-5f62-4c6e-a84d-6ecd6847281b","ios":"levelo://app?vid=12ab795d-5f62-4c6e-a84d-6ecd6847281b"},"vehicle_type_id":"4","last_reported":1691604510,"current_range_meters":5600,"station_id":"ce4bgvh2rcd13ifvqcs0","pricing_plan_id":"free"},{"bike_id":"32e41d97-e338-47f6-adb2-57bfee2b9536","system_id":"levelo_inurba_marseille","lat":43.290345,"lon":5.38646,"is_reserved":false,"is_disabled":false,"rental_uris":{"android":"levelo://app?vid=32e41d97-e338-47f6-adb2-57bfee2b9536","ios":"levelo://app?vid=32e41d97-e338-47f6-adb2-57bfee2b9536"},"vehicle_type_id":"4","last_reported":1691604510,"current_range_meters":28000,"station_id":"ce4bh4p2rcd13ifvqe0g","pricing_plan_id":"free"},{"bike_id":"c681c776-8530-496f-b58d-e69b6e130845","system_id":"levelo_inurba_marseille","lat":43.302759,"lon":5.400793,"is_reserved":false,"is_disabled":false,"rental_uris":{"android":"levelo://app?vid=c681c776-8530-496f-b58d-e69b6e130845","ios":"levelo://app?vid=c681c776-8530-496f-b58d-e69b6e130845"},"vehicle_type_id":"4","last_reported":1691604510,"current_range_meters":4800,"station_id":"ce4bgvh2rcd13ifvqcs0","pricing_plan_id":"free"},{"bike_id":"a9e871bb-c677-4e46-ba43-a629ab4fc796","system_id":"levelo_inurba_marseille","lat":43.286039,"lon":5.370679,"is_reserved":false,"is_disabled":false,"rental_uris":{"android":"levelo://app?vid=a9e871bb-c677-4e46-ba43-a629ab4fc796","ios":"levelo://app?vid=a9e871bb-c677-4e46-ba43-a629ab4fc796"},"vehicle_type_id":"4","last_reported":1691604510,"current_range_meters":17600,"station_id":"ce4bht12rcd13ifvqi60","pricing_plan_id":"free"},{"bike_id":"ad3ce9b0-fdec-4cfb-ab66-e7e13689b704","system_id":"levelo_inurba_marseille","lat":43.286039,"lon":5.370679,"is_reserved":false,"is_disabled":false,"rental_uris":{"android":"levelo://app?vid=ad3ce9b0-fdec-4cfb-ab66-e7e13689b704","ios":"levelo://app?vid=ad3ce9b0-fdec-4cfb-ab66-e7e13689b704"},"vehicle_type_id":"4","last_reported":1691604510,"current_range_meters":18000,"station_id":"ce4bht12rcd13ifvqi60","pricing_plan_id":"free"},{"bike_id":"1b82002d-179c-4035-8f03-3c8c3898846f","system_id":"levelo_inurba_marseille","lat":43.286039,"lon":5.370679,"is_reserved":false,"is_disabled":false,"rental_uris":{"android":"levelo://app?vid=1b82002d-179c-4035-8f03-3c8c3898846f","ios":"levelo://app?vid=1b82002d-179c-4035-8f03-3c8c3898846f"},"vehicle_type_id":"4","last_reported":1691604510,"current_range_meters":16400,"station_id":"ce4bht12rcd13ifvqi60","pricing_plan_id":"free"},{"bike_id":"5b3a295b-9025-499d-aab9-5a2823508c04","system_id":"levelo_inurba_marseille","lat":43.286039,"lon":5.370679,"is_reserved":false,"is_disabled":false,"rental_uris":{"android":"levelo://app?vid=5b3a295b-9025-499d-aab9-5a2823508c04","ios":"levelo://app?vid=5b3a295b-9025-499d-aab9-5a2823508c04"},"vehicle_type_id":"4","last_reported":1691604510,"current_range_meters":3200,"station_id":"ce4bht12rcd13ifvqi60","pricing_plan_id":"free"},{"bike_id":"e9f785b7-0740-4c98-9d76-71653fecc8dd","system_id":"levelo_inurba_marseille","lat":43.286039,"lon":5.370679,"is_reserved":false,"is_disabled":false,"rental_uris":{"android":"levelo://app?vid=e9f785b7-0740-4c98-9d76-71653fecc8dd","ios":"levelo://app?vid=e9f785b7-0740-4c98-9d76-71653fecc8dd"},"vehicle_type_id":"4","last_reported":1691604510,"current_range_meters":7200,"station_id":"ce4bht12rcd13ifvqi60","pricing_plan_id":"free"},{"bike_id":"50005bdb-0513-4f56-b243-243e1c4c712b","system_id":"levelo_inurba_marseille","lat":43.286039,"lon":5.370679,"is_reserved":false,"is_disabled":false,"rental_uris":{"android":"levelo://app?vid=50005bdb-0513-4f56-b243-243e1c4c712b","ios":"levelo://app?vid=50005bdb-0513-4f56-b243-243e1c4c712b"},"vehicle_type_id":"4","last_reported":1691604510,"current_range_meters":18000,"station_id":"ce4bht12rcd13ifvqi60","pricing_plan_id":"free"},{"bike_id":"62e7f9de-47fe-4104-861b-ff8b5b9d0eb4","system_id":"levelo_inurba_marseille","lat":43.286039,"lon":5.370679,"is_reserved":false,"is_disabled":false,"rental_uris":{"android":"levelo://app?vid=62e7f9de-47fe-4104-861b-ff8b5b9d0eb4","ios":"levelo://app?vid=62e7f9de-47fe-4104-861b-ff8b5b9d0eb4"},"vehicle_type_id":"4","last_reported":1691604510,"current_range_meters":1200,"station_id":"ce4bht12rcd13ifvqi60","pricing_plan_id":"free"},{"bike_id":"b9334ae7-4bbb-4f95-bb4b-9afafb40501e","system_id":"levelo_inurba_marseille","lat":43.286039,"lon":5.370679,"is_reserved":false,"is_disabled":false,"rental_uris":{"android":"levelo://app?vid=b9334ae7-4bbb-4f95-bb4b-9afafb40501e","ios":"levelo://app?vid=b9334ae7-4bbb-4f95-bb4b-9afafb40501e"},"vehicle_type_id":"4","last_reported":1691604510,"current_range_meters":14000,"station_id":"ce4bht12rcd13ifvqi60","pricing_plan_id":"free"},{"bike_id":"a52715fd-5956-4557-9743-d0322cd2f030","system_id":"levelo_inurba_marseille","lat":43.286039,"lon":5.370679,"is_reserved":false,"is_disabled":false,"rental_uris":{"android":"levelo://app?vid=a52715fd-5956-4557-9743-d0322cd2f030","ios":"levelo://app?vid=a52715fd-5956-4557-9743-d0322cd2f030"},"vehicle_type_id":"4","last_reported":1691604510,"current_range_meters":21200,"station_id":"ce4bht12rcd13ifvqi60","pricing_plan_id":"free"},{"bike_id":"cc7217ef-f98e-44e5-9da3-bfe464a3efad","system_id":"levelo_inurba_marseille","lat":43.286039,"lon":5.370679,"is_reserved":false,"is_disabled":false,"rental_uris":{"android":"levelo://app?vid=cc7217ef-f98e-44e5-9da3-bfe464a3efad","ios":"levelo://app?vid=cc7217ef-f98e-44e5-9da3-bfe464a3efad"},"vehicle_type_id":"4","last_reported":1691604510,"current_range_meters":2800,"station_id":"ce4bht12rcd13ifvqi60","pricing_plan_id":"free"},{"bike_id":"6a1aef8e-2f3c-4009-9c15-ed29864f1a5a","system_id":"levelo_inurba_marseille","lat":43.287184,"lon":5.37937,"is_reserved":false,"is_disabled":false,"rental_uris":{"android":"levelo://app?vid=6a1aef8e-2f3c-4009-9c15-ed29864f1a5a","ios":"levelo://app?vid=6a1aef8e-2f3c-4009-9c15-ed29864f1a5a"},"vehicle_type_id":"4","last_reported":1691604510,"current_range_meters":18000,"station_id":"ce4bh9p2rcd13ifvqec0","pricing_plan_id":"free"},{"bike_id":"852d6d50-fb75-4864-a010-396fb66f2de2","system_id":"levelo_inurba_marseille","lat":43.28713,"lon":5.37941,"is_reserved":false,"is_disabled":false,"rental_uris":{"android":"levelo://app?vid=852d6d50-fb75-4864-a010-396fb66f2de2","ios":"levelo://app?vid=852d6d50-fb75-4864-a010-396fb66f2de2"},"vehicle_type_id":"4","last_reported":1691604510,"current_range_meters":0,"station_id":"ce4bh9p2rcd13ifvqec0","pricing_plan_id":"free"},{"bike_id":"5ec87aab-c738-4e6f-a73c-5f7ef591845f","system_id":"levelo_inurba_marseille","lat":43.316479,"lon":5.404346,"is_reserved":false,"is_disabled":false,"rental_uris":{"android":"levelo://app?vid=5ec87aab-c738-4e6f-a73c-5f7ef591845f","ios":"levelo://app?vid=5ec87aab-c738-4e6f-a73c-5f7ef591845f"},"vehicle_type_id":"4","last_reported":1691604510,"current_range_meters":7200,"station_id":"ce4bh012rcd13ifvqd00","pricing_plan_id":"free"},{"bike_id":"b975bd32-1a67-4dca-a24c-1b3566005e83","system_id":"levelo_inurba_marseille","lat":43.291994,"lon":5.392907,"is_reserved":false,"is_disabled":false,"rental_uris":{"android":"levelo://app?vid=b975bd32-1a67-4dca-a24c-1b3566005e83","ios":"levelo://app?vid=b975bd32-1a67-4dca-a24c-1b3566005e83"},"vehicle_type_id":"4","last_reported":1691604510,"current_range_meters":1200,"station_id":"ce4bh192rcd13ifvqdd0","pricing_plan_id":"free"},{"bike_id":"94af6b5f-1930-4ad0-8954-5f87c6372b72","system_id":"levelo_inurba_marseille","lat":43.291994,"lon":5.392907,"is_reserved":false,"is_disabled":false,"rental_uris":{"android":"levelo://app?vid=94af6b5f-1930-4ad0-8954-5f87c6372b72","ios":"levelo://app?vid=94af6b5f-1930-4ad0-8954-5f87c6372b72"},"vehicle_type_id":"4","last_reported":1691604510,"current_range_meters":16000,"station_id":"ce4bh192rcd13ifvqdd0","pricing_plan_id":"free"},{"bike_id":"ec3b0f3c-8482-48c3-a7c7-7f7460f55d14","system_id":"levelo_inurba_marseille","lat":43.291994,"lon":5.392907,"is_reserved":false,"is_disabled":false,"rental_uris":{"android":"levelo://app?vid=ec3b0f3c-8482-48c3-a7c7-7f7460f55d14","ios":"levelo://app?vid=ec3b0f3c-8482-48c3-a7c7-7f7460f55d14"},"vehicle_type_id":"4","last_reported":1691604510,"current_range_meters":19200,"station_id":"ce4bh192rcd13ifvqdd0","pricing_plan_id":"free"},{"bike_id":"0ed76163-0087-4d2a-a8b0-c235daa03615","system_id":"levelo_inurba_marseille","lat":43.291994,"lon":5.392907,"is_reserved":false,"is_disabled":false,"rental_uris":{"android":"levelo://app?vid=0ed76163-0087-4d2a-a8b0-c235daa03615","ios":"levelo://app?vid=0ed76163-0087-4d2a-a8b0-c235daa03615"},"vehicle_type_id":"4","last_reported":1691604510,"current_range_meters":14000,"station_id":"ce4bh192rcd13ifvqdd0","pricing_plan_id":"free"},{"bike_id":"25d8136c-286f-4fef-b912-492b0d826259","system_id":"levelo_inurba_marseille","lat":43.284538,"lon":5.358657,"is_reserved":false,"is_disabled":false,"rental_uris":{"android":"levelo://app?vid=25d8136c-286f-4fef-b912-492b0d826259","ios":"levelo://app?vid=25d8136c-286f-4fef-b912-492b0d826259"},"vehicle_type_id":"4","last_reported":1691604510,"current_range_meters":16800,"station_id":"ce4bhah2rcd13ifvqei0","pricing_plan_id":"free"},{"bike_id":"dcb720f3-c269-45af-b96d-4f826d4dcb3a","system_id":"levelo_inurba_marseille","lat":43.284534,"lon":5.358662,"is_reserved":false,"is_disabled":false,"rental_uris":{"android":"levelo://app?vid=dcb720f3-c269-45af-b96d-4f826d4dcb3a","ios":"levelo://app?vid=dcb720f3-c269-45af-b96d-4f826d4dcb3a"},"vehicle_type_id":"4","last_reported":1691604510,"current_range_meters":29200,"station_id":"ce4bhah2rcd13ifvqei0","pricing_plan_id":"free"},{"bike_id":"49125848-ee81-4afd-bf36-2ac8decca65f","system_id":"levelo_inurba_marseille","lat":43.284534,"lon":5.358662,"is_reserved":false,"is_disabled":false,"rental_uris":{"android":"levelo://app?vid=49125848-ee81-4afd-bf36-2ac8decca65f","ios":"levelo://app?vid=49125848-ee81-4afd-bf36-2ac8decca65f"},"vehicle_type_id":"4","last_reported":1691604510,"current_range_meters":30800,"station_id":"ce4bhah2rcd13ifvqei0","pricing_plan_id":"free"},{"bike_id":"7a19dd53-24ee-4481-a6cc-1925caa76962","system_id":"levelo_inurba_marseille","lat":43.28454,"lon":5.3589,"is_reserved":false,"is_disabled":false,"rental_uris":{"android":"levelo://app?vid=7a19dd53-24ee-4481-a6cc-1925caa76962","ios":"levelo://app?vid=7a19dd53-24ee-4481-a6cc-1925caa76962"},"vehicle_type_id":"4","last_reported":1691604510,"current_range_meters":23200,"station_id":"ce4bhah2rcd13ifvqei0","pricing_plan_id":"free"},{"bike_id":"ed4510a2-fa2f-4fa9-b162-5eb2e42cf6fa","system_id":"levelo_inurba_marseille","lat":43.284534,"lon":5.358662,"is_reserved":false,"is_disabled":false,"rental_uris":{"android":"levelo://app?vid=ed4510a2-fa2f-4fa9-b162-5eb2e42cf6fa","ios":"levelo://app?vid=ed4510a2-fa2f-4fa9-b162-5eb2e42cf6fa"},"vehicle_type_id":"4","last_reported":1691604510,"current_range_meters":19200,"station_id":"ce4bhah2rcd13ifvqei0","pricing_plan_id":"free"},{"bike_id":"a4947fc4-b063-414c-9913-83cfb820c9e0","system_id":"levelo_inurba_marseille","lat":43.284538,"lon":5.358657,"is_reserved":false,"is_disabled":false,"rental_uris":{"android":"levelo://app?vid=a4947fc4-b063-414c-9913-83cfb820c9e0","ios":"levelo://app?vid=a4947fc4-b063-414c-9913-83cfb820c9e0"},"vehicle_type_id":"4","last_reported":1691604510,"current_range_meters":4400,"station_id":"ce4bhah2rcd13ifvqei0","pricing_plan_id":"free"},{"bike_id":"61254601-5645-4b55-9eb4-68ee6afb1e74","system_id":"levelo_inurba_marseille","lat":43.29437,"lon":5.39756,"is_reserved":false,"is_disabled":false,"rental_uris":{"android":"levelo://app?vid=61254601-5645-4b55-9eb4-68ee6afb1e74","ios":"levelo://app?vid=61254601-5645-4b55-9eb4-68ee6afb1e74"},"vehicle_type_id":"4","last_reported":1691604510,"current_range_meters":0,"station_id":"ce4bh3h2rcd13ifvqdo0","pricing_plan_id":"free"},{"bike_id":"65248949-f791-478e-9ff8-be4737eefb0a","system_id":"levelo_inurba_marseille","lat":43.285856,"lon":5.350771,"is_reserved":false,"is_disabled":false,"rental_uris":{"android":"levelo://app?vid=65248949-f791-478e-9ff8-be4737eefb0a","ios":"levelo://app?vid=65248949-f791-478e-9ff8-be4737eefb0a"},"vehicle_type_id":"4","last_reported":1691604510,"current_range_meters":21600,"station_id":"ce4bhch2rcd13ifvqeug","pricing_plan_id":"free"},{"bike_id":"5ed05166-9f6f-4fef-8b18-894a9048eee9","system_id":"levelo_inurba_marseille","lat":43.285856,"lon":5.350771,"is_reserved":false,"is_disabled":false,"rental_uris":{"android":"levelo://app?vid=5ed05166-9f6f-4fef-8b18-894a9048eee9","ios":"levelo://app?vid=5ed05166-9f6f-4fef-8b18-894a9048eee9"},"vehicle_type_id":"4","last_reported":1691604510,"current_range_meters":6400,"station_id":"ce4bhch2rcd13ifvqeug","pricing_plan_id":"free"},{"bike_id":"30edc61e-e627-4fcf-9c52-4f6d9b4679ba","system_id":"levelo_inurba_marseille","lat":43.28415,"lon":5.37509,"is_reserved":false,"is_disabled":false,"rental_uris":{"android":"levelo://app?vid=30edc61e-e627-4fcf-9c52-4f6d9b4679ba","ios":"levelo://app?vid=30edc61e-e627-4fcf-9c52-4f6d9b4679ba"},"vehicle_type_id":"4","last_reported":1691604510,"current_range_meters":23600,"station_id":"ce4bh412rcd13ifvqds0","pricing_plan_id":"free"},{"bike_id":"38b7f440-0a11-4a16-85d6-11df41c5d3c1","system_id":"levelo_inurba_marseille","lat":43.28415,"lon":5.37512,"is_reserved":false,"is_disabled":false,"rental_uris":{"android":"levelo://app?vid=38b7f440-0a11-4a16-85d6-11df41c5d3c1","ios":"levelo://app?vid=38b7f440-0a11-4a16-85d6-11df41c5d3c1"},"vehicle_type_id":"4","last_reported":1691604510,"current_range_meters":12000,"station_id":"ce4bh412rcd13ifvqds0","pricing_plan_id":"free"},{"bike_id":"04d79f8e-22d6-49e5-972f-0ddf5cb53759","system_id":"levelo_inurba_marseille","lat":43.28411,"lon":5.37501,"is_reserved":false,"is_disabled":false,"rental_uris":{"android":"levelo://app?vid=04d79f8e-22d6-49e5-972f-0ddf5cb53759","ios":"levelo://app?vid=04d79f8e-22d6-49e5-972f-0ddf5cb53759"},"vehicle_type_id":"4","last_reported":1691604510,"current_range_meters":14400,"station_id":"ce4bh412rcd13ifvqds0","pricing_plan_id":"free"},{"bike_id":"8125cfdc-4ea3-4bf2-a7fc-f414caefe0b4","system_id":"levelo_inurba_marseille","lat":43.28409,"lon":5.375,"is_reserved":false,"is_disabled":false,"rental_uris":{"android":"levelo://app?vid=8125cfdc-4ea3-4bf2-a7fc-f414caefe0b4","ios":"levelo://app?vid=8125cfdc-4ea3-4bf2-a7fc-f414caefe0b4"},"vehicle_type_id":"4","last_reported":1691604510,"current_range_meters":8800,"station_id":"ce4bh412rcd13ifvqds0","pricing_plan_id":"free"},{"bike_id":"53e67f8c-1cd3-4a47-9d21-0b7011531c9c","system_id":"levelo_inurba_marseille","lat":43.28411,"lon":5.37515,"is_reserved":false,"is_disabled":false,"rental_uris":{"android":"levelo://app?vid=53e67f8c-1cd3-4a47-9d21-0b7011531c9c","ios":"levelo://app?vid=53e67f8c-1cd3-4a47-9d21-0b7011531c9c"},"vehicle_type_id":"4","last_reported":1691604510,"current_range_meters":15600,"station_id":"ce4bh412rcd13ifvqds0","pricing_plan_id":"free"},{"bike_id":"9cff64da-2bd3-4ac0-b68b-8d22983dbfbf","system_id":"levelo_inurba_marseille","lat":43.295713,"lon":5.399639,"is_reserved":false,"is_disabled":false,"rental_uris":{"android":"levelo://app?vid=9cff64da-2bd3-4ac0-b68b-8d22983dbfbf","ios":"levelo://app?vid=9cff64da-2bd3-4ac0-b68b-8d22983dbfbf"},"vehicle_type_id":"4","last_reported":1691604510,"current_range_meters":27600,"station_id":"ce4bh312rcd13ifvqdj0","pricing_plan_id":"free"},{"bike_id":"e335f635-6bde-48e3-b05a-147b7652e5e9","system_id":"levelo_inurba_marseille","lat":43.31887,"lon":5.4073,"is_reserved":false,"is_disabled":false,"rental_uris":{"android":"levelo://app?vid=e335f635-6bde-48e3-b05a-147b7652e5e9","ios":"levelo://app?vid=e335f635-6bde-48e3-b05a-147b7652e5e9"},"vehicle_type_id":"4","last_reported":1691604510,"current_range_meters":19600,"station_id":"ce4bhq12rcd13ifvqhig","pricing_plan_id":"free"},{"bike_id":"b2a3b27f-fa42-4588-ba61-6a762ab08897","system_id":"levelo_inurba_marseille","lat":43.337168,"lon":5.391825,"is_reserved":false,"is_disabled":false,"rental_uris":{"android":"levelo://app?vid=b2a3b27f-fa42-4588-ba61-6a762ab08897","ios":"levelo://app?vid=b2a3b27f-fa42-4588-ba61-6a762ab08897"},"vehicle_type_id":"4","last_reported":1691604510,"current_range_meters":24800,"station_id":"ce4bhr92rcd13ifvqhsg","pricing_plan_id":"free"},{"bike_id":"c1c36742-594e-4942-8b1b-16f98a15fa5e","system_id":"levelo_inurba_marseille","lat":43.32342,"lon":5.4062,"is_reserved":false,"is_disabled":false,"rental_uris":{"android":"levelo://app?vid=c1c36742-594e-4942-8b1b-16f98a15fa5e","ios":"levelo://app?vid=c1c36742-594e-4942-8b1b-16f98a15fa5e"},"vehicle_type_id":"4","last_reported":1691604510,"current_range_meters":31200,"station_id":"ce4bhq92rcd13ifvqhjg","pricing_plan_id":"free"},{"bike_id":"2b2169b5-65fc-4fbe-8551-1f0b64c0e540","system_id":"levelo_inurba_marseille","lat":43.337168,"lon":5.391825,"is_reserved":false,"is_disabled":false,"rental_uris":{"android":"levelo://app?vid=2b2169b5-65fc-4fbe-8551-1f0b64c0e540","ios":"levelo://app?vid=2b2169b5-65fc-4fbe-8551-1f0b64c0e540"},"vehicle_type_id":"4","last_reported":1691604510,"current_range_meters":4400,"station_id":"ce4bhr92rcd13ifvqhsg","pricing_plan_id":"free"},{"bike_id":"2eddae36-de9c-4b59-b400-bd4e76986f7a","system_id":"levelo_inurba_marseille","lat":43.284793,"lon":5.384113,"is_reserved":false,"is_disabled":false,"rental_uris":{"android":"levelo://app?vid=2eddae36-de9c-4b59-b400-bd4e76986f7a","ios":"levelo://app?vid=2eddae36-de9c-4b59-b400-bd4e76986f7a"},"vehicle_type_id":"4","last_reported":1691604510,"current_range_meters":24000,"station_id":"ce4bh512rcd13ifvqe3g","pricing_plan_id":"free"},{"bike_id":"5a65be3b-8ae4-42da-bb87-836c51f02d3a","system_id":"levelo_inurba_marseille","lat":43.284793,"lon":5.384113,"is_reserved":false,"is_disabled":false,"rental_uris":{"android":"levelo://app?vid=5a65be3b-8ae4-42da-bb87-836c51f02d3a","ios":"levelo://app?vid=5a65be3b-8ae4-42da-bb87-836c51f02d3a"},"vehicle_type_id":"4","last_reported":1691604510,"current_range_meters":18800,"station_id":"ce4bh512rcd13ifvqe3g","pricing_plan_id":"free"},{"bike_id":"974b1490-628d-4587-a8e5-94fbb788dfb0","system_id":"levelo_inurba_marseille","lat":43.29805,"lon":5.404,"is_reserved":false,"is_disabled":false,"rental_uris":{"android":"levelo://app?vid=974b1490-628d-4587-a8e5-94fbb788dfb0","ios":"levelo://app?vid=974b1490-628d-4587-a8e5-94fbb788dfb0"},"vehicle_type_id":"4","last_reported":1691604510,"current_range_meters":16400,"station_id":"","pricing_plan_id":"free"},{"bike_id":"bc8f1471-e6af-4e67-9bea-92fb02f005ab","system_id":"levelo_inurba_marseille","lat":43.29595,"lon":5.40234,"is_reserved":false,"is_disabled":false,"rental_uris":{"android":"levelo://app?vid=bc8f1471-e6af-4e67-9bea-92fb02f005ab","ios":"levelo://app?vid=bc8f1471-e6af-4e67-9bea-92fb02f005ab"},"vehicle_type_id":"4","last_reported":1691604510,"current_range_meters":28400,"station_id":"","pricing_plan_id":"free"},{"bike_id":"c095b95a-7534-40f6-a29e-7cee04233bb1","system_id":"levelo_inurba_marseille","lat":43.288497,"lon":5.393089,"is_reserved":false,"is_disabled":false,"rental_uris":{"android":"levelo://app?vid=c095b95a-7534-40f6-a29e-7cee04233bb1","ios":"levelo://app?vid=c095b95a-7534-40f6-a29e-7cee04233bb1"},"vehicle_type_id":"4","last_reported":1691604510,"current_range_meters":17600,"station_id":"ce4bh2p2rcd13ifvqdi0","pricing_plan_id":"free"},{"bike_id":"27a8b2ff-912c-4e87-bcec-bacca080fa0f","system_id":"levelo_inurba_marseille","lat":43.288497,"lon":5.393089,"is_reserved":false,"is_disabled":false,"rental_uris":{"android":"levelo://app?vid=27a8b2ff-912c-4e87-bcec-bacca080fa0f","ios":"levelo://app?vid=27a8b2ff-912c-4e87-bcec-bacca080fa0f"},"vehicle_type_id":"4","last_reported":1691604510,"current_range_meters":29600,"station_id":"ce4bh2p2rcd13ifvqdi0","pricing_plan_id":"free"},{"bike_id":"2d11062e-99d8-4ebb-a2a5-2bec6e346e2f","system_id":"levelo_inurba_marseille","lat":43.288501,"lon":5.393087,"is_reserved":false,"is_disabled":false,"rental_uris":{"android":"levelo://app?vid=2d11062e-99d8-4ebb-a2a5-2bec6e346e2f","ios":"levelo://app?vid=2d11062e-99d8-4ebb-a2a5-2bec6e346e2f"},"vehicle_type_id":"4","last_reported":1691604510,"current_range_meters":18400,"station_id":"ce4bh2p2rcd13ifvqdi0","pricing_plan_id":"free"},{"bike_id":"93e35043-c291-47e6-bf10-6f098b9b61f3","system_id":"levelo_inurba_marseille","lat":43.289363,"lon":5.396322,"is_reserved":false,"is_disabled":false,"rental_uris":{"android":"levelo://app?vid=93e35043-c291-47e6-bf10-6f098b9b61f3","ios":"levelo://app?vid=93e35043-c291-47e6-bf10-6f098b9b61f3"},"vehicle_type_id":"4","last_reported":1691604510,"current_range_meters":13600,"station_id":"ce4bh3h2rcd13ifvqdn0","pricing_plan_id":"free"},{"bike_id":"5cec26ac-344f-432b-af34-450b75305b9b","system_id":"levelo_inurba_marseille","lat":43.292724,"lon":5.401131,"is_reserved":false,"is_disabled":false,"rental_uris":{"android":"levelo://app?vid=5cec26ac-344f-432b-af34-450b75305b9b","ios":"levelo://app?vid=5cec26ac-344f-432b-af34-450b75305b9b"},"vehicle_type_id":"4","last_reported":1691604510,"current_range_meters":31200,"station_id":"ce4bh312rcd13ifvqdk0","pricing_plan_id":"free"},{"bike_id":"707bf337-72ad-4220-bb97-3278ca909010","system_id":"levelo_inurba_marseille","lat":43.292724,"lon":5.401131,"is_reserved":false,"is_disabled":false,"rental_uris":{"android":"levelo://app?vid=707bf337-72ad-4220-bb97-3278ca909010","ios":"levelo://app?vid=707bf337-72ad-4220-bb97-3278ca909010"},"vehicle_type_id":"4","last_reported":1691604510,"current_range_meters":19200,"station_id":"ce4bh312rcd13ifvqdk0","pricing_plan_id":"free"},{"bike_id":"f2a1617c-339c-4cff-b6c0-bd374cd3c5f2","system_id":"levelo_inurba_marseille","lat":43.283502,"lon":5.386471,"is_reserved":false,"is_disabled":false,"rental_uris":{"android":"levelo://app?vid=f2a1617c-339c-4cff-b6c0-bd374cd3c5f2","ios":"levelo://app?vid=f2a1617c-339c-4cff-b6c0-bd374cd3c5f2"},"vehicle_type_id":"4","last_reported":1691604510,"current_range_meters":2400,"station_id":"ce4bh492rcd13ifvqdvg","pricing_plan_id":"free"},{"bike_id":"88940920-727e-47f8-bee6-24feedff1167","system_id":"levelo_inurba_marseille","lat":43.282754,"lon":5.350519,"is_reserved":false,"is_disabled":false,"rental_uris":{"android":"levelo://app?vid=88940920-727e-47f8-bee6-24feedff1167","ios":"levelo://app?vid=88940920-727e-47f8-bee6-24feedff1167"},"vehicle_type_id":"4","last_reported":1691604510,"current_range_meters":31200,"station_id":"ce4bhbp2rcd13ifvqerg","pricing_plan_id":"free"},{"bike_id":"53101388-19ba-468f-8607-a9df00fd2d93","system_id":"levelo_inurba_marseille","lat":43.282754,"lon":5.350519,"is_reserved":false,"is_disabled":false,"rental_uris":{"android":"levelo://app?vid=53101388-19ba-468f-8607-a9df00fd2d93","ios":"levelo://app?vid=53101388-19ba-468f-8607-a9df00fd2d93"},"vehicle_type_id":"4","last_reported":1691604510,"current_range_meters":26000,"station_id":"ce4bhbp2rcd13ifvqerg","pricing_plan_id":"free"},{"bike_id":"561d0373-2fc5-4e56-83d0-845d85408248","system_id":"levelo_inurba_marseille","lat":43.282744,"lon":5.350533,"is_reserved":false,"is_disabled":false,"rental_uris":{"android":"levelo://app?vid=561d0373-2fc5-4e56-83d0-845d85408248","ios":"levelo://app?vid=561d0373-2fc5-4e56-83d0-845d85408248"},"vehicle_type_id":"4","last_reported":1691604510,"current_range_meters":1200,"station_id":"ce4bhbp2rcd13ifvqerg","pricing_plan_id":"free"},{"bike_id":"3d82430a-410d-40cf-b9ef-36817410a60d","system_id":"levelo_inurba_marseille","lat":43.282744,"lon":5.350533,"is_reserved":false,"is_disabled":false,"rental_uris":{"android":"levelo://app?vid=3d82430a-410d-40cf-b9ef-36817410a60d","ios":"levelo://app?vid=3d82430a-410d-40cf-b9ef-36817410a60d"},"vehicle_type_id":"4","last_reported":1691604510,"current_range_meters":12400,"station_id":"ce4bhbp2rcd13ifvqerg","pricing_plan_id":"free"},{"bike_id":"021d317e-b420-4f61-88fc-c2889623dbb0","system_id":"levelo_inurba_marseille","lat":43.280382,"lon":5.369291,"is_reserved":false,"is_disabled":false,"rental_uris":{"android":"levelo://app?vid=021d317e-b420-4f61-88fc-c2889623dbb0","ios":"levelo://app?vid=021d317e-b420-4f61-88fc-c2889623dbb0"},