{"last_updated":1684962234,"ttl":30,"version":"2.2","data":{"bikes":[{"bike_id":"fedfa4b8-457c-44f4-b98a-855b5ce42efc","system_id":"levelo_inurba_marseille","lat":43.309076,"lon":5.368465,"is_reserved":false,"is_disabled":false,"rental_uris":{"android":"levelo://app?vid=fedfa4b8-457c-44f4-b98a-855b5ce42efc","ios":"levelo://app?vid=fedfa4b8-457c-44f4-b98a-855b5ce42efc"},"vehicle_type_id":"4","last_reported":1684962234,"current_range_meters":10000,"station_id":"ce4bgn92rcd13ifvqbvg","pricing_plan_id":"free"},{"bike_id":"cff61c2a-f46e-4719-9caf-72b3a6931d19","system_id":"levelo_inurba_marseille","lat":43.31487,"lon":5.37308,"is_reserved":false,"is_disabled":false,"rental_uris":{"android":"levelo://app?vid=cff61c2a-f46e-4719-9caf-72b3a6931d19","ios":"levelo://app?vid=cff61c2a-f46e-4719-9caf-72b3a6931d19"},"vehicle_type_id":"4","last_reported":1684962234,"current_range_meters":18800,"station_id":"ce4bgt12rcd13ifvqcd0","pricing_plan_id":"free"},{"bike_id":"1993cb53-6714-4b8e-8107-1d71009cd85e","system_id":"levelo_inurba_marseille","lat":43.314811,"lon":5.373104,"is_reserved":false,"is_disabled":false,"rental_uris":{"android":"levelo://app?vid=1993cb53-6714-4b8e-8107-1d71009cd85e","ios":"levelo://app?vid=1993cb53-6714-4b8e-8107-1d71009cd85e"},"vehicle_type_id":"4","last_reported":1684962234,"current_range_meters":15200,"station_id":"ce4bgt12rcd13ifvqcd0","pricing_plan_id":"free"},{"bike_id":"47d88754-c8b0-4c88-b77a-0df4c560e0e1","system_id":"levelo_inurba_marseille","lat":43.308614,"lon":5.372098,"is_reserved":false,"is_disabled":false,"rental_uris":{"android":"levelo://app?vid=47d88754-c8b0-4c88-b77a-0df4c560e0e1","ios":"levelo://app?vid=47d88754-c8b0-4c88-b77a-0df4c560e0e1"},"vehicle_type_id":"4","last_reported":1684962234,"current_range_meters":15200,"station_id":"ce4bguh2rcd13ifvqckg","pricing_plan_id":"free"},{"bike_id":"7264e0c1-5e3b-436f-b6b5-ddc44b39f27b","system_id":"levelo_inurba_marseille","lat":43.305368,"lon":5.367343,"is_reserved":false,"is_disabled":false,"rental_uris":{"android":"levelo://app?vid=7264e0c1-5e3b-436f-b6b5-ddc44b39f27b","ios":"levelo://app?vid=7264e0c1-5e3b-436f-b6b5-ddc44b39f27b"},"vehicle_type_id":"4","last_reported":1684962234,"current_range_meters":5600,"station_id":"ce4bgrp2rcd13ifvqc9g","pricing_plan_id":"free"},{"bike_id":"923bb309-3385-4de8-8382-66f39d92d157","system_id":"levelo_inurba_marseille","lat":43.305368,"lon":5.367343,"is_reserved":false,"is_disabled":false,"rental_uris":{"android":"levelo://app?vid=923bb309-3385-4de8-8382-66f39d92d157","ios":"levelo://app?vid=923bb309-3385-4de8-8382-66f39d92d157"},"vehicle_type_id":"4","last_reported":1684962234,"current_range_meters":9600,"station_id":"ce4bgrp2rcd13ifvqc9g","pricing_plan_id":"free"},{"bike_id":"b6d416a0-43c8-41d3-ba0b-cb85edf9be34","system_id":"levelo_inurba_marseille","lat":43.305989,"lon":5.37225,"is_reserved":false,"is_disabled":false,"rental_uris":{"android":"levelo://app?vid=b6d416a0-43c8-41d3-ba0b-cb85edf9be34","ios":"levelo://app?vid=b6d416a0-43c8-41d3-ba0b-cb85edf9be34"},"vehicle_type_id":"4","last_reported":1684962234,"current_range_meters":10800,"station_id":"ce4bgqh2rcd13ifvqc4g","pricing_plan_id":"free"},{"bike_id":"16e7282a-4eed-47c3-83b3-d7e0dee6c006","system_id":"levelo_inurba_marseille","lat":43.317075,"lon":5.377367,"is_reserved":false,"is_disabled":false,"rental_uris":{"android":"levelo://app?vid=16e7282a-4eed-47c3-83b3-d7e0dee6c006","ios":"levelo://app?vid=16e7282a-4eed-47c3-83b3-d7e0dee6c006"},"vehicle_type_id":"4","last_reported":1684962234,"current_range_meters":24800,"station_id":"ce4bgth2rcd13ifvqch0","pricing_plan_id":"free"},{"bike_id":"c1e64ba5-f673-404d-a689-e1fb0c714013","system_id":"levelo_inurba_marseille","lat":43.317075,"lon":5.377367,"is_reserved":false,"is_disabled":false,"rental_uris":{"android":"levelo://app?vid=c1e64ba5-f673-404d-a689-e1fb0c714013","ios":"levelo://app?vid=c1e64ba5-f673-404d-a689-e1fb0c714013"},"vehicle_type_id":"4","last_reported":1684962234,"current_range_meters":31200,"station_id":"ce4bgth2rcd13ifvqch0","pricing_plan_id":"free"},{"bike_id":"68553df9-2b4c-4244-a834-2447f191355a","system_id":"levelo_inurba_marseille","lat":43.317075,"lon":5.377367,"is_reserved":false,"is_disabled":false,"rental_uris":{"android":"levelo://app?vid=68553df9-2b4c-4244-a834-2447f191355a","ios":"levelo://app?vid=68553df9-2b4c-4244-a834-2447f191355a"},"vehicle_type_id":"4","last_reported":1684962234,"current_range_meters":9200,"station_id":"ce4bgth2rcd13ifvqch0","pricing_plan_id":"free"},{"bike_id":"e0e51ede-c4ac-4630-bc22-0e3c383745d9","system_id":"levelo_inurba_marseille","lat":43.317075,"lon":5.377367,"is_reserved":false,"is_disabled":false,"rental_uris":{"android":"levelo://app?vid=e0e51ede-c4ac-4630-bc22-0e3c383745d9","ios":"levelo://app?vid=e0e51ede-c4ac-4630-bc22-0e3c383745d9"},"vehicle_type_id":"4","last_reported":1684962234,"current_range_meters":29600,"station_id":"ce4bgth2rcd13ifvqch0","pricing_plan_id":"free"},{"bike_id":"fd38c318-e10c-4ea0-8386-140691495f8d","system_id":"levelo_inurba_marseille","lat":43.31713,"lon":5.37832,"is_reserved":false,"is_disabled":false,"rental_uris":{"android":"levelo://app?vid=fd38c318-e10c-4ea0-8386-140691495f8d","ios":"levelo://app?vid=fd38c318-e10c-4ea0-8386-140691495f8d"},"vehicle_type_id":"4","last_reported":1684962234,"current_range_meters":31200,"station_id":"","pricing_plan_id":"free"},{"bike_id":"e6d095ef-2b84-4614-9036-dcde0d40e77b","system_id":"levelo_inurba_marseille","lat":43.315289,"lon":5.380349,"is_reserved":false,"is_disabled":false,"rental_uris":{"android":"levelo://app?vid=e6d095ef-2b84-4614-9036-dcde0d40e77b","ios":"levelo://app?vid=e6d095ef-2b84-4614-9036-dcde0d40e77b"},"vehicle_type_id":"4","last_reported":1684962234,"current_range_meters":27600,"station_id":"ce4bhsp2rcd13ifvqi50","pricing_plan_id":"free"},{"bike_id":"9f092c7a-0082-405d-9c06-5fabb48acf1f","system_id":"levelo_inurba_marseille","lat":43.315289,"lon":5.380349,"is_reserved":false,"is_disabled":false,"rental_uris":{"android":"levelo://app?vid=9f092c7a-0082-405d-9c06-5fabb48acf1f","ios":"levelo://app?vid=9f092c7a-0082-405d-9c06-5fabb48acf1f"},"vehicle_type_id":"4","last_reported":1684962234,"current_range_meters":4800,"station_id":"ce4bhsp2rcd13ifvqi50","pricing_plan_id":"free"},{"bike_id":"b7409f09-2a8a-4570-aae9-bdb6db678b58","system_id":"levelo_inurba_marseille","lat":43.315289,"lon":5.380349,"is_reserved":false,"is_disabled":false,"rental_uris":{"android":"levelo://app?vid=b7409f09-2a8a-4570-aae9-bdb6db678b58","ios":"levelo://app?vid=b7409f09-2a8a-4570-aae9-bdb6db678b58"},"vehicle_type_id":"4","last_reported":1684962234,"current_range_meters":20000,"station_id":"ce4bhsp2rcd13ifvqi50","pricing_plan_id":"free"},{"bike_id":"6d6f9f90-e329-45d1-97a2-dad532edd73d","system_id":"levelo_inurba_marseille","lat":43.315293,"lon":5.380349,"is_reserved":false,"is_disabled":false,"rental_uris":{"android":"levelo://app?vid=6d6f9f90-e329-45d1-97a2-dad532edd73d","ios":"levelo://app?vid=6d6f9f90-e329-45d1-97a2-dad532edd73d"},"vehicle_type_id":"4","last_reported":1684962234,"current_range_meters":27200,"station_id":"ce4bhsp2rcd13ifvqi50","pricing_plan_id":"free"},{"bike_id":"5277ebc7-aa44-41d3-8fcc-7fac097ae356","system_id":"levelo_inurba_marseille","lat":43.308012,"lon":5.381511,"is_reserved":false,"is_disabled":false,"rental_uris":{"android":"levelo://app?vid=5277ebc7-aa44-41d3-8fcc-7fac097ae356","ios":"levelo://app?vid=5277ebc7-aa44-41d3-8fcc-7fac097ae356"},"vehicle_type_id":"4","last_reported":1684962234,"current_range_meters":10000,"station_id":"ce4bgt12rcd13ifvqce0","pricing_plan_id":"free"},{"bike_id":"db8e8592-4d41-4500-b9b7-459919afb3c2","system_id":"levelo_inurba_marseille","lat":43.305989,"lon":5.37225,"is_reserved":false,"is_disabled":false,"rental_uris":{"android":"levelo://app?vid=db8e8592-4d41-4500-b9b7-459919afb3c2","ios":"levelo://app?vid=db8e8592-4d41-4500-b9b7-459919afb3c2"},"vehicle_type_id":"4","last_reported":1684962234,"current_range_meters":9600,"station_id":"ce4bgqh2rcd13ifvqc4g","pricing_plan_id":"free"},{"bike_id":"7acdf85f-b7a0-4a14-b99c-b75c187c0dd3","system_id":"levelo_inurba_marseille","lat":43.304606,"lon":5.379026,"is_reserved":false,"is_disabled":false,"rental_uris":{"android":"levelo://app?vid=7acdf85f-b7a0-4a14-b99c-b75c187c0dd3","ios":"levelo://app?vid=7acdf85f-b7a0-4a14-b99c-b75c187c0dd3"},"vehicle_type_id":"4","last_reported":1684962234,"current_range_meters":27200,"station_id":"ce4bgup2rcd13ifvqcn0","pricing_plan_id":"free"},{"bike_id":"2b96ca08-55ec-4ff6-b25d-8071798338b6","system_id":"levelo_inurba_marseille","lat":43.319935,"lon":5.381699,"is_reserved":false,"is_disabled":false,"rental_uris":{"android":"levelo://app?vid=2b96ca08-55ec-4ff6-b25d-8071798338b6","ios":"levelo://app?vid=2b96ca08-55ec-4ff6-b25d-8071798338b6"},"vehicle_type_id":"4","last_reported":1684962234,"current_range_meters":3200,"station_id":"ce4bhr12rcd13ifvqhpg","pricing_plan_id":"free"},{"bike_id":"b8994b73-d4df-4a9b-b787-8a37f26bcaf2","system_id":"levelo_inurba_marseille","lat":43.30141,"lon":5.37409,"is_reserved":false,"is_disabled":false,"rental_uris":{"android":"levelo://app?vid=b8994b73-d4df-4a9b-b787-8a37f26bcaf2","ios":"levelo://app?vid=b8994b73-d4df-4a9b-b787-8a37f26bcaf2"},"vehicle_type_id":"4","last_reported":1684962234,"current_range_meters":9200,"station_id":"","pricing_plan_id":"free"},{"bike_id":"ca6734a0-a0ee-4445-bc44-dc7854a1d3b0","system_id":"levelo_inurba_marseille","lat":43.319935,"lon":5.381699,"is_reserved":false,"is_disabled":false,"rental_uris":{"android":"levelo://app?vid=ca6734a0-a0ee-4445-bc44-dc7854a1d3b0","ios":"levelo://app?vid=ca6734a0-a0ee-4445-bc44-dc7854a1d3b0"},"vehicle_type_id":"4","last_reported":1684962234,"current_range_meters":13200,"station_id":"ce4bhr12rcd13ifvqhpg","pricing_plan_id":"free"},{"bike_id":"b06b8421-bbaa-499d-a461-99fecf739d8f","system_id":"levelo_inurba_marseille","lat":43.319935,"lon":5.381699,"is_reserved":false,"is_disabled":false,"rental_uris":{"android":"levelo://app?vid=b06b8421-bbaa-499d-a461-99fecf739d8f","ios":"levelo://app?vid=b06b8421-bbaa-499d-a461-99fecf739d8f"},"vehicle_type_id":"4","last_reported":1684962234,"current_range_meters":11600,"station_id":"ce4bhr12rcd13ifvqhpg","pricing_plan_id":"free"},{"bike_id":"d0086ee5-2c76-40c6-ac41-971c5ff57f75","system_id":"levelo_inurba_marseille","lat":43.319935,"lon":5.381699,"is_reserved":false,"is_disabled":false,"rental_uris":{"android":"levelo://app?vid=d0086ee5-2c76-40c6-ac41-971c5ff57f75","ios":"levelo://app?vid=d0086ee5-2c76-40c6-ac41-971c5ff57f75"},"vehicle_type_id":"4","last_reported":1684962234,"current_range_meters":19600,"station_id":"ce4bhr12rcd13ifvqhpg","pricing_plan_id":"free"},{"bike_id":"e5571f58-adb6-49b7-8c86-2d757ae8e1a0","system_id":"levelo_inurba_marseille","lat":43.319935,"lon":5.381699,"is_reserved":false,"is_disabled":false,"rental_uris":{"android":"levelo://app?vid=e5571f58-adb6-49b7-8c86-2d757ae8e1a0","ios":"levelo://app?vid=e5571f58-adb6-49b7-8c86-2d757ae8e1a0"},"vehicle_type_id":"4","last_reported":1684962234,"current_range_meters":25200,"station_id":"ce4bhr12rcd13ifvqhpg","pricing_plan_id":"free"},{"bike_id":"09ed8f54-7a11-49be-8172-6d4f777b72c5","system_id":"levelo_inurba_marseille","lat":43.319935,"lon":5.381699,"is_reserved":false,"is_disabled":false,"rental_uris":{"android":"levelo://app?vid=09ed8f54-7a11-49be-8172-6d4f777b72c5","ios":"levelo://app?vid=09ed8f54-7a11-49be-8172-6d4f777b72c5"},"vehicle_type_id":"4","last_reported":1684962234,"current_range_meters":28400,"station_id":"ce4bhr12rcd13ifvqhpg","pricing_plan_id":"free"},{"bike_id":"0b398eec-4d24-44c3-8b59-49f0f6bb3b5f","system_id":"levelo_inurba_marseille","lat":43.299222,"lon":5.365554,"is_reserved":false,"is_disabled":false,"rental_uris":{"android":"levelo://app?vid=0b398eec-4d24-44c3-8b59-49f0f6bb3b5f","ios":"levelo://app?vid=0b398eec-4d24-44c3-8b59-49f0f6bb3b5f"},"vehicle_type_id":"4","last_reported":1684962234,"current_range_meters":23600,"station_id":"ce4bgm92rcd13ifvqbr0","pricing_plan_id":"free"},{"bike_id":"661cfc4b-ed22-49d2-9523-e0d33b317073","system_id":"levelo_inurba_marseille","lat":43.299222,"lon":5.365554,"is_reserved":false,"is_disabled":false,"rental_uris":{"android":"levelo://app?vid=661cfc4b-ed22-49d2-9523-e0d33b317073","ios":"levelo://app?vid=661cfc4b-ed22-49d2-9523-e0d33b317073"},"vehicle_type_id":"4","last_reported":1684962234,"current_range_meters":20000,"station_id":"ce4bgm92rcd13ifvqbr0","pricing_plan_id":"free"},{"bike_id":"d269ae1b-99aa-453b-be51-51baadb5e170","system_id":"levelo_inurba_marseille","lat":43.29933,"lon":5.36559,"is_reserved":false,"is_disabled":false,"rental_uris":{"android":"levelo://app?vid=d269ae1b-99aa-453b-be51-51baadb5e170","ios":"levelo://app?vid=d269ae1b-99aa-453b-be51-51baadb5e170"},"vehicle_type_id":"4","last_reported":1684962234,"current_range_meters":8000,"station_id":"ce4bgm92rcd13ifvqbr0","pricing_plan_id":"free"},{"bike_id":"f54c339c-af4d-4a4c-a61f-40c64d0fb5b4","system_id":"levelo_inurba_marseille","lat":43.299222,"lon":5.365554,"is_reserved":false,"is_disabled":false,"rental_uris":{"android":"levelo://app?vid=f54c339c-af4d-4a4c-a61f-40c64d0fb5b4","ios":"levelo://app?vid=f54c339c-af4d-4a4c-a61f-40c64d0fb5b4"},"vehicle_type_id":"4","last_reported":1684962234,"current_range_meters":28400,"station_id":"ce4bgm92rcd13ifvqbr0","pricing_plan_id":"free"},{"bike_id":"a8ada5d9-1638-46f4-8cbf-abc49adc59f4","system_id":"levelo_inurba_marseille","lat":43.299222,"lon":5.365554,"is_reserved":false,"is_disabled":false,"rental_uris":{"android":"levelo://app?vid=a8ada5d9-1638-46f4-8cbf-abc49adc59f4","ios":"levelo://app?vid=a8ada5d9-1638-46f4-8cbf-abc49adc59f4"},"vehicle_type_id":"4","last_reported":1684962234,"current_range_meters":8400,"station_id":"ce4bgm92rcd13ifvqbr0","pricing_plan_id":"free"},{"bike_id":"c1ab74ef-0d60-493b-b099-9598c0d3de68","system_id":"levelo_inurba_marseille","lat":43.305364,"lon":5.384119,"is_reserved":false,"is_disabled":false,"rental_uris":{"android":"levelo://app?vid=c1ab74ef-0d60-493b-b099-9598c0d3de68","ios":"levelo://app?vid=c1ab74ef-0d60-493b-b099-9598c0d3de68"},"vehicle_type_id":"4","last_reported":1684962234,"current_range_meters":0,"station_id":"ce4bgg92rcd13ifvqb30","pricing_plan_id":"free"},{"bike_id":"4cf5143f-1529-400c-b14b-31bc1d74c921","system_id":"levelo_inurba_marseille","lat":43.298433,"lon":5.362774,"is_reserved":false,"is_disabled":false,"rental_uris":{"android":"levelo://app?vid=4cf5143f-1529-400c-b14b-31bc1d74c921","ios":"levelo://app?vid=4cf5143f-1529-400c-b14b-31bc1d74c921"},"vehicle_type_id":"4","last_reported":1684962234,"current_range_meters":30400,"station_id":"ce4bgpp2rcd13ifvqc3g","pricing_plan_id":"free"},{"bike_id":"76ae1b57-ac9c-4dfc-954b-2d3ce26784c1","system_id":"levelo_inurba_marseille","lat":43.305364,"lon":5.384119,"is_reserved":false,"is_disabled":false,"rental_uris":{"android":"levelo://app?vid=76ae1b57-ac9c-4dfc-954b-2d3ce26784c1","ios":"levelo://app?vid=76ae1b57-ac9c-4dfc-954b-2d3ce26784c1"},"vehicle_type_id":"4","last_reported":1684962234,"current_range_meters":19200,"station_id":"ce4bgg92rcd13ifvqb30","pricing_plan_id":"free"},{"bike_id":"fd740e61-768a-44e9-be1b-6d87142b5859","system_id":"levelo_inurba_marseille","lat":43.311722,"lon":5.387247,"is_reserved":false,"is_disabled":false,"rental_uris":{"android":"levelo://app?vid=fd740e61-768a-44e9-be1b-6d87142b5859","ios":"levelo://app?vid=fd740e61-768a-44e9-be1b-6d87142b5859"},"vehicle_type_id":"4","last_reported":1684962234,"current_range_meters":26000,"station_id":"ce4bgv12rcd13ifvqcp0","pricing_plan_id":"free"},{"bike_id":"a19ba459-9bc1-413c-9d88-70a635ff0761","system_id":"levelo_inurba_marseille","lat":43.29721,"lon":5.36609,"is_reserved":false,"is_disabled":false,"rental_uris":{"android":"levelo://app?vid=a19ba459-9bc1-413c-9d88-70a635ff0761","ios":"levelo://app?vid=a19ba459-9bc1-413c-9d88-70a635ff0761"},"vehicle_type_id":"4","last_reported":1684962234,"current_range_meters":30800,"station_id":"","pricing_plan_id":"free"},{"bike_id":"a72cd3ab-e87f-4964-a87c-25d1d90e9843","system_id":"levelo_inurba_marseille","lat":43.328371,"lon":5.366912,"is_reserved":false,"is_disabled":false,"rental_uris":{"android":"levelo://app?vid=a72cd3ab-e87f-4964-a87c-25d1d90e9843","ios":"levelo://app?vid=a72cd3ab-e87f-4964-a87c-25d1d90e9843"},"vehicle_type_id":"4","last_reported":1684962234,"current_range_meters":21600,"station_id":"ce4bhs92rcd13ifvqi0g","pricing_plan_id":"free"},{"bike_id":"07d0f5f8-594a-4c99-bd5f-efd86e16327f","system_id":"levelo_inurba_marseille","lat":43.328371,"lon":5.366912,"is_reserved":false,"is_disabled":false,"rental_uris":{"android":"levelo://app?vid=07d0f5f8-594a-4c99-bd5f-efd86e16327f","ios":"levelo://app?vid=07d0f5f8-594a-4c99-bd5f-efd86e16327f"},"vehicle_type_id":"4","last_reported":1684962234,"current_range_meters":14800,"station_id":"ce4bhs92rcd13ifvqi0g","pricing_plan_id":"free"},{"bike_id":"fad50468-bff6-4eb0-bc39-08e7203bec60","system_id":"levelo_inurba_marseille","lat":43.328371,"lon":5.366912,"is_reserved":false,"is_disabled":false,"rental_uris":{"android":"levelo://app?vid=fad50468-bff6-4eb0-bc39-08e7203bec60","ios":"levelo://app?vid=fad50468-bff6-4eb0-bc39-08e7203bec60"},"vehicle_type_id":"4","last_reported":1684962234,"current_range_meters":20400,"station_id":"ce4bhs92rcd13ifvqi0g","pricing_plan_id":"free"},{"bike_id":"8ed1d8e4-f7e2-4037-9f56-bf16c3e27cb9","system_id":"levelo_inurba_marseille","lat":43.29714,"lon":5.36618,"is_reserved":false,"is_disabled":false,"rental_uris":{"android":"levelo://app?vid=8ed1d8e4-f7e2-4037-9f56-bf16c3e27cb9","ios":"levelo://app?vid=8ed1d8e4-f7e2-4037-9f56-bf16c3e27cb9"},"vehicle_type_id":"4","last_reported":1684962234,"current_range_meters":31200,"station_id":"","pricing_plan_id":"free"},{"bike_id":"00f9f4d5-0d9c-4e03-915d-ff1aae58da7e","system_id":"levelo_inurba_marseille","lat":43.29709,"lon":5.36609,"is_reserved":false,"is_disabled":false,"rental_uris":{"android":"levelo://app?vid=00f9f4d5-0d9c-4e03-915d-ff1aae58da7e","ios":"levelo://app?vid=00f9f4d5-0d9c-4e03-915d-ff1aae58da7e"},"vehicle_type_id":"4","last_reported":1684962234,"current_range_meters":31200,"station_id":"","pricing_plan_id":"free"},{"bike_id":"f8d15e5f-d051-4274-ae48-d1780fb0f96c","system_id":"levelo_inurba_marseille","lat":43.29697,"lon":5.36598,"is_reserved":false,"is_disabled":false,"rental_uris":{"android":"levelo://app?vid=f8d15e5f-d051-4274-ae48-d1780fb0f96c","ios":"levelo://app?vid=f8d15e5f-d051-4274-ae48-d1780fb0f96c"},"vehicle_type_id":"4","last_reported":1684962234,"current_range_meters":16800,"station_id":"","pricing_plan_id":"free"},{"bike_id":"7187ccfd-8c7a-4cc5-91e7-248a68a678e4","system_id":"levelo_inurba_marseille","lat":43.31681,"lon":5.38955,"is_reserved":false,"is_disabled":false,"rental_uris":{"android":"levelo://app?vid=7187ccfd-8c7a-4cc5-91e7-248a68a678e4","ios":"levelo://app?vid=7187ccfd-8c7a-4cc5-91e7-248a68a678e4"},"vehicle_type_id":"4","last_reported":1684962234,"current_range_meters":4400,"station_id":"","pricing_plan_id":"free"},{"bike_id":"a829d5f8-aa07-4fd9-81f0-4a456d5a19b1","system_id":"levelo_inurba_marseille","lat":43.296921,"lon":5.376579,"is_reserved":false,"is_disabled":false,"rental_uris":{"android":"levelo://app?vid=a829d5f8-aa07-4fd9-81f0-4a456d5a19b1","ios":"levelo://app?vid=a829d5f8-aa07-4fd9-81f0-4a456d5a19b1"},"vehicle_type_id":"4","last_reported":1684962234,"current_range_meters":21200,"station_id":"ce4bgkh2rcd13ifvqbl0","pricing_plan_id":"free"},{"bike_id":"8a960c34-0751-433d-9e34-7af65031a33b","system_id":"levelo_inurba_marseille","lat":43.296935,"lon":5.376544,"is_reserved":false,"is_disabled":false,"rental_uris":{"android":"levelo://app?vid=8a960c34-0751-433d-9e34-7af65031a33b","ios":"levelo://app?vid=8a960c34-0751-433d-9e34-7af65031a33b"},"vehicle_type_id":"4","last_reported":1684962234,"current_range_meters":28400,"station_id":"ce4bgkh2rcd13ifvqbl0","pricing_plan_id":"free"},{"bike_id":"2f5af29f-6eda-47b5-a2d3-3564cae820fc","system_id":"levelo_inurba_marseille","lat":43.296935,"lon":5.376544,"is_reserved":false,"is_disabled":false,"rental_uris":{"android":"levelo://app?vid=2f5af29f-6eda-47b5-a2d3-3564cae820fc","ios":"levelo://app?vid=2f5af29f-6eda-47b5-a2d3-3564cae820fc"},"vehicle_type_id":"4","last_reported":1684962234,"current_range_meters":26000,"station_id":"ce4bgkh2rcd13ifvqbl0","pricing_plan_id":"free"},{"bike_id":"b8f4eb0c-190e-412c-bc06-93133de79aec","system_id":"levelo_inurba_marseille","lat":43.296921,"lon":5.376579,"is_reserved":false,"is_disabled":false,"rental_uris":{"android":"levelo://app?vid=b8f4eb0c-190e-412c-bc06-93133de79aec","ios":"levelo://app?vid=b8f4eb0c-190e-412c-bc06-93133de79aec"},"vehicle_type_id":"4","last_reported":1684962234,"current_range_meters":14800,"station_id":"ce4bgkh2rcd13ifvqbl0","pricing_plan_id":"free"},{"bike_id":"4228cdad-fb51-49fb-9e1c-003ed21d34c8","system_id":"levelo_inurba_marseille","lat":43.317557,"lon":5.390173,"is_reserved":false,"is_disabled":false,"rental_uris":{"android":"levelo://app?vid=4228cdad-fb51-49fb-9e1c-003ed21d34c8","ios":"levelo://app?vid=4228cdad-fb51-49fb-9e1c-003ed21d34c8"},"vehicle_type_id":"4","last_reported":1684962234,"current_range_meters":7600,"station_id":"ce4bhqp2rcd13ifvqhng","pricing_plan_id":"free"},{"bike_id":"184da89f-e034-42c8-8f7c-6731bd86c2cc","system_id":"levelo_inurba_marseille","lat":43.304274,"lon":5.388873,"is_reserved":false,"is_disabled":false,"rental_uris":{"android":"levelo://app?vid=184da89f-e034-42c8-8f7c-6731bd86c2cc","ios":"levelo://app?vid=184da89f-e034-42c8-8f7c-6731bd86c2cc"},"vehicle_type_id":"4","last_reported":1684962234,"current_range_meters":14000,"station_id":"ce4bgk12rcd13ifvqbi0","pricing_plan_id":"free"},{"bike_id":"e1d1f05f-4b57-4ef7-bca9-33ac1b1bb140","system_id":"levelo_inurba_marseille","lat":43.304274,"lon":5.388873,"is_reserved":false,"is_disabled":false,"rental_uris":{"android":"levelo://app?vid=e1d1f05f-4b57-4ef7-bca9-33ac1b1bb140","ios":"levelo://app?vid=e1d1f05f-4b57-4ef7-bca9-33ac1b1bb140"},"vehicle_type_id":"4","last_reported":1684962234,"current_range_meters":4400,"station_id":"ce4bgk12rcd13ifvqbi0","pricing_plan_id":"free"},{"bike_id":"4ba31d44-ce22-4241-b783-07857a469e76","system_id":"levelo_inurba_marseille","lat":43.304274,"lon":5.388873,"is_reserved":false,"is_disabled":false,"rental_uris":{"android":"levelo://app?vid=4ba31d44-ce22-4241-b783-07857a469e76","ios":"levelo://app?vid=4ba31d44-ce22-4241-b783-07857a469e76"},"vehicle_type_id":"4","last_reported":1684962234,"current_range_meters":2800,"station_id":"ce4bgk12rcd13ifvqbi0","pricing_plan_id":"free"},{"bike_id":"d3e09389-1c70-4953-ad93-9d42c51e7dff","system_id":"levelo_inurba_marseille","lat":43.29711,"lon":5.37945,"is_reserved":false,"is_disabled":false,"rental_uris":{"android":"levelo://app?vid=d3e09389-1c70-4953-ad93-9d42c51e7dff","ios":"levelo://app?vid=d3e09389-1c70-4953-ad93-9d42c51e7dff"},"vehicle_type_id":"4","last_reported":1684962234,"current_range_meters":21200,"station_id":"","pricing_plan_id":"free"},{"bike_id":"e4b698a3-9adb-46bb-8ec7-912abb5e2a34","system_id":"levelo_inurba_marseille","lat":43.304278,"lon":5.388868,"is_reserved":false,"is_disabled":false,"rental_uris":{"android":"levelo://app?vid=e4b698a3-9adb-46bb-8ec7-912abb5e2a34","ios":"levelo://app?vid=e4b698a3-9adb-46bb-8ec7-912abb5e2a34"},"vehicle_type_id":"4","last_reported":1684962234,"current_range_meters":25200,"station_id":"ce4bgk12rcd13ifvqbi0","pricing_plan_id":"free"},{"bike_id":"1689a75d-d6cd-4604-9816-5a294fbef48e","system_id":"levelo_inurba_marseille","lat":43.309589,"lon":5.390258,"is_reserved":false,"is_disabled":false,"rental_uris":{"android":"levelo://app?vid=1689a75d-d6cd-4604-9816-5a294fbef48e","ios":"levelo://app?vid=1689a75d-d6cd-4604-9816-5a294fbef48e"},"vehicle_type_id":"4","last_reported":1684962234,"current_range_meters":12800,"station_id":"ce4bgup2rcd13ifvqco0","pricing_plan_id":"free"},{"bike_id":"cb56a464-4c29-464a-bb7f-eb28e9308a92","system_id":"levelo_inurba_marseille","lat":43.29968,"lon":5.38489,"is_reserved":false,"is_disabled":false,"rental_uris":{"android":"levelo://app?vid=cb56a464-4c29-464a-bb7f-eb28e9308a92","ios":"levelo://app?vid=cb56a464-4c29-464a-bb7f-eb28e9308a92"},"vehicle_type_id":"4","last_reported":1684962234,"current_range_meters":19200,"station_id":"ce4bgj92rcd13ifvqbd0","pricing_plan_id":"free"},{"bike_id":"fcbf4e72-3318-43e4-9858-9e1e4afdb760","system_id":"levelo_inurba_marseille","lat":43.32367,"lon":5.38885,"is_reserved":false,"is_disabled":false,"rental_uris":{"android":"levelo://app?vid=fcbf4e72-3318-43e4-9858-9e1e4afdb760","ios":"levelo://app?vid=fcbf4e72-3318-43e4-9858-9e1e4afdb760"},"vehicle_type_id":"4","last_reported":1684962234,"current_range_meters":800,"station_id":"","pricing_plan_id":"free"},{"bike_id":"740ac6e5-16cc-4328-be2a-4c1a5af6378f","system_id":"levelo_inurba_marseille","lat":43.29308,"lon":5.37463,"is_reserved":false,"is_disabled":false,"rental_uris":{"android":"levelo://app?vid=740ac6e5-16cc-4328-be2a-4c1a5af6378f","ios":"levelo://app?vid=740ac6e5-16cc-4328-be2a-4c1a5af6378f"},"vehicle_type_id":"4","last_reported":1684962234,"current_range_meters":0,"station_id":"ce4bgi12rcd13ifvqb70","pricing_plan_id":"free"},{"bike_id":"5eae0b0f-04ba-4667-b409-2e0cf7c7efcc","system_id":"levelo_inurba_marseille","lat":43.30604,"lon":5.39367,"is_reserved":false,"is_disabled":false,"rental_uris":{"android":"levelo://app?vid=5eae0b0f-04ba-4667-b409-2e0cf7c7efcc","ios":"levelo://app?vid=5eae0b0f-04ba-4667-b409-2e0cf7c7efcc"},"vehicle_type_id":"4","last_reported":1684962234,"current_range_meters":800,"station_id":"ce4bh0p2rcd13ifvqd80","pricing_plan_id":"free"},{"bike_id":"73fab936-370b-4f1e-abe9-1cdb54432a7e","system_id":"levelo_inurba_marseille","lat":43.300852,"lon":5.390859,"is_reserved":false,"is_disabled":false,"rental_uris":{"android":"levelo://app?vid=73fab936-370b-4f1e-abe9-1cdb54432a7e","ios":"levelo://app?vid=73fab936-370b-4f1e-abe9-1cdb54432a7e"},"vehicle_type_id":"4","last_reported":1684962234,"current_range_meters":20000,"station_id":"ce4bh192rcd13ifvqdb0","pricing_plan_id":"free"},{"bike_id":"252cb770-39fc-4400-a3ad-c7755c775382","system_id":"levelo_inurba_marseille","lat":43.30085,"lon":5.390856,"is_reserved":false,"is_disabled":false,"rental_uris":{"android":"levelo://app?vid=252cb770-39fc-4400-a3ad-c7755c775382","ios":"levelo://app?vid=252cb770-39fc-4400-a3ad-c7755c775382"},"vehicle_type_id":"4","last_reported":1684962234,"current_range_meters":10000,"station_id":"ce4bh192rcd13ifvqdb0","pricing_plan_id":"free"},{"bike_id":"fc69c410-98ba-47e2-9b85-0a19b6f3ebf3","system_id":"levelo_inurba_marseille","lat":43.300852,"lon":5.390859,"is_reserved":false,"is_disabled":false,"rental_uris":{"android":"levelo://app?vid=fc69c410-98ba-47e2-9b85-0a19b6f3ebf3","ios":"levelo://app?vid=fc69c410-98ba-47e2-9b85-0a19b6f3ebf3"},"vehicle_type_id":"4","last_reported":1684962234,"current_range_meters":12000,"station_id":"ce4bh192rcd13ifvqdb0","pricing_plan_id":"free"},{"bike_id":"0dcc0c9f-f96c-4fb0-97a0-7492b892529a","system_id":"levelo_inurba_marseille","lat":43.292663,"lon":5.376389,"is_reserved":false,"is_disabled":false,"rental_uris":{"android":"levelo://app?vid=0dcc0c9f-f96c-4fb0-97a0-7492b892529a","ios":"levelo://app?vid=0dcc0c9f-f96c-4fb0-97a0-7492b892529a"},"vehicle_type_id":"4","last_reported":1684962234,"current_range_meters":3600,"station_id":"ce4bgi12rcd13ifvqb80","pricing_plan_id":"free"},{"bike_id":"50044914-1bfe-439a-a008-d4ce31e05e75","system_id":"levelo_inurba_marseille","lat":43.292663,"lon":5.376394,"is_reserved":false,"is_disabled":false,"rental_uris":{"android":"levelo://app?vid=50044914-1bfe-439a-a008-d4ce31e05e75","ios":"levelo://app?vid=50044914-1bfe-439a-a008-d4ce31e05e75"},"vehicle_type_id":"4","last_reported":1684962234,"current_range_meters":4400,"station_id":"ce4bgi12rcd13ifvqb80","pricing_plan_id":"free"},{"bike_id":"24049559-b20f-4437-b5d2-8fcf6ff3347c","system_id":"levelo_inurba_marseille","lat":43.298764,"lon":5.388973,"is_reserved":false,"is_disabled":false,"rental_uris":{"android":"levelo://app?vid=24049559-b20f-4437-b5d2-8fcf6ff3347c","ios":"levelo://app?vid=24049559-b20f-4437-b5d2-8fcf6ff3347c"},"vehicle_type_id":"4","last_reported":1684962234,"current_range_meters":24000,"station_id":"ce4bh392rcd13ifvqdl0","pricing_plan_id":"free"},{"bike_id":"c5d33ef4-0dd5-4b22-b98e-8bc4fecd4324","system_id":"levelo_inurba_marseille","lat":43.291675,"lon":5.371583,"is_reserved":false,"is_disabled":false,"rental_uris":{"android":"levelo://app?vid=c5d33ef4-0dd5-4b22-b98e-8bc4fecd4324","ios":"levelo://app?vid=c5d33ef4-0dd5-4b22-b98e-8bc4fecd4324"},"vehicle_type_id":"4","last_reported":1684962234,"current_range_meters":18000,"station_id":"ce4bha92rcd13ifvqeh0","pricing_plan_id":"free"},{"bike_id":"82ae845a-b238-45f7-ac22-0b1d22fe30fc","system_id":"levelo_inurba_marseille","lat":43.298764,"lon":5.388973,"is_reserved":false,"is_disabled":false,"rental_uris":{"android":"levelo://app?vid=82ae845a-b238-45f7-ac22-0b1d22fe30fc","ios":"levelo://app?vid=82ae845a-b238-45f7-ac22-0b1d22fe30fc"},"vehicle_type_id":"4","last_reported":1684962234,"current_range_meters":4400,"station_id":"ce4bh392rcd13ifvqdl0","pricing_plan_id":"free"},{"bike_id":"b842a883-baab-4aaa-9c22-726d37235f77","system_id":"levelo_inurba_marseille","lat":43.32765,"lon":5.38813,"is_reserved":false,"is_disabled":false,"rental_uris":{"android":"levelo://app?vid=b842a883-baab-4aaa-9c22-726d37235f77","ios":"levelo://app?vid=b842a883-baab-4aaa-9c22-726d37235f77"},"vehicle_type_id":"4","last_reported":1684962234,"current_range_meters":8800,"station_id":"","pricing_plan_id":"free"},{"bike_id":"ce2230b3-5873-4e72-a718-1670e15c2050","system_id":"levelo_inurba_marseille","lat":43.309038,"lon":5.396546,"is_reserved":false,"is_disabled":false,"rental_uris":{"android":"levelo://app?vid=ce2230b3-5873-4e72-a718-1670e15c2050","ios":"levelo://app?vid=ce2230b3-5873-4e72-a718-1670e15c2050"},"vehicle_type_id":"4","last_reported":1684962234,"current_range_meters":6400,"station_id":"ce4bh012rcd13ifvqcv0","pricing_plan_id":"free"},{"bike_id":"22ceb553-4636-4bf7-9e4f-7a93a3348769","system_id":"levelo_inurba_marseille","lat":43.313291,"lon":5.396838,"is_reserved":false,"is_disabled":false,"rental_uris":{"android":"levelo://app?vid=22ceb553-4636-4bf7-9e4f-7a93a3348769","ios":"levelo://app?vid=22ceb553-4636-4bf7-9e4f-7a93a3348769"},"vehicle_type_id":"4","last_reported":1684962234,"current_range_meters":17600,"station_id":"ce4bgvp2rcd13ifvqcu0","pricing_plan_id":"free"},{"bike_id":"09bc6842-f54e-4bb2-bae1-1a1e5351e19d","system_id":"levelo_inurba_marseille","lat":43.313291,"lon":5.396838,"is_reserved":false,"is_disabled":false,"rental_uris":{"android":"levelo://app?vid=09bc6842-f54e-4bb2-bae1-1a1e5351e19d","ios":"levelo://app?vid=09bc6842-f54e-4bb2-bae1-1a1e5351e19d"},"vehicle_type_id":"4","last_reported":1684962234,"current_range_meters":18400,"station_id":"ce4bgvp2rcd13ifvqcu0","pricing_plan_id":"free"},{"bike_id":"bfdbe81b-a54d-45dc-98c9-4267cc5699fd","system_id":"levelo_inurba_marseille","lat":43.313291,"lon":5.396838,"is_reserved":false,"is_disabled":false,"rental_uris":{"android":"levelo://app?vid=bfdbe81b-a54d-45dc-98c9-4267cc5699fd","ios":"levelo://app?vid=bfdbe81b-a54d-45dc-98c9-4267cc5699fd"},"vehicle_type_id":"4","last_reported":1684962234,"current_range_meters":5200,"station_id":"ce4bgvp2rcd13ifvqcu0","pricing_plan_id":"free"},{"bike_id":"11f1ef6a-329e-4508-89a0-ab2f3fa417fc","system_id":"levelo_inurba_marseille","lat":43.313291,"lon":5.396838,"is_reserved":false,"is_disabled":false,"rental_uris":{"android":"levelo://app?vid=11f1ef6a-329e-4508-89a0-ab2f3fa417fc","ios":"levelo://app?vid=11f1ef6a-329e-4508-89a0-ab2f3fa417fc"},"vehicle_type_id":"4","last_reported":1684962234,"current_range_meters":20000,"station_id":"ce4bgvp2rcd13ifvqcu0","pricing_plan_id":"free"},{"bike_id":"92ba4792-5ed6-488d-8068-098854203063","system_id":"levelo_inurba_marseille","lat":43.30888,"lon":5.39645,"is_reserved":false,"is_disabled":false,"rental_uris":{"android":"levelo://app?vid=92ba4792-5ed6-488d-8068-098854203063","ios":"levelo://app?vid=92ba4792-5ed6-488d-8068-098854203063"},"vehicle_type_id":"4","last_reported":1684962234,"current_range_meters":0,"station_id":"ce4bh012rcd13ifvqcv0","pricing_plan_id":"free"},{"bike_id":"40b68277-6f5f-4aac-8216-847d33e7dfd3","system_id":"levelo_inurba_marseille","lat":43.309038,"lon":5.396546,"is_reserved":false,"is_disabled":false,"rental_uris":{"android":"levelo://app?vid=40b68277-6f5f-4aac-8216-847d33e7dfd3","ios":"levelo://app?vid=40b68277-6f5f-4aac-8216-847d33e7dfd3"},"vehicle_type_id":"4","last_reported":1684962234,"current_range_meters":14800,"station_id":"ce4bh012rcd13ifvqcv0","pricing_plan_id":"free"},{"bike_id":"b7dc8e89-3981-4ab7-afd2-3b69403ee522","system_id":"levelo_inurba_marseille","lat":43.313291,"lon":5.396838,"is_reserved":false,"is_disabled":false,"rental_uris":{"android":"levelo://app?vid=b7dc8e89-3981-4ab7-afd2-3b69403ee522","ios":"levelo://app?vid=b7dc8e89-3981-4ab7-afd2-3b69403ee522"},"vehicle_type_id":"4","last_reported":1684962234,"current_range_meters":16800,"station_id":"ce4bgvp2rcd13ifvqcu0","pricing_plan_id":"free"},{"bike_id":"d4478e5d-9e50-4fee-a0f2-993155a43740","system_id":"levelo_inurba_marseille","lat":43.309038,"lon":5.396546,"is_reserved":false,"is_disabled":false,"rental_uris":{"android":"levelo://app?vid=d4478e5d-9e50-4fee-a0f2-993155a43740","ios":"levelo://app?vid=d4478e5d-9e50-4fee-a0f2-993155a43740"},"vehicle_type_id":"4","last_reported":1684962234,"current_range_meters":20400,"station_id":"ce4bh012rcd13ifvqcv0","pricing_plan_id":"free"},{"bike_id":"31ad45cc-cd55-4fa4-8819-4f1a25288b6a","system_id":"levelo_inurba_marseille","lat":43.313291,"lon":5.396838,"is_reserved":false,"is_disabled":false,"rental_uris":{"android":"levelo://app?vid=31ad45cc-cd55-4fa4-8819-4f1a25288b6a","ios":"levelo://app?vid=31ad45cc-cd55-4fa4-8819-4f1a25288b6a"},"vehicle_type_id":"4","last_reported":1684962234,"current_range_meters":8400,"station_id":"ce4bgvp2rcd13ifvqcu0","pricing_plan_id":"free"},{"bike_id":"5afb875f-309c-48b4-aac4-19a2f4e8983f","system_id":"levelo_inurba_marseille","lat":43.313291,"lon":5.396838,"is_reserved":false,"is_disabled":false,"rental_uris":{"android":"levelo://app?vid=5afb875f-309c-48b4-aac4-19a2f4e8983f","ios":"levelo://app?vid=5afb875f-309c-48b4-aac4-19a2f4e8983f"},"vehicle_type_id":"4","last_reported":1684962234,"current_range_meters":26000,"station_id":"ce4bgvp2rcd13ifvqcu0","pricing_plan_id":"free"},{"bike_id":"07955834-0802-4708-9847-138d2e792e2e","system_id":"levelo_inurba_marseille","lat":43.308956,"lon":5.396575,"is_reserved":false,"is_disabled":false,"rental_uris":{"android":"levelo://app?vid=07955834-0802-4708-9847-138d2e792e2e","ios":"levelo://app?vid=07955834-0802-4708-9847-138d2e792e2e"},"vehicle_type_id":"4","last_reported":1684962234,"current_range_meters":0,"station_id":"","pricing_plan_id":"free"},{"bike_id":"6602702d-1e70-49a8-aa93-b564f93af268","system_id":"levelo_inurba_marseille","lat":43.29529,"lon":5.385581,"is_reserved":false,"is_disabled":false,"rental_uris":{"android":"levelo://app?vid=6602702d-1e70-49a8-aa93-b564f93af268","ios":"levelo://app?vid=6602702d-1e70-49a8-aa93-b564f93af268"},"vehicle_type_id":"4","last_reported":1684962234,"current_range_meters":17600,"station_id":"ce4bgih2rcd13ifvqba0","pricing_plan_id":"free"},{"bike_id":"02ac7b58-89f2-4ef7-812f-d0b5c14d8bfb","system_id":"levelo_inurba_marseille","lat":43.30884,"lon":5.3967,"is_reserved":false,"is_disabled":false,"rental_uris":{"android":"levelo://app?vid=02ac7b58-89f2-4ef7-812f-d0b5c14d8bfb","ios":"levelo://app?vid=02ac7b58-89f2-4ef7-812f-d0b5c14d8bfb"},"vehicle_type_id":"4","last_reported":1684962234,"current_range_meters":19200,"station_id":"ce4bh012rcd13ifvqcv0","pricing_plan_id":"free"},{"bike_id":"c3c32186-a291-4b4e-8869-389805ce861a","system_id":"levelo_inurba_marseille","lat":43.29529,"lon":5.385581,"is_reserved":false,"is_disabled":false,"rental_uris":{"android":"levelo://app?vid=c3c32186-a291-4b4e-8869-389805ce861a","ios":"levelo://app?vid=c3c32186-a291-4b4e-8869-389805ce861a"},"vehicle_type_id":"4","last_reported":1684962234,"current_range_meters":18000,"station_id":"ce4bgih2rcd13ifvqba0","pricing_plan_id":"free"},{"bike_id":"a8c9790d-cb53-4776-b050-7599e5b55586","system_id":"levelo_inurba_marseille","lat":43.29529,"lon":5.385581,"is_reserved":false,"is_disabled":false,"rental_uris":{"android":"levelo://app?vid=a8c9790d-cb53-4776-b050-7599e5b55586","ios":"levelo://app?vid=a8c9790d-cb53-4776-b050-7599e5b55586"},"vehicle_type_id":"4","last_reported":1684962234,"current_range_meters":24400,"station_id":"ce4bgih2rcd13ifvqba0","pricing_plan_id":"free"},{"bike_id":"24c7feae-b4e5-4ae0-90eb-7190ba4e5450","system_id":"levelo_inurba_marseille","lat":43.304274,"lon":5.388873,"is_reserved":false,"is_disabled":false,"rental_uris":{"android":"levelo://app?vid=24c7feae-b4e5-4ae0-90eb-7190ba4e5450","ios":"levelo://app?vid=24c7feae-b4e5-4ae0-90eb-7190ba4e5450"},"vehicle_type_id":"4","last_reported":1684962234,"current_range_meters":12800,"station_id":"ce4bgk12rcd13ifvqbi0","pricing_plan_id":"free"},{"bike_id":"12875001-4a78-4d42-b69d-f3bab14491be","system_id":"levelo_inurba_marseille","lat":43.291671,"lon":5.371575,"is_reserved":false,"is_disabled":false,"rental_uris":{"android":"levelo://app?vid=12875001-4a78-4d42-b69d-f3bab14491be","ios":"levelo://app?vid=12875001-4a78-4d42-b69d-f3bab14491be"},"vehicle_type_id":"4","last_reported":1684962234,"current_range_meters":6400,"station_id":"ce4bha92rcd13ifvqeh0","pricing_plan_id":"free"},{"bike_id":"d5bd6b5f-b1a1-48bd-818e-3eca31578b6d","system_id":"levelo_inurba_marseille","lat":43.302008,"lon":5.394694,"is_reserved":false,"is_disabled":false,"rental_uris":{"android":"levelo://app?vid=d5bd6b5f-b1a1-48bd-818e-3eca31578b6d","ios":"levelo://app?vid=d5bd6b5f-b1a1-48bd-818e-3eca31578b6d"},"vehicle_type_id":"4","last_reported":1684962234,"current_range_meters":13600,"station_id":"ce4bh0p2rcd13ifvqd70","pricing_plan_id":"free"},{"bike_id":"74faf922-22f4-4c13-b982-0ac687b6f0b0","system_id":"levelo_inurba_marseille","lat":43.302008,"lon":5.394694,"is_reserved":false,"is_disabled":false,"rental_uris":{"android":"levelo://app?vid=74faf922-22f4-4c13-b982-0ac687b6f0b0","ios":"levelo://app?vid=74faf922-22f4-4c13-b982-0ac687b6f0b0"},"vehicle_type_id":"4","last_reported":1684962234,"current_range_meters":3600,"station_id":"ce4bh0p2rcd13ifvqd70","pricing_plan_id":"free"},{"bike_id":"8c8acfdb-f5a3-41ec-8586-d0a903d0fa80","system_id":"levelo_inurba_marseille","lat":43.290631,"lon":5.359244,"is_reserved":false,"is_disabled":false,"rental_uris":{"android":"levelo://app?vid=8c8acfdb-f5a3-41ec-8586-d0a903d0fa80","ios":"levelo://app?vid=8c8acfdb-f5a3-41ec-8586-d0a903d0fa80"},"vehicle_type_id":"4","last_reported":1684962234,"current_range_meters":8000,"station_id":"ce4bha92rcd13ifvqeg0","pricing_plan_id":"free"},{"bike_id":"3508d5f5-abf1-4dc6-8e51-7396870b4248","system_id":"levelo_inurba_marseille","lat":43.290631,"lon":5.359244,"is_reserved":false,"is_disabled":false,"rental_uris":{"android":"levelo://app?vid=3508d5f5-abf1-4dc6-8e51-7396870b4248","ios":"levelo://app?vid=3508d5f5-abf1-4dc6-8e51-7396870b4248"},"vehicle_type_id":"4","last_reported":1684962234,"current_range_meters":12000,"station_id":"ce4bha92rcd13ifvqeg0","pricing_plan_id":"free"},{"bike_id":"c290c9a5-91e5-4a01-b28a-bae38d70be59","system_id":"levelo_inurba_marseille","lat":43.289184,"lon":5.366408,"is_reserved":false,"is_disabled":false,"rental_uris":{"android":"levelo://app?vid=c290c9a5-91e5-4a01-b28a-bae38d70be59","ios":"levelo://app?vid=c290c9a5-91e5-4a01-b28a-bae38d70be59"},"vehicle_type_id":"4","last_reported":1684962234,"current_range_meters":8800,"station_id":"ce4bhap2rcd13ifvqek0","pricing_plan_id":"free"},{"bike_id":"e8756f58-a071-40b7-b350-51ddb571e962","system_id":"levelo_inurba_marseille","lat":43.29035,"lon":5.37569,"is_reserved":false,"is_disabled":false,"rental_uris":{"android":"levelo://app?vid=e8756f58-a071-40b7-b350-51ddb571e962","ios":"levelo://app?vid=e8756f58-a071-40b7-b350-51ddb571e962"},"vehicle_type_id":"4","last_reported":1684962234,"current_range_meters":12000,"station_id":"ce4bh692rcd13ifvqe90","pricing_plan_id":"free"},{"bike_id":"1fc46d2c-9f9b-4f48-ac79-b6674b9aadd7","system_id":"levelo_inurba_marseille","lat":43.29033,"lon":5.37561,"is_reserved":false,"is_disabled":false,"rental_uris":{"android":"levelo://app?vid=1fc46d2c-9f9b-4f48-ac79-b6674b9aadd7","ios":"levelo://app?vid=1fc46d2c-9f9b-4f48-ac79-b6674b9aadd7"},"vehicle_type_id":"4","last_reported":1684962234,"current_range_meters":5600,"station_id":"ce4bh692rcd13ifvqe90","pricing_plan_id":"free"},{"bike_id":"fa43d385-88c7-49b4-aed7-04a17f094dc4","system_id":"levelo_inurba_marseille","lat":43.289184,"lon":5.366408,"is_reserved":false,"is_disabled":false,"rental_uris":{"android":"levelo://app?vid=fa43d385-88c7-49b4-aed7-04a17f094dc4","ios":"levelo://app?vid=fa43d385-88c7-49b4-aed7-04a17f094dc4"},"vehicle_type_id":"4","last_reported":1684962234,"current_range_meters":8400,"station_id":"ce4bhap2rcd13ifvqek0","pricing_plan_id":"free"},{"bike_id":"50801b8b-e10d-4a4f-819a-57773e991d5e","system_id":"levelo_inurba_marseille","lat":43.289184,"lon":5.366408,"is_reserved":false,"is_disabled":false,"rental_uris":{"android":"levelo://app?vid=50801b8b-e10d-4a4f-819a-57773e991d5e","ios":"levelo://app?vid=50801b8b-e10d-4a4f-819a-57773e991d5e"},"vehicle_type_id":"4","last_reported":1684962234,"current_range_meters":3600,"station_id":"ce4bhap2rcd13ifvqek0","pricing_plan_id":"free"},{"bike_id":"0b1178bc-d6d7-43dd-9f93-64b889d06d35","system_id":"levelo_inurba_marseille","lat":43.289184,"lon":5.366408,"is_reserved":false,"is_disabled":false,"rental_uris":{"android":"levelo://app?vid=0b1178bc-d6d7-43dd-9f93-64b889d06d35","ios":"levelo://app?vid=0b1178bc-d6d7-43dd-9f93-64b889d06d35"},"vehicle_type_id":"4","last_reported":1684962234,"current_range_meters":10000,"station_id":"ce4bhap2rcd13ifvqek0","pricing_plan_id":"free"},{"bike_id":"baffb05e-624e-49cc-b29a-2fd6fdd131b0","system_id":"levelo_inurba_marseille","lat":43.289184,"lon":5.366408,"is_reserved":false,"is_disabled":false,"rental_uris":{"android":"levelo://app?vid=baffb05e-624e-49cc-b29a-2fd6fdd131b0","ios":"levelo://app?vid=baffb05e-624e-49cc-b29a-2fd6fdd131b0"},"vehicle_type_id":"4","last_reported":1684962234,"current_range_meters":28800,"station_id":"ce4bhap2rcd13ifvqek0","pricing_plan_id":"free"},{"bike_id":"05307c13-1bdd-4db4-9770-4b256476cb57","system_id":"levelo_inurba_marseille","lat":43.289184,"lon":5.366408,"is_reserved":false,"is_disabled":false,"rental_uris":{"android":"levelo://app?vid=05307c13-1bdd-4db4-9770-4b256476cb57","ios":"levelo://app?vid=05307c13-1bdd-4db4-9770-4b256476cb57"},"vehicle_type_id":"4","last_reported":1684962234,"current_range_meters":12800,"station_id":"ce4bhap2rcd13ifvqek0","pricing_plan_id":"free"},{"bike_id":"e3757006-2ac8-48bb-9724-f9cc05131541","system_id":"levelo_inurba_marseille","lat":43.28931,"lon":5.36629,"is_reserved":false,"is_disabled":false,"rental_uris":{"android":"levelo://app?vid=e3757006-2ac8-48bb-9724-f9cc05131541","ios":"levelo://app?vid=e3757006-2ac8-48bb-9724-f9cc05131541"},"vehicle_type_id":"4","last_reported":1684962234,"current_range_meters":28000,"station_id":"ce4bhap2rcd13ifvqek0","pricing_plan_id":"free"},{"bike_id":"cb05c010-9e66-4a8e-ad41-b9a3df943324","system_id":"levelo_inurba_marseille","lat":43.292644,"lon":5.384257,"is_reserved":false,"is_disabled":false,"rental_uris":{"android":"levelo://app?vid=cb05c010-9e66-4a8e-ad41-b9a3df943324","ios":"levelo://app?vid=cb05c010-9e66-4a8e-ad41-b9a3df943324"},"vehicle_type_id":"4","last_reported":1684962234,"current_range_meters":15600,"station_id":"ce4bh692rcd13ifvqea0","pricing_plan_id":"free"},{"bike_id":"1ae3df3e-0339-477d-8767-9587869c4136","system_id":"levelo_inurba_marseille","lat":43.29262,"lon":5.3845,"is_reserved":false,"is_disabled":false,"rental_uris":{"android":"levelo://app?vid=1ae3df3e-0339-477d-8767-9587869c4136","ios":"levelo://app?vid=1ae3df3e-0339-477d-8767-9587869c4136"},"vehicle_type_id":"4","last_reported":1684962234,"current_range_meters":15200,"station_id":"ce4bh692rcd13ifvqea0","pricing_plan_id":"free"},{"bike_id":"8ce1a1ef-4cab-4a58-88b3-271b8454a3ba","system_id":"levelo_inurba_marseille","lat":43.33042,"lon":5.38918,"is_reserved":false,"is_disabled":false,"rental_uris":{"android":"levelo://app?vid=8ce1a1ef-4cab-4a58-88b3-271b8454a3ba","ios":"levelo://app?vid=8ce1a1ef-4cab-4a58-88b3-271b8454a3ba"},"vehicle_type_id":"4","last_reported":1684962234,"current_range_meters":4000,"station_id":"ce4bhr92rcd13ifvqhrg","pricing_plan_id":"free"},{"bike_id":"7b57bcb8-8b29-4280-8595-21f07b0df9fc","system_id":"levelo_inurba_marseille","lat":43.33046,"lon":5.38918,"is_reserved":false,"is_disabled":false,"rental_uris":{"android":"levelo://app?vid=7b57bcb8-8b29-4280-8595-21f07b0df9fc","ios":"levelo://app?vid=7b57bcb8-8b29-4280-8595-21f07b0df9fc"},"vehicle_type_id":"4","last_reported":1684962234,"current_range_meters":0,"station_id":"ce4bhr92rcd13ifvqhrg","pricing_plan_id":"free"},{"bike_id":"2fc2c6b3-1be8-4eda-8376-caa8cb2396aa","system_id":"levelo_inurba_marseille","lat":43.3305,"lon":5.38915,"is_reserved":false,"is_disabled":false,"rental_uris":{"android":"levelo://app?vid=2fc2c6b3-1be8-4eda-8376-caa8cb2396aa","ios":"levelo://app?vid=2fc2c6b3-1be8-4eda-8376-caa8cb2396aa"},"vehicle_type_id":"4","last_reported":1684962234,"current_range_meters":17200,"station_id":"ce4bhr92rcd13ifvqhrg","pricing_plan_id":"free"},{"bike_id":"dd636dfc-5652-447f-816c-1191befa3cde","system_id":"levelo_inurba_marseille","lat":43.289184,"lon":5.366408,"is_reserved":false,"is_disabled":false,"rental_uris":{"android":"levelo://app?vid=dd636dfc-5652-447f-816c-1191befa3cde","ios":"levelo://app?vid=dd636dfc-5652-447f-816c-1191befa3cde"},"vehicle_type_id":"4","last_reported":1684962234,"current_range_meters":0,"station_id":"ce4bhap2rcd13ifvqek0","pricing_plan_id":"free"},{"bike_id":"c8b210c8-3e43-4c4b-958e-a23f9554259f","system_id":"levelo_inurba_marseille","lat":43.297814,"lon":5.393513,"is_reserved":false,"is_disabled":false,"rental_uris":{"android":"levelo://app?vid=c8b210c8-3e43-4c4b-958e-a23f9554259f","ios":"levelo://app?vid=c8b210c8-3e43-4c4b-958e-a23f9554259f"},"vehicle_type_id":"4","last_reported":1684962234,"current_range_meters":20800,"station_id":"chh1huq6cuj3fo74tm60","pricing_plan_id":"free"},{"bike_id":"cb979820-c1ff-46da-9152-65d60f80fe97","system_id":"levelo_inurba_marseille","lat":43.295169,"lon":5.390426,"is_reserved":false,"is_disabled":false,"rental_uris":{"android":"levelo://app?vid=cb979820-c1ff-46da-9152-65d60f80fe97","ios":"levelo://app?vid=cb979820-c1ff-46da-9152-65d60f80fe97"},"vehicle_type_id":"4","last_reported":1684962234,"current_range_meters":13200,"station_id":"ce4bh3p2rcd13ifvqdp0","pricing_plan_id":"free"},{"bike_id":"1fa30637-6e39-4848-b63f-7be84875caa9","system_id":"levelo_inurba_marseille","lat":43.297814,"lon":5.393513,"is_reserved":false,"is_disabled":false,"rental_uris":{"android":"levelo://app?vid=1fa30637-6e39-4848-b63f-7be84875caa9","ios":"levelo://app?vid=1fa30637-6e39-4848-b63f-7be84875caa9"},"vehicle_type_id":"4","last_reported":1684962234,"current_range_meters":0,"station_id":"chh1huq6cuj3fo74tm60","pricing_plan_id":"free"},{"bike_id":"b374d6bf-85d6-4efa-804c-c30873cf53c1","system_id":"levelo_inurba_marseille","lat":43.295169,"lon":5.390426,"is_reserved":false,"is_disabled":false,"rental_uris":{"android":"levelo://app?vid=b374d6bf-85d6-4efa-804c-c30873cf53c1","ios":"levelo://app?vid=b374d6bf-85d6-4efa-804c-c30873cf53c1"},"vehicle_type_id":"4","last_reported":1684962234,"current_range_meters":14800,"station_id":"ce4bh3p2rcd13ifvqdp0","pricing_plan_id":"free"},{"bike_id":"5c5a9afa-3d67-4f98-8d3a-92de508089d6","system_id":"levelo_inurba_marseille","lat":43.295169,"lon":5.390426,"is_reserved":false,"is_disabled":false,"rental_uris":{"android":"levelo://app?vid=5c5a9afa-3d67-4f98-8d3a-92de508089d6","ios":"levelo://app?vid=5c5a9afa-3d67-4f98-8d3a-92de508089d6"},"vehicle_type_id":"4","last_reported":1684962234,"current_range_meters":25600,"station_id":"ce4bh3p2rcd13ifvqdp0","pricing_plan_id":"free"},{"bike_id":"21966dcc-888a-4482-8a96-1029de8a11ec","system_id":"levelo_inurba_marseille","lat":43.295169,"lon":5.390426,"is_reserved":false,"is_disabled":false,"rental_uris":{"android":"levelo://app?vid=21966dcc-888a-4482-8a96-1029de8a11ec","ios":"levelo://app?vid=21966dcc-888a-4482-8a96-1029de8a11ec"},"vehicle_type_id":"4","last_reported":1684962234,"current_range_meters":10800,"station_id":"ce4bh3p2rcd13ifvqdp0","pricing_plan_id":"free"},{"bike_id":"af782d70-d57e-47a0-ae4f-593272e67809","system_id":"levelo_inurba_marseille","lat":43.295169,"lon":5.390426,"is_reserved":false,"is_disabled":false,"rental_uris":{"android":"levelo://app?vid=af782d70-d57e-47a0-ae4f-593272e67809","ios":"levelo://app?vid=af782d70-d57e-47a0-ae4f-593272e67809"},"vehicle_type_id":"4","last_reported":1684962234,"current_range_meters":12800,"station_id":"ce4bh3p2rcd13ifvqdp0","pricing_plan_id":"free"},{"bike_id":"acb091aa-de4e-403c-a548-aed16f7460d3","system_id":"levelo_inurba_marseille","lat":43.28856,"lon":5.358371,"is_reserved":false,"is_disabled":false,"rental_uris":{"android":"levelo://app?vid=acb091aa-de4e-403c-a548-aed16f7460d3","ios":"levelo://app?vid=acb091aa-de4e-403c-a548-aed16f7460d3"},"vehicle_type_id":"4","last_reported":1684962234,"current_range_meters":0,"station_id":"ce4bhb12rcd13ifvqem0","pricing_plan_id":"free"},{"bike_id":"a844e9e3-cee4-4170-864a-104b52285d48","system_id":"levelo_inurba_marseille","lat":43.28856,"lon":5.358371,"is_reserved":false,"is_disabled":false,"rental_uris":{"android":"levelo://app?vid=a844e9e3-cee4-4170-864a-104b52285d48","ios":"levelo://app?vid=a844e9e3-cee4-4170-864a-104b52285d48"},"vehicle_type_id":"4","last_reported":1684962234,"current_range_meters":12000,"station_id":"ce4bhb12rcd13ifvqem0","pricing_plan_id":"free"},{"bike_id":"431a7ada-c11f-47ff-b521-b22fcae794c5","system_id":"levelo_inurba_marseille","lat":43.298681,"lon":5.397225,"is_reserved":false,"is_disabled":false,"rental_uris":{"android":"levelo://app?vid=431a7ada-c11f-47ff-b521-b22fcae794c5","ios":"levelo://app?vid=431a7ada-c11f-47ff-b521-b22fcae794c5"},"vehicle_type_id":"4","last_reported":1684962234,"current_range_meters":400,"station_id":"ce4bh0h2rcd13ifvqd50","pricing_plan_id":"free"},{"bike_id":"520fc77a-7d4a-40bb-ad89-fdcc0c148c34","system_id":"levelo_inurba_marseille","lat":43.33738,"lon":5.37447,"is_reserved":false,"is_disabled":false,"rental_uris":{"android":"levelo://app?vid=520fc77a-7d4a-40bb-ad89-fdcc0c148c34","ios":"levelo://app?vid=520fc77a-7d4a-40bb-ad89-fdcc0c148c34"},"vehicle_type_id":"4","last_reported":1684962234,"current_range_meters":30000,"station_id":"","pricing_plan_id":"free"},{"bike_id":"b5fd9918-f4b8-4618-bcb3-ec74ff85bc47","system_id":"levelo_inurba_marseille","lat":43.3375,"lon":5.37438,"is_reserved":false,"is_disabled":false,"rental_uris":{"android":"levelo://app?vid=b5fd9918-f4b8-4618-bcb3-ec74ff85bc47","ios":"levelo://app?vid=b5fd9918-f4b8-4618-bcb3-ec74ff85bc47"},"vehicle_type_id":"4","last_reported":1684962234,"current_range_meters":25200,"station_id":"","pricing_plan_id":"free"},{"bike_id":"deccdead-3a19-4eb1-a04e-30061fe6dc26","system_id":"levelo_inurba_marseille","lat":43.33755,"lon":5.37443,"is_reserved":false,"is_disabled":false,"rental_uris":{"android":"levelo://app?vid=deccdead-3a19-4eb1-a04e-30061fe6dc26","ios":"levelo://app?vid=deccdead-3a19-4eb1-a04e-30061fe6dc26"},"vehicle_type_id":"4","last_reported":1684962234,"current_range_meters":23600,"station_id":"","pricing_plan_id":"free"},{"bike_id":"40b58590-091a-4add-9f25-2c62b7c16693","system_id":"levelo_inurba_marseille","lat":43.33759,"lon":5.37439,"is_reserved":false,"is_disabled":false,"rental_uris":{"android":"levelo://app?vid=40b58590-091a-4add-9f25-2c62b7c16693","ios":"levelo://app?vid=40b58590-091a-4add-9f25-2c62b7c16693"},"vehicle_type_id":"4","last_reported":1684962234,"current_range_meters":29600,"station_id":"","pricing_plan_id":"free"},{"bike_id":"1adc93f9-7d91-47da-86c4-e573a89abd69","system_id":"levelo_inurba_marseille","lat":43.30642,"lon":5.401031,"is_reserved":false,"is_disabled":false,"rental_uris":{"android":"levelo://app?vid=1adc93f9-7d91-47da-86c4-e573a89abd69","ios":"levelo://app?vid=1adc93f9-7d91-47da-86c4-e573a89abd69"},"vehicle_type_id":"4","last_reported":1684962234,"current_range_meters":14800,"station_id":"ce4bh112rcd13ifvqda0","pricing_plan_id":"free"},{"bike_id":"154cb1eb-e8ef-4344-91cf-935882db7b5f","system_id":"levelo_inurba_marseille","lat":43.33773,"lon":5.37481,"is_reserved":false,"is_disabled":false,"rental_uris":{"android":"levelo://app?vid=154cb1eb-e8ef-4344-91cf-935882db7b5f","ios":"levelo://app?vid=154cb1eb-e8ef-4344-91cf-935882db7b5f"},"vehicle_type_id":"4","last_reported":1684962234,"current_range_meters":30000,"station_id":"","pricing_plan_id":"free"},{"bike_id":"5774b04f-3236-448f-8f12-5a1fc2d03d90","system_id":"levelo_inurba_marseille","lat":43.301117,"lon":5.398795,"is_reserved":false,"is_disabled":false,"rental_uris":{"android":"levelo://app?vid=5774b04f-3236-448f-8f12-5a1fc2d03d90","ios":"levelo://app?vid=5774b04f-3236-448f-8f12-5a1fc2d03d90"},"vehicle_type_id":"4","last_reported":1684962234,"current_range_meters":6000,"station_id":"ce4bh0h2rcd13ifvqd40","pricing_plan_id":"free"},{"bike_id":"ca8b629e-f639-4fad-b941-16b1be611e30","system_id":"levelo_inurba_marseille","lat":43.301117,"lon":5.398795,"is_reserved":false,"is_disabled":false,"rental_uris":{"android":"levelo://app?vid=ca8b629e-f639-4fad-b941-16b1be611e30","ios":"levelo://app?vid=ca8b629e-f639-4fad-b941-16b1be611e30"},"vehicle_type_id":"4","last_reported":1684962234,"current_range_meters":4000,"station_id":"ce4bh0h2rcd13ifvqd40","pricing_plan_id":"free"},{"bike_id":"6382aa16-df59-441f-9fb0-25ffc834ccdd","system_id":"levelo_inurba_marseille","lat":43.301117,"lon":5.398795,"is_reserved":false,"is_disabled":false,"rental_uris":{"android":"levelo://app?vid=6382aa16-df59-441f-9fb0-25ffc834ccdd","ios":"levelo://app?vid=6382aa16-df59-441f-9fb0-25ffc834ccdd"},"vehicle_type_id":"4","last_reported":1684962234,"current_range_meters":10400,"station_id":"ce4bh0h2rcd13ifvqd40","pricing_plan_id":"free"},{"bike_id":"d56fdc6d-f39e-4359-bed4-b35a8e9304a2","system_id":"levelo_inurba_marseille","lat":43.301117,"lon":5.398795,"is_reserved":false,"is_disabled":false,"rental_uris":{"android":"levelo://app?vid=d56fdc6d-f39e-4359-bed4-b35a8e9304a2","ios":"levelo://app?vid=d56fdc6d-f39e-4359-bed4-b35a8e9304a2"},"vehicle_type_id":"4","last_reported":1684962234,"current_range_meters":18800,"station_id":"ce4bh0h2rcd13ifvqd40","pricing_plan_id":"free"},{"bike_id":"abdfa44e-49d2-4f0d-87bd-ccc0bd3e348c","system_id":"levelo_inurba_marseille","lat":43.301117,"lon":5.398795,"is_reserved":false,"is_disabled":false,"rental_uris":{"android":"levelo://app?vid=abdfa44e-49d2-4f0d-87bd-ccc0bd3e348c","ios":"levelo://app?vid=abdfa44e-49d2-4f0d-87bd-ccc0bd3e348c"},"vehicle_type_id":"4","last_reported":1684962234,"current_range_meters":23600,"station_id":"ce4bh0h2rcd13ifvqd40","pricing_plan_id":"free"},{"bike_id":"d78fa9ab-4697-42bd-bc1c-62a095c3a97d","system_id":"levelo_inurba_marseille","lat":43.301117,"lon":5.398795,"is_reserved":false,"is_disabled":false,"rental_uris":{"android":"levelo://app?vid=d78fa9ab-4697-42bd-bc1c-62a095c3a97d","ios":"levelo://app?vid=d78fa9ab-4697-42bd-bc1c-62a095c3a97d"},"vehicle_type_id":"4","last_reported":1684962234,"current_range_meters":12400,"station_id":"ce4bh0h2rcd13ifvqd40","pricing_plan_id":"free"},{"bike_id":"7b615e0a-8264-4db7-9fc4-f31a8605525f","system_id":"levelo_inurba_marseille","lat":43.301117,"lon":5.398795,"is_reserved":false,"is_disabled":false,"rental_uris":{"android":"levelo://app?vid=7b615e0a-8264-4db7-9fc4-f31a8605525f","ios":"levelo://app?vid=7b615e0a-8264-4db7-9fc4-f31a8605525f"},"vehicle_type_id":"4","last_reported":1684962234,"current_range_meters":12000,"station_id":"ce4bh0h2rcd13ifvqd40","pricing_plan_id":"free"},{"bike_id":"123621fb-6c15-4df2-915d-88cc0203612d","system_id":"levelo_inurba_marseille","lat":43.30425,"lon":5.40081,"is_reserved":false,"is_disabled":false,"rental_uris":{"android":"levelo://app?vid=123621fb-6c15-4df2-915d-88cc0203612d","ios":"levelo://app?vid=123621fb-6c15-4df2-915d-88cc0203612d"},"vehicle_type_id":"4","last_reported":1684962234,"current_range_meters":12800,"station_id":"","pricing_plan_id":"free"},{"bike_id":"15e68253-a10e-490b-bb31-54f958fc372c","system_id":"levelo_inurba_marseille","lat":43.286591,"lon":5.363346,"is_reserved":false,"is_disabled":false,"rental_uris":{"android":"levelo://app?vid=15e68253-a10e-490b-bb31-54f958fc372c","ios":"levelo://app?vid=15e68253-a10e-490b-bb31-54f958fc372c"},"vehicle_type_id":"4","last_reported":1684962234,"current_range_meters":14400,"station_id":"ce4bhah2rcd13ifvqej0","pricing_plan_id":"free"},{"bike_id":"59e0135c-f4fe-4d41-b3fb-ef37744f5a4b","system_id":"levelo_inurba_marseille","lat":43.298681,"lon":5.397225,"is_reserved":false,"is_disabled":false,"rental_uris":{"android":"levelo://app?vid=59e0135c-f4fe-4d41-b3fb-ef37744f5a4b","ios":"levelo://app?vid=59e0135c-f4fe-4d41-b3fb-ef37744f5a4b"},"vehicle_type_id":"4","last_reported":1684962234,"current_range_meters":18800,"station_id":"ce4bh0h2rcd13ifvqd50","pricing_plan_id":"free"},{"bike_id":"6fcc00c1-97d4-413d-829a-e0a293f2cc05","system_id":"levelo_inurba_marseille","lat":43.286591,"lon":5.363346,"is_reserved":false,"is_disabled":false,"rental_uris":{"android":"levelo://app?vid=6fcc00c1-97d4-413d-829a-e0a293f2cc05","ios":"levelo://app?vid=6fcc00c1-97d4-413d-829a-e0a293f2cc05"},"vehicle_type_id":"4","last_reported":1684962234,"current_range_meters":8000,"station_id":"ce4bhah2rcd13ifvqej0","pricing_plan_id":"free"},{"bike_id":"86700cbc-69f3-4947-b80e-4fe910e3012d","system_id":"levelo_inurba_marseille","lat":43.286593,"lon":5.363346,"is_reserved":false,"is_disabled":false,"rental_uris":{"android":"levelo://app?vid=86700cbc-69f3-4947-b80e-4fe910e3012d","ios":"levelo://app?vid=86700cbc-69f3-4947-b80e-4fe910e3012d"},"vehicle_type_id":"4","last_reported":1684962234,"current_range_meters":24400,"station_id":"ce4bhah2rcd13ifvqej0","pricing_plan_id":"free"},{"bike_id":"c80f9298-a317-4d0e-a265-03d94ef7d777","system_id":"levelo_inurba_marseille","lat":43.298681,"lon":5.397225,"is_reserved":false,"is_disabled":false,"rental_uris":{"android":"levelo://app?vid=c80f9298-a317-4d0e-a265-03d94ef7d777","ios":"levelo://app?vid=c80f9298-a317-4d0e-a265-03d94ef7d777"},"vehicle_type_id":"4","last_reported":1684962234,"current_range_meters":14400,"station_id":"ce4bh0h2rcd13ifvqd50","pricing_plan_id":"free"},{"bike_id":"fc7897cc-2645-408b-9d84-d3c7d446979b","system_id":"levelo_inurba_marseille","lat":43.28745,"lon":5.37656,"is_reserved":false,"is_disabled":false,"rental_uris":{"android":"levelo://app?vid=fc7897cc-2645-408b-9d84-d3c7d446979b","ios":"levelo://app?vid=fc7897cc-2645-408b-9d84-d3c7d446979b"},"vehicle_type_id":"4","last_reported":1684962234,"current_range_meters":0,"station_id":"","pricing_plan_id":"free"},{"bike_id":"d795b840-e3b1-4209-aa73-56728dc2a508","system_id":"levelo_inurba_marseille","lat":43.286593,"lon":5.363346,"is_reserved":false,"is_disabled":false,"rental_uris":{"android":"levelo://app?vid=d795b840-e3b1-4209-aa73-56728dc2a508","ios":"levelo://app?vid=d795b840-e3b1-4209-aa73-56728dc2a508"},"vehicle_type_id":"4","last_reported":1684962234,"current_range_meters":1600,"station_id":"ce4bhah2rcd13ifvqej0","pricing_plan_id":"free"},{"bike_id":"5adc80f8-7482-42b7-88af-80ec8da87666","system_id":"levelo_inurba_marseille","lat":43.286593,"lon":5.363346,"is_reserved":false,"is_disabled":false,"rental_uris":{"android":"levelo://app?vid=5adc80f8-7482-42b7-88af-80ec8da87666","ios":"levelo://app?vid=5adc80f8-7482-42b7-88af-80ec8da87666"},"vehicle_type_id":"4","last_reported":1684962234,"current_range_meters":3600,"station_id":"ce4bhah2rcd13ifvqej0","pricing_plan_id":"free"},{"bike_id":"e2454cc8-fdc7-4e27-8eac-b73b65611692","system_id":"levelo_inurba_marseille","lat":43.286591,"lon":5.363346,"is_reserved":false,"is_disabled":false,"rental_uris":{"android":"levelo://app?vid=e2454cc8-fdc7-4e27-8eac-b73b65611692","ios":"levelo://app?vid=e2454cc8-fdc7-4e27-8eac-b73b65611692"},"vehicle_type_id":"4","last_reported":1684962234,"current_range_meters":20400,"station_id":"ce4bhah2rcd13ifvqej0","pricing_plan_id":"free"},{"bike_id":"7871bcf4-3fff-402d-b95b-26feb52a8412","system_id":"levelo_inurba_marseille","lat":43.28657,"lon":5.36351,"is_reserved":false,"is_disabled":false,"rental_uris":{"android":"levelo://app?vid=7871bcf4-3fff-402d-b95b-26feb52a8412","ios":"levelo://app?vid=7871bcf4-3fff-402d-b95b-26feb52a8412"},"vehicle_type_id":"4","last_reported":1684962234,"current_range_meters":12400,"station_id":"ce4bhah2rcd13ifvqej0","pricing_plan_id":"free"},{"bike_id":"9b524edd-de19-48b2-803c-3c5383a7df30","system_id":"levelo_inurba_marseille","lat":43.286593,"lon":5.363346,"is_reserved":false,"is_disabled":false,"rental_uris":{"android":"levelo://app?vid=9b524edd-de19-48b2-803c-3c5383a7df30","ios":"levelo://app?vid=9b524edd-de19-48b2-803c-3c5383a7df30"},"vehicle_type_id":"4","last_reported":1684962234,"current_range_meters":16000,"station_id":"ce4bhah2rcd13ifvqej0","pricing_plan_id":"free"},{"bike_id":"cfb8effd-ddad-4daa-9484-c8de98709650","system_id":"levelo_inurba_marseille","lat":43.286591,"lon":5.363346,"is_reserved":false,"is_disabled":false,"rental_uris":{"android":"levelo://app?vid=cfb8effd-ddad-4daa-9484-c8de98709650","ios":"levelo://app?vid=cfb8effd-ddad-4daa-9484-c8de98709650"},"vehicle_type_id":"4","last_reported":1684962234,"current_range_meters":31600,"station_id":"ce4bhah2rcd13ifvqej0","pricing_plan_id":"free"},{"bike_id":"61bed5c9-66dc-4c71-bbb6-044f4fabeb5b","system_id":"levelo_inurba_marseille","lat":43.295196,"lon":5.39397,"is_reserved":false,"is_disabled":false,"rental_uris":{"android":"levelo://app?vid=61bed5c9-66dc-4c71-bbb6-044f4fabeb5b","ios":"levelo://app?vid=61bed5c9-66dc-4c71-bbb6-044f4fabeb5b"},"vehicle_type_id":"4","last_reported":1684962234,"current_range_meters":22400,"station_id":"ce4bh292rcd13ifvqdf0","pricing_plan_id":"free"},{"bike_id":"6b99e280-91b0-4f02-8fc2-1bc2b67a77a0","system_id":"levelo_inurba_marseille","lat":43.286593,"lon":5.363346,"is_reserved":false,"is_disabled":false,"rental_uris":{"android":"levelo://app?vid=6b99e280-91b0-4f02-8fc2-1bc2b67a77a0","ios":"levelo://app?vid=6b99e280-91b0-4f02-8fc2-1bc2b67a77a0"},"vehicle_type_id":"4","last_reported":1684962234,"current_range_meters":2000,"station_id":"ce4bhah2rcd13ifvqej0","pricing_plan_id":"free"},{"bike_id":"bbc633a0-22a8-43c0-b83e-da567bc03058","system_id":"levelo_inurba_marseille","lat":43.290336,"lon":5.386425,"is_reserved":false,"is_disabled":false,"rental_uris":{"android":"levelo://app?vid=bbc633a0-22a8-43c0-b83e-da567bc03058","ios":"levelo://app?vid=bbc633a0-22a8-43c0-b83e-da567bc03058"},"vehicle_type_id":"4","last_reported":1684962234,"current_range_meters":16000,"station_id":"ce4bh4p2rcd13ifvqe0g","pricing_plan_id":"free"},{"bike_id":"6f9ef383-fe25-4d12-9d09-d8ccdf5a824a","system_id":"levelo_inurba_marseille","lat":43.295196,"lon":5.39397,"is_reserved":false,"is_disabled":false,"rental_uris":{"android":"levelo://app?vid=6f9ef383-fe25-4d12-9d09-d8ccdf5a824a","ios":"levelo://app?vid=6f9ef383-fe25-4d12-9d09-d8ccdf5a824a"},"vehicle_type_id":"4","last_reported":1684962234,"current_range_meters":11600,"station_id":"ce4bh292rcd13ifvqdf0","pricing_plan_id":"free"},{"bike_id":"067ae574-8f9d-441d-bcee-4daf0f415a36","system_id":"levelo_inurba_marseille","lat":43.295196,"lon":5.39397,"is_reserved":false,"is_disabled":false,"rental_uris":{"android":"levelo://app?vid=067ae574-8f9d-441d-bcee-4daf0f415a36","ios":"levelo://app?vid=067ae574-8f9d-441d-bcee-4daf0f415a36"},"vehicle_type_id":"4","last_reported":1684962234,"current_range_meters":18400,"station_id":"ce4bh292rcd13ifvqdf0","pricing_plan_id":"free"},{"bike_id":"adcf04be-249b-4bbe-9201-8712334850c2","system_id":"levelo_inurba_marseille","lat":43.295196,"lon":5.39397,"is_reserved":false,"is_disabled":false,"rental_uris":{"android":"levelo://app?vid=adcf04be-249b-4bbe-9201-8712334850c2","ios":"levelo://app?vid=adcf04be-249b-4bbe-9201-8712334850c2"},"vehicle_type_id":"4","last_reported":1684962234,"current_range_meters":6800,"station_id":"ce4bh292rcd13ifvqdf0","pricing_plan_id":"free"},{"bike_id":"bac241b3-3b29-4aef-bb58-aa086e6b0ae5","system_id":"levelo_inurba_marseille","lat":43.29037,"lon":5.38645,"is_reserved":false,"is_disabled":false,"rental_uris":{"android":"levelo://app?vid=bac241b3-3b29-4aef-bb58-aa086e6b0ae5","ios":"levelo://app?vid=bac241b3-3b29-4aef-bb58-aa086e6b0ae5"},"vehicle_type_id":"4","last_reported":1684962234,"current_range_meters":24000,"station_id":"ce4bh4p2rcd13ifvqe0g","pricing_plan_id":"free"},{"bike_id":"5733da62-e872-45a3-b8bc-ba4dd03d5f5d","system_id":"levelo_inurba_marseille","lat":43.2903,"lon":5.38636,"is_reserved":false,"is_disabled":false,"rental_uris":{"android":"levelo://app?vid=5733da62-e872-45a3-b8bc-ba4dd03d5f5d","ios":"levelo://app?vid=5733da62-e872-45a3-b8bc-ba4dd03d5f5d"},"vehicle_type_id":"4","last_reported":1684962234,"current_range_meters":17200,"station_id":"ce4bh4p2rcd13ifvqe0g","pricing_plan_id":"free"},{"bike_id":"99dda9d6-af25-435a-9a87-32d86a466a88","system_id":"levelo_inurba_marseille","lat":43.290345,"lon":5.38646,"is_reserved":false,"is_disabled":false,"rental_uris":{"android":"levelo://app?vid=99dda9d6-af25-435a-9a87-32d86a466a88","ios":"levelo://app?vid=99dda9d6-af25-435a-9a87-32d86a466a88"},"vehicle_type_id":"4","last_reported":1684962234,"current_range_meters":16800,"station_id":"ce4bh4p2rcd13ifvqe0g","pricing_plan_id":"free"},{"bike_id":"43024460-c130-48fa-bd45-a64c2e4d5375","system_id":"levelo_inurba_marseille","lat":43.302759,"lon":5.400793,"is_reserved":false,"is_disabled":false,"rental_uris":{"android":"levelo://app?vid=43024460-c130-48fa-bd45-a64c2e4d5375","ios":"levelo://app?vid=43024460-c130-48fa-bd45-a64c2e4d5375"},"vehicle_type_id":"4","last_reported":1684962234,"current_range_meters":24800,"station_id":"ce4bgvh2rcd13ifvqcs0","pricing_plan_id":"free"},{"bike_id":"badd17e5-1f99-4bcd-a45e-0ad793405a4a","system_id":"levelo_inurba_marseille","lat":43.286039,"lon":5.370679,"is_reserved":false,"is_disabled":false,"rental_uris":{"android":"levelo://app?vid=badd17e5-1f99-4bcd-a45e-0ad793405a4a","ios":"levelo://app?vid=badd17e5-1f99-4bcd-a45e-0ad793405a4a"},"vehicle_type_id":"4","last_reported":1684962234,"current_range_meters":7200,"station_id":"ce4bht12rcd13ifvqi60","pricing_plan_id":"free"},{"bike_id":"45e859fb-6802-402c-a8c5-e4cfc91095e9","system_id":"levelo_inurba_marseille","lat":43.287185,"lon":5.379373,"is_reserved":false,"is_disabled":false,"rental_uris":{"android":"levelo://app?vid=45e859fb-6802-402c-a8c5-e4cfc91095e9","ios":"levelo://app?vid=45e859fb-6802-402c-a8c5-e4cfc91095e9"},"vehicle_type_id":"4","last_reported":1684962234,"current_range_meters":26800,"station_id":"ce4bh9p2rcd13ifvqec0","pricing_plan_id":"free"},{"bike_id":"37b83000-6005-44a4-a535-39267a1d3c81","system_id":"levelo_inurba_marseille","lat":43.287184,"lon":5.37937,"is_reserved":false,"is_disabled":false,"rental_uris":{"android":"levelo://app?vid=37b83000-6005-44a4-a535-39267a1d3c81","ios":"levelo://app?vid=37b83000-6005-44a4-a535-39267a1d3c81"},"vehicle_type_id":"4","last_reported":1684962234,"current_range_meters":27200,"station_id":"ce4bh9p2rcd13ifvqec0","pricing_plan_id":"free"},{"bike_id":"a7c0dcfa-3ff6-4288-af65-4d605c676f27","system_id":"levelo_inurba_marseille","lat":43.287184,"lon":5.37937,"is_reserved":false,"is_disabled":false,"rental_uris":{"android":"levelo://app?vid=a7c0dcfa-3ff6-4288-af65-4d605c676f27","ios":"levelo://app?vid=a7c0dcfa-3ff6-4288-af65-4d605c676f27"},"vehicle_type_id":"4","last_reported":1684962234,"current_range_meters":3200,"station_id":"ce4bh9p2rcd13ifvqec0","pricing_plan_id":"free"},{"bike_id":"29a0eeee-91f2-4a1a-a8b4-4fe877ad3bd9","system_id":"levelo_inurba_marseille","lat":43.31641,"lon":5.40431,"is_reserved":false,"is_disabled":false,"rental_uris":{"android":"levelo://app?vid=29a0eeee-91f2-4a1a-a8b4-4fe877ad3bd9","ios":"levelo://app?vid=29a0eeee-91f2-4a1a-a8b4-4fe877ad3bd9"},"vehicle_type_id":"4","last_reported":1684962234,"current_range_meters":0,"station_id":"ce4bh012rcd13ifvqd00","pricing_plan_id":"free"},{"bike_id":"5999d7bc-b217-4e61-90f9-da7f5716fa1b","system_id":"levelo_inurba_marseille","lat":43.316523,"lon":5.404367,"is_reserved":false,"is_disabled":false,"rental_uris":{"android":"levelo://app?vid=5999d7bc-b217-4e61-90f9-da7f5716fa1b","ios":"levelo://app?vid=5999d7bc-b217-4e61-90f9-da7f5716fa1b"},"vehicle_type_id":"4","last_reported":1684962234,"current_range_meters":8800,"station_id":"ce4bh012rcd13ifvqd00","pricing_plan_id":"free"},{"bike_id":"66e9855c-dfd5-4865-b205-a51662ba00fa","system_id":"levelo_inurba_marseille","lat":43.316523,"lon":5.404367,"is_reserved":false,"is_disabled":false,"rental_uris":{"android":"levelo://app?vid=66e9855c-dfd5-4865-b205-a51662ba00fa","ios":"levelo://app?vid=66e9855c-dfd5-4865-b205-a51662ba00fa"},"vehicle_type_id":"4","last_reported":1684962234,"current_range_meters":0,"station_id":"ce4bh012rcd13ifvqd00","pricing_plan_id":"free"},{"bike_id":"bf62c13e-f415-4bce-be04-40506c5624c4","system_id":"levelo_inurba_marseille","lat":43.291994,"lon":5.392907,"is_reserved":false,"is_disabled":false,"rental_uris":{"android":"levelo://app?vid=bf62c13e-f415-4bce-be04-40506c5624c4","ios":"levelo://app?vid=bf62c13e-f415-4bce-be04-40506c5624c4"},"vehicle_type_id":"4","last_reported":1684962234,"current_range_meters":0,"station_id":"ce4bh192rcd13ifvqdd0","pricing_plan_id":"free"},{"bike_id":"3d70412f-c029-4cd9-82ff-8eaa61b22eca","system_id":"levelo_inurba_marseille","lat":43.291994,"lon":5.392907,"is_reserved":false,"is_disabled":false,"rental_uris":{"android":"levelo://app?vid=3d70412f-c029-4cd9-82ff-8eaa61b22eca","ios":"levelo://app?vid=3d70412f-c029-4cd9-82ff-8eaa61b22eca"},"vehicle_type_id":"4","last_reported":1684962234,"current_range_meters":800,"station_id":"ce4bh192rcd13ifvqdd0","pricing_plan_id":"free"},{"bike_id":"d0201ae9-fbb4-4419-a3ef-dfce996f4abc","system_id":"levelo_inurba_marseille","lat":43.291994,"lon":5.392907,"is_reserved":false,"is_disabled":false,"rental_uris":{"android":"levelo://app?vid=d0201ae9-fbb4-4419-a3ef-dfce996f4abc","ios":"levelo://app?vid=d0201ae9-fbb4-4419-a3ef-dfce996f4abc"},"vehicle_type_id":"4","last_reported":1684962234,"current_range_meters":27600,"station_id":"ce4bh192rcd13ifvqdd0","pricing_plan_id":"free"},{"bike_id":"c0b6bffe-d20f-47f2-93fd-289ac9b50b45","system_id":"levelo_inurba_marseille","lat":43.291994,"lon":5.392907,"is_reserved":false,"is_disabled":false,"rental_uris":{"android":"levelo://app?vid=c0b6bffe-d20f-47f2-93fd-289ac9b50b45","ios":"levelo://app?vid=c0b6bffe-d20f-47f2-93fd-289ac9b50b45"},"vehicle_type_id":"4","last_reported":1684962234,"current_range_meters":4800,"station_id":"ce4bh192rcd13ifvqdd0","pricing_plan_id":"free"},{"bike_id":"83598679-0e70-441f-8285-1d0708841bef","system_id":"levelo_inurba_marseille","lat":43.291994,"lon":5.392907,"is_reserved":false,"is_disabled":false,"rental_uris":{"android":"levelo://app?vid=83598679-0e70-441f-8285-1d0708841bef","ios":"levelo://app?vid=83598679-0e70-441f-8285-1d0708841bef"},"vehicle_type_id":"4","last_reported":1684962234,"current_range_meters":13200,"station_id":"ce4bh192rcd13ifvqdd0","pricing_plan_id":"free"},{"bike_id":"dffc9ebc-93cf-4c0a-bf90-503cf0476e71","system_id":"levelo_inurba_marseille","lat":43.28464,"lon":5.35895,"is_reserved":false,"is_disabled":false,"rental_uris":{"android":"levelo://app?vid=dffc9ebc-93cf-4c0a-bf90-503cf0476e71","ios":"levelo://app?vid=dffc9ebc-93cf-4c0a-bf90-503cf0476e71"},"vehicle_type_id":"4","last_reported":1684962234,"current_range_meters":4400,"station_id":"ce4bhah2rcd13ifvqei0","pricing_plan_id":"free"},{"bike_id":"29b7ba62-39de-4fb7-a466-e680e38b69f3","system_id":"levelo_inurba_marseille","lat":43.28463,"lon":5.35897,"is_reserved":false,"is_disabled":false,"rental_uris":{"android":"levelo://app?vid=29b7ba62-39de-4fb7-a466-e680e38b69f3","ios":"levelo://app?vid=29b7ba62-39de-4fb7-a466-e680e38b69f3"},"vehicle_type_id":"4","last_reported":1684962234,"current_range_meters":15600,"station_id":"","pricing_plan_id":"free"},{"bike_id":"a5fdcb60-401d-4308-a6b9-aeff2f4bddcc","system_id":"levelo_inurba_marseille","lat":43.284534,"lon":5.358662,"is_reserved":false,"is_disabled":false,"rental_uris":{"android":"levelo://app?vid=a5fdcb60-401d-4308-a6b9-aeff2f4bddcc","ios":"levelo://app?vid=a5fdcb60-401d-4308-a6b9-aeff2f4bddcc"},"vehicle_type_id":"4","last_reported":1684962234,"current_range_meters":30800,"station_id":"ce4bhah2rcd13ifvqei0","pricing_plan_id":"free"},{"bike_id":"fb2761fb-e67d-4545-8237-ad26b3bafddf","system_id":"levelo_inurba_marseille","lat":43.284534,"lon":5.358662,"is_reserved":false,"is_disabled":false,"rental_uris":{"android":"levelo://app?vid=fb2761fb-e67d-4545-8237-ad26b3bafddf","ios":"levelo://app?vid=fb2761fb-e67d-4545-8237-ad26b3bafddf"},"vehicle_type_id":"4","last_reported":1684962234,"current_range_meters":29600,"station_id":"ce4bhah2rcd13ifvqei0","pricing_plan_id":"free"},{"bike_id":"61a1f783-03b6-4c96-a256-d44463b639e5","system_id":"levelo_inurba_marseille","lat":43.284534,"lon":5.358662,"is_reserved":false,"is_disabled":false,"rental_uris":{"android":"levelo://app?vid=61a1f783-03b6-4c96-a256-d44463b639e5","ios":"levelo://app?vid=61a1f783-03b6-4c96-a256-d44463b639e5"},"vehicle_type_id":"4","last_reported":1684962234,"current_range_meters":30000,"station_id":"ce4bhah2rcd13ifvqei0","pricing_plan_id":"free"},{"bike_id":"8e78d5a1-d90c-48e1-8dab-0074202ff47c","system_id":"levelo_inurba_marseille","lat":43.28458,"lon":5.35896,"is_reserved":false,"is_disabled":false,"rental_uris":{"android":"levelo://app?vid=8e78d5a1-d90c-48e1-8dab-0074202ff47c","ios":"levelo://app?vid=8e78d5a1-d90c-48e1-8dab-0074202ff47c"},"vehicle_type_id":"4","last_reported":1684962234,"current_range_meters":18400,"station_id":"ce4bhah2rcd13ifvqei0","pricing_plan_id":"free"},{"bike_id":"5be0682c-3f50-4b30-9737-84dd32593fbb","system_id":"levelo_inurba_marseille","lat":43.284534,"lon":5.358662,"is_reserved":false,"is_disabled":false,"rental_uris":{"android":"levelo://app?vid=5be0682c-3f50-4b30-9737-84dd32593fbb","ios":"levelo://app?vid=5be0682c-3f50-4b30-9737-84dd32593fbb"},"vehicle_type_id":"4","last_reported":1684962234,"current_range_meters":30800,"station_id":"ce4bhah2rcd13ifvqei0","pricing_plan_id":"free"},{"bike_id":"d500490b-4027-42c5-9dc3-be5dea81d5de","system_id":"levelo_inurba_marseille","lat":43.284534,"lon":5.358662,"is_reserved":false,"is_disabled":false,"rental_uris":{"android":"levelo://app?vid=d500490b-4027-42c5-9dc3-be5dea81d5de","ios":"levelo://app?vid=d500490b-4027-42c5-9dc3-be5dea81d5de"},"vehicle_type_id":"4","last_reported":1684962234,"current_range_meters":4000,"station_id":"ce4bhah2rcd13ifvqei0","pricing_plan_id":"free"},{"bike_id":"297aa68e-82f1-443c-8514-0b577d056843","system_id":"levelo_inurba_marseille","lat":43.284534,"lon":5.358662,"is_reserved":false,"is_disabled":false,"rental_uris":{"android":"levelo://app?vid=297aa68e-82f1-443c-8514-0b577d056843","ios":"levelo://app?vid=297aa68e-82f1-443c-8514-0b577d056843"},"vehicle_type_id":"4","last_reported":1684962234,"current_range_meters":14000,"station_id":"ce4bhah2rcd13ifvqei0","pricing_plan_id":"free"},{"bike_id":"a66e6d51-b812-4eed-976a-d7facae8a335","system_id":"levelo_inurba_marseille","lat":43.284534,"lon":5.358662,"is_reserved":false,"is_disabled":false,"rental_uris":{"android":"levelo://app?vid=a66e6d51-b812-4eed-976a-d7facae8a335","ios":"levelo://app?vid=a66e6d51-b812-4eed-976a-d7facae8a335"},"vehicle_type_id":"4","last_reported":1684962234,"current_range_meters":31200,"station_id":"ce4bhah2rcd13ifvqei0","pricing_plan_id":"free"},{"bike_id":"37da9f0f-e17d-471b-a931-afd6da64eb07","system_id":"levelo_inurba_marseille","lat":43.28456,"lon":5.35894,"is_reserved":false,"is_disabled":false,"rental_uris":{"android":"levelo://app?vid=37da9f0f-e17d-471b-a931-afd6da64eb07","ios":"levelo://app?vid=37da9f0f-e17d-471b-a931-afd6da64eb07"},"vehicle_type_id":"4","last_reported":1684962234,"current_range_meters":5200,"station_id":"ce4bhah2rcd13ifvqei0","pricing_plan_id":"free"},{"bike_id":"ae8c9457-c5c5-4e89-b4c7-78ffd7b78b4b","system_id":"levelo_inurba_marseille","lat":43.284534,"lon":5.358662,"is_reserved":false,"is_disabled":false,"rental_uris":{"android":"levelo://app?vid=ae8c9457-c5c5-4e89-b4c7-78ffd7b78b4b","ios":"levelo://app?vid=ae8c9457-c5c5-4e89-b4c7-78ffd7b78b4b"},"vehicle_type_id":"4","last_reported":1684962234,"current_range_meters":0,"station_id":"ce4bhah2rcd13ifvqei0","pricing_plan_id":"free"},{"bike_id":"1c75ff16-6539-4b49-b407-044be78db8ab","system_id":"levelo_inurba_marseille","lat":43.28454,"lon":5.35893,"is_reserved":false,"is_disabled":false,"rental_uris":{"android":"levelo://app?vid=1c75ff16-6539-4b49-b407-044be78db8ab","ios":"levelo://app?vid=1c75ff16-6539-4b49-b407-044be78db8ab"},"vehicle_type_id":"4","last_reported":1684962234,"current_range_meters":800,"station_id":"","pricing_plan_id":"free"},{"bike_id":"569dbaf0-cf66-4e52-9a52-da609e7051c1","system_id":"levelo_inurba_marseille","lat":43.28454,"lon":5.35892,"is_reserved":false,"is_disabled":false,"rental_uris":{"android":"levelo://app?vid=569dbaf0-cf66-4e52-9a52-da609e7051c1","ios":"levelo://app?vid=569dbaf0-cf66-4e52-9a52-da609e7051c1"},"vehicle_type_id":"4","last_reported":1684962234,"current_range_meters":24400,"station_id":"ce4bhah2rcd13ifvqei0","pricing_plan_id":"free"},{"bike_id":"84f56545-e6fb-4bcb-85d1-a19c8ec95b07","system_id":"levelo_inurba_marseille","lat":43.284534,"lon":5.358662,"is_reserved":false,"is_disabled":false,"rental_uris":{"android":"levelo://app?vid=84f56545-e6fb-4bcb-85d1-a19c8ec95b07","ios":"levelo://app?vid=84f56545-e6fb-4bcb-85d1-a19c8ec95b07"},"vehicle_type_id":"4","last_reported":1684962234,"current_range_meters":24400,"station_id":"ce4bhah2rcd13ifvqei0","pricing_plan_id":"free"},{"bike_id":"5e2bc811-2525-4db7-9dcd-e2b01a2c51b3","system_id":"levelo_inurba_marseille","lat":43.284534,"lon":5.358662,"is_reserved":false,"is_disabled":false,"rental_uris":{"android":"levelo://app?vid=5e2bc811-2525-4db7-9dcd-e2b01a2c51b3","ios":"levelo://app?vid=5e2bc811-2525-4db7-9dcd-e2b01a2c51b3"},"vehicle_type_id":"4","last_reported":1684962234,"current_range_meters":1600,"station_id":"ce4bhah2rcd13ifvqei0","pricing_plan_id":"free"},{"bike_id":"efd85604-e865-42ef-a7c1-a5dd2ea73a4d","system_id":"levelo_inurba_marseille","lat":43.284534,"lon":5.358662,"is_reserved":false,"is_disabled":false,"rental_uris":{"android":"levelo://app?vid=efd85604-e865-42ef-a7c1-a5dd2ea73a4d","ios":"levelo://app?vid=efd85604-e865-42ef-a7c1-a5dd2ea73a4d"},"vehicle_type_id":"4","last_reported":1684962234,"current_range_meters":1600,"station_id":"ce4bhah2rcd13ifvqei0","pricing_plan_id":"free"},{"bike_id":"93dcd78d-377c-4b2a-bbc4-453a9fa541bd","system_id":"levelo_inurba_marseille","lat":43.28452,"lon":5.35894,"is_reserved":false,"is_disabled":false,"rental_uris":{"android":"levelo://app?vid=93dcd78d-377c-4b2a-bbc4-453a9fa541bd","ios":"levelo://app?vid=93dcd78d-377c-4b2a-bbc4-453a9fa541bd"},"vehicle_type_id":"4","last_reported":1684962234,"current_range_meters":800,"station_id":"ce4bhah2rcd13ifvqei0","pricing_plan_id":"free"},{"bike_id":"8e41d456-b90a-4a44-bc74-12e63f565845","system_id":"levelo_inurba_marseille","lat":43.28451,"lon":5.35894,"is_reserved":false,"is_disabled":false,"rental_uris":{"android":"levelo://app?vid=8e41d456-b90a-4a44-bc74-12e63f565845","ios":"levelo://app?vid=8e41d456-b90a-4a44-bc74-12e63f565845"},"vehicle_type_id":"4","last_reported":1684962234,"current_range_meters":0,"station_id":"ce4bhah2rcd13ifvqei0","pricing_plan_id":"free"},{"bike_id":"3fd58b9a-bbf7-41ad-a0e5-464b173ee42b","system_id":"levelo_inurba_marseille","lat":43.284534,"lon":5.358662,"is_reserved":false,"is_disabled":false,"rental_uris":{"android":"levelo://app?vid=3fd58b9a-bbf7-41ad-a0e5-464b173ee42b","ios":"levelo://app?vid=3fd58b9a-bbf7-41ad-a0e5-464b173ee42b"},"vehicle_type_id":"4","last_reported":1684962234,"current_range_meters":5200,"station_id":"ce4bhah2rcd13ifvqei0","pricing_plan_id":"free"},{"bike_id":"a914ace4-30dd-44ab-b5ab-941a963cdc04","system_id":"levelo_inurba_marseille","lat":43.284534,"lon":5.358662,"is_reserved":false,"is_disabled":false,"rental_uris":{"android":"levelo://app?vid=a914ace4-30dd-44ab-b5ab-941a963cdc04","ios":"levelo://app?vid=a914ace4-30dd-44ab-b5ab-941a963cdc04"},"vehicle_type_id":"4","last_reported":1684962234,"current_range_meters":5200,"station_id":"ce4bhah2rcd13ifvqei0","pricing_plan_id":"free"},{"bike_id":"e824315a-6e7a-4bf6-a292-5a4f78749a17","system_id":"levelo_inurba_marseille","lat":43.284534,"lon":5.358662,"is_reserved":false,"is_disabled":false,"rental_uris":{"android":"levelo://app?vid=e824315a-6e7a-4bf6-a292-5a4f78749a17","ios":"levelo://app?vid=e824315a-6e7a-4bf6-a292-5a4f78749a17"},"vehicle_type_id":"4","last_reported":1684962234,"current_range_meters":4800,"station_id":"ce4bhah2rcd13ifvqei0","pricing_plan_id":"free"},{"bike_id":"e5cdbde1-29d2-41a0-947c-9ad5887d8ce8","system_id":"levelo_inurba_marseille","lat":43.284534,"lon":5.358662,"is_reserved":false,"is_disabled":false,"rental_uris":{"android":"levelo://app?vid=e5cdbde1-29d2-41a0-947c-9ad5887d8ce8","ios":"levelo://app?vid=e5cdbde1-29d2-41a0-947c-9ad5887d8ce8"},"vehicle_type_id":"4","last_reported":1684962234,"current_range_meters":17600,"station_id":"ce4bhah2rcd13ifvqei0","pricing_plan_id":"free"},{"bike_id":"fa340c6a-8dc4-484f-9ef2-a0c621bbdb2a","system_id":"levelo_inurba_marseille","lat":43.286096,"lon":5.351006,"is_reserved":false,"is_disabled":false,"rental_uris":{"android":"levelo://app?vid=fa340c6a-8dc4-484f-9ef2-a0c621bbdb2a","ios":"levelo://app?vid=fa340c6a-8dc4-484f-9ef2-a0c621bbdb2a"},"vehicle_type_id":"4","last_reported":1684962234,"current_range_meters":10000,"station_id":"","pricing_plan_id":"free"},{"bike_id":"94ba9894-7b05-4153-b25c-abd3f1432007","system_id":"levelo_inurba_marseille","lat":43.29568,"lon":5.39977,"is_reserved":false,"is_disabled":false,"rental_uris":{"android":"levelo://app?vid=94ba9894-7b05-4153-b25c-abd3f1432007","ios":"levelo://app?vid=94ba9894-7b05-4153-b25c-abd3f1432007"},"vehicle_type_id":"4","last_reported":1684962234,"current_range_meters":23600,"station_id":"ce4bh312rcd13ifvqdj0","pricing_plan_id":"free"},{"bike_id":"39bb2154-d391-4d58-abab-7aabbf1f7a0a","system_id":"levelo_inurba_marseille","lat":43.295713,"lon":5.399639,"is_reserved":false,"is_disabled":false,"rental_uris":{"android":"levelo://app?vid=39bb2154-d391-4d58-abab-7aabbf1f7a0a","ios":"levelo://app?vid=39bb2154-d391-4d58-abab-7aabbf1f7a0a"},"vehicle_type_id":"4","last_reported":1684962234,"current_range_meters":25200,"station_id":"ce4bh312rcd13ifvqdj0","pricing_plan_id":"free"},{"bike_id":"8d79c7a3-7b5f-4144-8930-f0bfa07ccb4f","system_id":"levelo_inurba_marseille","lat":43.286595,"lon":5.386795,"is_reserved":false,"is_disabled":false,"rental_uris":{"android":"levelo://app?vid=8d79c7a3-7b5f-4144-8930-f0bfa07ccb4f","ios":"levelo://app?vid=8d79c7a3-7b5f-4144-8930-f0bfa07ccb4f"},"vehicle_type_id":"4","last_reported":1684962234,"current_range_meters":19600,"station_id":"ce4bh492rcd13ifvqdug","pricing_plan_id":"free"},{"bike_id":"d0248441-1b9c-410f-918e-bda3250b3bf5","system_id":"levelo_inurba_marseille","lat":43.323464,"lon":5.406297,"is_reserved":false,"is_disabled":false,"rental_uris":{"android":"levelo://app?vid=d0248441-1b9c-410f-918e-bda3250b3bf5","ios":"levelo://app?vid=d0248441-1b9c-410f-918e-bda3250b3bf5"},"vehicle_type_id":"4","last_reported":1684962234,"current_range_meters":5200,"station_id":"ce4bhq92rcd13ifvqhjg","pricing_plan_id":"free"},{"bike_id":"c6dd1343-97b1-4973-83cc-c2d989982782","system_id":"levelo_inurba_marseille","lat":43.323464,"lon":5.406297,"is_reserved":false,"is_disabled":false,"rental_uris":{"android":"levelo://app?vid=c6dd1343-97b1-4973-83cc-c2d989982782","ios":"levelo://app?vid=c6dd1343-97b1-4973-83cc-c2d989982782"},"vehicle_type_id":"4","last_reported":1684962234,"current_range_meters":30000,"station_id":"ce4bhq92rcd13ifvqhjg","pricing_plan_id":"free"},{"bike_id":"9eecb078-7ed3-4019-b898-19cb5eb38f29","system_id":"levelo_inurba_marseille","lat":43.284793,"lon":5.384119,"is_reserved":false,"is_disabled":false,"rental_uris":{"android":"levelo://app?vid=9eecb078-7ed3-4019-b898-19cb5eb38f29","ios":"levelo://app?vid=9eecb078-7ed3-4019-b898-19cb5eb38f29"},"vehicle_type_id":"4","last_reported":1684962234,"current_range_meters":7600,"station_id":"ce4bh512rcd13ifvqe3g","pricing_plan_id":"free"},{"bike_id":"fadb3d56-cf96-4022-a6cc-1e32682120c7","system_id":"levelo_inurba_marseille","lat":43.284787,"lon":5.384116,"is_reserved":false,"is_disabled":false,"rental_uris":{"android":"levelo://app?vid=fadb3d56-cf96-4022-a6cc-1e32682120c7","ios":"levelo://app?vid=fadb3d56-cf96-4022-a6cc-1e32682120c7"},"vehicle_type_id":"4","last_reported":1684962234,"current_range_meters":0,"station_id":"ce4bh512rcd13ifvqe3g","pricing_plan_id":"free"},{"bike_id":"26ffde0c-f5f4-4a31-b307-21ffa6bdff64","system_id":"levelo_inurba_marseille","lat":43.288497,"lon":5.393089,"is_reserved":false,"is_disabled":false,"rental_uris":{"android":"levelo://app?vid=26ffde0c-f5f4-4a31-b307-21ffa6bdff64","ios":"levelo://app?vid=26ffde0c-f5f4-4a31-b307-21ffa6bdff64"},"vehicle_type_id":"4","last_reported":1684962234,"current_range_meters":19200,"station_id":"ce4bh2p2rcd13ifvqdi0","pricing_plan_id":"free"},{"bike_id":"039c3624-8773-46f5-9c68-a730bb9a84be","system_id":"levelo_inurba_marseille","lat":43.288501,"lon":5.393087,"is_reserved":false,"is_disabled":false,"rental_uris":{"android":"levelo://app?vid=039c3624-8773-46f5-9c68-a730bb9a84be","ios":"levelo://app?vid=039c3624-8773-46f5-9c68-a730bb9a84be"},"vehicle_type_id":"4","last_reported":1684962234,"current_range_meters":16800,"station_id":"ce4bh2p2rcd13ifvqdi0","pricing_plan_id":"free"},{"bike_id":"7fc184c6-d04c-4808-bdb2-3f14e38f4994","system_id":"levelo_inurba_marseille","lat":43.288497,"lon":5.393089,"is_reserved":false,"is_disabled":false,"rental_uris":{"android":"levelo://app?vid=7fc184c6-d04c-4808-bdb2-3f14e38f4994","ios":"levelo://app?vid=7fc184c6-d04c-4808-bdb2-3f14e38f4994"},"vehicle_type_id":"4","last_reported":1684962234,"current_range_meters":31600,"station_id":"ce4bh2p2rcd13ifvqdi0","pricing_plan_id":"free"},{"bike_id":"eeeaa4a7-f4e4-4212-aa66-67ce60e323cf","system_id":"levelo_inurba_marseille","lat":43.288497,"lon":5.393089,"is_reserved":false,"is_disabled":false,"rental_uris":{"android":"levelo://app?vid=eeeaa4a7-f4e4-4212-aa66-67ce60e323cf","ios":"levelo://app?vid=eeeaa4a7-f4e4-4212-aa66-67ce60e323cf"},"vehicle_type_id":"4","last_reported":1684962234,"current_range_meters":24800,"station_id":"ce4bh2p2rcd13ifvqdi0","pricing_plan_id":"free"},{"bike_id":"e1f081f3-5076-4d7e-83b3-6984bb542194","system_id":"levelo_inurba_marseille","lat":43.288497,"lon":5.393089,"is_reserved":false,"is_disabled":false,"rental_uris":{"android":"levelo://app?vid=e1f081f3-5076-4d7e-83b3-6984bb542194","ios":"levelo://app?vid=e1f081f3-5076-4d7e-83b3-6984bb542194"},"vehicle_type_id":"4","last_reported":1684962234,"current_range_meters":16000,"station_id":"ce4bh2p2rcd13ifvqdi0","pricing_plan_id":"free"},{"bike_id":"edacfbfb-08a1-4873-b142-1e75568979bf","system_id":"levelo_inurba_marseille","lat":43.288497,"lon":5.393089,"is_reserved":false,"is_disabled":false,"rental_uris":{"android":"levelo://app?vid=edacfbfb-08a1-4873-b142-1e75568979bf","ios":"levelo://app?vid=edacfbfb-08a1-4873-b142-1e75568979bf"},"vehicle_type_id":"4","last_reported":1684962234,"current_range_meters":24000,"station_id":"ce4bh2p2rcd13ifvqdi0","pricing_plan_id":"free"},{"bike_id":"1d35ada8-01fb-40ac-9fa0-b96973ce13d5","system_id":"levelo_inurba_marseille","lat":43.283498,"lon":5.380948,"is_reserved":false,"is_disabled":false,"rental_uris":{"android":"levelo://app?vid=1d35ada8-01fb-40ac-9fa0-b96973ce13d5","ios":"levelo://app?vid=1d35ada8-01fb-40ac-9fa0-b96973ce13d5"},"vehicle_type_id":"4","last_reported":1684962234,"current_range_meters":10800,"station_id":"ce4bh412rcd13ifvqdr0","pricing_plan_id":"free"},{"bike_id":"772726de-0f57-483b-9324-4cfeae4f2281","system_id":"levelo_inurba_marseille","lat":43.284217,"lon":5.349697,"is_reserved":false,"is_disabled":false,"rental_uris":{"android":"levelo://app?vid=772726de-0f57-483b-9324-4cfeae4f2281","ios":"levelo://app?vid=772726de-0f57-483b-9324-4cfeae4f2281"},"vehicle_type_id":"4","last_reported":1684962234,"current_range_meters":0,"station_id":"ce4bhbh2rcd13ifvqepg","pricing_plan_id":"free"},{"bike_id":"5d6df852-5ddf-4d6e-87bd-b9c60686407a","system_id":"levelo_inurba_marseille","lat":43.289363,"lon":5.396322,"is_reserved":false,"is_disabled":false,"rental_uris":{"android":"levelo://app?vid=5d6df852-5ddf-4d6e-87bd-b9c60686407a","ios":"levelo://app?vid=5d6df852-5ddf-4d6e-87bd-b9c60686407a"},"vehicle_type_id":"4","last_reported":1684962234,"current_range_meters":19200,"station_id":"ce4bh3h2rcd13ifvqdn0","pricing_plan_id":"free"},{"bike_id":"f8db8377-38a4-4c26-a160-e663028b9d06","system_id":"levelo_inurba_marseille","lat":43.289363,"lon":5.396322,"is_reserved":false,"is_disabled":false,"rental_uris":{"android":"levelo://app?vid=f8db8377-38a4-4c26-a160-e663028b9d06","ios":"levelo://app?vid=f8db8377-38a4-4c26-a160-e663028b9d06"},"vehicle_type_id":"4","last_reported":1684962234,"current_range_meters":12800,"station_id":"ce4bh3h2rcd13ifvqdn0","pricing_plan_id":"free"},{"bike_id":"00cb7340-5690-462a-9abd-dbc4c72f8b2d","system_id":"levelo_inurba_marseille","lat":43.292724,"lon":5.401131,"is_reserved":false,"is_disabled":false,"rental_uris":{"android":"levelo://app?vid=00cb7340-5690-462a-9abd-dbc4c72f8b2d","ios":"levelo://app?vid=00cb7340-5690-462a-9abd-dbc4c72f8b2d"},"vehicle_type_id":"4","last_reported":1684962234,"current_range_meters":14400,"station_id":"ce4bh312rcd13ifvqdk0","pricing_plan_id":"free"},{"bike_id":"0e2788b1-b74a-4bb0-b83e-6c65ef501159","system_id":"levelo_inurba_marseille","lat":43.292724,"lon":5.401131,"is_reserved":false,"is_disabled":false,"rental_uris":{"android":"levelo://app?vid=0e2788b1-b74a-4bb0-b83e-6c65ef501159","ios":"levelo://app?vid=0e2788b1-b74a-4bb0-b83e-6c65ef501159"},"vehicle_type_id":"4","last_reported":1684962234,"current_range_meters":10400,"station_id":"ce4bh312rcd13ifvqdk0","pricing_plan_id":"free"},{"bike_id":"d9994e4e-7d50-430b-828a-6b782e77da7e","system_id":"levelo_inurba_marseille","lat":43.292724,"lon":5.401131,"is_reserved":false,"is_disabled":false,"rental_uris":{"android":"levelo://app?vid=d9994e4e-7d50-430b-828a-6b782e77da7e","ios":"levelo://app?vid=d9994e4e-7d50-430b-828a-6b782e77da7e"},"vehicle_type_id":"4","last_reported":1684962234,"current_range_meters":6400,"station_id":"ce4bh312rcd13ifvqdk0","pricing_plan_id":"free"},{"bike_id":"fa229e4d-55f6-4716-988b-d581d2dce0ca","system_id":"levelo_inurba_marseille","lat":43.292724,"lon":5.401131,"is_reserved":false,"is_disabled":false,"rental_uris":{"android":"levelo://app?vid=fa229e4d-55f6-4716-988b-d581d2dce0ca","ios":"levelo://app?vid=fa229e4d-55f6-4716-988b-d581d2dce0ca"},"vehicle_type_id":"4","last_reported":1684962234,"current_range_meters":31200,"station_id":"ce4bh312rcd13ifvqdk0","pricing_plan_id":"free"},{"bike_id":"c285b989-579b-4b3b-ac41-5d616a637d0b","system_id":"levelo_inurba_marseille","lat":43.292724,"lon":5.401131,"is_reserved":false,"is_disabled":false,"rental_uris":{"android":"levelo://app?vid=c285b989-579b-4b3b-ac41-5d616a637d0b","ios":"levelo://app?vid=c285b989-579b-4b3b-ac41-5d616a637d0b"},"vehicle_type_id":"4","last_reported":1684962234,"current_range_meters":12800,"station_id":"ce4bh312rcd13ifvqdk0","pricing_plan_id":"free"},{"bike_id":"94d9a40c-2809-40c5-b7a4-0fa14fb07ae4","system_id":"levelo_inurba_marseille","lat":43.292724,"lon":5.401131,"is_reserved":false,"is_disabled":false,"rental_uris":{"android":"levelo://app?vid=94d9a40c-2809-40c5-b7a4-0fa14fb07ae4","ios":"levelo://app?vid=94d9a40c-2809-40c5-b7a4-0fa14fb07ae4"},"vehicle_type_id":"4","last_reported":1684962234,"current_range_meters":0,"station_id":"ce4bh312rcd13ifvqdk0","pricing_plan_id":"free"},{"bike_id":"e8e7aa4a-dec7-46cc-b626-2f2953f37877","system_id":"levelo_inurba_marseille","lat":43.29265,"lon":5.40122,"is_reserved":false,"is_disabled":false,"rental_uris":{"android":"levelo://app?vid=e8e7aa4a-dec7-46cc-b626-2f2953f37877","ios":"levelo://app?vid=e8e7aa4a-dec7-46cc-b626-2f2953f37877"},"vehicle_type_id":"4","last_reported":1684962234,"current_range_meters":0,"station_id":"ce4bh312rcd13ifvqdk0","pricing_plan_id":"free"},{"bike_id":"68f26f6d-bfed-4650-814c-839b230fb10a","system_id":"levelo_inurba_marseille","lat":43.292724,"lon":5.401131,"is_reserved":false,"is_disabled":false,"rental_uris":{"android":"levelo://app?vid=68f26f6d-bfed-4650-814c-839b230fb10a","ios":"levelo://app?vid=68f26f6d-bfed-4650-814c-839b230fb10a"},"vehicle_type_id":"4","last_reported":1684962234,"current_range_meters":27200,"station_id":"ce4bh312rcd13ifvqdk0","pricing_plan_id":"free"},{"bike_id":"516aa8e2-2be0-4e5b-aa15-df26bf60599e","system_id":"levelo_inurba_marseille","lat":43.292724,"lon":5.401131,"is_reserved":false,"is_disabled":false,"rental_uris":{"android":"levelo://app?vid=516aa8e2-2be0-4e5b-aa15-df26bf60599e","ios":"levelo://app?vid=516aa8e2-2be0-4e5b-aa15-df26bf60599e"},"vehicle_type_id":"4","last_reported":1684962234,"current_range_meters":28800,"station_id":"ce4bh312rcd13ifvqdk0","pricing_plan_id":"free"},{"bike_id":"25ac3210-057a-4056-a121-d7b5b606620b","system_id":"levelo_inurba_marseille","lat":43.29262,"lon":5.40125,"is_reserved":false,"is_disabled":false,"rental_uris":{"android":"levelo://app?vid=25ac3210-057a-4056-a121-d7b5b606620b","ios":"levelo://app?vid=25ac3210-057a-4056-a121-d7b5b606620b"},"vehicle_type_id":"4","last_reported":1684962234,"current_range_meters":16400,"station_id":"ce4bh312rcd13ifvqdk0","pricing_plan_id":"free"},{"bike_id":"9effa00e-6f74-451a-83f8-57cb91f1569f","system_id":"levelo_inurba_marseille","lat":43.283502,"lon":5.386471,"is_reserved":false,"is_disabled":false,"rental_uris":{"android":"levelo://app?vid=9effa00e-6f74-451a-83f8-57cb91f1569f","ios":"levelo://app?vid=9effa00e-6f74-451a-83f8-57cb91f1569f"},"vehicle_type_id":"4","last_reported":1684962234,"current_range_meters":8400,"station_id":"ce4bh492rcd13ifvqdvg","pricing_plan_id":"free"},{"bike_id":"205a3e0e-56dd-4341-ae83-47453d896eb7","system_id":"levelo_inurba_marseille","lat":43.28039,"lon":5.369297,"is_reserved":false,"is_disabled":false,"rental_uris":{"android":"levelo://app?vid=205a3e0e-56dd-4341-ae83-47453d896eb7","ios":"levelo://app?vid=205a3e0e-56dd-4341-ae83-47453d896eb7"},"vehicle_type_id":"4","last_reported":1684962234,"current_range_meters":0,"station_id":"ce4bha12rcd13ifvqef0","pricing_plan_id":"free"},{"bike_id":"75aa8a04-34f9-4453-92ae-f2dc44b18ee2","system_id":"levelo_inurba_marseille","lat":43.28039,"lon":5.369297,"is_reserved":false,"is_disabled":false,"rental_uris":{"android":"levelo://app?vid=75aa8a04-34f9-4453-92ae-f2dc44b18ee2","ios":"levelo://app?vid=75aa8a04-34f9-4453-92ae-f2dc44b18ee2"},"vehicle_type_id":"4","last_reported":1684962234,"current_range_meters":8800,"station_id":"ce4bha12rcd13ifvqef0","pricing_plan_id":"free"},{"bike_id":"48ef3b3b-45b4-477f-8a4f-67bb1de540a0","system_id":"levelo_inurba_marseille","lat":43.290718,"lon":5.399583,"is_reserved":false,"is_disabled":false,"rental_uris":{"android":"levelo://app?vid=48ef3b3b-45b4-477f-8a4f-67bb1de540a0","ios":"levelo://app?vid=48ef3b3b-45b4-477f-8a4f-67bb1de540a0"},"vehicle_type_id":"4","last_reported":1684962234,"current_range_meters":22400,"station_id":"ce4bhnh2rcd13ifvqgtg","pricing_plan_id":"free"},{"bike_id":"9d4c8ae6-b23d-4a4e-aaec-151e32ae3fe6","system_id":"levelo_inurba_marseille","lat":43.28039,"lon":5.36956,"is_reserved":false,"is_disabled":false,"rental_uris":{"android":"levelo://app?vid=9d4c8ae6-b23d-4a4e-aaec-151e32ae3fe6","ios":"levelo://app?vid=9d4c8ae6-b23d-4a4e-aaec-151e32ae3fe6"},"vehicle_type_id":"4","last_reported":1684962234,"current_range_meters":31200,"station_id":"ce4bha12rcd13ifvqef0","pricing_plan_id":"free"},{"bike_id":"1911de03-a83b-436f-b6ee-c91049a369b5","system_id":"levelo_inurba_marseille","lat":43.28039,"lon":5.369297,"is_reserved":false,"is_disabled":false,"rental_uris":{"android":"levelo://app?vid=1911de03-a83b-436f-b6ee-c91049a369b5","ios":"levelo://app?vid=1911de03-a83b-436f-b6ee-c91049a369b5"},"vehicle_type_id":"4","last_reported":1684962234,"current_range_meters":31200,"station_id":"ce4bha12rcd13ifvqef0","pricing_plan_id":"free"},{"bike_id":"6955ba0b-a73e-450e-b84a-118e01b5fada","system_id":"levelo_inurba_marseille","lat":43.28039,"lon":5.369297,"is_reserved":false,"is_disabled":false,"rental_uris":{"android":"levelo://app?vid=6955ba0b-a73e-450e-b84a-118e01b5fada","ios":"levelo://app?vid=6955ba0b-a73e-450e-b84a-118e01b5fada"},"vehicle_type_id":"4","last_reported":1684962234,"current_range_meters":18400,"station_id":"ce4bha12rcd13ifvqef0","pricing_plan_id":"free"},{"bike_id":"4d86ce40-e406-44d0-9e2e-59dcfae65e59","system_id":"levelo_inurba_marseille","lat":43.29041,"lon":5.39947,"is_reserved":false,"is_disabled":false,"rental_uris":{"android":"levelo://app?vid=4d86ce40-e406-44d0-9e2e-59dcfae65e59","ios":"levelo://app?vid=4d86ce40-e406-44d0-9e2e-59dcfae65e59"},"vehicle_type_id":"4","last_reported":1684962234,"current_range_meters":6400,"station_id":"ce4bh392rcd13ifvqdm0","pricing_plan_id":"free"},{"bike_id":"ba83312c-fff7-4281-bfb8-dcbd4b965779","system_id":"levelo_inurba_marseille","lat":43.28107,"lon":5.37841,"is_reserved":false,"is_disabled":false,"rental_uris":{"android":"levelo://app?vid=ba83312c-fff7-4281-bfb8-dcbd4b965779","ios":"levelo://app?vid=ba83312c-fff7-4281-bfb8-dcbd4b965779"},"vehicle_type_id":"4","last_reported":1684962234,"current_range_meters":15600,"station_id":"ce4bha12rcd13ifvqee0","pricing_plan_id":"free"},{"bike_id":"18da1b54-aad4-49b7-a073-6e23e23c4e72","system_id":"levelo_inurba_marseille","lat":43.28107,"lon":5.37842,"is_reserved":false,"is_disabled":false,"rental_uris":{"android":"levelo://app?vid=18da1b54-aad4-49b7-a073-6e23e23c4e72","ios":"levelo://app?vid=18da1b54-aad4-49b7-a073-6e23e23c4e72"},"vehicle_type_id":"4","last_reported":1684962234,"current_range_meters":4400,"station_id":"ce4bha12rcd13ifvqee0","pricing_plan_id":"free"},{"bike_id":"4ea53bce-e495-4d61-83f5-f9493778f854","system_id":"levelo_inurba_marseille","lat":43.28106,"lon":5.3784,"is_reserved":false,"is_disabled":false,"rental_uris":{"android":"levelo://app?vid=4ea53bce-e495-4d61-83f5-f9493778f854","ios":"levelo://app?vid=4ea53bce-e495-4d61-83f5-f9493778f854"},"vehicle_type_id":"4","last_reported":1684962234,"current_range_meters":24800,"station_id":"ce4bha12rcd13ifvqee0","pricing_plan_id":"free"},{"bike_id":"2480310a-de0f-45ed-82d9-d17518e836e7","system_id":"levelo_inurba_marseille","lat":43.296263,"lon":5.40601,"is_reserved":false,"is_disabled":false,"rental_uris":{"android":"levelo://app?vid=2480310a-de0f-45ed-82d9-d17518e836e7","ios":"levelo://app?vid=2480310a-de0f-45ed-82d9-d17518e836e7"},"vehicle_type_id":"4","last_reported":1684962234,"current_range_meters":21200,"station_id":"ce4bh0h2rcd13ifvqd60","pricing_plan_id":"free"},{"bike_id":"b0e6b470-aa80-407a-b98a-100de01f63b2","system_id":"levelo_inurba_marseille","lat":43.296263,"lon":5.40601,"is_reserved":false,"is_disabled":false,"rental_uris":{"android":"levelo://app?vid=b0e6b470-aa80-407a-b98a-100de01f63b2","ios":"levelo://app?vid=b0e6b470-aa80-407a-b98a-100de01f63b2"},"vehicle_type_id":"4","last_reported":1684962234,"current_range_meters":17200,"station_id":"ce4bh0h2rcd13ifvqd60","pricing_plan_id":"free"},{"bike_id":"73cbf6fc-bc18-4124-91a5-fe037edf7642","system_id":"levelo_inurba_marseille","lat":43.296263,"lon":5.40601,"is_reserved":false,"is_disabled":false,"rental_uris":{"android":"levelo://app?vid=73cbf6fc-bc18-4124-91a5-fe037edf7642","ios":"levelo://app?vid=73cbf6fc-bc18-4124-91a5-fe037edf7642"},"vehicle_type_id":"4","last_reported":1684962234,"current_range_meters":8000,"station_id":"ce4bh0h2rcd13ifvqd60","pricing_plan_id":"free"},