{"last_updated":1683921990,"ttl":30,"version":"2.2","data":{"bikes":[{"bike_id":"8effeac1-6a9f-46ef-a143-5b533a65e915","system_id":"levelo_inurba_marseille","lat":43.312239,"lon":5.368562,"is_reserved":false,"is_disabled":false,"rental_uris":{"android":"levelo://app?vid=8effeac1-6a9f-46ef-a143-5b533a65e915","ios":"levelo://app?vid=8effeac1-6a9f-46ef-a143-5b533a65e915"},"vehicle_type_id":"4","last_reported":1683921990,"current_range_meters":25200,"station_id":"ce4bgl92rcd13ifvqbq0","pricing_plan_id":"free"},{"bike_id":"12bee386-4a91-4e20-ba6f-1878293cb364","system_id":"levelo_inurba_marseille","lat":43.308614,"lon":5.372098,"is_reserved":false,"is_disabled":false,"rental_uris":{"android":"levelo://app?vid=12bee386-4a91-4e20-ba6f-1878293cb364","ios":"levelo://app?vid=12bee386-4a91-4e20-ba6f-1878293cb364"},"vehicle_type_id":"4","last_reported":1683921990,"current_range_meters":27200,"station_id":"ce4bguh2rcd13ifvqckg","pricing_plan_id":"free"},{"bike_id":"23e88bd3-5806-49cd-9b86-f080c887e495","system_id":"levelo_inurba_marseille","lat":43.308614,"lon":5.372098,"is_reserved":false,"is_disabled":false,"rental_uris":{"android":"levelo://app?vid=23e88bd3-5806-49cd-9b86-f080c887e495","ios":"levelo://app?vid=23e88bd3-5806-49cd-9b86-f080c887e495"},"vehicle_type_id":"4","last_reported":1683921990,"current_range_meters":12000,"station_id":"ce4bguh2rcd13ifvqckg","pricing_plan_id":"free"},{"bike_id":"d9a538f6-aba6-48db-83b6-ca24e057bc71","system_id":"levelo_inurba_marseille","lat":43.30873,"lon":5.37202,"is_reserved":false,"is_disabled":false,"rental_uris":{"android":"levelo://app?vid=d9a538f6-aba6-48db-83b6-ca24e057bc71","ios":"levelo://app?vid=d9a538f6-aba6-48db-83b6-ca24e057bc71"},"vehicle_type_id":"4","last_reported":1683921990,"current_range_meters":24000,"station_id":"","pricing_plan_id":"free"},{"bike_id":"c7e65327-bcb3-4d12-a36f-f2869c7072e6","system_id":"levelo_inurba_marseille","lat":43.305706,"lon":5.365654,"is_reserved":false,"is_disabled":false,"rental_uris":{"android":"levelo://app?vid=c7e65327-bcb3-4d12-a36f-f2869c7072e6","ios":"levelo://app?vid=c7e65327-bcb3-4d12-a36f-f2869c7072e6"},"vehicle_type_id":"4","last_reported":1683921990,"current_range_meters":1600,"station_id":"ce4bgs12rcd13ifvqcag","pricing_plan_id":"free"},{"bike_id":"3e331e54-2349-4b9f-910e-aff2bf42ab4e","system_id":"levelo_inurba_marseille","lat":43.305706,"lon":5.365654,"is_reserved":false,"is_disabled":false,"rental_uris":{"android":"levelo://app?vid=3e331e54-2349-4b9f-910e-aff2bf42ab4e","ios":"levelo://app?vid=3e331e54-2349-4b9f-910e-aff2bf42ab4e"},"vehicle_type_id":"4","last_reported":1683921990,"current_range_meters":8400,"station_id":"ce4bgs12rcd13ifvqcag","pricing_plan_id":"free"},{"bike_id":"f16b777f-51ea-4c12-a599-4112ab8f8446","system_id":"levelo_inurba_marseille","lat":43.30528,"lon":5.36538,"is_reserved":false,"is_disabled":false,"rental_uris":{"android":"levelo://app?vid=f16b777f-51ea-4c12-a599-4112ab8f8446","ios":"levelo://app?vid=f16b777f-51ea-4c12-a599-4112ab8f8446"},"vehicle_type_id":"4","last_reported":1683921990,"current_range_meters":4000,"station_id":"","pricing_plan_id":"free"},{"bike_id":"151d50bc-3aee-48d5-9527-783274464e00","system_id":"levelo_inurba_marseille","lat":43.31187,"lon":5.37744,"is_reserved":false,"is_disabled":false,"rental_uris":{"android":"levelo://app?vid=151d50bc-3aee-48d5-9527-783274464e00","ios":"levelo://app?vid=151d50bc-3aee-48d5-9527-783274464e00"},"vehicle_type_id":"4","last_reported":1683921990,"current_range_meters":16000,"station_id":"","pricing_plan_id":"free"},{"bike_id":"ec9f2edf-f728-45fb-8ca2-3c4d74061fe7","system_id":"levelo_inurba_marseille","lat":43.305989,"lon":5.37225,"is_reserved":false,"is_disabled":false,"rental_uris":{"android":"levelo://app?vid=ec9f2edf-f728-45fb-8ca2-3c4d74061fe7","ios":"levelo://app?vid=ec9f2edf-f728-45fb-8ca2-3c4d74061fe7"},"vehicle_type_id":"4","last_reported":1683921990,"current_range_meters":17600,"station_id":"ce4bgqh2rcd13ifvqc4g","pricing_plan_id":"free"},{"bike_id":"ceb10385-074b-47c0-9abb-90d00c395a98","system_id":"levelo_inurba_marseille","lat":43.31123,"lon":5.3775,"is_reserved":false,"is_disabled":false,"rental_uris":{"android":"levelo://app?vid=ceb10385-074b-47c0-9abb-90d00c395a98","ios":"levelo://app?vid=ceb10385-074b-47c0-9abb-90d00c395a98"},"vehicle_type_id":"4","last_reported":1683921990,"current_range_meters":4000,"station_id":"ce4bgt92rcd13ifvqcg0","pricing_plan_id":"free"},{"bike_id":"8bca51a8-002d-4218-a015-52c6654c1164","system_id":"levelo_inurba_marseille","lat":43.31113,"lon":5.37763,"is_reserved":false,"is_disabled":false,"rental_uris":{"android":"levelo://app?vid=8bca51a8-002d-4218-a015-52c6654c1164","ios":"levelo://app?vid=8bca51a8-002d-4218-a015-52c6654c1164"},"vehicle_type_id":"4","last_reported":1683921990,"current_range_meters":5600,"station_id":"ce4bgt92rcd13ifvqcg0","pricing_plan_id":"free"},{"bike_id":"185301c1-300e-4c8f-84e1-e4959ef5c9a6","system_id":"levelo_inurba_marseille","lat":43.31111,"lon":5.37763,"is_reserved":false,"is_disabled":false,"rental_uris":{"android":"levelo://app?vid=185301c1-300e-4c8f-84e1-e4959ef5c9a6","ios":"levelo://app?vid=185301c1-300e-4c8f-84e1-e4959ef5c9a6"},"vehicle_type_id":"4","last_reported":1683921990,"current_range_meters":25600,"station_id":"ce4bgt92rcd13ifvqcg0","pricing_plan_id":"free"},{"bike_id":"dd304b45-8e6e-469c-9793-d242fe9a74f2","system_id":"levelo_inurba_marseille","lat":43.303046,"lon":5.368981,"is_reserved":false,"is_disabled":false,"rental_uris":{"android":"levelo://app?vid=dd304b45-8e6e-469c-9793-d242fe9a74f2","ios":"levelo://app?vid=dd304b45-8e6e-469c-9793-d242fe9a74f2"},"vehicle_type_id":"4","last_reported":1683921990,"current_range_meters":14800,"station_id":"ce4bgqh2rcd13ifvqc5g","pricing_plan_id":"free"},{"bike_id":"c9cdbfb3-eb03-47d4-81e1-67c09738ae50","system_id":"levelo_inurba_marseille","lat":43.303046,"lon":5.368981,"is_reserved":false,"is_disabled":false,"rental_uris":{"android":"levelo://app?vid=c9cdbfb3-eb03-47d4-81e1-67c09738ae50","ios":"levelo://app?vid=c9cdbfb3-eb03-47d4-81e1-67c09738ae50"},"vehicle_type_id":"4","last_reported":1683921990,"current_range_meters":24400,"station_id":"ce4bgqh2rcd13ifvqc5g","pricing_plan_id":"free"},{"bike_id":"9b69f5c4-4157-4e2f-9468-5acf70b48b65","system_id":"levelo_inurba_marseille","lat":43.315293,"lon":5.380349,"is_reserved":false,"is_disabled":false,"rental_uris":{"android":"levelo://app?vid=9b69f5c4-4157-4e2f-9468-5acf70b48b65","ios":"levelo://app?vid=9b69f5c4-4157-4e2f-9468-5acf70b48b65"},"vehicle_type_id":"4","last_reported":1683921990,"current_range_meters":27200,"station_id":"ce4bhsp2rcd13ifvqi50","pricing_plan_id":"free"},{"bike_id":"a2c655bc-0c3f-4fd2-b4ca-3ceb11091cce","system_id":"levelo_inurba_marseille","lat":43.315289,"lon":5.380349,"is_reserved":false,"is_disabled":false,"rental_uris":{"android":"levelo://app?vid=a2c655bc-0c3f-4fd2-b4ca-3ceb11091cce","ios":"levelo://app?vid=a2c655bc-0c3f-4fd2-b4ca-3ceb11091cce"},"vehicle_type_id":"4","last_reported":1683921990,"current_range_meters":18400,"station_id":"ce4bhsp2rcd13ifvqi50","pricing_plan_id":"free"},{"bike_id":"7481925b-d9ad-4fcb-8e27-db7fa45bbca7","system_id":"levelo_inurba_marseille","lat":43.315293,"lon":5.380349,"is_reserved":false,"is_disabled":false,"rental_uris":{"android":"levelo://app?vid=7481925b-d9ad-4fcb-8e27-db7fa45bbca7","ios":"levelo://app?vid=7481925b-d9ad-4fcb-8e27-db7fa45bbca7"},"vehicle_type_id":"4","last_reported":1683921990,"current_range_meters":20800,"station_id":"ce4bhsp2rcd13ifvqi50","pricing_plan_id":"free"},{"bike_id":"c8412fe7-2de9-4508-a3ce-7be580c37a76","system_id":"levelo_inurba_marseille","lat":43.315289,"lon":5.380349,"is_reserved":false,"is_disabled":false,"rental_uris":{"android":"levelo://app?vid=c8412fe7-2de9-4508-a3ce-7be580c37a76","ios":"levelo://app?vid=c8412fe7-2de9-4508-a3ce-7be580c37a76"},"vehicle_type_id":"4","last_reported":1683921990,"current_range_meters":7200,"station_id":"ce4bhsp2rcd13ifvqi50","pricing_plan_id":"free"},{"bike_id":"0be6b423-d7da-45a2-8647-e5470f83dc4f","system_id":"levelo_inurba_marseille","lat":43.315289,"lon":5.380349,"is_reserved":false,"is_disabled":false,"rental_uris":{"android":"levelo://app?vid=0be6b423-d7da-45a2-8647-e5470f83dc4f","ios":"levelo://app?vid=0be6b423-d7da-45a2-8647-e5470f83dc4f"},"vehicle_type_id":"4","last_reported":1683921990,"current_range_meters":13600,"station_id":"ce4bhsp2rcd13ifvqi50","pricing_plan_id":"free"},{"bike_id":"cc77dd8c-a1ee-49b3-8926-bd350a947bdb","system_id":"levelo_inurba_marseille","lat":43.315289,"lon":5.380349,"is_reserved":false,"is_disabled":false,"rental_uris":{"android":"levelo://app?vid=cc77dd8c-a1ee-49b3-8926-bd350a947bdb","ios":"levelo://app?vid=cc77dd8c-a1ee-49b3-8926-bd350a947bdb"},"vehicle_type_id":"4","last_reported":1683921990,"current_range_meters":8800,"station_id":"ce4bhsp2rcd13ifvqi50","pricing_plan_id":"free"},{"bike_id":"3e42df1c-915e-406a-93f3-dff9b914f1b6","system_id":"levelo_inurba_marseille","lat":43.315293,"lon":5.380349,"is_reserved":false,"is_disabled":false,"rental_uris":{"android":"levelo://app?vid=3e42df1c-915e-406a-93f3-dff9b914f1b6","ios":"levelo://app?vid=3e42df1c-915e-406a-93f3-dff9b914f1b6"},"vehicle_type_id":"4","last_reported":1683921990,"current_range_meters":30400,"station_id":"ce4bhsp2rcd13ifvqi50","pricing_plan_id":"free"},{"bike_id":"ba23e6ea-b2d8-492c-a025-93f92d3a0acc","system_id":"levelo_inurba_marseille","lat":43.308012,"lon":5.381511,"is_reserved":false,"is_disabled":false,"rental_uris":{"android":"levelo://app?vid=ba23e6ea-b2d8-492c-a025-93f92d3a0acc","ios":"levelo://app?vid=ba23e6ea-b2d8-492c-a025-93f92d3a0acc"},"vehicle_type_id":"4","last_reported":1683921990,"current_range_meters":400,"station_id":"ce4bgt12rcd13ifvqce0","pricing_plan_id":"free"},{"bike_id":"189744e6-4d0e-4b29-a759-97405959634e","system_id":"levelo_inurba_marseille","lat":43.304606,"lon":5.379026,"is_reserved":false,"is_disabled":false,"rental_uris":{"android":"levelo://app?vid=189744e6-4d0e-4b29-a759-97405959634e","ios":"levelo://app?vid=189744e6-4d0e-4b29-a759-97405959634e"},"vehicle_type_id":"4","last_reported":1683921990,"current_range_meters":20000,"station_id":"ce4bgup2rcd13ifvqcn0","pricing_plan_id":"free"},{"bike_id":"b73b427d-bfec-4184-9f87-acaf849dec36","system_id":"levelo_inurba_marseille","lat":43.304606,"lon":5.379026,"is_reserved":false,"is_disabled":false,"rental_uris":{"android":"levelo://app?vid=b73b427d-bfec-4184-9f87-acaf849dec36","ios":"levelo://app?vid=b73b427d-bfec-4184-9f87-acaf849dec36"},"vehicle_type_id":"4","last_reported":1683921990,"current_range_meters":8800,"station_id":"ce4bgup2rcd13ifvqcn0","pricing_plan_id":"free"},{"bike_id":"6b417967-582b-436b-ad6e-ffc1f27d4adf","system_id":"levelo_inurba_marseille","lat":43.304606,"lon":5.379026,"is_reserved":false,"is_disabled":false,"rental_uris":{"android":"levelo://app?vid=6b417967-582b-436b-ad6e-ffc1f27d4adf","ios":"levelo://app?vid=6b417967-582b-436b-ad6e-ffc1f27d4adf"},"vehicle_type_id":"4","last_reported":1683921990,"current_range_meters":4400,"station_id":"ce4bgup2rcd13ifvqcn0","pricing_plan_id":"free"},{"bike_id":"fbe30d85-cd8c-4ce9-b6b4-56ddaa9ac716","system_id":"levelo_inurba_marseille","lat":43.304606,"lon":5.379026,"is_reserved":false,"is_disabled":false,"rental_uris":{"android":"levelo://app?vid=fbe30d85-cd8c-4ce9-b6b4-56ddaa9ac716","ios":"levelo://app?vid=fbe30d85-cd8c-4ce9-b6b4-56ddaa9ac716"},"vehicle_type_id":"4","last_reported":1683921990,"current_range_meters":12400,"station_id":"ce4bgup2rcd13ifvqcn0","pricing_plan_id":"free"},{"bike_id":"1059aa30-032a-4f51-bef7-d23f98f9b6ed","system_id":"levelo_inurba_marseille","lat":43.304606,"lon":5.379026,"is_reserved":false,"is_disabled":false,"rental_uris":{"android":"levelo://app?vid=1059aa30-032a-4f51-bef7-d23f98f9b6ed","ios":"levelo://app?vid=1059aa30-032a-4f51-bef7-d23f98f9b6ed"},"vehicle_type_id":"4","last_reported":1683921990,"current_range_meters":4400,"station_id":"ce4bgup2rcd13ifvqcn0","pricing_plan_id":"free"},{"bike_id":"99d18565-aa1c-4d4c-ae9a-93d8cdec29d8","system_id":"levelo_inurba_marseille","lat":43.30137,"lon":5.37416,"is_reserved":false,"is_disabled":false,"rental_uris":{"android":"levelo://app?vid=99d18565-aa1c-4d4c-ae9a-93d8cdec29d8","ios":"levelo://app?vid=99d18565-aa1c-4d4c-ae9a-93d8cdec29d8"},"vehicle_type_id":"4","last_reported":1683921990,"current_range_meters":4800,"station_id":"","pricing_plan_id":"free"},{"bike_id":"cc641b6d-ddef-4ec2-995b-6022eb0bbba9","system_id":"levelo_inurba_marseille","lat":43.313571,"lon":5.384829,"is_reserved":false,"is_disabled":false,"rental_uris":{"android":"levelo://app?vid=cc641b6d-ddef-4ec2-995b-6022eb0bbba9","ios":"levelo://app?vid=cc641b6d-ddef-4ec2-995b-6022eb0bbba9"},"vehicle_type_id":"4","last_reported":1683921990,"current_range_meters":6800,"station_id":"ce4bgt92rcd13ifvqcf0","pricing_plan_id":"free"},{"bike_id":"7b078b9e-c23d-4032-8c31-635ffac6da3d","system_id":"levelo_inurba_marseille","lat":43.313571,"lon":5.384829,"is_reserved":false,"is_disabled":false,"rental_uris":{"android":"levelo://app?vid=7b078b9e-c23d-4032-8c31-635ffac6da3d","ios":"levelo://app?vid=7b078b9e-c23d-4032-8c31-635ffac6da3d"},"vehicle_type_id":"4","last_reported":1683921990,"current_range_meters":30400,"station_id":"ce4bgt92rcd13ifvqcf0","pricing_plan_id":"free"},{"bike_id":"c48b471b-2fd7-4fcc-8d30-0754b731bd1e","system_id":"levelo_inurba_marseille","lat":43.313571,"lon":5.384829,"is_reserved":false,"is_disabled":false,"rental_uris":{"android":"levelo://app?vid=c48b471b-2fd7-4fcc-8d30-0754b731bd1e","ios":"levelo://app?vid=c48b471b-2fd7-4fcc-8d30-0754b731bd1e"},"vehicle_type_id":"4","last_reported":1683921990,"current_range_meters":4800,"station_id":"ce4bgt92rcd13ifvqcf0","pricing_plan_id":"free"},{"bike_id":"1a0e24a8-4813-49d6-93a3-64ece64866b9","system_id":"levelo_inurba_marseille","lat":43.313571,"lon":5.384829,"is_reserved":false,"is_disabled":false,"rental_uris":{"android":"levelo://app?vid=1a0e24a8-4813-49d6-93a3-64ece64866b9","ios":"levelo://app?vid=1a0e24a8-4813-49d6-93a3-64ece64866b9"},"vehicle_type_id":"4","last_reported":1683921990,"current_range_meters":29200,"station_id":"ce4bgt92rcd13ifvqcf0","pricing_plan_id":"free"},{"bike_id":"7cb96f2b-4d7d-4999-8ea6-fb8af28e2677","system_id":"levelo_inurba_marseille","lat":43.313571,"lon":5.384829,"is_reserved":false,"is_disabled":false,"rental_uris":{"android":"levelo://app?vid=7cb96f2b-4d7d-4999-8ea6-fb8af28e2677","ios":"levelo://app?vid=7cb96f2b-4d7d-4999-8ea6-fb8af28e2677"},"vehicle_type_id":"4","last_reported":1683921990,"current_range_meters":400,"station_id":"ce4bgt92rcd13ifvqcf0","pricing_plan_id":"free"},{"bike_id":"34dd58d2-5b4a-4058-858a-71af70eb0ff0","system_id":"levelo_inurba_marseille","lat":43.313571,"lon":5.384829,"is_reserved":false,"is_disabled":false,"rental_uris":{"android":"levelo://app?vid=34dd58d2-5b4a-4058-858a-71af70eb0ff0","ios":"levelo://app?vid=34dd58d2-5b4a-4058-858a-71af70eb0ff0"},"vehicle_type_id":"4","last_reported":1683921990,"current_range_meters":23200,"station_id":"ce4bgt92rcd13ifvqcf0","pricing_plan_id":"free"},{"bike_id":"f2192669-b88f-4de1-8343-54919fc17577","system_id":"levelo_inurba_marseille","lat":43.313571,"lon":5.384829,"is_reserved":false,"is_disabled":false,"rental_uris":{"android":"levelo://app?vid=f2192669-b88f-4de1-8343-54919fc17577","ios":"levelo://app?vid=f2192669-b88f-4de1-8343-54919fc17577"},"vehicle_type_id":"4","last_reported":1683921990,"current_range_meters":2800,"station_id":"ce4bgt92rcd13ifvqcf0","pricing_plan_id":"free"},{"bike_id":"1346ce3e-2061-4ded-98f4-2cc2a2572cf5","system_id":"levelo_inurba_marseille","lat":43.313571,"lon":5.384829,"is_reserved":false,"is_disabled":false,"rental_uris":{"android":"levelo://app?vid=1346ce3e-2061-4ded-98f4-2cc2a2572cf5","ios":"levelo://app?vid=1346ce3e-2061-4ded-98f4-2cc2a2572cf5"},"vehicle_type_id":"4","last_reported":1683921990,"current_range_meters":31600,"station_id":"ce4bgt92rcd13ifvqcf0","pricing_plan_id":"free"},{"bike_id":"5af57c49-44f4-498d-bd20-313b26fa2a68","system_id":"levelo_inurba_marseille","lat":43.313571,"lon":5.384829,"is_reserved":false,"is_disabled":false,"rental_uris":{"android":"levelo://app?vid=5af57c49-44f4-498d-bd20-313b26fa2a68","ios":"levelo://app?vid=5af57c49-44f4-498d-bd20-313b26fa2a68"},"vehicle_type_id":"4","last_reported":1683921990,"current_range_meters":5600,"station_id":"ce4bgt92rcd13ifvqcf0","pricing_plan_id":"free"},{"bike_id":"c8bb951c-0042-4c1f-a1a2-435a07907d5d","system_id":"levelo_inurba_marseille","lat":43.313571,"lon":5.384829,"is_reserved":false,"is_disabled":false,"rental_uris":{"android":"levelo://app?vid=c8bb951c-0042-4c1f-a1a2-435a07907d5d","ios":"levelo://app?vid=c8bb951c-0042-4c1f-a1a2-435a07907d5d"},"vehicle_type_id":"4","last_reported":1683921990,"current_range_meters":2400,"station_id":"ce4bgt92rcd13ifvqcf0","pricing_plan_id":"free"},{"bike_id":"0bf72f1d-de80-4c8b-9eb2-8cbc9fe006e1","system_id":"levelo_inurba_marseille","lat":43.299222,"lon":5.365554,"is_reserved":false,"is_disabled":false,"rental_uris":{"android":"levelo://app?vid=0bf72f1d-de80-4c8b-9eb2-8cbc9fe006e1","ios":"levelo://app?vid=0bf72f1d-de80-4c8b-9eb2-8cbc9fe006e1"},"vehicle_type_id":"4","last_reported":1683921990,"current_range_meters":400,"station_id":"ce4bgm92rcd13ifvqbr0","pricing_plan_id":"free"},{"bike_id":"02f53e3d-6eae-4d26-873d-ed902c566d70","system_id":"levelo_inurba_marseille","lat":43.299222,"lon":5.365554,"is_reserved":false,"is_disabled":false,"rental_uris":{"android":"levelo://app?vid=02f53e3d-6eae-4d26-873d-ed902c566d70","ios":"levelo://app?vid=02f53e3d-6eae-4d26-873d-ed902c566d70"},"vehicle_type_id":"4","last_reported":1683921990,"current_range_meters":29600,"station_id":"ce4bgm92rcd13ifvqbr0","pricing_plan_id":"free"},{"bike_id":"10695ff3-b809-432a-ade6-de37dafeb753","system_id":"levelo_inurba_marseille","lat":43.299222,"lon":5.365554,"is_reserved":false,"is_disabled":false,"rental_uris":{"android":"levelo://app?vid=10695ff3-b809-432a-ade6-de37dafeb753","ios":"levelo://app?vid=10695ff3-b809-432a-ade6-de37dafeb753"},"vehicle_type_id":"4","last_reported":1683921990,"current_range_meters":1600,"station_id":"ce4bgm92rcd13ifvqbr0","pricing_plan_id":"free"},{"bike_id":"5052e49e-39a5-464e-9d3a-0decb191c2ea","system_id":"levelo_inurba_marseille","lat":43.299222,"lon":5.365554,"is_reserved":false,"is_disabled":false,"rental_uris":{"android":"levelo://app?vid=5052e49e-39a5-464e-9d3a-0decb191c2ea","ios":"levelo://app?vid=5052e49e-39a5-464e-9d3a-0decb191c2ea"},"vehicle_type_id":"4","last_reported":1683921990,"current_range_meters":18000,"station_id":"ce4bgm92rcd13ifvqbr0","pricing_plan_id":"free"},{"bike_id":"fb84b2ff-58ea-4f7d-84b7-6453c63edd20","system_id":"levelo_inurba_marseille","lat":43.299222,"lon":5.365554,"is_reserved":false,"is_disabled":false,"rental_uris":{"android":"levelo://app?vid=fb84b2ff-58ea-4f7d-84b7-6453c63edd20","ios":"levelo://app?vid=fb84b2ff-58ea-4f7d-84b7-6453c63edd20"},"vehicle_type_id":"4","last_reported":1683921990,"current_range_meters":0,"station_id":"ce4bgm92rcd13ifvqbr0","pricing_plan_id":"free"},{"bike_id":"62d1748d-9690-4ff3-a489-598e54b70cdf","system_id":"levelo_inurba_marseille","lat":43.298433,"lon":5.362774,"is_reserved":false,"is_disabled":false,"rental_uris":{"android":"levelo://app?vid=62d1748d-9690-4ff3-a489-598e54b70cdf","ios":"levelo://app?vid=62d1748d-9690-4ff3-a489-598e54b70cdf"},"vehicle_type_id":"4","last_reported":1683921990,"current_range_meters":0,"station_id":"ce4bgpp2rcd13ifvqc3g","pricing_plan_id":"free"},{"bike_id":"04cec791-b61f-419e-9e5d-0d0dc8e683d7","system_id":"levelo_inurba_marseille","lat":43.298433,"lon":5.362774,"is_reserved":false,"is_disabled":false,"rental_uris":{"android":"levelo://app?vid=04cec791-b61f-419e-9e5d-0d0dc8e683d7","ios":"levelo://app?vid=04cec791-b61f-419e-9e5d-0d0dc8e683d7"},"vehicle_type_id":"4","last_reported":1683921990,"current_range_meters":21600,"station_id":"ce4bgpp2rcd13ifvqc3g","pricing_plan_id":"free"},{"bike_id":"e87e495e-a2d5-4fce-8868-3569f65f7d53","system_id":"levelo_inurba_marseille","lat":43.298433,"lon":5.362774,"is_reserved":false,"is_disabled":false,"rental_uris":{"android":"levelo://app?vid=e87e495e-a2d5-4fce-8868-3569f65f7d53","ios":"levelo://app?vid=e87e495e-a2d5-4fce-8868-3569f65f7d53"},"vehicle_type_id":"4","last_reported":1683921990,"current_range_meters":3200,"station_id":"ce4bgpp2rcd13ifvqc3g","pricing_plan_id":"free"},{"bike_id":"ce1b2a64-a787-4cfc-80d4-29f9c2597d43","system_id":"levelo_inurba_marseille","lat":43.298433,"lon":5.362774,"is_reserved":false,"is_disabled":false,"rental_uris":{"android":"levelo://app?vid=ce1b2a64-a787-4cfc-80d4-29f9c2597d43","ios":"levelo://app?vid=ce1b2a64-a787-4cfc-80d4-29f9c2597d43"},"vehicle_type_id":"4","last_reported":1683921990,"current_range_meters":29200,"station_id":"ce4bgpp2rcd13ifvqc3g","pricing_plan_id":"free"},{"bike_id":"401cea05-e15d-4a97-81c8-ee7d2a1f7f1a","system_id":"levelo_inurba_marseille","lat":43.298433,"lon":5.362774,"is_reserved":false,"is_disabled":false,"rental_uris":{"android":"levelo://app?vid=401cea05-e15d-4a97-81c8-ee7d2a1f7f1a","ios":"levelo://app?vid=401cea05-e15d-4a97-81c8-ee7d2a1f7f1a"},"vehicle_type_id":"4","last_reported":1683921990,"current_range_meters":6000,"station_id":"ce4bgpp2rcd13ifvqc3g","pricing_plan_id":"free"},{"bike_id":"cc462b2c-ce31-4224-8ac8-89fc370a7907","system_id":"levelo_inurba_marseille","lat":43.29917,"lon":5.37466,"is_reserved":false,"is_disabled":false,"rental_uris":{"android":"levelo://app?vid=cc462b2c-ce31-4224-8ac8-89fc370a7907","ios":"levelo://app?vid=cc462b2c-ce31-4224-8ac8-89fc370a7907"},"vehicle_type_id":"4","last_reported":1683921990,"current_range_meters":0,"station_id":"ce4bgjh2rcd13ifvqbg0","pricing_plan_id":"free"},{"bike_id":"d50cb2aa-615b-465d-9c24-f89ac67d7967","system_id":"levelo_inurba_marseille","lat":43.31165,"lon":5.38713,"is_reserved":false,"is_disabled":false,"rental_uris":{"android":"levelo://app?vid=d50cb2aa-615b-465d-9c24-f89ac67d7967","ios":"levelo://app?vid=d50cb2aa-615b-465d-9c24-f89ac67d7967"},"vehicle_type_id":"4","last_reported":1683921990,"current_range_meters":5200,"station_id":"ce4bgv12rcd13ifvqcp0","pricing_plan_id":"free"},{"bike_id":"2f96f4b7-d3f1-4b87-b98f-caf50ba6d13d","system_id":"levelo_inurba_marseille","lat":43.3276,"lon":5.36699,"is_reserved":false,"is_disabled":false,"rental_uris":{"android":"levelo://app?vid=2f96f4b7-d3f1-4b87-b98f-caf50ba6d13d","ios":"levelo://app?vid=2f96f4b7-d3f1-4b87-b98f-caf50ba6d13d"},"vehicle_type_id":"4","last_reported":1683921990,"current_range_meters":15200,"station_id":"","pricing_plan_id":"free"},{"bike_id":"8df4cdb4-aa7f-4ed6-a494-dcba227c189f","system_id":"levelo_inurba_marseille","lat":43.297774,"lon":5.370875,"is_reserved":false,"is_disabled":false,"rental_uris":{"android":"levelo://app?vid=8df4cdb4-aa7f-4ed6-a494-dcba227c189f","ios":"levelo://app?vid=8df4cdb4-aa7f-4ed6-a494-dcba227c189f"},"vehicle_type_id":"4","last_reported":1683921990,"current_range_meters":6000,"station_id":"ce4bgop2rcd13ifvqc1g","pricing_plan_id":"free"},{"bike_id":"61c0ef26-ecfd-48b1-9af1-0a365bf05de8","system_id":"levelo_inurba_marseille","lat":43.297794,"lon":5.370888,"is_reserved":false,"is_disabled":false,"rental_uris":{"android":"levelo://app?vid=61c0ef26-ecfd-48b1-9af1-0a365bf05de8","ios":"levelo://app?vid=61c0ef26-ecfd-48b1-9af1-0a365bf05de8"},"vehicle_type_id":"4","last_reported":1683921990,"current_range_meters":9600,"station_id":"ce4bgop2rcd13ifvqc1g","pricing_plan_id":"free"},{"bike_id":"c7034e41-23d5-4534-bc14-c716046c6963","system_id":"levelo_inurba_marseille","lat":43.297774,"lon":5.370875,"is_reserved":false,"is_disabled":false,"rental_uris":{"android":"levelo://app?vid=c7034e41-23d5-4534-bc14-c716046c6963","ios":"levelo://app?vid=c7034e41-23d5-4534-bc14-c716046c6963"},"vehicle_type_id":"4","last_reported":1683921990,"current_range_meters":16000,"station_id":"ce4bgop2rcd13ifvqc1g","pricing_plan_id":"free"},{"bike_id":"3124275c-f383-4b76-ad05-39c8ea84d4a1","system_id":"levelo_inurba_marseille","lat":43.29773,"lon":5.3711,"is_reserved":false,"is_disabled":false,"rental_uris":{"android":"levelo://app?vid=3124275c-f383-4b76-ad05-39c8ea84d4a1","ios":"levelo://app?vid=3124275c-f383-4b76-ad05-39c8ea84d4a1"},"vehicle_type_id":"4","last_reported":1683921990,"current_range_meters":18800,"station_id":"ce4bgop2rcd13ifvqc1g","pricing_plan_id":"free"},{"bike_id":"039f1865-d48c-4b13-ae90-47c343bb104d","system_id":"levelo_inurba_marseille","lat":43.297794,"lon":5.370888,"is_reserved":false,"is_disabled":false,"rental_uris":{"android":"levelo://app?vid=039f1865-d48c-4b13-ae90-47c343bb104d","ios":"levelo://app?vid=039f1865-d48c-4b13-ae90-47c343bb104d"},"vehicle_type_id":"4","last_reported":1683921990,"current_range_meters":31600,"station_id":"ce4bgop2rcd13ifvqc1g","pricing_plan_id":"free"},{"bike_id":"35c64b45-67cb-4db8-8dde-84eb3cae14a9","system_id":"levelo_inurba_marseille","lat":43.328371,"lon":5.366912,"is_reserved":false,"is_disabled":false,"rental_uris":{"android":"levelo://app?vid=35c64b45-67cb-4db8-8dde-84eb3cae14a9","ios":"levelo://app?vid=35c64b45-67cb-4db8-8dde-84eb3cae14a9"},"vehicle_type_id":"4","last_reported":1683921990,"current_range_meters":31200,"station_id":"ce4bhs92rcd13ifvqi0g","pricing_plan_id":"free"},{"bike_id":"2f534b25-3d76-4ad4-bcb9-91101064834c","system_id":"levelo_inurba_marseille","lat":43.328371,"lon":5.366912,"is_reserved":false,"is_disabled":false,"rental_uris":{"android":"levelo://app?vid=2f534b25-3d76-4ad4-bcb9-91101064834c","ios":"levelo://app?vid=2f534b25-3d76-4ad4-bcb9-91101064834c"},"vehicle_type_id":"4","last_reported":1683921990,"current_range_meters":20800,"station_id":"ce4bhs92rcd13ifvqi0g","pricing_plan_id":"free"},{"bike_id":"05dd3660-fb8d-4649-b95f-77a48f876534","system_id":"levelo_inurba_marseille","lat":43.32831,"lon":5.36677,"is_reserved":false,"is_disabled":false,"rental_uris":{"android":"levelo://app?vid=05dd3660-fb8d-4649-b95f-77a48f876534","ios":"levelo://app?vid=05dd3660-fb8d-4649-b95f-77a48f876534"},"vehicle_type_id":"4","last_reported":1683921990,"current_range_meters":5600,"station_id":"ce4bhs92rcd13ifvqi0g","pricing_plan_id":"free"},{"bike_id":"053fa0fe-d0b8-4b77-9e9a-95a5b916daf2","system_id":"levelo_inurba_marseille","lat":43.328371,"lon":5.366912,"is_reserved":false,"is_disabled":false,"rental_uris":{"android":"levelo://app?vid=053fa0fe-d0b8-4b77-9e9a-95a5b916daf2","ios":"levelo://app?vid=053fa0fe-d0b8-4b77-9e9a-95a5b916daf2"},"vehicle_type_id":"4","last_reported":1683921990,"current_range_meters":3600,"station_id":"ce4bhs92rcd13ifvqi0g","pricing_plan_id":"free"},{"bike_id":"8ea15e6b-0302-4f6b-a369-2130aebae5f9","system_id":"levelo_inurba_marseille","lat":43.328371,"lon":5.366912,"is_reserved":false,"is_disabled":false,"rental_uris":{"android":"levelo://app?vid=8ea15e6b-0302-4f6b-a369-2130aebae5f9","ios":"levelo://app?vid=8ea15e6b-0302-4f6b-a369-2130aebae5f9"},"vehicle_type_id":"4","last_reported":1683921990,"current_range_meters":16000,"station_id":"ce4bhs92rcd13ifvqi0g","pricing_plan_id":"free"},{"bike_id":"2ede4aa6-cb68-4708-8adb-810b72dccf8e","system_id":"levelo_inurba_marseille","lat":43.328371,"lon":5.366912,"is_reserved":false,"is_disabled":false,"rental_uris":{"android":"levelo://app?vid=2ede4aa6-cb68-4708-8adb-810b72dccf8e","ios":"levelo://app?vid=2ede4aa6-cb68-4708-8adb-810b72dccf8e"},"vehicle_type_id":"4","last_reported":1683921990,"current_range_meters":8400,"station_id":"ce4bhs92rcd13ifvqi0g","pricing_plan_id":"free"},{"bike_id":"657f0105-52b4-4838-a4a8-251d3326cfcf","system_id":"levelo_inurba_marseille","lat":43.29717,"lon":5.366,"is_reserved":false,"is_disabled":false,"rental_uris":{"android":"levelo://app?vid=657f0105-52b4-4838-a4a8-251d3326cfcf","ios":"levelo://app?vid=657f0105-52b4-4838-a4a8-251d3326cfcf"},"vehicle_type_id":"4","last_reported":1683921990,"current_range_meters":6000,"station_id":"ce4bgn12rcd13ifvqbt0","pricing_plan_id":"free"},{"bike_id":"0a5c6e50-cd6f-4800-a0e5-993347926bc8","system_id":"levelo_inurba_marseille","lat":43.328371,"lon":5.366912,"is_reserved":false,"is_disabled":false,"rental_uris":{"android":"levelo://app?vid=0a5c6e50-cd6f-4800-a0e5-993347926bc8","ios":"levelo://app?vid=0a5c6e50-cd6f-4800-a0e5-993347926bc8"},"vehicle_type_id":"4","last_reported":1683921990,"current_range_meters":15200,"station_id":"ce4bhs92rcd13ifvqi0g","pricing_plan_id":"free"},{"bike_id":"86719306-0ddc-4576-a656-570a4d550f46","system_id":"levelo_inurba_marseille","lat":43.328371,"lon":5.366912,"is_reserved":false,"is_disabled":false,"rental_uris":{"android":"levelo://app?vid=86719306-0ddc-4576-a656-570a4d550f46","ios":"levelo://app?vid=86719306-0ddc-4576-a656-570a4d550f46"},"vehicle_type_id":"4","last_reported":1683921990,"current_range_meters":31200,"station_id":"ce4bhs92rcd13ifvqi0g","pricing_plan_id":"free"},{"bike_id":"913431a8-e34c-4ef3-9af0-c079a3c577f7","system_id":"levelo_inurba_marseille","lat":43.29703,"lon":5.36603,"is_reserved":false,"is_disabled":false,"rental_uris":{"android":"levelo://app?vid=913431a8-e34c-4ef3-9af0-c079a3c577f7","ios":"levelo://app?vid=913431a8-e34c-4ef3-9af0-c079a3c577f7"},"vehicle_type_id":"4","last_reported":1683921990,"current_range_meters":17200,"station_id":"","pricing_plan_id":"free"},{"bike_id":"333ef2f4-70f8-4d81-b7a6-da9ccf4351e0","system_id":"levelo_inurba_marseille","lat":43.29703,"lon":5.3658,"is_reserved":false,"is_disabled":false,"rental_uris":{"android":"levelo://app?vid=333ef2f4-70f8-4d81-b7a6-da9ccf4351e0","ios":"levelo://app?vid=333ef2f4-70f8-4d81-b7a6-da9ccf4351e0"},"vehicle_type_id":"4","last_reported":1683921990,"current_range_meters":6800,"station_id":"","pricing_plan_id":"free"},{"bike_id":"4a096e15-5565-4671-b17d-f21825af3566","system_id":"levelo_inurba_marseille","lat":43.29701,"lon":5.36611,"is_reserved":false,"is_disabled":false,"rental_uris":{"android":"levelo://app?vid=4a096e15-5565-4671-b17d-f21825af3566","ios":"levelo://app?vid=4a096e15-5565-4671-b17d-f21825af3566"},"vehicle_type_id":"4","last_reported":1683921990,"current_range_meters":16800,"station_id":"","pricing_plan_id":"free"},{"bike_id":"f2102b10-c4be-4d9d-ad5b-18223aee68f5","system_id":"levelo_inurba_marseille","lat":43.296277,"lon":5.377108,"is_reserved":false,"is_disabled":false,"rental_uris":{"android":"levelo://app?vid=f2102b10-c4be-4d9d-ad5b-18223aee68f5","ios":"levelo://app?vid=f2102b10-c4be-4d9d-ad5b-18223aee68f5"},"vehicle_type_id":"4","last_reported":1683921990,"current_range_meters":13200,"station_id":"ce4bgi92rcd13ifvqb90","pricing_plan_id":"free"},{"bike_id":"6448c133-4cd4-412c-ab72-14f60d954e8f","system_id":"levelo_inurba_marseille","lat":43.31534,"lon":5.38923,"is_reserved":false,"is_disabled":false,"rental_uris":{"android":"levelo://app?vid=6448c133-4cd4-412c-ab72-14f60d954e8f","ios":"levelo://app?vid=6448c133-4cd4-412c-ab72-14f60d954e8f"},"vehicle_type_id":"4","last_reported":1683921990,"current_range_meters":29200,"station_id":"","pricing_plan_id":"free"},{"bike_id":"d30dc516-9b64-4508-b9a8-2c183d21764c","system_id":"levelo_inurba_marseille","lat":43.2968,"lon":5.37291,"is_reserved":false,"is_disabled":false,"rental_uris":{"android":"levelo://app?vid=d30dc516-9b64-4508-b9a8-2c183d21764c","ios":"levelo://app?vid=d30dc516-9b64-4508-b9a8-2c183d21764c"},"vehicle_type_id":"4","last_reported":1683921990,"current_range_meters":26800,"station_id":"ce4bgk12rcd13ifvqbj0","pricing_plan_id":"free"},{"bike_id":"bf650020-c948-4992-9a50-b18ee45d0e62","system_id":"levelo_inurba_marseille","lat":43.296131,"lon":5.370791,"is_reserved":false,"is_disabled":false,"rental_uris":{"android":"levelo://app?vid=bf650020-c948-4992-9a50-b18ee45d0e62","ios":"levelo://app?vid=bf650020-c948-4992-9a50-b18ee45d0e62"},"vehicle_type_id":"4","last_reported":1683921990,"current_range_meters":30400,"station_id":"ce4bgnh2rcd13ifvqc0g","pricing_plan_id":"free"},{"bike_id":"69943245-a356-4d5c-b0a9-cd3bd6aa4169","system_id":"levelo_inurba_marseille","lat":43.296129,"lon":5.370777,"is_reserved":false,"is_disabled":false,"rental_uris":{"android":"levelo://app?vid=69943245-a356-4d5c-b0a9-cd3bd6aa4169","ios":"levelo://app?vid=69943245-a356-4d5c-b0a9-cd3bd6aa4169"},"vehicle_type_id":"4","last_reported":1683921990,"current_range_meters":18800,"station_id":"ce4bgnh2rcd13ifvqc0g","pricing_plan_id":"free"},{"bike_id":"87d9db48-8f90-4623-afa9-94c060ccc844","system_id":"levelo_inurba_marseille","lat":43.296131,"lon":5.370791,"is_reserved":false,"is_disabled":false,"rental_uris":{"android":"levelo://app?vid=87d9db48-8f90-4623-afa9-94c060ccc844","ios":"levelo://app?vid=87d9db48-8f90-4623-afa9-94c060ccc844"},"vehicle_type_id":"4","last_reported":1683921990,"current_range_meters":31600,"station_id":"ce4bgnh2rcd13ifvqc0g","pricing_plan_id":"free"},{"bike_id":"adb29a28-6bd0-44ab-a7a0-8d8f83ff43c9","system_id":"levelo_inurba_marseille","lat":43.296131,"lon":5.370791,"is_reserved":false,"is_disabled":false,"rental_uris":{"android":"levelo://app?vid=adb29a28-6bd0-44ab-a7a0-8d8f83ff43c9","ios":"levelo://app?vid=adb29a28-6bd0-44ab-a7a0-8d8f83ff43c9"},"vehicle_type_id":"4","last_reported":1683921990,"current_range_meters":31200,"station_id":"ce4bgnh2rcd13ifvqc0g","pricing_plan_id":"free"},{"bike_id":"2b31baa4-21a2-4556-b1a4-caebcd41042d","system_id":"levelo_inurba_marseille","lat":43.296131,"lon":5.370791,"is_reserved":false,"is_disabled":false,"rental_uris":{"android":"levelo://app?vid=2b31baa4-21a2-4556-b1a4-caebcd41042d","ios":"levelo://app?vid=2b31baa4-21a2-4556-b1a4-caebcd41042d"},"vehicle_type_id":"4","last_reported":1683921990,"current_range_meters":22800,"station_id":"ce4bgnh2rcd13ifvqc0g","pricing_plan_id":"free"},{"bike_id":"29df4f9b-9a8e-46c6-a387-38913f6a487f","system_id":"levelo_inurba_marseille","lat":43.29573,"lon":5.367355,"is_reserved":false,"is_disabled":false,"rental_uris":{"android":"levelo://app?vid=29df4f9b-9a8e-46c6-a387-38913f6a487f","ios":"levelo://app?vid=29df4f9b-9a8e-46c6-a387-38913f6a487f"},"vehicle_type_id":"4","last_reported":1683921990,"current_range_meters":27600,"station_id":"ce4bgph2rcd13ifvqc2g","pricing_plan_id":"free"},{"bike_id":"ee3cf97d-faf9-43db-8b69-0126565b8d7f","system_id":"levelo_inurba_marseille","lat":43.296131,"lon":5.370791,"is_reserved":false,"is_disabled":false,"rental_uris":{"android":"levelo://app?vid=ee3cf97d-faf9-43db-8b69-0126565b8d7f","ios":"levelo://app?vid=ee3cf97d-faf9-43db-8b69-0126565b8d7f"},"vehicle_type_id":"4","last_reported":1683921990,"current_range_meters":26400,"station_id":"ce4bgnh2rcd13ifvqc0g","pricing_plan_id":"free"},{"bike_id":"ac8b4084-db61-4d89-b92e-6ca89b158f9a","system_id":"levelo_inurba_marseille","lat":43.296131,"lon":5.370791,"is_reserved":false,"is_disabled":false,"rental_uris":{"android":"levelo://app?vid=ac8b4084-db61-4d89-b92e-6ca89b158f9a","ios":"levelo://app?vid=ac8b4084-db61-4d89-b92e-6ca89b158f9a"},"vehicle_type_id":"4","last_reported":1683921990,"current_range_meters":24000,"station_id":"ce4bgnh2rcd13ifvqc0g","pricing_plan_id":"free"},{"bike_id":"50e67c30-2c3e-48cc-b035-37d7a4c4b5da","system_id":"levelo_inurba_marseille","lat":43.29573,"lon":5.367355,"is_reserved":false,"is_disabled":false,"rental_uris":{"android":"levelo://app?vid=50e67c30-2c3e-48cc-b035-37d7a4c4b5da","ios":"levelo://app?vid=50e67c30-2c3e-48cc-b035-37d7a4c4b5da"},"vehicle_type_id":"4","last_reported":1683921990,"current_range_meters":31200,"station_id":"ce4bgph2rcd13ifvqc2g","pricing_plan_id":"free"},{"bike_id":"833c81a4-b863-4df2-a297-0e5f96339d18","system_id":"levelo_inurba_marseille","lat":43.296131,"lon":5.370791,"is_reserved":false,"is_disabled":false,"rental_uris":{"android":"levelo://app?vid=833c81a4-b863-4df2-a297-0e5f96339d18","ios":"levelo://app?vid=833c81a4-b863-4df2-a297-0e5f96339d18"},"vehicle_type_id":"4","last_reported":1683921990,"current_range_meters":26000,"station_id":"ce4bgnh2rcd13ifvqc0g","pricing_plan_id":"free"},{"bike_id":"c5970250-82c7-4db6-abe2-66ce7e2902fa","system_id":"levelo_inurba_marseille","lat":43.296131,"lon":5.370791,"is_reserved":false,"is_disabled":false,"rental_uris":{"android":"levelo://app?vid=c5970250-82c7-4db6-abe2-66ce7e2902fa","ios":"levelo://app?vid=c5970250-82c7-4db6-abe2-66ce7e2902fa"},"vehicle_type_id":"4","last_reported":1683921990,"current_range_meters":31200,"station_id":"ce4bgnh2rcd13ifvqc0g","pricing_plan_id":"free"},{"bike_id":"56322e71-d46d-4416-8c4f-6821c7ce248c","system_id":"levelo_inurba_marseille","lat":43.29573,"lon":5.367355,"is_reserved":false,"is_disabled":false,"rental_uris":{"android":"levelo://app?vid=56322e71-d46d-4416-8c4f-6821c7ce248c","ios":"levelo://app?vid=56322e71-d46d-4416-8c4f-6821c7ce248c"},"vehicle_type_id":"4","last_reported":1683921990,"current_range_meters":30800,"station_id":"ce4bgph2rcd13ifvqc2g","pricing_plan_id":"free"},{"bike_id":"0cc340bf-6bf8-4934-ad7d-f67159853fb3","system_id":"levelo_inurba_marseille","lat":43.29573,"lon":5.367355,"is_reserved":false,"is_disabled":false,"rental_uris":{"android":"levelo://app?vid=0cc340bf-6bf8-4934-ad7d-f67159853fb3","ios":"levelo://app?vid=0cc340bf-6bf8-4934-ad7d-f67159853fb3"},"vehicle_type_id":"4","last_reported":1683921990,"current_range_meters":9200,"station_id":"ce4bgph2rcd13ifvqc2g","pricing_plan_id":"free"},{"bike_id":"6ed5384d-36cb-4489-ac8c-82ae15429743","system_id":"levelo_inurba_marseille","lat":43.29573,"lon":5.367355,"is_reserved":false,"is_disabled":false,"rental_uris":{"android":"levelo://app?vid=6ed5384d-36cb-4489-ac8c-82ae15429743","ios":"levelo://app?vid=6ed5384d-36cb-4489-ac8c-82ae15429743"},"vehicle_type_id":"4","last_reported":1683921990,"current_range_meters":24000,"station_id":"ce4bgph2rcd13ifvqc2g","pricing_plan_id":"free"},{"bike_id":"e62a4019-15e5-4aa8-ac87-39c5d1aaa8ba","system_id":"levelo_inurba_marseille","lat":43.3,"lon":5.38262,"is_reserved":false,"is_disabled":false,"rental_uris":{"android":"levelo://app?vid=e62a4019-15e5-4aa8-ac87-39c5d1aaa8ba","ios":"levelo://app?vid=e62a4019-15e5-4aa8-ac87-39c5d1aaa8ba"},"vehicle_type_id":"4","last_reported":1683921990,"current_range_meters":2800,"station_id":"","pricing_plan_id":"free"},{"bike_id":"8cba4782-d4a9-4be8-b6ba-10baf7512c12","system_id":"levelo_inurba_marseille","lat":43.296921,"lon":5.376579,"is_reserved":false,"is_disabled":false,"rental_uris":{"android":"levelo://app?vid=8cba4782-d4a9-4be8-b6ba-10baf7512c12","ios":"levelo://app?vid=8cba4782-d4a9-4be8-b6ba-10baf7512c12"},"vehicle_type_id":"4","last_reported":1683921990,"current_range_meters":11200,"station_id":"ce4bgkh2rcd13ifvqbl0","pricing_plan_id":"free"},{"bike_id":"b6a06609-5943-4ce8-a69e-0705d569f5a9","system_id":"levelo_inurba_marseille","lat":43.299028,"lon":5.381509,"is_reserved":false,"is_disabled":false,"rental_uris":{"android":"levelo://app?vid=b6a06609-5943-4ce8-a69e-0705d569f5a9","ios":"levelo://app?vid=b6a06609-5943-4ce8-a69e-0705d569f5a9"},"vehicle_type_id":"4","last_reported":1683921990,"current_range_meters":0,"station_id":"ce4bgj12rcd13ifvqbc0","pricing_plan_id":"free"},{"bike_id":"8d249c4e-5841-43df-a8c1-1ee71a14ff90","system_id":"levelo_inurba_marseille","lat":43.317557,"lon":5.390173,"is_reserved":false,"is_disabled":false,"rental_uris":{"android":"levelo://app?vid=8d249c4e-5841-43df-a8c1-1ee71a14ff90","ios":"levelo://app?vid=8d249c4e-5841-43df-a8c1-1ee71a14ff90"},"vehicle_type_id":"4","last_reported":1683921990,"current_range_meters":4400,"station_id":"ce4bhqp2rcd13ifvqhng","pricing_plan_id":"free"},{"bike_id":"dd1c1a76-3fb2-4e01-9b5d-f3e6dd4c9e52","system_id":"levelo_inurba_marseille","lat":43.31756,"lon":5.39012,"is_reserved":false,"is_disabled":false,"rental_uris":{"android":"levelo://app?vid=dd1c1a76-3fb2-4e01-9b5d-f3e6dd4c9e52","ios":"levelo://app?vid=dd1c1a76-3fb2-4e01-9b5d-f3e6dd4c9e52"},"vehicle_type_id":"4","last_reported":1683921990,"current_range_meters":21200,"station_id":"ce4bhqp2rcd13ifvqhng","pricing_plan_id":"free"},{"bike_id":"ebb64d41-4b06-49bb-a55c-b83574a6111f","system_id":"levelo_inurba_marseille","lat":43.317557,"lon":5.390173,"is_reserved":false,"is_disabled":false,"rental_uris":{"android":"levelo://app?vid=ebb64d41-4b06-49bb-a55c-b83574a6111f","ios":"levelo://app?vid=ebb64d41-4b06-49bb-a55c-b83574a6111f"},"vehicle_type_id":"4","last_reported":1683921990,"current_range_meters":5200,"station_id":"ce4bhqp2rcd13ifvqhng","pricing_plan_id":"free"},{"bike_id":"1b8e8455-d974-44bb-9a4e-7e7867c76231","system_id":"levelo_inurba_marseille","lat":43.31749,"lon":5.39017,"is_reserved":false,"is_disabled":false,"rental_uris":{"android":"levelo://app?vid=1b8e8455-d974-44bb-9a4e-7e7867c76231","ios":"levelo://app?vid=1b8e8455-d974-44bb-9a4e-7e7867c76231"},"vehicle_type_id":"4","last_reported":1683921990,"current_range_meters":20400,"station_id":"ce4bhqp2rcd13ifvqhng","pricing_plan_id":"free"},{"bike_id":"80b60f6f-28ee-4635-a30c-377c46bb9c86","system_id":"levelo_inurba_marseille","lat":43.317557,"lon":5.390173,"is_reserved":false,"is_disabled":false,"rental_uris":{"android":"levelo://app?vid=80b60f6f-28ee-4635-a30c-377c46bb9c86","ios":"levelo://app?vid=80b60f6f-28ee-4635-a30c-377c46bb9c86"},"vehicle_type_id":"4","last_reported":1683921990,"current_range_meters":19600,"station_id":"ce4bhqp2rcd13ifvqhng","pricing_plan_id":"free"},{"bike_id":"d7247fae-7e22-4583-aa1c-14ab5ad419c9","system_id":"levelo_inurba_marseille","lat":43.317557,"lon":5.390173,"is_reserved":false,"is_disabled":false,"rental_uris":{"android":"levelo://app?vid=d7247fae-7e22-4583-aa1c-14ab5ad419c9","ios":"levelo://app?vid=d7247fae-7e22-4583-aa1c-14ab5ad419c9"},"vehicle_type_id":"4","last_reported":1683921990,"current_range_meters":15200,"station_id":"ce4bhqp2rcd13ifvqhng","pricing_plan_id":"free"},{"bike_id":"536c91de-508f-41d3-bf9e-c825307fadf9","system_id":"levelo_inurba_marseille","lat":43.31756,"lon":5.3902,"is_reserved":false,"is_disabled":false,"rental_uris":{"android":"levelo://app?vid=536c91de-508f-41d3-bf9e-c825307fadf9","ios":"levelo://app?vid=536c91de-508f-41d3-bf9e-c825307fadf9"},"vehicle_type_id":"4","last_reported":1683921990,"current_range_meters":0,"station_id":"ce4bhqp2rcd13ifvqhng","pricing_plan_id":"free"},{"bike_id":"01208a13-824a-4a94-be8d-2a48a5b6b683","system_id":"levelo_inurba_marseille","lat":43.31751,"lon":5.39026,"is_reserved":false,"is_disabled":false,"rental_uris":{"android":"levelo://app?vid=01208a13-824a-4a94-be8d-2a48a5b6b683","ios":"levelo://app?vid=01208a13-824a-4a94-be8d-2a48a5b6b683"},"vehicle_type_id":"4","last_reported":1683921990,"current_range_meters":12000,"station_id":"ce4bhqp2rcd13ifvqhng","pricing_plan_id":"free"},{"bike_id":"69b33fc9-5b01-46b0-8e35-ee165d0ce937","system_id":"levelo_inurba_marseille","lat":43.298037,"lon":5.381066,"is_reserved":false,"is_disabled":false,"rental_uris":{"android":"levelo://app?vid=69b33fc9-5b01-46b0-8e35-ee165d0ce937","ios":"levelo://app?vid=69b33fc9-5b01-46b0-8e35-ee165d0ce937"},"vehicle_type_id":"4","last_reported":1683921990,"current_range_meters":8400,"station_id":"ce4bgip2rcd13ifvqbb0","pricing_plan_id":"free"},{"bike_id":"ab78e93b-d526-4737-9aa5-8152bbf1c7bd","system_id":"levelo_inurba_marseille","lat":43.298037,"lon":5.381066,"is_reserved":false,"is_disabled":false,"rental_uris":{"android":"levelo://app?vid=ab78e93b-d526-4737-9aa5-8152bbf1c7bd","ios":"levelo://app?vid=ab78e93b-d526-4737-9aa5-8152bbf1c7bd"},"vehicle_type_id":"4","last_reported":1683921990,"current_range_meters":28000,"station_id":"ce4bgip2rcd13ifvqbb0","pricing_plan_id":"free"},{"bike_id":"22c50cae-6e91-4c77-b2a6-e7b5245865ff","system_id":"levelo_inurba_marseille","lat":43.2979,"lon":5.38111,"is_reserved":false,"is_disabled":false,"rental_uris":{"android":"levelo://app?vid=22c50cae-6e91-4c77-b2a6-e7b5245865ff","ios":"levelo://app?vid=22c50cae-6e91-4c77-b2a6-e7b5245865ff"},"vehicle_type_id":"4","last_reported":1683921990,"current_range_meters":16400,"station_id":"ce4bgip2rcd13ifvqbb0","pricing_plan_id":"free"},{"bike_id":"70bf5177-4813-4717-9e4d-e60d7a566499","system_id":"levelo_inurba_marseille","lat":43.29791,"lon":5.38115,"is_reserved":false,"is_disabled":false,"rental_uris":{"android":"levelo://app?vid=70bf5177-4813-4717-9e4d-e60d7a566499","ios":"levelo://app?vid=70bf5177-4813-4717-9e4d-e60d7a566499"},"vehicle_type_id":"4","last_reported":1683921990,"current_range_meters":6000,"station_id":"ce4bgip2rcd13ifvqbb0","pricing_plan_id":"free"},{"bike_id":"fcfbc55a-3c5c-4181-a7d9-785d37c96492","system_id":"levelo_inurba_marseille","lat":43.296277,"lon":5.377108,"is_reserved":false,"is_disabled":false,"rental_uris":{"android":"levelo://app?vid=fcfbc55a-3c5c-4181-a7d9-785d37c96492","ios":"levelo://app?vid=fcfbc55a-3c5c-4181-a7d9-785d37c96492"},"vehicle_type_id":"4","last_reported":1683921990,"current_range_meters":18400,"station_id":"ce4bgi92rcd13ifvqb90","pricing_plan_id":"free"},{"bike_id":"e0947b6a-2b6b-465e-aeed-b13fce6fa680","system_id":"levelo_inurba_marseille","lat":43.299724,"lon":5.384848,"is_reserved":false,"is_disabled":false,"rental_uris":{"android":"levelo://app?vid=e0947b6a-2b6b-465e-aeed-b13fce6fa680","ios":"levelo://app?vid=e0947b6a-2b6b-465e-aeed-b13fce6fa680"},"vehicle_type_id":"4","last_reported":1683921990,"current_range_meters":17600,"station_id":"ce4bgj92rcd13ifvqbd0","pricing_plan_id":"free"},{"bike_id":"d161dc49-f060-4fb3-b3c0-16ed6c19b531","system_id":"levelo_inurba_marseille","lat":43.299724,"lon":5.384848,"is_reserved":false,"is_disabled":false,"rental_uris":{"android":"levelo://app?vid=d161dc49-f060-4fb3-b3c0-16ed6c19b531","ios":"levelo://app?vid=d161dc49-f060-4fb3-b3c0-16ed6c19b531"},"vehicle_type_id":"4","last_reported":1683921990,"current_range_meters":10400,"station_id":"ce4bgj92rcd13ifvqbd0","pricing_plan_id":"free"},{"bike_id":"95e4700f-551b-4c0e-ace8-0a773af6fa43","system_id":"levelo_inurba_marseille","lat":43.299724,"lon":5.384848,"is_reserved":false,"is_disabled":false,"rental_uris":{"android":"levelo://app?vid=95e4700f-551b-4c0e-ace8-0a773af6fa43","ios":"levelo://app?vid=95e4700f-551b-4c0e-ace8-0a773af6fa43"},"vehicle_type_id":"4","last_reported":1683921990,"current_range_meters":29600,"station_id":"ce4bgj92rcd13ifvqbd0","pricing_plan_id":"free"},{"bike_id":"24790df7-eac9-4553-9b94-e5b3811c6049","system_id":"levelo_inurba_marseille","lat":43.29958,"lon":5.38496,"is_reserved":false,"is_disabled":false,"rental_uris":{"android":"levelo://app?vid=24790df7-eac9-4553-9b94-e5b3811c6049","ios":"levelo://app?vid=24790df7-eac9-4553-9b94-e5b3811c6049"},"vehicle_type_id":"4","last_reported":1683921990,"current_range_meters":29200,"station_id":"ce4bgj92rcd13ifvqbd0","pricing_plan_id":"free"},{"bike_id":"c48555a0-4e73-4a69-a51e-0a140f6399f5","system_id":"levelo_inurba_marseille","lat":43.295279,"lon":5.375048,"is_reserved":false,"is_disabled":false,"rental_uris":{"android":"levelo://app?vid=c48555a0-4e73-4a69-a51e-0a140f6399f5","ios":"levelo://app?vid=c48555a0-4e73-4a69-a51e-0a140f6399f5"},"vehicle_type_id":"4","last_reported":1683921990,"current_range_meters":19200,"station_id":"ce4bgkp2rcd13ifvqbmg","pricing_plan_id":"free"},{"bike_id":"98d43089-ff1e-40ee-a123-f18e174ce1c4","system_id":"levelo_inurba_marseille","lat":43.31438,"lon":5.39271,"is_reserved":false,"is_disabled":false,"rental_uris":{"android":"levelo://app?vid=98d43089-ff1e-40ee-a123-f18e174ce1c4","ios":"levelo://app?vid=98d43089-ff1e-40ee-a123-f18e174ce1c4"},"vehicle_type_id":"4","last_reported":1683921990,"current_range_meters":6800,"station_id":"","pricing_plan_id":"free"},{"bike_id":"6f6b02ce-a50b-443a-a31d-aed834771e7b","system_id":"levelo_inurba_marseille","lat":43.31423,"lon":5.3937,"is_reserved":false,"is_disabled":false,"rental_uris":{"android":"levelo://app?vid=6f6b02ce-a50b-443a-a31d-aed834771e7b","ios":"levelo://app?vid=6f6b02ce-a50b-443a-a31d-aed834771e7b"},"vehicle_type_id":"4","last_reported":1683921990,"current_range_meters":9200,"station_id":"","pricing_plan_id":"free"},{"bike_id":"47b36084-a4c6-413d-9f48-7600e7e1b167","system_id":"levelo_inurba_marseille","lat":43.29602,"lon":5.381084,"is_reserved":false,"is_disabled":false,"rental_uris":{"android":"levelo://app?vid=47b36084-a4c6-413d-9f48-7600e7e1b167","ios":"levelo://app?vid=47b36084-a4c6-413d-9f48-7600e7e1b167"},"vehicle_type_id":"4","last_reported":1683921990,"current_range_meters":4400,"station_id":"ce4bgl12rcd13ifvqbo0","pricing_plan_id":"free"},{"bike_id":"852514cd-e82a-46c4-bc6e-a4684e677120","system_id":"levelo_inurba_marseille","lat":43.29602,"lon":5.381084,"is_reserved":false,"is_disabled":false,"rental_uris":{"android":"levelo://app?vid=852514cd-e82a-46c4-bc6e-a4684e677120","ios":"levelo://app?vid=852514cd-e82a-46c4-bc6e-a4684e677120"},"vehicle_type_id":"4","last_reported":1683921990,"current_range_meters":15600,"station_id":"ce4bgl12rcd13ifvqbo0","pricing_plan_id":"free"},{"bike_id":"a3189fac-87a2-4d4c-9e7f-3e280f6b5227","system_id":"levelo_inurba_marseille","lat":43.2936,"lon":5.37434,"is_reserved":false,"is_disabled":false,"rental_uris":{"android":"levelo://app?vid=a3189fac-87a2-4d4c-9e7f-3e280f6b5227","ios":"levelo://app?vid=a3189fac-87a2-4d4c-9e7f-3e280f6b5227"},"vehicle_type_id":"4","last_reported":1683921990,"current_range_meters":2000,"station_id":"ce4bhap2rcd13ifvqek0","pricing_plan_id":"free"},{"bike_id":"188fd727-83a6-426c-a7a1-82ac8e33735c","system_id":"levelo_inurba_marseille","lat":43.292749,"lon":5.368402,"is_reserved":false,"is_disabled":false,"rental_uris":{"android":"levelo://app?vid=188fd727-83a6-426c-a7a1-82ac8e33735c","ios":"levelo://app?vid=188fd727-83a6-426c-a7a1-82ac8e33735c"},"vehicle_type_id":"4","last_reported":1683921990,"current_range_meters":26400,"station_id":"ce4bhbp2rcd13ifvqesg","pricing_plan_id":"free"},{"bike_id":"54428ed1-c107-4b39-872e-233139f1256d","system_id":"levelo_inurba_marseille","lat":43.29306,"lon":5.37168,"is_reserved":false,"is_disabled":false,"rental_uris":{"android":"levelo://app?vid=54428ed1-c107-4b39-872e-233139f1256d","ios":"levelo://app?vid=54428ed1-c107-4b39-872e-233139f1256d"},"vehicle_type_id":"4","last_reported":1683921990,"current_range_meters":24000,"station_id":"ce4bgh92rcd13ifvqb40","pricing_plan_id":"free"},{"bike_id":"15146797-c543-4bdf-a72d-0046c63ec6c6","system_id":"levelo_inurba_marseille","lat":43.29306,"lon":5.37168,"is_reserved":false,"is_disabled":false,"rental_uris":{"android":"levelo://app?vid=15146797-c543-4bdf-a72d-0046c63ec6c6","ios":"levelo://app?vid=15146797-c543-4bdf-a72d-0046c63ec6c6"},"vehicle_type_id":"4","last_reported":1683921990,"current_range_meters":26800,"station_id":"ce4bgh92rcd13ifvqb40","pricing_plan_id":"free"},{"bike_id":"3947e9f2-e05d-4582-bae2-a0f6f3cc9c55","system_id":"levelo_inurba_marseille","lat":43.29304,"lon":5.37453,"is_reserved":false,"is_disabled":false,"rental_uris":{"android":"levelo://app?vid=3947e9f2-e05d-4582-bae2-a0f6f3cc9c55","ios":"levelo://app?vid=3947e9f2-e05d-4582-bae2-a0f6f3cc9c55"},"vehicle_type_id":"4","last_reported":1683921990,"current_range_meters":31200,"station_id":"ce4bgi12rcd13ifvqb70","pricing_plan_id":"free"},{"bike_id":"542a1665-c1fd-4c47-999c-f5ccd914ce08","system_id":"levelo_inurba_marseille","lat":43.305994,"lon":5.393687,"is_reserved":false,"is_disabled":false,"rental_uris":{"android":"levelo://app?vid=542a1665-c1fd-4c47-999c-f5ccd914ce08","ios":"levelo://app?vid=542a1665-c1fd-4c47-999c-f5ccd914ce08"},"vehicle_type_id":"4","last_reported":1683921990,"current_range_meters":25600,"station_id":"ce4bh0p2rcd13ifvqd80","pricing_plan_id":"free"},{"bike_id":"9ecfd1c6-fd82-43e0-ba36-ac926b9af4c2","system_id":"levelo_inurba_marseille","lat":43.305994,"lon":5.393687,"is_reserved":false,"is_disabled":false,"rental_uris":{"android":"levelo://app?vid=9ecfd1c6-fd82-43e0-ba36-ac926b9af4c2","ios":"levelo://app?vid=9ecfd1c6-fd82-43e0-ba36-ac926b9af4c2"},"vehicle_type_id":"4","last_reported":1683921990,"current_range_meters":26800,"station_id":"ce4bh0p2rcd13ifvqd80","pricing_plan_id":"free"},{"bike_id":"160a4a04-b6dd-4f0a-af5b-08d2dc734d6f","system_id":"levelo_inurba_marseille","lat":43.302992,"lon":5.392136,"is_reserved":false,"is_disabled":false,"rental_uris":{"android":"levelo://app?vid=160a4a04-b6dd-4f0a-af5b-08d2dc734d6f","ios":"levelo://app?vid=160a4a04-b6dd-4f0a-af5b-08d2dc734d6f"},"vehicle_type_id":"4","last_reported":1683921990,"current_range_meters":2000,"station_id":"ce4bgkh2rcd13ifvqbk0","pricing_plan_id":"free"},{"bike_id":"ef606733-e10e-4131-b8ee-b39e306ed43e","system_id":"levelo_inurba_marseille","lat":43.302992,"lon":5.392136,"is_reserved":false,"is_disabled":false,"rental_uris":{"android":"levelo://app?vid=ef606733-e10e-4131-b8ee-b39e306ed43e","ios":"levelo://app?vid=ef606733-e10e-4131-b8ee-b39e306ed43e"},"vehicle_type_id":"4","last_reported":1683921990,"current_range_meters":5200,"station_id":"ce4bgkh2rcd13ifvqbk0","pricing_plan_id":"free"},{"bike_id":"8146540f-46b8-4d54-86d4-2f63a17df056","system_id":"levelo_inurba_marseille","lat":43.302992,"lon":5.392136,"is_reserved":false,"is_disabled":false,"rental_uris":{"android":"levelo://app?vid=8146540f-46b8-4d54-86d4-2f63a17df056","ios":"levelo://app?vid=8146540f-46b8-4d54-86d4-2f63a17df056"},"vehicle_type_id":"4","last_reported":1683921990,"current_range_meters":0,"station_id":"ce4bgkh2rcd13ifvqbk0","pricing_plan_id":"free"},{"bike_id":"e675c288-e91e-4714-82b6-a1383a030149","system_id":"levelo_inurba_marseille","lat":43.2937,"lon":5.378451,"is_reserved":false,"is_disabled":false,"rental_uris":{"android":"levelo://app?vid=e675c288-e91e-4714-82b6-a1383a030149","ios":"levelo://app?vid=e675c288-e91e-4714-82b6-a1383a030149"},"vehicle_type_id":"4","last_reported":1683921990,"current_range_meters":0,"station_id":"","pricing_plan_id":"free"},{"bike_id":"b21d15ad-43a4-41eb-8a88-87203b383053","system_id":"levelo_inurba_marseille","lat":43.302992,"lon":5.392136,"is_reserved":false,"is_disabled":false,"rental_uris":{"android":"levelo://app?vid=b21d15ad-43a4-41eb-8a88-87203b383053","ios":"levelo://app?vid=b21d15ad-43a4-41eb-8a88-87203b383053"},"vehicle_type_id":"4","last_reported":1683921990,"current_range_meters":800,"station_id":"ce4bgkh2rcd13ifvqbk0","pricing_plan_id":"free"},{"bike_id":"f217b37b-ec8b-4a87-878e-d36fcf24d5b1","system_id":"levelo_inurba_marseille","lat":43.302992,"lon":5.392136,"is_reserved":false,"is_disabled":false,"rental_uris":{"android":"levelo://app?vid=f217b37b-ec8b-4a87-878e-d36fcf24d5b1","ios":"levelo://app?vid=f217b37b-ec8b-4a87-878e-d36fcf24d5b1"},"vehicle_type_id":"4","last_reported":1683921990,"current_range_meters":10000,"station_id":"ce4bgkh2rcd13ifvqbk0","pricing_plan_id":"free"},{"bike_id":"725b4fa4-b9f6-4699-bbc7-181c065f7a05","system_id":"levelo_inurba_marseille","lat":43.29267,"lon":5.37622,"is_reserved":false,"is_disabled":false,"rental_uris":{"android":"levelo://app?vid=725b4fa4-b9f6-4699-bbc7-181c065f7a05","ios":"levelo://app?vid=725b4fa4-b9f6-4699-bbc7-181c065f7a05"},"vehicle_type_id":"4","last_reported":1683921990,"current_range_meters":2800,"station_id":"ce4bgi12rcd13ifvqb80","pricing_plan_id":"free"},{"bike_id":"c8e3459c-2d39-4c0f-be45-c365b783da47","system_id":"levelo_inurba_marseille","lat":43.29887,"lon":5.38899,"is_reserved":false,"is_disabled":false,"rental_uris":{"android":"levelo://app?vid=c8e3459c-2d39-4c0f-be45-c365b783da47","ios":"levelo://app?vid=c8e3459c-2d39-4c0f-be45-c365b783da47"},"vehicle_type_id":"4","last_reported":1683921990,"current_range_meters":20000,"station_id":"ce4bh392rcd13ifvqdl0","pricing_plan_id":"free"},{"bike_id":"5d3b185f-e942-4a07-a646-e7b93aed788c","system_id":"levelo_inurba_marseille","lat":43.292663,"lon":5.376394,"is_reserved":false,"is_disabled":false,"rental_uris":{"android":"levelo://app?vid=5d3b185f-e942-4a07-a646-e7b93aed788c","ios":"levelo://app?vid=5d3b185f-e942-4a07-a646-e7b93aed788c"},"vehicle_type_id":"4","last_reported":1683921990,"current_range_meters":8800,"station_id":"ce4bgi12rcd13ifvqb80","pricing_plan_id":"free"},{"bike_id":"c5cf79b4-2083-49ec-9290-c93d8d82574a","system_id":"levelo_inurba_marseille","lat":43.292663,"lon":5.376389,"is_reserved":false,"is_disabled":false,"rental_uris":{"android":"levelo://app?vid=c5cf79b4-2083-49ec-9290-c93d8d82574a","ios":"levelo://app?vid=c5cf79b4-2083-49ec-9290-c93d8d82574a"},"vehicle_type_id":"4","last_reported":1683921990,"current_range_meters":26800,"station_id":"ce4bgi12rcd13ifvqb80","pricing_plan_id":"free"},{"bike_id":"76f10a52-bca6-41bf-90eb-0099625226bf","system_id":"levelo_inurba_marseille","lat":43.291671,"lon":5.371575,"is_reserved":false,"is_disabled":false,"rental_uris":{"android":"levelo://app?vid=76f10a52-bca6-41bf-90eb-0099625226bf","ios":"levelo://app?vid=76f10a52-bca6-41bf-90eb-0099625226bf"},"vehicle_type_id":"4","last_reported":1683921990,"current_range_meters":28800,"station_id":"ce4bha92rcd13ifvqeh0","pricing_plan_id":"free"},{"bike_id":"6fa9634f-5b2e-4be3-b154-ec5df04f313c","system_id":"levelo_inurba_marseille","lat":43.29864,"lon":5.389,"is_reserved":false,"is_disabled":false,"rental_uris":{"android":"levelo://app?vid=6fa9634f-5b2e-4be3-b154-ec5df04f313c","ios":"levelo://app?vid=6fa9634f-5b2e-4be3-b154-ec5df04f313c"},"vehicle_type_id":"4","last_reported":1683921990,"current_range_meters":0,"station_id":"ce4bh392rcd13ifvqdl0","pricing_plan_id":"free"},{"bike_id":"42dcb152-130b-492d-87aa-24db6eb9bfeb","system_id":"levelo_inurba_marseille","lat":43.298764,"lon":5.388973,"is_reserved":false,"is_disabled":false,"rental_uris":{"android":"levelo://app?vid=42dcb152-130b-492d-87aa-24db6eb9bfeb","ios":"levelo://app?vid=42dcb152-130b-492d-87aa-24db6eb9bfeb"},"vehicle_type_id":"4","last_reported":1683921990,"current_range_meters":3200,"station_id":"ce4bh392rcd13ifvqdl0","pricing_plan_id":"free"},{"bike_id":"72b7c469-7dc9-4339-b444-8441274a968d","system_id":"levelo_inurba_marseille","lat":43.291675,"lon":5.371583,"is_reserved":false,"is_disabled":false,"rental_uris":{"android":"levelo://app?vid=72b7c469-7dc9-4339-b444-8441274a968d","ios":"levelo://app?vid=72b7c469-7dc9-4339-b444-8441274a968d"},"vehicle_type_id":"4","last_reported":1683921990,"current_range_meters":28800,"station_id":"ce4bha92rcd13ifvqeh0","pricing_plan_id":"free"},{"bike_id":"ba6b0e93-d227-4d31-8d10-0cc43b66a609","system_id":"levelo_inurba_marseille","lat":43.29196,"lon":5.35806,"is_reserved":false,"is_disabled":false,"rental_uris":{"android":"levelo://app?vid=ba6b0e93-d227-4d31-8d10-0cc43b66a609","ios":"levelo://app?vid=ba6b0e93-d227-4d31-8d10-0cc43b66a609"},"vehicle_type_id":"4","last_reported":1683921990,"current_range_meters":7600,"station_id":"","pricing_plan_id":"free"},{"bike_id":"23a51406-c073-43dd-83bb-e6f24fa454d9","system_id":"levelo_inurba_marseille","lat":43.31321,"lon":5.39686,"is_reserved":false,"is_disabled":false,"rental_uris":{"android":"levelo://app?vid=23a51406-c073-43dd-83bb-e6f24fa454d9","ios":"levelo://app?vid=23a51406-c073-43dd-83bb-e6f24fa454d9"},"vehicle_type_id":"4","last_reported":1683921990,"current_range_meters":6800,"station_id":"ce4bgvp2rcd13ifvqcu0","pricing_plan_id":"free"},{"bike_id":"43ea94fb-f0bc-48af-bd2d-c866d6def370","system_id":"levelo_inurba_marseille","lat":43.29193,"lon":5.35799,"is_reserved":false,"is_disabled":false,"rental_uris":{"android":"levelo://app?vid=43ea94fb-f0bc-48af-bd2d-c866d6def370","ios":"levelo://app?vid=43ea94fb-f0bc-48af-bd2d-c866d6def370"},"vehicle_type_id":"4","last_reported":1683921990,"current_range_meters":23600,"station_id":"","pricing_plan_id":"free"},{"bike_id":"b1dbe5d2-9911-4db5-b317-0332f405d3d1","system_id":"levelo_inurba_marseille","lat":43.29192,"lon":5.35803,"is_reserved":false,"is_disabled":false,"rental_uris":{"android":"levelo://app?vid=b1dbe5d2-9911-4db5-b317-0332f405d3d1","ios":"levelo://app?vid=b1dbe5d2-9911-4db5-b317-0332f405d3d1"},"vehicle_type_id":"4","last_reported":1683921990,"current_range_meters":8800,"station_id":"","pricing_plan_id":"free"},{"bike_id":"ed1a8307-4538-4b74-9a02-3d0f51f63145","system_id":"levelo_inurba_marseille","lat":43.3133,"lon":5.39693,"is_reserved":false,"is_disabled":false,"rental_uris":{"android":"levelo://app?vid=ed1a8307-4538-4b74-9a02-3d0f51f63145","ios":"levelo://app?vid=ed1a8307-4538-4b74-9a02-3d0f51f63145"},"vehicle_type_id":"4","last_reported":1683921990,"current_range_meters":6800,"station_id":"ce4bgvp2rcd13ifvqcu0","pricing_plan_id":"free"},{"bike_id":"67f6a948-1165-4288-b069-dae7b06987c7","system_id":"levelo_inurba_marseille","lat":43.29187,"lon":5.35804,"is_reserved":false,"is_disabled":false,"rental_uris":{"android":"levelo://app?vid=67f6a948-1165-4288-b069-dae7b06987c7","ios":"levelo://app?vid=67f6a948-1165-4288-b069-dae7b06987c7"},"vehicle_type_id":"4","last_reported":1683921990,"current_range_meters":31200,"station_id":"","pricing_plan_id":"free"},{"bike_id":"94cfdd85-7708-4d18-8858-9edd985a492a","system_id":"levelo_inurba_marseille","lat":43.309038,"lon":5.396546,"is_reserved":false,"is_disabled":false,"rental_uris":{"android":"levelo://app?vid=94cfdd85-7708-4d18-8858-9edd985a492a","ios":"levelo://app?vid=94cfdd85-7708-4d18-8858-9edd985a492a"},"vehicle_type_id":"4","last_reported":1683921990,"current_range_meters":3600,"station_id":"ce4bh012rcd13ifvqcv0","pricing_plan_id":"free"},{"bike_id":"6c338c9c-4801-4415-a2d9-fa39c4f44b53","system_id":"levelo_inurba_marseille","lat":43.29529,"lon":5.385581,"is_reserved":false,"is_disabled":false,"rental_uris":{"android":"levelo://app?vid=6c338c9c-4801-4415-a2d9-fa39c4f44b53","ios":"levelo://app?vid=6c338c9c-4801-4415-a2d9-fa39c4f44b53"},"vehicle_type_id":"4","last_reported":1683921990,"current_range_meters":11200,"station_id":"ce4bgih2rcd13ifvqba0","pricing_plan_id":"free"},{"bike_id":"5f85fc8d-e357-41de-906a-02a8ac52c625","system_id":"levelo_inurba_marseille","lat":43.29529,"lon":5.385581,"is_reserved":false,"is_disabled":false,"rental_uris":{"android":"levelo://app?vid=5f85fc8d-e357-41de-906a-02a8ac52c625","ios":"levelo://app?vid=5f85fc8d-e357-41de-906a-02a8ac52c625"},"vehicle_type_id":"4","last_reported":1683921990,"current_range_meters":0,"station_id":"ce4bgih2rcd13ifvqba0","pricing_plan_id":"free"},{"bike_id":"3c4f244d-3876-4461-8e73-e919cce7ea53","system_id":"levelo_inurba_marseille","lat":43.29529,"lon":5.385581,"is_reserved":false,"is_disabled":false,"rental_uris":{"android":"levelo://app?vid=3c4f244d-3876-4461-8e73-e919cce7ea53","ios":"levelo://app?vid=3c4f244d-3876-4461-8e73-e919cce7ea53"},"vehicle_type_id":"4","last_reported":1683921990,"current_range_meters":24400,"station_id":"ce4bgih2rcd13ifvqba0","pricing_plan_id":"free"},{"bike_id":"e9cd0b5d-d685-4187-9707-068234026100","system_id":"levelo_inurba_marseille","lat":43.29529,"lon":5.385581,"is_reserved":false,"is_disabled":false,"rental_uris":{"android":"levelo://app?vid=e9cd0b5d-d685-4187-9707-068234026100","ios":"levelo://app?vid=e9cd0b5d-d685-4187-9707-068234026100"},"vehicle_type_id":"4","last_reported":1683921990,"current_range_meters":0,"station_id":"ce4bgih2rcd13ifvqba0","pricing_plan_id":"free"},{"bike_id":"ce871e57-6aec-48d8-a4ff-a26e23312a3a","system_id":"levelo_inurba_marseille","lat":43.29529,"lon":5.385581,"is_reserved":false,"is_disabled":false,"rental_uris":{"android":"levelo://app?vid=ce871e57-6aec-48d8-a4ff-a26e23312a3a","ios":"levelo://app?vid=ce871e57-6aec-48d8-a4ff-a26e23312a3a"},"vehicle_type_id":"4","last_reported":1683921990,"current_range_meters":0,"station_id":"ce4bgih2rcd13ifvqba0","pricing_plan_id":"free"},{"bike_id":"86d269dd-bd7f-480a-b4d2-aff2d2931cbb","system_id":"levelo_inurba_marseille","lat":43.29527,"lon":5.38533,"is_reserved":false,"is_disabled":false,"rental_uris":{"android":"levelo://app?vid=86d269dd-bd7f-480a-b4d2-aff2d2931cbb","ios":"levelo://app?vid=86d269dd-bd7f-480a-b4d2-aff2d2931cbb"},"vehicle_type_id":"4","last_reported":1683921990,"current_range_meters":0,"station_id":"ce4bgih2rcd13ifvqba0","pricing_plan_id":"free"},{"bike_id":"25e4407c-ef2c-461c-a323-1d6af9bdbe86","system_id":"levelo_inurba_marseille","lat":43.29529,"lon":5.385581,"is_reserved":false,"is_disabled":false,"rental_uris":{"android":"levelo://app?vid=25e4407c-ef2c-461c-a323-1d6af9bdbe86","ios":"levelo://app?vid=25e4407c-ef2c-461c-a323-1d6af9bdbe86"},"vehicle_type_id":"4","last_reported":1683921990,"current_range_meters":20800,"station_id":"ce4bgih2rcd13ifvqba0","pricing_plan_id":"free"},{"bike_id":"4f4cef7c-0299-41ba-a220-7f4f2c377372","system_id":"levelo_inurba_marseille","lat":43.29529,"lon":5.385581,"is_reserved":false,"is_disabled":false,"rental_uris":{"android":"levelo://app?vid=4f4cef7c-0299-41ba-a220-7f4f2c377372","ios":"levelo://app?vid=4f4cef7c-0299-41ba-a220-7f4f2c377372"},"vehicle_type_id":"4","last_reported":1683921990,"current_range_meters":9600,"station_id":"ce4bgih2rcd13ifvqba0","pricing_plan_id":"free"},{"bike_id":"c06f8920-3acc-4b2b-84b4-021f699ea273","system_id":"levelo_inurba_marseille","lat":43.29529,"lon":5.385581,"is_reserved":false,"is_disabled":false,"rental_uris":{"android":"levelo://app?vid=c06f8920-3acc-4b2b-84b4-021f699ea273","ios":"levelo://app?vid=c06f8920-3acc-4b2b-84b4-021f699ea273"},"vehicle_type_id":"4","last_reported":1683921990,"current_range_meters":6400,"station_id":"ce4bgih2rcd13ifvqba0","pricing_plan_id":"free"},{"bike_id":"92b15da1-30b9-4bf7-9cc9-89a59445f960","system_id":"levelo_inurba_marseille","lat":43.29529,"lon":5.385581,"is_reserved":false,"is_disabled":false,"rental_uris":{"android":"levelo://app?vid=92b15da1-30b9-4bf7-9cc9-89a59445f960","ios":"levelo://app?vid=92b15da1-30b9-4bf7-9cc9-89a59445f960"},"vehicle_type_id":"4","last_reported":1683921990,"current_range_meters":26400,"station_id":"ce4bgih2rcd13ifvqba0","pricing_plan_id":"free"},{"bike_id":"3c631836-6c91-4584-b1f3-66c00d57c13b","system_id":"levelo_inurba_marseille","lat":43.29529,"lon":5.385581,"is_reserved":false,"is_disabled":false,"rental_uris":{"android":"levelo://app?vid=3c631836-6c91-4584-b1f3-66c00d57c13b","ios":"levelo://app?vid=3c631836-6c91-4584-b1f3-66c00d57c13b"},"vehicle_type_id":"4","last_reported":1683921990,"current_range_meters":4000,"station_id":"ce4bgih2rcd13ifvqba0","pricing_plan_id":"free"},{"bike_id":"e9ce4b42-6998-47f0-9955-252df080bc0e","system_id":"levelo_inurba_marseille","lat":43.29529,"lon":5.385581,"is_reserved":false,"is_disabled":false,"rental_uris":{"android":"levelo://app?vid=e9ce4b42-6998-47f0-9955-252df080bc0e","ios":"levelo://app?vid=e9ce4b42-6998-47f0-9955-252df080bc0e"},"vehicle_type_id":"4","last_reported":1683921990,"current_range_meters":14800,"station_id":"ce4bgih2rcd13ifvqba0","pricing_plan_id":"free"},{"bike_id":"ed93eb33-e590-4da8-ab61-a5453b768d0d","system_id":"levelo_inurba_marseille","lat":43.29529,"lon":5.385581,"is_reserved":false,"is_disabled":false,"rental_uris":{"android":"levelo://app?vid=ed93eb33-e590-4da8-ab61-a5453b768d0d","ios":"levelo://app?vid=ed93eb33-e590-4da8-ab61-a5453b768d0d"},"vehicle_type_id":"4","last_reported":1683921990,"current_range_meters":0,"station_id":"ce4bgih2rcd13ifvqba0","pricing_plan_id":"free"},{"bike_id":"66c13749-e752-4970-957f-bb7e2bc4481d","system_id":"levelo_inurba_marseille","lat":43.29529,"lon":5.385581,"is_reserved":false,"is_disabled":false,"rental_uris":{"android":"levelo://app?vid=66c13749-e752-4970-957f-bb7e2bc4481d","ios":"levelo://app?vid=66c13749-e752-4970-957f-bb7e2bc4481d"},"vehicle_type_id":"4","last_reported":1683921990,"current_range_meters":15600,"station_id":"ce4bgih2rcd13ifvqba0","pricing_plan_id":"free"},{"bike_id":"ea10e92d-e6c7-4474-b055-256cea4d2790","system_id":"levelo_inurba_marseille","lat":43.29529,"lon":5.385581,"is_reserved":false,"is_disabled":false,"rental_uris":{"android":"levelo://app?vid=ea10e92d-e6c7-4474-b055-256cea4d2790","ios":"levelo://app?vid=ea10e92d-e6c7-4474-b055-256cea4d2790"},"vehicle_type_id":"4","last_reported":1683921990,"current_range_meters":3600,"station_id":"ce4bgih2rcd13ifvqba0","pricing_plan_id":"free"},{"bike_id":"de3e25b0-33dc-446b-8e54-e8dff7f2fb2b","system_id":"levelo_inurba_marseille","lat":43.302008,"lon":5.394694,"is_reserved":false,"is_disabled":false,"rental_uris":{"android":"levelo://app?vid=de3e25b0-33dc-446b-8e54-e8dff7f2fb2b","ios":"levelo://app?vid=de3e25b0-33dc-446b-8e54-e8dff7f2fb2b"},"vehicle_type_id":"4","last_reported":1683921990,"current_range_meters":10400,"station_id":"ce4bh0p2rcd13ifvqd70","pricing_plan_id":"free"},{"bike_id":"5cc9b815-d7ff-44ed-9360-c1cb69ca4ed4","system_id":"levelo_inurba_marseille","lat":43.290631,"lon":5.359244,"is_reserved":false,"is_disabled":false,"rental_uris":{"android":"levelo://app?vid=5cc9b815-d7ff-44ed-9360-c1cb69ca4ed4","ios":"levelo://app?vid=5cc9b815-d7ff-44ed-9360-c1cb69ca4ed4"},"vehicle_type_id":"4","last_reported":1683921990,"current_range_meters":30000,"station_id":"ce4bha92rcd13ifvqeg0","pricing_plan_id":"free"},{"bike_id":"d872c6f0-87ca-49b4-a8b0-2b333a24e1a8","system_id":"levelo_inurba_marseille","lat":43.294153,"lon":5.386305,"is_reserved":false,"is_disabled":false,"rental_uris":{"android":"levelo://app?vid=d872c6f0-87ca-49b4-a8b0-2b333a24e1a8","ios":"levelo://app?vid=d872c6f0-87ca-49b4-a8b0-2b333a24e1a8"},"vehicle_type_id":"4","last_reported":1683921990,"current_range_meters":9200,"station_id":"ce4bh2h2rcd13ifvqdh0","pricing_plan_id":"free"},{"bike_id":"191fcb81-9f05-4d0a-9479-bdad230914f2","system_id":"levelo_inurba_marseille","lat":43.29419,"lon":5.38626,"is_reserved":false,"is_disabled":false,"rental_uris":{"android":"levelo://app?vid=191fcb81-9f05-4d0a-9479-bdad230914f2","ios":"levelo://app?vid=191fcb81-9f05-4d0a-9479-bdad230914f2"},"vehicle_type_id":"4","last_reported":1683921990,"current_range_meters":18400,"station_id":"ce4bh2h2rcd13ifvqdh0","pricing_plan_id":"free"},{"bike_id":"9f129774-36e1-42f1-8229-a7c2be11d89e","system_id":"levelo_inurba_marseille","lat":43.30482,"lon":5.39702,"is_reserved":false,"is_disabled":false,"rental_uris":{"android":"levelo://app?vid=9f129774-36e1-42f1-8229-a7c2be11d89e","ios":"levelo://app?vid=9f129774-36e1-42f1-8229-a7c2be11d89e"},"vehicle_type_id":"4","last_reported":1683921990,"current_range_meters":22800,"station_id":"","pricing_plan_id":"free"},{"bike_id":"416bb656-b281-49d7-a818-28532e5d22e4","system_id":"levelo_inurba_marseille","lat":43.29415,"lon":5.38622,"is_reserved":false,"is_disabled":false,"rental_uris":{"android":"levelo://app?vid=416bb656-b281-49d7-a818-28532e5d22e4","ios":"levelo://app?vid=416bb656-b281-49d7-a818-28532e5d22e4"},"vehicle_type_id":"4","last_reported":1683921990,"current_range_meters":1600,"station_id":"ce4bh2h2rcd13ifvqdh0","pricing_plan_id":"free"},{"bike_id":"abffe4a1-ad65-4ea3-88ce-7477c47dd910","system_id":"levelo_inurba_marseille","lat":43.294153,"lon":5.386305,"is_reserved":false,"is_disabled":false,"rental_uris":{"android":"levelo://app?vid=abffe4a1-ad65-4ea3-88ce-7477c47dd910","ios":"levelo://app?vid=abffe4a1-ad65-4ea3-88ce-7477c47dd910"},"vehicle_type_id":"4","last_reported":1683921990,"current_range_meters":9200,"station_id":"ce4bh2h2rcd13ifvqdh0","pricing_plan_id":"free"},{"bike_id":"96886c15-fd38-4789-9289-ad15dc3b29e6","system_id":"levelo_inurba_marseille","lat":43.294153,"lon":5.386305,"is_reserved":false,"is_disabled":false,"rental_uris":{"android":"levelo://app?vid=96886c15-fd38-4789-9289-ad15dc3b29e6","ios":"levelo://app?vid=96886c15-fd38-4789-9289-ad15dc3b29e6"},"vehicle_type_id":"4","last_reported":1683921990,"current_range_meters":26400,"station_id":"ce4bh2h2rcd13ifvqdh0","pricing_plan_id":"free"},{"bike_id":"bedee10e-5dfc-450e-8b51-ca83bf1109a6","system_id":"levelo_inurba_marseille","lat":43.30487,"lon":5.39708,"is_reserved":false,"is_disabled":false,"rental_uris":{"android":"levelo://app?vid=bedee10e-5dfc-450e-8b51-ca83bf1109a6","ios":"levelo://app?vid=bedee10e-5dfc-450e-8b51-ca83bf1109a6"},"vehicle_type_id":"4","last_reported":1683921990,"current_range_meters":5600,"station_id":"","pricing_plan_id":"free"},{"bike_id":"dce65655-3f01-4f27-a656-5e9ac42aeac7","system_id":"levelo_inurba_marseille","lat":43.294153,"lon":5.386305,"is_reserved":false,"is_disabled":false,"rental_uris":{"android":"levelo://app?vid=dce65655-3f01-4f27-a656-5e9ac42aeac7","ios":"levelo://app?vid=dce65655-3f01-4f27-a656-5e9ac42aeac7"},"vehicle_type_id":"4","last_reported":1683921990,"current_range_meters":25200,"station_id":"ce4bh2h2rcd13ifvqdh0","pricing_plan_id":"free"},{"bike_id":"dc6d3ba1-46b9-4585-a94b-e935a48215f1","system_id":"levelo_inurba_marseille","lat":43.294153,"lon":5.386305,"is_reserved":false,"is_disabled":false,"rental_uris":{"android":"levelo://app?vid=dc6d3ba1-46b9-4585-a94b-e935a48215f1","ios":"levelo://app?vid=dc6d3ba1-46b9-4585-a94b-e935a48215f1"},"vehicle_type_id":"4","last_reported":1683921990,"current_range_meters":2800,"station_id":"ce4bh2h2rcd13ifvqdh0","pricing_plan_id":"free"},{"bike_id":"3cf0196b-cfc9-47ca-a828-1a525d89aebf","system_id":"levelo_inurba_marseille","lat":43.29416,"lon":5.38631,"is_reserved":false,"is_disabled":false,"rental_uris":{"android":"levelo://app?vid=3cf0196b-cfc9-47ca-a828-1a525d89aebf","ios":"levelo://app?vid=3cf0196b-cfc9-47ca-a828-1a525d89aebf"},"vehicle_type_id":"4","last_reported":1683921990,"current_range_meters":19200,"station_id":"ce4bh2h2rcd13ifvqdh0","pricing_plan_id":"free"},{"bike_id":"c317b6f2-a371-459c-bc86-cda17837c8ee","system_id":"levelo_inurba_marseille","lat":43.2941,"lon":5.38629,"is_reserved":false,"is_disabled":false,"rental_uris":{"android":"levelo://app?vid=c317b6f2-a371-459c-bc86-cda17837c8ee","ios":"levelo://app?vid=c317b6f2-a371-459c-bc86-cda17837c8ee"},"vehicle_type_id":"4","last_reported":1683921990,"current_range_meters":5600,"station_id":"ce4bh2h2rcd13ifvqdh0","pricing_plan_id":"free"},{"bike_id":"3c3302b8-c094-4580-9eb9-04611603edb8","system_id":"levelo_inurba_marseille","lat":43.29404,"lon":5.38619,"is_reserved":false,"is_disabled":false,"rental_uris":{"android":"levelo://app?vid=3c3302b8-c094-4580-9eb9-04611603edb8","ios":"levelo://app?vid=3c3302b8-c094-4580-9eb9-04611603edb8"},"vehicle_type_id":"4","last_reported":1683921990,"current_range_meters":0,"station_id":"ce4bh2h2rcd13ifvqdh0","pricing_plan_id":"free"},{"bike_id":"36b1b7ef-cd72-42c4-9fc0-4ad51eb87d15","system_id":"levelo_inurba_marseille","lat":43.290319,"lon":5.375732,"is_reserved":false,"is_disabled":false,"rental_uris":{"android":"levelo://app?vid=36b1b7ef-cd72-42c4-9fc0-4ad51eb87d15","ios":"levelo://app?vid=36b1b7ef-cd72-42c4-9fc0-4ad51eb87d15"},"vehicle_type_id":"4","last_reported":1683921990,"current_range_meters":31200,"station_id":"ce4bh692rcd13ifvqe90","pricing_plan_id":"free"},{"bike_id":"f5d3ddb0-d062-4de8-8a10-5d96264fa41c","system_id":"levelo_inurba_marseille","lat":43.289468,"lon":5.363719,"is_reserved":false,"is_disabled":false,"rental_uris":{"android":"levelo://app?vid=f5d3ddb0-d062-4de8-8a10-5d96264fa41c","ios":"levelo://app?vid=f5d3ddb0-d062-4de8-8a10-5d96264fa41c"},"vehicle_type_id":"4","last_reported":1683921990,"current_range_meters":30000,"station_id":"ce4bhc92rcd13ifvqetg","pricing_plan_id":"free"},{"bike_id":"72f9d0d9-2eb3-4ede-b81f-647ebb02188d","system_id":"levelo_inurba_marseille","lat":43.289468,"lon":5.363719,"is_reserved":false,"is_disabled":false,"rental_uris":{"android":"levelo://app?vid=72f9d0d9-2eb3-4ede-b81f-647ebb02188d","ios":"levelo://app?vid=72f9d0d9-2eb3-4ede-b81f-647ebb02188d"},"vehicle_type_id":"4","last_reported":1683921990,"current_range_meters":17600,"station_id":"ce4bhc92rcd13ifvqetg","pricing_plan_id":"free"},{"bike_id":"7b9c44f4-822b-4dc9-961d-ad718625bce8","system_id":"levelo_inurba_marseille","lat":43.289468,"lon":5.363719,"is_reserved":false,"is_disabled":false,"rental_uris":{"android":"levelo://app?vid=7b9c44f4-822b-4dc9-961d-ad718625bce8","ios":"levelo://app?vid=7b9c44f4-822b-4dc9-961d-ad718625bce8"},"vehicle_type_id":"4","last_reported":1683921990,"current_range_meters":25200,"station_id":"ce4bhc92rcd13ifvqetg","pricing_plan_id":"free"},{"bike_id":"e099c2ec-9875-4db9-8e8f-d3a036692b1c","system_id":"levelo_inurba_marseille","lat":43.292712,"lon":5.384285,"is_reserved":false,"is_disabled":false,"rental_uris":{"android":"levelo://app?vid=e099c2ec-9875-4db9-8e8f-d3a036692b1c","ios":"levelo://app?vid=e099c2ec-9875-4db9-8e8f-d3a036692b1c"},"vehicle_type_id":"4","last_reported":1683921990,"current_range_meters":6000,"station_id":"ce4bhbh2rcd13ifvqepg","pricing_plan_id":"free"},{"bike_id":"a347c534-f9be-4295-86b5-62c493a5ca40","system_id":"levelo_inurba_marseille","lat":43.292644,"lon":5.384257,"is_reserved":false,"is_disabled":false,"rental_uris":{"android":"levelo://app?vid=a347c534-f9be-4295-86b5-62c493a5ca40","ios":"levelo://app?vid=a347c534-f9be-4295-86b5-62c493a5ca40"},"vehicle_type_id":"4","last_reported":1683921990,"current_range_meters":19600,"station_id":"ce4bh692rcd13ifvqea0","pricing_plan_id":"free"},{"bike_id":"44a17c89-4523-4613-a182-356f015e6f81","system_id":"levelo_inurba_marseille","lat":43.29263,"lon":5.38434,"is_reserved":false,"is_disabled":false,"rental_uris":{"android":"levelo://app?vid=44a17c89-4523-4613-a182-356f015e6f81","ios":"levelo://app?vid=44a17c89-4523-4613-a182-356f015e6f81"},"vehicle_type_id":"4","last_reported":1683921990,"current_range_meters":10400,"station_id":"ce4bh692rcd13ifvqea0","pricing_plan_id":"free"},{"bike_id":"c02acf54-1ba5-4431-8f87-8bd8d42e7f64","system_id":"levelo_inurba_marseille","lat":43.292644,"lon":5.384257,"is_reserved":false,"is_disabled":false,"rental_uris":{"android":"levelo://app?vid=c02acf54-1ba5-4431-8f87-8bd8d42e7f64","ios":"levelo://app?vid=c02acf54-1ba5-4431-8f87-8bd8d42e7f64"},"vehicle_type_id":"4","last_reported":1683921990,"current_range_meters":1200,"station_id":"ce4bh692rcd13ifvqea0","pricing_plan_id":"free"},{"bike_id":"07d98e5c-364e-47e4-8864-ddd1a5d101ba","system_id":"levelo_inurba_marseille","lat":43.30419,"lon":5.39743,"is_reserved":false,"is_disabled":false,"rental_uris":{"android":"levelo://app?vid=07d98e5c-364e-47e4-8864-ddd1a5d101ba","ios":"levelo://app?vid=07d98e5c-364e-47e4-8864-ddd1a5d101ba"},"vehicle_type_id":"4","last_reported":1683921990,"current_range_meters":4400,"station_id":"ce4bh092rcd13ifvqd20","pricing_plan_id":"free"},{"bike_id":"9f643275-41ce-47b2-be90-1607827d57db","system_id":"levelo_inurba_marseille","lat":43.292644,"lon":5.384257,"is_reserved":false,"is_disabled":false,"rental_uris":{"android":"levelo://app?vid=9f643275-41ce-47b2-be90-1607827d57db","ios":"levelo://app?vid=9f643275-41ce-47b2-be90-1607827d57db"},"vehicle_type_id":"4","last_reported":1683921990,"current_range_meters":17600,"station_id":"ce4bh692rcd13ifvqea0","pricing_plan_id":"free"},{"bike_id":"8848300c-6bbc-4ca3-b7b1-eabc5120cc3f","system_id":"levelo_inurba_marseille","lat":43.292644,"lon":5.384257,"is_reserved":false,"is_disabled":false,"rental_uris":{"android":"levelo://app?vid=8848300c-6bbc-4ca3-b7b1-eabc5120cc3f","ios":"levelo://app?vid=8848300c-6bbc-4ca3-b7b1-eabc5120cc3f"},"vehicle_type_id":"4","last_reported":1683921990,"current_range_meters":18800,"station_id":"ce4bh692rcd13ifvqea0","pricing_plan_id":"free"},{"bike_id":"ad2134fa-351d-4498-9646-96de563f20a4","system_id":"levelo_inurba_marseille","lat":43.29258,"lon":5.38434,"is_reserved":false,"is_disabled":false,"rental_uris":{"android":"levelo://app?vid=ad2134fa-351d-4498-9646-96de563f20a4","ios":"levelo://app?vid=ad2134fa-351d-4498-9646-96de563f20a4"},"vehicle_type_id":"4","last_reported":1683921990,"current_range_meters":3200,"station_id":"ce4bh692rcd13ifvqea0","pricing_plan_id":"free"},{"bike_id":"6d619983-1231-4ca5-9fc6-23c066c7c238","system_id":"levelo_inurba_marseille","lat":43.29256,"lon":5.3843,"is_reserved":false,"is_disabled":false,"rental_uris":{"android":"levelo://app?vid=6d619983-1231-4ca5-9fc6-23c066c7c238","ios":"levelo://app?vid=6d619983-1231-4ca5-9fc6-23c066c7c238"},"vehicle_type_id":"4","last_reported":1683921990,"current_range_meters":22800,"station_id":"ce4bh692rcd13ifvqea0","pricing_plan_id":"free"},{"bike_id":"d1bbbf06-6cf4-4fca-a19f-818b290c87bb","system_id":"levelo_inurba_marseille","lat":43.2926,"lon":5.38439,"is_reserved":false,"is_disabled":false,"rental_uris":{"android":"levelo://app?vid=d1bbbf06-6cf4-4fca-a19f-818b290c87bb","ios":"levelo://app?vid=d1bbbf06-6cf4-4fca-a19f-818b290c87bb"},"vehicle_type_id":"4","last_reported":1683921990,"current_range_meters":24000,"station_id":"ce4bh692rcd13ifvqea0","pricing_plan_id":"free"},{"bike_id":"b94eaa6a-9a5b-4ca3-81ca-24a1f43d4263","system_id":"levelo_inurba_marseille","lat":43.292644,"lon":5.384257,"is_reserved":false,"is_disabled":false,"rental_uris":{"android":"levelo://app?vid=b94eaa6a-9a5b-4ca3-81ca-24a1f43d4263","ios":"levelo://app?vid=b94eaa6a-9a5b-4ca3-81ca-24a1f43d4263"},"vehicle_type_id":"4","last_reported":1683921990,"current_range_meters":18000,"station_id":"ce4bh692rcd13ifvqea0","pricing_plan_id":"free"},{"bike_id":"d26d28a6-94a7-4234-935a-3e35dd3fc35f","system_id":"levelo_inurba_marseille","lat":43.304296,"lon":5.397513,"is_reserved":false,"is_disabled":false,"rental_uris":{"android":"levelo://app?vid=d26d28a6-94a7-4234-935a-3e35dd3fc35f","ios":"levelo://app?vid=d26d28a6-94a7-4234-935a-3e35dd3fc35f"},"vehicle_type_id":"4","last_reported":1683921990,"current_range_meters":14800,"station_id":"ce4bh092rcd13ifvqd20","pricing_plan_id":"free"},{"bike_id":"616d992b-66e8-4b3d-b14a-e77e238b4c87","system_id":"levelo_inurba_marseille","lat":43.29257,"lon":5.38439,"is_reserved":false,"is_disabled":false,"rental_uris":{"android":"levelo://app?vid=616d992b-66e8-4b3d-b14a-e77e238b4c87","ios":"levelo://app?vid=616d992b-66e8-4b3d-b14a-e77e238b4c87"},"vehicle_type_id":"4","last_reported":1683921990,"current_range_meters":3600,"station_id":"ce4bh692rcd13ifvqea0","pricing_plan_id":"free"},{"bike_id":"466ea7e6-7f36-47c2-ac55-b07f165a9e74","system_id":"levelo_inurba_marseille","lat":43.292644,"lon":5.384257,"is_reserved":false,"is_disabled":false,"rental_uris":{"android":"levelo://app?vid=466ea7e6-7f36-47c2-ac55-b07f165a9e74","ios":"levelo://app?vid=466ea7e6-7f36-47c2-ac55-b07f165a9e74"},"vehicle_type_id":"4","last_reported":1683921990,"current_range_meters":18400,"station_id":"ce4bh692rcd13ifvqea0","pricing_plan_id":"free"},{"bike_id":"41516bba-1eb7-4ff7-a5ab-9dd296b23e8c","system_id":"levelo_inurba_marseille","lat":43.29257,"lon":5.38442,"is_reserved":false,"is_disabled":false,"rental_uris":{"android":"levelo://app?vid=41516bba-1eb7-4ff7-a5ab-9dd296b23e8c","ios":"levelo://app?vid=41516bba-1eb7-4ff7-a5ab-9dd296b23e8c"},"vehicle_type_id":"4","last_reported":1683921990,"current_range_meters":2000,"station_id":"ce4bh692rcd13ifvqea0","pricing_plan_id":"free"},{"bike_id":"41fb818b-60a6-489a-8e55-c1b7a97bec77","system_id":"levelo_inurba_marseille","lat":43.292644,"lon":5.384257,"is_reserved":false,"is_disabled":false,"rental_uris":{"android":"levelo://app?vid=41fb818b-60a6-489a-8e55-c1b7a97bec77","ios":"levelo://app?vid=41fb818b-60a6-489a-8e55-c1b7a97bec77"},"vehicle_type_id":"4","last_reported":1683921990,"current_range_meters":11200,"station_id":"ce4bh692rcd13ifvqea0","pricing_plan_id":"free"},{"bike_id":"3fba657a-4fd6-46a9-ba44-69203b6f31ea","system_id":"levelo_inurba_marseille","lat":43.29256,"lon":5.38445,"is_reserved":false,"is_disabled":false,"rental_uris":{"android":"levelo://app?vid=3fba657a-4fd6-46a9-ba44-69203b6f31ea","ios":"levelo://app?vid=3fba657a-4fd6-46a9-ba44-69203b6f31ea"},"vehicle_type_id":"4","last_reported":1683921990,"current_range_meters":6400,"station_id":"ce4bh692rcd13ifvqea0","pricing_plan_id":"free"},{"bike_id":"3dae3da8-97ed-473e-b0de-f989d8c78ca3","system_id":"levelo_inurba_marseille","lat":43.29254,"lon":5.38442,"is_reserved":false,"is_disabled":false,"rental_uris":{"android":"levelo://app?vid=3dae3da8-97ed-473e-b0de-f989d8c78ca3","ios":"levelo://app?vid=3dae3da8-97ed-473e-b0de-f989d8c78ca3"},"vehicle_type_id":"4","last_reported":1683921990,"current_range_meters":0,"station_id":"ce4bh692rcd13ifvqea0","pricing_plan_id":"free"},{"bike_id":"d709ff1e-1fe3-43bb-b673-0278f62eadd6","system_id":"levelo_inurba_marseille","lat":43.292644,"lon":5.384257,"is_reserved":false,"is_disabled":false,"rental_uris":{"android":"levelo://app?vid=d709ff1e-1fe3-43bb-b673-0278f62eadd6","ios":"levelo://app?vid=d709ff1e-1fe3-43bb-b673-0278f62eadd6"},"vehicle_type_id":"4","last_reported":1683921990,"current_range_meters":25200,"station_id":"ce4bh692rcd13ifvqea0","pricing_plan_id":"free"},{"bike_id":"3680c964-196a-4075-b965-4fc1ab6266a4","system_id":"levelo_inurba_marseille","lat":43.292644,"lon":5.384257,"is_reserved":false,"is_disabled":false,"rental_uris":{"android":"levelo://app?vid=3680c964-196a-4075-b965-4fc1ab6266a4","ios":"levelo://app?vid=3680c964-196a-4075-b965-4fc1ab6266a4"},"vehicle_type_id":"4","last_reported":1683921990,"current_range_meters":23200,"station_id":"ce4bh692rcd13ifvqea0","pricing_plan_id":"free"},{"bike_id":"d9e5f2bb-ba6b-44a9-97c9-fc2fde9dd25a","system_id":"levelo_inurba_marseille","lat":43.292644,"lon":5.384257,"is_reserved":false,"is_disabled":false,"rental_uris":{"android":"levelo://app?vid=d9e5f2bb-ba6b-44a9-97c9-fc2fde9dd25a","ios":"levelo://app?vid=d9e5f2bb-ba6b-44a9-97c9-fc2fde9dd25a"},"vehicle_type_id":"4","last_reported":1683921990,"current_range_meters":6400,"station_id":"ce4bh692rcd13ifvqea0","pricing_plan_id":"free"},{"bike_id":"f40ddee2-e470-4bc5-9719-b7583d73bdd7","system_id":"levelo_inurba_marseille","lat":43.3304,"lon":5.38917,"is_reserved":false,"is_disabled":false,"rental_uris":{"android":"levelo://app?vid=f40ddee2-e470-4bc5-9719-b7583d73bdd7","ios":"levelo://app?vid=f40ddee2-e470-4bc5-9719-b7583d73bdd7"},"vehicle_type_id":"4","last_reported":1683921990,"current_range_meters":31200,"station_id":"ce4bhr92rcd13ifvqhrg","pricing_plan_id":"free"},{"bike_id":"a46a8f67-57a7-4030-a449-4873a987e56a","system_id":"levelo_inurba_marseille","lat":43.33043,"lon":5.38914,"is_reserved":false,"is_disabled":false,"rental_uris":{"android":"levelo://app?vid=a46a8f67-57a7-4030-a449-4873a987e56a","ios":"levelo://app?vid=a46a8f67-57a7-4030-a449-4873a987e56a"},"vehicle_type_id":"4","last_reported":1683921990,"current_range_meters":2000,"station_id":"ce4bhr92rcd13ifvqhrg","pricing_plan_id":"free"},{"bike_id":"959c02e7-4eea-47e8-b18e-ffd112eafc6f","system_id":"levelo_inurba_marseille","lat":43.33044,"lon":5.38914,"is_reserved":false,"is_disabled":false,"rental_uris":{"android":"levelo://app?vid=959c02e7-4eea-47e8-b18e-ffd112eafc6f","ios":"levelo://app?vid=959c02e7-4eea-47e8-b18e-ffd112eafc6f"},"vehicle_type_id":"4","last_reported":1683921990,"current_range_meters":27200,"station_id":"ce4bhr92rcd13ifvqhrg","pricing_plan_id":"free"},{"bike_id":"4bd08121-01c0-44b3-b00a-2ecfcb89cc44","system_id":"levelo_inurba_marseille","lat":43.33045,"lon":5.38915,"is_reserved":false,"is_disabled":false,"rental_uris":{"android":"levelo://app?vid=4bd08121-01c0-44b3-b00a-2ecfcb89cc44","ios":"levelo://app?vid=4bd08121-01c0-44b3-b00a-2ecfcb89cc44"},"vehicle_type_id":"4","last_reported":1683921990,"current_range_meters":2400,"station_id":"ce4bhr92rcd13ifvqhrg","pricing_plan_id":"free"},{"bike_id":"2afd2fab-6586-408c-abcf-4d90717156ad","system_id":"levelo_inurba_marseille","lat":43.33041,"lon":5.38923,"is_reserved":false,"is_disabled":false,"rental_uris":{"android":"levelo://app?vid=2afd2fab-6586-408c-abcf-4d90717156ad","ios":"levelo://app?vid=2afd2fab-6586-408c-abcf-4d90717156ad"},"vehicle_type_id":"4","last_reported":1683921990,"current_range_meters":13600,"station_id":"ce4bhr92rcd13ifvqhrg","pricing_plan_id":"free"},{"bike_id":"46e88677-6664-4a74-bb71-d47a11501dae","system_id":"levelo_inurba_marseille","lat":43.29007,"lon":5.35613,"is_reserved":false,"is_disabled":false,"rental_uris":{"android":"levelo://app?vid=46e88677-6664-4a74-bb71-d47a11501dae","ios":"levelo://app?vid=46e88677-6664-4a74-bb71-d47a11501dae"},"vehicle_type_id":"4","last_reported":1683921990,"current_range_meters":31200,"station_id":"ce4bhb92rcd13ifvqen0","pricing_plan_id":"free"},{"bike_id":"d10e2ada-d2c9-4894-aa9a-48fb5281bdba","system_id":"levelo_inurba_marseille","lat":43.29006,"lon":5.35615,"is_reserved":false,"is_disabled":false,"rental_uris":{"android":"levelo://app?vid=d10e2ada-d2c9-4894-aa9a-48fb5281bdba","ios":"levelo://app?vid=d10e2ada-d2c9-4894-aa9a-48fb5281bdba"},"vehicle_type_id":"4","last_reported":1683921990,"current_range_meters":25600,"station_id":"ce4bhb92rcd13ifvqen0","pricing_plan_id":"free"},{"bike_id":"c01b05ee-7b30-4827-a77e-295c3932b047","system_id":"levelo_inurba_marseille","lat":43.29005,"lon":5.35615,"is_reserved":false,"is_disabled":false,"rental_uris":{"android":"levelo://app?vid=c01b05ee-7b30-4827-a77e-295c3932b047","ios":"levelo://app?vid=c01b05ee-7b30-4827-a77e-295c3932b047"},"vehicle_type_id":"4","last_reported":1683921990,"current_range_meters":25600,"station_id":"ce4bhb92rcd13ifvqen0","pricing_plan_id":"free"},{"bike_id":"754ef565-0150-4f0d-8c0d-a8a5d6927613","system_id":"levelo_inurba_marseille","lat":43.33045,"lon":5.38923,"is_reserved":false,"is_disabled":false,"rental_uris":{"android":"levelo://app?vid=754ef565-0150-4f0d-8c0d-a8a5d6927613","ios":"levelo://app?vid=754ef565-0150-4f0d-8c0d-a8a5d6927613"},"vehicle_type_id":"4","last_reported":1683921990,"current_range_meters":22400,"station_id":"ce4bhr92rcd13ifvqhrg","pricing_plan_id":"free"},{"bike_id":"ce772c16-2124-4559-a022-d13d4b96951c","system_id":"levelo_inurba_marseille","lat":43.29003,"lon":5.35615,"is_reserved":false,"is_disabled":false,"rental_uris":{"android":"levelo://app?vid=ce772c16-2124-4559-a022-d13d4b96951c","ios":"levelo://app?vid=ce772c16-2124-4559-a022-d13d4b96951c"},"vehicle_type_id":"4","last_reported":1683921990,"current_range_meters":25600,"station_id":"ce4bhb92rcd13ifvqen0","pricing_plan_id":"free"},{"bike_id":"9fc3bef4-2dcf-458e-853b-30144cd104bd","system_id":"levelo_inurba_marseille","lat":43.29002,"lon":5.35616,"is_reserved":false,"is_disabled":false,"rental_uris":{"android":"levelo://app?vid=9fc3bef4-2dcf-458e-853b-30144cd104bd","ios":"levelo://app?vid=9fc3bef4-2dcf-458e-853b-30144cd104bd"},"vehicle_type_id":"4","last_reported":1683921990,"current_range_meters":4000,"station_id":"ce4bhb92rcd13ifvqen0","pricing_plan_id":"free"},{"bike_id":"808ca46d-cfbf-4dd2-8f8b-b50e8fcfeb92","system_id":"levelo_inurba_marseille","lat":43.290104,"lon":5.356111,"is_reserved":false,"is_disabled":false,"rental_uris":{"android":"levelo://app?vid=808ca46d-cfbf-4dd2-8f8b-b50e8fcfeb92","ios":"levelo://app?vid=808ca46d-cfbf-4dd2-8f8b-b50e8fcfeb92"},"vehicle_type_id":"4","last_reported":1683921990,"current_range_meters":2000,"station_id":"ce4bhb92rcd13ifvqen0","pricing_plan_id":"free"},{"bike_id":"d3f0fdd2-359c-40a8-88fb-f7d17617bc3b","system_id":"levelo_inurba_marseille","lat":43.290104,"lon":5.356111,"is_reserved":false,"is_disabled":false,"rental_uris":{"android":"levelo://app?vid=d3f0fdd2-359c-40a8-88fb-f7d17617bc3b","ios":"levelo://app?vid=d3f0fdd2-359c-40a8-88fb-f7d17617bc3b"},"vehicle_type_id":"4","last_reported":1683921990,"current_range_meters":0,"station_id":"ce4bhb92rcd13ifvqen0","pricing_plan_id":"free"},{"bike_id":"aeab5a6f-9a91-41d1-9053-5d7a3d1922a1","system_id":"levelo_inurba_marseille","lat":43.290995,"lon":5.381361,"is_reserved":false,"is_disabled":false,"rental_uris":{"android":"levelo://app?vid=aeab5a6f-9a91-41d1-9053-5d7a3d1922a1","ios":"levelo://app?vid=aeab5a6f-9a91-41d1-9053-5d7a3d1922a1"},"vehicle_type_id":"4","last_reported":1683921990,"current_range_meters":22000,"station_id":"ce4bh512rcd13ifvqe2g","pricing_plan_id":"free"},{"bike_id":"c3c3209f-656f-44ca-a6ce-be99a44279cf","system_id":"levelo_inurba_marseille","lat":43.295169,"lon":5.390426,"is_reserved":false,"is_disabled":false,"rental_uris":{"android":"levelo://app?vid=c3c3209f-656f-44ca-a6ce-be99a44279cf","ios":"levelo://app?vid=c3c3209f-656f-44ca-a6ce-be99a44279cf"},"vehicle_type_id":"4","last_reported":1683921990,"current_range_meters":21600,"station_id":"ce4bh3p2rcd13ifvqdp0","pricing_plan_id":"free"},{"bike_id":"2ddf77e5-8225-48e4-b0ac-2421a1a92e77","system_id":"levelo_inurba_marseille","lat":43.295169,"lon":5.390426,"is_reserved":false,"is_disabled":false,"rental_uris":{"android":"levelo://app?vid=2ddf77e5-8225-48e4-b0ac-2421a1a92e77","ios":"levelo://app?vid=2ddf77e5-8225-48e4-b0ac-2421a1a92e77"},"vehicle_type_id":"4","last_reported":1683921990,"current_range_meters":15200,"station_id":"ce4bh3p2rcd13ifvqdp0","pricing_plan_id":"free"},{"bike_id":"8712a191-6d7e-43ce-9cdf-2e3e45e78c3b","system_id":"levelo_inurba_marseille","lat":43.295169,"lon":5.390426,"is_reserved":false,"is_disabled":false,"rental_uris":{"android":"levelo://app?vid=8712a191-6d7e-43ce-9cdf-2e3e45e78c3b","ios":"levelo://app?vid=8712a191-6d7e-43ce-9cdf-2e3e45e78c3b"},"vehicle_type_id":"4","last_reported":1683921990,"current_range_meters":27600,"station_id":"ce4bh3p2rcd13ifvqdp0","pricing_plan_id":"free"},{"bike_id":"d51e1502-78c4-4dd9-9d56-1a58c32575fd","system_id":"levelo_inurba_marseille","lat":43.295169,"lon":5.390426,"is_reserved":false,"is_disabled":false,"rental_uris":{"android":"levelo://app?vid=d51e1502-78c4-4dd9-9d56-1a58c32575fd","ios":"levelo://app?vid=d51e1502-78c4-4dd9-9d56-1a58c32575fd"},"vehicle_type_id":"4","last_reported":1683921990,"current_range_meters":27600,"station_id":"ce4bh3p2rcd13ifvqdp0","pricing_plan_id":"free"},{"bike_id":"28d66efe-4b1e-4d9d-9a8b-23be2601d3dc","system_id":"levelo_inurba_marseille","lat":43.295169,"lon":5.390426,"is_reserved":false,"is_disabled":false,"rental_uris":{"android":"levelo://app?vid=28d66efe-4b1e-4d9d-9a8b-23be2601d3dc","ios":"levelo://app?vid=28d66efe-4b1e-4d9d-9a8b-23be2601d3dc"},"vehicle_type_id":"4","last_reported":1683921990,"current_range_meters":22400,"station_id":"ce4bh3p2rcd13ifvqdp0","pricing_plan_id":"free"},{"bike_id":"fb660f07-2d76-475f-91af-969cfb9c593f","system_id":"levelo_inurba_marseille","lat":43.290094,"lon":5.381264,"is_reserved":false,"is_disabled":false,"rental_uris":{"android":"levelo://app?vid=fb660f07-2d76-475f-91af-969cfb9c593f","ios":"levelo://app?vid=fb660f07-2d76-475f-91af-969cfb9c593f"},"vehicle_type_id":"4","last_reported":1683921990,"current_range_meters":18400,"station_id":"ce4bh4p2rcd13ifvqe1g","pricing_plan_id":"free"},{"bike_id":"011c1f2b-0649-4395-a527-d2058608b1b1","system_id":"levelo_inurba_marseille","lat":43.290094,"lon":5.381264,"is_reserved":false,"is_disabled":false,"rental_uris":{"android":"levelo://app?vid=011c1f2b-0649-4395-a527-d2058608b1b1","ios":"levelo://app?vid=011c1f2b-0649-4395-a527-d2058608b1b1"},"vehicle_type_id":"4","last_reported":1683921990,"current_range_meters":31200,"station_id":"ce4bh4p2rcd13ifvqe1g","pricing_plan_id":"free"},{"bike_id":"1bb1d7e0-4389-4660-aac6-b3cd8bfce7db","system_id":"levelo_inurba_marseille","lat":43.29373,"lon":5.38884,"is_reserved":false,"is_disabled":false,"rental_uris":{"android":"levelo://app?vid=1bb1d7e0-4389-4660-aac6-b3cd8bfce7db","ios":"levelo://app?vid=1bb1d7e0-4389-4660-aac6-b3cd8bfce7db"},"vehicle_type_id":"4","last_reported":1683921990,"current_range_meters":6800,"station_id":"","pricing_plan_id":"free"},{"bike_id":"dea0cd85-6be0-4b31-b973-dbfbedcc64be","system_id":"levelo_inurba_marseille","lat":43.2901,"lon":5.381269,"is_reserved":false,"is_disabled":false,"rental_uris":{"android":"levelo://app?vid=dea0cd85-6be0-4b31-b973-dbfbedcc64be","ios":"levelo://app?vid=dea0cd85-6be0-4b31-b973-dbfbedcc64be"},"vehicle_type_id":"4","last_reported":1683921990,"current_range_meters":6400,"station_id":"ce4bh4p2rcd13ifvqe1g","pricing_plan_id":"free"},{"bike_id":"7a6a82c2-695e-4b05-8cbb-869844c3e906","system_id":"levelo_inurba_marseille","lat":43.290094,"lon":5.381264,"is_reserved":false,"is_disabled":false,"rental_uris":{"android":"levelo://app?vid=7a6a82c2-695e-4b05-8cbb-869844c3e906","ios":"levelo://app?vid=7a6a82c2-695e-4b05-8cbb-869844c3e906"},"vehicle_type_id":"4","last_reported":1683921990,"current_range_meters":32000,"station_id":"ce4bh4p2rcd13ifvqe1g","pricing_plan_id":"free"},{"bike_id":"49ffdb8c-fae9-473c-aaf6-ecc0883b6225","system_id":"levelo_inurba_marseille","lat":43.30642,"lon":5.401031,"is_reserved":false,"is_disabled":false,"rental_uris":{"android":"levelo://app?vid=49ffdb8c-fae9-473c-aaf6-ecc0883b6225","ios":"levelo://app?vid=49ffdb8c-fae9-473c-aaf6-ecc0883b6225"},"vehicle_type_id":"4","last_reported":1683921990,"current_range_meters":20000,"station_id":"ce4bh112rcd13ifvqda0","pricing_plan_id":"free"},{"bike_id":"4fdb7dd2-3b90-41a6-89f8-eded0fb24003","system_id":"levelo_inurba_marseille","lat":43.286591,"lon":5.363346,"is_reserved":false,"is_disabled":false,"rental_uris":{"android":"levelo://app?vid=4fdb7dd2-3b90-41a6-89f8-eded0fb24003","ios":"levelo://app?vid=4fdb7dd2-3b90-41a6-89f8-eded0fb24003"},"vehicle_type_id":"4","last_reported":1683921990,"current_range_meters":6800,"station_id":"ce4bhah2rcd13ifvqej0","pricing_plan_id":"free"},{"bike_id":"f6db07c3-c35a-4f2a-993a-3ea482edaf52","system_id":"levelo_inurba_marseille","lat":43.290345,"lon":5.38646,"is_reserved":false,"is_disabled":false,"rental_uris":{"android":"levelo://app?vid=f6db07c3-c35a-4f2a-993a-3ea482edaf52","ios":"levelo://app?vid=f6db07c3-c35a-4f2a-993a-3ea482edaf52"},"vehicle_type_id":"4","last_reported":1683921990,"current_range_meters":2000,"station_id":"ce4bh4p2rcd13ifvqe0g","pricing_plan_id":"free"},{"bike_id":"273dc88c-db2b-4069-817b-b9a6587d8a63","system_id":"levelo_inurba_marseille","lat":43.290336,"lon":5.386425,"is_reserved":false,"is_disabled":false,"rental_uris":{"android":"levelo://app?vid=273dc88c-db2b-4069-817b-b9a6587d8a63","ios":"levelo://app?vid=273dc88c-db2b-4069-817b-b9a6587d8a63"},"vehicle_type_id":"4","last_reported":1683921990,"current_range_meters":7600,"station_id":"ce4bh4p2rcd13ifvqe0g","pricing_plan_id":"free"},{"bike_id":"eae60d98-0cbd-4a17-b3c7-2391d012b540","system_id":"levelo_inurba_marseille","lat":43.290336,"lon":5.386425,"is_reserved":false,"is_disabled":false,"rental_uris":{"android":"levelo://app?vid=eae60d98-0cbd-4a17-b3c7-2391d012b540","ios":"levelo://app?vid=eae60d98-0cbd-4a17-b3c7-2391d012b540"},"vehicle_type_id":"4","last_reported":1683921990,"current_range_meters":0,"station_id":"ce4bh4p2rcd13ifvqe0g","pricing_plan_id":"free"},{"bike_id":"c52d965b-7396-4bac-82a6-5764f80ef83b","system_id":"levelo_inurba_marseille","lat":43.290336,"lon":5.386425,"is_reserved":false,"is_disabled":false,"rental_uris":{"android":"levelo://app?vid=c52d965b-7396-4bac-82a6-5764f80ef83b","ios":"levelo://app?vid=c52d965b-7396-4bac-82a6-5764f80ef83b"},"vehicle_type_id":"4","last_reported":1683921990,"current_range_meters":11200,"station_id":"ce4bh4p2rcd13ifvqe0g","pricing_plan_id":"free"},{"bike_id":"c294f617-9acf-43ef-a5ab-0547bc9d2835","system_id":"levelo_inurba_marseille","lat":43.286039,"lon":5.370679,"is_reserved":false,"is_disabled":false,"rental_uris":{"android":"levelo://app?vid=c294f617-9acf-43ef-a5ab-0547bc9d2835","ios":"levelo://app?vid=c294f617-9acf-43ef-a5ab-0547bc9d2835"},"vehicle_type_id":"4","last_reported":1683921990,"current_range_meters":8400,"station_id":"ce4bht12rcd13ifvqi60","pricing_plan_id":"free"},{"bike_id":"6d09d92f-a989-4e04-a80d-3abdbd7c877f","system_id":"levelo_inurba_marseille","lat":43.287185,"lon":5.379373,"is_reserved":false,"is_disabled":false,"rental_uris":{"android":"levelo://app?vid=6d09d92f-a989-4e04-a80d-3abdbd7c877f","ios":"levelo://app?vid=6d09d92f-a989-4e04-a80d-3abdbd7c877f"},"vehicle_type_id":"4","last_reported":1683921990,"current_range_meters":2000,"station_id":"ce4bh9p2rcd13ifvqec0","pricing_plan_id":"free"},{"bike_id":"1242aa3d-aa6b-4b3f-8d75-f810226b5fc3","system_id":"levelo_inurba_marseille","lat":43.287184,"lon":5.37937,"is_reserved":false,"is_disabled":false,"rental_uris":{"android":"levelo://app?vid=1242aa3d-aa6b-4b3f-8d75-f810226b5fc3","ios":"levelo://app?vid=1242aa3d-aa6b-4b3f-8d75-f810226b5fc3"},"vehicle_type_id":"4","last_reported":1683921990,"current_range_meters":26400,"station_id":"ce4bh9p2rcd13ifvqec0","pricing_plan_id":"free"},{"bike_id":"55420c9a-78d5-4d9c-8b70-67e3d7f8c8c6","system_id":"levelo_inurba_marseille","lat":43.31643,"lon":5.40429,"is_reserved":false,"is_disabled":false,"rental_uris":{"android":"levelo://app?vid=55420c9a-78d5-4d9c-8b70-67e3d7f8c8c6","ios":"levelo://app?vid=55420c9a-78d5-4d9c-8b70-67e3d7f8c8c6"},"vehicle_type_id":"4","last_reported":1683921990,"current_range_meters":22400,"station_id":"ce4bh012rcd13ifvqd00","pricing_plan_id":"free"},{"bike_id":"00d63388-b0c4-485e-85d1-1298e20d7050","system_id":"levelo_inurba_marseille","lat":43.3164,"lon":5.4043,"is_reserved":false,"is_disabled":false,"rental_uris":{"android":"levelo://app?vid=00d63388-b0c4-485e-85d1-1298e20d7050","ios":"levelo://app?vid=00d63388-b0c4-485e-85d1-1298e20d7050"},"vehicle_type_id":"4","last_reported":1683921990,"current_range_meters":20800,"station_id":"ce4bh012rcd13ifvqd00","pricing_plan_id":"free"},