{"last_updated":1687082767,"ttl":30,"version":"2.2","data":{"bikes":[{"bike_id":"8b412378-0476-4cd6-81d9-857099b18a1f","system_id":"levelo_inurba_marseille","lat":43.312217,"lon":5.368426,"is_reserved":false,"is_disabled":false,"rental_uris":{"android":"levelo://app?vid=8b412378-0476-4cd6-81d9-857099b18a1f","ios":"levelo://app?vid=8b412378-0476-4cd6-81d9-857099b18a1f"},"vehicle_type_id":"4","last_reported":1687082768,"current_range_meters":31200,"station_id":"ce4bgl92rcd13ifvqbq0","pricing_plan_id":"free"},{"bike_id":"833cc643-7a0b-43b4-8611-0dc0a866c5ca","system_id":"levelo_inurba_marseille","lat":43.312239,"lon":5.368562,"is_reserved":false,"is_disabled":false,"rental_uris":{"android":"levelo://app?vid=833cc643-7a0b-43b4-8611-0dc0a866c5ca","ios":"levelo://app?vid=833cc643-7a0b-43b4-8611-0dc0a866c5ca"},"vehicle_type_id":"4","last_reported":1687082768,"current_range_meters":31200,"station_id":"ce4bgl92rcd13ifvqbq0","pricing_plan_id":"free"},{"bike_id":"2f92942c-7aad-499f-9fe2-df6dde5b4493","system_id":"levelo_inurba_marseille","lat":43.312239,"lon":5.368562,"is_reserved":false,"is_disabled":false,"rental_uris":{"android":"levelo://app?vid=2f92942c-7aad-499f-9fe2-df6dde5b4493","ios":"levelo://app?vid=2f92942c-7aad-499f-9fe2-df6dde5b4493"},"vehicle_type_id":"4","last_reported":1687082768,"current_range_meters":12400,"station_id":"ce4bgl92rcd13ifvqbq0","pricing_plan_id":"free"},{"bike_id":"3de3f67c-ff60-4e62-91ec-9acb93562be9","system_id":"levelo_inurba_marseille","lat":43.312239,"lon":5.368562,"is_reserved":false,"is_disabled":false,"rental_uris":{"android":"levelo://app?vid=3de3f67c-ff60-4e62-91ec-9acb93562be9","ios":"levelo://app?vid=3de3f67c-ff60-4e62-91ec-9acb93562be9"},"vehicle_type_id":"4","last_reported":1687082768,"current_range_meters":14400,"station_id":"ce4bgl92rcd13ifvqbq0","pricing_plan_id":"free"},{"bike_id":"7bd2c147-0c26-414f-9b11-ac3217651b33","system_id":"levelo_inurba_marseille","lat":43.312239,"lon":5.368562,"is_reserved":false,"is_disabled":false,"rental_uris":{"android":"levelo://app?vid=7bd2c147-0c26-414f-9b11-ac3217651b33","ios":"levelo://app?vid=7bd2c147-0c26-414f-9b11-ac3217651b33"},"vehicle_type_id":"4","last_reported":1687082768,"current_range_meters":18000,"station_id":"ce4bgl92rcd13ifvqbq0","pricing_plan_id":"free"},{"bike_id":"363eaf7a-a1c5-4742-8afe-dc153957150c","system_id":"levelo_inurba_marseille","lat":43.309076,"lon":5.368465,"is_reserved":false,"is_disabled":false,"rental_uris":{"android":"levelo://app?vid=363eaf7a-a1c5-4742-8afe-dc153957150c","ios":"levelo://app?vid=363eaf7a-a1c5-4742-8afe-dc153957150c"},"vehicle_type_id":"4","last_reported":1687082768,"current_range_meters":30000,"station_id":"ce4bgn92rcd13ifvqbvg","pricing_plan_id":"free"},{"bike_id":"15155cfc-ab8d-4327-ab1f-413cc1c9c57f","system_id":"levelo_inurba_marseille","lat":43.309076,"lon":5.368465,"is_reserved":false,"is_disabled":false,"rental_uris":{"android":"levelo://app?vid=15155cfc-ab8d-4327-ab1f-413cc1c9c57f","ios":"levelo://app?vid=15155cfc-ab8d-4327-ab1f-413cc1c9c57f"},"vehicle_type_id":"4","last_reported":1687082768,"current_range_meters":22400,"station_id":"ce4bgn92rcd13ifvqbvg","pricing_plan_id":"free"},{"bike_id":"c3e13371-6c85-458e-853b-04e9256ebc79","system_id":"levelo_inurba_marseille","lat":43.314811,"lon":5.373103,"is_reserved":false,"is_disabled":false,"rental_uris":{"android":"levelo://app?vid=c3e13371-6c85-458e-853b-04e9256ebc79","ios":"levelo://app?vid=c3e13371-6c85-458e-853b-04e9256ebc79"},"vehicle_type_id":"4","last_reported":1687082768,"current_range_meters":29200,"station_id":"ce4bgt12rcd13ifvqcd0","pricing_plan_id":"free"},{"bike_id":"e760ad54-bc70-451b-95fd-f83c1550d297","system_id":"levelo_inurba_marseille","lat":43.314811,"lon":5.373104,"is_reserved":false,"is_disabled":false,"rental_uris":{"android":"levelo://app?vid=e760ad54-bc70-451b-95fd-f83c1550d297","ios":"levelo://app?vid=e760ad54-bc70-451b-95fd-f83c1550d297"},"vehicle_type_id":"4","last_reported":1687082768,"current_range_meters":3200,"station_id":"ce4bgt12rcd13ifvqcd0","pricing_plan_id":"free"},{"bike_id":"9c746439-937e-436d-8c66-cb90c42aae7f","system_id":"levelo_inurba_marseille","lat":43.31417,"lon":5.37358,"is_reserved":false,"is_disabled":false,"rental_uris":{"android":"levelo://app?vid=9c746439-937e-436d-8c66-cb90c42aae7f","ios":"levelo://app?vid=9c746439-937e-436d-8c66-cb90c42aae7f"},"vehicle_type_id":"4","last_reported":1687082768,"current_range_meters":25200,"station_id":"","pricing_plan_id":"free"},{"bike_id":"6ff727fa-63b8-4e0b-9507-175e543e2617","system_id":"levelo_inurba_marseille","lat":43.308606,"lon":5.372099,"is_reserved":false,"is_disabled":false,"rental_uris":{"android":"levelo://app?vid=6ff727fa-63b8-4e0b-9507-175e543e2617","ios":"levelo://app?vid=6ff727fa-63b8-4e0b-9507-175e543e2617"},"vehicle_type_id":"4","last_reported":1687082768,"current_range_meters":24000,"station_id":"ce4bguh2rcd13ifvqckg","pricing_plan_id":"free"},{"bike_id":"bc5dfdcd-9f3f-442f-8ff0-f90c18be3eef","system_id":"levelo_inurba_marseille","lat":43.30807,"lon":5.37045,"is_reserved":false,"is_disabled":false,"rental_uris":{"android":"levelo://app?vid=bc5dfdcd-9f3f-442f-8ff0-f90c18be3eef","ios":"levelo://app?vid=bc5dfdcd-9f3f-442f-8ff0-f90c18be3eef"},"vehicle_type_id":"4","last_reported":1687082768,"current_range_meters":0,"station_id":"","pricing_plan_id":"free"},{"bike_id":"03c63a22-5af4-4731-b58c-68faf2f7a292","system_id":"levelo_inurba_marseille","lat":43.3171,"lon":5.37367,"is_reserved":false,"is_disabled":false,"rental_uris":{"android":"levelo://app?vid=03c63a22-5af4-4731-b58c-68faf2f7a292","ios":"levelo://app?vid=03c63a22-5af4-4731-b58c-68faf2f7a292"},"vehicle_type_id":"4","last_reported":1687082768,"current_range_meters":29200,"station_id":"","pricing_plan_id":"free"},{"bike_id":"a722b750-6b41-4fa5-86d5-277ac1089465","system_id":"levelo_inurba_marseille","lat":43.305706,"lon":5.365654,"is_reserved":false,"is_disabled":false,"rental_uris":{"android":"levelo://app?vid=a722b750-6b41-4fa5-86d5-277ac1089465","ios":"levelo://app?vid=a722b750-6b41-4fa5-86d5-277ac1089465"},"vehicle_type_id":"4","last_reported":1687082768,"current_range_meters":4000,"station_id":"ce4bgs12rcd13ifvqcag","pricing_plan_id":"free"},{"bike_id":"b407698d-80f0-410b-b6b9-5229d399a12f","system_id":"levelo_inurba_marseille","lat":43.305706,"lon":5.365654,"is_reserved":false,"is_disabled":false,"rental_uris":{"android":"levelo://app?vid=b407698d-80f0-410b-b6b9-5229d399a12f","ios":"levelo://app?vid=b407698d-80f0-410b-b6b9-5229d399a12f"},"vehicle_type_id":"4","last_reported":1687082768,"current_range_meters":24000,"station_id":"ce4bgs12rcd13ifvqcag","pricing_plan_id":"free"},{"bike_id":"7ce1d9f8-70dd-4dbb-8fe3-e1d5fdd337eb","system_id":"levelo_inurba_marseille","lat":43.305706,"lon":5.365654,"is_reserved":false,"is_disabled":false,"rental_uris":{"android":"levelo://app?vid=7ce1d9f8-70dd-4dbb-8fe3-e1d5fdd337eb","ios":"levelo://app?vid=7ce1d9f8-70dd-4dbb-8fe3-e1d5fdd337eb"},"vehicle_type_id":"4","last_reported":1687082768,"current_range_meters":16800,"station_id":"ce4bgs12rcd13ifvqcag","pricing_plan_id":"free"},{"bike_id":"76dd464e-2ec2-49b0-93d8-52966de80056","system_id":"levelo_inurba_marseille","lat":43.311131,"lon":5.377651,"is_reserved":false,"is_disabled":false,"rental_uris":{"android":"levelo://app?vid=76dd464e-2ec2-49b0-93d8-52966de80056","ios":"levelo://app?vid=76dd464e-2ec2-49b0-93d8-52966de80056"},"vehicle_type_id":"4","last_reported":1687082768,"current_range_meters":22000,"station_id":"ce4bgt92rcd13ifvqcg0","pricing_plan_id":"free"},{"bike_id":"2424216c-0462-4ad0-b127-d0366c91b61c","system_id":"levelo_inurba_marseille","lat":43.31685,"lon":5.37722,"is_reserved":false,"is_disabled":false,"rental_uris":{"android":"levelo://app?vid=2424216c-0462-4ad0-b127-d0366c91b61c","ios":"levelo://app?vid=2424216c-0462-4ad0-b127-d0366c91b61c"},"vehicle_type_id":"4","last_reported":1687082768,"current_range_meters":29200,"station_id":"","pricing_plan_id":"free"},{"bike_id":"142ea6ff-5a56-4e78-a0fb-fc43c2431b5c","system_id":"levelo_inurba_marseille","lat":43.3171,"lon":5.37755,"is_reserved":false,"is_disabled":false,"rental_uris":{"android":"levelo://app?vid=142ea6ff-5a56-4e78-a0fb-fc43c2431b5c","ios":"levelo://app?vid=142ea6ff-5a56-4e78-a0fb-fc43c2431b5c"},"vehicle_type_id":"4","last_reported":1687082768,"current_range_meters":28400,"station_id":"ce4bgth2rcd13ifvqch0","pricing_plan_id":"free"},{"bike_id":"3bbb518e-9a83-40f5-84e5-3a5e60f17226","system_id":"levelo_inurba_marseille","lat":43.317075,"lon":5.377367,"is_reserved":false,"is_disabled":false,"rental_uris":{"android":"levelo://app?vid=3bbb518e-9a83-40f5-84e5-3a5e60f17226","ios":"levelo://app?vid=3bbb518e-9a83-40f5-84e5-3a5e60f17226"},"vehicle_type_id":"4","last_reported":1687082768,"current_range_meters":25600,"station_id":"ce4bgth2rcd13ifvqch0","pricing_plan_id":"free"},{"bike_id":"1e0fa5fc-a427-4e8b-bdb3-7a214ec54fa7","system_id":"levelo_inurba_marseille","lat":43.303046,"lon":5.368981,"is_reserved":false,"is_disabled":false,"rental_uris":{"android":"levelo://app?vid=1e0fa5fc-a427-4e8b-bdb3-7a214ec54fa7","ios":"levelo://app?vid=1e0fa5fc-a427-4e8b-bdb3-7a214ec54fa7"},"vehicle_type_id":"4","last_reported":1687082768,"current_range_meters":16800,"station_id":"ce4bgqh2rcd13ifvqc5g","pricing_plan_id":"free"},{"bike_id":"76d1c45a-9b9e-4baf-870a-3c5cb5060ca7","system_id":"levelo_inurba_marseille","lat":43.303046,"lon":5.368981,"is_reserved":false,"is_disabled":false,"rental_uris":{"android":"levelo://app?vid=76d1c45a-9b9e-4baf-870a-3c5cb5060ca7","ios":"levelo://app?vid=76d1c45a-9b9e-4baf-870a-3c5cb5060ca7"},"vehicle_type_id":"4","last_reported":1687082768,"current_range_meters":15600,"station_id":"ce4bgqh2rcd13ifvqc5g","pricing_plan_id":"free"},{"bike_id":"a60f13e4-f0d8-4501-b652-4567fa9bd974","system_id":"levelo_inurba_marseille","lat":43.303046,"lon":5.368981,"is_reserved":false,"is_disabled":false,"rental_uris":{"android":"levelo://app?vid=a60f13e4-f0d8-4501-b652-4567fa9bd974","ios":"levelo://app?vid=a60f13e4-f0d8-4501-b652-4567fa9bd974"},"vehicle_type_id":"4","last_reported":1687082768,"current_range_meters":9200,"station_id":"ce4bgqh2rcd13ifvqc5g","pricing_plan_id":"free"},{"bike_id":"cada2054-cd0b-4ffd-b35d-70e3683fc5a7","system_id":"levelo_inurba_marseille","lat":43.315293,"lon":5.380349,"is_reserved":false,"is_disabled":false,"rental_uris":{"android":"levelo://app?vid=cada2054-cd0b-4ffd-b35d-70e3683fc5a7","ios":"levelo://app?vid=cada2054-cd0b-4ffd-b35d-70e3683fc5a7"},"vehicle_type_id":"4","last_reported":1687082768,"current_range_meters":29600,"station_id":"ce4bhsp2rcd13ifvqi50","pricing_plan_id":"free"},{"bike_id":"54105187-4d93-4d9f-90b5-aa0b4942a62d","system_id":"levelo_inurba_marseille","lat":43.315289,"lon":5.380349,"is_reserved":false,"is_disabled":false,"rental_uris":{"android":"levelo://app?vid=54105187-4d93-4d9f-90b5-aa0b4942a62d","ios":"levelo://app?vid=54105187-4d93-4d9f-90b5-aa0b4942a62d"},"vehicle_type_id":"4","last_reported":1687082768,"current_range_meters":30000,"station_id":"ce4bhsp2rcd13ifvqi50","pricing_plan_id":"free"},{"bike_id":"8d51db3c-ddf0-4868-a42f-0868b9c8ed86","system_id":"levelo_inurba_marseille","lat":43.31535,"lon":5.38028,"is_reserved":false,"is_disabled":false,"rental_uris":{"android":"levelo://app?vid=8d51db3c-ddf0-4868-a42f-0868b9c8ed86","ios":"levelo://app?vid=8d51db3c-ddf0-4868-a42f-0868b9c8ed86"},"vehicle_type_id":"4","last_reported":1687082768,"current_range_meters":30400,"station_id":"ce4bhsp2rcd13ifvqi50","pricing_plan_id":"free"},{"bike_id":"94107f06-e304-40bf-9c9b-91d6304d67c0","system_id":"levelo_inurba_marseille","lat":43.315289,"lon":5.380349,"is_reserved":false,"is_disabled":false,"rental_uris":{"android":"levelo://app?vid=94107f06-e304-40bf-9c9b-91d6304d67c0","ios":"levelo://app?vid=94107f06-e304-40bf-9c9b-91d6304d67c0"},"vehicle_type_id":"4","last_reported":1687082768,"current_range_meters":16400,"station_id":"ce4bhsp2rcd13ifvqi50","pricing_plan_id":"free"},{"bike_id":"c19d57ec-cbf0-433c-a1a7-f9f0e19e2812","system_id":"levelo_inurba_marseille","lat":43.301939,"lon":5.366286,"is_reserved":false,"is_disabled":false,"rental_uris":{"android":"levelo://app?vid=c19d57ec-cbf0-433c-a1a7-f9f0e19e2812","ios":"levelo://app?vid=c19d57ec-cbf0-433c-a1a7-f9f0e19e2812"},"vehicle_type_id":"4","last_reported":1687082768,"current_range_meters":28400,"station_id":"ce4bgrh2rcd13ifvqc8g","pricing_plan_id":"free"},{"bike_id":"749f0042-150d-438d-b0bf-c62cf2ccb990","system_id":"levelo_inurba_marseille","lat":43.308075,"lon":5.381389,"is_reserved":false,"is_disabled":false,"rental_uris":{"android":"levelo://app?vid=749f0042-150d-438d-b0bf-c62cf2ccb990","ios":"levelo://app?vid=749f0042-150d-438d-b0bf-c62cf2ccb990"},"vehicle_type_id":"4","last_reported":1687082768,"current_range_meters":14400,"station_id":"ce4bgt12rcd13ifvqce0","pricing_plan_id":"free"},{"bike_id":"bb10728c-54c9-49d9-b5c1-bf2a22d6ba69","system_id":"levelo_inurba_marseille","lat":43.30807,"lon":5.38154,"is_reserved":false,"is_disabled":false,"rental_uris":{"android":"levelo://app?vid=bb10728c-54c9-49d9-b5c1-bf2a22d6ba69","ios":"levelo://app?vid=bb10728c-54c9-49d9-b5c1-bf2a22d6ba69"},"vehicle_type_id":"4","last_reported":1687082768,"current_range_meters":20400,"station_id":"ce4bgt12rcd13ifvqce0","pricing_plan_id":"free"},{"bike_id":"ae33307b-fcd5-479b-9ae1-9002ed226c6e","system_id":"levelo_inurba_marseille","lat":43.30802,"lon":5.38151,"is_reserved":false,"is_disabled":false,"rental_uris":{"android":"levelo://app?vid=ae33307b-fcd5-479b-9ae1-9002ed226c6e","ios":"levelo://app?vid=ae33307b-fcd5-479b-9ae1-9002ed226c6e"},"vehicle_type_id":"4","last_reported":1687082768,"current_range_meters":30400,"station_id":"ce4bgt12rcd13ifvqce0","pricing_plan_id":"free"},{"bike_id":"09dae4a7-2c0f-4c37-985a-1a181b173560","system_id":"levelo_inurba_marseille","lat":43.30799,"lon":5.38161,"is_reserved":false,"is_disabled":false,"rental_uris":{"android":"levelo://app?vid=09dae4a7-2c0f-4c37-985a-1a181b173560","ios":"levelo://app?vid=09dae4a7-2c0f-4c37-985a-1a181b173560"},"vehicle_type_id":"4","last_reported":1687082768,"current_range_meters":24000,"station_id":"ce4bgt12rcd13ifvqce0","pricing_plan_id":"free"},{"bike_id":"43fc693e-f2a9-4aec-8fd9-d094bb02cb70","system_id":"levelo_inurba_marseille","lat":43.304606,"lon":5.379026,"is_reserved":false,"is_disabled":false,"rental_uris":{"android":"levelo://app?vid=43fc693e-f2a9-4aec-8fd9-d094bb02cb70","ios":"levelo://app?vid=43fc693e-f2a9-4aec-8fd9-d094bb02cb70"},"vehicle_type_id":"4","last_reported":1687082768,"current_range_meters":18000,"station_id":"ce4bgup2rcd13ifvqcn0","pricing_plan_id":"free"},{"bike_id":"09cd0a2f-5397-440d-bdb7-da28f031f592","system_id":"levelo_inurba_marseille","lat":43.30276,"lon":5.37694,"is_reserved":false,"is_disabled":false,"rental_uris":{"android":"levelo://app?vid=09cd0a2f-5397-440d-bdb7-da28f031f592","ios":"levelo://app?vid=09cd0a2f-5397-440d-bdb7-da28f031f592"},"vehicle_type_id":"4","last_reported":1687082768,"current_range_meters":3200,"station_id":"ce4bguh2rcd13ifvqcj0","pricing_plan_id":"free"},{"bike_id":"6e7d472e-f6f0-49e0-9abf-e02754fc5df6","system_id":"levelo_inurba_marseille","lat":43.302784,"lon":5.377158,"is_reserved":false,"is_disabled":false,"rental_uris":{"android":"levelo://app?vid=6e7d472e-f6f0-49e0-9abf-e02754fc5df6","ios":"levelo://app?vid=6e7d472e-f6f0-49e0-9abf-e02754fc5df6"},"vehicle_type_id":"4","last_reported":1687082768,"current_range_meters":17600,"station_id":"ce4bguh2rcd13ifvqcj0","pricing_plan_id":"free"},{"bike_id":"4c755050-5aed-45e0-9296-927fc41158ba","system_id":"levelo_inurba_marseille","lat":43.319935,"lon":5.381699,"is_reserved":false,"is_disabled":false,"rental_uris":{"android":"levelo://app?vid=4c755050-5aed-45e0-9296-927fc41158ba","ios":"levelo://app?vid=4c755050-5aed-45e0-9296-927fc41158ba"},"vehicle_type_id":"4","last_reported":1687082768,"current_range_meters":26000,"station_id":"ce4bhr12rcd13ifvqhpg","pricing_plan_id":"free"},{"bike_id":"3c3aa989-db63-4017-86a4-556c2b8f3d59","system_id":"levelo_inurba_marseille","lat":43.319935,"lon":5.381699,"is_reserved":false,"is_disabled":false,"rental_uris":{"android":"levelo://app?vid=3c3aa989-db63-4017-86a4-556c2b8f3d59","ios":"levelo://app?vid=3c3aa989-db63-4017-86a4-556c2b8f3d59"},"vehicle_type_id":"4","last_reported":1687082768,"current_range_meters":18400,"station_id":"ce4bhr12rcd13ifvqhpg","pricing_plan_id":"free"},{"bike_id":"40e7df5d-04d5-43a9-926f-863219d91841","system_id":"levelo_inurba_marseille","lat":43.319935,"lon":5.381699,"is_reserved":false,"is_disabled":false,"rental_uris":{"android":"levelo://app?vid=40e7df5d-04d5-43a9-926f-863219d91841","ios":"levelo://app?vid=40e7df5d-04d5-43a9-926f-863219d91841"},"vehicle_type_id":"4","last_reported":1687082768,"current_range_meters":28800,"station_id":"ce4bhr12rcd13ifvqhpg","pricing_plan_id":"free"},{"bike_id":"485bc12e-b97d-460d-a761-3f26cdf7abb4","system_id":"levelo_inurba_marseille","lat":43.319935,"lon":5.381699,"is_reserved":false,"is_disabled":false,"rental_uris":{"android":"levelo://app?vid=485bc12e-b97d-460d-a761-3f26cdf7abb4","ios":"levelo://app?vid=485bc12e-b97d-460d-a761-3f26cdf7abb4"},"vehicle_type_id":"4","last_reported":1687082768,"current_range_meters":27200,"station_id":"ce4bhr12rcd13ifvqhpg","pricing_plan_id":"free"},{"bike_id":"1d47b2e2-b6b2-467e-89b2-30c2b3dd988b","system_id":"levelo_inurba_marseille","lat":43.31366,"lon":5.38507,"is_reserved":false,"is_disabled":false,"rental_uris":{"android":"levelo://app?vid=1d47b2e2-b6b2-467e-89b2-30c2b3dd988b","ios":"levelo://app?vid=1d47b2e2-b6b2-467e-89b2-30c2b3dd988b"},"vehicle_type_id":"4","last_reported":1687082768,"current_range_meters":12400,"station_id":"ce4bgt92rcd13ifvqcf0","pricing_plan_id":"free"},{"bike_id":"330412da-b9eb-49fa-9ba0-9288ee9ddd31","system_id":"levelo_inurba_marseille","lat":43.30036,"lon":5.37533,"is_reserved":false,"is_disabled":false,"rental_uris":{"android":"levelo://app?vid=330412da-b9eb-49fa-9ba0-9288ee9ddd31","ios":"levelo://app?vid=330412da-b9eb-49fa-9ba0-9288ee9ddd31"},"vehicle_type_id":"4","last_reported":1687082768,"current_range_meters":15200,"station_id":"","pricing_plan_id":"free"},{"bike_id":"686a213e-42f5-458f-a677-d9aa05f7eb68","system_id":"levelo_inurba_marseille","lat":43.298433,"lon":5.362774,"is_reserved":false,"is_disabled":false,"rental_uris":{"android":"levelo://app?vid=686a213e-42f5-458f-a677-d9aa05f7eb68","ios":"levelo://app?vid=686a213e-42f5-458f-a677-d9aa05f7eb68"},"vehicle_type_id":"4","last_reported":1687082768,"current_range_meters":29200,"station_id":"ce4bgpp2rcd13ifvqc3g","pricing_plan_id":"free"},{"bike_id":"8585fa7b-0f2f-412c-a5af-2eec4d6f7cd8","system_id":"levelo_inurba_marseille","lat":43.298433,"lon":5.362774,"is_reserved":false,"is_disabled":false,"rental_uris":{"android":"levelo://app?vid=8585fa7b-0f2f-412c-a5af-2eec4d6f7cd8","ios":"levelo://app?vid=8585fa7b-0f2f-412c-a5af-2eec4d6f7cd8"},"vehicle_type_id":"4","last_reported":1687082768,"current_range_meters":29200,"station_id":"ce4bgpp2rcd13ifvqc3g","pricing_plan_id":"free"},{"bike_id":"28057b64-8b20-4e17-929e-0f2eb09b4f52","system_id":"levelo_inurba_marseille","lat":43.299243,"lon":5.37481,"is_reserved":false,"is_disabled":false,"rental_uris":{"android":"levelo://app?vid=28057b64-8b20-4e17-929e-0f2eb09b4f52","ios":"levelo://app?vid=28057b64-8b20-4e17-929e-0f2eb09b4f52"},"vehicle_type_id":"4","last_reported":1687082768,"current_range_meters":25600,"station_id":"ce4bgjh2rcd13ifvqbg0","pricing_plan_id":"free"},{"bike_id":"e77d7ab0-1c57-4844-a9fc-2e2666c6ca94","system_id":"levelo_inurba_marseille","lat":43.29774,"lon":5.36954,"is_reserved":false,"is_disabled":false,"rental_uris":{"android":"levelo://app?vid=e77d7ab0-1c57-4844-a9fc-2e2666c6ca94","ios":"levelo://app?vid=e77d7ab0-1c57-4844-a9fc-2e2666c6ca94"},"vehicle_type_id":"4","last_reported":1687082768,"current_range_meters":31200,"station_id":"","pricing_plan_id":"free"},{"bike_id":"9327f140-0070-4058-8d48-f2d6d3213be1","system_id":"levelo_inurba_marseille","lat":43.297774,"lon":5.370875,"is_reserved":false,"is_disabled":false,"rental_uris":{"android":"levelo://app?vid=9327f140-0070-4058-8d48-f2d6d3213be1","ios":"levelo://app?vid=9327f140-0070-4058-8d48-f2d6d3213be1"},"vehicle_type_id":"4","last_reported":1687082768,"current_range_meters":27200,"station_id":"ce4bgop2rcd13ifvqc1g","pricing_plan_id":"free"},{"bike_id":"d4175595-0982-4085-a219-346e22f36d28","system_id":"levelo_inurba_marseille","lat":43.328371,"lon":5.366909,"is_reserved":false,"is_disabled":false,"rental_uris":{"android":"levelo://app?vid=d4175595-0982-4085-a219-346e22f36d28","ios":"levelo://app?vid=d4175595-0982-4085-a219-346e22f36d28"},"vehicle_type_id":"4","last_reported":1687082768,"current_range_meters":30800,"station_id":"ce4bhs92rcd13ifvqi0g","pricing_plan_id":"free"},{"bike_id":"6d5ccf33-759a-4c7a-af82-9f67388b4177","system_id":"levelo_inurba_marseille","lat":43.328371,"lon":5.366909,"is_reserved":false,"is_disabled":false,"rental_uris":{"android":"levelo://app?vid=6d5ccf33-759a-4c7a-af82-9f67388b4177","ios":"levelo://app?vid=6d5ccf33-759a-4c7a-af82-9f67388b4177"},"vehicle_type_id":"4","last_reported":1687082768,"current_range_meters":30800,"station_id":"ce4bhs92rcd13ifvqi0g","pricing_plan_id":"free"},{"bike_id":"3b343a5c-8423-476a-a7c8-83278a85a66d","system_id":"levelo_inurba_marseille","lat":43.328371,"lon":5.366909,"is_reserved":false,"is_disabled":false,"rental_uris":{"android":"levelo://app?vid=3b343a5c-8423-476a-a7c8-83278a85a66d","ios":"levelo://app?vid=3b343a5c-8423-476a-a7c8-83278a85a66d"},"vehicle_type_id":"4","last_reported":1687082768,"current_range_meters":30800,"station_id":"ce4bhs92rcd13ifvqi0g","pricing_plan_id":"free"},{"bike_id":"dba9e30e-a749-43fa-a75b-51b691339771","system_id":"levelo_inurba_marseille","lat":43.328371,"lon":5.366909,"is_reserved":false,"is_disabled":false,"rental_uris":{"android":"levelo://app?vid=dba9e30e-a749-43fa-a75b-51b691339771","ios":"levelo://app?vid=dba9e30e-a749-43fa-a75b-51b691339771"},"vehicle_type_id":"4","last_reported":1687082768,"current_range_meters":31200,"station_id":"ce4bhs92rcd13ifvqi0g","pricing_plan_id":"free"},{"bike_id":"5a3d057e-bbd5-40c5-982e-f22c9ac8f3e3","system_id":"levelo_inurba_marseille","lat":43.328371,"lon":5.366909,"is_reserved":false,"is_disabled":false,"rental_uris":{"android":"levelo://app?vid=5a3d057e-bbd5-40c5-982e-f22c9ac8f3e3","ios":"levelo://app?vid=5a3d057e-bbd5-40c5-982e-f22c9ac8f3e3"},"vehicle_type_id":"4","last_reported":1687082768,"current_range_meters":31200,"station_id":"ce4bhs92rcd13ifvqi0g","pricing_plan_id":"free"},{"bike_id":"eb463cab-b54c-4ed2-a710-d6d777606789","system_id":"levelo_inurba_marseille","lat":43.328371,"lon":5.366909,"is_reserved":false,"is_disabled":false,"rental_uris":{"android":"levelo://app?vid=eb463cab-b54c-4ed2-a710-d6d777606789","ios":"levelo://app?vid=eb463cab-b54c-4ed2-a710-d6d777606789"},"vehicle_type_id":"4","last_reported":1687082768,"current_range_meters":18400,"station_id":"ce4bhs92rcd13ifvqi0g","pricing_plan_id":"free"},{"bike_id":"d8eda6e4-f79f-4ded-bba3-de73394363f8","system_id":"levelo_inurba_marseille","lat":43.328371,"lon":5.366909,"is_reserved":false,"is_disabled":false,"rental_uris":{"android":"levelo://app?vid=d8eda6e4-f79f-4ded-bba3-de73394363f8","ios":"levelo://app?vid=d8eda6e4-f79f-4ded-bba3-de73394363f8"},"vehicle_type_id":"4","last_reported":1687082768,"current_range_meters":20400,"station_id":"ce4bhs92rcd13ifvqi0g","pricing_plan_id":"free"},{"bike_id":"69bf5c29-7e5d-45c7-b1b2-514d42707ee7","system_id":"levelo_inurba_marseille","lat":43.328371,"lon":5.366909,"is_reserved":false,"is_disabled":false,"rental_uris":{"android":"levelo://app?vid=69bf5c29-7e5d-45c7-b1b2-514d42707ee7","ios":"levelo://app?vid=69bf5c29-7e5d-45c7-b1b2-514d42707ee7"},"vehicle_type_id":"4","last_reported":1687082768,"current_range_meters":30800,"station_id":"ce4bhs92rcd13ifvqi0g","pricing_plan_id":"free"},{"bike_id":"01003604-ca83-4a0f-a050-81143b6da389","system_id":"levelo_inurba_marseille","lat":43.328371,"lon":5.366909,"is_reserved":false,"is_disabled":false,"rental_uris":{"android":"levelo://app?vid=01003604-ca83-4a0f-a050-81143b6da389","ios":"levelo://app?vid=01003604-ca83-4a0f-a050-81143b6da389"},"vehicle_type_id":"4","last_reported":1687082768,"current_range_meters":31200,"station_id":"ce4bhs92rcd13ifvqi0g","pricing_plan_id":"free"},{"bike_id":"b29eafc1-95db-4eca-8f84-abc6a7c593d5","system_id":"levelo_inurba_marseille","lat":43.297163,"lon":5.365866,"is_reserved":false,"is_disabled":false,"rental_uris":{"android":"levelo://app?vid=b29eafc1-95db-4eca-8f84-abc6a7c593d5","ios":"levelo://app?vid=b29eafc1-95db-4eca-8f84-abc6a7c593d5"},"vehicle_type_id":"4","last_reported":1687082768,"current_range_meters":0,"station_id":"ce4bgn12rcd13ifvqbt0","pricing_plan_id":"free"},{"bike_id":"731cce5d-c725-402d-b941-54910a08f036","system_id":"levelo_inurba_marseille","lat":43.328371,"lon":5.366909,"is_reserved":false,"is_disabled":false,"rental_uris":{"android":"levelo://app?vid=731cce5d-c725-402d-b941-54910a08f036","ios":"levelo://app?vid=731cce5d-c725-402d-b941-54910a08f036"},"vehicle_type_id":"4","last_reported":1687082768,"current_range_meters":30800,"station_id":"ce4bhs92rcd13ifvqi0g","pricing_plan_id":"free"},{"bike_id":"9e60ff88-fe04-4b70-9af4-05a83fe316c7","system_id":"levelo_inurba_marseille","lat":43.328371,"lon":5.366909,"is_reserved":false,"is_disabled":false,"rental_uris":{"android":"levelo://app?vid=9e60ff88-fe04-4b70-9af4-05a83fe316c7","ios":"levelo://app?vid=9e60ff88-fe04-4b70-9af4-05a83fe316c7"},"vehicle_type_id":"4","last_reported":1687082768,"current_range_meters":29600,"station_id":"ce4bhs92rcd13ifvqi0g","pricing_plan_id":"free"},{"bike_id":"3f03d43e-f71d-4760-933a-c0761b473da8","system_id":"levelo_inurba_marseille","lat":43.297163,"lon":5.365866,"is_reserved":false,"is_disabled":false,"rental_uris":{"android":"levelo://app?vid=3f03d43e-f71d-4760-933a-c0761b473da8","ios":"levelo://app?vid=3f03d43e-f71d-4760-933a-c0761b473da8"},"vehicle_type_id":"4","last_reported":1687082768,"current_range_meters":17600,"station_id":"ce4bgn12rcd13ifvqbt0","pricing_plan_id":"free"},{"bike_id":"176f4894-d7fc-460e-aa5d-7c8c1e206dc3","system_id":"levelo_inurba_marseille","lat":43.297163,"lon":5.365866,"is_reserved":false,"is_disabled":false,"rental_uris":{"android":"levelo://app?vid=176f4894-d7fc-460e-aa5d-7c8c1e206dc3","ios":"levelo://app?vid=176f4894-d7fc-460e-aa5d-7c8c1e206dc3"},"vehicle_type_id":"4","last_reported":1687082768,"current_range_meters":11600,"station_id":"ce4bgn12rcd13ifvqbt0","pricing_plan_id":"free"},{"bike_id":"7305d8d9-7d56-41c2-ae77-869303774f4d","system_id":"levelo_inurba_marseille","lat":43.328371,"lon":5.366909,"is_reserved":false,"is_disabled":false,"rental_uris":{"android":"levelo://app?vid=7305d8d9-7d56-41c2-ae77-869303774f4d","ios":"levelo://app?vid=7305d8d9-7d56-41c2-ae77-869303774f4d"},"vehicle_type_id":"4","last_reported":1687082768,"current_range_meters":16000,"station_id":"ce4bhs92rcd13ifvqi0g","pricing_plan_id":"free"},{"bike_id":"88d0330c-5bb0-4a19-9b65-d4683b42e015","system_id":"levelo_inurba_marseille","lat":43.29683,"lon":5.36046,"is_reserved":false,"is_disabled":false,"rental_uris":{"android":"levelo://app?vid=88d0330c-5bb0-4a19-9b65-d4683b42e015","ios":"levelo://app?vid=88d0330c-5bb0-4a19-9b65-d4683b42e015"},"vehicle_type_id":"4","last_reported":1687082768,"current_range_meters":3200,"station_id":"","pricing_plan_id":"free"},{"bike_id":"f6cae405-d829-4d27-a78f-2a80decc2a94","system_id":"levelo_inurba_marseille","lat":43.296131,"lon":5.370773,"is_reserved":false,"is_disabled":false,"rental_uris":{"android":"levelo://app?vid=f6cae405-d829-4d27-a78f-2a80decc2a94","ios":"levelo://app?vid=f6cae405-d829-4d27-a78f-2a80decc2a94"},"vehicle_type_id":"4","last_reported":1687082768,"current_range_meters":24400,"station_id":"ce4bgnh2rcd13ifvqc0g","pricing_plan_id":"free"},{"bike_id":"c685757e-f5c4-47d5-9b90-3a4ec793d780","system_id":"levelo_inurba_marseille","lat":43.29573,"lon":5.367355,"is_reserved":false,"is_disabled":false,"rental_uris":{"android":"levelo://app?vid=c685757e-f5c4-47d5-9b90-3a4ec793d780","ios":"levelo://app?vid=c685757e-f5c4-47d5-9b90-3a4ec793d780"},"vehicle_type_id":"4","last_reported":1687082768,"current_range_meters":24800,"station_id":"ce4bgph2rcd13ifvqc2g","pricing_plan_id":"free"},{"bike_id":"3734eb96-5ca3-440d-8d36-31e072dfc346","system_id":"levelo_inurba_marseille","lat":43.29583,"lon":5.36741,"is_reserved":false,"is_disabled":false,"rental_uris":{"android":"levelo://app?vid=3734eb96-5ca3-440d-8d36-31e072dfc346","ios":"levelo://app?vid=3734eb96-5ca3-440d-8d36-31e072dfc346"},"vehicle_type_id":"4","last_reported":1687082768,"current_range_meters":31200,"station_id":"ce4bgph2rcd13ifvqc2g","pricing_plan_id":"free"},{"bike_id":"f3685b86-9a67-4cc2-8b3b-ce9c4daeafd7","system_id":"levelo_inurba_marseille","lat":43.29573,"lon":5.367355,"is_reserved":false,"is_disabled":false,"rental_uris":{"android":"levelo://app?vid=f3685b86-9a67-4cc2-8b3b-ce9c4daeafd7","ios":"levelo://app?vid=f3685b86-9a67-4cc2-8b3b-ce9c4daeafd7"},"vehicle_type_id":"4","last_reported":1687082768,"current_range_meters":16000,"station_id":"ce4bgph2rcd13ifvqc2g","pricing_plan_id":"free"},{"bike_id":"33005838-378a-4fde-9580-a35f7107ff45","system_id":"levelo_inurba_marseille","lat":43.29573,"lon":5.367355,"is_reserved":false,"is_disabled":false,"rental_uris":{"android":"levelo://app?vid=33005838-378a-4fde-9580-a35f7107ff45","ios":"levelo://app?vid=33005838-378a-4fde-9580-a35f7107ff45"},"vehicle_type_id":"4","last_reported":1687082768,"current_range_meters":7200,"station_id":"ce4bgph2rcd13ifvqc2g","pricing_plan_id":"free"},{"bike_id":"24f41ca5-b432-4feb-a0c8-a15026b97306","system_id":"levelo_inurba_marseille","lat":43.296131,"lon":5.370773,"is_reserved":false,"is_disabled":false,"rental_uris":{"android":"levelo://app?vid=24f41ca5-b432-4feb-a0c8-a15026b97306","ios":"levelo://app?vid=24f41ca5-b432-4feb-a0c8-a15026b97306"},"vehicle_type_id":"4","last_reported":1687082768,"current_range_meters":12800,"station_id":"ce4bgnh2rcd13ifvqc0g","pricing_plan_id":"free"},{"bike_id":"8747852a-241d-4dd0-aa61-1ebd579ca232","system_id":"levelo_inurba_marseille","lat":43.296921,"lon":5.376579,"is_reserved":false,"is_disabled":false,"rental_uris":{"android":"levelo://app?vid=8747852a-241d-4dd0-aa61-1ebd579ca232","ios":"levelo://app?vid=8747852a-241d-4dd0-aa61-1ebd579ca232"},"vehicle_type_id":"4","last_reported":1687082768,"current_range_meters":20000,"station_id":"ce4bgkh2rcd13ifvqbl0","pricing_plan_id":"free"},{"bike_id":"9753050b-848d-4447-8d99-de3c7d22b479","system_id":"levelo_inurba_marseille","lat":43.309589,"lon":5.390258,"is_reserved":false,"is_disabled":false,"rental_uris":{"android":"levelo://app?vid=9753050b-848d-4447-8d99-de3c7d22b479","ios":"levelo://app?vid=9753050b-848d-4447-8d99-de3c7d22b479"},"vehicle_type_id":"4","last_reported":1687082768,"current_range_meters":23600,"station_id":"ce4bgup2rcd13ifvqco0","pricing_plan_id":"free"},{"bike_id":"5c1045e3-71aa-4245-b0b1-b17bcf259ddc","system_id":"levelo_inurba_marseille","lat":43.309589,"lon":5.390258,"is_reserved":false,"is_disabled":false,"rental_uris":{"android":"levelo://app?vid=5c1045e3-71aa-4245-b0b1-b17bcf259ddc","ios":"levelo://app?vid=5c1045e3-71aa-4245-b0b1-b17bcf259ddc"},"vehicle_type_id":"4","last_reported":1687082768,"current_range_meters":26800,"station_id":"ce4bgup2rcd13ifvqco0","pricing_plan_id":"free"},{"bike_id":"83f6075d-3e24-4cf1-a7cb-da5638440d94","system_id":"levelo_inurba_marseille","lat":43.3176,"lon":5.39009,"is_reserved":false,"is_disabled":false,"rental_uris":{"android":"levelo://app?vid=83f6075d-3e24-4cf1-a7cb-da5638440d94","ios":"levelo://app?vid=83f6075d-3e24-4cf1-a7cb-da5638440d94"},"vehicle_type_id":"4","last_reported":1687082768,"current_range_meters":18800,"station_id":"ce4bhqp2rcd13ifvqhng","pricing_plan_id":"free"},{"bike_id":"dab115bf-1cab-4b8d-ad6a-67fda1d71234","system_id":"levelo_inurba_marseille","lat":43.3176,"lon":5.39019,"is_reserved":false,"is_disabled":false,"rental_uris":{"android":"levelo://app?vid=dab115bf-1cab-4b8d-ad6a-67fda1d71234","ios":"levelo://app?vid=dab115bf-1cab-4b8d-ad6a-67fda1d71234"},"vehicle_type_id":"4","last_reported":1687082768,"current_range_meters":24800,"station_id":"ce4bhqp2rcd13ifvqhng","pricing_plan_id":"free"},{"bike_id":"d89a6111-594c-4044-bab7-fa8ad5f81068","system_id":"levelo_inurba_marseille","lat":43.317557,"lon":5.390173,"is_reserved":false,"is_disabled":false,"rental_uris":{"android":"levelo://app?vid=d89a6111-594c-4044-bab7-fa8ad5f81068","ios":"levelo://app?vid=d89a6111-594c-4044-bab7-fa8ad5f81068"},"vehicle_type_id":"4","last_reported":1687082768,"current_range_meters":30800,"station_id":"ce4bhqp2rcd13ifvqhng","pricing_plan_id":"free"},{"bike_id":"4a10882c-7152-4233-bc08-3e7673adbd38","system_id":"levelo_inurba_marseille","lat":43.317557,"lon":5.390173,"is_reserved":false,"is_disabled":false,"rental_uris":{"android":"levelo://app?vid=4a10882c-7152-4233-bc08-3e7673adbd38","ios":"levelo://app?vid=4a10882c-7152-4233-bc08-3e7673adbd38"},"vehicle_type_id":"4","last_reported":1687082768,"current_range_meters":25200,"station_id":"ce4bhqp2rcd13ifvqhng","pricing_plan_id":"free"},{"bike_id":"a32174e6-24ef-4390-a40a-8d63f434da33","system_id":"levelo_inurba_marseille","lat":43.29576,"lon":5.37501,"is_reserved":false,"is_disabled":false,"rental_uris":{"android":"levelo://app?vid=a32174e6-24ef-4390-a40a-8d63f434da33","ios":"levelo://app?vid=a32174e6-24ef-4390-a40a-8d63f434da33"},"vehicle_type_id":"4","last_reported":1687082768,"current_range_meters":14400,"station_id":"ce4bgh92rcd13ifvqb50","pricing_plan_id":"free"},{"bike_id":"c542fb0e-b020-456d-8298-ecb3cf76fa0a","system_id":"levelo_inurba_marseille","lat":43.29575,"lon":5.37508,"is_reserved":false,"is_disabled":false,"rental_uris":{"android":"levelo://app?vid=c542fb0e-b020-456d-8298-ecb3cf76fa0a","ios":"levelo://app?vid=c542fb0e-b020-456d-8298-ecb3cf76fa0a"},"vehicle_type_id":"4","last_reported":1687082768,"current_range_meters":9200,"station_id":"ce4bgh92rcd13ifvqb50","pricing_plan_id":"free"},{"bike_id":"57c546ea-5c76-4487-82dc-eaf2c99526c1","system_id":"levelo_inurba_marseille","lat":43.29575,"lon":5.37512,"is_reserved":false,"is_disabled":false,"rental_uris":{"android":"levelo://app?vid=57c546ea-5c76-4487-82dc-eaf2c99526c1","ios":"levelo://app?vid=57c546ea-5c76-4487-82dc-eaf2c99526c1"},"vehicle_type_id":"4","last_reported":1687082768,"current_range_meters":30400,"station_id":"ce4bgh92rcd13ifvqb50","pricing_plan_id":"free"},{"bike_id":"ea8d19c1-90a8-4256-8ce3-0cfac3665e7d","system_id":"levelo_inurba_marseille","lat":43.29574,"lon":5.37509,"is_reserved":false,"is_disabled":false,"rental_uris":{"android":"levelo://app?vid=ea8d19c1-90a8-4256-8ce3-0cfac3665e7d","ios":"levelo://app?vid=ea8d19c1-90a8-4256-8ce3-0cfac3665e7d"},"vehicle_type_id":"4","last_reported":1687082768,"current_range_meters":29600,"station_id":"ce4bgh92rcd13ifvqb50","pricing_plan_id":"free"},{"bike_id":"f8feb3a3-a8a7-4217-a975-cbfff833ee26","system_id":"levelo_inurba_marseille","lat":43.295748,"lon":5.37522,"is_reserved":false,"is_disabled":false,"rental_uris":{"android":"levelo://app?vid=f8feb3a3-a8a7-4217-a975-cbfff833ee26","ios":"levelo://app?vid=f8feb3a3-a8a7-4217-a975-cbfff833ee26"},"vehicle_type_id":"4","last_reported":1687082768,"current_range_meters":30400,"station_id":"ce4bgh92rcd13ifvqb50","pricing_plan_id":"free"},{"bike_id":"250c8a96-8498-4211-b8f3-1b00a8d1fbaf","system_id":"levelo_inurba_marseille","lat":43.296477,"lon":5.37768,"is_reserved":false,"is_disabled":false,"rental_uris":{"android":"levelo://app?vid=250c8a96-8498-4211-b8f3-1b00a8d1fbaf","ios":"levelo://app?vid=250c8a96-8498-4211-b8f3-1b00a8d1fbaf"},"vehicle_type_id":"4","last_reported":1687082768,"current_range_meters":13200,"station_id":"","pricing_plan_id":"free"},{"bike_id":"523fc2c0-7036-4718-9d36-199d1e1ff94f","system_id":"levelo_inurba_marseille","lat":43.29571,"lon":5.37517,"is_reserved":false,"is_disabled":false,"rental_uris":{"android":"levelo://app?vid=523fc2c0-7036-4718-9d36-199d1e1ff94f","ios":"levelo://app?vid=523fc2c0-7036-4718-9d36-199d1e1ff94f"},"vehicle_type_id":"4","last_reported":1687082768,"current_range_meters":28400,"station_id":"ce4bgh92rcd13ifvqb50","pricing_plan_id":"free"},{"bike_id":"09576bdc-be54-481c-840a-878999517bfb","system_id":"levelo_inurba_marseille","lat":43.295748,"lon":5.37522,"is_reserved":false,"is_disabled":false,"rental_uris":{"android":"levelo://app?vid=09576bdc-be54-481c-840a-878999517bfb","ios":"levelo://app?vid=09576bdc-be54-481c-840a-878999517bfb"},"vehicle_type_id":"4","last_reported":1687082768,"current_range_meters":30800,"station_id":"ce4bgh92rcd13ifvqb50","pricing_plan_id":"free"},{"bike_id":"f4789496-66e4-4aca-b3a3-f940db0a6b2c","system_id":"levelo_inurba_marseille","lat":43.299707,"lon":5.384859,"is_reserved":false,"is_disabled":false,"rental_uris":{"android":"levelo://app?vid=f4789496-66e4-4aca-b3a3-f940db0a6b2c","ios":"levelo://app?vid=f4789496-66e4-4aca-b3a3-f940db0a6b2c"},"vehicle_type_id":"4","last_reported":1687082768,"current_range_meters":13600,"station_id":"ce4bgj92rcd13ifvqbd0","pricing_plan_id":"free"},{"bike_id":"9cdf2192-7d2f-442f-a3ec-f2a6f824dc06","system_id":"levelo_inurba_marseille","lat":43.295279,"lon":5.375048,"is_reserved":false,"is_disabled":false,"rental_uris":{"android":"levelo://app?vid=9cdf2192-7d2f-442f-a3ec-f2a6f824dc06","ios":"levelo://app?vid=9cdf2192-7d2f-442f-a3ec-f2a6f824dc06"},"vehicle_type_id":"4","last_reported":1687082768,"current_range_meters":14000,"station_id":"ce4bgkp2rcd13ifvqbmg","pricing_plan_id":"free"},{"bike_id":"c37ae787-e364-485f-86e2-a3cf2ba22a57","system_id":"levelo_inurba_marseille","lat":43.299707,"lon":5.384859,"is_reserved":false,"is_disabled":false,"rental_uris":{"android":"levelo://app?vid=c37ae787-e364-485f-86e2-a3cf2ba22a57","ios":"levelo://app?vid=c37ae787-e364-485f-86e2-a3cf2ba22a57"},"vehicle_type_id":"4","last_reported":1687082768,"current_range_meters":28800,"station_id":"ce4bgj92rcd13ifvqbd0","pricing_plan_id":"free"},{"bike_id":"7febf217-d052-4674-803f-4c94adbcb3d7","system_id":"levelo_inurba_marseille","lat":43.299717,"lon":5.384845,"is_reserved":false,"is_disabled":false,"rental_uris":{"android":"levelo://app?vid=7febf217-d052-4674-803f-4c94adbcb3d7","ios":"levelo://app?vid=7febf217-d052-4674-803f-4c94adbcb3d7"},"vehicle_type_id":"4","last_reported":1687082768,"current_range_meters":14800,"station_id":"ce4bgj92rcd13ifvqbd0","pricing_plan_id":"free"},{"bike_id":"eb56f040-d7e3-440c-9d05-82afe187dd21","system_id":"levelo_inurba_marseille","lat":43.2999,"lon":5.38512,"is_reserved":false,"is_disabled":false,"rental_uris":{"android":"levelo://app?vid=eb56f040-d7e3-440c-9d05-82afe187dd21","ios":"levelo://app?vid=eb56f040-d7e3-440c-9d05-82afe187dd21"},"vehicle_type_id":"4","last_reported":1687082768,"current_range_meters":29200,"station_id":"","pricing_plan_id":"free"},{"bike_id":"7c3888e2-b2e2-4879-998b-dedb5fc772a5","system_id":"levelo_inurba_marseille","lat":43.295279,"lon":5.375048,"is_reserved":false,"is_disabled":false,"rental_uris":{"android":"levelo://app?vid=7c3888e2-b2e2-4879-998b-dedb5fc772a5","ios":"levelo://app?vid=7c3888e2-b2e2-4879-998b-dedb5fc772a5"},"vehicle_type_id":"4","last_reported":1687082768,"current_range_meters":20800,"station_id":"ce4bgkp2rcd13ifvqbmg","pricing_plan_id":"free"},{"bike_id":"5b547f36-868f-45c0-9029-20b61e61f95e","system_id":"levelo_inurba_marseille","lat":43.295279,"lon":5.375048,"is_reserved":false,"is_disabled":false,"rental_uris":{"android":"levelo://app?vid=5b547f36-868f-45c0-9029-20b61e61f95e","ios":"levelo://app?vid=5b547f36-868f-45c0-9029-20b61e61f95e"},"vehicle_type_id":"4","last_reported":1687082768,"current_range_meters":23600,"station_id":"ce4bgkp2rcd13ifvqbmg","pricing_plan_id":"free"},{"bike_id":"529b6f76-2a88-4739-aaaa-7b6c2a812854","system_id":"levelo_inurba_marseille","lat":43.295279,"lon":5.375048,"is_reserved":false,"is_disabled":false,"rental_uris":{"android":"levelo://app?vid=529b6f76-2a88-4739-aaaa-7b6c2a812854","ios":"levelo://app?vid=529b6f76-2a88-4739-aaaa-7b6c2a812854"},"vehicle_type_id":"4","last_reported":1687082768,"current_range_meters":31200,"station_id":"ce4bgkp2rcd13ifvqbmg","pricing_plan_id":"free"},{"bike_id":"2c9ad911-25e0-4222-8751-d809dfadd582","system_id":"levelo_inurba_marseille","lat":43.32367,"lon":5.388836,"is_reserved":false,"is_disabled":false,"rental_uris":{"android":"levelo://app?vid=2c9ad911-25e0-4222-8751-d809dfadd582","ios":"levelo://app?vid=2c9ad911-25e0-4222-8751-d809dfadd582"},"vehicle_type_id":"4","last_reported":1687082768,"current_range_meters":21600,"station_id":"ce4bhqp2rcd13ifvqhog","pricing_plan_id":"free"},{"bike_id":"6b4d4d55-f9ce-4a35-a295-795e3acc7e51","system_id":"levelo_inurba_marseille","lat":43.32367,"lon":5.388836,"is_reserved":false,"is_disabled":false,"rental_uris":{"android":"levelo://app?vid=6b4d4d55-f9ce-4a35-a295-795e3acc7e51","ios":"levelo://app?vid=6b4d4d55-f9ce-4a35-a295-795e3acc7e51"},"vehicle_type_id":"4","last_reported":1687082768,"current_range_meters":26000,"station_id":"ce4bhqp2rcd13ifvqhog","pricing_plan_id":"free"},{"bike_id":"a5d34394-8ea3-4622-ac56-bc8a8abe2d11","system_id":"levelo_inurba_marseille","lat":43.32367,"lon":5.388836,"is_reserved":false,"is_disabled":false,"rental_uris":{"android":"levelo://app?vid=a5d34394-8ea3-4622-ac56-bc8a8abe2d11","ios":"levelo://app?vid=a5d34394-8ea3-4622-ac56-bc8a8abe2d11"},"vehicle_type_id":"4","last_reported":1687082768,"current_range_meters":31200,"station_id":"ce4bhqp2rcd13ifvqhog","pricing_plan_id":"free"},{"bike_id":"57f97489-c42b-4c9d-8f2a-d39ab8b39f5a","system_id":"levelo_inurba_marseille","lat":43.32367,"lon":5.388836,"is_reserved":false,"is_disabled":false,"rental_uris":{"android":"levelo://app?vid=57f97489-c42b-4c9d-8f2a-d39ab8b39f5a","ios":"levelo://app?vid=57f97489-c42b-4c9d-8f2a-d39ab8b39f5a"},"vehicle_type_id":"4","last_reported":1687082768,"current_range_meters":10000,"station_id":"ce4bhqp2rcd13ifvqhog","pricing_plan_id":"free"},{"bike_id":"c25bbca6-334a-48c9-b2aa-c69eb97c9d81","system_id":"levelo_inurba_marseille","lat":43.32367,"lon":5.388836,"is_reserved":false,"is_disabled":false,"rental_uris":{"android":"levelo://app?vid=c25bbca6-334a-48c9-b2aa-c69eb97c9d81","ios":"levelo://app?vid=c25bbca6-334a-48c9-b2aa-c69eb97c9d81"},"vehicle_type_id":"4","last_reported":1687082768,"current_range_meters":10000,"station_id":"ce4bhqp2rcd13ifvqhog","pricing_plan_id":"free"},{"bike_id":"994ffda2-4c5a-4608-9f56-696508fcf4bd","system_id":"levelo_inurba_marseille","lat":43.32367,"lon":5.388836,"is_reserved":false,"is_disabled":false,"rental_uris":{"android":"levelo://app?vid=994ffda2-4c5a-4608-9f56-696508fcf4bd","ios":"levelo://app?vid=994ffda2-4c5a-4608-9f56-696508fcf4bd"},"vehicle_type_id":"4","last_reported":1687082768,"current_range_meters":13200,"station_id":"ce4bhqp2rcd13ifvqhog","pricing_plan_id":"free"},{"bike_id":"90f2ecd8-3622-47a8-898e-0fb227b7ecb8","system_id":"levelo_inurba_marseille","lat":43.32368,"lon":5.38881,"is_reserved":false,"is_disabled":false,"rental_uris":{"android":"levelo://app?vid=90f2ecd8-3622-47a8-898e-0fb227b7ecb8","ios":"levelo://app?vid=90f2ecd8-3622-47a8-898e-0fb227b7ecb8"},"vehicle_type_id":"4","last_reported":1687082768,"current_range_meters":30000,"station_id":"","pricing_plan_id":"free"},{"bike_id":"05d585c0-9c9e-4f05-83e5-50aae80e7424","system_id":"levelo_inurba_marseille","lat":43.32367,"lon":5.388836,"is_reserved":false,"is_disabled":false,"rental_uris":{"android":"levelo://app?vid=05d585c0-9c9e-4f05-83e5-50aae80e7424","ios":"levelo://app?vid=05d585c0-9c9e-4f05-83e5-50aae80e7424"},"vehicle_type_id":"4","last_reported":1687082768,"current_range_meters":31200,"station_id":"ce4bhqp2rcd13ifvqhog","pricing_plan_id":"free"},{"bike_id":"27dd78af-fbb0-48ba-b80d-f7fbb1608659","system_id":"levelo_inurba_marseille","lat":43.3237,"lon":5.38882,"is_reserved":false,"is_disabled":false,"rental_uris":{"android":"levelo://app?vid=27dd78af-fbb0-48ba-b80d-f7fbb1608659","ios":"levelo://app?vid=27dd78af-fbb0-48ba-b80d-f7fbb1608659"},"vehicle_type_id":"4","last_reported":1687082768,"current_range_meters":30400,"station_id":"ce4bhqp2rcd13ifvqhog","pricing_plan_id":"free"},{"bike_id":"59dcc94e-7e52-4dd3-8121-ce27a2ec1539","system_id":"levelo_inurba_marseille","lat":43.29601,"lon":5.381084,"is_reserved":false,"is_disabled":false,"rental_uris":{"android":"levelo://app?vid=59dcc94e-7e52-4dd3-8121-ce27a2ec1539","ios":"levelo://app?vid=59dcc94e-7e52-4dd3-8121-ce27a2ec1539"},"vehicle_type_id":"4","last_reported":1687082768,"current_range_meters":24400,"station_id":"ce4bgl12rcd13ifvqbo0","pricing_plan_id":"free"},{"bike_id":"68f274de-53f0-48a5-a1da-dff8ea8a8eb4","system_id":"levelo_inurba_marseille","lat":43.29304,"lon":5.37166,"is_reserved":false,"is_disabled":false,"rental_uris":{"android":"levelo://app?vid=68f274de-53f0-48a5-a1da-dff8ea8a8eb4","ios":"levelo://app?vid=68f274de-53f0-48a5-a1da-dff8ea8a8eb4"},"vehicle_type_id":"4","last_reported":1687082768,"current_range_meters":29200,"station_id":"ce4bgh92rcd13ifvqb40","pricing_plan_id":"free"},{"bike_id":"0130661b-f494-4193-a5bf-ce4daf73daa8","system_id":"levelo_inurba_marseille","lat":43.293249,"lon":5.371578,"is_reserved":false,"is_disabled":false,"rental_uris":{"android":"levelo://app?vid=0130661b-f494-4193-a5bf-ce4daf73daa8","ios":"levelo://app?vid=0130661b-f494-4193-a5bf-ce4daf73daa8"},"vehicle_type_id":"4","last_reported":1687082768,"current_range_meters":0,"station_id":"ce4bgh92rcd13ifvqb40","pricing_plan_id":"free"},{"bike_id":"999111ce-c011-494c-bf0e-f4398eb21a2d","system_id":"levelo_inurba_marseille","lat":43.29274,"lon":5.36845,"is_reserved":false,"is_disabled":false,"rental_uris":{"android":"levelo://app?vid=999111ce-c011-494c-bf0e-f4398eb21a2d","ios":"levelo://app?vid=999111ce-c011-494c-bf0e-f4398eb21a2d"},"vehicle_type_id":"4","last_reported":1687082768,"current_range_meters":28800,"station_id":"ce4bhbp2rcd13ifvqesg","pricing_plan_id":"free"},{"bike_id":"a80d04aa-de70-4f8b-b9c8-323af6e77753","system_id":"levelo_inurba_marseille","lat":43.292749,"lon":5.368402,"is_reserved":false,"is_disabled":false,"rental_uris":{"android":"levelo://app?vid=a80d04aa-de70-4f8b-b9c8-323af6e77753","ios":"levelo://app?vid=a80d04aa-de70-4f8b-b9c8-323af6e77753"},"vehicle_type_id":"4","last_reported":1687082768,"current_range_meters":22800,"station_id":"ce4bhbp2rcd13ifvqesg","pricing_plan_id":"free"},{"bike_id":"8453b606-5001-483d-a532-fbbb5e927a0f","system_id":"levelo_inurba_marseille","lat":43.293009,"lon":5.374584,"is_reserved":false,"is_disabled":false,"rental_uris":{"android":"levelo://app?vid=8453b606-5001-483d-a532-fbbb5e927a0f","ios":"levelo://app?vid=8453b606-5001-483d-a532-fbbb5e927a0f"},"vehicle_type_id":"4","last_reported":1687082768,"current_range_meters":20400,"station_id":"ce4bgi12rcd13ifvqb70","pricing_plan_id":"free"},{"bike_id":"aa8ddecd-d944-4466-bcae-3b13a7e54c68","system_id":"levelo_inurba_marseille","lat":43.292311,"lon":5.360731,"is_reserved":false,"is_disabled":false,"rental_uris":{"android":"levelo://app?vid=aa8ddecd-d944-4466-bcae-3b13a7e54c68","ios":"levelo://app?vid=aa8ddecd-d944-4466-bcae-3b13a7e54c68"},"vehicle_type_id":"4","last_reported":1687082768,"current_range_meters":28800,"station_id":"ce4bhbh2rcd13ifvqeqg","pricing_plan_id":"free"},{"bike_id":"446109f4-55c8-4785-a894-e4b597e8627b","system_id":"levelo_inurba_marseille","lat":43.292311,"lon":5.360731,"is_reserved":false,"is_disabled":false,"rental_uris":{"android":"levelo://app?vid=446109f4-55c8-4785-a894-e4b597e8627b","ios":"levelo://app?vid=446109f4-55c8-4785-a894-e4b597e8627b"},"vehicle_type_id":"4","last_reported":1687082768,"current_range_meters":25200,"station_id":"ce4bhbh2rcd13ifvqeqg","pricing_plan_id":"free"},{"bike_id":"78d48d52-a1c4-4178-8d5a-88db0a001870","system_id":"levelo_inurba_marseille","lat":43.29223,"lon":5.36058,"is_reserved":false,"is_disabled":false,"rental_uris":{"android":"levelo://app?vid=78d48d52-a1c4-4178-8d5a-88db0a001870","ios":"levelo://app?vid=78d48d52-a1c4-4178-8d5a-88db0a001870"},"vehicle_type_id":"4","last_reported":1687082768,"current_range_meters":13600,"station_id":"ce4bhbh2rcd13ifvqeqg","pricing_plan_id":"free"},{"bike_id":"dceac4b4-d732-4aeb-98c0-05713153d73f","system_id":"levelo_inurba_marseille","lat":43.291675,"lon":5.371583,"is_reserved":false,"is_disabled":false,"rental_uris":{"android":"levelo://app?vid=dceac4b4-d732-4aeb-98c0-05713153d73f","ios":"levelo://app?vid=dceac4b4-d732-4aeb-98c0-05713153d73f"},"vehicle_type_id":"4","last_reported":1687082768,"current_range_meters":2400,"station_id":"ce4bha92rcd13ifvqeh0","pricing_plan_id":"free"},{"bike_id":"2974e55b-d891-475d-9133-9c3bea6208f9","system_id":"levelo_inurba_marseille","lat":43.313262,"lon":5.396877,"is_reserved":false,"is_disabled":false,"rental_uris":{"android":"levelo://app?vid=2974e55b-d891-475d-9133-9c3bea6208f9","ios":"levelo://app?vid=2974e55b-d891-475d-9133-9c3bea6208f9"},"vehicle_type_id":"4","last_reported":1687082768,"current_range_meters":31200,"station_id":"ce4bgvp2rcd13ifvqcu0","pricing_plan_id":"free"},{"bike_id":"566abb89-f051-4289-85a1-8c67c6652658","system_id":"levelo_inurba_marseille","lat":43.313268,"lon":5.396879,"is_reserved":false,"is_disabled":false,"rental_uris":{"android":"levelo://app?vid=566abb89-f051-4289-85a1-8c67c6652658","ios":"levelo://app?vid=566abb89-f051-4289-85a1-8c67c6652658"},"vehicle_type_id":"4","last_reported":1687082768,"current_range_meters":31200,"station_id":"ce4bgvp2rcd13ifvqcu0","pricing_plan_id":"free"},{"bike_id":"684f31bc-75b7-4644-b874-c7d9aa312c05","system_id":"levelo_inurba_marseille","lat":43.313268,"lon":5.396879,"is_reserved":false,"is_disabled":false,"rental_uris":{"android":"levelo://app?vid=684f31bc-75b7-4644-b874-c7d9aa312c05","ios":"levelo://app?vid=684f31bc-75b7-4644-b874-c7d9aa312c05"},"vehicle_type_id":"4","last_reported":1687082768,"current_range_meters":31200,"station_id":"ce4bgvp2rcd13ifvqcu0","pricing_plan_id":"free"},{"bike_id":"ed3505d9-5954-49c2-8723-6d6fdae193ec","system_id":"levelo_inurba_marseille","lat":43.313267,"lon":5.39689,"is_reserved":false,"is_disabled":false,"rental_uris":{"android":"levelo://app?vid=ed3505d9-5954-49c2-8723-6d6fdae193ec","ios":"levelo://app?vid=ed3505d9-5954-49c2-8723-6d6fdae193ec"},"vehicle_type_id":"4","last_reported":1687082768,"current_range_meters":20400,"station_id":"ce4bgvp2rcd13ifvqcu0","pricing_plan_id":"free"},{"bike_id":"553bbf61-79a4-4994-ba4a-be9657e781d5","system_id":"levelo_inurba_marseille","lat":43.309038,"lon":5.396546,"is_reserved":false,"is_disabled":false,"rental_uris":{"android":"levelo://app?vid=553bbf61-79a4-4994-ba4a-be9657e781d5","ios":"levelo://app?vid=553bbf61-79a4-4994-ba4a-be9657e781d5"},"vehicle_type_id":"4","last_reported":1687082768,"current_range_meters":31200,"station_id":"ce4bh012rcd13ifvqcv0","pricing_plan_id":"free"},{"bike_id":"cec52245-f041-481c-bc00-d8fef745ee8f","system_id":"levelo_inurba_marseille","lat":43.326605,"lon":5.409903,"is_reserved":false,"is_disabled":false,"rental_uris":{"android":"levelo://app?vid=cec52245-f041-481c-bc00-d8fef745ee8f","ios":"levelo://app?vid=cec52245-f041-481c-bc00-d8fef745ee8f"},"vehicle_type_id":"4","last_reported":1687082768,"current_range_meters":6400,"station_id":"ce4bhpp2rcd13ifvqhgg","pricing_plan_id":"free"},{"bike_id":"481ddacd-b330-4e74-8183-25e0b8c95c7f","system_id":"levelo_inurba_marseille","lat":43.309038,"lon":5.396546,"is_reserved":false,"is_disabled":false,"rental_uris":{"android":"levelo://app?vid=481ddacd-b330-4e74-8183-25e0b8c95c7f","ios":"levelo://app?vid=481ddacd-b330-4e74-8183-25e0b8c95c7f"},"vehicle_type_id":"4","last_reported":1687082768,"current_range_meters":3600,"station_id":"ce4bh012rcd13ifvqcv0","pricing_plan_id":"free"},{"bike_id":"e685c032-30e8-4dd5-af51-547d0b4c223a","system_id":"levelo_inurba_marseille","lat":43.30885,"lon":5.39652,"is_reserved":false,"is_disabled":false,"rental_uris":{"android":"levelo://app?vid=e685c032-30e8-4dd5-af51-547d0b4c223a","ios":"levelo://app?vid=e685c032-30e8-4dd5-af51-547d0b4c223a"},"vehicle_type_id":"4","last_reported":1687082768,"current_range_meters":23200,"station_id":"ce4bh012rcd13ifvqcv0","pricing_plan_id":"free"},{"bike_id":"f464c4f2-2c2f-40e1-a83f-d538be402d35","system_id":"levelo_inurba_marseille","lat":43.290779,"lon":5.371482,"is_reserved":false,"is_disabled":false,"rental_uris":{"android":"levelo://app?vid=f464c4f2-2c2f-40e1-a83f-d538be402d35","ios":"levelo://app?vid=f464c4f2-2c2f-40e1-a83f-d538be402d35"},"vehicle_type_id":"4","last_reported":1687082768,"current_range_meters":23200,"station_id":"ce4bh5p2rcd13ifvqe4g","pricing_plan_id":"free"},{"bike_id":"7cf83295-93ce-4d98-8ab3-3a33e10b8852","system_id":"levelo_inurba_marseille","lat":43.290779,"lon":5.371482,"is_reserved":false,"is_disabled":false,"rental_uris":{"android":"levelo://app?vid=7cf83295-93ce-4d98-8ab3-3a33e10b8852","ios":"levelo://app?vid=7cf83295-93ce-4d98-8ab3-3a33e10b8852"},"vehicle_type_id":"4","last_reported":1687082768,"current_range_meters":31200,"station_id":"ce4bh5p2rcd13ifvqe4g","pricing_plan_id":"free"},{"bike_id":"aa297beb-fea5-4b0d-8264-e55c7aaf2914","system_id":"levelo_inurba_marseille","lat":43.302008,"lon":5.394694,"is_reserved":false,"is_disabled":false,"rental_uris":{"android":"levelo://app?vid=aa297beb-fea5-4b0d-8264-e55c7aaf2914","ios":"levelo://app?vid=aa297beb-fea5-4b0d-8264-e55c7aaf2914"},"vehicle_type_id":"4","last_reported":1687082768,"current_range_meters":27600,"station_id":"ce4bh0p2rcd13ifvqd70","pricing_plan_id":"free"},{"bike_id":"6a8b856a-2769-4865-86dc-9a97782975f0","system_id":"levelo_inurba_marseille","lat":43.29036,"lon":5.35926,"is_reserved":false,"is_disabled":false,"rental_uris":{"android":"levelo://app?vid=6a8b856a-2769-4865-86dc-9a97782975f0","ios":"levelo://app?vid=6a8b856a-2769-4865-86dc-9a97782975f0"},"vehicle_type_id":"4","last_reported":1687082768,"current_range_meters":0,"station_id":"","pricing_plan_id":"free"},{"bike_id":"d12ab1aa-3f2f-4e55-a523-43b5ecc5f23d","system_id":"levelo_inurba_marseille","lat":43.289184,"lon":5.366408,"is_reserved":false,"is_disabled":false,"rental_uris":{"android":"levelo://app?vid=d12ab1aa-3f2f-4e55-a523-43b5ecc5f23d","ios":"levelo://app?vid=d12ab1aa-3f2f-4e55-a523-43b5ecc5f23d"},"vehicle_type_id":"4","last_reported":1687082768,"current_range_meters":23600,"station_id":"ce4bhap2rcd13ifvqek0","pricing_plan_id":"free"},{"bike_id":"c1f4234c-cd03-448c-98e1-60b362822a5f","system_id":"levelo_inurba_marseille","lat":43.289184,"lon":5.366408,"is_reserved":false,"is_disabled":false,"rental_uris":{"android":"levelo://app?vid=c1f4234c-cd03-448c-98e1-60b362822a5f","ios":"levelo://app?vid=c1f4234c-cd03-448c-98e1-60b362822a5f"},"vehicle_type_id":"4","last_reported":1687082768,"current_range_meters":19600,"station_id":"ce4bhap2rcd13ifvqek0","pricing_plan_id":"free"},{"bike_id":"38eb09af-7166-42b9-865e-84246929498f","system_id":"levelo_inurba_marseille","lat":43.292642,"lon":5.384254,"is_reserved":false,"is_disabled":false,"rental_uris":{"android":"levelo://app?vid=38eb09af-7166-42b9-865e-84246929498f","ios":"levelo://app?vid=38eb09af-7166-42b9-865e-84246929498f"},"vehicle_type_id":"4","last_reported":1687082768,"current_range_meters":31200,"station_id":"ce4bh692rcd13ifvqea0","pricing_plan_id":"free"},{"bike_id":"07ade362-b482-428c-9399-1a5258d79835","system_id":"levelo_inurba_marseille","lat":43.304296,"lon":5.397513,"is_reserved":false,"is_disabled":false,"rental_uris":{"android":"levelo://app?vid=07ade362-b482-428c-9399-1a5258d79835","ios":"levelo://app?vid=07ade362-b482-428c-9399-1a5258d79835"},"vehicle_type_id":"4","last_reported":1687082768,"current_range_meters":4800,"station_id":"ce4bh092rcd13ifvqd20","pricing_plan_id":"free"},{"bike_id":"7a19f85c-3a1e-497c-ac40-4aee991e94ff","system_id":"levelo_inurba_marseille","lat":43.33036,"lon":5.38919,"is_reserved":false,"is_disabled":false,"rental_uris":{"android":"levelo://app?vid=7a19f85c-3a1e-497c-ac40-4aee991e94ff","ios":"levelo://app?vid=7a19f85c-3a1e-497c-ac40-4aee991e94ff"},"vehicle_type_id":"4","last_reported":1687082768,"current_range_meters":30800,"station_id":"ce4bhr92rcd13ifvqhrg","pricing_plan_id":"free"},{"bike_id":"abe683c4-1005-478b-9c98-8e7695d3f91b","system_id":"levelo_inurba_marseille","lat":43.33037,"lon":5.38921,"is_reserved":false,"is_disabled":false,"rental_uris":{"android":"levelo://app?vid=abe683c4-1005-478b-9c98-8e7695d3f91b","ios":"levelo://app?vid=abe683c4-1005-478b-9c98-8e7695d3f91b"},"vehicle_type_id":"4","last_reported":1687082768,"current_range_meters":22800,"station_id":"ce4bhr92rcd13ifvqhrg","pricing_plan_id":"free"},{"bike_id":"55c4fc83-4495-499d-8f80-4b519db72cd9","system_id":"levelo_inurba_marseille","lat":43.3304,"lon":5.38919,"is_reserved":false,"is_disabled":false,"rental_uris":{"android":"levelo://app?vid=55c4fc83-4495-499d-8f80-4b519db72cd9","ios":"levelo://app?vid=55c4fc83-4495-499d-8f80-4b519db72cd9"},"vehicle_type_id":"4","last_reported":1687082768,"current_range_meters":30800,"station_id":"ce4bhr92rcd13ifvqhrg","pricing_plan_id":"free"},{"bike_id":"34e8793d-3e78-430c-9712-0f9923b8824e","system_id":"levelo_inurba_marseille","lat":43.3304,"lon":5.38919,"is_reserved":false,"is_disabled":false,"rental_uris":{"android":"levelo://app?vid=34e8793d-3e78-430c-9712-0f9923b8824e","ios":"levelo://app?vid=34e8793d-3e78-430c-9712-0f9923b8824e"},"vehicle_type_id":"4","last_reported":1687082768,"current_range_meters":28400,"station_id":"ce4bhr92rcd13ifvqhrg","pricing_plan_id":"free"},{"bike_id":"69b9077c-e52f-467f-924c-edaaf68c6e10","system_id":"levelo_inurba_marseille","lat":43.33038,"lon":5.38922,"is_reserved":false,"is_disabled":false,"rental_uris":{"android":"levelo://app?vid=69b9077c-e52f-467f-924c-edaaf68c6e10","ios":"levelo://app?vid=69b9077c-e52f-467f-924c-edaaf68c6e10"},"vehicle_type_id":"4","last_reported":1687082768,"current_range_meters":31200,"station_id":"ce4bhr92rcd13ifvqhrg","pricing_plan_id":"free"},{"bike_id":"fa914137-8a19-49af-93ef-82351cad330f","system_id":"levelo_inurba_marseille","lat":43.33041,"lon":5.38918,"is_reserved":false,"is_disabled":false,"rental_uris":{"android":"levelo://app?vid=fa914137-8a19-49af-93ef-82351cad330f","ios":"levelo://app?vid=fa914137-8a19-49af-93ef-82351cad330f"},"vehicle_type_id":"4","last_reported":1687082768,"current_range_meters":17600,"station_id":"ce4bhr92rcd13ifvqhrg","pricing_plan_id":"free"},{"bike_id":"95c066a4-e4d6-47f9-9ac2-324b145985cd","system_id":"levelo_inurba_marseille","lat":43.3304,"lon":5.3892,"is_reserved":false,"is_disabled":false,"rental_uris":{"android":"levelo://app?vid=95c066a4-e4d6-47f9-9ac2-324b145985cd","ios":"levelo://app?vid=95c066a4-e4d6-47f9-9ac2-324b145985cd"},"vehicle_type_id":"4","last_reported":1687082768,"current_range_meters":12400,"station_id":"ce4bhr92rcd13ifvqhrg","pricing_plan_id":"free"},{"bike_id":"de1e93de-1fae-4e67-88d2-51f9864478a2","system_id":"levelo_inurba_marseille","lat":43.33041,"lon":5.3892,"is_reserved":false,"is_disabled":false,"rental_uris":{"android":"levelo://app?vid=de1e93de-1fae-4e67-88d2-51f9864478a2","ios":"levelo://app?vid=de1e93de-1fae-4e67-88d2-51f9864478a2"},"vehicle_type_id":"4","last_reported":1687082768,"current_range_meters":17600,"station_id":"ce4bhr92rcd13ifvqhrg","pricing_plan_id":"free"},{"bike_id":"40e59e64-9295-42a0-9590-a684a2d1ed78","system_id":"levelo_inurba_marseille","lat":43.3304,"lon":5.38923,"is_reserved":false,"is_disabled":false,"rental_uris":{"android":"levelo://app?vid=40e59e64-9295-42a0-9590-a684a2d1ed78","ios":"levelo://app?vid=40e59e64-9295-42a0-9590-a684a2d1ed78"},"vehicle_type_id":"4","last_reported":1687082768,"current_range_meters":17200,"station_id":"ce4bhr92rcd13ifvqhrg","pricing_plan_id":"free"},{"bike_id":"88bc1c72-07f6-4132-a2ab-76b81d2ef0af","system_id":"levelo_inurba_marseille","lat":43.33044,"lon":5.38918,"is_reserved":false,"is_disabled":false,"rental_uris":{"android":"levelo://app?vid=88bc1c72-07f6-4132-a2ab-76b81d2ef0af","ios":"levelo://app?vid=88bc1c72-07f6-4132-a2ab-76b81d2ef0af"},"vehicle_type_id":"4","last_reported":1687082768,"current_range_meters":15600,"station_id":"ce4bhr92rcd13ifvqhrg","pricing_plan_id":"free"},{"bike_id":"f95d8be0-c840-4b03-9e0d-b8050ae0f057","system_id":"levelo_inurba_marseille","lat":43.33045,"lon":5.38921,"is_reserved":false,"is_disabled":false,"rental_uris":{"android":"levelo://app?vid=f95d8be0-c840-4b03-9e0d-b8050ae0f057","ios":"levelo://app?vid=f95d8be0-c840-4b03-9e0d-b8050ae0f057"},"vehicle_type_id":"4","last_reported":1687082768,"current_range_meters":24400,"station_id":"ce4bhr92rcd13ifvqhrg","pricing_plan_id":"free"},{"bike_id":"46a8e731-9ddb-4ace-907b-cbe70799f0ca","system_id":"levelo_inurba_marseille","lat":43.33043,"lon":5.38924,"is_reserved":false,"is_disabled":false,"rental_uris":{"android":"levelo://app?vid=46a8e731-9ddb-4ace-907b-cbe70799f0ca","ios":"levelo://app?vid=46a8e731-9ddb-4ace-907b-cbe70799f0ca"},"vehicle_type_id":"4","last_reported":1687082768,"current_range_meters":29600,"station_id":"ce4bhr92rcd13ifvqhrg","pricing_plan_id":"free"},{"bike_id":"8fff2c6b-7de2-42eb-b9c7-b4957e635223","system_id":"levelo_inurba_marseille","lat":43.33045,"lon":5.38922,"is_reserved":false,"is_disabled":false,"rental_uris":{"android":"levelo://app?vid=8fff2c6b-7de2-42eb-b9c7-b4957e635223","ios":"levelo://app?vid=8fff2c6b-7de2-42eb-b9c7-b4957e635223"},"vehicle_type_id":"4","last_reported":1687082768,"current_range_meters":17600,"station_id":"ce4bhr92rcd13ifvqhrg","pricing_plan_id":"free"},{"bike_id":"f70f6401-30e5-49e5-9349-5eb44abc935d","system_id":"levelo_inurba_marseille","lat":43.290104,"lon":5.356111,"is_reserved":false,"is_disabled":false,"rental_uris":{"android":"levelo://app?vid=f70f6401-30e5-49e5-9349-5eb44abc935d","ios":"levelo://app?vid=f70f6401-30e5-49e5-9349-5eb44abc935d"},"vehicle_type_id":"4","last_reported":1687082768,"current_range_meters":20800,"station_id":"ce4bhb92rcd13ifvqen0","pricing_plan_id":"free"},{"bike_id":"a22cc09d-75fc-4eed-8436-399a9f8166b2","system_id":"levelo_inurba_marseille","lat":43.290104,"lon":5.356111,"is_reserved":false,"is_disabled":false,"rental_uris":{"android":"levelo://app?vid=a22cc09d-75fc-4eed-8436-399a9f8166b2","ios":"levelo://app?vid=a22cc09d-75fc-4eed-8436-399a9f8166b2"},"vehicle_type_id":"4","last_reported":1687082768,"current_range_meters":29200,"station_id":"ce4bhb92rcd13ifvqen0","pricing_plan_id":"free"},{"bike_id":"716e95fa-3a26-43d8-8db6-39df7df71e3c","system_id":"levelo_inurba_marseille","lat":43.28959,"lon":5.35771,"is_reserved":false,"is_disabled":false,"rental_uris":{"android":"levelo://app?vid=716e95fa-3a26-43d8-8db6-39df7df71e3c","ios":"levelo://app?vid=716e95fa-3a26-43d8-8db6-39df7df71e3c"},"vehicle_type_id":"4","last_reported":1687082768,"current_range_meters":8400,"station_id":"","pricing_plan_id":"free"},{"bike_id":"525f255b-a20f-423f-b6c8-b9def97bc63b","system_id":"levelo_inurba_marseille","lat":43.289741,"lon":5.378306,"is_reserved":false,"is_disabled":false,"rental_uris":{"android":"levelo://app?vid=525f255b-a20f-423f-b6c8-b9def97bc63b","ios":"levelo://app?vid=525f255b-a20f-423f-b6c8-b9def97bc63b"},"vehicle_type_id":"4","last_reported":1687082768,"current_range_meters":21200,"station_id":"ce4bh9p2rcd13ifvqed0","pricing_plan_id":"free"},{"bike_id":"b9b44b37-7edf-4ab6-8685-17eb58a26dbc","system_id":"levelo_inurba_marseille","lat":43.295169,"lon":5.390426,"is_reserved":false,"is_disabled":false,"rental_uris":{"android":"levelo://app?vid=b9b44b37-7edf-4ab6-8685-17eb58a26dbc","ios":"levelo://app?vid=b9b44b37-7edf-4ab6-8685-17eb58a26dbc"},"vehicle_type_id":"4","last_reported":1687082768,"current_range_meters":29200,"station_id":"ce4bh3p2rcd13ifvqdp0","pricing_plan_id":"free"},{"bike_id":"5ac8ad43-43f4-412a-a523-47385690a057","system_id":"levelo_inurba_marseille","lat":43.28976,"lon":5.37839,"is_reserved":false,"is_disabled":false,"rental_uris":{"android":"levelo://app?vid=5ac8ad43-43f4-412a-a523-47385690a057","ios":"levelo://app?vid=5ac8ad43-43f4-412a-a523-47385690a057"},"vehicle_type_id":"4","last_reported":1687082768,"current_range_meters":18400,"station_id":"ce4bh9p2rcd13ifvqed0","pricing_plan_id":"free"},{"bike_id":"caac308e-98f4-4772-96d7-b63b8126f504","system_id":"levelo_inurba_marseille","lat":43.28972,"lon":5.37831,"is_reserved":false,"is_disabled":false,"rental_uris":{"android":"levelo://app?vid=caac308e-98f4-4772-96d7-b63b8126f504","ios":"levelo://app?vid=caac308e-98f4-4772-96d7-b63b8126f504"},"vehicle_type_id":"4","last_reported":1687082768,"current_range_meters":11200,"station_id":"ce4bh9p2rcd13ifvqed0","pricing_plan_id":"free"},{"bike_id":"cf5fedd8-21b3-46d4-8330-28bac463104f","system_id":"levelo_inurba_marseille","lat":43.289741,"lon":5.378306,"is_reserved":false,"is_disabled":false,"rental_uris":{"android":"levelo://app?vid=cf5fedd8-21b3-46d4-8330-28bac463104f","ios":"levelo://app?vid=cf5fedd8-21b3-46d4-8330-28bac463104f"},"vehicle_type_id":"4","last_reported":1687082768,"current_range_meters":30800,"station_id":"ce4bh9p2rcd13ifvqed0","pricing_plan_id":"free"},{"bike_id":"ba83afa3-02fd-4b56-8ff5-42ff61d38639","system_id":"levelo_inurba_marseille","lat":43.30209,"lon":5.39728,"is_reserved":false,"is_disabled":false,"rental_uris":{"android":"levelo://app?vid=ba83afa3-02fd-4b56-8ff5-42ff61d38639","ios":"levelo://app?vid=ba83afa3-02fd-4b56-8ff5-42ff61d38639"},"vehicle_type_id":"4","last_reported":1687082768,"current_range_meters":8400,"station_id":"","pricing_plan_id":"free"},{"bike_id":"f7d18933-44d5-4593-988e-42cc99fa841a","system_id":"levelo_inurba_marseille","lat":43.28856,"lon":5.358371,"is_reserved":false,"is_disabled":false,"rental_uris":{"android":"levelo://app?vid=f7d18933-44d5-4593-988e-42cc99fa841a","ios":"levelo://app?vid=f7d18933-44d5-4593-988e-42cc99fa841a"},"vehicle_type_id":"4","last_reported":1687082768,"current_range_meters":9200,"station_id":"ce4bhb12rcd13ifvqem0","pricing_plan_id":"free"},{"bike_id":"c0fb8083-e02d-4dec-b1b9-fa095e6c5b75","system_id":"levelo_inurba_marseille","lat":43.337396,"lon":5.374526,"is_reserved":false,"is_disabled":false,"rental_uris":{"android":"levelo://app?vid=c0fb8083-e02d-4dec-b1b9-fa095e6c5b75","ios":"levelo://app?vid=c0fb8083-e02d-4dec-b1b9-fa095e6c5b75"},"vehicle_type_id":"4","last_reported":1687082768,"current_range_meters":0,"station_id":"ce4bhp92rcd13ifvqhag","pricing_plan_id":"free"},{"bike_id":"fecbd0c2-bfeb-4320-8680-9bf772d4dcfa","system_id":"levelo_inurba_marseille","lat":43.33735,"lon":5.37484,"is_reserved":false,"is_disabled":false,"rental_uris":{"android":"levelo://app?vid=fecbd0c2-bfeb-4320-8680-9bf772d4dcfa","ios":"levelo://app?vid=fecbd0c2-bfeb-4320-8680-9bf772d4dcfa"},"vehicle_type_id":"4","last_reported":1687082768,"current_range_meters":30800,"station_id":"","pricing_plan_id":"free"},{"bike_id":"5163578d-8747-43d5-b8fa-a2ad8c8b0efb","system_id":"levelo_inurba_marseille","lat":43.33745,"lon":5.37471,"is_reserved":false,"is_disabled":false,"rental_uris":{"android":"levelo://app?vid=5163578d-8747-43d5-b8fa-a2ad8c8b0efb","ios":"levelo://app?vid=5163578d-8747-43d5-b8fa-a2ad8c8b0efb"},"vehicle_type_id":"4","last_reported":1687082768,"current_range_meters":29200,"station_id":"","pricing_plan_id":"free"},{"bike_id":"41a8749b-6d93-4d1b-8e52-c5f60f65ae7c","system_id":"levelo_inurba_marseille","lat":43.33752,"lon":5.37443,"is_reserved":false,"is_disabled":false,"rental_uris":{"android":"levelo://app?vid=41a8749b-6d93-4d1b-8e52-c5f60f65ae7c","ios":"levelo://app?vid=41a8749b-6d93-4d1b-8e52-c5f60f65ae7c"},"vehicle_type_id":"4","last_reported":1687082768,"current_range_meters":27600,"station_id":"","pricing_plan_id":"free"},{"bike_id":"4f356222-17b5-4ae9-9064-9f9fc4ff12ee","system_id":"levelo_inurba_marseille","lat":43.30937,"lon":5.40149,"is_reserved":false,"is_disabled":false,"rental_uris":{"android":"levelo://app?vid=4f356222-17b5-4ae9-9064-9f9fc4ff12ee","ios":"levelo://app?vid=4f356222-17b5-4ae9-9064-9f9fc4ff12ee"},"vehicle_type_id":"4","last_reported":1687082768,"current_range_meters":11200,"station_id":"ce4bgvp2rcd13ifvqct0","pricing_plan_id":"free"},{"bike_id":"55d4fd35-7b37-484a-a93c-fe67c0edf70c","system_id":"levelo_inurba_marseille","lat":43.301117,"lon":5.398795,"is_reserved":false,"is_disabled":false,"rental_uris":{"android":"levelo://app?vid=55d4fd35-7b37-484a-a93c-fe67c0edf70c","ios":"levelo://app?vid=55d4fd35-7b37-484a-a93c-fe67c0edf70c"},"vehicle_type_id":"4","last_reported":1687082768,"current_range_meters":18800,"station_id":"ce4bh0h2rcd13ifvqd40","pricing_plan_id":"free"},{"bike_id":"d7609247-8dc9-4f3d-ac68-99205e3a7833","system_id":"levelo_inurba_marseille","lat":43.30153,"lon":5.39902,"is_reserved":false,"is_disabled":false,"rental_uris":{"android":"levelo://app?vid=d7609247-8dc9-4f3d-ac68-99205e3a7833","ios":"levelo://app?vid=d7609247-8dc9-4f3d-ac68-99205e3a7833"},"vehicle_type_id":"4","last_reported":1687082768,"current_range_meters":12000,"station_id":"ce4bh0h2rcd13ifvqd40","pricing_plan_id":"free"},{"bike_id":"85895743-44c1-4020-a5c6-e44230e4c2be","system_id":"levelo_inurba_marseille","lat":43.286961,"lon":5.373785,"is_reserved":false,"is_disabled":false,"rental_uris":{"android":"levelo://app?vid=85895743-44c1-4020-a5c6-e44230e4c2be","ios":"levelo://app?vid=85895743-44c1-4020-a5c6-e44230e4c2be"},"vehicle_type_id":"4","last_reported":1687082768,"current_range_meters":19600,"station_id":"ce4bh3p2rcd13ifvqdq0","pricing_plan_id":"free"},{"bike_id":"54894da1-05eb-4583-adee-1ad395e950f2","system_id":"levelo_inurba_marseille","lat":43.286591,"lon":5.363346,"is_reserved":false,"is_disabled":false,"rental_uris":{"android":"levelo://app?vid=54894da1-05eb-4583-adee-1ad395e950f2","ios":"levelo://app?vid=54894da1-05eb-4583-adee-1ad395e950f2"},"vehicle_type_id":"4","last_reported":1687082768,"current_range_meters":7200,"station_id":"ce4bhah2rcd13ifvqej0","pricing_plan_id":"free"},{"bike_id":"85b30dc9-5c99-4471-8d69-a95d819eab94","system_id":"levelo_inurba_marseille","lat":43.29873,"lon":5.39728,"is_reserved":false,"is_disabled":false,"rental_uris":{"android":"levelo://app?vid=85b30dc9-5c99-4471-8d69-a95d819eab94","ios":"levelo://app?vid=85b30dc9-5c99-4471-8d69-a95d819eab94"},"vehicle_type_id":"4","last_reported":1687082768,"current_range_meters":18000,"station_id":"ce4bh0h2rcd13ifvqd50","pricing_plan_id":"free"},{"bike_id":"beca1915-ea86-45ac-9221-7d2a5bf109dc","system_id":"levelo_inurba_marseille","lat":43.29875,"lon":5.3974,"is_reserved":false,"is_disabled":false,"rental_uris":{"android":"levelo://app?vid=beca1915-ea86-45ac-9221-7d2a5bf109dc","ios":"levelo://app?vid=beca1915-ea86-45ac-9221-7d2a5bf109dc"},"vehicle_type_id":"4","last_reported":1687082768,"current_range_meters":21200,"station_id":"ce4bh0h2rcd13ifvqd50","pricing_plan_id":"free"},{"bike_id":"92595bbc-9601-489e-9cbe-e038fe86934a","system_id":"levelo_inurba_marseille","lat":43.298681,"lon":5.397225,"is_reserved":false,"is_disabled":false,"rental_uris":{"android":"levelo://app?vid=92595bbc-9601-489e-9cbe-e038fe86934a","ios":"levelo://app?vid=92595bbc-9601-489e-9cbe-e038fe86934a"},"vehicle_type_id":"4","last_reported":1687082768,"current_range_meters":17600,"station_id":"ce4bh0h2rcd13ifvqd50","pricing_plan_id":"free"},{"bike_id":"583ac131-b11a-4267-b07d-897dad6597aa","system_id":"levelo_inurba_marseille","lat":43.298681,"lon":5.397225,"is_reserved":false,"is_disabled":false,"rental_uris":{"android":"levelo://app?vid=583ac131-b11a-4267-b07d-897dad6597aa","ios":"levelo://app?vid=583ac131-b11a-4267-b07d-897dad6597aa"},"vehicle_type_id":"4","last_reported":1687082768,"current_range_meters":26400,"station_id":"ce4bh0h2rcd13ifvqd50","pricing_plan_id":"free"},{"bike_id":"c7831798-a5e4-4cd1-9169-b91d21a5b852","system_id":"levelo_inurba_marseille","lat":43.28838,"lon":5.35303,"is_reserved":false,"is_disabled":false,"rental_uris":{"android":"levelo://app?vid=c7831798-a5e4-4cd1-9169-b91d21a5b852","ios":"levelo://app?vid=c7831798-a5e4-4cd1-9169-b91d21a5b852"},"vehicle_type_id":"4","last_reported":1687082768,"current_range_meters":18000,"station_id":"","pricing_plan_id":"free"},{"bike_id":"b9d11a7a-8b84-44d9-9906-bfd0c7fdc492","system_id":"levelo_inurba_marseille","lat":43.302759,"lon":5.400793,"is_reserved":false,"is_disabled":false,"rental_uris":{"android":"levelo://app?vid=b9d11a7a-8b84-44d9-9906-bfd0c7fdc492","ios":"levelo://app?vid=b9d11a7a-8b84-44d9-9906-bfd0c7fdc492"},"vehicle_type_id":"4","last_reported":1687082768,"current_range_meters":20400,"station_id":"ce4bgvh2rcd13ifvqcs0","pricing_plan_id":"free"},{"bike_id":"19fdd951-f5fe-4f04-bed9-262a7b68e712","system_id":"levelo_inurba_marseille","lat":43.29034,"lon":5.38652,"is_reserved":false,"is_disabled":false,"rental_uris":{"android":"levelo://app?vid=19fdd951-f5fe-4f04-bed9-262a7b68e712","ios":"levelo://app?vid=19fdd951-f5fe-4f04-bed9-262a7b68e712"},"vehicle_type_id":"4","last_reported":1687082768,"current_range_meters":20000,"station_id":"ce4bh4p2rcd13ifvqe0g","pricing_plan_id":"free"},{"bike_id":"39ebb783-a4ad-497a-a8b4-f26310952609","system_id":"levelo_inurba_marseille","lat":43.30244,"lon":5.40062,"is_reserved":false,"is_disabled":false,"rental_uris":{"android":"levelo://app?vid=39ebb783-a4ad-497a-a8b4-f26310952609","ios":"levelo://app?vid=39ebb783-a4ad-497a-a8b4-f26310952609"},"vehicle_type_id":"4","last_reported":1687082768,"current_range_meters":24800,"station_id":"ce4bgvh2rcd13ifvqcs0","pricing_plan_id":"free"},{"bike_id":"21cf0a29-31c0-46c5-9516-b0f5847b8ecc","system_id":"levelo_inurba_marseille","lat":43.30245,"lon":5.40063,"is_reserved":false,"is_disabled":false,"rental_uris":{"android":"levelo://app?vid=21cf0a29-31c0-46c5-9516-b0f5847b8ecc","ios":"levelo://app?vid=21cf0a29-31c0-46c5-9516-b0f5847b8ecc"},"vehicle_type_id":"4","last_reported":1687082768,"current_range_meters":14000,"station_id":"","pricing_plan_id":"free"},{"bike_id":"8f392288-48e8-4530-bc9b-7a4bd7128a0b","system_id":"levelo_inurba_marseille","lat":43.302759,"lon":5.400793,"is_reserved":false,"is_disabled":false,"rental_uris":{"android":"levelo://app?vid=8f392288-48e8-4530-bc9b-7a4bd7128a0b","ios":"levelo://app?vid=8f392288-48e8-4530-bc9b-7a4bd7128a0b"},"vehicle_type_id":"4","last_reported":1687082768,"current_range_meters":31200,"station_id":"ce4bgvh2rcd13ifvqcs0","pricing_plan_id":"free"},{"bike_id":"533121de-47c3-457e-bdcc-d81f3e48da48","system_id":"levelo_inurba_marseille","lat":43.30244,"lon":5.40063,"is_reserved":false,"is_disabled":false,"rental_uris":{"android":"levelo://app?vid=533121de-47c3-457e-bdcc-d81f3e48da48","ios":"levelo://app?vid=533121de-47c3-457e-bdcc-d81f3e48da48"},"vehicle_type_id":"4","last_reported":1687082768,"current_range_meters":18400,"station_id":"","pricing_plan_id":"free"},{"bike_id":"2724b277-3342-4a61-8f2f-7eac0f1f36b4","system_id":"levelo_inurba_marseille","lat":43.30242,"lon":5.40062,"is_reserved":false,"is_disabled":false,"rental_uris":{"android":"levelo://app?vid=2724b277-3342-4a61-8f2f-7eac0f1f36b4","ios":"levelo://app?vid=2724b277-3342-4a61-8f2f-7eac0f1f36b4"},"vehicle_type_id":"4","last_reported":1687082768,"current_range_meters":26000,"station_id":"","pricing_plan_id":"free"},{"bike_id":"9b626bf4-13fb-47d1-9c45-ba0a74abde7b","system_id":"levelo_inurba_marseille","lat":43.30243,"lon":5.40063,"is_reserved":false,"is_disabled":false,"rental_uris":{"android":"levelo://app?vid=9b626bf4-13fb-47d1-9c45-ba0a74abde7b","ios":"levelo://app?vid=9b626bf4-13fb-47d1-9c45-ba0a74abde7b"},"vehicle_type_id":"4","last_reported":1687082768,"current_range_meters":17200,"station_id":"","pricing_plan_id":"free"},{"bike_id":"363358b6-1711-4e58-99d3-4183c9c5eb18","system_id":"levelo_inurba_marseille","lat":43.302759,"lon":5.400793,"is_reserved":false,"is_disabled":false,"rental_uris":{"android":"levelo://app?vid=363358b6-1711-4e58-99d3-4183c9c5eb18","ios":"levelo://app?vid=363358b6-1711-4e58-99d3-4183c9c5eb18"},"vehicle_type_id":"4","last_reported":1687082768,"current_range_meters":20800,"station_id":"ce4bgvh2rcd13ifvqcs0","pricing_plan_id":"free"},{"bike_id":"0287f98a-d338-4eda-825e-5d11bf3aa33a","system_id":"levelo_inurba_marseille","lat":43.3025,"lon":5.40069,"is_reserved":false,"is_disabled":false,"rental_uris":{"android":"levelo://app?vid=0287f98a-d338-4eda-825e-5d11bf3aa33a","ios":"levelo://app?vid=0287f98a-d338-4eda-825e-5d11bf3aa33a"},"vehicle_type_id":"4","last_reported":1687082768,"current_range_meters":26400,"station_id":"","pricing_plan_id":"free"},{"bike_id":"c16cd8a2-f45f-40d1-aaac-a94463da4f69","system_id":"levelo_inurba_marseille","lat":43.30249,"lon":5.40069,"is_reserved":false,"is_disabled":false,"rental_uris":{"android":"levelo://app?vid=c16cd8a2-f45f-40d1-aaac-a94463da4f69","ios":"levelo://app?vid=c16cd8a2-f45f-40d1-aaac-a94463da4f69"},"vehicle_type_id":"4","last_reported":1687082768,"current_range_meters":18800,"station_id":"","pricing_plan_id":"free"},{"bike_id":"fe7f77cd-afb3-467b-99a3-1518357b1863","system_id":"levelo_inurba_marseille","lat":43.302759,"lon":5.400793,"is_reserved":false,"is_disabled":false,"rental_uris":{"android":"levelo://app?vid=fe7f77cd-afb3-467b-99a3-1518357b1863","ios":"levelo://app?vid=fe7f77cd-afb3-467b-99a3-1518357b1863"},"vehicle_type_id":"4","last_reported":1687082768,"current_range_meters":24400,"station_id":"ce4bgvh2rcd13ifvqcs0","pricing_plan_id":"free"},{"bike_id":"23ed75f5-98f9-4078-b293-962b7f6d8657","system_id":"levelo_inurba_marseille","lat":43.302759,"lon":5.400793,"is_reserved":false,"is_disabled":false,"rental_uris":{"android":"levelo://app?vid=23ed75f5-98f9-4078-b293-962b7f6d8657","ios":"levelo://app?vid=23ed75f5-98f9-4078-b293-962b7f6d8657"},"vehicle_type_id":"4","last_reported":1687082768,"current_range_meters":31200,"station_id":"ce4bgvh2rcd13ifvqcs0","pricing_plan_id":"free"},{"bike_id":"4134c28e-20cb-4b27-b417-fd02be5cd803","system_id":"levelo_inurba_marseille","lat":43.286039,"lon":5.370679,"is_reserved":false,"is_disabled":false,"rental_uris":{"android":"levelo://app?vid=4134c28e-20cb-4b27-b417-fd02be5cd803","ios":"levelo://app?vid=4134c28e-20cb-4b27-b417-fd02be5cd803"},"vehicle_type_id":"4","last_reported":1687082768,"current_range_meters":18800,"station_id":"ce4bht12rcd13ifvqi60","pricing_plan_id":"free"},{"bike_id":"b60bc646-4240-4b9e-9e24-be831bda7074","system_id":"levelo_inurba_marseille","lat":43.286116,"lon":5.370582,"is_reserved":false,"is_disabled":false,"rental_uris":{"android":"levelo://app?vid=b60bc646-4240-4b9e-9e24-be831bda7074","ios":"levelo://app?vid=b60bc646-4240-4b9e-9e24-be831bda7074"},"vehicle_type_id":"4","last_reported":1687082768,"current_range_meters":30800,"station_id":"ce4bht12rcd13ifvqi60","pricing_plan_id":"free"},{"bike_id":"e799a2af-517e-4f5d-8de1-2901168c7d4f","system_id":"levelo_inurba_marseille","lat":43.28604,"lon":5.37066,"is_reserved":false,"is_disabled":false,"rental_uris":{"android":"levelo://app?vid=e799a2af-517e-4f5d-8de1-2901168c7d4f","ios":"levelo://app?vid=e799a2af-517e-4f5d-8de1-2901168c7d4f"},"vehicle_type_id":"4","last_reported":1687082768,"current_range_meters":31200,"station_id":"ce4bht12rcd13ifvqi60","pricing_plan_id":"free"},{"bike_id":"c66f5223-6a9d-4939-ae7e-e634b1f1e6ab","system_id":"levelo_inurba_marseille","lat":43.316517,"lon":5.404375,"is_reserved":false,"is_disabled":false,"rental_uris":{"android":"levelo://app?vid=c66f5223-6a9d-4939-ae7e-e634b1f1e6ab","ios":"levelo://app?vid=c66f5223-6a9d-4939-ae7e-e634b1f1e6ab"},"vehicle_type_id":"4","last_reported":1687082768,"current_range_meters":5600,"station_id":"ce4bh012rcd13ifvqd00","pricing_plan_id":"free"},{"bike_id":"ac97cab2-67a5-44c0-a851-fae050a46b28","system_id":"levelo_inurba_marseille","lat":43.316517,"lon":5.404375,"is_reserved":false,"is_disabled":false,"rental_uris":{"android":"levelo://app?vid=ac97cab2-67a5-44c0-a851-fae050a46b28","ios":"levelo://app?vid=ac97cab2-67a5-44c0-a851-fae050a46b28"},"vehicle_type_id":"4","last_reported":1687082768,"current_range_meters":22400,"station_id":"ce4bh012rcd13ifvqd00","pricing_plan_id":"free"},{"bike_id":"eadd637d-3b45-4596-bd68-afda147f9266","system_id":"levelo_inurba_marseille","lat":43.316517,"lon":5.404375,"is_reserved":false,"is_disabled":false,"rental_uris":{"android":"levelo://app?vid=eadd637d-3b45-4596-bd68-afda147f9266","ios":"levelo://app?vid=eadd637d-3b45-4596-bd68-afda147f9266"},"vehicle_type_id":"4","last_reported":1687082768,"current_range_meters":15600,"station_id":"ce4bh012rcd13ifvqd00","pricing_plan_id":"free"},{"bike_id":"a60d2e0b-86c6-43af-bf6a-788e539c286b","system_id":"levelo_inurba_marseille","lat":43.316517,"lon":5.404375,"is_reserved":false,"is_disabled":false,"rental_uris":{"android":"levelo://app?vid=a60d2e0b-86c6-43af-bf6a-788e539c286b","ios":"levelo://app?vid=a60d2e0b-86c6-43af-bf6a-788e539c286b"},"vehicle_type_id":"4","last_reported":1687082768,"current_range_meters":800,"station_id":"ce4bh012rcd13ifvqd00","pricing_plan_id":"free"},{"bike_id":"f53f8b0c-3c08-4e86-ac89-0156aaafe9f9","system_id":"levelo_inurba_marseille","lat":43.316517,"lon":5.404375,"is_reserved":false,"is_disabled":false,"rental_uris":{"android":"levelo://app?vid=f53f8b0c-3c08-4e86-ac89-0156aaafe9f9","ios":"levelo://app?vid=f53f8b0c-3c08-4e86-ac89-0156aaafe9f9"},"vehicle_type_id":"4","last_reported":1687082768,"current_range_meters":29600,"station_id":"ce4bh012rcd13ifvqd00","pricing_plan_id":"free"},{"bike_id":"e90f8b03-ef4d-4ce8-ae77-d60de61ac678","system_id":"levelo_inurba_marseille","lat":43.316517,"lon":5.404375,"is_reserved":false,"is_disabled":false,"rental_uris":{"android":"levelo://app?vid=e90f8b03-ef4d-4ce8-ae77-d60de61ac678","ios":"levelo://app?vid=e90f8b03-ef4d-4ce8-ae77-d60de61ac678"},"vehicle_type_id":"4","last_reported":1687082768,"current_range_meters":22800,"station_id":"ce4bh012rcd13ifvqd00","pricing_plan_id":"free"},{"bike_id":"601d3e1f-4251-432d-9d88-4605b3d186eb","system_id":"levelo_inurba_marseille","lat":43.316517,"lon":5.404375,"is_reserved":false,"is_disabled":false,"rental_uris":{"android":"levelo://app?vid=601d3e1f-4251-432d-9d88-4605b3d186eb","ios":"levelo://app?vid=601d3e1f-4251-432d-9d88-4605b3d186eb"},"vehicle_type_id":"4","last_reported":1687082768,"current_range_meters":27200,"station_id":"ce4bh012rcd13ifvqd00","pricing_plan_id":"free"},{"bike_id":"6545cebb-fbb9-47db-8d14-52a4e106c357","system_id":"levelo_inurba_marseille","lat":43.316517,"lon":5.404375,"is_reserved":false,"is_disabled":false,"rental_uris":{"android":"levelo://app?vid=6545cebb-fbb9-47db-8d14-52a4e106c357","ios":"levelo://app?vid=6545cebb-fbb9-47db-8d14-52a4e106c357"},"vehicle_type_id":"4","last_reported":1687082768,"current_range_meters":24800,"station_id":"ce4bh012rcd13ifvqd00","pricing_plan_id":"free"},{"bike_id":"5aa0ea34-43dd-4046-b5ef-67f2ff4c7f09","system_id":"levelo_inurba_marseille","lat":43.28623,"lon":5.35104,"is_reserved":false,"is_disabled":false,"rental_uris":{"android":"levelo://app?vid=5aa0ea34-43dd-4046-b5ef-67f2ff4c7f09","ios":"levelo://app?vid=5aa0ea34-43dd-4046-b5ef-67f2ff4c7f09"},"vehicle_type_id":"4","last_reported":1687082768,"current_range_meters":31200,"station_id":"ce4bhch2rcd13ifvqeug","pricing_plan_id":"free"},{"bike_id":"af8a55e4-5fd6-495c-9fab-05b01d873d72","system_id":"levelo_inurba_marseille","lat":43.28621,"lon":5.35102,"is_reserved":false,"is_disabled":false,"rental_uris":{"android":"levelo://app?vid=af8a55e4-5fd6-495c-9fab-05b01d873d72","ios":"levelo://app?vid=af8a55e4-5fd6-495c-9fab-05b01d873d72"},"vehicle_type_id":"4","last_reported":1687082768,"current_range_meters":31200,"station_id":"ce4bhch2rcd13ifvqeug","pricing_plan_id":"free"},{"bike_id":"cb82f7b4-a043-4e39-be66-b4b7697c997b","system_id":"levelo_inurba_marseille","lat":43.28619,"lon":5.35108,"is_reserved":false,"is_disabled":false,"rental_uris":{"android":"levelo://app?vid=cb82f7b4-a043-4e39-be66-b4b7697c997b","ios":"levelo://app?vid=cb82f7b4-a043-4e39-be66-b4b7697c997b"},"vehicle_type_id":"4","last_reported":1687082768,"current_range_meters":29200,"station_id":"ce4bhch2rcd13ifvqeug","pricing_plan_id":"free"},{"bike_id":"768c22b1-4d4e-4e0a-9608-aa408f18f18c","system_id":"levelo_inurba_marseille","lat":43.285856,"lon":5.350771,"is_reserved":false,"is_disabled":false,"rental_uris":{"android":"levelo://app?vid=768c22b1-4d4e-4e0a-9608-aa408f18f18c","ios":"levelo://app?vid=768c22b1-4d4e-4e0a-9608-aa408f18f18c"},"vehicle_type_id":"4","last_reported":1687082768,"current_range_meters":30400,"station_id":"ce4bhch2rcd13ifvqeug","pricing_plan_id":"free"},{"bike_id":"4c8dae26-8fe6-47fc-9faa-4c7261ba3c6e","system_id":"levelo_inurba_marseille","lat":43.28619,"lon":5.35102,"is_reserved":false,"is_disabled":false,"rental_uris":{"android":"levelo://app?vid=4c8dae26-8fe6-47fc-9faa-4c7261ba3c6e","ios":"levelo://app?vid=4c8dae26-8fe6-47fc-9faa-4c7261ba3c6e"},"vehicle_type_id":"4","last_reported":1687082768,"current_range_meters":22800,"station_id":"ce4bhch2rcd13ifvqeug","pricing_plan_id":"free"},{"bike_id":"b17a8dfb-a7c7-47b4-839e-9fc51a1e81e3","system_id":"levelo_inurba_marseille","lat":43.285856,"lon":5.350771,"is_reserved":false,"is_disabled":false,"rental_uris":{"android":"levelo://app?vid=b17a8dfb-a7c7-47b4-839e-9fc51a1e81e3","ios":"levelo://app?vid=b17a8dfb-a7c7-47b4-839e-9fc51a1e81e3"},"vehicle_type_id":"4","last_reported":1687082768,"current_range_meters":31200,"station_id":"ce4bhch2rcd13ifvqeug","pricing_plan_id":"free"},{"bike_id":"46b45f1d-e36a-41f0-9fc5-d8262b4c6a24","system_id":"levelo_inurba_marseille","lat":43.285856,"lon":5.350771,"is_reserved":false,"is_disabled":false,"rental_uris":{"android":"levelo://app?vid=46b45f1d-e36a-41f0-9fc5-d8262b4c6a24","ios":"levelo://app?vid=46b45f1d-e36a-41f0-9fc5-d8262b4c6a24"},"vehicle_type_id":"4","last_reported":1687082768,"current_range_meters":15600,"station_id":"ce4bhch2rcd13ifvqeug","pricing_plan_id":"free"},{"bike_id":"c18008f3-1221-41ac-8e71-bb7bc7373d9f","system_id":"levelo_inurba_marseille","lat":43.28616,"lon":5.35105,"is_reserved":false,"is_disabled":false,"rental_uris":{"android":"levelo://app?vid=c18008f3-1221-41ac-8e71-bb7bc7373d9f","ios":"levelo://app?vid=c18008f3-1221-41ac-8e71-bb7bc7373d9f"},"vehicle_type_id":"4","last_reported":1687082768,"current_range_meters":25600,"station_id":"ce4bhch2rcd13ifvqeug","pricing_plan_id":"free"},{"bike_id":"ec8967c1-2ade-4b1d-b224-8cb12c7202b1","system_id":"levelo_inurba_marseille","lat":43.286158,"lon":5.351053,"is_reserved":false,"is_disabled":false,"rental_uris":{"android":"levelo://app?vid=ec8967c1-2ade-4b1d-b224-8cb12c7202b1","ios":"levelo://app?vid=ec8967c1-2ade-4b1d-b224-8cb12c7202b1"},"vehicle_type_id":"4","last_reported":1687082768,"current_range_meters":24400,"station_id":"ce4bh412rcd13ifvqds0","pricing_plan_id":"free"},{"bike_id":"af4dd12b-1912-4e6d-b53a-039796841ae0","system_id":"levelo_inurba_marseille","lat":43.28616,"lon":5.35102,"is_reserved":false,"is_disabled":false,"rental_uris":{"android":"levelo://app?vid=af4dd12b-1912-4e6d-b53a-039796841ae0","ios":"levelo://app?vid=af4dd12b-1912-4e6d-b53a-039796841ae0"},"vehicle_type_id":"4","last_reported":1687082768,"current_range_meters":17200,"station_id":"ce4bhch2rcd13ifvqeug","pricing_plan_id":"free"},{"bike_id":"2f45ea44-29fe-4d1f-ac6d-237f6e705c23","system_id":"levelo_inurba_marseille","lat":43.28615,"lon":5.35105,"is_reserved":false,"is_disabled":false,"rental_uris":{"android":"levelo://app?vid=2f45ea44-29fe-4d1f-ac6d-237f6e705c23","ios":"levelo://app?vid=2f45ea44-29fe-4d1f-ac6d-237f6e705c23"},"vehicle_type_id":"4","last_reported":1687082768,"current_range_meters":20800,"station_id":"ce4bhch2rcd13ifvqeug","pricing_plan_id":"free"},{"bike_id":"af29ed08-afe9-4c1b-842d-6677b0025af2","system_id":"levelo_inurba_marseille","lat":43.285856,"lon":5.350771,"is_reserved":false,"is_disabled":false,"rental_uris":{"android":"levelo://app?vid=af29ed08-afe9-4c1b-842d-6677b0025af2","ios":"levelo://app?vid=af29ed08-afe9-4c1b-842d-6677b0025af2"},"vehicle_type_id":"4","last_reported":1687082768,"current_range_meters":13200,"station_id":"ce4bhch2rcd13ifvqeug","pricing_plan_id":"free"},{"bike_id":"646342b4-601e-441b-bfaf-82400a1b4de7","system_id":"levelo_inurba_marseille","lat":43.28612,"lon":5.35108,"is_reserved":false,"is_disabled":false,"rental_uris":{"android":"levelo://app?vid=646342b4-601e-441b-bfaf-82400a1b4de7","ios":"levelo://app?vid=646342b4-601e-441b-bfaf-82400a1b4de7"},"vehicle_type_id":"4","last_reported":1687082768,"current_range_meters":12400,"station_id":"ce4bhch2rcd13ifvqeug","pricing_plan_id":"free"},{"bike_id":"ff6bb60a-d9fc-4a26-8aef-1d2cbbaf4c01","system_id":"levelo_inurba_marseille","lat":43.285856,"lon":5.350771,"is_reserved":false,"is_disabled":false,"rental_uris":{"android":"levelo://app?vid=ff6bb60a-d9fc-4a26-8aef-1d2cbbaf4c01","ios":"levelo://app?vid=ff6bb60a-d9fc-4a26-8aef-1d2cbbaf4c01"},"vehicle_type_id":"4","last_reported":1687082768,"current_range_meters":28400,"station_id":"ce4bhch2rcd13ifvqeug","pricing_plan_id":"free"},{"bike_id":"623fb991-1d09-4de7-9512-39bcd73480ce","system_id":"levelo_inurba_marseille","lat":43.283998,"lon":5.375062,"is_reserved":false,"is_disabled":false,"rental_uris":{"android":"levelo://app?vid=623fb991-1d09-4de7-9512-39bcd73480ce","ios":"levelo://app?vid=623fb991-1d09-4de7-9512-39bcd73480ce"},"vehicle_type_id":"4","last_reported":1687082768,"current_range_meters":31200,"station_id":"ce4bh412rcd13ifvqds0","pricing_plan_id":"free"},{"bike_id":"e95d0a41-c998-4a32-938c-58fd46de30f3","system_id":"levelo_inurba_marseille","lat":43.295713,"lon":5.399639,"is_reserved":false,"is_disabled":false,"rental_uris":{"android":"levelo://app?vid=e95d0a41-c998-4a32-938c-58fd46de30f3","ios":"levelo://app?vid=e95d0a41-c998-4a32-938c-58fd46de30f3"},"vehicle_type_id":"4","last_reported":1687082768,"current_range_meters":30800,"station_id":"ce4bh312rcd13ifvqdj0","pricing_plan_id":"free"},{"bike_id":"1a046453-394a-4f71-9d33-b627fd07858d","system_id":"levelo_inurba_marseille","lat":43.295713,"lon":5.399639,"is_reserved":false,"is_disabled":false,"rental_uris":{"android":"levelo://app?vid=1a046453-394a-4f71-9d33-b627fd07858d","ios":"levelo://app?vid=1a046453-394a-4f71-9d33-b627fd07858d"},"vehicle_type_id":"4","last_reported":1687082768,"current_range_meters":18400,"station_id":"ce4bh312rcd13ifvqdj0","pricing_plan_id":"free"},{"bike_id":"98c202a7-5553-4802-a472-6b7d3f5364f8","system_id":"levelo_inurba_marseille","lat":43.295713,"lon":5.399639,"is_reserved":false,"is_disabled":false,"rental_uris":{"android":"levelo://app?vid=98c202a7-5553-4802-a472-6b7d3f5364f8","ios":"levelo://app?vid=98c202a7-5553-4802-a472-6b7d3f5364f8"},"vehicle_type_id":"4","last_reported":1687082768,"current_range_meters":22400,"station_id":"ce4bh312rcd13ifvqdj0","pricing_plan_id":"free"},{"bike_id":"43275ef6-770c-4f0e-926c-1c3aecd7abec","system_id":"levelo_inurba_marseille","lat":43.287909,"lon":5.390554,"is_reserved":false,"is_disabled":false,"rental_uris":{"android":"levelo://app?vid=43275ef6-770c-4f0e-926c-1c3aecd7abec","ios":"levelo://app?vid=43275ef6-770c-4f0e-926c-1c3aecd7abec"},"vehicle_type_id":"4","last_reported":1687082768,"current_range_meters":13200,"station_id":"","pricing_plan_id":"free"},{"bike_id":"536b47a7-25f9-49cb-9608-1b3c49b68cf4","system_id":"levelo_inurba_marseille","lat":43.33707,"lon":5.3918,"is_reserved":false,"is_disabled":false,"rental_uris":{"android":"levelo://app?vid=536b47a7-25f9-49cb-9608-1b3c49b68cf4","ios":"levelo://app?vid=536b47a7-25f9-49cb-9608-1b3c49b68cf4"},"vehicle_type_id":"4","last_reported":1687082768,"current_range_meters":10800,"station_id":"","pricing_plan_id":"free"},{"bike_id":"20271c70-be52-486b-882d-7f6df7e77e9a","system_id":"levelo_inurba_marseille","lat":43.323464,"lon":5.406297,"is_reserved":false,"is_disabled":false,"rental_uris":{"android":"levelo://app?vid=20271c70-be52-486b-882d-7f6df7e77e9a","ios":"levelo://app?vid=20271c70-be52-486b-882d-7f6df7e77e9a"},"vehicle_type_id":"4","last_reported":1687082768,"current_range_meters":22400,"station_id":"ce4bhq92rcd13ifvqhjg","pricing_plan_id":"free"},{"bike_id":"16e5fedd-6e86-436a-a0a2-72c7cd60a6ea","system_id":"levelo_inurba_marseille","lat":43.323464,"lon":5.406297,"is_reserved":false,"is_disabled":false,"rental_uris":{"android":"levelo://app?vid=16e5fedd-6e86-436a-a0a2-72c7cd60a6ea","ios":"levelo://app?vid=16e5fedd-6e86-436a-a0a2-72c7cd60a6ea"},"vehicle_type_id":"4","last_reported":1687082768,"current_range_meters":31200,"station_id":"ce4bhq92rcd13ifvqhjg","pricing_plan_id":"free"},{"bike_id":"e31dd5ec-111c-4c37-abde-ca5e54fbd5e9","system_id":"levelo_inurba_marseille","lat":43.323464,"lon":5.406297,"is_reserved":false,"is_disabled":false,"rental_uris":{"android":"levelo://app?vid=e31dd5ec-111c-4c37-abde-ca5e54fbd5e9","ios":"levelo://app?vid=e31dd5ec-111c-4c37-abde-ca5e54fbd5e9"},"vehicle_type_id":"4","last_reported":1687082768,"current_range_meters":31600,"station_id":"ce4bhq92rcd13ifvqhjg","pricing_plan_id":"free"},{"bike_id":"72611642-d420-4b07-b473-f6153c62d01f","system_id":"levelo_inurba_marseille","lat":43.323464,"lon":5.406297,"is_reserved":false,"is_disabled":false,"rental_uris":{"android":"levelo://app?vid=72611642-d420-4b07-b473-f6153c62d01f","ios":"levelo://app?vid=72611642-d420-4b07-b473-f6153c62d01f"},"vehicle_type_id":"4","last_reported":1687082768,"current_range_meters":31200,"station_id":"ce4bhq92rcd13ifvqhjg","pricing_plan_id":"free"},{"bike_id":"cd2aad6b-e6de-4898-afae-252a11dcb0cf","system_id":"levelo_inurba_marseille","lat":43.284793,"lon":5.384113,"is_reserved":false,"is_disabled":false,"rental_uris":{"android":"levelo://app?vid=cd2aad6b-e6de-4898-afae-252a11dcb0cf","ios":"levelo://app?vid=cd2aad6b-e6de-4898-afae-252a11dcb0cf"},"vehicle_type_id":"4","last_reported":1687082768,"current_range_meters":8400,"station_id":"ce4bh512rcd13ifvqe3g","pricing_plan_id":"free"},{"bike_id":"6ce480b8-77ba-46a2-86f2-5bc8160b68ed","system_id":"levelo_inurba_marseille","lat":43.284787,"lon":5.384116,"is_reserved":false,"is_disabled":false,"rental_uris":{"android":"levelo://app?vid=6ce480b8-77ba-46a2-86f2-5bc8160b68ed","ios":"levelo://app?vid=6ce480b8-77ba-46a2-86f2-5bc8160b68ed"},"vehicle_type_id":"4","last_reported":1687082768,"current_range_meters":28000,"station_id":"ce4bh512rcd13ifvqe3g","pricing_plan_id":"free"},{"bike_id":"00b4d942-d645-4a17-a320-9c02b5ecca68","system_id":"levelo_inurba_marseille","lat":43.288497,"lon":5.393089,"is_reserved":false,"is_disabled":false,"rental_uris":{"android":"levelo://app?vid=00b4d942-d645-4a17-a320-9c02b5ecca68","ios":"levelo://app?vid=00b4d942-d645-4a17-a320-9c02b5ecca68"},"vehicle_type_id":"4","last_reported":1687082768,"current_range_meters":22400,"station_id":"ce4bh2p2rcd13ifvqdi0","pricing_plan_id":"free"},{"bike_id":"a2faeb74-c96c-4a11-b169-e5acc36ad081","system_id":"levelo_inurba_marseille","lat":43.28421,"lon":5.34976,"is_reserved":false,"is_disabled":false,"rental_uris":{"android":"levelo://app?vid=a2faeb74-c96c-4a11-b169-e5acc36ad081","ios":"levelo://app?vid=a2faeb74-c96c-4a11-b169-e5acc36ad081"},"vehicle_type_id":"4","last_reported":1687082768,"current_range_meters":28400,"station_id":"ce4bhbh2rcd13ifvqepg","pricing_plan_id":"free"},{"bike_id":"6c5b4e1b-0910-4a59-addf-87b009f879c1","system_id":"levelo_inurba_marseille","lat":43.28419,"lon":5.34974,"is_reserved":false,"is_disabled":false,"rental_uris":{"android":"levelo://app?vid=6c5b4e1b-0910-4a59-addf-87b009f879c1","ios":"levelo://app?vid=6c5b4e1b-0910-4a59-addf-87b009f879c1"},"vehicle_type_id":"4","last_reported":1687082768,"current_range_meters":6000,"station_id":"ce4bhbh2rcd13ifvqepg","pricing_plan_id":"free"},{"bike_id":"67c102d5-445b-413e-8f04-0d8b1d6a1ba7","system_id":"levelo_inurba_marseille","lat":43.28413,"lon":5.34989,"is_reserved":false,"is_disabled":false,"rental_uris":{"android":"levelo://app?vid=67c102d5-445b-413e-8f04-0d8b1d6a1ba7","ios":"levelo://app?vid=67c102d5-445b-413e-8f04-0d8b1d6a1ba7"},"vehicle_type_id":"4","last_reported":1687082768,"current_range_meters":30000,"station_id":"ce4bhbh2rcd13ifvqepg","pricing_plan_id":"free"},{"bike_id":"cfbe5c99-3ef1-467f-a9f4-775e0efe1777","system_id":"levelo_inurba_marseille","lat":43.28418,"lon":5.34969,"is_reserved":false,"is_disabled":false,"rental_uris":{"android":"levelo://app?vid=cfbe5c99-3ef1-467f-a9f4-775e0efe1777","ios":"levelo://app?vid=cfbe5c99-3ef1-467f-a9f4-775e0efe1777"},"vehicle_type_id":"4","last_reported":1687082768,"current_range_meters":26400,"station_id":"ce4bhbh2rcd13ifvqepg","pricing_plan_id":"free"},{"bike_id":"c736c3c1-d144-45f8-ad42-5cd5f9229f14","system_id":"levelo_inurba_marseille","lat":43.284217,"lon":5.349697,"is_reserved":false,"is_disabled":false,"rental_uris":{"android":"levelo://app?vid=c736c3c1-d144-45f8-ad42-5cd5f9229f14","ios":"levelo://app?vid=c736c3c1-d144-45f8-ad42-5cd5f9229f14"},"vehicle_type_id":"4","last_reported":1687082768,"current_range_meters":24000,"station_id":"ce4bhbh2rcd13ifvqepg","pricing_plan_id":"free"},{"bike_id":"a531765b-e9e2-4568-9dd1-1ed53bdccb5f","system_id":"levelo_inurba_marseille","lat":43.284217,"lon":5.349697,"is_reserved":false,"is_disabled":false,"rental_uris":{"android":"levelo://app?vid=a531765b-e9e2-4568-9dd1-1ed53bdccb5f","ios":"levelo://app?vid=a531765b-e9e2-4568-9dd1-1ed53bdccb5f"},"vehicle_type_id":"4","last_reported":1687082768,"current_range_meters":22400,"station_id":"ce4bhbh2rcd13ifvqepg","pricing_plan_id":"free"},{"bike_id":"d11071a0-a5f4-43dd-86e6-14e04ddf71d0","system_id":"levelo_inurba_marseille","lat":43.284217,"lon":5.349697,"is_reserved":false,"is_disabled":false,"rental_uris":{"android":"levelo://app?vid=d11071a0-a5f4-43dd-86e6-14e04ddf71d0","ios":"levelo://app?vid=d11071a0-a5f4-43dd-86e6-14e04ddf71d0"},"vehicle_type_id":"4","last_reported":1687082768,"current_range_meters":26000,"station_id":"ce4bhbh2rcd13ifvqepg","pricing_plan_id":"free"},{"bike_id":"f0ae5137-316d-45c9-b622-e1d6b1bc03da","system_id":"levelo_inurba_marseille","lat":43.289363,"lon":5.396322,"is_reserved":false,"is_disabled":false,"rental_uris":{"android":"levelo://app?vid=f0ae5137-316d-45c9-b622-e1d6b1bc03da","ios":"levelo://app?vid=f0ae5137-316d-45c9-b622-e1d6b1bc03da"},"vehicle_type_id":"4","last_reported":1687082768,"current_range_meters":29600,"station_id":"ce4bh3h2rcd13ifvqdn0","pricing_plan_id":"free"},{"bike_id":"47546365-5568-4284-8afe-bb33e42d9962","system_id":"levelo_inurba_marseille","lat":43.289363,"lon":5.396322,"is_reserved":false,"is_disabled":false,"rental_uris":{"android":"levelo://app?vid=47546365-5568-4284-8afe-bb33e42d9962","ios":"levelo://app?vid=47546365-5568-4284-8afe-bb33e42d9962"},"vehicle_type_id":"4","last_reported":1687082768,"current_range_meters":27600,"station_id":"ce4bh3h2rcd13ifvqdn0","pricing_plan_id":"free"},{"bike_id":"55a03bb6-7949-42f9-91e0-e7f1a9505271","system_id":"levelo_inurba_marseille","lat":43.289363,"lon":5.396322,"is_reserved":false,"is_disabled":false,"rental_uris":{"android":"levelo://app?vid=55a03bb6-7949-42f9-91e0-e7f1a9505271","ios":"levelo://app?vid=55a03bb6-7949-42f9-91e0-e7f1a9505271"},"vehicle_type_id":"4","last_reported":1687082768,"current_range_meters":23600,"station_id":"ce4bh3h2rcd13ifvqdn0","pricing_plan_id":"free"},{"bike_id":"1e8c087e-b30d-4654-8319-20695873f33c","system_id":"levelo_inurba_marseille","lat":43.28276,"lon":5.35076,"is_reserved":false,"is_disabled":false,"rental_uris":{"android":"levelo://app?vid=1e8c087e-b30d-4654-8319-20695873f33c","ios":"levelo://app?vid=1e8c087e-b30d-4654-8319-20695873f33c"},"vehicle_type_id":"4","last_reported":1687082768,"current_range_meters":31200,"station_id":"ce4bhbp2rcd13ifvqerg","pricing_plan_id":"free"},{"bike_id":"0ad23a9e-a99f-4a3b-bce0-da9bab31c7a9","system_id":"levelo_inurba_marseille","lat":43.282744,"lon":5.350533,"is_reserved":false,"is_disabled":false,"rental_uris":{"android":"levelo://app?vid=0ad23a9e-a99f-4a3b-bce0-da9bab31c7a9","ios":"levelo://app?vid=0ad23a9e-a99f-4a3b-bce0-da9bab31c7a9"},"vehicle_type_id":"4","last_reported":1687082768,"current_range_meters":30800,"station_id":"ce4bhbp2rcd13ifvqerg","pricing_plan_id":"free"},{"bike_id":"c1c6d937-2ef1-44fb-81d3-7276532d839c","system_id":"levelo_inurba_marseille","lat":43.2827,"lon":5.35058,"is_reserved":false,"is_disabled":false,"rental_uris":{"android":"levelo://app?vid=c1c6d937-2ef1-44fb-81d3-7276532d839c","ios":"levelo://app?vid=c1c6d937-2ef1-44fb-81d3-7276532d839c"},"vehicle_type_id":"4","last_reported":1687082768,"current_range_meters":9600,"station_id":"ce4bhbp2rcd13ifvqerg","pricing_plan_id":"free"},