{"last_updated":1759003788,"ttl":60,"version":"2.2","data":{"bikes":[{"bike_id":"f2e54348-ecd4-4e50-bff9-997adfce6715","system_id":"levelo_inurba_marseille","lat":43.30323,"lon":5.40438,"is_reserved":false,"is_disabled":false,"rental_uris":{"android":"levelo://app?vid=f2e54348-ecd4-4e50-bff9-997adfce6715","ios":"levelo://app?vid=f2e54348-ecd4-4e50-bff9-997adfce6715"},"vehicle_type_id":"4","last_reported":1759003788,"current_range_meters":2800,"station_id":"ce4bh012rcd13ifvqd10","pricing_plan_id":"cebpf4jnsgd1na2vs0mg"},{"bike_id":"2e27bcf1-c82d-414e-947b-f517ce4070dc","system_id":"levelo_inurba_marseille","lat":43.25,"lon":5.38923,"is_reserved":false,"is_disabled":false,"rental_uris":{"android":"levelo://app?vid=2e27bcf1-c82d-414e-947b-f517ce4070dc","ios":"levelo://app?vid=2e27bcf1-c82d-414e-947b-f517ce4070dc"},"vehicle_type_id":"4","last_reported":1759003788,"current_range_meters":2800,"station_id":"ce4bhgp2rcd13ifvqfd0","pricing_plan_id":"cebpf4jnsgd1na2vs0mg"},{"bike_id":"98e3851a-385b-4d22-a5b2-866086846902","system_id":"levelo_inurba_marseille","lat":43.318988,"lon":5.374582,"is_reserved":false,"is_disabled":true,"rental_uris":{"android":"levelo://app?vid=98e3851a-385b-4d22-a5b2-866086846902","ios":"levelo://app?vid=98e3851a-385b-4d22-a5b2-866086846902"},"vehicle_type_id":"4","last_reported":1759003788,"current_range_meters":3200,"station_id":"","pricing_plan_id":"cebpf4jnsgd1na2vs0mg"},{"bike_id":"60222afa-c894-40a5-86b3-2a615b4c3ff3","system_id":"levelo_inurba_marseille","lat":43.31997,"lon":5.3815,"is_reserved":false,"is_disabled":false,"rental_uris":{"android":"levelo://app?vid=60222afa-c894-40a5-86b3-2a615b4c3ff3","ios":"levelo://app?vid=60222afa-c894-40a5-86b3-2a615b4c3ff3"},"vehicle_type_id":"4","last_reported":1759003788,"current_range_meters":3600,"station_id":"ce4bhr12rcd13ifvqhpg","pricing_plan_id":"cebpf4jnsgd1na2vs0mg"},{"bike_id":"1e1e08b1-975d-4a51-b1de-87e018331c36","system_id":"levelo_inurba_marseille","lat":43.30235,"lon":5.36747,"is_reserved":false,"is_disabled":false,"rental_uris":{"android":"levelo://app?vid=1e1e08b1-975d-4a51-b1de-87e018331c36","ios":"levelo://app?vid=1e1e08b1-975d-4a51-b1de-87e018331c36"},"vehicle_type_id":"4","last_reported":1759003788,"current_range_meters":3600,"station_id":"","pricing_plan_id":"cebpf4jnsgd1na2vs0mg"},{"bike_id":"a86c15f2-04d4-4716-bd8b-40ab8ae7808e","system_id":"levelo_inurba_marseille","lat":43.24543,"lon":5.39523,"is_reserved":false,"is_disabled":false,"rental_uris":{"android":"levelo://app?vid=a86c15f2-04d4-4716-bd8b-40ab8ae7808e","ios":"levelo://app?vid=a86c15f2-04d4-4716-bd8b-40ab8ae7808e"},"vehicle_type_id":"4","last_reported":1759003788,"current_range_meters":3600,"station_id":"ce4bhlp2rcd13ifvqgjg","pricing_plan_id":"cebpf4jnsgd1na2vs0mg"},{"bike_id":"9a819dc8-447d-4df7-8b5f-0b18332a26a7","system_id":"levelo_inurba_marseille","lat":43.32973,"lon":5.37481,"is_reserved":false,"is_disabled":false,"rental_uris":{"android":"levelo://app?vid=9a819dc8-447d-4df7-8b5f-0b18332a26a7","ios":"levelo://app?vid=9a819dc8-447d-4df7-8b5f-0b18332a26a7"},"vehicle_type_id":"4","last_reported":1759003788,"current_range_meters":3600,"station_id":"","pricing_plan_id":"cebpf4jnsgd1na2vs0mg"},{"bike_id":"531b94db-068c-462d-9f47-dbec4c3c6be3","system_id":"levelo_inurba_marseille","lat":43.28401,"lon":5.37524,"is_reserved":false,"is_disabled":false,"rental_uris":{"android":"levelo://app?vid=531b94db-068c-462d-9f47-dbec4c3c6be3","ios":"levelo://app?vid=531b94db-068c-462d-9f47-dbec4c3c6be3"},"vehicle_type_id":"4","last_reported":1759003788,"current_range_meters":4000,"station_id":"ce4bh412rcd13ifvqds0","pricing_plan_id":"cebpf4jnsgd1na2vs0mg"},{"bike_id":"64275378-f11a-4ff4-ad54-087b91bd011e","system_id":"levelo_inurba_marseille","lat":43.292672,"lon":5.384369,"is_reserved":false,"is_disabled":false,"rental_uris":{"android":"levelo://app?vid=64275378-f11a-4ff4-ad54-087b91bd011e","ios":"levelo://app?vid=64275378-f11a-4ff4-ad54-087b91bd011e"},"vehicle_type_id":"4","last_reported":1759003788,"current_range_meters":4000,"station_id":"ce4bh692rcd13ifvqea0","pricing_plan_id":"cebpf4jnsgd1na2vs0mg"},{"bike_id":"c7f83674-6b1c-4148-9942-20e7cc1889fc","system_id":"levelo_inurba_marseille","lat":43.24073,"lon":5.37763,"is_reserved":false,"is_disabled":false,"rental_uris":{"android":"levelo://app?vid=c7f83674-6b1c-4148-9942-20e7cc1889fc","ios":"levelo://app?vid=c7f83674-6b1c-4148-9942-20e7cc1889fc"},"vehicle_type_id":"4","last_reported":1759003788,"current_range_meters":0,"station_id":"ce4bhnp2rcd13ifvqgvg","pricing_plan_id":"cebpf4jnsgd1na2vs0mg"},{"bike_id":"23a79311-09c6-4058-b8c8-b1e6e9cb6d0b","system_id":"levelo_inurba_marseille","lat":43.29216,"lon":5.39135,"is_reserved":false,"is_disabled":false,"rental_uris":{"android":"levelo://app?vid=23a79311-09c6-4058-b8c8-b1e6e9cb6d0b","ios":"levelo://app?vid=23a79311-09c6-4058-b8c8-b1e6e9cb6d0b"},"vehicle_type_id":"4","last_reported":1759003788,"current_range_meters":4400,"station_id":"","pricing_plan_id":"cebpf4jnsgd1na2vs0mg"},{"bike_id":"0f4d684a-a2fb-43cf-8b5c-561a1940c329","system_id":"levelo_inurba_marseille","lat":43.299669,"lon":5.384926,"is_reserved":false,"is_disabled":false,"rental_uris":{"android":"levelo://app?vid=0f4d684a-a2fb-43cf-8b5c-561a1940c329","ios":"levelo://app?vid=0f4d684a-a2fb-43cf-8b5c-561a1940c329"},"vehicle_type_id":"4","last_reported":1759003788,"current_range_meters":4400,"station_id":"ce4bgj92rcd13ifvqbd0","pricing_plan_id":"cebpf4jnsgd1na2vs0mg"},{"bike_id":"c7f6a08b-c655-4213-b2ba-7d02e7f382fe","system_id":"levelo_inurba_marseille","lat":43.27988,"lon":5.39483,"is_reserved":false,"is_disabled":false,"rental_uris":{"android":"levelo://app?vid=c7f6a08b-c655-4213-b2ba-7d02e7f382fe","ios":"levelo://app?vid=c7f6a08b-c655-4213-b2ba-7d02e7f382fe"},"vehicle_type_id":"4","last_reported":1759003788,"current_range_meters":4400,"station_id":"","pricing_plan_id":"cebpf4jnsgd1na2vs0mg"},{"bike_id":"85a96c70-9fc6-4698-bb7a-8aae96de7260","system_id":"levelo_inurba_marseille","lat":43.31285,"lon":5.38712,"is_reserved":false,"is_disabled":false,"rental_uris":{"android":"levelo://app?vid=85a96c70-9fc6-4698-bb7a-8aae96de7260","ios":"levelo://app?vid=85a96c70-9fc6-4698-bb7a-8aae96de7260"},"vehicle_type_id":"4","last_reported":1759003788,"current_range_meters":4800,"station_id":"","pricing_plan_id":"cebpf4jnsgd1na2vs0mg"},{"bike_id":"b87aaf9f-2f85-4c54-ac4e-10f353b9f817","system_id":"levelo_inurba_marseille","lat":43.257195,"lon":5.411115,"is_reserved":false,"is_disabled":false,"rental_uris":{"android":"levelo://app?vid=b87aaf9f-2f85-4c54-ac4e-10f353b9f817","ios":"levelo://app?vid=b87aaf9f-2f85-4c54-ac4e-10f353b9f817"},"vehicle_type_id":"4","last_reported":1759003788,"current_range_meters":4400,"station_id":"ce4bhkp2rcd13ifvqgd0","pricing_plan_id":"cebpf4jnsgd1na2vs0mg"},{"bike_id":"8432706a-ee42-437b-bf2d-2419c44ce02a","system_id":"levelo_inurba_marseille","lat":43.27791,"lon":5.38817,"is_reserved":false,"is_disabled":false,"rental_uris":{"android":"levelo://app?vid=8432706a-ee42-437b-bf2d-2419c44ce02a","ios":"levelo://app?vid=8432706a-ee42-437b-bf2d-2419c44ce02a"},"vehicle_type_id":"4","last_reported":1759003788,"current_range_meters":4800,"station_id":"","pricing_plan_id":"cebpf4jnsgd1na2vs0mg"},{"bike_id":"3ff019b4-f200-434f-bdbd-2de527b20d7e","system_id":"levelo_inurba_marseille","lat":43.21161,"lon":5.35099,"is_reserved":false,"is_disabled":false,"rental_uris":{"android":"levelo://app?vid=3ff019b4-f200-434f-bdbd-2de527b20d7e","ios":"levelo://app?vid=3ff019b4-f200-434f-bdbd-2de527b20d7e"},"vehicle_type_id":"4","last_reported":1759003788,"current_range_meters":4800,"station_id":"st_cvj6sg6p6f1abm77japg","pricing_plan_id":"cebpf4jnsgd1na2vs0mg"},{"bike_id":"041cd397-24ab-4e04-af23-07b961e161f4","system_id":"levelo_inurba_marseille","lat":43.337444,"lon":5.374475,"is_reserved":false,"is_disabled":false,"rental_uris":{"android":"levelo://app?vid=041cd397-24ab-4e04-af23-07b961e161f4","ios":"levelo://app?vid=041cd397-24ab-4e04-af23-07b961e161f4"},"vehicle_type_id":"4","last_reported":1759003788,"current_range_meters":4800,"station_id":"","pricing_plan_id":"cebpf4jnsgd1na2vs0mg"},{"bike_id":"a462cce2-9104-46a9-a432-ba7c3c35eb6a","system_id":"levelo_inurba_marseille","lat":43.27053,"lon":5.40249,"is_reserved":false,"is_disabled":true,"rental_uris":{"android":"levelo://app?vid=a462cce2-9104-46a9-a432-ba7c3c35eb6a","ios":"levelo://app?vid=a462cce2-9104-46a9-a432-ba7c3c35eb6a"},"vehicle_type_id":"4","last_reported":1759003788,"current_range_meters":4800,"station_id":"ce4bhk92rcd13ifvqgc0","pricing_plan_id":"cebpf4jnsgd1na2vs0mg"},{"bike_id":"9b2a4166-4bf6-4740-b018-82f7f5312a3d","system_id":"levelo_inurba_marseille","lat":43.269461,"lon":5.402505,"is_reserved":false,"is_disabled":true,"rental_uris":{"android":"levelo://app?vid=9b2a4166-4bf6-4740-b018-82f7f5312a3d","ios":"levelo://app?vid=9b2a4166-4bf6-4740-b018-82f7f5312a3d"},"vehicle_type_id":"4","last_reported":1759003788,"current_range_meters":5600,"station_id":"cjm6bp8fraef2m0cb0m0","pricing_plan_id":"cebpf4jnsgd1na2vs0mg"},{"bike_id":"69a56246-2281-4457-91e8-8fe23a573bf1","system_id":"levelo_inurba_marseille","lat":43.21756,"lon":5.34609,"is_reserved":false,"is_disabled":true,"rental_uris":{"android":"levelo://app?vid=69a56246-2281-4457-91e8-8fe23a573bf1","ios":"levelo://app?vid=69a56246-2281-4457-91e8-8fe23a573bf1"},"vehicle_type_id":"4","last_reported":1759003788,"current_range_meters":5600,"station_id":"","pricing_plan_id":"cebpf4jnsgd1na2vs0mg"},{"bike_id":"39dbee17-cde2-419d-87ad-27f0ca6c78b5","system_id":"levelo_inurba_marseille","lat":43.29249,"lon":5.37634,"is_reserved":false,"is_disabled":false,"rental_uris":{"android":"levelo://app?vid=39dbee17-cde2-419d-87ad-27f0ca6c78b5","ios":"levelo://app?vid=39dbee17-cde2-419d-87ad-27f0ca6c78b5"},"vehicle_type_id":"4","last_reported":1759003788,"current_range_meters":5600,"station_id":"ce4bgi12rcd13ifvqb80","pricing_plan_id":"cebpf4jnsgd1na2vs0mg"},{"bike_id":"03b6c3d2-5215-4c7b-8c7e-f6f6856a00f5","system_id":"levelo_inurba_marseille","lat":43.2827,"lon":5.35057,"is_reserved":false,"is_disabled":false,"rental_uris":{"android":"levelo://app?vid=03b6c3d2-5215-4c7b-8c7e-f6f6856a00f5","ios":"levelo://app?vid=03b6c3d2-5215-4c7b-8c7e-f6f6856a00f5"},"vehicle_type_id":"4","last_reported":1759003788,"current_range_meters":4800,"station_id":"ce4bhbp2rcd13ifvqerg","pricing_plan_id":"cebpf4jnsgd1na2vs0mg"},{"bike_id":"a99a61fc-b84b-485b-8512-3e85c8c6dd03","system_id":"levelo_inurba_marseille","lat":43.28494,"lon":5.38562,"is_reserved":false,"is_disabled":false,"rental_uris":{"android":"levelo://app?vid=a99a61fc-b84b-485b-8512-3e85c8c6dd03","ios":"levelo://app?vid=a99a61fc-b84b-485b-8512-3e85c8c6dd03"},"vehicle_type_id":"4","last_reported":1759003788,"current_range_meters":4800,"station_id":"ce4bh8p2rcd13ifvqeb0","pricing_plan_id":"cebpf4jnsgd1na2vs0mg"},{"bike_id":"1f68979b-3cc1-4faa-913e-ab55548e829d","system_id":"levelo_inurba_marseille","lat":43.28214,"lon":5.39043,"is_reserved":false,"is_disabled":false,"rental_uris":{"android":"levelo://app?vid=1f68979b-3cc1-4faa-913e-ab55548e829d","ios":"levelo://app?vid=1f68979b-3cc1-4faa-913e-ab55548e829d"},"vehicle_type_id":"4","last_reported":1759003788,"current_range_meters":6000,"station_id":"ce4bhn92rcd13ifvqgsg","pricing_plan_id":"cebpf4jnsgd1na2vs0mg"},{"bike_id":"3d689bbb-3aad-403d-80a5-3a184aff6886","system_id":"levelo_inurba_marseille","lat":43.30552,"lon":5.36554,"is_reserved":false,"is_disabled":true,"rental_uris":{"android":"levelo://app?vid=3d689bbb-3aad-403d-80a5-3a184aff6886","ios":"levelo://app?vid=3d689bbb-3aad-403d-80a5-3a184aff6886"},"vehicle_type_id":"4","last_reported":1759003788,"current_range_meters":6000,"station_id":"ce4bgs12rcd13ifvqcag","pricing_plan_id":"cebpf4jnsgd1na2vs0mg"},{"bike_id":"174dfb4f-f618-4c2f-be1c-ae0d6b405e94","system_id":"levelo_inurba_marseille","lat":43.29712,"lon":5.38263,"is_reserved":false,"is_disabled":false,"rental_uris":{"android":"levelo://app?vid=174dfb4f-f618-4c2f-be1c-ae0d6b405e94","ios":"levelo://app?vid=174dfb4f-f618-4c2f-be1c-ae0d6b405e94"},"vehicle_type_id":"4","last_reported":1759003788,"current_range_meters":6000,"station_id":"","pricing_plan_id":"cebpf4jnsgd1na2vs0mg"},{"bike_id":"4ea066be-d5c0-4685-b39a-612a810bdfbb","system_id":"levelo_inurba_marseille","lat":43.3377,"lon":5.37473,"is_reserved":false,"is_disabled":true,"rental_uris":{"android":"levelo://app?vid=4ea066be-d5c0-4685-b39a-612a810bdfbb","ios":"levelo://app?vid=4ea066be-d5c0-4685-b39a-612a810bdfbb"},"vehicle_type_id":"4","last_reported":1759003788,"current_range_meters":6400,"station_id":"","pricing_plan_id":"cebpf4jnsgd1na2vs0mg"},{"bike_id":"c2207658-b923-4a8f-a2fa-281c17511191","system_id":"levelo_inurba_marseille","lat":43.32491,"lon":5.36576,"is_reserved":false,"is_disabled":false,"rental_uris":{"android":"levelo://app?vid=c2207658-b923-4a8f-a2fa-281c17511191","ios":"levelo://app?vid=c2207658-b923-4a8f-a2fa-281c17511191"},"vehicle_type_id":"4","last_reported":1759003788,"current_range_meters":6400,"station_id":"ce4bhs12rcd13ifvqhvg","pricing_plan_id":"cebpf4jnsgd1na2vs0mg"},{"bike_id":"5365e873-98ea-45e2-9689-7e119051f22e","system_id":"levelo_inurba_marseille","lat":43.33007,"lon":5.39041,"is_reserved":false,"is_disabled":false,"rental_uris":{"android":"levelo://app?vid=5365e873-98ea-45e2-9689-7e119051f22e","ios":"levelo://app?vid=5365e873-98ea-45e2-9689-7e119051f22e"},"vehicle_type_id":"4","last_reported":1759003788,"current_range_meters":6800,"station_id":"ce4bhr92rcd13ifvqhrg","pricing_plan_id":"cebpf4jnsgd1na2vs0mg"},{"bike_id":"f9861931-4f5c-4ff6-beef-b7588bc0a589","system_id":"levelo_inurba_marseille","lat":43.29568,"lon":5.39966,"is_reserved":false,"is_disabled":false,"rental_uris":{"android":"levelo://app?vid=f9861931-4f5c-4ff6-beef-b7588bc0a589","ios":"levelo://app?vid=f9861931-4f5c-4ff6-beef-b7588bc0a589"},"vehicle_type_id":"4","last_reported":1759003788,"current_range_meters":6400,"station_id":"ce4bh312rcd13ifvqdj0","pricing_plan_id":"cebpf4jnsgd1na2vs0mg"},{"bike_id":"af5b7fdf-6b71-4411-b11f-406ea44ecb80","system_id":"levelo_inurba_marseille","lat":43.21766,"lon":5.34606,"is_reserved":false,"is_disabled":true,"rental_uris":{"android":"levelo://app?vid=af5b7fdf-6b71-4411-b11f-406ea44ecb80","ios":"levelo://app?vid=af5b7fdf-6b71-4411-b11f-406ea44ecb80"},"vehicle_type_id":"4","last_reported":1759003788,"current_range_meters":6800,"station_id":"st_cvj6r9ubvosntc0bgbag","pricing_plan_id":"cebpf4jnsgd1na2vs0mg"},{"bike_id":"cf3c8943-81e0-4a78-b4b5-d59fd69538cc","system_id":"levelo_inurba_marseille","lat":43.29793,"lon":5.37116,"is_reserved":false,"is_disabled":false,"rental_uris":{"android":"levelo://app?vid=cf3c8943-81e0-4a78-b4b5-d59fd69538cc","ios":"levelo://app?vid=cf3c8943-81e0-4a78-b4b5-d59fd69538cc"},"vehicle_type_id":"4","last_reported":1759003788,"current_range_meters":7200,"station_id":"ce4bgop2rcd13ifvqc1g","pricing_plan_id":"cebpf4jnsgd1na2vs0mg"},{"bike_id":"1f80a203-1f2f-4e93-9b32-41b762b744af","system_id":"levelo_inurba_marseille","lat":43.28928,"lon":5.38387,"is_reserved":false,"is_disabled":false,"rental_uris":{"android":"levelo://app?vid=1f80a203-1f2f-4e93-9b32-41b762b744af","ios":"levelo://app?vid=1f80a203-1f2f-4e93-9b32-41b762b744af"},"vehicle_type_id":"4","last_reported":1759003788,"current_range_meters":7200,"station_id":"ce4bh612rcd13ifvqe6g","pricing_plan_id":"cebpf4jnsgd1na2vs0mg"},{"bike_id":"4118f6db-0b0e-46a1-b8bb-a7887ede9cb3","system_id":"levelo_inurba_marseille","lat":43.281053,"lon":5.378415,"is_reserved":false,"is_disabled":false,"rental_uris":{"android":"levelo://app?vid=4118f6db-0b0e-46a1-b8bb-a7887ede9cb3","ios":"levelo://app?vid=4118f6db-0b0e-46a1-b8bb-a7887ede9cb3"},"vehicle_type_id":"4","last_reported":1759003788,"current_range_meters":7200,"station_id":"ce4bha12rcd13ifvqee0","pricing_plan_id":"cebpf4jnsgd1na2vs0mg"},{"bike_id":"a639c491-c436-478a-8d5d-bd2c30b918ff","system_id":"levelo_inurba_marseille","lat":43.29752,"lon":5.37222,"is_reserved":false,"is_disabled":false,"rental_uris":{"android":"levelo://app?vid=a639c491-c436-478a-8d5d-bd2c30b918ff","ios":"levelo://app?vid=a639c491-c436-478a-8d5d-bd2c30b918ff"},"vehicle_type_id":"4","last_reported":1759003788,"current_range_meters":7200,"station_id":"","pricing_plan_id":"cebpf4jnsgd1na2vs0mg"},{"bike_id":"40941a8c-7885-4321-a728-5be6396b87e8","system_id":"levelo_inurba_marseille","lat":43.33622,"lon":5.41049,"is_reserved":false,"is_disabled":false,"rental_uris":{"android":"levelo://app?vid=40941a8c-7885-4321-a728-5be6396b87e8","ios":"levelo://app?vid=40941a8c-7885-4321-a728-5be6396b87e8"},"vehicle_type_id":"4","last_reported":1759003788,"current_range_meters":8000,"station_id":"ce4bhqh2rcd13ifvqhmg","pricing_plan_id":"cebpf4jnsgd1na2vs0mg"},{"bike_id":"cd5332c8-b7a4-42d8-bbee-d21346d785c0","system_id":"levelo_inurba_marseille","lat":43.32472,"lon":5.3657,"is_reserved":false,"is_disabled":false,"rental_uris":{"android":"levelo://app?vid=cd5332c8-b7a4-42d8-bbee-d21346d785c0","ios":"levelo://app?vid=cd5332c8-b7a4-42d8-bbee-d21346d785c0"},"vehicle_type_id":"4","last_reported":1759003788,"current_range_meters":8000,"station_id":"ce4bhs12rcd13ifvqhvg","pricing_plan_id":"cebpf4jnsgd1na2vs0mg"},{"bike_id":"4b79e23f-8010-431b-83a1-b5a760b533de","system_id":"levelo_inurba_marseille","lat":43.28076,"lon":5.39659,"is_reserved":false,"is_disabled":false,"rental_uris":{"android":"levelo://app?vid=4b79e23f-8010-431b-83a1-b5a760b533de","ios":"levelo://app?vid=4b79e23f-8010-431b-83a1-b5a760b533de"},"vehicle_type_id":"4","last_reported":1759003788,"current_range_meters":8000,"station_id":"ce4bho12rcd13ifvqh2g","pricing_plan_id":"cebpf4jnsgd1na2vs0mg"},{"bike_id":"2907de3a-cdb7-4c49-945b-9d4546080cdd","system_id":"levelo_inurba_marseille","lat":43.294791,"lon":5.362423,"is_reserved":false,"is_disabled":false,"rental_uris":{"android":"levelo://app?vid=2907de3a-cdb7-4c49-945b-9d4546080cdd","ios":"levelo://app?vid=2907de3a-cdb7-4c49-945b-9d4546080cdd"},"vehicle_type_id":"4","last_reported":1759003788,"current_range_meters":8000,"station_id":"","pricing_plan_id":"cebpf4jnsgd1na2vs0mg"},{"bike_id":"08fe2b08-b3fa-43f8-ae73-04061f76318d","system_id":"levelo_inurba_marseille","lat":43.305552,"lon":5.365395,"is_reserved":false,"is_disabled":false,"rental_uris":{"android":"levelo://app?vid=08fe2b08-b3fa-43f8-ae73-04061f76318d","ios":"levelo://app?vid=08fe2b08-b3fa-43f8-ae73-04061f76318d"},"vehicle_type_id":"4","last_reported":1759003788,"current_range_meters":8000,"station_id":"","pricing_plan_id":"cebpf4jnsgd1na2vs0mg"},{"bike_id":"d10c6a52-4aeb-472a-9a71-39b0d5b791b8","system_id":"levelo_inurba_marseille","lat":43.26934,"lon":5.38921,"is_reserved":false,"is_disabled":false,"rental_uris":{"android":"levelo://app?vid=d10c6a52-4aeb-472a-9a71-39b0d5b791b8","ios":"levelo://app?vid=d10c6a52-4aeb-472a-9a71-39b0d5b791b8"},"vehicle_type_id":"4","last_reported":1759003788,"current_range_meters":7200,"station_id":"ce4bhhh2rcd13ifvqfl0","pricing_plan_id":"cebpf4jnsgd1na2vs0mg"},{"bike_id":"907ed216-30a4-406f-ae2e-0197aba3ed23","system_id":"levelo_inurba_marseille","lat":43.21192,"lon":5.35066,"is_reserved":false,"is_disabled":false,"rental_uris":{"android":"levelo://app?vid=907ed216-30a4-406f-ae2e-0197aba3ed23","ios":"levelo://app?vid=907ed216-30a4-406f-ae2e-0197aba3ed23"},"vehicle_type_id":"4","last_reported":1759003788,"current_range_meters":8000,"station_id":"st_cvj6sg6p6f1abm77japg","pricing_plan_id":"cebpf4jnsgd1na2vs0mg"},{"bike_id":"088411c8-fece-4b67-82d8-3381d74fddac","system_id":"levelo_inurba_marseille","lat":43.29851,"lon":5.36288,"is_reserved":false,"is_disabled":false,"rental_uris":{"android":"levelo://app?vid=088411c8-fece-4b67-82d8-3381d74fddac","ios":"levelo://app?vid=088411c8-fece-4b67-82d8-3381d74fddac"},"vehicle_type_id":"4","last_reported":1759003788,"current_range_meters":8000,"station_id":"ce4bgpp2rcd13ifvqc3g","pricing_plan_id":"cebpf4jnsgd1na2vs0mg"},{"bike_id":"6da3b581-015a-4cfb-9997-032be796abac","system_id":"levelo_inurba_marseille","lat":43.3266,"lon":5.41002,"is_reserved":false,"is_disabled":false,"rental_uris":{"android":"levelo://app?vid=6da3b581-015a-4cfb-9997-032be796abac","ios":"levelo://app?vid=6da3b581-015a-4cfb-9997-032be796abac"},"vehicle_type_id":"4","last_reported":1759003788,"current_range_meters":8400,"station_id":"ce4bhpp2rcd13ifvqhgg","pricing_plan_id":"cebpf4jnsgd1na2vs0mg"},{"bike_id":"efb70af7-3910-489d-83f9-425320e24d88","system_id":"levelo_inurba_marseille","lat":43.282272,"lon":5.390654,"is_reserved":false,"is_disabled":false,"rental_uris":{"android":"levelo://app?vid=efb70af7-3910-489d-83f9-425320e24d88","ios":"levelo://app?vid=efb70af7-3910-489d-83f9-425320e24d88"},"vehicle_type_id":"4","last_reported":1759003788,"current_range_meters":8400,"station_id":"ce4bhn92rcd13ifvqgsg","pricing_plan_id":"cebpf4jnsgd1na2vs0mg"},{"bike_id":"443f7dc3-4c35-4975-a8f4-b6a0ee79874b","system_id":"levelo_inurba_marseille","lat":43.29239,"lon":5.37226,"is_reserved":false,"is_disabled":false,"rental_uris":{"android":"levelo://app?vid=443f7dc3-4c35-4975-a8f4-b6a0ee79874b","ios":"levelo://app?vid=443f7dc3-4c35-4975-a8f4-b6a0ee79874b"},"vehicle_type_id":"4","last_reported":1759003788,"current_range_meters":8400,"station_id":"","pricing_plan_id":"cebpf4jnsgd1na2vs0mg"},{"bike_id":"04320cfb-3a9b-402f-892f-d28b0239b4d6","system_id":"levelo_inurba_marseille","lat":43.29884,"lon":5.38136,"is_reserved":false,"is_disabled":false,"rental_uris":{"android":"levelo://app?vid=04320cfb-3a9b-402f-892f-d28b0239b4d6","ios":"levelo://app?vid=04320cfb-3a9b-402f-892f-d28b0239b4d6"},"vehicle_type_id":"4","last_reported":1759003788,"current_range_meters":8400,"station_id":"ce4bgj12rcd13ifvqbc0","pricing_plan_id":"cebpf4jnsgd1na2vs0mg"},{"bike_id":"c3fe7d43-61d7-483c-9ade-516d24794cef","system_id":"levelo_inurba_marseille","lat":43.298906,"lon":5.39774,"is_reserved":false,"is_disabled":false,"rental_uris":{"android":"levelo://app?vid=c3fe7d43-61d7-483c-9ade-516d24794cef","ios":"levelo://app?vid=c3fe7d43-61d7-483c-9ade-516d24794cef"},"vehicle_type_id":"4","last_reported":1759003788,"current_range_meters":8800,"station_id":"ce4bh0h2rcd13ifvqd50","pricing_plan_id":"cebpf4jnsgd1na2vs0mg"},{"bike_id":"c467d40b-9cc5-474c-a404-f57ffc7dbb71","system_id":"levelo_inurba_marseille","lat":43.28154,"lon":5.42639,"is_reserved":false,"is_disabled":false,"rental_uris":{"android":"levelo://app?vid=c467d40b-9cc5-474c-a404-f57ffc7dbb71","ios":"levelo://app?vid=c467d40b-9cc5-474c-a404-f57ffc7dbb71"},"vehicle_type_id":"4","last_reported":1759003788,"current_range_meters":8800,"station_id":"ce4bhnh2rcd13ifvqgug","pricing_plan_id":"cebpf4jnsgd1na2vs0mg"},{"bike_id":"33b02ffc-c451-49a5-a3ac-c9c2a705b18d","system_id":"levelo_inurba_marseille","lat":43.28701,"lon":5.399817,"is_reserved":false,"is_disabled":false,"rental_uris":{"android":"levelo://app?vid=33b02ffc-c451-49a5-a3ac-c9c2a705b18d","ios":"levelo://app?vid=33b02ffc-c451-49a5-a3ac-c9c2a705b18d"},"vehicle_type_id":"4","last_reported":1759003788,"current_range_meters":8800,"station_id":"ce4bho92rcd13ifvqh3g","pricing_plan_id":"cebpf4jnsgd1na2vs0mg"},{"bike_id":"a49b93fb-6bcd-4a4b-b5b6-7164863732c4","system_id":"levelo_inurba_marseille","lat":43.311127,"lon":5.377746,"is_reserved":false,"is_disabled":false,"rental_uris":{"android":"levelo://app?vid=a49b93fb-6bcd-4a4b-b5b6-7164863732c4","ios":"levelo://app?vid=a49b93fb-6bcd-4a4b-b5b6-7164863732c4"},"vehicle_type_id":"4","last_reported":1759003788,"current_range_meters":8800,"station_id":"ce4bgt92rcd13ifvqcg0","pricing_plan_id":"cebpf4jnsgd1na2vs0mg"},{"bike_id":"2623d790-c5dc-4d65-8c98-f0cd17ecc707","system_id":"levelo_inurba_marseille","lat":43.25111,"lon":5.40326,"is_reserved":false,"is_disabled":false,"rental_uris":{"android":"levelo://app?vid=2623d790-c5dc-4d65-8c98-f0cd17ecc707","ios":"levelo://app?vid=2623d790-c5dc-4d65-8c98-f0cd17ecc707"},"vehicle_type_id":"4","last_reported":1759003788,"current_range_meters":8400,"station_id":"ce4bhlh2rcd13ifvqgig","pricing_plan_id":"cebpf4jnsgd1na2vs0mg"},{"bike_id":"db256f78-e25c-4b53-a598-0ac7b589dbeb","system_id":"levelo_inurba_marseille","lat":43.24184,"lon":5.39725,"is_reserved":false,"is_disabled":false,"rental_uris":{"android":"levelo://app?vid=db256f78-e25c-4b53-a598-0ac7b589dbeb","ios":"levelo://app?vid=db256f78-e25c-4b53-a598-0ac7b589dbeb"},"vehicle_type_id":"4","last_reported":1759003788,"current_range_meters":8800,"station_id":"ce4bhn12rcd13ifvqgpg","pricing_plan_id":"cebpf4jnsgd1na2vs0mg"},{"bike_id":"8e385f69-4a89-4bf0-86a4-c68fbcf7e1cb","system_id":"levelo_inurba_marseille","lat":43.225324,"lon":5.348325,"is_reserved":false,"is_disabled":false,"rental_uris":{"android":"levelo://app?vid=8e385f69-4a89-4bf0-86a4-c68fbcf7e1cb","ios":"levelo://app?vid=8e385f69-4a89-4bf0-86a4-c68fbcf7e1cb"},"vehicle_type_id":"4","last_reported":1759003788,"current_range_meters":8800,"station_id":"","pricing_plan_id":"cebpf4jnsgd1na2vs0mg"},{"bike_id":"fee74e98-eb52-4f66-a612-109c75f34aa6","system_id":"levelo_inurba_marseille","lat":43.296216,"lon":5.379492,"is_reserved":false,"is_disabled":false,"rental_uris":{"android":"levelo://app?vid=fee74e98-eb52-4f66-a612-109c75f34aa6","ios":"levelo://app?vid=fee74e98-eb52-4f66-a612-109c75f34aa6"},"vehicle_type_id":"4","last_reported":1759003788,"current_range_meters":8800,"station_id":"","pricing_plan_id":"cebpf4jnsgd1na2vs0mg"},{"bike_id":"712dddc4-ae95-4aaf-b4c6-16c01a2ce26f","system_id":"levelo_inurba_marseille","lat":43.30049,"lon":5.3807,"is_reserved":false,"is_disabled":false,"rental_uris":{"android":"levelo://app?vid=712dddc4-ae95-4aaf-b4c6-16c01a2ce26f","ios":"levelo://app?vid=712dddc4-ae95-4aaf-b4c6-16c01a2ce26f"},"vehicle_type_id":"4","last_reported":1759003788,"current_range_meters":8800,"station_id":"","pricing_plan_id":"cebpf4jnsgd1na2vs0mg"},{"bike_id":"fd4b5ad5-2581-44dd-90b2-f4a8fbdc2423","system_id":"levelo_inurba_marseille","lat":43.29613,"lon":5.38089,"is_reserved":false,"is_disabled":false,"rental_uris":{"android":"levelo://app?vid=fd4b5ad5-2581-44dd-90b2-f4a8fbdc2423","ios":"levelo://app?vid=fd4b5ad5-2581-44dd-90b2-f4a8fbdc2423"},"vehicle_type_id":"4","last_reported":1759003788,"current_range_meters":9200,"station_id":"ce4bgl12rcd13ifvqbo0","pricing_plan_id":"cebpf4jnsgd1na2vs0mg"},{"bike_id":"9743fd3d-b83a-49fe-b055-16ed840cdbf1","system_id":"levelo_inurba_marseille","lat":43.299411,"lon":5.385201,"is_reserved":false,"is_disabled":true,"rental_uris":{"android":"levelo://app?vid=9743fd3d-b83a-49fe-b055-16ed840cdbf1","ios":"levelo://app?vid=9743fd3d-b83a-49fe-b055-16ed840cdbf1"},"vehicle_type_id":"4","last_reported":1759003788,"current_range_meters":9200,"station_id":"","pricing_plan_id":"cebpf4jnsgd1na2vs0mg"},{"bike_id":"ee96a502-9b76-492e-840a-498b02aefe72","system_id":"levelo_inurba_marseille","lat":43.32359,"lon":5.39226,"is_reserved":false,"is_disabled":false,"rental_uris":{"android":"levelo://app?vid=ee96a502-9b76-492e-840a-498b02aefe72","ios":"levelo://app?vid=ee96a502-9b76-492e-840a-498b02aefe72"},"vehicle_type_id":"4","last_reported":1759003788,"current_range_meters":9200,"station_id":"","pricing_plan_id":"cebpf4jnsgd1na2vs0mg"},{"bike_id":"cc13a8eb-8bee-4025-b232-b9dcc7ea7f86","system_id":"levelo_inurba_marseille","lat":43.30592,"lon":5.36571,"is_reserved":false,"is_disabled":false,"rental_uris":{"android":"levelo://app?vid=cc13a8eb-8bee-4025-b232-b9dcc7ea7f86","ios":"levelo://app?vid=cc13a8eb-8bee-4025-b232-b9dcc7ea7f86"},"vehicle_type_id":"4","last_reported":1759003788,"current_range_meters":9200,"station_id":"ce4bgs12rcd13ifvqcag","pricing_plan_id":"cebpf4jnsgd1na2vs0mg"},{"bike_id":"81eb4ca5-8c84-4899-9c13-f43a5e9f7572","system_id":"levelo_inurba_marseille","lat":43.29866,"lon":5.36266,"is_reserved":false,"is_disabled":false,"rental_uris":{"android":"levelo://app?vid=81eb4ca5-8c84-4899-9c13-f43a5e9f7572","ios":"levelo://app?vid=81eb4ca5-8c84-4899-9c13-f43a5e9f7572"},"vehicle_type_id":"4","last_reported":1759003788,"current_range_meters":9200,"station_id":"ce4bgpp2rcd13ifvqc3g","pricing_plan_id":"cebpf4jnsgd1na2vs0mg"},{"bike_id":"b5e3d95c-d6ab-47a1-a565-d021b45ce728","system_id":"levelo_inurba_marseille","lat":43.2174,"lon":5.34611,"is_reserved":false,"is_disabled":true,"rental_uris":{"android":"levelo://app?vid=b5e3d95c-d6ab-47a1-a565-d021b45ce728","ios":"levelo://app?vid=b5e3d95c-d6ab-47a1-a565-d021b45ce728"},"vehicle_type_id":"4","last_reported":1759003788,"current_range_meters":9600,"station_id":"st_cvj6r9ubvosntc0bgbag","pricing_plan_id":"cebpf4jnsgd1na2vs0mg"},{"bike_id":"fbef676b-8f42-450e-b448-da45ad596c28","system_id":"levelo_inurba_marseille","lat":43.283802,"lon":5.363206,"is_reserved":false,"is_disabled":false,"rental_uris":{"android":"levelo://app?vid=fbef676b-8f42-450e-b448-da45ad596c28","ios":"levelo://app?vid=fbef676b-8f42-450e-b448-da45ad596c28"},"vehicle_type_id":"4","last_reported":1759003788,"current_range_meters":9600,"station_id":"","pricing_plan_id":"cebpf4jnsgd1na2vs0mg"},{"bike_id":"8360fe96-8a6b-4a67-9ba4-0ef948b002e1","system_id":"levelo_inurba_marseille","lat":43.25006,"lon":5.38915,"is_reserved":false,"is_disabled":true,"rental_uris":{"android":"levelo://app?vid=8360fe96-8a6b-4a67-9ba4-0ef948b002e1","ios":"levelo://app?vid=8360fe96-8a6b-4a67-9ba4-0ef948b002e1"},"vehicle_type_id":"4","last_reported":1759003788,"current_range_meters":9600,"station_id":"ce4bhgp2rcd13ifvqfd0","pricing_plan_id":"cebpf4jnsgd1na2vs0mg"},{"bike_id":"2f362fdc-bda1-457f-8ddd-fa91a53b4db0","system_id":"levelo_inurba_marseille","lat":43.24545,"lon":5.39525,"is_reserved":false,"is_disabled":false,"rental_uris":{"android":"levelo://app?vid=2f362fdc-bda1-457f-8ddd-fa91a53b4db0","ios":"levelo://app?vid=2f362fdc-bda1-457f-8ddd-fa91a53b4db0"},"vehicle_type_id":"4","last_reported":1759003788,"current_range_meters":9600,"station_id":"ce4bhlp2rcd13ifvqgjg","pricing_plan_id":"cebpf4jnsgd1na2vs0mg"},{"bike_id":"23f848d1-5beb-4f13-812a-b0248a91de3f","system_id":"levelo_inurba_marseille","lat":43.28606,"lon":5.35117,"is_reserved":false,"is_disabled":false,"rental_uris":{"android":"levelo://app?vid=23f848d1-5beb-4f13-812a-b0248a91de3f","ios":"levelo://app?vid=23f848d1-5beb-4f13-812a-b0248a91de3f"},"vehicle_type_id":"4","last_reported":1759003788,"current_range_meters":9600,"station_id":"ce4bhch2rcd13ifvqeug","pricing_plan_id":"cebpf4jnsgd1na2vs0mg"},{"bike_id":"96d1141f-d443-47ec-9029-19493631857c","system_id":"levelo_inurba_marseille","lat":43.2911,"lon":5.38126,"is_reserved":false,"is_disabled":false,"rental_uris":{"android":"levelo://app?vid=96d1141f-d443-47ec-9029-19493631857c","ios":"levelo://app?vid=96d1141f-d443-47ec-9029-19493631857c"},"vehicle_type_id":"4","last_reported":1759003788,"current_range_meters":14000,"station_id":"ce4bh512rcd13ifvqe2g","pricing_plan_id":"cebpf4jnsgd1na2vs0mg"},{"bike_id":"ccea33ad-6ab7-4a34-96c5-31f7cdf54269","system_id":"levelo_inurba_marseille","lat":43.315325,"lon":5.367735,"is_reserved":false,"is_disabled":false,"rental_uris":{"android":"levelo://app?vid=ccea33ad-6ab7-4a34-96c5-31f7cdf54269","ios":"levelo://app?vid=ccea33ad-6ab7-4a34-96c5-31f7cdf54269"},"vehicle_type_id":"4","last_reported":1759003788,"current_range_meters":9600,"station_id":"ce4bhsh2rcd13ifvqi2g","pricing_plan_id":"cebpf4jnsgd1na2vs0mg"},{"bike_id":"a78302dc-aa43-437f-9030-51e4e7e137f4","system_id":"levelo_inurba_marseille","lat":43.21203,"lon":5.35087,"is_reserved":false,"is_disabled":false,"rental_uris":{"android":"levelo://app?vid=a78302dc-aa43-437f-9030-51e4e7e137f4","ios":"levelo://app?vid=a78302dc-aa43-437f-9030-51e4e7e137f4"},"vehicle_type_id":"4","last_reported":1759003788,"current_range_meters":10000,"station_id":"st_cvj6sg6p6f1abm77japg","pricing_plan_id":"cebpf4jnsgd1na2vs0mg"},{"bike_id":"727aac30-edb4-47d6-833f-b875300238f4","system_id":"levelo_inurba_marseille","lat":43.30146,"lon":5.39864,"is_reserved":false,"is_disabled":false,"rental_uris":{"android":"levelo://app?vid=727aac30-edb4-47d6-833f-b875300238f4","ios":"levelo://app?vid=727aac30-edb4-47d6-833f-b875300238f4"},"vehicle_type_id":"4","last_reported":1759003788,"current_range_meters":10000,"station_id":"ce4bh0h2rcd13ifvqd40","pricing_plan_id":"cebpf4jnsgd1na2vs0mg"},{"bike_id":"f96c2cc4-0b1f-4923-bfa9-c4e202a5fcad","system_id":"levelo_inurba_marseille","lat":43.324697,"lon":5.365767,"is_reserved":false,"is_disabled":false,"rental_uris":{"android":"levelo://app?vid=f96c2cc4-0b1f-4923-bfa9-c4e202a5fcad","ios":"levelo://app?vid=f96c2cc4-0b1f-4923-bfa9-c4e202a5fcad"},"vehicle_type_id":"4","last_reported":1759003788,"current_range_meters":10000,"station_id":"ce4bhs12rcd13ifvqhvg","pricing_plan_id":"cebpf4jnsgd1na2vs0mg"},{"bike_id":"20b9cebb-3230-4fab-b86e-fe2eef62b704","system_id":"levelo_inurba_marseille","lat":43.29638,"lon":5.40596,"is_reserved":false,"is_disabled":false,"rental_uris":{"android":"levelo://app?vid=20b9cebb-3230-4fab-b86e-fe2eef62b704","ios":"levelo://app?vid=20b9cebb-3230-4fab-b86e-fe2eef62b704"},"vehicle_type_id":"4","last_reported":1759003788,"current_range_meters":9600,"station_id":"ce4bh0h2rcd13ifvqd60","pricing_plan_id":"cebpf4jnsgd1na2vs0mg"},{"bike_id":"c11918dd-4c18-4361-9142-7c888ba7203c","system_id":"levelo_inurba_marseille","lat":43.28415,"lon":5.37512,"is_reserved":false,"is_disabled":false,"rental_uris":{"android":"levelo://app?vid=c11918dd-4c18-4361-9142-7c888ba7203c","ios":"levelo://app?vid=c11918dd-4c18-4361-9142-7c888ba7203c"},"vehicle_type_id":"4","last_reported":1759003788,"current_range_meters":10000,"station_id":"ce4bh412rcd13ifvqds0","pricing_plan_id":"cebpf4jnsgd1na2vs0mg"},{"bike_id":"8e99de13-41c4-4290-b0ee-3ceb0edac8ca","system_id":"levelo_inurba_marseille","lat":43.29254,"lon":5.40919,"is_reserved":false,"is_disabled":false,"rental_uris":{"android":"levelo://app?vid=8e99de13-41c4-4290-b0ee-3ceb0edac8ca","ios":"levelo://app?vid=8e99de13-41c4-4290-b0ee-3ceb0edac8ca"},"vehicle_type_id":"4","last_reported":1759003788,"current_range_meters":9600,"station_id":"ce4bh192rcd13ifvqdc0","pricing_plan_id":"cebpf4jnsgd1na2vs0mg"},{"bike_id":"9bb4db31-0bf9-4171-bca1-76cb045f53a3","system_id":"levelo_inurba_marseille","lat":43.26924,"lon":5.389081,"is_reserved":false,"is_disabled":true,"rental_uris":{"android":"levelo://app?vid=9bb4db31-0bf9-4171-bca1-76cb045f53a3","ios":"levelo://app?vid=9bb4db31-0bf9-4171-bca1-76cb045f53a3"},"vehicle_type_id":"4","last_reported":1759003788,"current_range_meters":10000,"station_id":"ce4bhhh2rcd13ifvqfl0","pricing_plan_id":"cebpf4jnsgd1na2vs0mg"},{"bike_id":"01bf55f2-4ac6-46f6-8504-3267bf31e1a6","system_id":"levelo_inurba_marseille","lat":43.2973,"lon":5.381787,"is_reserved":false,"is_disabled":false,"rental_uris":{"android":"levelo://app?vid=01bf55f2-4ac6-46f6-8504-3267bf31e1a6","ios":"levelo://app?vid=01bf55f2-4ac6-46f6-8504-3267bf31e1a6"},"vehicle_type_id":"4","last_reported":1759003788,"current_range_meters":10000,"station_id":"","pricing_plan_id":"cebpf4jnsgd1na2vs0mg"},{"bike_id":"90c9ed3e-db32-488d-94b0-3bff8ecf0590","system_id":"levelo_inurba_marseille","lat":43.2606,"lon":5.39397,"is_reserved":false,"is_disabled":false,"rental_uris":{"android":"levelo://app?vid=90c9ed3e-db32-488d-94b0-3bff8ecf0590","ios":"levelo://app?vid=90c9ed3e-db32-488d-94b0-3bff8ecf0590"},"vehicle_type_id":"4","last_reported":1759003788,"current_range_meters":9600,"station_id":"ce4bhh92rcd13ifvqfj0","pricing_plan_id":"cebpf4jnsgd1na2vs0mg"},{"bike_id":"11ecce55-5e6c-46cc-aa92-38e3e67d9d67","system_id":"levelo_inurba_marseille","lat":43.32345,"lon":5.38944,"is_reserved":false,"is_disabled":false,"rental_uris":{"android":"levelo://app?vid=11ecce55-5e6c-46cc-aa92-38e3e67d9d67","ios":"levelo://app?vid=11ecce55-5e6c-46cc-aa92-38e3e67d9d67"},"vehicle_type_id":"4","last_reported":1759003788,"current_range_meters":10000,"station_id":"","pricing_plan_id":"cebpf4jnsgd1na2vs0mg"},{"bike_id":"adbff186-f4c8-4b91-a873-f380787468e3","system_id":"levelo_inurba_marseille","lat":43.29192,"lon":5.39311,"is_reserved":false,"is_disabled":false,"rental_uris":{"android":"levelo://app?vid=adbff186-f4c8-4b91-a873-f380787468e3","ios":"levelo://app?vid=adbff186-f4c8-4b91-a873-f380787468e3"},"vehicle_type_id":"4","last_reported":1759003788,"current_range_meters":9600,"station_id":"ce4bh192rcd13ifvqdd0","pricing_plan_id":"cebpf4jnsgd1na2vs0mg"},{"bike_id":"ca33125d-1c32-4ecd-86ab-97a516aea09f","system_id":"levelo_inurba_marseille","lat":43.31874,"lon":5.39045,"is_reserved":false,"is_disabled":false,"rental_uris":{"android":"levelo://app?vid=ca33125d-1c32-4ecd-86ab-97a516aea09f","ios":"levelo://app?vid=ca33125d-1c32-4ecd-86ab-97a516aea09f"},"vehicle_type_id":"4","last_reported":1759003788,"current_range_meters":10800,"station_id":"","pricing_plan_id":"cebpf4jnsgd1na2vs0mg"},{"bike_id":"e114a3ae-0a89-4dac-83a7-a52236826763","system_id":"levelo_inurba_marseille","lat":43.21205,"lon":5.35084,"is_reserved":false,"is_disabled":false,"rental_uris":{"android":"levelo://app?vid=e114a3ae-0a89-4dac-83a7-a52236826763","ios":"levelo://app?vid=e114a3ae-0a89-4dac-83a7-a52236826763"},"vehicle_type_id":"4","last_reported":1759003788,"current_range_meters":10800,"station_id":"st_cvj6sg6p6f1abm77japg","pricing_plan_id":"cebpf4jnsgd1na2vs0mg"},{"bike_id":"170f84a9-118d-452a-98bf-14e1e96421c3","system_id":"levelo_inurba_marseille","lat":43.29594,"lon":5.38099,"is_reserved":false,"is_disabled":false,"rental_uris":{"android":"levelo://app?vid=170f84a9-118d-452a-98bf-14e1e96421c3","ios":"levelo://app?vid=170f84a9-118d-452a-98bf-14e1e96421c3"},"vehicle_type_id":"4","last_reported":1759003788,"current_range_meters":10800,"station_id":"ce4bgl12rcd13ifvqbo0","pricing_plan_id":"cebpf4jnsgd1na2vs0mg"},{"bike_id":"1b10335c-ab52-453f-b705-5ee872f8454f","system_id":"levelo_inurba_marseille","lat":43.29286,"lon":5.38451,"is_reserved":false,"is_disabled":false,"rental_uris":{"android":"levelo://app?vid=1b10335c-ab52-453f-b705-5ee872f8454f","ios":"levelo://app?vid=1b10335c-ab52-453f-b705-5ee872f8454f"},"vehicle_type_id":"4","last_reported":1759003788,"current_range_meters":10800,"station_id":"ce4bh692rcd13ifvqea0","pricing_plan_id":"cebpf4jnsgd1na2vs0mg"},{"bike_id":"db8098eb-61f8-4094-88f1-dc02a14320f7","system_id":"levelo_inurba_marseille","lat":43.24617,"lon":5.43152,"is_reserved":false,"is_disabled":false,"rental_uris":{"android":"levelo://app?vid=db8098eb-61f8-4094-88f1-dc02a14320f7","ios":"levelo://app?vid=db8098eb-61f8-4094-88f1-dc02a14320f7"},"vehicle_type_id":"4","last_reported":1759003788,"current_range_meters":10800,"station_id":"st_d2m6c4gdas8pm72e190g","pricing_plan_id":"cebpf4jnsgd1na2vs0mg"},{"bike_id":"7beadf10-fdbf-4945-8676-db18b24a4cec","system_id":"levelo_inurba_marseille","lat":43.29028,"lon":5.38125,"is_reserved":false,"is_disabled":false,"rental_uris":{"android":"levelo://app?vid=7beadf10-fdbf-4945-8676-db18b24a4cec","ios":"levelo://app?vid=7beadf10-fdbf-4945-8676-db18b24a4cec"},"vehicle_type_id":"4","last_reported":1759003788,"current_range_meters":10800,"station_id":"ce4bh4p2rcd13ifvqe1g","pricing_plan_id":"cebpf4jnsgd1na2vs0mg"},{"bike_id":"7a3d1eff-7fbd-4d17-8f70-0fd00074d7bd","system_id":"levelo_inurba_marseille","lat":43.28924,"lon":5.38382,"is_reserved":false,"is_disabled":false,"rental_uris":{"android":"levelo://app?vid=7a3d1eff-7fbd-4d17-8f70-0fd00074d7bd","ios":"levelo://app?vid=7a3d1eff-7fbd-4d17-8f70-0fd00074d7bd"},"vehicle_type_id":"4","last_reported":1759003788,"current_range_meters":11200,"station_id":"ce4bh612rcd13ifvqe6g","pricing_plan_id":"cebpf4jnsgd1na2vs0mg"},{"bike_id":"433d37e5-e575-46b1-8b8b-8256bc570d58","system_id":"levelo_inurba_marseille","lat":43.27998,"lon":5.40023,"is_reserved":false,"is_disabled":false,"rental_uris":{"android":"levelo://app?vid=433d37e5-e575-46b1-8b8b-8256bc570d58","ios":"levelo://app?vid=433d37e5-e575-46b1-8b8b-8256bc570d58"},"vehicle_type_id":"4","last_reported":1759003788,"current_range_meters":11200,"station_id":"ce4bho92rcd13ifvqh4g","pricing_plan_id":"cebpf4jnsgd1na2vs0mg"},{"bike_id":"fd7db3b2-bf6f-47a6-a193-d9e54fb8924d","system_id":"levelo_inurba_marseille","lat":43.29249,"lon":5.36603,"is_reserved":false,"is_disabled":false,"rental_uris":{"android":"levelo://app?vid=fd7db3b2-bf6f-47a6-a193-d9e54fb8924d","ios":"levelo://app?vid=fd7db3b2-bf6f-47a6-a193-d9e54fb8924d"},"vehicle_type_id":"4","last_reported":1759003788,"current_range_meters":11200,"station_id":"","pricing_plan_id":"cebpf4jnsgd1na2vs0mg"},{"bike_id":"f2fd2284-837d-45c8-8a92-163c2aa30979","system_id":"levelo_inurba_marseille","lat":43.26937,"lon":5.38918,"is_reserved":false,"is_disabled":true,"rental_uris":{"android":"levelo://app?vid=f2fd2284-837d-45c8-8a92-163c2aa30979","ios":"levelo://app?vid=f2fd2284-837d-45c8-8a92-163c2aa30979"},"vehicle_type_id":"4","last_reported":1759003788,"current_range_meters":11200,"station_id":"ce4bhhh2rcd13ifvqfl0","pricing_plan_id":"cebpf4jnsgd1na2vs0mg"},{"bike_id":"5bb42022-0e19-48bc-a5b4-218bb1d7482e","system_id":"levelo_inurba_marseille","lat":43.31242,"lon":5.3783,"is_reserved":false,"is_disabled":false,"rental_uris":{"android":"levelo://app?vid=5bb42022-0e19-48bc-a5b4-218bb1d7482e","ios":"levelo://app?vid=5bb42022-0e19-48bc-a5b4-218bb1d7482e"},"vehicle_type_id":"4","last_reported":1759003788,"current_range_meters":11200,"station_id":"","pricing_plan_id":"cebpf4jnsgd1na2vs0mg"},{"bike_id":"80bdba63-46f3-4274-b0d9-d9711409b6a8","system_id":"levelo_inurba_marseille","lat":43.270752,"lon":5.402497,"is_reserved":false,"is_disabled":false,"rental_uris":{"android":"levelo://app?vid=80bdba63-46f3-4274-b0d9-d9711409b6a8","ios":"levelo://app?vid=80bdba63-46f3-4274-b0d9-d9711409b6a8"},"vehicle_type_id":"4","last_reported":1759003788,"current_range_meters":11200,"station_id":"","pricing_plan_id":"cebpf4jnsgd1na2vs0mg"},{"bike_id":"46ac5fb6-ac2e-43e8-84c9-c4e46889ea29","system_id":"levelo_inurba_marseille","lat":43.211856,"lon":5.351048,"is_reserved":false,"is_disabled":false,"rental_uris":{"android":"levelo://app?vid=46ac5fb6-ac2e-43e8-84c9-c4e46889ea29","ios":"levelo://app?vid=46ac5fb6-ac2e-43e8-84c9-c4e46889ea29"},"vehicle_type_id":"4","last_reported":1759003788,"current_range_meters":11200,"station_id":"st_cvj6sg6p6f1abm77japg","pricing_plan_id":"cebpf4jnsgd1na2vs0mg"},{"bike_id":"3fd7c937-a838-4d6f-932e-9e3bccbc6d3b","system_id":"levelo_inurba_marseille","lat":43.29932,"lon":5.382,"is_reserved":false,"is_disabled":false,"rental_uris":{"android":"levelo://app?vid=3fd7c937-a838-4d6f-932e-9e3bccbc6d3b","ios":"levelo://app?vid=3fd7c937-a838-4d6f-932e-9e3bccbc6d3b"},"vehicle_type_id":"4","last_reported":1759003788,"current_range_meters":11200,"station_id":"","pricing_plan_id":"cebpf4jnsgd1na2vs0mg"},{"bike_id":"7ee12965-0fed-415c-8f08-8f986985cec6","system_id":"levelo_inurba_marseille","lat":43.21746,"lon":5.34647,"is_reserved":false,"is_disabled":true,"rental_uris":{"android":"levelo://app?vid=7ee12965-0fed-415c-8f08-8f986985cec6","ios":"levelo://app?vid=7ee12965-0fed-415c-8f08-8f986985cec6"},"vehicle_type_id":"4","last_reported":1759003788,"current_range_meters":11200,"station_id":"st_cvj6r9ubvosntc0bgbag","pricing_plan_id":"cebpf4jnsgd1na2vs0mg"},{"bike_id":"934ea1ec-b7f6-49a1-9efa-287317d4eb22","system_id":"levelo_inurba_marseille","lat":43.29048,"lon":5.35914,"is_reserved":false,"is_disabled":false,"rental_uris":{"android":"levelo://app?vid=934ea1ec-b7f6-49a1-9efa-287317d4eb22","ios":"levelo://app?vid=934ea1ec-b7f6-49a1-9efa-287317d4eb22"},"vehicle_type_id":"4","last_reported":1759003788,"current_range_meters":11600,"station_id":"","pricing_plan_id":"cebpf4jnsgd1na2vs0mg"},{"bike_id":"2b2eb840-6ce7-4e4e-a651-bda186b9205e","system_id":"levelo_inurba_marseille","lat":43.30538,"lon":5.36519,"is_reserved":false,"is_disabled":false,"rental_uris":{"android":"levelo://app?vid=2b2eb840-6ce7-4e4e-a651-bda186b9205e","ios":"levelo://app?vid=2b2eb840-6ce7-4e4e-a651-bda186b9205e"},"vehicle_type_id":"4","last_reported":1759003788,"current_range_meters":11600,"station_id":"ce4bgs12rcd13ifvqcag","pricing_plan_id":"cebpf4jnsgd1na2vs0mg"},{"bike_id":"6b9adc5e-245f-4dfe-881a-00ff9f292261","system_id":"levelo_inurba_marseille","lat":43.24675,"lon":5.38161,"is_reserved":false,"is_disabled":false,"rental_uris":{"android":"levelo://app?vid=6b9adc5e-245f-4dfe-881a-00ff9f292261","ios":"levelo://app?vid=6b9adc5e-245f-4dfe-881a-00ff9f292261"},"vehicle_type_id":"4","last_reported":1759003788,"current_range_meters":11600,"station_id":"ce4bhih2rcd13ifvqfr0","pricing_plan_id":"cebpf4jnsgd1na2vs0mg"},{"bike_id":"71649b2c-48f8-4b8a-b9c0-477bd83fa14b","system_id":"levelo_inurba_marseille","lat":43.284273,"lon":5.349898,"is_reserved":false,"is_disabled":false,"rental_uris":{"android":"levelo://app?vid=71649b2c-48f8-4b8a-b9c0-477bd83fa14b","ios":"levelo://app?vid=71649b2c-48f8-4b8a-b9c0-477bd83fa14b"},"vehicle_type_id":"4","last_reported":1759003788,"current_range_meters":12000,"station_id":"ce4bhbh2rcd13ifvqepg","pricing_plan_id":"cebpf4jnsgd1na2vs0mg"},{"bike_id":"a7a8ba83-65c9-4731-81ef-9a0edc2bfefe","system_id":"levelo_inurba_marseille","lat":43.28852,"lon":5.35854,"is_reserved":false,"is_disabled":false,"rental_uris":{"android":"levelo://app?vid=a7a8ba83-65c9-4731-81ef-9a0edc2bfefe","ios":"levelo://app?vid=a7a8ba83-65c9-4731-81ef-9a0edc2bfefe"},"vehicle_type_id":"4","last_reported":1759003788,"current_range_meters":12000,"station_id":"ce4bhb12rcd13ifvqem0","pricing_plan_id":"cebpf4jnsgd1na2vs0mg"},{"bike_id":"360c0746-c854-4629-884f-7c911de53d9d","system_id":"levelo_inurba_marseille","lat":43.31745,"lon":5.39023,"is_reserved":false,"is_disabled":false,"rental_uris":{"android":"levelo://app?vid=360c0746-c854-4629-884f-7c911de53d9d","ios":"levelo://app?vid=360c0746-c854-4629-884f-7c911de53d9d"},"vehicle_type_id":"4","last_reported":1759003788,"current_range_meters":12000,"station_id":"ce4bhqp2rcd13ifvqhng","pricing_plan_id":"cebpf4jnsgd1na2vs0mg"},{"bike_id":"e35a0bdf-bd77-424b-84d2-f0ff692f3f86","system_id":"levelo_inurba_marseille","lat":43.288678,"lon":5.358321,"is_reserved":false,"is_disabled":true,"rental_uris":{"android":"levelo://app?vid=e35a0bdf-bd77-424b-84d2-f0ff692f3f86","ios":"levelo://app?vid=e35a0bdf-bd77-424b-84d2-f0ff692f3f86"},"vehicle_type_id":"4","last_reported":1759003788,"current_range_meters":12000,"station_id":"ce4bhb12rcd13ifvqem0","pricing_plan_id":"cebpf4jnsgd1na2vs0mg"},{"bike_id":"720623f7-9148-4a0e-ade4-a205c6fa44f0","system_id":"levelo_inurba_marseille","lat":43.28983,"lon":5.42911,"is_reserved":false,"is_disabled":false,"rental_uris":{"android":"levelo://app?vid=720623f7-9148-4a0e-ade4-a205c6fa44f0","ios":"levelo://app?vid=720623f7-9148-4a0e-ade4-a205c6fa44f0"},"vehicle_type_id":"4","last_reported":1759003788,"current_range_meters":12000,"station_id":"","pricing_plan_id":"cebpf4jnsgd1na2vs0mg"},{"bike_id":"a79771f7-9547-42c9-9edd-e8630ba14d95","system_id":"levelo_inurba_marseille","lat":43.23189,"lon":5.35536,"is_reserved":false,"is_disabled":false,"rental_uris":{"android":"levelo://app?vid=a79771f7-9547-42c9-9edd-e8630ba14d95","ios":"levelo://app?vid=a79771f7-9547-42c9-9edd-e8630ba14d95"},"vehicle_type_id":"4","last_reported":1759003788,"current_range_meters":12000,"station_id":"ce4bhu92rcd13ifvqi70","pricing_plan_id":"cebpf4jnsgd1na2vs0mg"},{"bike_id":"695662ab-65fe-4c59-81b6-3dceb9f5066d","system_id":"levelo_inurba_marseille","lat":43.25578,"lon":5.38236,"is_reserved":false,"is_disabled":true,"rental_uris":{"android":"levelo://app?vid=695662ab-65fe-4c59-81b6-3dceb9f5066d","ios":"levelo://app?vid=695662ab-65fe-4c59-81b6-3dceb9f5066d"},"vehicle_type_id":"4","last_reported":1759003788,"current_range_meters":12000,"station_id":"ce4bhih2rcd13ifvqfs0","pricing_plan_id":"cebpf4jnsgd1na2vs0mg"},{"bike_id":"03350417-1098-4d6c-b8fe-9e64358744bf","system_id":"levelo_inurba_marseille","lat":43.310583,"lon":5.376035,"is_reserved":false,"is_disabled":false,"rental_uris":{"android":"levelo://app?vid=03350417-1098-4d6c-b8fe-9e64358744bf","ios":"levelo://app?vid=03350417-1098-4d6c-b8fe-9e64358744bf"},"vehicle_type_id":"4","last_reported":1759003788,"current_range_meters":12000,"station_id":"","pricing_plan_id":"cebpf4jnsgd1na2vs0mg"},{"bike_id":"9feae468-b8bd-422a-8fcb-2d68fc5ee82c","system_id":"levelo_inurba_marseille","lat":43.33404,"lon":5.42012,"is_reserved":false,"is_disabled":false,"rental_uris":{"android":"levelo://app?vid=9feae468-b8bd-422a-8fcb-2d68fc5ee82c","ios":"levelo://app?vid=9feae468-b8bd-422a-8fcb-2d68fc5ee82c"},"vehicle_type_id":"4","last_reported":1759003788,"current_range_meters":12400,"station_id":"","pricing_plan_id":"cebpf4jnsgd1na2vs0mg"},{"bike_id":"75d55abc-0dd7-4dea-9248-923faedd6bb8","system_id":"levelo_inurba_marseille","lat":43.30559,"lon":5.36522,"is_reserved":false,"is_disabled":false,"rental_uris":{"android":"levelo://app?vid=75d55abc-0dd7-4dea-9248-923faedd6bb8","ios":"levelo://app?vid=75d55abc-0dd7-4dea-9248-923faedd6bb8"},"vehicle_type_id":"4","last_reported":1759003788,"current_range_meters":12400,"station_id":"ce4bgs12rcd13ifvqcag","pricing_plan_id":"cebpf4jnsgd1na2vs0mg"},{"bike_id":"012a25f5-4947-4bcc-b275-0957f348e0be","system_id":"levelo_inurba_marseille","lat":43.29579,"lon":5.37755,"is_reserved":false,"is_disabled":false,"rental_uris":{"android":"levelo://app?vid=012a25f5-4947-4bcc-b275-0957f348e0be","ios":"levelo://app?vid=012a25f5-4947-4bcc-b275-0957f348e0be"},"vehicle_type_id":"4","last_reported":1759003788,"current_range_meters":12400,"station_id":"","pricing_plan_id":"cebpf4jnsgd1na2vs0mg"},{"bike_id":"f03b792f-d9b3-4dee-ac63-50c5f35e3187","system_id":"levelo_inurba_marseille","lat":43.28413,"lon":5.34985,"is_reserved":false,"is_disabled":false,"rental_uris":{"android":"levelo://app?vid=f03b792f-d9b3-4dee-ac63-50c5f35e3187","ios":"levelo://app?vid=f03b792f-d9b3-4dee-ac63-50c5f35e3187"},"vehicle_type_id":"4","last_reported":1759003788,"current_range_meters":12400,"station_id":"ce4bhbh2rcd13ifvqepg","pricing_plan_id":"cebpf4jnsgd1na2vs0mg"},{"bike_id":"349977c5-2efd-48ed-8dd8-9cfd0d464679","system_id":"levelo_inurba_marseille","lat":43.21194,"lon":5.35083,"is_reserved":false,"is_disabled":false,"rental_uris":{"android":"levelo://app?vid=349977c5-2efd-48ed-8dd8-9cfd0d464679","ios":"levelo://app?vid=349977c5-2efd-48ed-8dd8-9cfd0d464679"},"vehicle_type_id":"4","last_reported":1759003788,"current_range_meters":12400,"station_id":"st_cvj6sg6p6f1abm77japg","pricing_plan_id":"cebpf4jnsgd1na2vs0mg"},{"bike_id":"c6c1eec2-ba15-4e7d-85cf-c22bb105f0f9","system_id":"levelo_inurba_marseille","lat":43.307538,"lon":5.38234,"is_reserved":false,"is_disabled":false,"rental_uris":{"android":"levelo://app?vid=c6c1eec2-ba15-4e7d-85cf-c22bb105f0f9","ios":"levelo://app?vid=c6c1eec2-ba15-4e7d-85cf-c22bb105f0f9"},"vehicle_type_id":"4","last_reported":1759003788,"current_range_meters":12400,"station_id":"ce4bgv92rcd13ifvqcr0","pricing_plan_id":"cebpf4jnsgd1na2vs0mg"},{"bike_id":"dfa6c4f0-d708-4c9e-a8fb-defb758645fd","system_id":"levelo_inurba_marseille","lat":43.241845,"lon":5.397229,"is_reserved":false,"is_disabled":false,"rental_uris":{"android":"levelo://app?vid=dfa6c4f0-d708-4c9e-a8fb-defb758645fd","ios":"levelo://app?vid=dfa6c4f0-d708-4c9e-a8fb-defb758645fd"},"vehicle_type_id":"4","last_reported":1759003788,"current_range_meters":12400,"station_id":"ce4bhn12rcd13ifvqgpg","pricing_plan_id":"cebpf4jnsgd1na2vs0mg"},{"bike_id":"ea656012-7739-43a3-8221-8fb72a93f8a4","system_id":"levelo_inurba_marseille","lat":43.31372,"lon":5.36696,"is_reserved":false,"is_disabled":false,"rental_uris":{"android":"levelo://app?vid=ea656012-7739-43a3-8221-8fb72a93f8a4","ios":"levelo://app?vid=ea656012-7739-43a3-8221-8fb72a93f8a4"},"vehicle_type_id":"4","last_reported":1759003788,"current_range_meters":12000,"station_id":"ce4bgr92rcd13ifvqc6g","pricing_plan_id":"cebpf4jnsgd1na2vs0mg"},{"bike_id":"2ca205d7-ac55-4d7d-ae07-5f6058c9f252","system_id":"levelo_inurba_marseille","lat":43.29995,"lon":5.38513,"is_reserved":false,"is_disabled":false,"rental_uris":{"android":"levelo://app?vid=2ca205d7-ac55-4d7d-ae07-5f6058c9f252","ios":"levelo://app?vid=2ca205d7-ac55-4d7d-ae07-5f6058c9f252"},"vehicle_type_id":"4","last_reported":1759003788,"current_range_meters":12800,"station_id":"ce4bgj92rcd13ifvqbd0","pricing_plan_id":"cebpf4jnsgd1na2vs0mg"},{"bike_id":"2c7a5df4-d89b-4973-9af6-d651d62ac55e","system_id":"levelo_inurba_marseille","lat":43.28638,"lon":5.35116,"is_reserved":false,"is_disabled":false,"rental_uris":{"android":"levelo://app?vid=2c7a5df4-d89b-4973-9af6-d651d62ac55e","ios":"levelo://app?vid=2c7a5df4-d89b-4973-9af6-d651d62ac55e"},"vehicle_type_id":"4","last_reported":1759003788,"current_range_meters":12800,"station_id":"ce4bhch2rcd13ifvqeug","pricing_plan_id":"cebpf4jnsgd1na2vs0mg"},{"bike_id":"378333ca-0a64-49d9-bbce-c7ae0c5c3859","system_id":"levelo_inurba_marseille","lat":43.29253,"lon":5.38447,"is_reserved":false,"is_disabled":false,"rental_uris":{"android":"levelo://app?vid=378333ca-0a64-49d9-bbce-c7ae0c5c3859","ios":"levelo://app?vid=378333ca-0a64-49d9-bbce-c7ae0c5c3859"},"vehicle_type_id":"4","last_reported":1759003788,"current_range_meters":12800,"station_id":"ce4bh692rcd13ifvqea0","pricing_plan_id":"cebpf4jnsgd1na2vs0mg"},{"bike_id":"0b10856b-3dad-4052-bc3a-2c17e6f16e23","system_id":"levelo_inurba_marseille","lat":43.27552,"lon":5.38446,"is_reserved":false,"is_disabled":true,"rental_uris":{"android":"levelo://app?vid=0b10856b-3dad-4052-bc3a-2c17e6f16e23","ios":"levelo://app?vid=0b10856b-3dad-4052-bc3a-2c17e6f16e23"},"vehicle_type_id":"4","last_reported":1759003788,"current_range_meters":13600,"station_id":"ce4bhh92rcd13ifvqfi0","pricing_plan_id":"cebpf4jnsgd1na2vs0mg"},{"bike_id":"dc4883ea-8f06-44d1-8b3d-6660e39a87ec","system_id":"levelo_inurba_marseille","lat":43.22926,"lon":5.35384,"is_reserved":false,"is_disabled":true,"rental_uris":{"android":"levelo://app?vid=dc4883ea-8f06-44d1-8b3d-6660e39a87ec","ios":"levelo://app?vid=dc4883ea-8f06-44d1-8b3d-6660e39a87ec"},"vehicle_type_id":"4","last_reported":1759003788,"current_range_meters":12800,"station_id":"cpo3532slgdg3j2ikp40","pricing_plan_id":"cebpf4jnsgd1na2vs0mg"},{"bike_id":"bd99a4e6-46fe-4fc5-8394-c1f575095417","system_id":"levelo_inurba_marseille","lat":43.24071,"lon":5.37764,"is_reserved":false,"is_disabled":false,"rental_uris":{"android":"levelo://app?vid=bd99a4e6-46fe-4fc5-8394-c1f575095417","ios":"levelo://app?vid=bd99a4e6-46fe-4fc5-8394-c1f575095417"},"vehicle_type_id":"4","last_reported":1759003788,"current_range_meters":12800,"station_id":"ce4bhnp2rcd13ifvqgvg","pricing_plan_id":"cebpf4jnsgd1na2vs0mg"},{"bike_id":"0ed98689-e043-4285-a0eb-b6a2eadbe799","system_id":"levelo_inurba_marseille","lat":43.30549,"lon":5.36519,"is_reserved":false,"is_disabled":false,"rental_uris":{"android":"levelo://app?vid=0ed98689-e043-4285-a0eb-b6a2eadbe799","ios":"levelo://app?vid=0ed98689-e043-4285-a0eb-b6a2eadbe799"},"vehicle_type_id":"4","last_reported":1759003788,"current_range_meters":12800,"station_id":"ce4bgs12rcd13ifvqcag","pricing_plan_id":"cebpf4jnsgd1na2vs0mg"},{"bike_id":"06ff909b-aaae-448a-930e-0f8a57c141f1","system_id":"levelo_inurba_marseille","lat":43.29847,"lon":5.36287,"is_reserved":false,"is_disabled":false,"rental_uris":{"android":"levelo://app?vid=06ff909b-aaae-448a-930e-0f8a57c141f1","ios":"levelo://app?vid=06ff909b-aaae-448a-930e-0f8a57c141f1"},"vehicle_type_id":"4","last_reported":1759003788,"current_range_meters":12800,"station_id":"ce4bgpp2rcd13ifvqc3g","pricing_plan_id":"cebpf4jnsgd1na2vs0mg"},{"bike_id":"6808dee9-2ef3-4394-b97e-f35b0c5e5f0d","system_id":"levelo_inurba_marseille","lat":43.2841,"lon":5.37519,"is_reserved":false,"is_disabled":false,"rental_uris":{"android":"levelo://app?vid=6808dee9-2ef3-4394-b97e-f35b0c5e5f0d","ios":"levelo://app?vid=6808dee9-2ef3-4394-b97e-f35b0c5e5f0d"},"vehicle_type_id":"4","last_reported":1759003788,"current_range_meters":12800,"station_id":"ce4bh412rcd13ifvqds0","pricing_plan_id":"cebpf4jnsgd1na2vs0mg"},{"bike_id":"e863eb13-a40f-409e-ae03-80c63350785a","system_id":"levelo_inurba_marseille","lat":43.26499,"lon":5.39569,"is_reserved":false,"is_disabled":false,"rental_uris":{"android":"levelo://app?vid=e863eb13-a40f-409e-ae03-80c63350785a","ios":"levelo://app?vid=e863eb13-a40f-409e-ae03-80c63350785a"},"vehicle_type_id":"4","last_reported":1759003788,"current_range_meters":13600,"station_id":"ce4bhi12rcd13ifvqfq0","pricing_plan_id":"cebpf4jnsgd1na2vs0mg"},{"bike_id":"eedfbf61-711e-444c-88e3-b720ea74f76a","system_id":"levelo_inurba_marseille","lat":43.21191,"lon":5.350787,"is_reserved":false,"is_disabled":false,"rental_uris":{"android":"levelo://app?vid=eedfbf61-711e-444c-88e3-b720ea74f76a","ios":"levelo://app?vid=eedfbf61-711e-444c-88e3-b720ea74f76a"},"vehicle_type_id":"4","last_reported":1759003788,"current_range_meters":13600,"station_id":"st_cvj6sg6p6f1abm77japg","pricing_plan_id":"cebpf4jnsgd1na2vs0mg"},{"bike_id":"5755c986-9c1f-4593-887c-fc59aede9f3c","system_id":"levelo_inurba_marseille","lat":43.29005,"lon":5.38141,"is_reserved":false,"is_disabled":false,"rental_uris":{"android":"levelo://app?vid=5755c986-9c1f-4593-887c-fc59aede9f3c","ios":"levelo://app?vid=5755c986-9c1f-4593-887c-fc59aede9f3c"},"vehicle_type_id":"4","last_reported":1759003788,"current_range_meters":13600,"station_id":"ce4bh4p2rcd13ifvqe1g","pricing_plan_id":"cebpf4jnsgd1na2vs0mg"},{"bike_id":"a141ba13-19f1-4f9e-9fa5-b678aae29a88","system_id":"levelo_inurba_marseille","lat":43.31117,"lon":5.37752,"is_reserved":false,"is_disabled":false,"rental_uris":{"android":"levelo://app?vid=a141ba13-19f1-4f9e-9fa5-b678aae29a88","ios":"levelo://app?vid=a141ba13-19f1-4f9e-9fa5-b678aae29a88"},"vehicle_type_id":"4","last_reported":1759003788,"current_range_meters":14000,"station_id":"ce4bgt92rcd13ifvqcg0","pricing_plan_id":"cebpf4jnsgd1na2vs0mg"},{"bike_id":"df61e9fb-34e3-4c30-9f53-08751352aeff","system_id":"levelo_inurba_marseille","lat":43.29046,"lon":5.39946,"is_reserved":false,"is_disabled":false,"rental_uris":{"android":"levelo://app?vid=df61e9fb-34e3-4c30-9f53-08751352aeff","ios":"levelo://app?vid=df61e9fb-34e3-4c30-9f53-08751352aeff"},"vehicle_type_id":"4","last_reported":1759003788,"current_range_meters":13600,"station_id":"ce4bh392rcd13ifvqdm0","pricing_plan_id":"cebpf4jnsgd1na2vs0mg"},{"bike_id":"92807f09-2edf-40ca-b0ef-331266b7951c","system_id":"levelo_inurba_marseille","lat":43.252397,"lon":5.394627,"is_reserved":false,"is_disabled":false,"rental_uris":{"android":"levelo://app?vid=92807f09-2edf-40ca-b0ef-331266b7951c","ios":"levelo://app?vid=92807f09-2edf-40ca-b0ef-331266b7951c"},"vehicle_type_id":"4","last_reported":1759003788,"current_range_meters":14000,"station_id":"ce4bhm12rcd13ifvqgkg","pricing_plan_id":"cebpf4jnsgd1na2vs0mg"},{"bike_id":"096c311a-e31f-4e60-ab8c-de0b76354103","system_id":"levelo_inurba_marseille","lat":43.27205,"lon":5.41003,"is_reserved":false,"is_disabled":true,"rental_uris":{"android":"levelo://app?vid=096c311a-e31f-4e60-ab8c-de0b76354103","ios":"levelo://app?vid=096c311a-e31f-4e60-ab8c-de0b76354103"},"vehicle_type_id":"4","last_reported":1759003788,"current_range_meters":14000,"station_id":"ce4bhl12rcd13ifvqgf0","pricing_plan_id":"cebpf4jnsgd1na2vs0mg"},{"bike_id":"3f51e03c-3abb-4dde-8cdd-da596aa3252f","system_id":"levelo_inurba_marseille","lat":43.27699,"lon":5.38898,"is_reserved":false,"is_disabled":true,"rental_uris":{"android":"levelo://app?vid=3f51e03c-3abb-4dde-8cdd-da596aa3252f","ios":"levelo://app?vid=3f51e03c-3abb-4dde-8cdd-da596aa3252f"},"vehicle_type_id":"4","last_reported":1759003788,"current_range_meters":14000,"station_id":"ce4bhi12rcd13ifvqfo0","pricing_plan_id":"cebpf4jnsgd1na2vs0mg"},{"bike_id":"c3c74308-510b-4eca-8fe6-0cef0f578e16","system_id":"levelo_inurba_marseille","lat":43.29968,"lon":5.38499,"is_reserved":false,"is_disabled":false,"rental_uris":{"android":"levelo://app?vid=c3c74308-510b-4eca-8fe6-0cef0f578e16","ios":"levelo://app?vid=c3c74308-510b-4eca-8fe6-0cef0f578e16"},"vehicle_type_id":"4","last_reported":1759003788,"current_range_meters":14000,"station_id":"ce4bgj92rcd13ifvqbd0","pricing_plan_id":"cebpf4jnsgd1na2vs0mg"},{"bike_id":"c833070b-baa0-4f6e-84a4-dad65aacc2ad","system_id":"levelo_inurba_marseille","lat":43.23193,"lon":5.35558,"is_reserved":false,"is_disabled":false,"rental_uris":{"android":"levelo://app?vid=c833070b-baa0-4f6e-84a4-dad65aacc2ad","ios":"levelo://app?vid=c833070b-baa0-4f6e-84a4-dad65aacc2ad"},"vehicle_type_id":"4","last_reported":1759003788,"current_range_meters":14000,"station_id":"ce4bhu92rcd13ifvqi70","pricing_plan_id":"cebpf4jnsgd1na2vs0mg"},{"bike_id":"976fd36e-2f5c-424c-baa8-068b37f1eb42","system_id":"levelo_inurba_marseille","lat":43.27574,"lon":5.38434,"is_reserved":false,"is_disabled":false,"rental_uris":{"android":"levelo://app?vid=976fd36e-2f5c-424c-baa8-068b37f1eb42","ios":"levelo://app?vid=976fd36e-2f5c-424c-baa8-068b37f1eb42"},"vehicle_type_id":"4","last_reported":1759003788,"current_range_meters":14400,"station_id":"ce4bhh92rcd13ifvqfi0","pricing_plan_id":"cebpf4jnsgd1na2vs0mg"},{"bike_id":"85c7ac65-0172-4766-8977-f4ba34ed9c93","system_id":"levelo_inurba_marseille","lat":43.25338,"lon":5.42175,"is_reserved":false,"is_disabled":false,"rental_uris":{"android":"levelo://app?vid=85c7ac65-0172-4766-8977-f4ba34ed9c93","ios":"levelo://app?vid=85c7ac65-0172-4766-8977-f4ba34ed9c93"},"vehicle_type_id":"4","last_reported":1759003788,"current_range_meters":14400,"station_id":"st_d2m65c5bi1j21697t3ng","pricing_plan_id":"cebpf4jnsgd1na2vs0mg"},{"bike_id":"31d14509-f243-4db5-afcc-f77e9d3dbf05","system_id":"levelo_inurba_marseille","lat":43.31079,"lon":5.3835,"is_reserved":false,"is_disabled":true,"rental_uris":{"android":"levelo://app?vid=31d14509-f243-4db5-afcc-f77e9d3dbf05","ios":"levelo://app?vid=31d14509-f243-4db5-afcc-f77e9d3dbf05"},"vehicle_type_id":"4","last_reported":1759003788,"current_range_meters":14400,"station_id":"ce4bgv92rcd13ifvqcr0","pricing_plan_id":"cebpf4jnsgd1na2vs0mg"},{"bike_id":"ded2b92e-4b11-485c-9f3d-77ccffb0e212","system_id":"levelo_inurba_marseille","lat":43.30138,"lon":5.39868,"is_reserved":false,"is_disabled":false,"rental_uris":{"android":"levelo://app?vid=ded2b92e-4b11-485c-9f3d-77ccffb0e212","ios":"levelo://app?vid=ded2b92e-4b11-485c-9f3d-77ccffb0e212"},"vehicle_type_id":"4","last_reported":1759003788,"current_range_meters":14400,"station_id":"ce4bh0h2rcd13ifvqd40","pricing_plan_id":"cebpf4jnsgd1na2vs0mg"},{"bike_id":"4c02c545-ad59-45b1-9b9c-d3678a5922c7","system_id":"levelo_inurba_marseille","lat":43.337444,"lon":5.374475,"is_reserved":false,"is_disabled":false,"rental_uris":{"android":"levelo://app?vid=4c02c545-ad59-45b1-9b9c-d3678a5922c7","ios":"levelo://app?vid=4c02c545-ad59-45b1-9b9c-d3678a5922c7"},"vehicle_type_id":"4","last_reported":1759003788,"current_range_meters":14400,"station_id":"","pricing_plan_id":"cebpf4jnsgd1na2vs0mg"},{"bike_id":"c097f066-7651-435e-913f-a8a7838aba88","system_id":"levelo_inurba_marseille","lat":43.33722,"lon":5.37459,"is_reserved":false,"is_disabled":false,"rental_uris":{"android":"levelo://app?vid=c097f066-7651-435e-913f-a8a7838aba88","ios":"levelo://app?vid=c097f066-7651-435e-913f-a8a7838aba88"},"vehicle_type_id":"4","last_reported":1759003788,"current_range_meters":14400,"station_id":"","pricing_plan_id":"cebpf4jnsgd1na2vs0mg"},{"bike_id":"a1e2b7f3-f53e-4b6a-b8f1-27b0fbf9634d","system_id":"levelo_inurba_marseille","lat":43.31571,"lon":5.37604,"is_reserved":false,"is_disabled":false,"rental_uris":{"android":"levelo://app?vid=a1e2b7f3-f53e-4b6a-b8f1-27b0fbf9634d","ios":"levelo://app?vid=a1e2b7f3-f53e-4b6a-b8f1-27b0fbf9634d"},"vehicle_type_id":"4","last_reported":1759003788,"current_range_meters":14800,"station_id":"","pricing_plan_id":"cebpf4jnsgd1na2vs0mg"},{"bike_id":"27f6647d-c3c7-4cc3-95b3-5de9ea4e80bb","system_id":"levelo_inurba_marseille","lat":43.29035,"lon":5.38649,"is_reserved":false,"is_disabled":false,"rental_uris":{"android":"levelo://app?vid=27f6647d-c3c7-4cc3-95b3-5de9ea4e80bb","ios":"levelo://app?vid=27f6647d-c3c7-4cc3-95b3-5de9ea4e80bb"},"vehicle_type_id":"4","last_reported":1759003788,"current_range_meters":14800,"station_id":"ce4bh4p2rcd13ifvqe0g","pricing_plan_id":"cebpf4jnsgd1na2vs0mg"},{"bike_id":"9ca7e84c-77ff-4a19-8127-6101678aa138","system_id":"levelo_inurba_marseille","lat":43.27948,"lon":5.41053,"is_reserved":false,"is_disabled":false,"rental_uris":{"android":"levelo://app?vid=9ca7e84c-77ff-4a19-8127-6101678aa138","ios":"levelo://app?vid=9ca7e84c-77ff-4a19-8127-6101678aa138"},"vehicle_type_id":"4","last_reported":1759003788,"current_range_meters":14800,"station_id":"ce4bhnp2rcd13ifvqh0g","pricing_plan_id":"cebpf4jnsgd1na2vs0mg"},{"bike_id":"f6776af2-0c3e-4302-9d66-0f6bb5d69516","system_id":"levelo_inurba_marseille","lat":43.31273,"lon":5.40167,"is_reserved":false,"is_disabled":false,"rental_uris":{"android":"levelo://app?vid=f6776af2-0c3e-4302-9d66-0f6bb5d69516","ios":"levelo://app?vid=f6776af2-0c3e-4302-9d66-0f6bb5d69516"},"vehicle_type_id":"4","last_reported":1759003788,"current_range_meters":14400,"station_id":"ce4bh092rcd13ifvqd30","pricing_plan_id":"cebpf4jnsgd1na2vs0mg"},{"bike_id":"5d9f32aa-508a-4b1b-96ab-848ee4d806e1","system_id":"levelo_inurba_marseille","lat":43.29848,"lon":5.36289,"is_reserved":false,"is_disabled":false,"rental_uris":{"android":"levelo://app?vid=5d9f32aa-508a-4b1b-96ab-848ee4d806e1","ios":"levelo://app?vid=5d9f32aa-508a-4b1b-96ab-848ee4d806e1"},"vehicle_type_id":"4","last_reported":1759003788,"current_range_meters":14800,"station_id":"ce4bgpp2rcd13ifvqc3g","pricing_plan_id":"cebpf4jnsgd1na2vs0mg"},{"bike_id":"6d98ab21-1faa-4b15-97b2-a1dd6f53a5a7","system_id":"levelo_inurba_marseille","lat":43.27447,"lon":5.39399,"is_reserved":false,"is_disabled":true,"rental_uris":{"android":"levelo://app?vid=6d98ab21-1faa-4b15-97b2-a1dd6f53a5a7","ios":"levelo://app?vid=6d98ab21-1faa-4b15-97b2-a1dd6f53a5a7"},"vehicle_type_id":"4","last_reported":1759003788,"current_range_meters":14800,"station_id":"ce4bhdp2rcd13ifvqf20","pricing_plan_id":"cebpf4jnsgd1na2vs0mg"},{"bike_id":"9cff1013-db34-48fb-94ba-1e80c3dc4a79","system_id":"levelo_inurba_marseille","lat":43.30312,"lon":5.36905,"is_reserved":false,"is_disabled":false,"rental_uris":{"android":"levelo://app?vid=9cff1013-db34-48fb-94ba-1e80c3dc4a79","ios":"levelo://app?vid=9cff1013-db34-48fb-94ba-1e80c3dc4a79"},"vehicle_type_id":"4","last_reported":1759003788,"current_range_meters":14800,"station_id":"ce4bgqh2rcd13ifvqc5g","pricing_plan_id":"cebpf4jnsgd1na2vs0mg"},{"bike_id":"8c833b69-2812-4df4-982b-ac4023b002ec","system_id":"levelo_inurba_marseille","lat":43.29874,"lon":5.39732,"is_reserved":false,"is_disabled":false,"rental_uris":{"android":"levelo://app?vid=8c833b69-2812-4df4-982b-ac4023b002ec","ios":"levelo://app?vid=8c833b69-2812-4df4-982b-ac4023b002ec"},"vehicle_type_id":"4","last_reported":1759003788,"current_range_meters":14800,"station_id":"ce4bh0h2rcd13ifvqd50","pricing_plan_id":"cebpf4jnsgd1na2vs0mg"},{"bike_id":"e9c0f363-d787-45a7-892e-45e79cc69ae0","system_id":"levelo_inurba_marseille","lat":43.30315,"lon":5.36886,"is_reserved":false,"is_disabled":false,"rental_uris":{"android":"levelo://app?vid=e9c0f363-d787-45a7-892e-45e79cc69ae0","ios":"levelo://app?vid=e9c0f363-d787-45a7-892e-45e79cc69ae0"},"vehicle_type_id":"4","last_reported":1759003788,"current_range_meters":15200,"station_id":"ce4bgqh2rcd13ifvqc5g","pricing_plan_id":"cebpf4jnsgd1na2vs0mg"},{"bike_id":"e54b8c9f-4f66-4c52-b603-24745fa68456","system_id":"levelo_inurba_marseille","lat":43.25708,"lon":5.41099,"is_reserved":false,"is_disabled":false,"rental_uris":{"android":"levelo://app?vid=e54b8c9f-4f66-4c52-b603-24745fa68456","ios":"levelo://app?vid=e54b8c9f-4f66-4c52-b603-24745fa68456"},"vehicle_type_id":"4","last_reported":1759003788,"current_range_meters":15200,"station_id":"ce4bhkp2rcd13ifvqgd0","pricing_plan_id":"cebpf4jnsgd1na2vs0mg"},{"bike_id":"2b2cbd45-3ffc-4b53-9c33-06f261801ce3","system_id":"levelo_inurba_marseille","lat":43.26788,"lon":5.394152,"is_reserved":false,"is_disabled":false,"rental_uris":{"android":"levelo://app?vid=2b2cbd45-3ffc-4b53-9c33-06f261801ce3","ios":"levelo://app?vid=2b2cbd45-3ffc-4b53-9c33-06f261801ce3"},"vehicle_type_id":"4","last_reported":1759003788,"current_range_meters":14800,"station_id":"ce4bhh12rcd13ifvqfg0","pricing_plan_id":"cebpf4jnsgd1na2vs0mg"},{"bike_id":"b219c086-dfbe-4625-9649-9c9028fcc568","system_id":"levelo_inurba_marseille","lat":43.24806,"lon":5.37448,"is_reserved":false,"is_disabled":false,"rental_uris":{"android":"levelo://app?vid=b219c086-dfbe-4625-9649-9c9028fcc568","ios":"levelo://app?vid=b219c086-dfbe-4625-9649-9c9028fcc568"},"vehicle_type_id":"4","last_reported":1759003788,"current_range_meters":15200,"station_id":"ce4bhgh2rcd13ifvqfb0","pricing_plan_id":"cebpf4jnsgd1na2vs0mg"},{"bike_id":"fd9f3d61-f02d-4c4f-9eb7-db8cc72f0c9e","system_id":"levelo_inurba_marseille","lat":43.29919,"lon":5.38158,"is_reserved":false,"is_disabled":false,"rental_uris":{"android":"levelo://app?vid=fd9f3d61-f02d-4c4f-9eb7-db8cc72f0c9e","ios":"levelo://app?vid=fd9f3d61-f02d-4c4f-9eb7-db8cc72f0c9e"},"vehicle_type_id":"4","last_reported":1759003788,"current_range_meters":15200,"station_id":"ce4bgj12rcd13ifvqbc0","pricing_plan_id":"cebpf4jnsgd1na2vs0mg"},{"bike_id":"8297aaee-9269-4dc9-9595-87b87cad7ade","system_id":"levelo_inurba_marseille","lat":43.26492,"lon":5.39543,"is_reserved":false,"is_disabled":false,"rental_uris":{"android":"levelo://app?vid=8297aaee-9269-4dc9-9595-87b87cad7ade","ios":"levelo://app?vid=8297aaee-9269-4dc9-9595-87b87cad7ade"},"vehicle_type_id":"4","last_reported":1759003788,"current_range_meters":14800,"station_id":"ce4bhi12rcd13ifvqfq0","pricing_plan_id":"cebpf4jnsgd1na2vs0mg"},{"bike_id":"d66cd03b-dbeb-4aa4-961e-bd97aeefe4a4","system_id":"levelo_inurba_marseille","lat":43.2598,"lon":5.41393,"is_reserved":false,"is_disabled":false,"rental_uris":{"android":"levelo://app?vid=d66cd03b-dbeb-4aa4-961e-bd97aeefe4a4","ios":"levelo://app?vid=d66cd03b-dbeb-4aa4-961e-bd97aeefe4a4"},"vehicle_type_id":"4","last_reported":1759003788,"current_range_meters":15200,"station_id":"","pricing_plan_id":"cebpf4jnsgd1na2vs0mg"},{"bike_id":"43d645dd-677c-4ac1-b926-06a3dbb318d7","system_id":"levelo_inurba_marseille","lat":43.28269,"lon":5.35072,"is_reserved":false,"is_disabled":false,"rental_uris":{"android":"levelo://app?vid=43d645dd-677c-4ac1-b926-06a3dbb318d7","ios":"levelo://app?vid=43d645dd-677c-4ac1-b926-06a3dbb318d7"},"vehicle_type_id":"4","last_reported":1759003788,"current_range_meters":15200,"station_id":"ce4bhbp2rcd13ifvqerg","pricing_plan_id":"cebpf4jnsgd1na2vs0mg"},{"bike_id":"2243febf-ebaf-474b-8e3e-799410e4c867","system_id":"levelo_inurba_marseille","lat":43.32565,"lon":5.36369,"is_reserved":false,"is_disabled":false,"rental_uris":{"android":"levelo://app?vid=2243febf-ebaf-474b-8e3e-799410e4c867","ios":"levelo://app?vid=2243febf-ebaf-474b-8e3e-799410e4c867"},"vehicle_type_id":"4","last_reported":1759003788,"current_range_meters":16000,"station_id":"","pricing_plan_id":"cebpf4jnsgd1na2vs0mg"},{"bike_id":"33ac03ed-dfbb-4aa1-aee0-f01e22e067d9","system_id":"levelo_inurba_marseille","lat":43.24621,"lon":5.43165,"is_reserved":false,"is_disabled":false,"rental_uris":{"android":"levelo://app?vid=33ac03ed-dfbb-4aa1-aee0-f01e22e067d9","ios":"levelo://app?vid=33ac03ed-dfbb-4aa1-aee0-f01e22e067d9"},"vehicle_type_id":"4","last_reported":1759003788,"current_range_meters":16000,"station_id":"st_d2m6c4gdas8pm72e190g","pricing_plan_id":"cebpf4jnsgd1na2vs0mg"},{"bike_id":"86df1d0e-8d01-4163-8b03-248398a72975","system_id":"levelo_inurba_marseille","lat":43.314857,"lon":5.373519,"is_reserved":false,"is_disabled":false,"rental_uris":{"android":"levelo://app?vid=86df1d0e-8d01-4163-8b03-248398a72975","ios":"levelo://app?vid=86df1d0e-8d01-4163-8b03-248398a72975"},"vehicle_type_id":"4","last_reported":1759003788,"current_range_meters":16000,"station_id":"ce4bgt12rcd13ifvqcd0","pricing_plan_id":"cebpf4jnsgd1na2vs0mg"},{"bike_id":"cffb76d0-d641-47dd-912d-8b7246cf4e57","system_id":"levelo_inurba_marseille","lat":43.30929,"lon":5.40141,"is_reserved":false,"is_disabled":false,"rental_uris":{"android":"levelo://app?vid=cffb76d0-d641-47dd-912d-8b7246cf4e57","ios":"levelo://app?vid=cffb76d0-d641-47dd-912d-8b7246cf4e57"},"vehicle_type_id":"4","last_reported":1759003788,"current_range_meters":16000,"station_id":"ce4bgvp2rcd13ifvqct0","pricing_plan_id":"cebpf4jnsgd1na2vs0mg"},{"bike_id":"8ba5e33b-48f1-42b5-a531-76085f7229c8","system_id":"levelo_inurba_marseille","lat":43.246336,"lon":5.4317,"is_reserved":false,"is_disabled":false,"rental_uris":{"android":"levelo://app?vid=8ba5e33b-48f1-42b5-a531-76085f7229c8","ios":"levelo://app?vid=8ba5e33b-48f1-42b5-a531-76085f7229c8"},"vehicle_type_id":"4","last_reported":1759003788,"current_range_meters":16000,"station_id":"st_d2m6c4gdas8pm72e190g","pricing_plan_id":"cebpf4jnsgd1na2vs0mg"},{"bike_id":"3359e024-0981-4310-b73d-27002de66076","system_id":"levelo_inurba_marseille","lat":43.2985,"lon":5.36284,"is_reserved":false,"is_disabled":false,"rental_uris":{"android":"levelo://app?vid=3359e024-0981-4310-b73d-27002de66076","ios":"levelo://app?vid=3359e024-0981-4310-b73d-27002de66076"},"vehicle_type_id":"4","last_reported":1759003788,"current_range_meters":16000,"station_id":"ce4bgpp2rcd13ifvqc3g","pricing_plan_id":"cebpf4jnsgd1na2vs0mg"},{"bike_id":"3d3bc9f8-a736-4546-bd01-0f811983a92b","system_id":"levelo_inurba_marseille","lat":43.31069,"lon":5.38348,"is_reserved":false,"is_disabled":false,"rental_uris":{"android":"levelo://app?vid=3d3bc9f8-a736-4546-bd01-0f811983a92b","ios":"levelo://app?vid=3d3bc9f8-a736-4546-bd01-0f811983a92b"},"vehicle_type_id":"4","last_reported":1759003788,"current_range_meters":16000,"station_id":"ce4bgv92rcd13ifvqcr0","pricing_plan_id":"cebpf4jnsgd1na2vs0mg"},{"bike_id":"6de60074-b3e5-4470-9347-38b77e41b7e1","system_id":"levelo_inurba_marseille","lat":43.32359,"lon":5.36761,"is_reserved":false,"is_disabled":false,"rental_uris":{"android":"levelo://app?vid=6de60074-b3e5-4470-9347-38b77e41b7e1","ios":"levelo://app?vid=6de60074-b3e5-4470-9347-38b77e41b7e1"},"vehicle_type_id":"4","last_reported":1759003788,"current_range_meters":16000,"station_id":"ce4bhsh2rcd13ifvqi2g","pricing_plan_id":"cebpf4jnsgd1na2vs0mg"},{"bike_id":"20b5a1ed-2def-4374-b8c1-61fc12964f2b","system_id":"levelo_inurba_marseille","lat":43.24794,"lon":5.37453,"is_reserved":false,"is_disabled":false,"rental_uris":{"android":"levelo://app?vid=20b5a1ed-2def-4374-b8c1-61fc12964f2b","ios":"levelo://app?vid=20b5a1ed-2def-4374-b8c1-61fc12964f2b"},"vehicle_type_id":"4","last_reported":1759003788,"current_range_meters":16000,"station_id":"ce4bhgh2rcd13ifvqfb0","pricing_plan_id":"cebpf4jnsgd1na2vs0mg"},{"bike_id":"258ab053-1083-4ca9-a32a-1e85f085fc22","system_id":"levelo_inurba_marseille","lat":43.337444,"lon":5.374475,"is_reserved":false,"is_disabled":false,"rental_uris":{"android":"levelo://app?vid=258ab053-1083-4ca9-a32a-1e85f085fc22","ios":"levelo://app?vid=258ab053-1083-4ca9-a32a-1e85f085fc22"},"vehicle_type_id":"4","last_reported":1759003788,"current_range_meters":16000,"station_id":"","pricing_plan_id":"cebpf4jnsgd1na2vs0mg"},{"bike_id":"f62fe733-90ac-444a-a20a-73d227678ff7","system_id":"levelo_inurba_marseille","lat":43.29607,"lon":5.3774,"is_reserved":false,"is_disabled":true,"rental_uris":{"android":"levelo://app?vid=f62fe733-90ac-444a-a20a-73d227678ff7","ios":"levelo://app?vid=f62fe733-90ac-444a-a20a-73d227678ff7"},"vehicle_type_id":"4","last_reported":1759003788,"current_range_meters":16400,"station_id":"ce4bgi92rcd13ifvqb90","pricing_plan_id":"cebpf4jnsgd1na2vs0mg"},{"bike_id":"95bafeb0-6c7b-407a-a73b-a6569ff5cb66","system_id":"levelo_inurba_marseille","lat":43.33782,"lon":5.3747,"is_reserved":false,"is_disabled":false,"rental_uris":{"android":"levelo://app?vid=95bafeb0-6c7b-407a-a73b-a6569ff5cb66","ios":"levelo://app?vid=95bafeb0-6c7b-407a-a73b-a6569ff5cb66"},"vehicle_type_id":"4","last_reported":1759003788,"current_range_meters":16400,"station_id":"","pricing_plan_id":"cebpf4jnsgd1na2vs0mg"},{"bike_id":"ae17ab70-4248-4bb7-8c1b-d78473914a68","system_id":"levelo_inurba_marseille","lat":43.25003,"lon":5.38941,"is_reserved":false,"is_disabled":false,"rental_uris":{"android":"levelo://app?vid=ae17ab70-4248-4bb7-8c1b-d78473914a68","ios":"levelo://app?vid=ae17ab70-4248-4bb7-8c1b-d78473914a68"},"vehicle_type_id":"4","last_reported":1759003788,"current_range_meters":16400,"station_id":"ce4bhgp2rcd13ifvqfd0","pricing_plan_id":"cebpf4jnsgd1na2vs0mg"},{"bike_id":"f4c53ff4-73a4-4134-bb3f-bbf464878afb","system_id":"levelo_inurba_marseille","lat":43.21735,"lon":5.34614,"is_reserved":false,"is_disabled":true,"rental_uris":{"android":"levelo://app?vid=f4c53ff4-73a4-4134-bb3f-bbf464878afb","ios":"levelo://app?vid=f4c53ff4-73a4-4134-bb3f-bbf464878afb"},"vehicle_type_id":"4","last_reported":1759003788,"current_range_meters":16400,"station_id":"st_cvj6r9ubvosntc0bgbag","pricing_plan_id":"cebpf4jnsgd1na2vs0mg"},{"bike_id":"7d2318b8-9347-40cd-abff-4e4edc1a5a9d","system_id":"levelo_inurba_marseille","lat":43.2849,"lon":5.38562,"is_reserved":false,"is_disabled":false,"rental_uris":{"android":"levelo://app?vid=7d2318b8-9347-40cd-abff-4e4edc1a5a9d","ios":"levelo://app?vid=7d2318b8-9347-40cd-abff-4e4edc1a5a9d"},"vehicle_type_id":"4","last_reported":1759003788,"current_range_meters":16400,"station_id":"ce4bh8p2rcd13ifvqeb0","pricing_plan_id":"cebpf4jnsgd1na2vs0mg"},{"bike_id":"1afe69d4-a756-4f07-92d0-0ad16ec3c39b","system_id":"levelo_inurba_marseille","lat":43.31529,"lon":5.38044,"is_reserved":false,"is_disabled":false,"rental_uris":{"android":"levelo://app?vid=1afe69d4-a756-4f07-92d0-0ad16ec3c39b","ios":"levelo://app?vid=1afe69d4-a756-4f07-92d0-0ad16ec3c39b"},"vehicle_type_id":"4","last_reported":1759003788,"current_range_meters":16000,"station_id":"ce4bhsp2rcd13ifvqi50","pricing_plan_id":"cebpf4jnsgd1na2vs0mg"},{"bike_id":"d0f84d09-c820-4357-8042-bcf812d529a0","system_id":"levelo_inurba_marseille","lat":43.29521,"lon":5.38542,"is_reserved":false,"is_disabled":false,"rental_uris":{"android":"levelo://app?vid=d0f84d09-c820-4357-8042-bcf812d529a0","ios":"levelo://app?vid=d0f84d09-c820-4357-8042-bcf812d529a0"},"vehicle_type_id":"4","last_reported":1759003788,"current_range_meters":16400,"station_id":"ce4bgih2rcd13ifvqba0","pricing_plan_id":"cebpf4jnsgd1na2vs0mg"},{"bike_id":"d9e6edd7-f678-4678-9509-8e8915daedd9","system_id":"levelo_inurba_marseille","lat":43.29284,"lon":5.38441,"is_reserved":false,"is_disabled":false,"rental_uris":{"android":"levelo://app?vid=d9e6edd7-f678-4678-9509-8e8915daedd9","ios":"levelo://app?vid=d9e6edd7-f678-4678-9509-8e8915daedd9"},"vehicle_type_id":"4","last_reported":1759003788,"current_range_meters":16400,"station_id":"ce4bh692rcd13ifvqea0","pricing_plan_id":"cebpf4jnsgd1na2vs0mg"},{"bike_id":"1081259d-d17a-418b-aac6-72720aa254e1","system_id":"levelo_inurba_marseille","lat":43.28698,"lon":5.39987,"is_reserved":false,"is_disabled":false,"rental_uris":{"android":"levelo://app?vid=1081259d-d17a-418b-aac6-72720aa254e1","ios":"levelo://app?vid=1081259d-d17a-418b-aac6-72720aa254e1"},"vehicle_type_id":"4","last_reported":1759003788,"current_range_meters":16400,"station_id":"ce4bho92rcd13ifvqh3g","pricing_plan_id":"cebpf4jnsgd1na2vs0mg"},{"bike_id":"f29872a8-a444-41a4-9319-d1a76da2f45e","system_id":"levelo_inurba_marseille","lat":43.30558,"lon":5.36538,"is_reserved":false,"is_disabled":false,"rental_uris":{"android":"levelo://app?vid=f29872a8-a444-41a4-9319-d1a76da2f45e","ios":"levelo://app?vid=f29872a8-a444-41a4-9319-d1a76da2f45e"},"vehicle_type_id":"4","last_reported":1759003788,"current_range_meters":16400,"station_id":"ce4bgs12rcd13ifvqcag","pricing_plan_id":"cebpf4jnsgd1na2vs0mg"},{"bike_id":"91f03681-11bd-4a24-811a-6c09a89c8efe","system_id":"levelo_inurba_marseille","lat":43.25,"lon":5.38934,"is_reserved":false,"is_disabled":false,"rental_uris":{"android":"levelo://app?vid=91f03681-11bd-4a24-811a-6c09a89c8efe","ios":"levelo://app?vid=91f03681-11bd-4a24-811a-6c09a89c8efe"},"vehicle_type_id":"4","last_reported":1759003788,"current_range_meters":16400,"station_id":"ce4bhgp2rcd13ifvqfd0","pricing_plan_id":"cebpf4jnsgd1na2vs0mg"},{"bike_id":"ad08563b-9fa2-4201-ac5b-831247ae1890","system_id":"levelo_inurba_marseille","lat":43.21184,"lon":5.35089,"is_reserved":false,"is_disabled":false,"rental_uris":{"android":"levelo://app?vid=ad08563b-9fa2-4201-ac5b-831247ae1890","ios":"levelo://app?vid=ad08563b-9fa2-4201-ac5b-831247ae1890"},"vehicle_type_id":"4","last_reported":1759003788,"current_range_meters":16400,"station_id":"st_cvj6sg6p6f1abm77japg","pricing_plan_id":"cebpf4jnsgd1na2vs0mg"},{"bike_id":"2627e786-54f0-4266-a10b-eaa9f8636f5c","system_id":"levelo_inurba_marseille","lat":43.28858,"lon":5.35852,"is_reserved":false,"is_disabled":false,"rental_uris":{"android":"levelo://app?vid=2627e786-54f0-4266-a10b-eaa9f8636f5c","ios":"levelo://app?vid=2627e786-54f0-4266-a10b-eaa9f8636f5c"},"vehicle_type_id":"4","last_reported":1759003788,"current_range_meters":16400,"station_id":"ce4bhb12rcd13ifvqem0","pricing_plan_id":"cebpf4jnsgd1na2vs0mg"},{"bike_id":"b1e2a7d8-ff6f-41fe-bae9-46bd7a01afa8","system_id":"levelo_inurba_marseille","lat":43.26493,"lon":5.39539,"is_reserved":false,"is_disabled":false,"rental_uris":{"android":"levelo://app?vid=b1e2a7d8-ff6f-41fe-bae9-46bd7a01afa8","ios":"levelo://app?vid=b1e2a7d8-ff6f-41fe-bae9-46bd7a01afa8"},"vehicle_type_id":"4","last_reported":1759003788,"current_range_meters":16400,"station_id":"ce4bhi12rcd13ifvqfq0","pricing_plan_id":"cebpf4jnsgd1na2vs0mg"},{"bike_id":"a5411636-713e-4195-a6c9-4f7d84e639d4","system_id":"levelo_inurba_marseille","lat":43.30654,"lon":5.40083,"is_reserved":false,"is_disabled":false,"rental_uris":{"android":"levelo://app?vid=a5411636-713e-4195-a6c9-4f7d84e639d4","ios":"levelo://app?vid=a5411636-713e-4195-a6c9-4f7d84e639d4"},"vehicle_type_id":"4","last_reported":1759003788,"current_range_meters":16800,"station_id":"ce4bh112rcd13ifvqda0","pricing_plan_id":"cebpf4jnsgd1na2vs0mg"},{"bike_id":"e8d7a538-138e-45dc-91f9-0f4717e317ea","system_id":"levelo_inurba_marseille","lat":43.25822,"lon":5.39434,"is_reserved":false,"is_disabled":false,"rental_uris":{"android":"levelo://app?vid=e8d7a538-138e-45dc-91f9-0f4717e317ea","ios":"levelo://app?vid=e8d7a538-138e-45dc-91f9-0f4717e317ea"},"vehicle_type_id":"4","last_reported":1759003788,"current_range_meters":16800,"station_id":"ce4bhip2rcd13ifvqft0","pricing_plan_id":"cebpf4jnsgd1na2vs0mg"},{"bike_id":"2c6518be-b3f0-42d2-93c9-c1de9e54885f","system_id":"levelo_inurba_marseille","lat":43.29227,"lon":5.38219,"is_reserved":false,"is_disabled":false,"rental_uris":{"android":"levelo://app?vid=2c6518be-b3f0-42d2-93c9-c1de9e54885f","ios":"levelo://app?vid=2c6518be-b3f0-42d2-93c9-c1de9e54885f"},"vehicle_type_id":"4","last_reported":1759003788,"current_range_meters":16800,"station_id":"","pricing_plan_id":"cebpf4jnsgd1na2vs0mg"},{"bike_id":"c9916796-5f07-4d22-aceb-87882fb08ac5","system_id":"levelo_inurba_marseille","lat":43.30569,"lon":5.36559,"is_reserved":false,"is_disabled":false,"rental_uris":{"android":"levelo://app?vid=c9916796-5f07-4d22-aceb-87882fb08ac5","ios":"levelo://app?vid=c9916796-5f07-4d22-aceb-87882fb08ac5"},"vehicle_type_id":"4","last_reported":1759003788,"current_range_meters":16800,"station_id":"ce4bgs12rcd13ifvqcag","pricing_plan_id":"cebpf4jnsgd1na2vs0mg"},{"bike_id":"49c21561-d766-495b-8241-6829b7e4c05b","system_id":"levelo_inurba_marseille","lat":43.31319,"lon":5.39698,"is_reserved":false,"is_disabled":false,"rental_uris":{"android":"levelo://app?vid=49c21561-d766-495b-8241-6829b7e4c05b","ios":"levelo://app?vid=49c21561-d766-495b-8241-6829b7e4c05b"},"vehicle_type_id":"4","last_reported":1759003788,"current_range_meters":16800,"station_id":"ce4bgvp2rcd13ifvqcu0","pricing_plan_id":"cebpf4jnsgd1na2vs0mg"},{"bike_id":"84467c82-901f-47c0-8965-7e26514b9a9a","system_id":"levelo_inurba_marseille","lat":43.27573,"lon":5.38433,"is_reserved":false,"is_disabled":false,"rental_uris":{"android":"levelo://app?vid=84467c82-901f-47c0-8965-7e26514b9a9a","ios":"levelo://app?vid=84467c82-901f-47c0-8965-7e26514b9a9a"},"vehicle_type_id":"4","last_reported":1759003788,"current_range_meters":16400,"station_id":"ce4bhh92rcd13ifvqfi0","pricing_plan_id":"cebpf4jnsgd1na2vs0mg"},{"bike_id":"32398d44-b323-4e01-9869-23e8cadf461f","system_id":"levelo_inurba_marseille","lat":43.24809,"lon":5.37459,"is_reserved":false,"is_disabled":false,"rental_uris":{"android":"levelo://app?vid=32398d44-b323-4e01-9869-23e8cadf461f","ios":"levelo://app?vid=32398d44-b323-4e01-9869-23e8cadf461f"},"vehicle_type_id":"4","last_reported":1759003788,"current_range_meters":16800,"station_id":"ce4bhgh2rcd13ifvqfb0","pricing_plan_id":"cebpf4jnsgd1na2vs0mg"},{"bike_id":"7ac81eae-aed2-4f3f-a100-b35f399befc9","system_id":"levelo_inurba_marseille","lat":43.25095,"lon":5.40322,"is_reserved":false,"is_disabled":false,"rental_uris":{"android":"levelo://app?vid=7ac81eae-aed2-4f3f-a100-b35f399befc9","ios":"levelo://app?vid=7ac81eae-aed2-4f3f-a100-b35f399befc9"},"vehicle_type_id":"4","last_reported":1759003788,"current_range_meters":16800,"station_id":"ce4bhlh2rcd13ifvqgig","pricing_plan_id":"cebpf4jnsgd1na2vs0mg"},{"bike_id":"145b2edc-cea0-40bb-baa7-215b9f032ced","system_id":"levelo_inurba_marseille","lat":43.28457,"lon":5.35891,"is_reserved":false,"is_disabled":false,"rental_uris":{"android":"levelo://app?vid=145b2edc-cea0-40bb-baa7-215b9f032ced","ios":"levelo://app?vid=145b2edc-cea0-40bb-baa7-215b9f032ced"},"vehicle_type_id":"4","last_reported":1759003788,"current_range_meters":16800,"station_id":"ce4bhah2rcd13ifvqei0","pricing_plan_id":"cebpf4jnsgd1na2vs0mg"},{"bike_id":"c8dab69c-fcb7-4b77-87a3-a80d030047c2","system_id":"levelo_inurba_marseille","lat":43.28842,"lon":5.35861,"is_reserved":false,"is_disabled":false,"rental_uris":{"android":"levelo://app?vid=c8dab69c-fcb7-4b77-87a3-a80d030047c2","ios":"levelo://app?vid=c8dab69c-fcb7-4b77-87a3-a80d030047c2"},"vehicle_type_id":"4","last_reported":1759003788,"current_range_meters":16800,"station_id":"ce4bhb12rcd13ifvqem0","pricing_plan_id":"cebpf4jnsgd1na2vs0mg"},{"bike_id":"6c3c1d7f-1f19-40b3-9c55-c47e689537fd","system_id":"levelo_inurba_marseille","lat":43.28886,"lon":5.37865,"is_reserved":false,"is_disabled":false,"rental_uris":{"android":"levelo://app?vid=6c3c1d7f-1f19-40b3-9c55-c47e689537fd","ios":"levelo://app?vid=6c3c1d7f-1f19-40b3-9c55-c47e689537fd"},"vehicle_type_id":"4","last_reported":1759003788,"current_range_meters":16800,"station_id":"","pricing_plan_id":"cebpf4jnsgd1na2vs0mg"},{"bike_id":"afb3a0b1-c807-4eff-8fb4-4964910f49c8","system_id":"levelo_inurba_marseille","lat":43.21749,"lon":5.34607,"is_reserved":false,"is_disabled":true,"rental_uris":{"android":"levelo://app?vid=afb3a0b1-c807-4eff-8fb4-4964910f49c8","ios":"levelo://app?vid=afb3a0b1-c807-4eff-8fb4-4964910f49c8"},"vehicle_type_id":"4","last_reported":1759003788,"current_range_meters":16800,"station_id":"","pricing_plan_id":"cebpf4jnsgd1na2vs0mg"},{"bike_id":"014a8419-e7bf-49c9-ae4d-3106dfaf3b6a","system_id":"levelo_inurba_marseille","lat":43.2903,"lon":5.38641,"is_reserved":false,"is_disabled":false,"rental_uris":{"android":"levelo://app?vid=014a8419-e7bf-49c9-ae4d-3106dfaf3b6a","ios":"levelo://app?vid=014a8419-e7bf-49c9-ae4d-3106dfaf3b6a"},"vehicle_type_id":"4","last_reported":1759003788,"current_range_meters":16800,"station_id":"ce4bh4p2rcd13ifvqe0g","pricing_plan_id":"cebpf4jnsgd1na2vs0mg"},{"bike_id":"b5a89a07-4e3e-4d5f-9f44-8e15ef506bf9","system_id":"levelo_inurba_marseille","lat":43.29264,"lon":5.37629,"is_reserved":false,"is_disabled":false,"rental_uris":{"android":"levelo://app?vid=b5a89a07-4e3e-4d5f-9f44-8e15ef506bf9","ios":"levelo://app?vid=b5a89a07-4e3e-4d5f-9f44-8e15ef506bf9"},"vehicle_type_id":"4","last_reported":1759003788,"current_range_meters":16800,"station_id":"ce4bgi12rcd13ifvqb80","pricing_plan_id":"cebpf4jnsgd1na2vs0mg"},{"bike_id":"2dbcd6e2-9b7a-4443-a6df-bd066925dd58","system_id":"levelo_inurba_marseille","lat":43.29969,"lon":5.38492,"is_reserved":false,"is_disabled":false,"rental_uris":{"android":"levelo://app?vid=2dbcd6e2-9b7a-4443-a6df-bd066925dd58","ios":"levelo://app?vid=2dbcd6e2-9b7a-4443-a6df-bd066925dd58"},"vehicle_type_id":"4","last_reported":1759003788,"current_range_meters":16800,"station_id":"ce4bgj92rcd13ifvqbd0","pricing_plan_id":"cebpf4jnsgd1na2vs0mg"},{"bike_id":"1dad2113-89e2-44fc-a0b6-ddd6a09baff1","system_id":"levelo_inurba_marseille","lat":43.337444,"lon":5.374475,"is_reserved":false,"is_disabled":false,"rental_uris":{"android":"levelo://app?vid=1dad2113-89e2-44fc-a0b6-ddd6a09baff1","ios":"levelo://app?vid=1dad2113-89e2-44fc-a0b6-ddd6a09baff1"},"vehicle_type_id":"4","last_reported":1759003788,"current_range_meters":16800,"station_id":"","pricing_plan_id":"cebpf4jnsgd1na2vs0mg"},{"bike_id":"2a2c01e2-63a1-40d5-aaf0-079161b5b430","system_id":"levelo_inurba_marseille","lat":43.29555,"lon":5.42295,"is_reserved":false,"is_disabled":false,"rental_uris":{"android":"levelo://app?vid=2a2c01e2-63a1-40d5-aaf0-079161b5b430","ios":"levelo://app?vid=2a2c01e2-63a1-40d5-aaf0-079161b5b430"},"vehicle_type_id":"4","last_reported":1759003788,"current_range_meters":16800,"station_id":"ce4bhph2rcd13ifvqhdg","pricing_plan_id":"cebpf4jnsgd1na2vs0mg"},{"bike_id":"531562ee-0097-46f7-8be5-f7d665bb95a8","system_id":"levelo_inurba_marseille","lat":43.27495,"lon":5.42457,"is_reserved":false,"is_disabled":false,"rental_uris":{"android":"levelo://app?vid=531562ee-0097-46f7-8be5-f7d665bb95a8","ios":"levelo://app?vid=531562ee-0097-46f7-8be5-f7d665bb95a8"},"vehicle_type_id":"4","last_reported":1759003788,"current_range_meters":17200,"station_id":"ce4bhn92rcd13ifvqgrg","pricing_plan_id":"cebpf4jnsgd1na2vs0mg"},{"bike_id":"3cb1dae7-6bcd-41e5-b1b7-c1d25c751a99","system_id":"levelo_inurba_marseille","lat":43.337635,"lon":5.374385,"is_reserved":false,"is_disabled":false,"rental_uris":{"android":"levelo://app?vid=3cb1dae7-6bcd-41e5-b1b7-c1d25c751a99","ios":"levelo://app?vid=3cb1dae7-6bcd-41e5-b1b7-c1d25c751a99"},"vehicle_type_id":"4","last_reported":1759003788,"current_range_meters":17200,"station_id":"","pricing_plan_id":"cebpf4jnsgd1na2vs0mg"},{"bike_id":"d58ddcbe-70d7-4259-abad-73cc43b8b8b9","system_id":"levelo_inurba_marseille","lat":43.230541,"lon":5.354915,"is_reserved":false,"is_disabled":true,"rental_uris":{"android":"levelo://app?vid=d58ddcbe-70d7-4259-abad-73cc43b8b8b9","ios":"levelo://app?vid=d58ddcbe-70d7-4259-abad-73cc43b8b8b9"},"vehicle_type_id":"4","last_reported":1759003788,"current_range_meters":17200,"station_id":"cpo3342slgdg3j2ifvpg","pricing_plan_id":"cebpf4jnsgd1na2vs0mg"},{"bike_id":"5fe7f407-3191-4d84-bcf8-5bce6d58e56d","system_id":"levelo_inurba_marseille","lat":43.22925,"lon":5.35367,"is_reserved":false,"is_disabled":false,"rental_uris":{"android":"levelo://app?vid=5fe7f407-3191-4d84-bcf8-5bce6d58e56d","ios":"levelo://app?vid=5fe7f407-3191-4d84-bcf8-5bce6d58e56d"},"vehicle_type_id":"4","last_reported":1759003788,"current_range_meters":17200,"station_id":"cpo3532slgdg3j2ikp40","pricing_plan_id":"cebpf4jnsgd1na2vs0mg"},{"bike_id":"ae6ae89a-12d4-4e8c-a853-04a1ec6cd7ec","system_id":"levelo_inurba_marseille","lat":43.286063,"lon":5.351067,"is_reserved":false,"is_disabled":false,"rental_uris":{"android":"levelo://app?vid=ae6ae89a-12d4-4e8c-a853-04a1ec6cd7ec","ios":"levelo://app?vid=ae6ae89a-12d4-4e8c-a853-04a1ec6cd7ec"},"vehicle_type_id":"4","last_reported":1759003788,"current_range_meters":17200,"station_id":"ce4bhch2rcd13ifvqeug","pricing_plan_id":"cebpf4jnsgd1na2vs0mg"},{"bike_id":"13b1004c-4046-4556-9080-c78084877cc3","system_id":"levelo_inurba_marseille","lat":43.30314,"lon":5.36909,"is_reserved":false,"is_disabled":false,"rental_uris":{"android":"levelo://app?vid=13b1004c-4046-4556-9080-c78084877cc3","ios":"levelo://app?vid=13b1004c-4046-4556-9080-c78084877cc3"},"vehicle_type_id":"4","last_reported":1759003788,"current_range_meters":17200,"station_id":"ce4bgqh2rcd13ifvqc5g","pricing_plan_id":"cebpf4jnsgd1na2vs0mg"},{"bike_id":"641a4307-c642-4b13-9d27-86a68028fab8","system_id":"levelo_inurba_marseille","lat":43.29935,"lon":5.3654,"is_reserved":false,"is_disabled":false,"rental_uris":{"android":"levelo://app?vid=641a4307-c642-4b13-9d27-86a68028fab8","ios":"levelo://app?vid=641a4307-c642-4b13-9d27-86a68028fab8"},"vehicle_type_id":"4","last_reported":1759003788,"current_range_meters":17200,"station_id":"ce4bgm92rcd13ifvqbr0","pricing_plan_id":"cebpf4jnsgd1na2vs0mg"},{"bike_id":"fcc15271-85da-48b1-92b1-6b093dd3a386","system_id":"levelo_inurba_marseille","lat":43.29537,"lon":5.38548,"is_reserved":false,"is_disabled":false,"rental_uris":{"android":"levelo://app?vid=fcc15271-85da-48b1-92b1-6b093dd3a386","ios":"levelo://app?vid=fcc15271-85da-48b1-92b1-6b093dd3a386"},"vehicle_type_id":"4","last_reported":1759003788,"current_range_meters":17600,"station_id":"ce4bgih2rcd13ifvqba0","pricing_plan_id":"cebpf4jnsgd1na2vs0mg"},{"bike_id":"6f0c1749-517c-4897-91c9-50c589e202de","system_id":"levelo_inurba_marseille","lat":43.341497,"lon":5.409188,"is_reserved":false,"is_disabled":true,"rental_uris":{"android":"levelo://app?vid=6f0c1749-517c-4897-91c9-50c589e202de","ios":"levelo://app?vid=6f0c1749-517c-4897-91c9-50c589e202de"},"vehicle_type_id":"4","last_reported":1759003788,"current_range_meters":17600,"station_id":"ce4bhqh2rcd13ifvqhlg","pricing_plan_id":"cebpf4jnsgd1na2vs0mg"},{"bike_id":"63fc89d5-c43b-4ce3-9eb6-c2512f449e40","system_id":"levelo_inurba_marseille","lat":43.29529,"lon":5.38552,"is_reserved":false,"is_disabled":false,"rental_uris":{"android":"levelo://app?vid=63fc89d5-c43b-4ce3-9eb6-c2512f449e40","ios":"levelo://app?vid=63fc89d5-c43b-4ce3-9eb6-c2512f449e40"},"vehicle_type_id":"4","last_reported":1759003788,"current_range_meters":17600,"station_id":"ce4bgih2rcd13ifvqba0","pricing_plan_id":"cebpf4jnsgd1na2vs0mg"},{"bike_id":"d0abebbf-2efe-49e7-846b-a6122ae1603c","system_id":"levelo_inurba_marseille","lat":43.28613,"lon":5.37072,"is_reserved":false,"is_disabled":false,"rental_uris":{"android":"levelo://app?vid=d0abebbf-2efe-49e7-846b-a6122ae1603c","ios":"levelo://app?vid=d0abebbf-2efe-49e7-846b-a6122ae1603c"},"vehicle_type_id":"4","last_reported":1759003788,"current_range_meters":17600,"station_id":"ce4bht12rcd13ifvqi60","pricing_plan_id":"cebpf4jnsgd1na2vs0mg"},{"bike_id":"258b2e09-7c4c-42f6-94e1-22674b9d8e2f","system_id":"levelo_inurba_marseille","lat":43.31971,"lon":5.3814,"is_reserved":false,"is_disabled":false,"rental_uris":{"android":"levelo://app?vid=258b2e09-7c4c-42f6-94e1-22674b9d8e2f","ios":"levelo://app?vid=258b2e09-7c4c-42f6-94e1-22674b9d8e2f"},"vehicle_type_id":"4","last_reported":1759003788,"current_range_meters":17600,"station_id":"ce4bhr12rcd13ifvqhpg","pricing_plan_id":"cebpf4jnsgd1na2vs0mg"},{"bike_id":"151d75a0-434c-41d6-a3a8-42bc6a9a604c","system_id":"levelo_inurba_marseille","lat":43.31757,"lon":5.39017,"is_reserved":false,"is_disabled":false,"rental_uris":{"android":"levelo://app?vid=151d75a0-434c-41d6-a3a8-42bc6a9a604c","ios":"levelo://app?vid=151d75a0-434c-41d6-a3a8-42bc6a9a604c"},"vehicle_type_id":"4","last_reported":1759003788,"current_range_meters":17600,"station_id":"ce4bgt92rcd13ifvqcf0","pricing_plan_id":"cebpf4jnsgd1na2vs0mg"},{"bike_id":"03d2b596-23f2-44de-8529-e1cf0611d070","system_id":"levelo_inurba_marseille","lat":43.25498,"lon":5.37664,"is_reserved":false,"is_disabled":false,"rental_uris":{"android":"levelo://app?vid=03d2b596-23f2-44de-8529-e1cf0611d070","ios":"levelo://app?vid=03d2b596-23f2-44de-8529-e1cf0611d070"},"vehicle_type_id":"4","last_reported":1759003788,"current_range_meters":17600,"station_id":"ce4bhh12rcd13ifvqff0","pricing_plan_id":"cebpf4jnsgd1na2vs0mg"},{"bike_id":"57b0d7cc-f5b9-4769-bd16-a60fa5224115","system_id":"levelo_inurba_marseille","lat":43.29762,"lon":5.37114,"is_reserved":false,"is_disabled":false,"rental_uris":{"android":"levelo://app?vid=57b0d7cc-f5b9-4769-bd16-a60fa5224115","ios":"levelo://app?vid=57b0d7cc-f5b9-4769-bd16-a60fa5224115"},"vehicle_type_id":"4","last_reported":1759003788,"current_range_meters":17600,"station_id":"ce4bgop2rcd13ifvqc1g","pricing_plan_id":"cebpf4jnsgd1na2vs0mg"},{"bike_id":"8aa5ca2a-54ef-4822-b614-66c211f11db3","system_id":"levelo_inurba_marseille","lat":43.3011,"lon":5.39836,"is_reserved":false,"is_disabled":false,"rental_uris":{"android":"levelo://app?vid=8aa5ca2a-54ef-4822-b614-66c211f11db3","ios":"levelo://app?vid=8aa5ca2a-54ef-4822-b614-66c211f11db3"},"vehicle_type_id":"4","last_reported":1759003788,"current_range_meters":17600,"station_id":"ce4bh0h2rcd13ifvqd40","pricing_plan_id":"cebpf4jnsgd1na2vs0mg"},{"bike_id":"a2a842f6-fc46-40d7-b7a6-d9d5a8c99dfa","system_id":"levelo_inurba_marseille","lat":43.31968,"lon":5.38155,"is_reserved":false,"is_disabled":true,"rental_uris":{"android":"levelo://app?vid=a2a842f6-fc46-40d7-b7a6-d9d5a8c99dfa","ios":"levelo://app?vid=a2a842f6-fc46-40d7-b7a6-d9d5a8c99dfa"},"vehicle_type_id":"4","last_reported":1759003788,"current_range_meters":17600,"station_id":"ce4bhr12rcd13ifvqhpg","pricing_plan_id":"cebpf4jnsgd1na2vs0mg"},{"bike_id":"e3fe1c25-77d6-4c99-a172-35c670f24da9","system_id":"levelo_inurba_marseille","lat":43.2901,"lon":5.35623,"is_reserved":false,"is_disabled":true,"rental_uris":{"android":"levelo://app?vid=e3fe1c25-77d6-4c99-a172-35c670f24da9","ios":"levelo://app?vid=e3fe1c25-77d6-4c99-a172-35c670f24da9"},"vehicle_type_id":"4","last_reported":1759003788,"current_range_meters":17600,"station_id":"ce4bhb92rcd13ifvqen0","pricing_plan_id":"cebpf4jnsgd1na2vs0mg"},{"bike_id":"b9f78559-4453-4f85-b26f-035d07e1c784","system_id":"levelo_inurba_marseille","lat":43.29913,"lon":5.37493,"is_reserved":false,"is_disabled":false,"rental_uris":{"android":"levelo://app?vid=b9f78559-4453-4f85-b26f-035d07e1c784","ios":"levelo://app?vid=b9f78559-4453-4f85-b26f-035d07e1c784"},"vehicle_type_id":"4","last_reported":1759003788,"current_range_meters":11600,"station_id":"ce4bgjh2rcd13ifvqbg0","pricing_plan_id":"cebpf4jnsgd1na2vs0mg"},{"bike_id":"869b38f0-9ba1-456c-ab78-ec81157aecd3","system_id":"levelo_inurba_marseille","lat":43.29261,"lon":5.38439,"is_reserved":false,"is_disabled":false,"rental_uris":{"android":"levelo://app?vid=869b38f0-9ba1-456c-ab78-ec81157aecd3","ios":"levelo://app?vid=869b38f0-9ba1-456c-ab78-ec81157aecd3"},"vehicle_type_id":"4","last_reported":1759003788,"current_range_meters":17600,"station_id":"ce4bh692rcd13ifvqea0","pricing_plan_id":"cebpf4jnsgd1na2vs0mg"},{"bike_id":"10f2d234-67b8-48d5-9edb-73e3e416f851","system_id":"levelo_inurba_marseille","lat":43.28656,"lon":5.38685,"is_reserved":false,"is_disabled":false,"rental_uris":{"android":"levelo://app?vid=10f2d234-67b8-48d5-9edb-73e3e416f851","ios":"levelo://app?vid=10f2d234-67b8-48d5-9edb-73e3e416f851"},"vehicle_type_id":"4","last_reported":1759003788,"current_range_meters":17600,"station_id":"ce4bh492rcd13ifvqdug","pricing_plan_id":"cebpf4jnsgd1na2vs0mg"},{"bike_id":"e5378695-fba9-432a-9cfb-3b5b05e40fec","system_id":"levelo_inurba_marseille","lat":43.337986,"lon":5.374304,"is_reserved":false,"is_disabled":false,"rental_uris":{"android":"levelo://app?vid=e5378695-fba9-432a-9cfb-3b5b05e40fec","ios":"levelo://app?vid=e5378695-fba9-432a-9cfb-3b5b05e40fec"},"vehicle_type_id":"4","last_reported":1759003788,"current_range_meters":17600,"station_id":"","pricing_plan_id":"cebpf4jnsgd1na2vs0mg"},{"bike_id":"8a725275-65d6-4f8c-a1e1-17559f853dd5","system_id":"levelo_inurba_marseille","lat":43.25576,"lon":5.38252,"is_reserved":false,"is_disabled":false,"rental_uris":{"android":"levelo://app?vid=8a725275-65d6-4f8c-a1e1-17559f853dd5","ios":"levelo://app?vid=8a725275-65d6-4f8c-a1e1-17559f853dd5"},"vehicle_type_id":"4","last_reported":1759003788,"current_range_meters":18000,"station_id":"ce4bhih2rcd13ifvqfs0","pricing_plan_id":"cebpf4jnsgd1na2vs0mg"},{"bike_id":"01e260f5-828c-4df2-9bc4-ca80e799f979","system_id":"levelo_inurba_marseille","lat":43.21747,"lon":5.34617,"is_reserved":false,"is_disabled":true,"rental_uris":{"android":"levelo://app?vid=01e260f5-828c-4df2-9bc4-ca80e799f979","ios":"levelo://app?vid=01e260f5-828c-4df2-9bc4-ca80e799f979"},"vehicle_type_id":"4","last_reported":1759003788,"current_range_meters":18000,"station_id":"st_cvj6r9ubvosntc0bgbag","pricing_plan_id":"cebpf4jnsgd1na2vs0mg"},{"bike_id":"6c5dcae8-d4bd-4bd4-8d57-8db43b676f42","system_id":"levelo_inurba_marseille","lat":43.29041,"lon":5.38656,"is_reserved":false,"is_disabled":false,"rental_uris":{"android":"levelo://app?vid=6c5dcae8-d4bd-4bd4-8d57-8db43b676f42","ios":"levelo://app?vid=6c5dcae8-d4bd-4bd4-8d57-8db43b676f42"},