{"last_updated":1769944386,"ttl":60,"version":"2.2","data":{"bikes":[{"bike_id":"a10fd5ac-f488-49bb-9865-a9b9fcb4d879","system_id":"levelo_inurba_marseille","lat":43.32386,"lon":5.37438,"is_reserved":false,"is_disabled":false,"rental_uris":{"android":"levelo://app?vid=a10fd5ac-f488-49bb-9865-a9b9fcb4d879","ios":"levelo://app?vid=a10fd5ac-f488-49bb-9865-a9b9fcb4d879"},"vehicle_type_id":"4","last_reported":1769944387,"current_range_meters":2800,"station_id":"","pricing_plan_id":"cebpf4jnsgd1na2vs0mg"},{"bike_id":"d8fa04e7-bb78-4535-80bf-2c466afd8f9d","system_id":"levelo_inurba_marseille","lat":43.23155,"lon":5.43706,"is_reserved":false,"is_disabled":false,"rental_uris":{"android":"levelo://app?vid=d8fa04e7-bb78-4535-80bf-2c466afd8f9d","ios":"levelo://app?vid=d8fa04e7-bb78-4535-80bf-2c466afd8f9d"},"vehicle_type_id":"4","last_reported":1769944387,"current_range_meters":2800,"station_id":"ce4bhmp2rcd13ifvqgog","pricing_plan_id":"cebpf4jnsgd1na2vs0mg"},{"bike_id":"e035ba43-d8da-4113-82a3-06ed62a07f1d","system_id":"levelo_inurba_marseille","lat":43.23197,"lon":5.35552,"is_reserved":false,"is_disabled":false,"rental_uris":{"android":"levelo://app?vid=e035ba43-d8da-4113-82a3-06ed62a07f1d","ios":"levelo://app?vid=e035ba43-d8da-4113-82a3-06ed62a07f1d"},"vehicle_type_id":"4","last_reported":1769944387,"current_range_meters":2800,"station_id":"ce4bhu92rcd13ifvqi70","pricing_plan_id":"cebpf4jnsgd1na2vs0mg"},{"bike_id":"132fa9ab-723b-44a4-84f9-d384fe91dc8d","system_id":"levelo_inurba_marseille","lat":43.25118,"lon":5.403252,"is_reserved":false,"is_disabled":false,"rental_uris":{"android":"levelo://app?vid=132fa9ab-723b-44a4-84f9-d384fe91dc8d","ios":"levelo://app?vid=132fa9ab-723b-44a4-84f9-d384fe91dc8d"},"vehicle_type_id":"4","last_reported":1769944387,"current_range_meters":2800,"station_id":"ce4bhlh2rcd13ifvqgig","pricing_plan_id":"cebpf4jnsgd1na2vs0mg"},{"bike_id":"cc89ad0d-4ba1-4e18-b805-f67ce2f774fe","system_id":"levelo_inurba_marseille","lat":43.288448,"lon":5.392958,"is_reserved":false,"is_disabled":false,"rental_uris":{"android":"levelo://app?vid=cc89ad0d-4ba1-4e18-b805-f67ce2f774fe","ios":"levelo://app?vid=cc89ad0d-4ba1-4e18-b805-f67ce2f774fe"},"vehicle_type_id":"4","last_reported":1769944387,"current_range_meters":2800,"station_id":"ce4bh2p2rcd13ifvqdi0","pricing_plan_id":"cebpf4jnsgd1na2vs0mg"},{"bike_id":"cd7b7bdf-4c05-4832-ae9c-e7c59ccfd7c7","system_id":"levelo_inurba_marseille","lat":43.24386,"lon":5.37057,"is_reserved":false,"is_disabled":false,"rental_uris":{"android":"levelo://app?vid=cd7b7bdf-4c05-4832-ae9c-e7c59ccfd7c7","ios":"levelo://app?vid=cd7b7bdf-4c05-4832-ae9c-e7c59ccfd7c7"},"vehicle_type_id":"4","last_reported":1769944387,"current_range_meters":2800,"station_id":"ce4bhhh2rcd13ifvqfk0","pricing_plan_id":"cebpf4jnsgd1na2vs0mg"},{"bike_id":"1adbbfc3-50de-4f6d-8fd3-70470a85d8ae","system_id":"levelo_inurba_marseille","lat":43.279432,"lon":5.410431,"is_reserved":false,"is_disabled":false,"rental_uris":{"android":"levelo://app?vid=1adbbfc3-50de-4f6d-8fd3-70470a85d8ae","ios":"levelo://app?vid=1adbbfc3-50de-4f6d-8fd3-70470a85d8ae"},"vehicle_type_id":"4","last_reported":1769944387,"current_range_meters":2800,"station_id":"ce4bhnp2rcd13ifvqh0g","pricing_plan_id":"cebpf4jnsgd1na2vs0mg"},{"bike_id":"250a761c-ae52-471b-a080-9d2fecb9f16a","system_id":"levelo_inurba_marseille","lat":43.30959,"lon":5.39029,"is_reserved":false,"is_disabled":false,"rental_uris":{"android":"levelo://app?vid=250a761c-ae52-471b-a080-9d2fecb9f16a","ios":"levelo://app?vid=250a761c-ae52-471b-a080-9d2fecb9f16a"},"vehicle_type_id":"4","last_reported":1769944387,"current_range_meters":3200,"station_id":"ce4bgup2rcd13ifvqco0","pricing_plan_id":"cebpf4jnsgd1na2vs0mg"},{"bike_id":"e063da5b-4820-4962-b1c8-99eec874281e","system_id":"levelo_inurba_marseille","lat":43.23207,"lon":5.39985,"is_reserved":false,"is_disabled":true,"rental_uris":{"android":"levelo://app?vid=e063da5b-4820-4962-b1c8-99eec874281e","ios":"levelo://app?vid=e063da5b-4820-4962-b1c8-99eec874281e"},"vehicle_type_id":"4","last_reported":1769944387,"current_range_meters":3200,"station_id":"ce4bhn12rcd13ifvqgqg","pricing_plan_id":"cebpf4jnsgd1na2vs0mg"},{"bike_id":"d1f924cd-c487-4029-a812-b5141bd15bea","system_id":"levelo_inurba_marseille","lat":43.23949,"lon":5.36646,"is_reserved":false,"is_disabled":false,"rental_uris":{"android":"levelo://app?vid=d1f924cd-c487-4029-a812-b5141bd15bea","ios":"levelo://app?vid=d1f924cd-c487-4029-a812-b5141bd15bea"},"vehicle_type_id":"4","last_reported":1769944387,"current_range_meters":3200,"station_id":"ce4bhi12rcd13ifvqfp0","pricing_plan_id":"cebpf4jnsgd1na2vs0mg"},{"bike_id":"acf8067a-41cb-44c4-9819-41025b6631d5","system_id":"levelo_inurba_marseille","lat":43.231832,"lon":5.399933,"is_reserved":false,"is_disabled":false,"rental_uris":{"android":"levelo://app?vid=acf8067a-41cb-44c4-9819-41025b6631d5","ios":"levelo://app?vid=acf8067a-41cb-44c4-9819-41025b6631d5"},"vehicle_type_id":"4","last_reported":1769944387,"current_range_meters":3200,"station_id":"ce4bhn12rcd13ifvqgqg","pricing_plan_id":"cebpf4jnsgd1na2vs0mg"},{"bike_id":"e62bf17d-777c-405e-87cc-f81784440870","system_id":"levelo_inurba_marseille","lat":43.2533,"lon":5.4217,"is_reserved":false,"is_disabled":false,"rental_uris":{"android":"levelo://app?vid=e62bf17d-777c-405e-87cc-f81784440870","ios":"levelo://app?vid=e62bf17d-777c-405e-87cc-f81784440870"},"vehicle_type_id":"4","last_reported":1769944387,"current_range_meters":3200,"station_id":"st_d2m65c5bi1j21697t3ng","pricing_plan_id":"cebpf4jnsgd1na2vs0mg"},{"bike_id":"abdf906c-1d02-4d03-a8b9-85b3b5a13392","system_id":"levelo_inurba_marseille","lat":43.31498,"lon":5.37308,"is_reserved":false,"is_disabled":false,"rental_uris":{"android":"levelo://app?vid=abdf906c-1d02-4d03-a8b9-85b3b5a13392","ios":"levelo://app?vid=abdf906c-1d02-4d03-a8b9-85b3b5a13392"},"vehicle_type_id":"4","last_reported":1769944387,"current_range_meters":3200,"station_id":"ce4bgt12rcd13ifvqcd0","pricing_plan_id":"cebpf4jnsgd1na2vs0mg"},{"bike_id":"7cf2279d-37fb-4eea-9fcd-fa006a6f498b","system_id":"levelo_inurba_marseille","lat":43.27386,"lon":5.36279,"is_reserved":false,"is_disabled":false,"rental_uris":{"android":"levelo://app?vid=7cf2279d-37fb-4eea-9fcd-fa006a6f498b","ios":"levelo://app?vid=7cf2279d-37fb-4eea-9fcd-fa006a6f498b"},"vehicle_type_id":"4","last_reported":1769944387,"current_range_meters":3200,"station_id":"ce4bhbh2rcd13ifvqeo0","pricing_plan_id":"cebpf4jnsgd1na2vs0mg"},{"bike_id":"76332bd6-e54c-4e1a-80e6-1fa0c52d5f1c","system_id":"levelo_inurba_marseille","lat":43.24072,"lon":5.37755,"is_reserved":false,"is_disabled":false,"rental_uris":{"android":"levelo://app?vid=76332bd6-e54c-4e1a-80e6-1fa0c52d5f1c","ios":"levelo://app?vid=76332bd6-e54c-4e1a-80e6-1fa0c52d5f1c"},"vehicle_type_id":"4","last_reported":1769944387,"current_range_meters":3200,"station_id":"ce4bhnp2rcd13ifvqgvg","pricing_plan_id":"cebpf4jnsgd1na2vs0mg"},{"bike_id":"c2464a31-7450-4242-ba80-afe1660c1012","system_id":"levelo_inurba_marseille","lat":43.24946,"lon":5.40492,"is_reserved":false,"is_disabled":false,"rental_uris":{"android":"levelo://app?vid=c2464a31-7450-4242-ba80-afe1660c1012","ios":"levelo://app?vid=c2464a31-7450-4242-ba80-afe1660c1012"},"vehicle_type_id":"4","last_reported":1769944387,"current_range_meters":3200,"station_id":"st_d2ngiaodas8pm72gd1h0","pricing_plan_id":"cebpf4jnsgd1na2vs0mg"},{"bike_id":"2e792e04-c2a5-4397-9a2d-1349c47495fb","system_id":"levelo_inurba_marseille","lat":43.24171,"lon":5.36394,"is_reserved":false,"is_disabled":false,"rental_uris":{"android":"levelo://app?vid=2e792e04-c2a5-4397-9a2d-1349c47495fb","ios":"levelo://app?vid=2e792e04-c2a5-4397-9a2d-1349c47495fb"},"vehicle_type_id":"4","last_reported":1769944387,"current_range_meters":3200,"station_id":"cpo36qri1sfpv3e86is0","pricing_plan_id":"cebpf4jnsgd1na2vs0mg"},{"bike_id":"f4d6efa2-00bd-44bb-b3f9-95bebe7bedd2","system_id":"levelo_inurba_marseille","lat":43.30376,"lon":5.37583,"is_reserved":false,"is_disabled":false,"rental_uris":{"android":"levelo://app?vid=f4d6efa2-00bd-44bb-b3f9-95bebe7bedd2","ios":"levelo://app?vid=f4d6efa2-00bd-44bb-b3f9-95bebe7bedd2"},"vehicle_type_id":"4","last_reported":1769944387,"current_range_meters":3200,"station_id":"","pricing_plan_id":"cebpf4jnsgd1na2vs0mg"},{"bike_id":"055d8d39-c891-472e-8a0d-a9ee39d8b8c7","system_id":"levelo_inurba_marseille","lat":43.331544,"lon":5.376858,"is_reserved":false,"is_disabled":true,"rental_uris":{"android":"levelo://app?vid=055d8d39-c891-472e-8a0d-a9ee39d8b8c7","ios":"levelo://app?vid=055d8d39-c891-472e-8a0d-a9ee39d8b8c7"},"vehicle_type_id":"4","last_reported":1769944387,"current_range_meters":3600,"station_id":"st_d46cu089ee8s73dldbu0","pricing_plan_id":"cebpf4jnsgd1na2vs0mg"},{"bike_id":"6ccf591e-8325-4003-8624-56a059237579","system_id":"levelo_inurba_marseille","lat":43.21751,"lon":5.34595,"is_reserved":false,"is_disabled":false,"rental_uris":{"android":"levelo://app?vid=6ccf591e-8325-4003-8624-56a059237579","ios":"levelo://app?vid=6ccf591e-8325-4003-8624-56a059237579"},"vehicle_type_id":"4","last_reported":1769944387,"current_range_meters":3600,"station_id":"st_cvj6r9ubvosntc0bgbag","pricing_plan_id":"cebpf4jnsgd1na2vs0mg"},{"bike_id":"3c07e8db-1d64-4b7a-879d-8b774c3d7e0c","system_id":"levelo_inurba_marseille","lat":43.27374,"lon":5.36256,"is_reserved":false,"is_disabled":false,"rental_uris":{"android":"levelo://app?vid=3c07e8db-1d64-4b7a-879d-8b774c3d7e0c","ios":"levelo://app?vid=3c07e8db-1d64-4b7a-879d-8b774c3d7e0c"},"vehicle_type_id":"4","last_reported":1769944387,"current_range_meters":4000,"station_id":"ce4bhbh2rcd13ifvqeo0","pricing_plan_id":"cebpf4jnsgd1na2vs0mg"},{"bike_id":"6259a571-4c97-41bc-9e30-1f15710670c6","system_id":"levelo_inurba_marseille","lat":43.24675,"lon":5.40106,"is_reserved":false,"is_disabled":false,"rental_uris":{"android":"levelo://app?vid=6259a571-4c97-41bc-9e30-1f15710670c6","ios":"levelo://app?vid=6259a571-4c97-41bc-9e30-1f15710670c6"},"vehicle_type_id":"4","last_reported":1769944387,"current_range_meters":4000,"station_id":"","pricing_plan_id":"cebpf4jnsgd1na2vs0mg"},{"bike_id":"4b1834a2-45b0-4a85-bf7d-2432727bca83","system_id":"levelo_inurba_marseille","lat":43.32655,"lon":5.40996,"is_reserved":false,"is_disabled":false,"rental_uris":{"android":"levelo://app?vid=4b1834a2-45b0-4a85-bf7d-2432727bca83","ios":"levelo://app?vid=4b1834a2-45b0-4a85-bf7d-2432727bca83"},"vehicle_type_id":"4","last_reported":1769944387,"current_range_meters":4000,"station_id":"ce4bhpp2rcd13ifvqhgg","pricing_plan_id":"cebpf4jnsgd1na2vs0mg"},{"bike_id":"3b62f3c8-9e2c-498f-9f58-5713f580cfa8","system_id":"levelo_inurba_marseille","lat":43.292686,"lon":5.401221,"is_reserved":false,"is_disabled":false,"rental_uris":{"android":"levelo://app?vid=3b62f3c8-9e2c-498f-9f58-5713f580cfa8","ios":"levelo://app?vid=3b62f3c8-9e2c-498f-9f58-5713f580cfa8"},"vehicle_type_id":"4","last_reported":1769944387,"current_range_meters":4000,"station_id":"ce4bh312rcd13ifvqdk0","pricing_plan_id":"cebpf4jnsgd1na2vs0mg"},{"bike_id":"a591b198-ffd8-42c1-96f8-07f7188eff82","system_id":"levelo_inurba_marseille","lat":43.25578,"lon":5.38242,"is_reserved":false,"is_disabled":false,"rental_uris":{"android":"levelo://app?vid=a591b198-ffd8-42c1-96f8-07f7188eff82","ios":"levelo://app?vid=a591b198-ffd8-42c1-96f8-07f7188eff82"},"vehicle_type_id":"4","last_reported":1769944387,"current_range_meters":4400,"station_id":"ce4bhih2rcd13ifvqfs0","pricing_plan_id":"cebpf4jnsgd1na2vs0mg"},{"bike_id":"51487434-2c5b-44ec-b6f1-b2d802fd5baf","system_id":"levelo_inurba_marseille","lat":43.295842,"lon":5.367472,"is_reserved":false,"is_disabled":false,"rental_uris":{"android":"levelo://app?vid=51487434-2c5b-44ec-b6f1-b2d802fd5baf","ios":"levelo://app?vid=51487434-2c5b-44ec-b6f1-b2d802fd5baf"},"vehicle_type_id":"4","last_reported":1769944387,"current_range_meters":4400,"station_id":"ce4bgph2rcd13ifvqc2g","pricing_plan_id":"cebpf4jnsgd1na2vs0mg"},{"bike_id":"318133aa-3b05-4452-b847-cf5a32021652","system_id":"levelo_inurba_marseille","lat":43.25088,"lon":5.39524,"is_reserved":false,"is_disabled":false,"rental_uris":{"android":"levelo://app?vid=318133aa-3b05-4452-b847-cf5a32021652","ios":"levelo://app?vid=318133aa-3b05-4452-b847-cf5a32021652"},"vehicle_type_id":"4","last_reported":1769944387,"current_range_meters":4400,"station_id":"ce4bhm12rcd13ifvqgkg","pricing_plan_id":"cebpf4jnsgd1na2vs0mg"},{"bike_id":"1d871e15-87dd-49cd-870e-4c3cf09f339c","system_id":"levelo_inurba_marseille","lat":43.24783,"lon":5.375155,"is_reserved":false,"is_disabled":false,"rental_uris":{"android":"levelo://app?vid=1d871e15-87dd-49cd-870e-4c3cf09f339c","ios":"levelo://app?vid=1d871e15-87dd-49cd-870e-4c3cf09f339c"},"vehicle_type_id":"4","last_reported":1769944387,"current_range_meters":4400,"station_id":"st_d3nk18o9ro0c73en2l3g","pricing_plan_id":"cebpf4jnsgd1na2vs0mg"},{"bike_id":"1a488dbc-32c2-4461-b2a6-a7cd13f6244e","system_id":"levelo_inurba_marseille","lat":43.24155,"lon":5.36408,"is_reserved":false,"is_disabled":false,"rental_uris":{"android":"levelo://app?vid=1a488dbc-32c2-4461-b2a6-a7cd13f6244e","ios":"levelo://app?vid=1a488dbc-32c2-4461-b2a6-a7cd13f6244e"},"vehicle_type_id":"4","last_reported":1769944387,"current_range_meters":4400,"station_id":"cpo36qri1sfpv3e86is0","pricing_plan_id":"cebpf4jnsgd1na2vs0mg"},{"bike_id":"04da1df6-4b42-4515-bc71-2524c0008b6a","system_id":"levelo_inurba_marseille","lat":43.27473,"lon":5.43614,"is_reserved":false,"is_disabled":false,"rental_uris":{"android":"levelo://app?vid=04da1df6-4b42-4515-bc71-2524c0008b6a","ios":"levelo://app?vid=04da1df6-4b42-4515-bc71-2524c0008b6a"},"vehicle_type_id":"4","last_reported":1769944387,"current_range_meters":4800,"station_id":"","pricing_plan_id":"cebpf4jnsgd1na2vs0mg"},{"bike_id":"bd0b3557-9fd7-4e9c-b122-eda4f40b316d","system_id":"levelo_inurba_marseille","lat":43.24735,"lon":5.37509,"is_reserved":false,"is_disabled":false,"rental_uris":{"android":"levelo://app?vid=bd0b3557-9fd7-4e9c-b122-eda4f40b316d","ios":"levelo://app?vid=bd0b3557-9fd7-4e9c-b122-eda4f40b316d"},"vehicle_type_id":"4","last_reported":1769944387,"current_range_meters":4800,"station_id":"","pricing_plan_id":"cebpf4jnsgd1na2vs0mg"},{"bike_id":"9b0b72ce-8292-47cd-b165-f4a28fe1cfff","system_id":"levelo_inurba_marseille","lat":43.28479,"lon":5.38534,"is_reserved":false,"is_disabled":true,"rental_uris":{"android":"levelo://app?vid=9b0b72ce-8292-47cd-b165-f4a28fe1cfff","ios":"levelo://app?vid=9b0b72ce-8292-47cd-b165-f4a28fe1cfff"},"vehicle_type_id":"4","last_reported":1769944387,"current_range_meters":4800,"station_id":"ce4bh512rcd13ifvqe3g","pricing_plan_id":"cebpf4jnsgd1na2vs0mg"},{"bike_id":"4ae21097-68ff-4a44-bcb7-3e142e11d517","system_id":"levelo_inurba_marseille","lat":43.24167,"lon":5.36401,"is_reserved":false,"is_disabled":false,"rental_uris":{"android":"levelo://app?vid=4ae21097-68ff-4a44-bcb7-3e142e11d517","ios":"levelo://app?vid=4ae21097-68ff-4a44-bcb7-3e142e11d517"},"vehicle_type_id":"4","last_reported":1769944387,"current_range_meters":4800,"station_id":"cpo36qri1sfpv3e86is0","pricing_plan_id":"cebpf4jnsgd1na2vs0mg"},{"bike_id":"7725ea14-335e-4d54-91ac-40d50e39e00e","system_id":"levelo_inurba_marseille","lat":43.23179,"lon":5.39989,"is_reserved":false,"is_disabled":false,"rental_uris":{"android":"levelo://app?vid=7725ea14-335e-4d54-91ac-40d50e39e00e","ios":"levelo://app?vid=7725ea14-335e-4d54-91ac-40d50e39e00e"},"vehicle_type_id":"4","last_reported":1769944387,"current_range_meters":4800,"station_id":"ce4bhn12rcd13ifvqgqg","pricing_plan_id":"cebpf4jnsgd1na2vs0mg"},{"bike_id":"55269124-210c-4720-a685-887b130d9dbe","system_id":"levelo_inurba_marseille","lat":43.23162,"lon":5.43694,"is_reserved":false,"is_disabled":false,"rental_uris":{"android":"levelo://app?vid=55269124-210c-4720-a685-887b130d9dbe","ios":"levelo://app?vid=55269124-210c-4720-a685-887b130d9dbe"},"vehicle_type_id":"4","last_reported":1769944387,"current_range_meters":4800,"station_id":"ce4bhmp2rcd13ifvqgog","pricing_plan_id":"cebpf4jnsgd1na2vs0mg"},{"bike_id":"d0a9a60c-85e8-4843-9b4e-68363eefbae5","system_id":"levelo_inurba_marseille","lat":43.29519,"lon":5.39406,"is_reserved":false,"is_disabled":false,"rental_uris":{"android":"levelo://app?vid=d0a9a60c-85e8-4843-9b4e-68363eefbae5","ios":"levelo://app?vid=d0a9a60c-85e8-4843-9b4e-68363eefbae5"},"vehicle_type_id":"4","last_reported":1769944387,"current_range_meters":4800,"station_id":"ce4bh292rcd13ifvqdf0","pricing_plan_id":"cebpf4jnsgd1na2vs0mg"},{"bike_id":"a4c4467a-de4f-4b56-8893-ebacb492a7a6","system_id":"levelo_inurba_marseille","lat":43.25345,"lon":5.42167,"is_reserved":false,"is_disabled":false,"rental_uris":{"android":"levelo://app?vid=a4c4467a-de4f-4b56-8893-ebacb492a7a6","ios":"levelo://app?vid=a4c4467a-de4f-4b56-8893-ebacb492a7a6"},"vehicle_type_id":"4","last_reported":1769944387,"current_range_meters":4800,"station_id":"st_d2m65c5bi1j21697t3ng","pricing_plan_id":"cebpf4jnsgd1na2vs0mg"},{"bike_id":"9a51c59d-9df1-4272-bf8a-962f7f317a04","system_id":"levelo_inurba_marseille","lat":43.25498,"lon":5.37647,"is_reserved":false,"is_disabled":false,"rental_uris":{"android":"levelo://app?vid=9a51c59d-9df1-4272-bf8a-962f7f317a04","ios":"levelo://app?vid=9a51c59d-9df1-4272-bf8a-962f7f317a04"},"vehicle_type_id":"4","last_reported":1769944387,"current_range_meters":4800,"station_id":"ce4bhh12rcd13ifvqff0","pricing_plan_id":"cebpf4jnsgd1na2vs0mg"},{"bike_id":"f1afac7b-3a1b-4cac-a9fd-69907f58ad17","system_id":"levelo_inurba_marseille","lat":43.26936,"lon":5.40294,"is_reserved":false,"is_disabled":false,"rental_uris":{"android":"levelo://app?vid=f1afac7b-3a1b-4cac-a9fd-69907f58ad17","ios":"levelo://app?vid=f1afac7b-3a1b-4cac-a9fd-69907f58ad17"},"vehicle_type_id":"4","last_reported":1769944387,"current_range_meters":5600,"station_id":"cjm6bp8fraef2m0cb0m0","pricing_plan_id":"cebpf4jnsgd1na2vs0mg"},{"bike_id":"b27a0d4f-f345-47b9-b9a8-196c40313931","system_id":"levelo_inurba_marseille","lat":43.28424,"lon":5.34996,"is_reserved":false,"is_disabled":false,"rental_uris":{"android":"levelo://app?vid=b27a0d4f-f345-47b9-b9a8-196c40313931","ios":"levelo://app?vid=b27a0d4f-f345-47b9-b9a8-196c40313931"},"vehicle_type_id":"4","last_reported":1769944387,"current_range_meters":5600,"station_id":"ce4bhbh2rcd13ifvqepg","pricing_plan_id":"cebpf4jnsgd1na2vs0mg"},{"bike_id":"3d2668d9-3c48-4068-83fd-9f01b377bc30","system_id":"levelo_inurba_marseille","lat":43.32108,"lon":5.36775,"is_reserved":false,"is_disabled":false,"rental_uris":{"android":"levelo://app?vid=3d2668d9-3c48-4068-83fd-9f01b377bc30","ios":"levelo://app?vid=3d2668d9-3c48-4068-83fd-9f01b377bc30"},"vehicle_type_id":"4","last_reported":1769944387,"current_range_meters":5600,"station_id":"ce4bhrh2rcd13ifvqhug","pricing_plan_id":"cebpf4jnsgd1na2vs0mg"},{"bike_id":"d4d18011-2bf0-4a2b-a896-7a5c21af3b9d","system_id":"levelo_inurba_marseille","lat":43.28479,"lon":5.48395,"is_reserved":false,"is_disabled":false,"rental_uris":{"android":"levelo://app?vid=d4d18011-2bf0-4a2b-a896-7a5c21af3b9d","ios":"levelo://app?vid=d4d18011-2bf0-4a2b-a896-7a5c21af3b9d"},"vehicle_type_id":"4","last_reported":1769944387,"current_range_meters":5600,"station_id":"st_d3svhcjqgbts73a3dn0g","pricing_plan_id":"cebpf4jnsgd1na2vs0mg"},{"bike_id":"be225ef5-320f-4540-9f6e-c540e647f135","system_id":"levelo_inurba_marseille","lat":43.30145,"lon":5.3808,"is_reserved":false,"is_disabled":false,"rental_uris":{"android":"levelo://app?vid=be225ef5-320f-4540-9f6e-c540e647f135","ios":"levelo://app?vid=be225ef5-320f-4540-9f6e-c540e647f135"},"vehicle_type_id":"4","last_reported":1769944387,"current_range_meters":5600,"station_id":"ce4bgjp2rcd13ifvqbh0","pricing_plan_id":"cebpf4jnsgd1na2vs0mg"},{"bike_id":"837f081a-e646-4c00-93df-f959748be000","system_id":"levelo_inurba_marseille","lat":43.24663,"lon":5.38144,"is_reserved":false,"is_disabled":false,"rental_uris":{"android":"levelo://app?vid=837f081a-e646-4c00-93df-f959748be000","ios":"levelo://app?vid=837f081a-e646-4c00-93df-f959748be000"},"vehicle_type_id":"4","last_reported":1769944387,"current_range_meters":5600,"station_id":"ce4bhih2rcd13ifvqfr0","pricing_plan_id":"cebpf4jnsgd1na2vs0mg"},{"bike_id":"5be20501-8e04-4673-9119-891aadf1acc1","system_id":"levelo_inurba_marseille","lat":43.28495,"lon":5.48384,"is_reserved":false,"is_disabled":false,"rental_uris":{"android":"levelo://app?vid=5be20501-8e04-4673-9119-891aadf1acc1","ios":"levelo://app?vid=5be20501-8e04-4673-9119-891aadf1acc1"},"vehicle_type_id":"4","last_reported":1769944387,"current_range_meters":5600,"station_id":"","pricing_plan_id":"cebpf4jnsgd1na2vs0mg"},{"bike_id":"d5e67bfe-03c5-4643-9903-6eac267b87da","system_id":"levelo_inurba_marseille","lat":43.24008,"lon":5.3782,"is_reserved":false,"is_disabled":false,"rental_uris":{"android":"levelo://app?vid=d5e67bfe-03c5-4643-9903-6eac267b87da","ios":"levelo://app?vid=d5e67bfe-03c5-4643-9903-6eac267b87da"},"vehicle_type_id":"4","last_reported":1769944387,"current_range_meters":5600,"station_id":"","pricing_plan_id":"cebpf4jnsgd1na2vs0mg"},{"bike_id":"18fac332-3f37-4402-a2c5-fd894778b438","system_id":"levelo_inurba_marseille","lat":43.3015,"lon":5.38082,"is_reserved":false,"is_disabled":false,"rental_uris":{"android":"levelo://app?vid=18fac332-3f37-4402-a2c5-fd894778b438","ios":"levelo://app?vid=18fac332-3f37-4402-a2c5-fd894778b438"},"vehicle_type_id":"4","last_reported":1769944387,"current_range_meters":6000,"station_id":"ce4bgjp2rcd13ifvqbh0","pricing_plan_id":"cebpf4jnsgd1na2vs0mg"},{"bike_id":"e385d1cd-1cb5-4e3d-8733-264efbfc417e","system_id":"levelo_inurba_marseille","lat":43.29645,"lon":5.40569,"is_reserved":false,"is_disabled":false,"rental_uris":{"android":"levelo://app?vid=e385d1cd-1cb5-4e3d-8733-264efbfc417e","ios":"levelo://app?vid=e385d1cd-1cb5-4e3d-8733-264efbfc417e"},"vehicle_type_id":"4","last_reported":1769944387,"current_range_meters":6000,"station_id":"ce4bh0h2rcd13ifvqd60","pricing_plan_id":"cebpf4jnsgd1na2vs0mg"},{"bike_id":"a0f4c4d9-b17d-4551-87f4-b3e192df9153","system_id":"levelo_inurba_marseille","lat":43.23038,"lon":5.35484,"is_reserved":false,"is_disabled":false,"rental_uris":{"android":"levelo://app?vid=a0f4c4d9-b17d-4551-87f4-b3e192df9153","ios":"levelo://app?vid=a0f4c4d9-b17d-4551-87f4-b3e192df9153"},"vehicle_type_id":"4","last_reported":1769944387,"current_range_meters":6000,"station_id":"cpo3342slgdg3j2ifvpg","pricing_plan_id":"cebpf4jnsgd1na2vs0mg"},{"bike_id":"6790413e-4740-4289-a22f-d3e7a54257b6","system_id":"levelo_inurba_marseille","lat":43.25331,"lon":5.42184,"is_reserved":false,"is_disabled":false,"rental_uris":{"android":"levelo://app?vid=6790413e-4740-4289-a22f-d3e7a54257b6","ios":"levelo://app?vid=6790413e-4740-4289-a22f-d3e7a54257b6"},"vehicle_type_id":"4","last_reported":1769944387,"current_range_meters":6000,"station_id":"st_d2m65c5bi1j21697t3ng","pricing_plan_id":"cebpf4jnsgd1na2vs0mg"},{"bike_id":"064e1418-6e7c-4326-87b5-3906693d41ac","system_id":"levelo_inurba_marseille","lat":43.29005,"lon":5.35608,"is_reserved":false,"is_disabled":false,"rental_uris":{"android":"levelo://app?vid=064e1418-6e7c-4326-87b5-3906693d41ac","ios":"levelo://app?vid=064e1418-6e7c-4326-87b5-3906693d41ac"},"vehicle_type_id":"4","last_reported":1769944387,"current_range_meters":6000,"station_id":"ce4bhb92rcd13ifvqen0","pricing_plan_id":"cebpf4jnsgd1na2vs0mg"},{"bike_id":"7a4412cf-c498-4121-be46-049419c026d4","system_id":"levelo_inurba_marseille","lat":43.279387,"lon":5.410356,"is_reserved":false,"is_disabled":false,"rental_uris":{"android":"levelo://app?vid=7a4412cf-c498-4121-be46-049419c026d4","ios":"levelo://app?vid=7a4412cf-c498-4121-be46-049419c026d4"},"vehicle_type_id":"4","last_reported":1769944387,"current_range_meters":6000,"station_id":"ce4bhnp2rcd13ifvqh0g","pricing_plan_id":"cebpf4jnsgd1na2vs0mg"},{"bike_id":"67e9dbbc-b6b6-4374-909f-4ac4a68e9673","system_id":"levelo_inurba_marseille","lat":43.24173,"lon":5.36394,"is_reserved":false,"is_disabled":false,"rental_uris":{"android":"levelo://app?vid=67e9dbbc-b6b6-4374-909f-4ac4a68e9673","ios":"levelo://app?vid=67e9dbbc-b6b6-4374-909f-4ac4a68e9673"},"vehicle_type_id":"4","last_reported":1769944387,"current_range_meters":6000,"station_id":"cpo36qri1sfpv3e86is0","pricing_plan_id":"cebpf4jnsgd1na2vs0mg"},{"bike_id":"38b77181-b3ce-4754-b533-7792bcc3267e","system_id":"levelo_inurba_marseille","lat":43.27372,"lon":5.36254,"is_reserved":false,"is_disabled":false,"rental_uris":{"android":"levelo://app?vid=38b77181-b3ce-4754-b533-7792bcc3267e","ios":"levelo://app?vid=38b77181-b3ce-4754-b533-7792bcc3267e"},"vehicle_type_id":"4","last_reported":1769944387,"current_range_meters":6000,"station_id":"ce4bhbh2rcd13ifvqeo0","pricing_plan_id":"cebpf4jnsgd1na2vs0mg"},{"bike_id":"b3ce92d8-ab73-49fb-b101-7782a24b5043","system_id":"levelo_inurba_marseille","lat":43.24387,"lon":5.37047,"is_reserved":false,"is_disabled":false,"rental_uris":{"android":"levelo://app?vid=b3ce92d8-ab73-49fb-b101-7782a24b5043","ios":"levelo://app?vid=b3ce92d8-ab73-49fb-b101-7782a24b5043"},"vehicle_type_id":"4","last_reported":1769944387,"current_range_meters":6000,"station_id":"ce4bhhh2rcd13ifvqfk0","pricing_plan_id":"cebpf4jnsgd1na2vs0mg"},{"bike_id":"574c22f7-2fee-4c23-9640-6c9588623f30","system_id":"levelo_inurba_marseille","lat":43.29566,"lon":5.39965,"is_reserved":false,"is_disabled":false,"rental_uris":{"android":"levelo://app?vid=574c22f7-2fee-4c23-9640-6c9588623f30","ios":"levelo://app?vid=574c22f7-2fee-4c23-9640-6c9588623f30"},"vehicle_type_id":"4","last_reported":1769944387,"current_range_meters":6000,"station_id":"ce4bh3h2rcd13ifvqdo0","pricing_plan_id":"cebpf4jnsgd1na2vs0mg"},{"bike_id":"9c2cc992-186a-4b4e-a8c4-2416ec14609e","system_id":"levelo_inurba_marseille","lat":43.258669,"lon":5.399026,"is_reserved":false,"is_disabled":false,"rental_uris":{"android":"levelo://app?vid=9c2cc992-186a-4b4e-a8c4-2416ec14609e","ios":"levelo://app?vid=9c2cc992-186a-4b4e-a8c4-2416ec14609e"},"vehicle_type_id":"4","last_reported":1769944387,"current_range_meters":6000,"station_id":"ce4bhl92rcd13ifvqghg","pricing_plan_id":"cebpf4jnsgd1na2vs0mg"},{"bike_id":"ea996b6a-e4df-4475-a81a-600ad94271b6","system_id":"levelo_inurba_marseille","lat":43.30291,"lon":5.39776,"is_reserved":false,"is_disabled":false,"rental_uris":{"android":"levelo://app?vid=ea996b6a-e4df-4475-a81a-600ad94271b6","ios":"levelo://app?vid=ea996b6a-e4df-4475-a81a-600ad94271b6"},"vehicle_type_id":"4","last_reported":1769944387,"current_range_meters":6000,"station_id":"","pricing_plan_id":"cebpf4jnsgd1na2vs0mg"},{"bike_id":"bcd58453-c6d3-458d-8c23-f0e115fa2945","system_id":"levelo_inurba_marseille","lat":43.28865,"lon":5.42508,"is_reserved":false,"is_disabled":false,"rental_uris":{"android":"levelo://app?vid=bcd58453-c6d3-458d-8c23-f0e115fa2945","ios":"levelo://app?vid=bcd58453-c6d3-458d-8c23-f0e115fa2945"},"vehicle_type_id":"4","last_reported":1769944387,"current_range_meters":6000,"station_id":"st_d3b462108ojc7389ooeg","pricing_plan_id":"cebpf4jnsgd1na2vs0mg"},{"bike_id":"e701a3f7-2e1f-487e-bad5-83c9140f1723","system_id":"levelo_inurba_marseille","lat":43.31795,"lon":5.37386,"is_reserved":false,"is_disabled":false,"rental_uris":{"android":"levelo://app?vid=e701a3f7-2e1f-487e-bad5-83c9140f1723","ios":"levelo://app?vid=e701a3f7-2e1f-487e-bad5-83c9140f1723"},"vehicle_type_id":"4","last_reported":1769944387,"current_range_meters":6000,"station_id":"","pricing_plan_id":"cebpf4jnsgd1na2vs0mg"},{"bike_id":"bf30c1e8-f714-451f-b87e-d2a3a642fead","system_id":"levelo_inurba_marseille","lat":43.231527,"lon":5.43719,"is_reserved":false,"is_disabled":false,"rental_uris":{"android":"levelo://app?vid=bf30c1e8-f714-451f-b87e-d2a3a642fead","ios":"levelo://app?vid=bf30c1e8-f714-451f-b87e-d2a3a642fead"},"vehicle_type_id":"4","last_reported":1769944387,"current_range_meters":6000,"station_id":"","pricing_plan_id":"cebpf4jnsgd1na2vs0mg"},{"bike_id":"0e681b67-3fdf-40b6-b942-590e1536d0c5","system_id":"levelo_inurba_marseille","lat":43.24404,"lon":5.37072,"is_reserved":false,"is_disabled":false,"rental_uris":{"android":"levelo://app?vid=0e681b67-3fdf-40b6-b942-590e1536d0c5","ios":"levelo://app?vid=0e681b67-3fdf-40b6-b942-590e1536d0c5"},"vehicle_type_id":"4","last_reported":1769944387,"current_range_meters":6000,"station_id":"ce4bhhh2rcd13ifvqfk0","pricing_plan_id":"cebpf4jnsgd1na2vs0mg"},{"bike_id":"9ec284a7-5619-4e2b-9311-1a9349102c34","system_id":"levelo_inurba_marseille","lat":43.24471,"lon":5.42529,"is_reserved":false,"is_disabled":false,"rental_uris":{"android":"levelo://app?vid=9ec284a7-5619-4e2b-9311-1a9349102c34","ios":"levelo://app?vid=9ec284a7-5619-4e2b-9311-1a9349102c34"},"vehicle_type_id":"4","last_reported":1769944387,"current_range_meters":6000,"station_id":"st_d4a3vfp97mjs738cd8kg","pricing_plan_id":"cebpf4jnsgd1na2vs0mg"},{"bike_id":"74856cd2-f709-469e-b628-27ee18812e7c","system_id":"levelo_inurba_marseille","lat":43.28154,"lon":5.42647,"is_reserved":false,"is_disabled":false,"rental_uris":{"android":"levelo://app?vid=74856cd2-f709-469e-b628-27ee18812e7c","ios":"levelo://app?vid=74856cd2-f709-469e-b628-27ee18812e7c"},"vehicle_type_id":"4","last_reported":1769944387,"current_range_meters":6000,"station_id":"ce4bhnh2rcd13ifvqgug","pricing_plan_id":"cebpf4jnsgd1na2vs0mg"},{"bike_id":"6bfea4ba-2b91-4b08-9c29-b3b584c80f88","system_id":"levelo_inurba_marseille","lat":43.29632,"lon":5.4059,"is_reserved":false,"is_disabled":false,"rental_uris":{"android":"levelo://app?vid=6bfea4ba-2b91-4b08-9c29-b3b584c80f88","ios":"levelo://app?vid=6bfea4ba-2b91-4b08-9c29-b3b584c80f88"},"vehicle_type_id":"4","last_reported":1769944387,"current_range_meters":6000,"station_id":"ce4bh0h2rcd13ifvqd60","pricing_plan_id":"cebpf4jnsgd1na2vs0mg"},{"bike_id":"eae001be-3b34-469f-b5f5-7615da95a4ed","system_id":"levelo_inurba_marseille","lat":43.278069,"lon":5.40735,"is_reserved":false,"is_disabled":false,"rental_uris":{"android":"levelo://app?vid=eae001be-3b34-469f-b5f5-7615da95a4ed","ios":"levelo://app?vid=eae001be-3b34-469f-b5f5-7615da95a4ed"},"vehicle_type_id":"4","last_reported":1769944387,"current_range_meters":6400,"station_id":"ce4bhnh2rcd13ifvqgtg","pricing_plan_id":"cebpf4jnsgd1na2vs0mg"},{"bike_id":"f63ad825-b273-458f-bf2e-2ef630e3fede","system_id":"levelo_inurba_marseille","lat":43.22572,"lon":5.41627,"is_reserved":false,"is_disabled":false,"rental_uris":{"android":"levelo://app?vid=f63ad825-b273-458f-bf2e-2ef630e3fede","ios":"levelo://app?vid=f63ad825-b273-458f-bf2e-2ef630e3fede"},"vehicle_type_id":"4","last_reported":1769944387,"current_range_meters":6400,"station_id":"st_d2o4gvlbi1j2169b742g","pricing_plan_id":"cebpf4jnsgd1na2vs0mg"},{"bike_id":"fb793f9e-27c8-4aa6-9e5b-d172f980944b","system_id":"levelo_inurba_marseille","lat":43.27968,"lon":5.41037,"is_reserved":false,"is_disabled":true,"rental_uris":{"android":"levelo://app?vid=fb793f9e-27c8-4aa6-9e5b-d172f980944b","ios":"levelo://app?vid=fb793f9e-27c8-4aa6-9e5b-d172f980944b"},"vehicle_type_id":"4","last_reported":1769944387,"current_range_meters":6400,"station_id":"ce4bhnp2rcd13ifvqh0g","pricing_plan_id":"cebpf4jnsgd1na2vs0mg"},{"bike_id":"0209bc56-beb4-4095-b758-2ebe14281480","system_id":"levelo_inurba_marseille","lat":43.28724,"lon":5.36102,"is_reserved":false,"is_disabled":false,"rental_uris":{"android":"levelo://app?vid=0209bc56-beb4-4095-b758-2ebe14281480","ios":"levelo://app?vid=0209bc56-beb4-4095-b758-2ebe14281480"},"vehicle_type_id":"4","last_reported":1769944387,"current_range_meters":6400,"station_id":"cki0cbj6b192h4jlfktg","pricing_plan_id":"cebpf4jnsgd1na2vs0mg"},{"bike_id":"e66c0050-63ae-4842-902f-7ed4f4ed8737","system_id":"levelo_inurba_marseille","lat":43.22552,"lon":5.41635,"is_reserved":false,"is_disabled":false,"rental_uris":{"android":"levelo://app?vid=e66c0050-63ae-4842-902f-7ed4f4ed8737","ios":"levelo://app?vid=e66c0050-63ae-4842-902f-7ed4f4ed8737"},"vehicle_type_id":"4","last_reported":1769944387,"current_range_meters":6400,"station_id":"st_d2o4gvlbi1j2169b742g","pricing_plan_id":"cebpf4jnsgd1na2vs0mg"},{"bike_id":"d0765df0-cc90-4cba-8b79-61ce95080b49","system_id":"levelo_inurba_marseille","lat":43.22575,"lon":5.41641,"is_reserved":false,"is_disabled":false,"rental_uris":{"android":"levelo://app?vid=d0765df0-cc90-4cba-8b79-61ce95080b49","ios":"levelo://app?vid=d0765df0-cc90-4cba-8b79-61ce95080b49"},"vehicle_type_id":"4","last_reported":1769944387,"current_range_meters":6400,"station_id":"st_d2o4gvlbi1j2169b742g","pricing_plan_id":"cebpf4jnsgd1na2vs0mg"},{"bike_id":"1b262235-a4c8-42b2-9b62-c37b9e14300f","system_id":"levelo_inurba_marseille","lat":43.278162,"lon":5.407121,"is_reserved":false,"is_disabled":false,"rental_uris":{"android":"levelo://app?vid=1b262235-a4c8-42b2-9b62-c37b9e14300f","ios":"levelo://app?vid=1b262235-a4c8-42b2-9b62-c37b9e14300f"},"vehicle_type_id":"4","last_reported":1769944387,"current_range_meters":6400,"station_id":"ce4bhnh2rcd13ifvqgtg","pricing_plan_id":"cebpf4jnsgd1na2vs0mg"},{"bike_id":"ce82ab3e-8722-48bf-b3dc-98421a0f2a7b","system_id":"levelo_inurba_marseille","lat":43.29626,"lon":5.40596,"is_reserved":false,"is_disabled":false,"rental_uris":{"android":"levelo://app?vid=ce82ab3e-8722-48bf-b3dc-98421a0f2a7b","ios":"levelo://app?vid=ce82ab3e-8722-48bf-b3dc-98421a0f2a7b"},"vehicle_type_id":"4","last_reported":1769944387,"current_range_meters":6400,"station_id":"ce4bh0h2rcd13ifvqd60","pricing_plan_id":"cebpf4jnsgd1na2vs0mg"},{"bike_id":"16fde6d1-f51a-48e7-a728-f69430b0136e","system_id":"levelo_inurba_marseille","lat":43.24381,"lon":5.37074,"is_reserved":false,"is_disabled":false,"rental_uris":{"android":"levelo://app?vid=16fde6d1-f51a-48e7-a728-f69430b0136e","ios":"levelo://app?vid=16fde6d1-f51a-48e7-a728-f69430b0136e"},"vehicle_type_id":"4","last_reported":1769944387,"current_range_meters":6400,"station_id":"ce4bhhh2rcd13ifvqfk0","pricing_plan_id":"cebpf4jnsgd1na2vs0mg"},{"bike_id":"26d92949-edde-4425-aec2-5eaec49f10bf","system_id":"levelo_inurba_marseille","lat":43.26548,"lon":5.37289,"is_reserved":false,"is_disabled":false,"rental_uris":{"android":"levelo://app?vid=26d92949-edde-4425-aec2-5eaec49f10bf","ios":"levelo://app?vid=26d92949-edde-4425-aec2-5eaec49f10bf"},"vehicle_type_id":"4","last_reported":1769944387,"current_range_meters":6400,"station_id":"ce4bhg12rcd13ifvqf70","pricing_plan_id":"cebpf4jnsgd1na2vs0mg"},{"bike_id":"3a9d9d6b-764f-4558-a4a3-5611921af6a1","system_id":"levelo_inurba_marseille","lat":43.2795,"lon":5.41045,"is_reserved":false,"is_disabled":false,"rental_uris":{"android":"levelo://app?vid=3a9d9d6b-764f-4558-a4a3-5611921af6a1","ios":"levelo://app?vid=3a9d9d6b-764f-4558-a4a3-5611921af6a1"},"vehicle_type_id":"4","last_reported":1769944387,"current_range_meters":6400,"station_id":"ce4bhnp2rcd13ifvqh0g","pricing_plan_id":"cebpf4jnsgd1na2vs0mg"},{"bike_id":"180701fc-3466-4739-9acb-7f11e893ebe6","system_id":"levelo_inurba_marseille","lat":43.24451,"lon":5.42545,"is_reserved":false,"is_disabled":false,"rental_uris":{"android":"levelo://app?vid=180701fc-3466-4739-9acb-7f11e893ebe6","ios":"levelo://app?vid=180701fc-3466-4739-9acb-7f11e893ebe6"},"vehicle_type_id":"4","last_reported":1769944387,"current_range_meters":6400,"station_id":"st_d4a3vfp97mjs738cd8kg","pricing_plan_id":"cebpf4jnsgd1na2vs0mg"},{"bike_id":"720ced26-d7a9-429d-864c-2e302e5b2495","system_id":"levelo_inurba_marseille","lat":43.29911,"lon":5.38135,"is_reserved":false,"is_disabled":false,"rental_uris":{"android":"levelo://app?vid=720ced26-d7a9-429d-864c-2e302e5b2495","ios":"levelo://app?vid=720ced26-d7a9-429d-864c-2e302e5b2495"},"vehicle_type_id":"4","last_reported":1769944387,"current_range_meters":6400,"station_id":"ce4bgj12rcd13ifvqbc0","pricing_plan_id":"cebpf4jnsgd1na2vs0mg"},{"bike_id":"9bfe23e5-3791-47e8-8d29-f3e7fb3928fb","system_id":"levelo_inurba_marseille","lat":43.286102,"lon":5.351055,"is_reserved":false,"is_disabled":false,"rental_uris":{"android":"levelo://app?vid=9bfe23e5-3791-47e8-8d29-f3e7fb3928fb","ios":"levelo://app?vid=9bfe23e5-3791-47e8-8d29-f3e7fb3928fb"},"vehicle_type_id":"4","last_reported":1769944387,"current_range_meters":6400,"station_id":"ce4bhch2rcd13ifvqeug","pricing_plan_id":"cebpf4jnsgd1na2vs0mg"},{"bike_id":"8a25a112-bffb-4bc9-b86f-e44087c71e58","system_id":"levelo_inurba_marseille","lat":43.28209,"lon":5.39047,"is_reserved":false,"is_disabled":false,"rental_uris":{"android":"levelo://app?vid=8a25a112-bffb-4bc9-b86f-e44087c71e58","ios":"levelo://app?vid=8a25a112-bffb-4bc9-b86f-e44087c71e58"},"vehicle_type_id":"4","last_reported":1769944387,"current_range_meters":6400,"station_id":"ce4bhn92rcd13ifvqgsg","pricing_plan_id":"cebpf4jnsgd1na2vs0mg"},{"bike_id":"d3215a18-ac25-47b2-bc57-dcaef897eb36","system_id":"levelo_inurba_marseille","lat":43.31404,"lon":5.38583,"is_reserved":false,"is_disabled":false,"rental_uris":{"android":"levelo://app?vid=d3215a18-ac25-47b2-bc57-dcaef897eb36","ios":"levelo://app?vid=d3215a18-ac25-47b2-bc57-dcaef897eb36"},"vehicle_type_id":"4","last_reported":1769944387,"current_range_meters":6800,"station_id":"","pricing_plan_id":"cebpf4jnsgd1na2vs0mg"},{"bike_id":"cda423b0-114c-4365-aeb1-89fb80c8de39","system_id":"levelo_inurba_marseille","lat":43.247995,"lon":5.37452,"is_reserved":false,"is_disabled":false,"rental_uris":{"android":"levelo://app?vid=cda423b0-114c-4365-aeb1-89fb80c8de39","ios":"levelo://app?vid=cda423b0-114c-4365-aeb1-89fb80c8de39"},"vehicle_type_id":"4","last_reported":1769944387,"current_range_meters":6800,"station_id":"ce4bhgh2rcd13ifvqfb0","pricing_plan_id":"cebpf4jnsgd1na2vs0mg"},{"bike_id":"6f8455de-cdcb-4115-8f9f-1a1c57d7cc8a","system_id":"levelo_inurba_marseille","lat":43.24999,"lon":5.38933,"is_reserved":false,"is_disabled":false,"rental_uris":{"android":"levelo://app?vid=6f8455de-cdcb-4115-8f9f-1a1c57d7cc8a","ios":"levelo://app?vid=6f8455de-cdcb-4115-8f9f-1a1c57d7cc8a"},"vehicle_type_id":"4","last_reported":1769944387,"current_range_meters":6800,"station_id":"ce4bhgp2rcd13ifvqfd0","pricing_plan_id":"cebpf4jnsgd1na2vs0mg"},{"bike_id":"1b85baa8-054d-452c-96ac-e14de5f87229","system_id":"levelo_inurba_marseille","lat":43.26559,"lon":5.40328,"is_reserved":false,"is_disabled":false,"rental_uris":{"android":"levelo://app?vid=1b85baa8-054d-452c-96ac-e14de5f87229","ios":"levelo://app?vid=1b85baa8-054d-452c-96ac-e14de5f87229"},"vehicle_type_id":"4","last_reported":1769944387,"current_range_meters":6800,"station_id":"ce4bhmp2rcd13ifvqgng","pricing_plan_id":"cebpf4jnsgd1na2vs0mg"},{"bike_id":"8d19955e-e09c-4b47-a6e3-ae607dbe5088","system_id":"levelo_inurba_marseille","lat":43.26233,"lon":5.37441,"is_reserved":false,"is_disabled":true,"rental_uris":{"android":"levelo://app?vid=8d19955e-e09c-4b47-a6e3-ae607dbe5088","ios":"levelo://app?vid=8d19955e-e09c-4b47-a6e3-ae607dbe5088"},"vehicle_type_id":"4","last_reported":1769944387,"current_range_meters":6800,"station_id":"","pricing_plan_id":"cebpf4jnsgd1na2vs0mg"},{"bike_id":"3471e8e7-8da3-45e0-a561-cdc2e5b04adf","system_id":"levelo_inurba_marseille","lat":43.24607,"lon":5.43147,"is_reserved":false,"is_disabled":false,"rental_uris":{"android":"levelo://app?vid=3471e8e7-8da3-45e0-a561-cdc2e5b04adf","ios":"levelo://app?vid=3471e8e7-8da3-45e0-a561-cdc2e5b04adf"},"vehicle_type_id":"4","last_reported":1769944387,"current_range_meters":6800,"station_id":"st_d2m6c4gdas8pm72e190g","pricing_plan_id":"cebpf4jnsgd1na2vs0mg"},{"bike_id":"e19dcbee-55f5-4a14-8d7c-7f5193d4d389","system_id":"levelo_inurba_marseille","lat":43.27937,"lon":5.41053,"is_reserved":false,"is_disabled":false,"rental_uris":{"android":"levelo://app?vid=e19dcbee-55f5-4a14-8d7c-7f5193d4d389","ios":"levelo://app?vid=e19dcbee-55f5-4a14-8d7c-7f5193d4d389"},"vehicle_type_id":"4","last_reported":1769944387,"current_range_meters":6800,"station_id":"ce4bhnp2rcd13ifvqh0g","pricing_plan_id":"cebpf4jnsgd1na2vs0mg"},{"bike_id":"f74d4c3d-96e9-4afd-9bc9-921171cd5c0f","system_id":"levelo_inurba_marseille","lat":43.27831,"lon":5.40724,"is_reserved":false,"is_disabled":false,"rental_uris":{"android":"levelo://app?vid=f74d4c3d-96e9-4afd-9bc9-921171cd5c0f","ios":"levelo://app?vid=f74d4c3d-96e9-4afd-9bc9-921171cd5c0f"},"vehicle_type_id":"4","last_reported":1769944387,"current_range_meters":6800,"station_id":"ce4bhnh2rcd13ifvqgtg","pricing_plan_id":"cebpf4jnsgd1na2vs0mg"},{"bike_id":"17f7a6ee-3ea2-47b2-a6b2-af428a254ad3","system_id":"levelo_inurba_marseille","lat":43.2863,"lon":5.35098,"is_reserved":false,"is_disabled":false,"rental_uris":{"android":"levelo://app?vid=17f7a6ee-3ea2-47b2-a6b2-af428a254ad3","ios":"levelo://app?vid=17f7a6ee-3ea2-47b2-a6b2-af428a254ad3"},"vehicle_type_id":"4","last_reported":1769944387,"current_range_meters":6800,"station_id":"ce4bhch2rcd13ifvqeug","pricing_plan_id":"cebpf4jnsgd1na2vs0mg"},{"bike_id":"b233dd4b-f1ae-41da-a580-dcfbbd843fa2","system_id":"levelo_inurba_marseille","lat":43.30765,"lon":5.37653,"is_reserved":false,"is_disabled":false,"rental_uris":{"android":"levelo://app?vid=b233dd4b-f1ae-41da-a580-dcfbbd843fa2","ios":"levelo://app?vid=b233dd4b-f1ae-41da-a580-dcfbbd843fa2"},"vehicle_type_id":"4","last_reported":1769944387,"current_range_meters":6800,"station_id":"ce4bgv92rcd13ifvqcq0","pricing_plan_id":"cebpf4jnsgd1na2vs0mg"},{"bike_id":"ee39f90f-3222-4732-9961-b784c72f0999","system_id":"levelo_inurba_marseille","lat":43.23196,"lon":5.35554,"is_reserved":false,"is_disabled":false,"rental_uris":{"android":"levelo://app?vid=ee39f90f-3222-4732-9961-b784c72f0999","ios":"levelo://app?vid=ee39f90f-3222-4732-9961-b784c72f0999"},"vehicle_type_id":"4","last_reported":1769944387,"current_range_meters":6800,"station_id":"ce4bhu92rcd13ifvqi70","pricing_plan_id":"cebpf4jnsgd1na2vs0mg"},{"bike_id":"d8d7d7c6-6bfe-4fb0-85f9-b02b994f2a2a","system_id":"levelo_inurba_marseille","lat":43.29247,"lon":5.36053,"is_reserved":false,"is_disabled":true,"rental_uris":{"android":"levelo://app?vid=d8d7d7c6-6bfe-4fb0-85f9-b02b994f2a2a","ios":"levelo://app?vid=d8d7d7c6-6bfe-4fb0-85f9-b02b994f2a2a"},"vehicle_type_id":"4","last_reported":1769944387,"current_range_meters":7200,"station_id":"ce4bhbh2rcd13ifvqeqg","pricing_plan_id":"cebpf4jnsgd1na2vs0mg"},{"bike_id":"667a8115-c025-4bf7-9ff4-f5acd84dd723","system_id":"levelo_inurba_marseille","lat":43.298125,"lon":5.440665,"is_reserved":false,"is_disabled":false,"rental_uris":{"android":"levelo://app?vid=667a8115-c025-4bf7-9ff4-f5acd84dd723","ios":"levelo://app?vid=667a8115-c025-4bf7-9ff4-f5acd84dd723"},"vehicle_type_id":"4","last_reported":1769944387,"current_range_meters":7200,"station_id":"st_d3jp68qikq2c7381ktn0","pricing_plan_id":"cebpf4jnsgd1na2vs0mg"},{"bike_id":"1b9e7bf5-f399-4b7a-935f-44d1badb48a9","system_id":"levelo_inurba_marseille","lat":43.292661,"lon":5.384371,"is_reserved":false,"is_disabled":false,"rental_uris":{"android":"levelo://app?vid=1b9e7bf5-f399-4b7a-935f-44d1badb48a9","ios":"levelo://app?vid=1b9e7bf5-f399-4b7a-935f-44d1badb48a9"},"vehicle_type_id":"4","last_reported":1769944387,"current_range_meters":7200,"station_id":"ce4bh3p2rcd13ifvqdp0","pricing_plan_id":"cebpf4jnsgd1na2vs0mg"},{"bike_id":"b839137b-0a8e-4fb5-af84-e07b5e0e60bc","system_id":"levelo_inurba_marseille","lat":43.26376,"lon":5.41068,"is_reserved":false,"is_disabled":false,"rental_uris":{"android":"levelo://app?vid=b839137b-0a8e-4fb5-af84-e07b5e0e60bc","ios":"levelo://app?vid=b839137b-0a8e-4fb5-af84-e07b5e0e60bc"},"vehicle_type_id":"4","last_reported":1769944387,"current_range_meters":7200,"station_id":"st_d4e5ca6na9uc73bfl5fg","pricing_plan_id":"cebpf4jnsgd1na2vs0mg"},{"bike_id":"2c9d9ec4-87d2-4a0f-9375-615bf9c41c46","system_id":"levelo_inurba_marseille","lat":43.26192,"lon":5.3745,"is_reserved":false,"is_disabled":false,"rental_uris":{"android":"levelo://app?vid=2c9d9ec4-87d2-4a0f-9375-615bf9c41c46","ios":"levelo://app?vid=2c9d9ec4-87d2-4a0f-9375-615bf9c41c46"},"vehicle_type_id":"4","last_reported":1769944387,"current_range_meters":7200,"station_id":"ce4bhgp2rcd13ifvqfc0","pricing_plan_id":"cebpf4jnsgd1na2vs0mg"},{"bike_id":"767dc731-f365-45e9-b7a0-0144ed9ff9a5","system_id":"levelo_inurba_marseille","lat":43.31211,"lon":5.36892,"is_reserved":false,"is_disabled":false,"rental_uris":{"android":"levelo://app?vid=767dc731-f365-45e9-b7a0-0144ed9ff9a5","ios":"levelo://app?vid=767dc731-f365-45e9-b7a0-0144ed9ff9a5"},"vehicle_type_id":"4","last_reported":1769944387,"current_range_meters":7200,"station_id":"ce4bgl92rcd13ifvqbq0","pricing_plan_id":"cebpf4jnsgd1na2vs0mg"},{"bike_id":"26bd2557-3046-4212-82fc-da1fdbd42b2c","system_id":"levelo_inurba_marseille","lat":43.28529,"lon":5.44086,"is_reserved":false,"is_disabled":false,"rental_uris":{"android":"levelo://app?vid=26bd2557-3046-4212-82fc-da1fdbd42b2c","ios":"levelo://app?vid=26bd2557-3046-4212-82fc-da1fdbd42b2c"},"vehicle_type_id":"4","last_reported":1769944387,"current_range_meters":7200,"station_id":"st_d3j3df2ikq2c7380ej80","pricing_plan_id":"cebpf4jnsgd1na2vs0mg"},{"bike_id":"fdb152c1-6e47-4a4a-a2d9-3ab5de199a7b","system_id":"levelo_inurba_marseille","lat":43.25866,"lon":5.39904,"is_reserved":false,"is_disabled":false,"rental_uris":{"android":"levelo://app?vid=fdb152c1-6e47-4a4a-a2d9-3ab5de199a7b","ios":"levelo://app?vid=fdb152c1-6e47-4a4a-a2d9-3ab5de199a7b"},"vehicle_type_id":"4","last_reported":1769944387,"current_range_meters":7200,"station_id":"ce4bhl92rcd13ifvqghg","pricing_plan_id":"cebpf4jnsgd1na2vs0mg"},{"bike_id":"4e4bdf05-ba27-4779-a7d9-47f59fadbf04","system_id":"levelo_inurba_marseille","lat":43.28417,"lon":5.34991,"is_reserved":false,"is_disabled":false,"rental_uris":{"android":"levelo://app?vid=4e4bdf05-ba27-4779-a7d9-47f59fadbf04","ios":"levelo://app?vid=4e4bdf05-ba27-4779-a7d9-47f59fadbf04"},"vehicle_type_id":"4","last_reported":1769944387,"current_range_meters":7200,"station_id":"ce4bhbh2rcd13ifvqepg","pricing_plan_id":"cebpf4jnsgd1na2vs0mg"},{"bike_id":"bd3e9f4a-b909-4049-a15b-7cd6caee90b2","system_id":"levelo_inurba_marseille","lat":43.30169,"lon":5.38093,"is_reserved":false,"is_disabled":false,"rental_uris":{"android":"levelo://app?vid=bd3e9f4a-b909-4049-a15b-7cd6caee90b2","ios":"levelo://app?vid=bd3e9f4a-b909-4049-a15b-7cd6caee90b2"},"vehicle_type_id":"4","last_reported":1769944387,"current_range_meters":7200,"station_id":"ce4bgjp2rcd13ifvqbh0","pricing_plan_id":"cebpf4jnsgd1na2vs0mg"},{"bike_id":"0b595329-88a5-4dab-8a2c-b70bbda22e84","system_id":"levelo_inurba_marseille","lat":43.27953,"lon":5.41046,"is_reserved":false,"is_disabled":false,"rental_uris":{"android":"levelo://app?vid=0b595329-88a5-4dab-8a2c-b70bbda22e84","ios":"levelo://app?vid=0b595329-88a5-4dab-8a2c-b70bbda22e84"},"vehicle_type_id":"4","last_reported":1769944387,"current_range_meters":7200,"station_id":"ce4bhnp2rcd13ifvqh0g","pricing_plan_id":"cebpf4jnsgd1na2vs0mg"},{"bike_id":"d783747a-4678-4ac0-8d70-6a7f29e70d83","system_id":"levelo_inurba_marseille","lat":43.2722,"lon":5.39183,"is_reserved":false,"is_disabled":false,"rental_uris":{"android":"levelo://app?vid=d783747a-4678-4ac0-8d70-6a7f29e70d83","ios":"levelo://app?vid=d783747a-4678-4ac0-8d70-6a7f29e70d83"},"vehicle_type_id":"4","last_reported":1769944387,"current_range_meters":7200,"station_id":"ce4bhhp2rcd13ifvqfm0","pricing_plan_id":"cebpf4jnsgd1na2vs0mg"},{"bike_id":"5b4c0c7a-c0c9-4273-96c2-faded5f9cc26","system_id":"levelo_inurba_marseille","lat":43.27947,"lon":5.41043,"is_reserved":false,"is_disabled":false,"rental_uris":{"android":"levelo://app?vid=5b4c0c7a-c0c9-4273-96c2-faded5f9cc26","ios":"levelo://app?vid=5b4c0c7a-c0c9-4273-96c2-faded5f9cc26"},"vehicle_type_id":"4","last_reported":1769944387,"current_range_meters":8000,"station_id":"ce4bhnp2rcd13ifvqh0g","pricing_plan_id":"cebpf4jnsgd1na2vs0mg"},{"bike_id":"87a354e2-aacd-4ec9-ade6-6f6c8860ce28","system_id":"levelo_inurba_marseille","lat":43.28029,"lon":5.36945,"is_reserved":false,"is_disabled":false,"rental_uris":{"android":"levelo://app?vid=87a354e2-aacd-4ec9-ade6-6f6c8860ce28","ios":"levelo://app?vid=87a354e2-aacd-4ec9-ade6-6f6c8860ce28"},"vehicle_type_id":"4","last_reported":1769944387,"current_range_meters":8000,"station_id":"ce4bha12rcd13ifvqef0","pricing_plan_id":"cebpf4jnsgd1na2vs0mg"},{"bike_id":"7538f3bc-c504-457b-8867-886447e19dda","system_id":"levelo_inurba_marseille","lat":43.28027,"lon":5.36944,"is_reserved":false,"is_disabled":false,"rental_uris":{"android":"levelo://app?vid=7538f3bc-c504-457b-8867-886447e19dda","ios":"levelo://app?vid=7538f3bc-c504-457b-8867-886447e19dda"},"vehicle_type_id":"4","last_reported":1769944387,"current_range_meters":8000,"station_id":"ce4bha12rcd13ifvqef0","pricing_plan_id":"cebpf4jnsgd1na2vs0mg"},{"bike_id":"d431d2dc-fe64-4d55-be3e-18b6291747e9","system_id":"levelo_inurba_marseille","lat":43.23062,"lon":5.35487,"is_reserved":false,"is_disabled":false,"rental_uris":{"android":"levelo://app?vid=d431d2dc-fe64-4d55-be3e-18b6291747e9","ios":"levelo://app?vid=d431d2dc-fe64-4d55-be3e-18b6291747e9"},"vehicle_type_id":"4","last_reported":1769944387,"current_range_meters":8000,"station_id":"cpo3342slgdg3j2ifvpg","pricing_plan_id":"cebpf4jnsgd1na2vs0mg"},{"bike_id":"c264a993-cd3d-4651-98f5-66184e7cd94c","system_id":"levelo_inurba_marseille","lat":43.23954,"lon":5.36649,"is_reserved":false,"is_disabled":false,"rental_uris":{"android":"levelo://app?vid=c264a993-cd3d-4651-98f5-66184e7cd94c","ios":"levelo://app?vid=c264a993-cd3d-4651-98f5-66184e7cd94c"},"vehicle_type_id":"4","last_reported":1769944387,"current_range_meters":8000,"station_id":"ce4bhi12rcd13ifvqfp0","pricing_plan_id":"cebpf4jnsgd1na2vs0mg"},{"bike_id":"93e60425-8aae-4f4b-b447-57ef8147db67","system_id":"levelo_inurba_marseille","lat":43.2848,"lon":5.48398,"is_reserved":false,"is_disabled":false,"rental_uris":{"android":"levelo://app?vid=93e60425-8aae-4f4b-b447-57ef8147db67","ios":"levelo://app?vid=93e60425-8aae-4f4b-b447-57ef8147db67"},"vehicle_type_id":"4","last_reported":1769944387,"current_range_meters":8000,"station_id":"","pricing_plan_id":"cebpf4jnsgd1na2vs0mg"},{"bike_id":"5e1c4385-fefc-40d8-9043-9539df7efdd8","system_id":"levelo_inurba_marseille","lat":43.337444,"lon":5.374475,"is_reserved":false,"is_disabled":false,"rental_uris":{"android":"levelo://app?vid=5e1c4385-fefc-40d8-9043-9539df7efdd8","ios":"levelo://app?vid=5e1c4385-fefc-40d8-9043-9539df7efdd8"},"vehicle_type_id":"4","last_reported":1769944387,"current_range_meters":8000,"station_id":"ce4bhbp2rcd13ifvqesg","pricing_plan_id":"cebpf4jnsgd1na2vs0mg"},{"bike_id":"a83ea1a8-da73-4f21-a894-c7d25c9bf681","system_id":"levelo_inurba_marseille","lat":43.30936,"lon":5.40157,"is_reserved":false,"is_disabled":false,"rental_uris":{"android":"levelo://app?vid=a83ea1a8-da73-4f21-a894-c7d25c9bf681","ios":"levelo://app?vid=a83ea1a8-da73-4f21-a894-c7d25c9bf681"},"vehicle_type_id":"4","last_reported":1769944387,"current_range_meters":8000,"station_id":"ce4bgvp2rcd13ifvqct0","pricing_plan_id":"cebpf4jnsgd1na2vs0mg"},{"bike_id":"6dbb4a84-c243-4791-922e-d80eaf5646d6","system_id":"levelo_inurba_marseille","lat":43.292343,"lon":5.36073,"is_reserved":false,"is_disabled":false,"rental_uris":{"android":"levelo://app?vid=6dbb4a84-c243-4791-922e-d80eaf5646d6","ios":"levelo://app?vid=6dbb4a84-c243-4791-922e-d80eaf5646d6"},"vehicle_type_id":"4","last_reported":1769944387,"current_range_meters":8000,"station_id":"ce4bhb12rcd13ifvqel0","pricing_plan_id":"cebpf4jnsgd1na2vs0mg"},{"bike_id":"a9976113-461f-4068-baa6-28ae0013e332","system_id":"levelo_inurba_marseille","lat":43.2535,"lon":5.42162,"is_reserved":false,"is_disabled":false,"rental_uris":{"android":"levelo://app?vid=a9976113-461f-4068-baa6-28ae0013e332","ios":"levelo://app?vid=a9976113-461f-4068-baa6-28ae0013e332"},"vehicle_type_id":"4","last_reported":1769944387,"current_range_meters":8000,"station_id":"st_d2m65c5bi1j21697t3ng","pricing_plan_id":"cebpf4jnsgd1na2vs0mg"},{"bike_id":"d1046d10-7333-4216-b933-ddf1f5cebe72","system_id":"levelo_inurba_marseille","lat":43.28621,"lon":5.351128,"is_reserved":false,"is_disabled":false,"rental_uris":{"android":"levelo://app?vid=d1046d10-7333-4216-b933-ddf1f5cebe72","ios":"levelo://app?vid=d1046d10-7333-4216-b933-ddf1f5cebe72"},"vehicle_type_id":"4","last_reported":1769944387,"current_range_meters":8000,"station_id":"ce4bhch2rcd13ifvqeug","pricing_plan_id":"cebpf4jnsgd1na2vs0mg"},{"bike_id":"5dbd8b34-4be5-43ee-9493-728430020619","system_id":"levelo_inurba_marseille","lat":43.30146,"lon":5.38085,"is_reserved":false,"is_disabled":false,"rental_uris":{"android":"levelo://app?vid=5dbd8b34-4be5-43ee-9493-728430020619","ios":"levelo://app?vid=5dbd8b34-4be5-43ee-9493-728430020619"},"vehicle_type_id":"4","last_reported":1769944387,"current_range_meters":8000,"station_id":"ce4bgjp2rcd13ifvqbh0","pricing_plan_id":"cebpf4jnsgd1na2vs0mg"},{"bike_id":"0e021107-8920-4385-98ba-a61e57f8fdce","system_id":"levelo_inurba_marseille","lat":43.30534,"lon":5.36712,"is_reserved":false,"is_disabled":false,"rental_uris":{"android":"levelo://app?vid=0e021107-8920-4385-98ba-a61e57f8fdce","ios":"levelo://app?vid=0e021107-8920-4385-98ba-a61e57f8fdce"},"vehicle_type_id":"4","last_reported":1769944387,"current_range_meters":8000,"station_id":"ce4bgrp2rcd13ifvqc9g","pricing_plan_id":"cebpf4jnsgd1na2vs0mg"},{"bike_id":"a7920bb5-6aee-4e7e-9ec2-959b996c7fb7","system_id":"levelo_inurba_marseille","lat":43.28618,"lon":5.35101,"is_reserved":false,"is_disabled":false,"rental_uris":{"android":"levelo://app?vid=a7920bb5-6aee-4e7e-9ec2-959b996c7fb7","ios":"levelo://app?vid=a7920bb5-6aee-4e7e-9ec2-959b996c7fb7"},"vehicle_type_id":"4","last_reported":1769944387,"current_range_meters":8000,"station_id":"ce4bhch2rcd13ifvqeug","pricing_plan_id":"cebpf4jnsgd1na2vs0mg"},{"bike_id":"fb24d3d1-fd60-4775-b723-157c13e8fff0","system_id":"levelo_inurba_marseille","lat":43.25521,"lon":5.37642,"is_reserved":false,"is_disabled":false,"rental_uris":{"android":"levelo://app?vid=fb24d3d1-fd60-4775-b723-157c13e8fff0","ios":"levelo://app?vid=fb24d3d1-fd60-4775-b723-157c13e8fff0"},"vehicle_type_id":"4","last_reported":1769944387,"current_range_meters":8000,"station_id":"ce4bhh12rcd13ifvqff0","pricing_plan_id":"cebpf4jnsgd1na2vs0mg"},{"bike_id":"75e7e0f4-e18b-4bc3-90c8-b9bce55601cb","system_id":"levelo_inurba_marseille","lat":43.25354,"lon":5.42164,"is_reserved":false,"is_disabled":false,"rental_uris":{"android":"levelo://app?vid=75e7e0f4-e18b-4bc3-90c8-b9bce55601cb","ios":"levelo://app?vid=75e7e0f4-e18b-4bc3-90c8-b9bce55601cb"},"vehicle_type_id":"4","last_reported":1769944387,"current_range_meters":8000,"station_id":"st_d2m65c5bi1j21697t3ng","pricing_plan_id":"cebpf4jnsgd1na2vs0mg"},{"bike_id":"fadbe387-3d5b-4703-ac68-6d85711afca8","system_id":"levelo_inurba_marseille","lat":43.29237,"lon":5.40928,"is_reserved":false,"is_disabled":false,"rental_uris":{"android":"levelo://app?vid=fadbe387-3d5b-4703-ac68-6d85711afca8","ios":"levelo://app?vid=fadbe387-3d5b-4703-ac68-6d85711afca8"},"vehicle_type_id":"4","last_reported":1769944387,"current_range_meters":8000,"station_id":"ce4bh192rcd13ifvqdc0","pricing_plan_id":"cebpf4jnsgd1na2vs0mg"},{"bike_id":"51fab613-fae4-4432-bf60-220d7bd5e6d8","system_id":"levelo_inurba_marseille","lat":43.2462,"lon":5.43099,"is_reserved":false,"is_disabled":false,"rental_uris":{"android":"levelo://app?vid=51fab613-fae4-4432-bf60-220d7bd5e6d8","ios":"levelo://app?vid=51fab613-fae4-4432-bf60-220d7bd5e6d8"},"vehicle_type_id":"4","last_reported":1769944387,"current_range_meters":8000,"station_id":"st_d2m6c4gdas8pm72e190g","pricing_plan_id":"cebpf4jnsgd1na2vs0mg"},{"bike_id":"b4fbeb64-1fb9-4178-ae15-4108561043c9","system_id":"levelo_inurba_marseille","lat":43.24667,"lon":5.38895,"is_reserved":false,"is_disabled":false,"rental_uris":{"android":"levelo://app?vid=b4fbeb64-1fb9-4178-ae15-4108561043c9","ios":"levelo://app?vid=b4fbeb64-1fb9-4178-ae15-4108561043c9"},"vehicle_type_id":"4","last_reported":1769944387,"current_range_meters":8400,"station_id":"ce4bhg12rcd13ifvqf60","pricing_plan_id":"cebpf4jnsgd1na2vs0mg"},{"bike_id":"0a1300ad-2f14-46b7-8956-d36a4a430b42","system_id":"levelo_inurba_marseille","lat":43.24798,"lon":5.37448,"is_reserved":false,"is_disabled":false,"rental_uris":{"android":"levelo://app?vid=0a1300ad-2f14-46b7-8956-d36a4a430b42","ios":"levelo://app?vid=0a1300ad-2f14-46b7-8956-d36a4a430b42"},"vehicle_type_id":"4","last_reported":1769944387,"current_range_meters":8400,"station_id":"ce4bhgh2rcd13ifvqfb0","pricing_plan_id":"cebpf4jnsgd1na2vs0mg"},{"bike_id":"a825a34e-c66c-4578-9dd4-68f63a09f21e","system_id":"levelo_inurba_marseille","lat":43.273759,"lon":5.362524,"is_reserved":false,"is_disabled":false,"rental_uris":{"android":"levelo://app?vid=a825a34e-c66c-4578-9dd4-68f63a09f21e","ios":"levelo://app?vid=a825a34e-c66c-4578-9dd4-68f63a09f21e"},"vehicle_type_id":"4","last_reported":1769944387,"current_range_meters":8400,"station_id":"ce4bhbh2rcd13ifvqeo0","pricing_plan_id":"cebpf4jnsgd1na2vs0mg"},{"bike_id":"a5fa5eb4-dba4-4657-ad87-40acdd8b2f31","system_id":"levelo_inurba_marseille","lat":43.31069,"lon":5.42437,"is_reserved":false,"is_disabled":false,"rental_uris":{"android":"levelo://app?vid=a5fa5eb4-dba4-4657-ad87-40acdd8b2f31","ios":"levelo://app?vid=a5fa5eb4-dba4-4657-ad87-40acdd8b2f31"},"vehicle_type_id":"4","last_reported":1769944387,"current_range_meters":8400,"station_id":"ce4bhp92rcd13ifvqhag","pricing_plan_id":"cebpf4jnsgd1na2vs0mg"},{"bike_id":"33073528-1e22-401a-900c-0ca191a8c4cf","system_id":"levelo_inurba_marseille","lat":43.22559,"lon":5.41637,"is_reserved":false,"is_disabled":false,"rental_uris":{"android":"levelo://app?vid=33073528-1e22-401a-900c-0ca191a8c4cf","ios":"levelo://app?vid=33073528-1e22-401a-900c-0ca191a8c4cf"},"vehicle_type_id":"4","last_reported":1769944387,"current_range_meters":8400,"station_id":"st_d2o4gvlbi1j2169b742g","pricing_plan_id":"cebpf4jnsgd1na2vs0mg"},{"bike_id":"2d5a8c81-1fe2-48a6-9f24-f3795da4474c","system_id":"levelo_inurba_marseille","lat":43.31487,"lon":5.37306,"is_reserved":false,"is_disabled":false,"rental_uris":{"android":"levelo://app?vid=2d5a8c81-1fe2-48a6-9f24-f3795da4474c","ios":"levelo://app?vid=2d5a8c81-1fe2-48a6-9f24-f3795da4474c"},"vehicle_type_id":"4","last_reported":1769944387,"current_range_meters":8400,"station_id":"ce4bgt12rcd13ifvqcd0","pricing_plan_id":"cebpf4jnsgd1na2vs0mg"},{"bike_id":"8a9caeca-dfdf-438d-b0bf-186e18fcd4d1","system_id":"levelo_inurba_marseille","lat":43.30777,"lon":5.37651,"is_reserved":false,"is_disabled":false,"rental_uris":{"android":"levelo://app?vid=8a9caeca-dfdf-438d-b0bf-186e18fcd4d1","ios":"levelo://app?vid=8a9caeca-dfdf-438d-b0bf-186e18fcd4d1"},"vehicle_type_id":"4","last_reported":1769944387,"current_range_meters":8400,"station_id":"ce4bgv92rcd13ifvqcq0","pricing_plan_id":"cebpf4jnsgd1na2vs0mg"},{"bike_id":"2cfe0b76-7fe5-4fd9-b3a3-329506bfba9f","system_id":"levelo_inurba_marseille","lat":43.26574,"lon":5.39019,"is_reserved":false,"is_disabled":false,"rental_uris":{"android":"levelo://app?vid=2cfe0b76-7fe5-4fd9-b3a3-329506bfba9f","ios":"levelo://app?vid=2cfe0b76-7fe5-4fd9-b3a3-329506bfba9f"},"vehicle_type_id":"4","last_reported":1769944387,"current_range_meters":8400,"station_id":"ce4bhe12rcd13ifvqf30","pricing_plan_id":"cebpf4jnsgd1na2vs0mg"},{"bike_id":"fd887aca-98e1-464f-84ac-e7817b808a75","system_id":"levelo_inurba_marseille","lat":43.24391,"lon":5.37052,"is_reserved":false,"is_disabled":false,"rental_uris":{"android":"levelo://app?vid=fd887aca-98e1-464f-84ac-e7817b808a75","ios":"levelo://app?vid=fd887aca-98e1-464f-84ac-e7817b808a75"},"vehicle_type_id":"4","last_reported":1769944387,"current_range_meters":8400,"station_id":"ce4bhhh2rcd13ifvqfk0","pricing_plan_id":"cebpf4jnsgd1na2vs0mg"},{"bike_id":"cb8a0062-a500-4fc4-91e9-9a71be5947aa","system_id":"levelo_inurba_marseille","lat":43.29258,"lon":5.38434,"is_reserved":false,"is_disabled":false,"rental_uris":{"android":"levelo://app?vid=cb8a0062-a500-4fc4-91e9-9a71be5947aa","ios":"levelo://app?vid=cb8a0062-a500-4fc4-91e9-9a71be5947aa"},"vehicle_type_id":"4","last_reported":1769944387,"current_range_meters":8400,"station_id":"ce4bh692rcd13ifvqea0","pricing_plan_id":"cebpf4jnsgd1na2vs0mg"},{"bike_id":"a891a3e9-1684-45b3-a1bd-6420fb24c00f","system_id":"levelo_inurba_marseille","lat":43.29204,"lon":5.36063,"is_reserved":false,"is_disabled":false,"rental_uris":{"android":"levelo://app?vid=a891a3e9-1684-45b3-a1bd-6420fb24c00f","ios":"levelo://app?vid=a891a3e9-1684-45b3-a1bd-6420fb24c00f"},"vehicle_type_id":"4","last_reported":1769944387,"current_range_meters":8400,"station_id":"ce4bhbh2rcd13ifvqeqg","pricing_plan_id":"cebpf4jnsgd1na2vs0mg"},{"bike_id":"3b3a202d-165e-435b-bccc-86ec2425e7db","system_id":"levelo_inurba_marseille","lat":43.24466,"lon":5.42536,"is_reserved":false,"is_disabled":false,"rental_uris":{"android":"levelo://app?vid=3b3a202d-165e-435b-bccc-86ec2425e7db","ios":"levelo://app?vid=3b3a202d-165e-435b-bccc-86ec2425e7db"},"vehicle_type_id":"4","last_reported":1769944387,"current_range_meters":8400,"station_id":"st_d4a3vfp97mjs738cd8kg","pricing_plan_id":"cebpf4jnsgd1na2vs0mg"},{"bike_id":"2b052603-1775-4258-80ad-ae63b6286ef5","system_id":"levelo_inurba_marseille","lat":43.2975,"lon":5.35936,"is_reserved":false,"is_disabled":true,"rental_uris":{"android":"levelo://app?vid=2b052603-1775-4258-80ad-ae63b6286ef5","ios":"levelo://app?vid=2b052603-1775-4258-80ad-ae63b6286ef5"},"vehicle_type_id":"4","last_reported":1769944387,"current_range_meters":8400,"station_id":"","pricing_plan_id":"cebpf4jnsgd1na2vs0mg"},{"bike_id":"fef69268-649b-47e7-8506-c54d12be9f6f","system_id":"levelo_inurba_marseille","lat":43.29002,"lon":5.35603,"is_reserved":false,"is_disabled":false,"rental_uris":{"android":"levelo://app?vid=fef69268-649b-47e7-8506-c54d12be9f6f","ios":"levelo://app?vid=fef69268-649b-47e7-8506-c54d12be9f6f"},"vehicle_type_id":"4","last_reported":1769944387,"current_range_meters":8400,"station_id":"ce4bhb92rcd13ifvqen0","pricing_plan_id":"cebpf4jnsgd1na2vs0mg"},{"bike_id":"6632b7eb-39fd-4ac6-ab18-a3a8fd79732f","system_id":"levelo_inurba_marseille","lat":43.30954,"lon":5.37271,"is_reserved":false,"is_disabled":false,"rental_uris":{"android":"levelo://app?vid=6632b7eb-39fd-4ac6-ab18-a3a8fd79732f","ios":"levelo://app?vid=6632b7eb-39fd-4ac6-ab18-a3a8fd79732f"},"vehicle_type_id":"4","last_reported":1769944387,"current_range_meters":8400,"station_id":"","pricing_plan_id":"cebpf4jnsgd1na2vs0mg"},{"bike_id":"18b44cf5-d138-4dfd-b2c6-291ea8bbe308","system_id":"levelo_inurba_marseille","lat":43.26199,"lon":5.37441,"is_reserved":false,"is_disabled":false,"rental_uris":{"android":"levelo://app?vid=18b44cf5-d138-4dfd-b2c6-291ea8bbe308","ios":"levelo://app?vid=18b44cf5-d138-4dfd-b2c6-291ea8bbe308"},"vehicle_type_id":"4","last_reported":1769944387,"current_range_meters":8400,"station_id":"ce4bhgp2rcd13ifvqfc0","pricing_plan_id":"cebpf4jnsgd1na2vs0mg"},{"bike_id":"58982c61-2f00-4e02-b620-223b4d372a1d","system_id":"levelo_inurba_marseille","lat":43.2559,"lon":5.38246,"is_reserved":false,"is_disabled":false,"rental_uris":{"android":"levelo://app?vid=58982c61-2f00-4e02-b620-223b4d372a1d","ios":"levelo://app?vid=58982c61-2f00-4e02-b620-223b4d372a1d"},"vehicle_type_id":"4","last_reported":1769944387,"current_range_meters":8400,"station_id":"ce4bhih2rcd13ifvqfs0","pricing_plan_id":"cebpf4jnsgd1na2vs0mg"},{"bike_id":"f1afd73d-ec70-4dba-ac5d-df0bb8cc8cb8","system_id":"levelo_inurba_marseille","lat":43.24653,"lon":5.43147,"is_reserved":false,"is_disabled":false,"rental_uris":{"android":"levelo://app?vid=f1afd73d-ec70-4dba-ac5d-df0bb8cc8cb8","ios":"levelo://app?vid=f1afd73d-ec70-4dba-ac5d-df0bb8cc8cb8"},"vehicle_type_id":"4","last_reported":1769944387,"current_range_meters":8800,"station_id":"st_d2m6c4gdas8pm72e190g","pricing_plan_id":"cebpf4jnsgd1na2vs0mg"},{"bike_id":"9b20b5a9-effa-4acc-bc7b-d6e52e4368f6","system_id":"levelo_inurba_marseille","lat":43.26778,"lon":5.3942,"is_reserved":false,"is_disabled":false,"rental_uris":{"android":"levelo://app?vid=9b20b5a9-effa-4acc-bc7b-d6e52e4368f6","ios":"levelo://app?vid=9b20b5a9-effa-4acc-bc7b-d6e52e4368f6"},"vehicle_type_id":"4","last_reported":1769944387,"current_range_meters":8800,"station_id":"ce4bhh12rcd13ifvqfg0","pricing_plan_id":"cebpf4jnsgd1na2vs0mg"},{"bike_id":"d2ee53f1-49b6-44a6-a171-d364ff8162cf","system_id":"levelo_inurba_marseille","lat":43.33368,"lon":5.43115,"is_reserved":false,"is_disabled":false,"rental_uris":{"android":"levelo://app?vid=d2ee53f1-49b6-44a6-a171-d364ff8162cf","ios":"levelo://app?vid=d2ee53f1-49b6-44a6-a171-d364ff8162cf"},"vehicle_type_id":"4","last_reported":1769944387,"current_range_meters":8800,"station_id":"","pricing_plan_id":"cebpf4jnsgd1na2vs0mg"},{"bike_id":"cb16a0fb-a0f9-4601-ab2a-91a6d88760fa","system_id":"levelo_inurba_marseille","lat":43.2658,"lon":5.40322,"is_reserved":false,"is_disabled":false,"rental_uris":{"android":"levelo://app?vid=cb16a0fb-a0f9-4601-ab2a-91a6d88760fa","ios":"levelo://app?vid=cb16a0fb-a0f9-4601-ab2a-91a6d88760fa"},"vehicle_type_id":"4","last_reported":1769944387,"current_range_meters":8800,"station_id":"ce4bhmp2rcd13ifvqgng","pricing_plan_id":"cebpf4jnsgd1na2vs0mg"},{"bike_id":"004df261-4f08-4a49-a173-244244948504","system_id":"levelo_inurba_marseille","lat":43.29754,"lon":5.37777,"is_reserved":false,"is_disabled":false,"rental_uris":{"android":"levelo://app?vid=004df261-4f08-4a49-a173-244244948504","ios":"levelo://app?vid=004df261-4f08-4a49-a173-244244948504"},"vehicle_type_id":"4","last_reported":1769944387,"current_range_meters":8800,"station_id":"","pricing_plan_id":"cebpf4jnsgd1na2vs0mg"},{"bike_id":"ab6c83e0-5dad-4068-933a-4059e6467edb","system_id":"levelo_inurba_marseille","lat":43.26587,"lon":5.40324,"is_reserved":false,"is_disabled":false,"rental_uris":{"android":"levelo://app?vid=ab6c83e0-5dad-4068-933a-4059e6467edb","ios":"levelo://app?vid=ab6c83e0-5dad-4068-933a-4059e6467edb"},"vehicle_type_id":"4","last_reported":1769944387,"current_range_meters":8800,"station_id":"ce4bhmp2rcd13ifvqgng","pricing_plan_id":"cebpf4jnsgd1na2vs0mg"},{"bike_id":"b00753f6-9e43-40ef-9959-628446071746","system_id":"levelo_inurba_marseille","lat":43.278066,"lon":5.407224,"is_reserved":false,"is_disabled":true,"rental_uris":{"android":"levelo://app?vid=b00753f6-9e43-40ef-9959-628446071746","ios":"levelo://app?vid=b00753f6-9e43-40ef-9959-628446071746"},"vehicle_type_id":"4","last_reported":1769944387,"current_range_meters":8800,"station_id":"ce4bhnh2rcd13ifvqgtg","pricing_plan_id":"cebpf4jnsgd1na2vs0mg"},{"bike_id":"4c50b102-00aa-40e2-83bd-5e90d2e54b17","system_id":"levelo_inurba_marseille","lat":43.279891,"lon":5.400138,"is_reserved":false,"is_disabled":false,"rental_uris":{"android":"levelo://app?vid=4c50b102-00aa-40e2-83bd-5e90d2e54b17","ios":"levelo://app?vid=4c50b102-00aa-40e2-83bd-5e90d2e54b17"},"vehicle_type_id":"4","last_reported":1769944387,"current_range_meters":8800,"station_id":"ce4bho92rcd13ifvqh4g","pricing_plan_id":"cebpf4jnsgd1na2vs0mg"},{"bike_id":"4ad2da66-d00a-4006-af72-87c62567c87f","system_id":"levelo_inurba_marseille","lat":43.31033,"lon":5.38603,"is_reserved":false,"is_disabled":false,"rental_uris":{"android":"levelo://app?vid=4ad2da66-d00a-4006-af72-87c62567c87f","ios":"levelo://app?vid=4ad2da66-d00a-4006-af72-87c62567c87f"},"vehicle_type_id":"4","last_reported":1769944387,"current_range_meters":8800,"station_id":"","pricing_plan_id":"cebpf4jnsgd1na2vs0mg"},{"bike_id":"bafe06f4-691a-42ad-b544-2647048d76df","system_id":"levelo_inurba_marseille","lat":43.23029,"lon":5.35501,"is_reserved":false,"is_disabled":false,"rental_uris":{"android":"levelo://app?vid=bafe06f4-691a-42ad-b544-2647048d76df","ios":"levelo://app?vid=bafe06f4-691a-42ad-b544-2647048d76df"},"vehicle_type_id":"4","last_reported":1769944387,"current_range_meters":8800,"station_id":"cpo3342slgdg3j2ifvpg","pricing_plan_id":"cebpf4jnsgd1na2vs0mg"},{"bike_id":"f152d78c-f2e0-4c77-8d6e-dd0072285ace","system_id":"levelo_inurba_marseille","lat":43.249553,"lon":5.404923,"is_reserved":false,"is_disabled":false,"rental_uris":{"android":"levelo://app?vid=f152d78c-f2e0-4c77-8d6e-dd0072285ace","ios":"levelo://app?vid=f152d78c-f2e0-4c77-8d6e-dd0072285ace"},"vehicle_type_id":"4","last_reported":1769944387,"current_range_meters":8800,"station_id":"st_d2ngiaodas8pm72gd1h0","pricing_plan_id":"cebpf4jnsgd1na2vs0mg"},{"bike_id":"6aaa843e-d243-4733-a9e7-084587dc5afb","system_id":"levelo_inurba_marseille","lat":43.24985,"lon":5.38936,"is_reserved":false,"is_disabled":false,"rental_uris":{"android":"levelo://app?vid=6aaa843e-d243-4733-a9e7-084587dc5afb","ios":"levelo://app?vid=6aaa843e-d243-4733-a9e7-084587dc5afb"},"vehicle_type_id":"4","last_reported":1769944387,"current_range_meters":8800,"station_id":"ce4bhgp2rcd13ifvqfd0","pricing_plan_id":"cebpf4jnsgd1na2vs0mg"},{"bike_id":"988398a3-7ea1-401c-9290-5cadcd4b0590","system_id":"levelo_inurba_marseille","lat":43.2504,"lon":5.38939,"is_reserved":false,"is_disabled":false,"rental_uris":{"android":"levelo://app?vid=988398a3-7ea1-401c-9290-5cadcd4b0590","ios":"levelo://app?vid=988398a3-7ea1-401c-9290-5cadcd4b0590"},"vehicle_type_id":"4","last_reported":1769944387,"current_range_meters":8800,"station_id":"ce4bhgp2rcd13ifvqfd0","pricing_plan_id":"cebpf4jnsgd1na2vs0mg"},{"bike_id":"d6fd3dc6-4a1a-42ff-a99a-2a4b414e13ca","system_id":"levelo_inurba_marseille","lat":43.2535,"lon":5.42202,"is_reserved":false,"is_disabled":false,"rental_uris":{"android":"levelo://app?vid=d6fd3dc6-4a1a-42ff-a99a-2a4b414e13ca","ios":"levelo://app?vid=d6fd3dc6-4a1a-42ff-a99a-2a4b414e13ca"},"vehicle_type_id":"4","last_reported":1769944387,"current_range_meters":8800,"station_id":"st_d2m65c5bi1j21697t3ng","pricing_plan_id":"cebpf4jnsgd1na2vs0mg"},{"bike_id":"60aef9e3-1dc4-45ab-a812-de9a7cd0304e","system_id":"levelo_inurba_marseille","lat":43.26032,"lon":5.37547,"is_reserved":false,"is_disabled":false,"rental_uris":{"android":"levelo://app?vid=60aef9e3-1dc4-45ab-a812-de9a7cd0304e","ios":"levelo://app?vid=60aef9e3-1dc4-45ab-a812-de9a7cd0304e"},"vehicle_type_id":"4","last_reported":1769944387,"current_range_meters":8800,"station_id":"ce4bhgh2rcd13ifvqfa0","pricing_plan_id":"cebpf4jnsgd1na2vs0mg"},{"bike_id":"b85a3758-3fce-47db-86e6-ca9200cd0081","system_id":"levelo_inurba_marseille","lat":43.21753,"lon":5.34601,"is_reserved":false,"is_disabled":false,"rental_uris":{"android":"levelo://app?vid=b85a3758-3fce-47db-86e6-ca9200cd0081","ios":"levelo://app?vid=b85a3758-3fce-47db-86e6-ca9200cd0081"},"vehicle_type_id":"4","last_reported":1769944387,"current_range_meters":9200,"station_id":"st_cvj6r9ubvosntc0bgbag","pricing_plan_id":"cebpf4jnsgd1na2vs0mg"},{"bike_id":"915f07f8-71e8-442d-9fd7-f7e4f42ace83","system_id":"levelo_inurba_marseille","lat":43.23786,"lon":5.3664,"is_reserved":false,"is_disabled":false,"rental_uris":{"android":"levelo://app?vid=915f07f8-71e8-442d-9fd7-f7e4f42ace83","ios":"levelo://app?vid=915f07f8-71e8-442d-9fd7-f7e4f42ace83"},"vehicle_type_id":"4","last_reported":1769944387,"current_range_meters":9200,"station_id":"st_d3nk18o9ro0c73en2l3g","pricing_plan_id":"cebpf4jnsgd1na2vs0mg"},{"bike_id":"b56c3648-8b3b-4f14-a640-cc11d18e2a7d","system_id":"levelo_inurba_marseille","lat":43.25726,"lon":5.41107,"is_reserved":false,"is_disabled":false,"rental_uris":{"android":"levelo://app?vid=b56c3648-8b3b-4f14-a640-cc11d18e2a7d","ios":"levelo://app?vid=b56c3648-8b3b-4f14-a640-cc11d18e2a7d"},"vehicle_type_id":"4","last_reported":1769944387,"current_range_meters":9200,"station_id":"ce4bhkp2rcd13ifvqgd0","pricing_plan_id":"cebpf4jnsgd1na2vs0mg"},{"bike_id":"aee55d88-d26d-4627-9e7c-8992b0fd22f2","system_id":"levelo_inurba_marseille","lat":43.26375,"lon":5.41068,"is_reserved":false,"is_disabled":false,"rental_uris":{"android":"levelo://app?vid=aee55d88-d26d-4627-9e7c-8992b0fd22f2","ios":"levelo://app?vid=aee55d88-d26d-4627-9e7c-8992b0fd22f2"},"vehicle_type_id":"4","last_reported":1769944387,"current_range_meters":9200,"station_id":"st_d4e5ca6na9uc73bfl5fg","pricing_plan_id":"cebpf4jnsgd1na2vs0mg"},{"bike_id":"67b22d03-789e-44cf-a597-0ecf35a562c9","system_id":"levelo_inurba_marseille","lat":43.27063,"lon":5.38315,"is_reserved":false,"is_disabled":false,"rental_uris":{"android":"levelo://app?vid=67b22d03-789e-44cf-a597-0ecf35a562c9","ios":"levelo://app?vid=67b22d03-789e-44cf-a597-0ecf35a562c9"},"vehicle_type_id":"4","last_reported":1769944387,"current_range_meters":9200,"station_id":"st_d3n2fo6cfp8s73cte1j0","pricing_plan_id":"cebpf4jnsgd1na2vs0mg"},{"bike_id":"3974ebe5-3070-4140-8de4-6e1a67d32b2b","system_id":"levelo_inurba_marseille","lat":43.29599,"lon":5.36726,"is_reserved":false,"is_disabled":false,"rental_uris":{"android":"levelo://app?vid=3974ebe5-3070-4140-8de4-6e1a67d32b2b","ios":"levelo://app?vid=3974ebe5-3070-4140-8de4-6e1a67d32b2b"},"vehicle_type_id":"4","last_reported":1769944387,"current_range_meters":9200,"station_id":"ce4bgph2rcd13ifvqc2g","pricing_plan_id":"cebpf4jnsgd1na2vs0mg"},{"bike_id":"5ae045ad-f8a1-4282-8e95-bd3bfad6b000","system_id":"levelo_inurba_marseille","lat":43.32037,"lon":5.41587,"is_reserved":false,"is_disabled":false,"rental_uris":{"android":"levelo://app?vid=5ae045ad-f8a1-4282-8e95-bd3bfad6b000","ios":"levelo://app?vid=5ae045ad-f8a1-4282-8e95-bd3bfad6b000"},"vehicle_type_id":"4","last_reported":1769944387,"current_range_meters":9200,"station_id":"ce4bhq92rcd13ifvqhkg","pricing_plan_id":"cebpf4jnsgd1na2vs0mg"},{"bike_id":"20e03ce1-969b-4c42-b994-d1d22302c133","system_id":"levelo_inurba_marseille","lat":43.29565,"lon":5.37499,"is_reserved":false,"is_disabled":false,"rental_uris":{"android":"levelo://app?vid=20e03ce1-969b-4c42-b994-d1d22302c133","ios":"levelo://app?vid=20e03ce1-969b-4c42-b994-d1d22302c133"},"vehicle_type_id":"4","last_reported":1769944387,"current_range_meters":9200,"station_id":"ce4bgh92rcd13ifvqb50","pricing_plan_id":"cebpf4jnsgd1na2vs0mg"},{"bike_id":"282b4c58-6430-4481-adf2-6fc926d2a7c4","system_id":"levelo_inurba_marseille","lat":43.23197,"lon":5.35536,"is_reserved":false,"is_disabled":false,"rental_uris":{"android":"levelo://app?vid=282b4c58-6430-4481-adf2-6fc926d2a7c4","ios":"levelo://app?vid=282b4c58-6430-4481-adf2-6fc926d2a7c4"},"vehicle_type_id":"4","last_reported":1769944387,"current_range_meters":9200,"station_id":"ce4bhu92rcd13ifvqi70","pricing_plan_id":"cebpf4jnsgd1na2vs0mg"},{"bike_id":"6a1861d6-3bd8-4d97-b5bb-6ee921eaa6b3","system_id":"levelo_inurba_marseille","lat":43.297099,"lon":5.366138,"is_reserved":false,"is_disabled":false,"rental_uris":{"android":"levelo://app?vid=6a1861d6-3bd8-4d97-b5bb-6ee921eaa6b3","ios":"levelo://app?vid=6a1861d6-3bd8-4d97-b5bb-6ee921eaa6b3"},"vehicle_type_id":"4","last_reported":1769944387,"current_range_meters":9200,"station_id":"ce4bgn12rcd13ifvqbt0","pricing_plan_id":"cebpf4jnsgd1na2vs0mg"},{"bike_id":"bad2142d-9f55-4621-b045-df305d11c2d1","system_id":"levelo_inurba_marseille","lat":43.31211,"lon":5.36859,"is_reserved":false,"is_disabled":false,"rental_uris":{"android":"levelo://app?vid=bad2142d-9f55-4621-b045-df305d11c2d1","ios":"levelo://app?vid=bad2142d-9f55-4621-b045-df305d11c2d1"},"vehicle_type_id":"4","last_reported":1769944387,"current_range_meters":9200,"station_id":"ce4bgl92rcd13ifvqbq0","pricing_plan_id":"cebpf4jnsgd1na2vs0mg"},{"bike_id":"b26b7a51-932a-4045-96ca-602fdf1f8264","system_id":"levelo_inurba_marseille","lat":43.23064,"lon":5.35491,"is_reserved":false,"is_disabled":false,"rental_uris":{"android":"levelo://app?vid=b26b7a51-932a-4045-96ca-602fdf1f8264","ios":"levelo://app?vid=b26b7a51-932a-4045-96ca-602fdf1f8264"},"vehicle_type_id":"4","last_reported":1769944387,"current_range_meters":9200,"station_id":"cpo3342slgdg3j2ifvpg","pricing_plan_id":"cebpf4jnsgd1na2vs0mg"},{"bike_id":"2d4ebfca-65a9-45df-94a7-d7bd8832fb59","system_id":"levelo_inurba_marseille","lat":43.27369,"lon":5.36253,"is_reserved":false,"is_disabled":false,"rental_uris":{"android":"levelo://app?vid=2d4ebfca-65a9-45df-94a7-d7bd8832fb59","ios":"levelo://app?vid=2d4ebfca-65a9-45df-94a7-d7bd8832fb59"},"vehicle_type_id":"4","last_reported":1769944387,"current_range_meters":9200,"station_id":"ce4bhbh2rcd13ifvqeo0","pricing_plan_id":"cebpf4jnsgd1na2vs0mg"},{"bike_id":"2f4b03ff-6994-4226-a583-6c5a84583b0a","system_id":"levelo_inurba_marseille","lat":43.30177,"lon":5.3807,"is_reserved":false,"is_disabled":false,"rental_uris":{"android":"levelo://app?vid=2f4b03ff-6994-4226-a583-6c5a84583b0a","ios":"levelo://app?vid=2f4b03ff-6994-4226-a583-6c5a84583b0a"},"vehicle_type_id":"4","last_reported":1769944387,"current_range_meters":9600,"station_id":"ce4bgjp2rcd13ifvqbh0","pricing_plan_id":"cebpf4jnsgd1na2vs0mg"},{"bike_id":"d1a4c207-5791-4015-8c48-e9fcda8077be","system_id":"levelo_inurba_marseille","lat":43.33144,"lon":5.37705,"is_reserved":false,"is_disabled":false,"rental_uris":{"android":"levelo://app?vid=d1a4c207-5791-4015-8c48-e9fcda8077be","ios":"levelo://app?vid=d1a4c207-5791-4015-8c48-e9fcda8077be"},"vehicle_type_id":"4","last_reported":1769944387,"current_range_meters":9600,"station_id":"st_d46cu089ee8s73dldbu0","pricing_plan_id":"cebpf4jnsgd1na2vs0mg"},{"bike_id":"c267d68a-13ed-4375-bee5-1964ce213b24","system_id":"levelo_inurba_marseille","lat":43.21751,"lon":5.34603,"is_reserved":false,"is_disabled":false,"rental_uris":{"android":"levelo://app?vid=c267d68a-13ed-4375-bee5-1964ce213b24","ios":"levelo://app?vid=c267d68a-13ed-4375-bee5-1964ce213b24"},"vehicle_type_id":"4","last_reported":1769944387,"current_range_meters":9600,"station_id":"st_cvj6r9ubvosntc0bgbag","pricing_plan_id":"cebpf4jnsgd1na2vs0mg"},{"bike_id":"f6996a1d-84bc-4923-a410-491084e940e3","system_id":"levelo_inurba_marseille","lat":43.23181,"lon":5.399985,"is_reserved":false,"is_disabled":false,"rental_uris":{"android":"levelo://app?vid=f6996a1d-84bc-4923-a410-491084e940e3","ios":"levelo://app?vid=f6996a1d-84bc-4923-a410-491084e940e3"},"vehicle_type_id":"4","last_reported":1769944387,"current_range_meters":9600,"station_id":"ce4bhn12rcd13ifvqgqg","pricing_plan_id":"cebpf4jnsgd1na2vs0mg"},{"bike_id":"2d538e38-1b37-4b8e-bd2e-7d47bdc6040e","system_id":"levelo_inurba_marseille","lat":43.29028,"lon":5.37546,"is_reserved":false,"is_disabled":true,"rental_uris":{"android":"levelo://app?vid=2d538e38-1b37-4b8e-bd2e-7d47bdc6040e","ios":"levelo://app?vid=2d538e38-1b37-4b8e-bd2e-7d47bdc6040e"},"vehicle_type_id":"4","last_reported":1769944387,"current_range_meters":9600,"station_id":"ce4bh692rcd13ifvqe90","pricing_plan_id":"cebpf4jnsgd1na2vs0mg"},{"bike_id":"e1d85e8f-816e-43e5-832f-fa3bb6c7d9fd","system_id":"levelo_inurba_marseille","lat":43.298148,"lon":5.440712,"is_reserved":false,"is_disabled":false,"rental_uris":{"android":"levelo://app?vid=e1d85e8f-816e-43e5-832f-fa3bb6c7d9fd","ios":"levelo://app?vid=e1d85e8f-816e-43e5-832f-fa3bb6c7d9fd"},"vehicle_type_id":"4","last_reported":1769944387,"current_range_meters":9600,"station_id":"st_d3jp68qikq2c7381ktn0","pricing_plan_id":"cebpf4jnsgd1na2vs0mg"},{"bike_id":"4d614b31-2487-459c-80b4-20568895cab0","system_id":"levelo_inurba_marseille","lat":43.24006,"lon":5.37802,"is_reserved":false,"is_disabled":true,"rental_uris":{"android":"levelo://app?vid=4d614b31-2487-459c-80b4-20568895cab0","ios":"levelo://app?vid=4d614b31-2487-459c-80b4-20568895cab0"},"vehicle_type_id":"4","last_reported":1769944387,"current_range_meters":9600,"station_id":"ce4bhnp2rcd13ifvqgvg","pricing_plan_id":"cebpf4jnsgd1na2vs0mg"},{"bike_id":"ead9d525-178d-43f7-b202-498aac541976","system_id":"levelo_inurba_marseille","lat":43.22551,"lon":5.41637,"is_reserved":false,"is_disabled":false,"rental_uris":{"android":"levelo://app?vid=ead9d525-178d-43f7-b202-498aac541976","ios":"levelo://app?vid=ead9d525-178d-43f7-b202-498aac541976"},"vehicle_type_id":"4","last_reported":1769944387,"current_range_meters":9600,"station_id":"st_d2o4gvlbi1j2169b742g","pricing_plan_id":"cebpf4jnsgd1na2vs0mg"},{"bike_id":"3a58788c-4a23-4531-9872-db4b04a34512","system_id":"levelo_inurba_marseille","lat":43.2503,"lon":5.38919,"is_reserved":false,"is_disabled":false,"rental_uris":{"android":"levelo://app?vid=3a58788c-4a23-4531-9872-db4b04a34512","ios":"levelo://app?vid=3a58788c-4a23-4531-9872-db4b04a34512"},"vehicle_type_id":"4","last_reported":1769944387,"current_range_meters":9600,"station_id":"ce4bhgp2rcd13ifvqfd0","pricing_plan_id":"cebpf4jnsgd1na2vs0mg"},{"bike_id":"cbd41836-519e-491b-817e-da80a25e8193","system_id":"levelo_inurba_marseille","lat":43.28601,"lon":5.35101,"is_reserved":false,"is_disabled":false,"rental_uris":{"android":"levelo://app?vid=cbd41836-519e-491b-817e-da80a25e8193","ios":"levelo://app?vid=cbd41836-519e-491b-817e-da80a25e8193"},"vehicle_type_id":"4","last_reported":1769944387,"current_range_meters":9600,"station_id":"ce4bhch2rcd13ifvqeug","pricing_plan_id":"cebpf4jnsgd1na2vs0mg"},{"bike_id":"b9a9097f-13d0-49a9-bb46-6f5237ccc9ec","system_id":"levelo_inurba_marseille","lat":43.27385,"lon":5.36248,"is_reserved":false,"is_disabled":false,"rental_uris":{"android":"levelo://app?vid=b9a9097f-13d0-49a9-bb46-6f5237ccc9ec","ios":"levelo://app?vid=b9a9097f-13d0-49a9-bb46-6f5237ccc9ec"},"vehicle_type_id":"4","last_reported":1769944387,"current_range_meters":9600,"station_id":"ce4bhbh2rcd13ifvqeo0","pricing_plan_id":"cebpf4jnsgd1na2vs0mg"},{"bike_id":"bb0a8617-eeb8-4c5c-819e-78e4a9bf65c3","system_id":"levelo_inurba_marseille","lat":43.2792,"lon":5.41059,"is_reserved":false,"is_disabled":false,"rental_uris":{"android":"levelo://app?vid=bb0a8617-eeb8-4c5c-819e-78e4a9bf65c3","ios":"levelo://app?vid=bb0a8617-eeb8-4c5c-819e-78e4a9bf65c3"},"vehicle_type_id":"4","last_reported":1769944387,"current_range_meters":9600,"station_id":"ce4bhnp2rcd13ifvqh0g","pricing_plan_id":"cebpf4jnsgd1na2vs0mg"},{"bike_id":"8659a37c-d753-41da-9ce3-905c08503bac","system_id":"levelo_inurba_marseille","lat":43.31195,"lon":5.3685,"is_reserved":false,"is_disabled":false,"rental_uris":{"android":"levelo://app?vid=8659a37c-d753-41da-9ce3-905c08503bac","ios":"levelo://app?vid=8659a37c-d753-41da-9ce3-905c08503bac"},"vehicle_type_id":"4","last_reported":1769944387,"current_range_meters":9600,"station_id":"ce4bgl92rcd13ifvqbq0","pricing_plan_id":"cebpf4jnsgd1na2vs0mg"},{"bike_id":"48defe86-fd01-4bdf-bb58-0b96240d5da2","system_id":"levelo_inurba_marseille","lat":43.28479,"lon":5.48393,"is_reserved":false,"is_disabled":false,"rental_uris":{"android":"levelo://app?vid=48defe86-fd01-4bdf-bb58-0b96240d5da2","ios":"levelo://app?vid=48defe86-fd01-4bdf-bb58-0b96240d5da2"},"vehicle_type_id":"4","last_reported":1769944387,"current_range_meters":9600,"station_id":"st_d3svhcjqgbts73a3dn0g","pricing_plan_id":"cebpf4jnsgd1na2vs0mg"},{"bike_id":"e09e2717-153b-489f-b446-f480f14d97b2","system_id":"levelo_inurba_marseille","lat":43.27928,"lon":5.41065,"is_reserved":false,"is_disabled":false,"rental_uris":{"android":"levelo://app?vid=e09e2717-153b-489f-b446-f480f14d97b2","ios":"levelo://app?vid=e09e2717-153b-489f-b446-f480f14d97b2"},"vehicle_type_id":"4","last_reported":1769944387,"current_range_meters":10000,"station_id":"ce4bhnp2rcd13ifvqh0g","pricing_plan_id":"cebpf4jnsgd1na2vs0mg"},{"bike_id":"fcc56630-d6aa-427a-9b6b-6381e911d09d","system_id":"levelo_inurba_marseille","lat":43.27952,"lon":5.41041,"is_reserved":false,"is_disabled":false,"rental_uris":{"android":"levelo://app?vid=fcc56630-d6aa-427a-9b6b-6381e911d09d","ios":"levelo://app?vid=fcc56630-d6aa-427a-9b6b-6381e911d09d"},"vehicle_type_id":"4","last_reported":1769944387,"current_range_meters":10000,"station_id":"ce4bhnp2rcd13ifvqh0g","pricing_plan_id":"cebpf4jnsgd1na2vs0mg"},{"bike_id":"7dedd366-c8c3-488a-8716-316bc1150e26","system_id":"levelo_inurba_marseille","lat":43.29576,"lon":5.39986,"is_reserved":false,"is_disabled":false,"rental_uris":{"android":"levelo://app?vid=7dedd366-c8c3-488a-8716-316bc1150e26","ios":"levelo://app?vid=7dedd366-c8c3-488a-8716-316bc1150e26"},"vehicle_type_id":"4","last_reported":1769944387,"current_range_meters":10000,"station_id":"ce4bh312rcd13ifvqdj0","pricing_plan_id":"cebpf4jnsgd1na2vs0mg"},{"bike_id":"7c0d9424-4c16-451a-a5e1-26585d6883f7","system_id":"levelo_inurba_marseille","lat":43.288537,"lon":5.425357,"is_reserved":false,"is_disabled":false,"rental_uris":{"android":"levelo://app?vid=7c0d9424-4c16-451a-a5e1-26585d6883f7","ios":"levelo://app?vid=7c0d9424-4c16-451a-a5e1-26585d6883f7"},"vehicle_type_id":"4","last_reported":1769944387,"current_range_meters":10000,"station_id":"st_d3b462108ojc7389ooeg","pricing_plan_id":"cebpf4jnsgd1na2vs0mg"},{"bike_id":"4b39f1cc-8d5c-4330-8483-0300616cf7c0","system_id":"levelo_inurba_marseille","lat":43.24067,"lon":5.36369,"is_reserved":false,"is_disabled":false,"rental_uris":{"android":"levelo://app?vid=4b39f1cc-8d5c-4330-8483-0300616cf7c0","ios":"levelo://app?vid=4b39f1cc-8d5c-4330-8483-0300616cf7c0"},"vehicle_type_id":"4","last_reported":1769944387,"current_range_meters":10000,"station_id":"","pricing_plan_id":"cebpf4jnsgd1na2vs0mg"},{"bike_id":"da4baa9f-76eb-4760-9c99-0d3e638c4fe4","system_id":"levelo_inurba_marseille","lat":43.24464,"lon":5.42539,"is_reserved":false,"is_disabled":false,"rental_uris":{"android":"levelo://app?vid=da4baa9f-76eb-4760-9c99-0d3e638c4fe4","ios":"levelo://app?vid=da4baa9f-76eb-4760-9c99-0d3e638c4fe4"},"vehicle_type_id":"4","last_reported":1769944387,"current_range_meters":10000,"station_id":"st_d4a3vfp97mjs738cd8kg","pricing_plan_id":"cebpf4jnsgd1na2vs0mg"},{"bike_id":"46f0f3f7-4130-4488-aad8-caec724f7d56","system_id":"levelo_inurba_marseille","lat":43.25342,"lon":5.42164,"is_reserved":false,"is_disabled":false,"rental_uris":{"android":"levelo://app?vid=46f0f3f7-4130-4488-aad8-caec724f7d56","ios":"levelo://app?vid=46f0f3f7-4130-4488-aad8-caec724f7d56"},"vehicle_type_id":"4","last_reported":1769944387,"current_range_meters":10000,"station_id":"st_d2m65c5bi1j21697t3ng","pricing_plan_id":"cebpf4jnsgd1na2vs0mg"},{"bike_id":"d64baf67-1a62-4b86-9aae-88e7781f3b30","system_id":"levelo_inurba_marseille","lat":43.23192,"lon":5.39988,"is_reserved":false,"is_disabled":false,"rental_uris":{"android":"levelo://app?vid=d64baf67-1a62-4b86-9aae-88e7781f3b30","ios":"levelo://app?vid=d64baf67-1a62-4b86-9aae-88e7781f3b30"},"vehicle_type_id":"4","last_reported":1769944387,"current_range_meters":10000,"station_id":"ce4bhn12rcd13ifvqgqg","pricing_plan_id":"cebpf4jnsgd1na2vs0mg"},{"bike_id":"fff7e7d9-a5a2-4648-8c64-acd8db891467","system_id":"levelo_inurba_marseille","lat":43.26238,"lon":5.40455,"is_reserved":false,"is_disabled":true,"rental_uris":{"android":"levelo://app?vid=fff7e7d9-a5a2-4648-8c64-acd8db891467","ios":"levelo://app?vid=fff7e7d9-a5a2-4648-8c64-acd8db891467"},"vehicle_type_id":"4","last_reported":1769944387,"current_range_meters":10000,"station_id":"ce4bhmh2rcd13ifvqgmg","pricing_plan_id":"cebpf4jnsgd1na2vs0mg"},{"bike_id":"87f90149-6480-46ae-8bf1-4d309b1a7c08","system_id":"levelo_inurba_marseille","lat":43.25336,"lon":5.42172,"is_reserved":false,"is_disabled":false,"rental_uris":{"android":"levelo://app?vid=87f90149-6480-46ae-8bf1-4d309b1a7c08","ios":"levelo://app?vid=87f90149-6480-46ae-8bf1-4d309b1a7c08"},"vehicle_type_id":"4","last_reported":1769944387,"current_range_meters":10000,"station_id":"st_d2m65c5bi1j21697t3ng","pricing_plan_id":"cebpf4jnsgd1na2vs0mg"},{"bike_id":"647e8c67-198d-4317-8b12-fb4881b15010","system_id":"levelo_inurba_marseille","lat":43.29753,"lon":5.36437,"is_reserved":false,"is_disabled":false,"rental_uris":{"android":"levelo://app?vid=647e8c67-198d-4317-8b12-fb4881b15010","ios":"levelo://app?vid=647e8c67-198d-4317-8b12-fb4881b15010"},"vehicle_type_id":"4","last_reported":1769944387,"current_range_meters":10000,"station_id":"","pricing_plan_id":"cebpf4jnsgd1na2vs0mg"},{"bike_id":"e88e1399-a6a6-4d7e-b9d2-c3d0c70dccda","system_id":"levelo_inurba_marseille","lat":43.23956,"lon":5.3665,"is_reserved":false,"is_disabled":false,"rental_uris":{"android":"levelo://app?vid=e88e1399-a6a6-4d7e-b9d2-c3d0c70dccda","ios":"levelo://app?vid=e88e1399-a6a6-4d7e-b9d2-c3d0c70dccda"},"vehicle_type_id":"4","last_reported":1769944387,"current_range_meters":10000,"station_id":"ce4bhi12rcd13ifvqfp0","pricing_plan_id":"cebpf4jnsgd1na2vs0mg"},{"bike_id":"becd339d-174a-4de6-8e66-0dd19d5b9e62","system_id":"levelo_inurba_marseille","lat":43.25346,"lon":5.42167,"is_reserved":false,"is_disabled":false,"rental_uris":{"android":"levelo://app?vid=becd339d-174a-4de6-8e66-0dd19d5b9e62","ios":"levelo://app?vid=becd339d-174a-4de6-8e66-0dd19d5b9e62"},"vehicle_type_id":"4","last_reported":1769944387,"current_range_meters":10000,"station_id":"st_d2m65c5bi1j21697t3ng","pricing_plan_id":"cebpf4jnsgd1na2vs0mg"},{"bike_id":"5f8c5bb9-3364-4a5b-a6a2-b3e874e3a885","system_id":"levelo_inurba_marseille","lat":43.23977,"lon":5.36624,"is_reserved":false,"is_disabled":false,"rental_uris":{"android":"levelo://app?vid=5f8c5bb9-3364-4a5b-a6a2-b3e874e3a885","ios":"levelo://app?vid=5f8c5bb9-3364-4a5b-a6a2-b3e874e3a885"},"vehicle_type_id":"4","last_reported":1769944387,"current_range_meters":10000,"station_id":"ce4bhi12rcd13ifvqfp0","pricing_plan_id":"cebpf4jnsgd1na2vs0mg"},{"bike_id":"80f86e00-c283-4a17-a19a-e4aecae6582f","system_id":"levelo_inurba_marseille","lat":43.29174,"lon":5.3933,"is_reserved":false,"is_disabled":true,"rental_uris":{"android":"levelo://app?vid=80f86e00-c283-4a17-a19a-e4aecae6582f","ios":"levelo://app?vid=80f86e00-c283-4a17-a19a-e4aecae6582f"},"vehicle_type_id":"4","last_reported":1769944387,"current_range_meters":10000,"station_id":"ce4bh192rcd13ifvqdd0","pricing_plan_id":"cebpf4jnsgd1na2vs0mg"},{"bike_id":"9361a7e7-575e-4589-bdc5-ade72e021ec5","system_id":"levelo_inurba_marseille","lat":43.25588,"lon":5.38231,"is_reserved":false,"is_disabled":false,"rental_uris":{"android":"levelo://app?vid=9361a7e7-575e-4589-bdc5-ade72e021ec5","ios":"levelo://app?vid=9361a7e7-575e-4589-bdc5-ade72e021ec5"},"vehicle_type_id":"4","last_reported":1769944387,"current_range_meters":10000,"station_id":"ce4bhih2rcd13ifvqfs0","pricing_plan_id":"cebpf4jnsgd1na2vs0mg"},{"bike_id":"598c3be9-e516-4a68-8ee3-e84cf24002f9","system_id":"levelo_inurba_marseille","lat":43.25001,"lon":5.38931,"is_reserved":false,"is_disabled":true,"rental_uris":{"android":"levelo://app?vid=598c3be9-e516-4a68-8ee3-e84cf24002f9","ios":"levelo://app?vid=598c3be9-e516-4a68-8ee3-e84cf24002f9"},"vehicle_type_id":"4","last_reported":1769944387,"current_range_meters":10000,"station_id":"ce4bhgp2rcd13ifvqfd0","pricing_plan_id":"cebpf4jnsgd1na2vs0mg"},{"bike_id":"d009f6e8-f4d6-4329-a549-cf33f5ef9bb8","system_id":"levelo_inurba_marseille","lat":43.3112,"lon":5.38474,"is_reserved":false,"is_disabled":false,"rental_uris":{"android":"levelo://app?vid=d009f6e8-f4d6-4329-a549-cf33f5ef9bb8","ios":"levelo://app?vid=d009f6e8-f4d6-4329-a549-cf33f5ef9bb8"},"vehicle_type_id":"4","last_reported":1769944387,"current_range_meters":10000,"station_id":"","pricing_plan_id":"cebpf4jnsgd1na2vs0mg"},{"bike_id":"2c2c4a97-bd3d-479d-8fa3-2384b522232d","system_id":"levelo_inurba_marseille","lat":43.25399,"lon":5.41879,"is_reserved":false,"is_disabled":false,"rental_uris":{"android":"levelo://app?vid=2c2c4a97-bd3d-479d-8fa3-2384b522232d","ios":"levelo://app?vid=2c2c4a97-bd3d-479d-8fa3-2384b522232d"},"vehicle_type_id":"4","last_reported":1769944387,"current_range_meters":10000,"station_id":"","pricing_plan_id":"cebpf4jnsgd1na2vs0mg"},{"bike_id":"6f19f971-321b-4d5e-a90c-c93c6e3bcf21","system_id":"levelo_inurba_marseille","lat":43.30163,"lon":5.38075,"is_reserved":false,"is_disabled":false,"rental_uris":{"android":"levelo://app?vid=6f19f971-321b-4d5e-a90c-c93c6e3bcf21","ios":"levelo://app?vid=6f19f971-321b-4d5e-a90c-c93c6e3bcf21"},"vehicle_type_id":"4","last_reported":1769944387,"current_range_meters":10800,"station_id":"ce4bgjp2rcd13ifvqbh0","pricing_plan_id":"cebpf4jnsgd1na2vs0mg"},{"bike_id":"ae18926c-2f80-4500-9ae1-cf409909b93a","system_id":"levelo_inurba_marseille","lat":43.29227,"lon":5.40909,"is_reserved":false,"is_disabled":false,"rental_uris":{"android":"levelo://app?vid=ae18926c-2f80-4500-9ae1-cf409909b93a","ios":"levelo://app?vid=ae18926c-2f80-4500-9ae1-cf409909b93a"},"vehicle_type_id":"4","last_reported":1769944387,"current_range_meters":10800,"station_id":"ce4bh192rcd13ifvqdc0","pricing_plan_id":"cebpf4jnsgd1na2vs0mg"},{"bike_id":"b0511137-dc93-464d-99b2-8a502c5650d0","system_id":"levelo_inurba_marseille","lat":43.30148,"lon":5.37419,"is_reserved":false,"is_disabled":false,"rental_uris":{"android":"levelo://app?vid=b0511137-dc93-464d-99b2-8a502c5650d0","ios":"levelo://app?vid=b0511137-dc93-464d-99b2-8a502c5650d0"},"vehicle_type_id":"4","last_reported":1769944387,"current_range_meters":10800,"station_id":"ce4bgs92rcd13ifvqcc0","pricing_plan_id":"cebpf4jnsgd1na2vs0mg"},{"bike_id":"699fc3ea-19e6-4008-9215-dab40aaf679b","system_id":"levelo_inurba_marseille","lat":43.30629,"lon":5.37271,"is_reserved":false,"is_disabled":false,"rental_uris":{"android":"levelo://app?vid=699fc3ea-19e6-4008-9215-dab40aaf679b","ios":"levelo://app?vid=699fc3ea-19e6-4008-9215-dab40aaf679b"},"vehicle_type_id":"4","last_reported":1769944387,"current_range_meters":10800,"station_id":"ce4bgqh2rcd13ifvqc4g","pricing_plan_id":"cebpf4jnsgd1na2vs0mg"},{"bike_id":"94cbe5a1-172e-4cc9-bb27-f3369919b100","system_id":"levelo_inurba_marseille","lat":43.24091,"lon":5.37747,"is_reserved":false,"is_disabled":false,"rental_uris":{"android":"levelo://app?vid=94cbe5a1-172e-4cc9-bb27-f3369919b100","ios":"levelo://app?vid=94cbe5a1-172e-4cc9-bb27-f3369919b100"},"vehicle_type_id":"4","last_reported":1769944387,"current_range_meters":11200,"station_id":"ce4bhnp2rcd13ifvqgvg","pricing_plan_id":"cebpf4jnsgd1na2vs0mg"},{"bike_id":"42f3911a-939e-4889-9561-3c06517c8f7e","system_id":"levelo_inurba_marseille","lat":43.26789,"lon":5.39427,"is_reserved":false,"is_disabled":true,"rental_uris":{"android":"levelo://app?vid=42f3911a-939e-4889-9561-3c06517c8f7e","ios":"levelo://app?vid=42f3911a-939e-4889-9561-3c06517c8f7e"},"vehicle_type_id":"4","last_reported":1769944387,"current_range_meters":11200,"station_id":"ce4bhh12rcd13ifvqfg0","pricing_plan_id":"cebpf4jnsgd1na2vs0mg"},{"bike_id":"5d0d47a8-756c-475a-969a-b713ee9b7b0d","system_id":"levelo_inurba_marseille","lat":43.31044,"lon":5.39348,"is_reserved":false,"is_disabled":false,"rental_uris":{"android":"levelo://app?vid=5d0d47a8-756c-475a-969a-b713ee9b7b0d","ios":"levelo://app?vid=5d0d47a8-756c-475a-969a-b713ee9b7b0d"},"vehicle_type_id":"4","last_reported":1769944387,"current_range_meters":11200,"station_id":"","pricing_plan_id":"cebpf4jnsgd1na2vs0mg"},{"bike_id":"a4a78e26-f7cc-42fe-a5d9-4836263a9354","system_id":"levelo_inurba_marseille","lat":43.3317,"lon":5.37674,"is_reserved":false,"is_disabled":false,"rental_uris":{"android":"levelo://app?vid=a4a78e26-f7cc-42fe-a5d9-4836263a9354","ios":"levelo://app?vid=a4a78e26-f7cc-42fe-a5d9-4836263a9354"},"vehicle_type_id":"4","last_reported":1769944387,"current_range_meters":11200,"station_id":"st_d46cu089ee8s73dldbu0","pricing_plan_id":"cebpf4jnsgd1na2vs0mg"},{"bike_id":"c727b0e5-6d02-4d30-8ab7-176d38c9e150","system_id":"levelo_inurba_marseille","lat":43.317193,"lon":5.423934,"is_reserved":false,"is_disabled":false,"rental_uris":{"android":"levelo://app?vid=c727b0e5-6d02-4d30-8ab7-176d38c9e150","ios":"levelo://app?vid=c727b0e5-6d02-4d30-8ab7-176d38c9e150"},"vehicle_type_id":"4","last_reported":1769944387,"current_range_meters":11200,"station_id":"ce4bhp92rcd13ifvqhbg","pricing_plan_id":"cebpf4jnsgd1na2vs0mg"},{"bike_id":"3b92c8bc-0cff-474f-afbf-78db16afe2d8","system_id":"levelo_inurba_marseille","lat":43.30783,"lon":5.40701,"is_reserved":false,"is_disabled":false,"rental_uris":{"android":"levelo://app?vid=3b92c8bc-0cff-474f-afbf-78db16afe2d8","ios":"levelo://app?vid=3b92c8bc-0cff-474f-afbf-78db16afe2d8"},"vehicle_type_id":"4","last_reported":1769944387,"current_range_meters":11200,"station_id":"","pricing_plan_id":"cebpf4jnsgd1na2vs0mg"},{"bike_id":"182de0a5-2ac9-441b-9a5e-741871822d76","system_id":"levelo_inurba_marseille","lat":43.2322,"lon":5.35545,"is_reserved":false,"is_disabled":false,"rental_uris":{"android":"levelo://app?vid=182de0a5-2ac9-441b-9a5e-741871822d76","ios":"levelo://app?vid=182de0a5-2ac9-441b-9a5e-741871822d76"},"vehicle_type_id":"4","last_reported":1769944387,"current_range_meters":11200,"station_id":"ce4bhu92rcd13ifvqi70","pricing_plan_id":"cebpf4jnsgd1na2vs0mg"},{"bike_id":"79edff70-1f72-40ce-929a-ac4782b62d06","system_id":"levelo_inurba_marseille","lat":43.288672,"lon":5.425188,"is_reserved":false,"is_disabled":false,"rental_uris":{"android":"levelo://app?vid=79edff70-1f72-40ce-929a-ac4782b62d06","ios":"levelo://app?vid=79edff70-1f72-40ce-929a-ac4782b62d06"},"vehicle_type_id":"4","last_reported":1769944387,"current_range_meters":11200,"station_id":"st_d3b462108ojc7389ooeg","pricing_plan_id":"cebpf4jnsgd1na2vs0mg"},{"bike_id":"297d13dc-a8fe-4c7e-ab4e-c67c01d72bc9","system_id":"levelo_inurba_marseille","lat":43.26683,"lon":5.38271,"is_reserved":false,"is_disabled":false,"rental_uris":{"android":"levelo://app?vid=297d13dc-a8fe-4c7e-ab4e-c67c01d72bc9","ios":"levelo://app?vid=297d13dc-a8fe-4c7e-ab4e-c67c01d72bc9"},"vehicle_type_id":"4","last_reported":1769944387,"current_range_meters":11600,"station_id":"ce4bhg92rcd13ifvqf90","pricing_plan_id":"cebpf4jnsgd1na2vs0mg"},{"bike_id":"2ebe3d1a-eb9d-4119-9eb6-9d700362d893","system_id":"levelo_inurba_marseille","lat":43.24175,"lon":5.3973,"is_reserved":false,"is_disabled":false,"rental_uris":{"android":"levelo://app?vid=2ebe3d1a-eb9d-4119-9eb6-9d700362d893","ios":"levelo://app?vid=2ebe3d1a-eb9d-4119-9eb6-9d700362d893"},"vehicle_type_id":"4","last_reported":1769944387,"current_range_meters":11600,"station_id":"ce4bhn12rcd13ifvqgpg","pricing_plan_id":"cebpf4jnsgd1na2vs0mg"},{"bike_id":"3bd76c83-4d11-4c4c-ac17-17c93628ac30","system_id":"levelo_inurba_marseille","lat":43.30962,"lon":5.39038,"is_reserved":false,"is_disabled":false,"rental_uris":{"android":"levelo://app?vid=3bd76c83-4d11-4c4c-ac17-17c93628ac30","ios":"levelo://app?vid=3bd76c83-4d11-4c4c-ac17-17c93628ac30"},"vehicle_type_id":"4","last_reported":1769944387,"current_range_meters":11600,"station_id":"ce4bgup2rcd13ifvqco0","pricing_plan_id":"cebpf4jnsgd1na2vs0mg"},{"bike_id":"500d1387-038d-409d-ad88-6322eba3b658","system_id":"levelo_inurba_marseille","lat":43.21751,"lon":5.346,"is_reserved":false,"is_disabled":false,"rental_uris":{"android":"levelo://app?vid=500d1387-038d-409d-ad88-6322eba3b658","ios":"levelo://app?vid=500d1387-038d-409d-ad88-6322eba3b658"},"vehicle_type_id":"4","last_reported":1769944387,"current_range_meters":11600,"station_id":"st_cvj6r9ubvosntc0bgbag","pricing_plan_id":"cebpf4jnsgd1na2vs0mg"},{"bike_id":"a8a07f0e-d841-4235-b1ca-cf44910aa795","system_id":"levelo_inurba_marseille","lat":43.27605,"lon":5.36126,"is_reserved":false,"is_disabled":false,"rental_uris":{"android":"levelo://app?vid=a8a07f0e-d841-4235-b1ca-cf44910aa795","ios":"levelo://app?vid=a8a07f0e-d841-4235-b1ca-cf44910aa795"},"vehicle_type_id":"4","last_reported":1769944387,"current_range_meters":11600,"station_id":"ce4bgj92rcd13ifvqbe0","pricing_plan_id":"cebpf4jnsgd1na2vs0mg"},{"bike_id":"d3253cf1-2246-4b9c-902d-6676b439fd5e","system_id":"levelo_inurba_marseille","lat":43.21762,"lon":5.34603,"is_reserved":false,"is_disabled":false,"rental_uris":{"android":"levelo://app?vid=d3253cf1-2246-4b9c-902d-6676b439fd5e","ios":"levelo://app?vid=d3253cf1-2246-4b9c-902d-6676b439fd5e"},"vehicle_type_id":"4","last_reported":1769944387,"current_range_meters":11600,"station_id":"st_cvj6r9ubvosntc0bgbag","pricing_plan_id":"cebpf4jnsgd1na2vs0mg"},{"bike_id":"42b996ad-3710-4575-a6ee-457d2a066435","system_id":"levelo_inurba_marseille","lat":43.28484,"lon":5.38536,"is_reserved":false,"is_disabled":false,"rental_uris":{"android":"levelo://app?vid=42b996ad-3710-4575-a6ee-457d2a066435","ios":"levelo://app?vid=42b996ad-3710-4575-a6ee-457d2a066435"},"vehicle_type_id":"4","last_reported":1769944387,"current_range_meters":11600,"station_id":"ce4bh8p2rcd13ifvqeb0","pricing_plan_id":"cebpf4jnsgd1na2vs0mg"},{"bike_id":"cd51f784-a77c-4831-b04b-afe6fd280c95","system_id":"levelo_inurba_marseille","lat":43.23128,"lon":5.3551,"is_reserved":false,"is_disabled":false,"rental_uris":{"android":"levelo://app?vid=cd51f784-a77c-4831-b04b-afe6fd280c95","ios":"levelo://app?vid=cd51f784-a77c-4831-b04b-afe6fd280c95"},"vehicle_type_id":"4","last_reported":1769944387,"current_range_meters":11600,"station_id":"","pricing_plan_id":"cebpf4jnsgd1na2vs0mg"},{"bike_id":"8ecac5aa-aafe-4555-a2ec-3cff315acf15","system_id":"levelo_inurba_marseille","lat":43.30774,"lon":5.37649,"is_reserved":false,"is_disabled":false,"rental_uris":{"android":"levelo://app?vid=8ecac5aa-aafe-4555-a2ec-3cff315acf15","ios":"levelo://app?vid=8ecac5aa-aafe-4555-a2ec-3cff315acf15"},