{"last_updated":1743675054,"ttl":60,"version":"2.2","data":{"bikes":[{"bike_id":"6081a567-9133-4ed7-ab59-3ee4737fc5c0","system_id":"levelo_inurba_marseille","lat":43.229354,"lon":5.353793,"is_reserved":false,"is_disabled":false,"rental_uris":{"android":"levelo://app?vid=6081a567-9133-4ed7-ab59-3ee4737fc5c0","ios":"levelo://app?vid=6081a567-9133-4ed7-ab59-3ee4737fc5c0"},"vehicle_type_id":"4","last_reported":1743675055,"current_range_meters":3200,"station_id":"cpo3532slgdg3j2ikp40","pricing_plan_id":"cebpf4jnsgd1na2vs0mg"},{"bike_id":"bd3ca4de-517d-4559-a7e6-1c90f2719659","system_id":"levelo_inurba_marseille","lat":43.2418,"lon":5.39721,"is_reserved":false,"is_disabled":false,"rental_uris":{"android":"levelo://app?vid=bd3ca4de-517d-4559-a7e6-1c90f2719659","ios":"levelo://app?vid=bd3ca4de-517d-4559-a7e6-1c90f2719659"},"vehicle_type_id":"4","last_reported":1743675055,"current_range_meters":2800,"station_id":"ce4bhn12rcd13ifvqgpg","pricing_plan_id":"cebpf4jnsgd1na2vs0mg"},{"bike_id":"7bdf0d60-3026-4723-ac07-ebb25b9cf79f","system_id":"levelo_inurba_marseille","lat":43.28803,"lon":5.38653,"is_reserved":false,"is_disabled":false,"rental_uris":{"android":"levelo://app?vid=7bdf0d60-3026-4723-ac07-ebb25b9cf79f","ios":"levelo://app?vid=7bdf0d60-3026-4723-ac07-ebb25b9cf79f"},"vehicle_type_id":"4","last_reported":1743675055,"current_range_meters":2800,"station_id":"","pricing_plan_id":"cebpf4jnsgd1na2vs0mg"},{"bike_id":"f06067fe-c409-49ce-b995-b28658dd37fb","system_id":"levelo_inurba_marseille","lat":43.28712,"lon":5.37406,"is_reserved":false,"is_disabled":false,"rental_uris":{"android":"levelo://app?vid=f06067fe-c409-49ce-b995-b28658dd37fb","ios":"levelo://app?vid=f06067fe-c409-49ce-b995-b28658dd37fb"},"vehicle_type_id":"4","last_reported":1743675055,"current_range_meters":3600,"station_id":"ce4bh3p2rcd13ifvqdq0","pricing_plan_id":"cebpf4jnsgd1na2vs0mg"},{"bike_id":"48302313-0890-44fb-97d4-f7f3b5d44fd5","system_id":"levelo_inurba_marseille","lat":43.33118,"lon":5.40006,"is_reserved":false,"is_disabled":false,"rental_uris":{"android":"levelo://app?vid=48302313-0890-44fb-97d4-f7f3b5d44fd5","ios":"levelo://app?vid=48302313-0890-44fb-97d4-f7f3b5d44fd5"},"vehicle_type_id":"4","last_reported":1743675055,"current_range_meters":4400,"station_id":"","pricing_plan_id":"cebpf4jnsgd1na2vs0mg"},{"bike_id":"06dd376d-8081-423d-b57b-63c9daa21be7","system_id":"levelo_inurba_marseille","lat":43.29514,"lon":5.39407,"is_reserved":false,"is_disabled":false,"rental_uris":{"android":"levelo://app?vid=06dd376d-8081-423d-b57b-63c9daa21be7","ios":"levelo://app?vid=06dd376d-8081-423d-b57b-63c9daa21be7"},"vehicle_type_id":"4","last_reported":1743675055,"current_range_meters":4800,"station_id":"ce4bh292rcd13ifvqdf0","pricing_plan_id":"cebpf4jnsgd1na2vs0mg"},{"bike_id":"121b2536-df10-4977-ac74-b0979977fe60","system_id":"levelo_inurba_marseille","lat":43.30072,"lon":5.38962,"is_reserved":false,"is_disabled":false,"rental_uris":{"android":"levelo://app?vid=121b2536-df10-4977-ac74-b0979977fe60","ios":"levelo://app?vid=121b2536-df10-4977-ac74-b0979977fe60"},"vehicle_type_id":"4","last_reported":1743675055,"current_range_meters":4800,"station_id":"","pricing_plan_id":"cebpf4jnsgd1na2vs0mg"},{"bike_id":"996871aa-ed41-4df2-82a8-ec9ad42bd35c","system_id":"levelo_inurba_marseille","lat":43.29525,"lon":5.39055,"is_reserved":false,"is_disabled":false,"rental_uris":{"android":"levelo://app?vid=996871aa-ed41-4df2-82a8-ec9ad42bd35c","ios":"levelo://app?vid=996871aa-ed41-4df2-82a8-ec9ad42bd35c"},"vehicle_type_id":"4","last_reported":1743675055,"current_range_meters":4800,"station_id":"ce4bh3p2rcd13ifvqdp0","pricing_plan_id":"cebpf4jnsgd1na2vs0mg"},{"bike_id":"3e5329f3-c0cd-422c-afb1-2f46242590da","system_id":"levelo_inurba_marseille","lat":43.31926,"lon":5.37548,"is_reserved":false,"is_disabled":false,"rental_uris":{"android":"levelo://app?vid=3e5329f3-c0cd-422c-afb1-2f46242590da","ios":"levelo://app?vid=3e5329f3-c0cd-422c-afb1-2f46242590da"},"vehicle_type_id":"4","last_reported":1743675055,"current_range_meters":4800,"station_id":"","pricing_plan_id":"cebpf4jnsgd1na2vs0mg"},{"bike_id":"12b5e061-2678-473f-9ed7-3d823c808278","system_id":"levelo_inurba_marseille","lat":43.24391,"lon":5.37065,"is_reserved":false,"is_disabled":false,"rental_uris":{"android":"levelo://app?vid=12b5e061-2678-473f-9ed7-3d823c808278","ios":"levelo://app?vid=12b5e061-2678-473f-9ed7-3d823c808278"},"vehicle_type_id":"4","last_reported":1743675055,"current_range_meters":5600,"station_id":"ce4bhhh2rcd13ifvqfk0","pricing_plan_id":"cebpf4jnsgd1na2vs0mg"},{"bike_id":"39c94d58-86dd-4c73-88fa-10ad22a1d6b2","system_id":"levelo_inurba_marseille","lat":43.23119,"lon":5.43688,"is_reserved":false,"is_disabled":false,"rental_uris":{"android":"levelo://app?vid=39c94d58-86dd-4c73-88fa-10ad22a1d6b2","ios":"levelo://app?vid=39c94d58-86dd-4c73-88fa-10ad22a1d6b2"},"vehicle_type_id":"4","last_reported":1743675055,"current_range_meters":5600,"station_id":"ce4bhmp2rcd13ifvqgog","pricing_plan_id":"cebpf4jnsgd1na2vs0mg"},{"bike_id":"e53f9db2-d75c-4594-8157-2926a2062b6f","system_id":"levelo_inurba_marseille","lat":43.28462,"lon":5.39176,"is_reserved":false,"is_disabled":true,"rental_uris":{"android":"levelo://app?vid=e53f9db2-d75c-4594-8157-2926a2062b6f","ios":"levelo://app?vid=e53f9db2-d75c-4594-8157-2926a2062b6f"},"vehicle_type_id":"4","last_reported":1743675055,"current_range_meters":5600,"station_id":"ce4bhoh2rcd13ifvqh5g","pricing_plan_id":"cebpf4jnsgd1na2vs0mg"},{"bike_id":"f55695a6-b65f-4a30-99ab-94b2bfa63268","system_id":"levelo_inurba_marseille","lat":43.23202,"lon":5.35549,"is_reserved":false,"is_disabled":false,"rental_uris":{"android":"levelo://app?vid=f55695a6-b65f-4a30-99ab-94b2bfa63268","ios":"levelo://app?vid=f55695a6-b65f-4a30-99ab-94b2bfa63268"},"vehicle_type_id":"4","last_reported":1743675055,"current_range_meters":5600,"station_id":"ce4bhu92rcd13ifvqi70","pricing_plan_id":"cebpf4jnsgd1na2vs0mg"},{"bike_id":"2cf61775-cb21-4b86-a7af-7925ef8f8bd8","system_id":"levelo_inurba_marseille","lat":43.22945,"lon":5.35378,"is_reserved":false,"is_disabled":false,"rental_uris":{"android":"levelo://app?vid=2cf61775-cb21-4b86-a7af-7925ef8f8bd8","ios":"levelo://app?vid=2cf61775-cb21-4b86-a7af-7925ef8f8bd8"},"vehicle_type_id":"4","last_reported":1743675055,"current_range_meters":5600,"station_id":"cpo3532slgdg3j2ikp40","pricing_plan_id":"cebpf4jnsgd1na2vs0mg"},{"bike_id":"14350ce3-21c1-4205-94f6-3870d6252324","system_id":"levelo_inurba_marseille","lat":43.24386,"lon":5.37049,"is_reserved":false,"is_disabled":false,"rental_uris":{"android":"levelo://app?vid=14350ce3-21c1-4205-94f6-3870d6252324","ios":"levelo://app?vid=14350ce3-21c1-4205-94f6-3870d6252324"},"vehicle_type_id":"4","last_reported":1743675055,"current_range_meters":5600,"station_id":"ce4bhhh2rcd13ifvqfk0","pricing_plan_id":"cebpf4jnsgd1na2vs0mg"},{"bike_id":"101ee90b-f857-4a50-8b85-491d1b3d5efc","system_id":"levelo_inurba_marseille","lat":43.23201,"lon":5.35544,"is_reserved":false,"is_disabled":false,"rental_uris":{"android":"levelo://app?vid=101ee90b-f857-4a50-8b85-491d1b3d5efc","ios":"levelo://app?vid=101ee90b-f857-4a50-8b85-491d1b3d5efc"},"vehicle_type_id":"4","last_reported":1743675055,"current_range_meters":5600,"station_id":"ce4bhu92rcd13ifvqi70","pricing_plan_id":"cebpf4jnsgd1na2vs0mg"},{"bike_id":"4f1c00e5-a79d-4f0b-ab4e-3bd2b06e7d2e","system_id":"levelo_inurba_marseille","lat":43.23054,"lon":5.35464,"is_reserved":false,"is_disabled":false,"rental_uris":{"android":"levelo://app?vid=4f1c00e5-a79d-4f0b-ab4e-3bd2b06e7d2e","ios":"levelo://app?vid=4f1c00e5-a79d-4f0b-ab4e-3bd2b06e7d2e"},"vehicle_type_id":"4","last_reported":1743675055,"current_range_meters":5600,"station_id":"cpo3342slgdg3j2ifvpg","pricing_plan_id":"cebpf4jnsgd1na2vs0mg"},{"bike_id":"a6c8e16e-e459-49ce-ae3e-99dcfde51ee9","system_id":"levelo_inurba_marseille","lat":43.26585,"lon":5.39025,"is_reserved":false,"is_disabled":false,"rental_uris":{"android":"levelo://app?vid=a6c8e16e-e459-49ce-ae3e-99dcfde51ee9","ios":"levelo://app?vid=a6c8e16e-e459-49ce-ae3e-99dcfde51ee9"},"vehicle_type_id":"4","last_reported":1743675055,"current_range_meters":5600,"station_id":"ce4bhe12rcd13ifvqf30","pricing_plan_id":"cebpf4jnsgd1na2vs0mg"},{"bike_id":"ec7cfff8-1829-484c-a551-2f5de24becfa","system_id":"levelo_inurba_marseille","lat":43.26804,"lon":5.40263,"is_reserved":false,"is_disabled":false,"rental_uris":{"android":"levelo://app?vid=ec7cfff8-1829-484c-a551-2f5de24becfa","ios":"levelo://app?vid=ec7cfff8-1829-484c-a551-2f5de24becfa"},"vehicle_type_id":"4","last_reported":1743675055,"current_range_meters":5600,"station_id":"ce501612rcd8frsf0b60","pricing_plan_id":"cebpf4jnsgd1na2vs0mg"},{"bike_id":"360cab47-25e6-4fa7-bbe9-54b9eeb6ff4b","system_id":"levelo_inurba_marseille","lat":43.26216,"lon":5.37433,"is_reserved":false,"is_disabled":false,"rental_uris":{"android":"levelo://app?vid=360cab47-25e6-4fa7-bbe9-54b9eeb6ff4b","ios":"levelo://app?vid=360cab47-25e6-4fa7-bbe9-54b9eeb6ff4b"},"vehicle_type_id":"4","last_reported":1743675055,"current_range_meters":6000,"station_id":"ce4bhgp2rcd13ifvqfc0","pricing_plan_id":"cebpf4jnsgd1na2vs0mg"},{"bike_id":"d3345442-2654-4ddc-b869-fce22decea38","system_id":"levelo_inurba_marseille","lat":43.23072,"lon":5.35486,"is_reserved":false,"is_disabled":false,"rental_uris":{"android":"levelo://app?vid=d3345442-2654-4ddc-b869-fce22decea38","ios":"levelo://app?vid=d3345442-2654-4ddc-b869-fce22decea38"},"vehicle_type_id":"4","last_reported":1743675055,"current_range_meters":6000,"station_id":"cpo3342slgdg3j2ifvpg","pricing_plan_id":"cebpf4jnsgd1na2vs0mg"},{"bike_id":"a4db2d14-cce8-446b-818a-41595b107c30","system_id":"levelo_inurba_marseille","lat":43.28457,"lon":5.35882,"is_reserved":false,"is_disabled":false,"rental_uris":{"android":"levelo://app?vid=a4db2d14-cce8-446b-818a-41595b107c30","ios":"levelo://app?vid=a4db2d14-cce8-446b-818a-41595b107c30"},"vehicle_type_id":"4","last_reported":1743675055,"current_range_meters":6000,"station_id":"ce4bhah2rcd13ifvqei0","pricing_plan_id":"cebpf4jnsgd1na2vs0mg"},{"bike_id":"b80ee275-2592-4659-b2e9-175feb839700","system_id":"levelo_inurba_marseille","lat":43.23212,"lon":5.35546,"is_reserved":false,"is_disabled":false,"rental_uris":{"android":"levelo://app?vid=b80ee275-2592-4659-b2e9-175feb839700","ios":"levelo://app?vid=b80ee275-2592-4659-b2e9-175feb839700"},"vehicle_type_id":"4","last_reported":1743675055,"current_range_meters":6400,"station_id":"ce4bhu92rcd13ifvqi70","pricing_plan_id":"cebpf4jnsgd1na2vs0mg"},{"bike_id":"d157a8ac-f1ea-480a-a1ee-9ac00962bb01","system_id":"levelo_inurba_marseille","lat":43.29544,"lon":5.42297,"is_reserved":false,"is_disabled":false,"rental_uris":{"android":"levelo://app?vid=d157a8ac-f1ea-480a-a1ee-9ac00962bb01","ios":"levelo://app?vid=d157a8ac-f1ea-480a-a1ee-9ac00962bb01"},"vehicle_type_id":"4","last_reported":1743675055,"current_range_meters":6400,"station_id":"ce4bhph2rcd13ifvqhdg","pricing_plan_id":"cebpf4jnsgd1na2vs0mg"},{"bike_id":"54fe4193-4a71-4120-926d-2460e18bf146","system_id":"levelo_inurba_marseille","lat":43.27488,"lon":5.42453,"is_reserved":false,"is_disabled":false,"rental_uris":{"android":"levelo://app?vid=54fe4193-4a71-4120-926d-2460e18bf146","ios":"levelo://app?vid=54fe4193-4a71-4120-926d-2460e18bf146"},"vehicle_type_id":"4","last_reported":1743675055,"current_range_meters":6400,"station_id":"ce4bhn92rcd13ifvqgrg","pricing_plan_id":"cebpf4jnsgd1na2vs0mg"},{"bike_id":"b5dd56ec-49b3-404a-9aba-0e54a058a3ba","system_id":"levelo_inurba_marseille","lat":43.29527,"lon":5.375,"is_reserved":false,"is_disabled":false,"rental_uris":{"android":"levelo://app?vid=b5dd56ec-49b3-404a-9aba-0e54a058a3ba","ios":"levelo://app?vid=b5dd56ec-49b3-404a-9aba-0e54a058a3ba"},"vehicle_type_id":"4","last_reported":1743675055,"current_range_meters":2000,"station_id":"ce4bgkp2rcd13ifvqbmg","pricing_plan_id":"cebpf4jnsgd1na2vs0mg"},{"bike_id":"eb1723e2-7d01-4cf0-ad22-71299ca2c61c","system_id":"levelo_inurba_marseille","lat":43.29306,"lon":5.37176,"is_reserved":false,"is_disabled":true,"rental_uris":{"android":"levelo://app?vid=eb1723e2-7d01-4cf0-ad22-71299ca2c61c","ios":"levelo://app?vid=eb1723e2-7d01-4cf0-ad22-71299ca2c61c"},"vehicle_type_id":"4","last_reported":1743675055,"current_range_meters":6800,"station_id":"ce4bgh92rcd13ifvqb40","pricing_plan_id":"cebpf4jnsgd1na2vs0mg"},{"bike_id":"d1c0b0aa-686c-46ac-a54e-c913c9582ae4","system_id":"levelo_inurba_marseille","lat":43.27312,"lon":5.39083,"is_reserved":false,"is_disabled":false,"rental_uris":{"android":"levelo://app?vid=d1c0b0aa-686c-46ac-a54e-c913c9582ae4","ios":"levelo://app?vid=d1c0b0aa-686c-46ac-a54e-c913c9582ae4"},"vehicle_type_id":"4","last_reported":1743675055,"current_range_meters":6800,"station_id":"ce4bhgp2rcd13ifvqfe0","pricing_plan_id":"cebpf4jnsgd1na2vs0mg"},{"bike_id":"7bc507c4-187b-4cb2-a5ef-07322f924baf","system_id":"levelo_inurba_marseille","lat":43.2293,"lon":5.35384,"is_reserved":false,"is_disabled":false,"rental_uris":{"android":"levelo://app?vid=7bc507c4-187b-4cb2-a5ef-07322f924baf","ios":"levelo://app?vid=7bc507c4-187b-4cb2-a5ef-07322f924baf"},"vehicle_type_id":"4","last_reported":1743675055,"current_range_meters":6800,"station_id":"cpo3532slgdg3j2ikp40","pricing_plan_id":"cebpf4jnsgd1na2vs0mg"},{"bike_id":"fe147b08-794f-4cc8-a62c-e589ca5791a1","system_id":"levelo_inurba_marseille","lat":43.25933,"lon":5.40902,"is_reserved":false,"is_disabled":false,"rental_uris":{"android":"levelo://app?vid=fe147b08-794f-4cc8-a62c-e589ca5791a1","ios":"levelo://app?vid=fe147b08-794f-4cc8-a62c-e589ca5791a1"},"vehicle_type_id":"4","last_reported":1743675055,"current_range_meters":6800,"station_id":"ce4bhm92rcd13ifvqglg","pricing_plan_id":"cebpf4jnsgd1na2vs0mg"},{"bike_id":"04556df8-715f-45d8-b288-9c8fd51282f9","system_id":"levelo_inurba_marseille","lat":43.231869,"lon":5.35566,"is_reserved":false,"is_disabled":false,"rental_uris":{"android":"levelo://app?vid=04556df8-715f-45d8-b288-9c8fd51282f9","ios":"levelo://app?vid=04556df8-715f-45d8-b288-9c8fd51282f9"},"vehicle_type_id":"4","last_reported":1743675055,"current_range_meters":7200,"station_id":"ce4bhu92rcd13ifvqi70","pricing_plan_id":"cebpf4jnsgd1na2vs0mg"},{"bike_id":"988a4b2a-1fca-4561-9342-57ad8b6adb1c","system_id":"levelo_inurba_marseille","lat":43.22927,"lon":5.35384,"is_reserved":false,"is_disabled":false,"rental_uris":{"android":"levelo://app?vid=988a4b2a-1fca-4561-9342-57ad8b6adb1c","ios":"levelo://app?vid=988a4b2a-1fca-4561-9342-57ad8b6adb1c"},"vehicle_type_id":"4","last_reported":1743675055,"current_range_meters":7200,"station_id":"cpo3532slgdg3j2ikp40","pricing_plan_id":"cebpf4jnsgd1na2vs0mg"},{"bike_id":"3b948fbe-ea54-4e7f-8a80-214f816bc66c","system_id":"levelo_inurba_marseille","lat":43.24171,"lon":5.39729,"is_reserved":false,"is_disabled":false,"rental_uris":{"android":"levelo://app?vid=3b948fbe-ea54-4e7f-8a80-214f816bc66c","ios":"levelo://app?vid=3b948fbe-ea54-4e7f-8a80-214f816bc66c"},"vehicle_type_id":"4","last_reported":1743675055,"current_range_meters":7200,"station_id":"ce4bhn12rcd13ifvqgpg","pricing_plan_id":"cebpf4jnsgd1na2vs0mg"},{"bike_id":"3945780b-3464-4b52-8543-cf05282ae10d","system_id":"levelo_inurba_marseille","lat":43.31215,"lon":5.36843,"is_reserved":false,"is_disabled":false,"rental_uris":{"android":"levelo://app?vid=3945780b-3464-4b52-8543-cf05282ae10d","ios":"levelo://app?vid=3945780b-3464-4b52-8543-cf05282ae10d"},"vehicle_type_id":"4","last_reported":1743675055,"current_range_meters":7200,"station_id":"ce4bgl92rcd13ifvqbq0","pricing_plan_id":"cebpf4jnsgd1na2vs0mg"},{"bike_id":"1e56f8b0-0569-43fd-956b-7c3d45c8ba02","system_id":"levelo_inurba_marseille","lat":43.29327,"lon":5.41136,"is_reserved":false,"is_disabled":false,"rental_uris":{"android":"levelo://app?vid=1e56f8b0-0569-43fd-956b-7c3d45c8ba02","ios":"levelo://app?vid=1e56f8b0-0569-43fd-956b-7c3d45c8ba02"},"vehicle_type_id":"4","last_reported":1743675055,"current_range_meters":7200,"station_id":"","pricing_plan_id":"cebpf4jnsgd1na2vs0mg"},{"bike_id":"707b2129-2f22-4576-9846-64756c08aa7d","system_id":"levelo_inurba_marseille","lat":43.27068,"lon":5.42272,"is_reserved":false,"is_disabled":false,"rental_uris":{"android":"levelo://app?vid=707b2129-2f22-4576-9846-64756c08aa7d","ios":"levelo://app?vid=707b2129-2f22-4576-9846-64756c08aa7d"},"vehicle_type_id":"4","last_reported":1743675055,"current_range_meters":7200,"station_id":"ce4bhk92rcd13ifvqgb0","pricing_plan_id":"cebpf4jnsgd1na2vs0mg"},{"bike_id":"5813a493-4baf-45fe-9ff8-8628adc68954","system_id":"levelo_inurba_marseille","lat":43.28426,"lon":5.34985,"is_reserved":false,"is_disabled":false,"rental_uris":{"android":"levelo://app?vid=5813a493-4baf-45fe-9ff8-8628adc68954","ios":"levelo://app?vid=5813a493-4baf-45fe-9ff8-8628adc68954"},"vehicle_type_id":"4","last_reported":1743675055,"current_range_meters":7200,"station_id":"ce4bhbh2rcd13ifvqepg","pricing_plan_id":"cebpf4jnsgd1na2vs0mg"},{"bike_id":"a112ce08-6f4e-41f2-873e-94895f2e1506","system_id":"levelo_inurba_marseille","lat":43.27672,"lon":5.3891,"is_reserved":false,"is_disabled":true,"rental_uris":{"android":"levelo://app?vid=a112ce08-6f4e-41f2-873e-94895f2e1506","ios":"levelo://app?vid=a112ce08-6f4e-41f2-873e-94895f2e1506"},"vehicle_type_id":"4","last_reported":1743675055,"current_range_meters":7200,"station_id":"ce4bhi12rcd13ifvqfo0","pricing_plan_id":"cebpf4jnsgd1na2vs0mg"},{"bike_id":"d53777c8-71ae-4227-ab5d-b5d248512007","system_id":"levelo_inurba_marseille","lat":43.23157,"lon":5.43711,"is_reserved":false,"is_disabled":false,"rental_uris":{"android":"levelo://app?vid=d53777c8-71ae-4227-ab5d-b5d248512007","ios":"levelo://app?vid=d53777c8-71ae-4227-ab5d-b5d248512007"},"vehicle_type_id":"4","last_reported":1743675055,"current_range_meters":7200,"station_id":"ce4bhmp2rcd13ifvqgog","pricing_plan_id":"cebpf4jnsgd1na2vs0mg"},{"bike_id":"2cc418b0-4af9-4b22-b06e-4817adef989c","system_id":"levelo_inurba_marseille","lat":43.25922,"lon":5.40866,"is_reserved":false,"is_disabled":false,"rental_uris":{"android":"levelo://app?vid=2cc418b0-4af9-4b22-b06e-4817adef989c","ios":"levelo://app?vid=2cc418b0-4af9-4b22-b06e-4817adef989c"},"vehicle_type_id":"4","last_reported":1743675055,"current_range_meters":7200,"station_id":"ce4bhm92rcd13ifvqglg","pricing_plan_id":"cebpf4jnsgd1na2vs0mg"},{"bike_id":"05f613f6-c91e-4b85-9f58-7470d57bd4fe","system_id":"levelo_inurba_marseille","lat":43.31494,"lon":5.37306,"is_reserved":false,"is_disabled":true,"rental_uris":{"android":"levelo://app?vid=05f613f6-c91e-4b85-9f58-7470d57bd4fe","ios":"levelo://app?vid=05f613f6-c91e-4b85-9f58-7470d57bd4fe"},"vehicle_type_id":"4","last_reported":1743675055,"current_range_meters":7200,"station_id":"ce4bgt12rcd13ifvqcd0","pricing_plan_id":"cebpf4jnsgd1na2vs0mg"},{"bike_id":"cac85c15-3bb7-47ec-b160-55671fed8c53","system_id":"levelo_inurba_marseille","lat":43.31488,"lon":5.37303,"is_reserved":false,"is_disabled":false,"rental_uris":{"android":"levelo://app?vid=cac85c15-3bb7-47ec-b160-55671fed8c53","ios":"levelo://app?vid=cac85c15-3bb7-47ec-b160-55671fed8c53"},"vehicle_type_id":"4","last_reported":1743675055,"current_range_meters":7200,"station_id":"ce4bgt12rcd13ifvqcd0","pricing_plan_id":"cebpf4jnsgd1na2vs0mg"},{"bike_id":"335a64fc-69a6-46a3-b805-e45bc5bd4c05","system_id":"levelo_inurba_marseille","lat":43.27223,"lon":5.39182,"is_reserved":false,"is_disabled":false,"rental_uris":{"android":"levelo://app?vid=335a64fc-69a6-46a3-b805-e45bc5bd4c05","ios":"levelo://app?vid=335a64fc-69a6-46a3-b805-e45bc5bd4c05"},"vehicle_type_id":"4","last_reported":1743675055,"current_range_meters":7200,"station_id":"ce4bhhp2rcd13ifvqfm0","pricing_plan_id":"cebpf4jnsgd1na2vs0mg"},{"bike_id":"546380d0-0813-4737-817f-a21e056e8d2e","system_id":"levelo_inurba_marseille","lat":43.323604,"lon":5.367658,"is_reserved":false,"is_disabled":false,"rental_uris":{"android":"levelo://app?vid=546380d0-0813-4737-817f-a21e056e8d2e","ios":"levelo://app?vid=546380d0-0813-4737-817f-a21e056e8d2e"},"vehicle_type_id":"4","last_reported":1743675055,"current_range_meters":7200,"station_id":"ce4bhsh2rcd13ifvqi2g","pricing_plan_id":"cebpf4jnsgd1na2vs0mg"},{"bike_id":"9e898bf6-7c3b-46f2-b158-f8c5de38c9db","system_id":"levelo_inurba_marseille","lat":43.24082,"lon":5.37745,"is_reserved":false,"is_disabled":false,"rental_uris":{"android":"levelo://app?vid=9e898bf6-7c3b-46f2-b158-f8c5de38c9db","ios":"levelo://app?vid=9e898bf6-7c3b-46f2-b158-f8c5de38c9db"},"vehicle_type_id":"4","last_reported":1743675055,"current_range_meters":7200,"station_id":"ce4bhnp2rcd13ifvqgvg","pricing_plan_id":"cebpf4jnsgd1na2vs0mg"},{"bike_id":"2e1d0491-8046-4a1c-910c-6d230f4ca468","system_id":"levelo_inurba_marseille","lat":43.30676,"lon":5.3737,"is_reserved":false,"is_disabled":false,"rental_uris":{"android":"levelo://app?vid=2e1d0491-8046-4a1c-910c-6d230f4ca468","ios":"levelo://app?vid=2e1d0491-8046-4a1c-910c-6d230f4ca468"},"vehicle_type_id":"4","last_reported":1743675055,"current_range_meters":7200,"station_id":"","pricing_plan_id":"cebpf4jnsgd1na2vs0mg"},{"bike_id":"282c8a95-c2b2-418d-b472-df38a1525c51","system_id":"levelo_inurba_marseille","lat":43.26558,"lon":5.39022,"is_reserved":false,"is_disabled":false,"rental_uris":{"android":"levelo://app?vid=282c8a95-c2b2-418d-b472-df38a1525c51","ios":"levelo://app?vid=282c8a95-c2b2-418d-b472-df38a1525c51"},"vehicle_type_id":"4","last_reported":1743675055,"current_range_meters":8000,"station_id":"ce4bhe12rcd13ifvqf30","pricing_plan_id":"cebpf4jnsgd1na2vs0mg"},{"bike_id":"8073569a-23c7-45b8-b854-282c3d0a58a5","system_id":"levelo_inurba_marseille","lat":43.28153,"lon":5.42637,"is_reserved":false,"is_disabled":false,"rental_uris":{"android":"levelo://app?vid=8073569a-23c7-45b8-b854-282c3d0a58a5","ios":"levelo://app?vid=8073569a-23c7-45b8-b854-282c3d0a58a5"},"vehicle_type_id":"4","last_reported":1743675055,"current_range_meters":8000,"station_id":"ce4bhnh2rcd13ifvqgug","pricing_plan_id":"cebpf4jnsgd1na2vs0mg"},{"bike_id":"f87e996c-206a-47d9-8697-84a2d463fdc3","system_id":"levelo_inurba_marseille","lat":43.23192,"lon":5.35522,"is_reserved":false,"is_disabled":false,"rental_uris":{"android":"levelo://app?vid=f87e996c-206a-47d9-8697-84a2d463fdc3","ios":"levelo://app?vid=f87e996c-206a-47d9-8697-84a2d463fdc3"},"vehicle_type_id":"4","last_reported":1743675055,"current_range_meters":8000,"station_id":"ce4bhu92rcd13ifvqi70","pricing_plan_id":"cebpf4jnsgd1na2vs0mg"},{"bike_id":"02d5e8b2-387a-403a-bd4b-bd16b7846cf0","system_id":"levelo_inurba_marseille","lat":43.24169,"lon":5.39729,"is_reserved":false,"is_disabled":false,"rental_uris":{"android":"levelo://app?vid=02d5e8b2-387a-403a-bd4b-bd16b7846cf0","ios":"levelo://app?vid=02d5e8b2-387a-403a-bd4b-bd16b7846cf0"},"vehicle_type_id":"4","last_reported":1743675055,"current_range_meters":8000,"station_id":"ce4bhn12rcd13ifvqgpg","pricing_plan_id":"cebpf4jnsgd1na2vs0mg"},{"bike_id":"6b901243-5970-4d41-950d-b84f98e2f80e","system_id":"levelo_inurba_marseille","lat":43.29262,"lon":5.3763,"is_reserved":false,"is_disabled":false,"rental_uris":{"android":"levelo://app?vid=6b901243-5970-4d41-950d-b84f98e2f80e","ios":"levelo://app?vid=6b901243-5970-4d41-950d-b84f98e2f80e"},"vehicle_type_id":"4","last_reported":1743675055,"current_range_meters":8000,"station_id":"ce4bgi12rcd13ifvqb80","pricing_plan_id":"cebpf4jnsgd1na2vs0mg"},{"bike_id":"c8c097cc-00f2-49a0-9238-138b03cf8284","system_id":"levelo_inurba_marseille","lat":43.23135,"lon":5.43716,"is_reserved":false,"is_disabled":false,"rental_uris":{"android":"levelo://app?vid=c8c097cc-00f2-49a0-9238-138b03cf8284","ios":"levelo://app?vid=c8c097cc-00f2-49a0-9238-138b03cf8284"},"vehicle_type_id":"4","last_reported":1743675055,"current_range_meters":8000,"station_id":"ce4bhmp2rcd13ifvqgog","pricing_plan_id":"cebpf4jnsgd1na2vs0mg"},{"bike_id":"1402181c-cdd8-4ec2-8060-bb193bb98c62","system_id":"levelo_inurba_marseille","lat":43.29519,"lon":5.39046,"is_reserved":false,"is_disabled":false,"rental_uris":{"android":"levelo://app?vid=1402181c-cdd8-4ec2-8060-bb193bb98c62","ios":"levelo://app?vid=1402181c-cdd8-4ec2-8060-bb193bb98c62"},"vehicle_type_id":"4","last_reported":1743675055,"current_range_meters":8000,"station_id":"ce4bh3p2rcd13ifvqdp0","pricing_plan_id":"cebpf4jnsgd1na2vs0mg"},{"bike_id":"d192c992-6413-4c6c-a794-95f3b097172c","system_id":"levelo_inurba_marseille","lat":43.2794,"lon":5.41041,"is_reserved":false,"is_disabled":false,"rental_uris":{"android":"levelo://app?vid=d192c992-6413-4c6c-a794-95f3b097172c","ios":"levelo://app?vid=d192c992-6413-4c6c-a794-95f3b097172c"},"vehicle_type_id":"4","last_reported":1743675055,"current_range_meters":8000,"station_id":"ce4bhnp2rcd13ifvqh0g","pricing_plan_id":"cebpf4jnsgd1na2vs0mg"},{"bike_id":"1331c791-6775-4642-afd5-40465ecccfa5","system_id":"levelo_inurba_marseille","lat":43.24076,"lon":5.37746,"is_reserved":false,"is_disabled":false,"rental_uris":{"android":"levelo://app?vid=1331c791-6775-4642-afd5-40465ecccfa5","ios":"levelo://app?vid=1331c791-6775-4642-afd5-40465ecccfa5"},"vehicle_type_id":"4","last_reported":1743675055,"current_range_meters":8000,"station_id":"ce4bhnp2rcd13ifvqgvg","pricing_plan_id":"cebpf4jnsgd1na2vs0mg"},{"bike_id":"ecac53c7-1761-431e-93a5-c1352259aa2f","system_id":"levelo_inurba_marseille","lat":43.28958,"lon":5.46539,"is_reserved":false,"is_disabled":false,"rental_uris":{"android":"levelo://app?vid=ecac53c7-1761-431e-93a5-c1352259aa2f","ios":"levelo://app?vid=ecac53c7-1761-431e-93a5-c1352259aa2f"},"vehicle_type_id":"4","last_reported":1743675055,"current_range_meters":8400,"station_id":"","pricing_plan_id":"cebpf4jnsgd1na2vs0mg"},{"bike_id":"32a978e0-d0c2-43d4-9b03-19a5c41c27de","system_id":"levelo_inurba_marseille","lat":43.310623,"lon":5.38355,"is_reserved":false,"is_disabled":true,"rental_uris":{"android":"levelo://app?vid=32a978e0-d0c2-43d4-9b03-19a5c41c27de","ios":"levelo://app?vid=32a978e0-d0c2-43d4-9b03-19a5c41c27de"},"vehicle_type_id":"4","last_reported":1743675055,"current_range_meters":8400,"station_id":"ce4bgv92rcd13ifvqcr0","pricing_plan_id":"cebpf4jnsgd1na2vs0mg"},{"bike_id":"29d2124f-3f56-4b7f-8ccd-89fc3443c3c2","system_id":"levelo_inurba_marseille","lat":43.31077,"lon":5.3835,"is_reserved":false,"is_disabled":false,"rental_uris":{"android":"levelo://app?vid=29d2124f-3f56-4b7f-8ccd-89fc3443c3c2","ios":"levelo://app?vid=29d2124f-3f56-4b7f-8ccd-89fc3443c3c2"},"vehicle_type_id":"4","last_reported":1743675055,"current_range_meters":8400,"station_id":"ce4bgv92rcd13ifvqcr0","pricing_plan_id":"cebpf4jnsgd1na2vs0mg"},{"bike_id":"806f15f5-826d-41fe-94bf-7198bfd375b1","system_id":"levelo_inurba_marseille","lat":43.23151,"lon":5.43709,"is_reserved":false,"is_disabled":false,"rental_uris":{"android":"levelo://app?vid=806f15f5-826d-41fe-94bf-7198bfd375b1","ios":"levelo://app?vid=806f15f5-826d-41fe-94bf-7198bfd375b1"},"vehicle_type_id":"4","last_reported":1743675055,"current_range_meters":8400,"station_id":"ce4bhmp2rcd13ifvqgog","pricing_plan_id":"cebpf4jnsgd1na2vs0mg"},{"bike_id":"4efe08bc-3ed4-4dd1-ad00-43917e8a6048","system_id":"levelo_inurba_marseille","lat":43.28105,"lon":5.37819,"is_reserved":false,"is_disabled":false,"rental_uris":{"android":"levelo://app?vid=4efe08bc-3ed4-4dd1-ad00-43917e8a6048","ios":"levelo://app?vid=4efe08bc-3ed4-4dd1-ad00-43917e8a6048"},"vehicle_type_id":"4","last_reported":1743675055,"current_range_meters":8400,"station_id":"ce4bha12rcd13ifvqee0","pricing_plan_id":"cebpf4jnsgd1na2vs0mg"},{"bike_id":"75dae32f-059a-4b5b-a5e8-963c6eda2f66","system_id":"levelo_inurba_marseille","lat":43.27517,"lon":5.40982,"is_reserved":false,"is_disabled":false,"rental_uris":{"android":"levelo://app?vid=75dae32f-059a-4b5b-a5e8-963c6eda2f66","ios":"levelo://app?vid=75dae32f-059a-4b5b-a5e8-963c6eda2f66"},"vehicle_type_id":"4","last_reported":1743675055,"current_range_meters":8400,"station_id":"","pricing_plan_id":"cebpf4jnsgd1na2vs0mg"},{"bike_id":"3374421a-949f-40b6-870f-59a2d8ba0de4","system_id":"levelo_inurba_marseille","lat":43.24162,"lon":5.36404,"is_reserved":false,"is_disabled":false,"rental_uris":{"android":"levelo://app?vid=3374421a-949f-40b6-870f-59a2d8ba0de4","ios":"levelo://app?vid=3374421a-949f-40b6-870f-59a2d8ba0de4"},"vehicle_type_id":"4","last_reported":1743675055,"current_range_meters":8800,"station_id":"cpo36qri1sfpv3e86is0","pricing_plan_id":"cebpf4jnsgd1na2vs0mg"},{"bike_id":"c2e6881a-04a3-4a38-9cc0-75cacf165e78","system_id":"levelo_inurba_marseille","lat":43.28832,"lon":5.364645,"is_reserved":false,"is_disabled":false,"rental_uris":{"android":"levelo://app?vid=c2e6881a-04a3-4a38-9cc0-75cacf165e78","ios":"levelo://app?vid=c2e6881a-04a3-4a38-9cc0-75cacf165e78"},"vehicle_type_id":"4","last_reported":1743675055,"current_range_meters":8800,"station_id":"","pricing_plan_id":"cebpf4jnsgd1na2vs0mg"},{"bike_id":"6b53d01e-77c7-4299-99ae-dda20d28569d","system_id":"levelo_inurba_marseille","lat":43.27968,"lon":5.38734,"is_reserved":false,"is_disabled":false,"rental_uris":{"android":"levelo://app?vid=6b53d01e-77c7-4299-99ae-dda20d28569d","ios":"levelo://app?vid=6b53d01e-77c7-4299-99ae-dda20d28569d"},"vehicle_type_id":"4","last_reported":1743675055,"current_range_meters":8800,"station_id":"ce4bhg12rcd13ifvqf80","pricing_plan_id":"cebpf4jnsgd1na2vs0mg"},{"bike_id":"b5fa61b4-55c0-4d0f-b518-f0583e71aca3","system_id":"levelo_inurba_marseille","lat":43.22929,"lon":5.35374,"is_reserved":false,"is_disabled":false,"rental_uris":{"android":"levelo://app?vid=b5fa61b4-55c0-4d0f-b518-f0583e71aca3","ios":"levelo://app?vid=b5fa61b4-55c0-4d0f-b518-f0583e71aca3"},"vehicle_type_id":"4","last_reported":1743675055,"current_range_meters":8800,"station_id":"cpo3532slgdg3j2ikp40","pricing_plan_id":"cebpf4jnsgd1na2vs0mg"},{"bike_id":"8bb976a6-ca6f-4ccb-b947-4cf5788cd68f","system_id":"levelo_inurba_marseille","lat":43.28433,"lon":5.34992,"is_reserved":false,"is_disabled":false,"rental_uris":{"android":"levelo://app?vid=8bb976a6-ca6f-4ccb-b947-4cf5788cd68f","ios":"levelo://app?vid=8bb976a6-ca6f-4ccb-b947-4cf5788cd68f"},"vehicle_type_id":"4","last_reported":1743675055,"current_range_meters":8800,"station_id":"ce4bhbh2rcd13ifvqepg","pricing_plan_id":"cebpf4jnsgd1na2vs0mg"},{"bike_id":"e3c925e6-f71f-44c1-a46e-473404599829","system_id":"levelo_inurba_marseille","lat":43.27002,"lon":5.402205,"is_reserved":false,"is_disabled":false,"rental_uris":{"android":"levelo://app?vid=e3c925e6-f71f-44c1-a46e-473404599829","ios":"levelo://app?vid=e3c925e6-f71f-44c1-a46e-473404599829"},"vehicle_type_id":"4","last_reported":1743675055,"current_range_meters":8800,"station_id":"cjm6bp8fraef2m0cb0m0","pricing_plan_id":"cebpf4jnsgd1na2vs0mg"},{"bike_id":"b6c83da9-b3c4-4843-9a1d-36871e12515b","system_id":"levelo_inurba_marseille","lat":43.26114,"lon":5.41467,"is_reserved":false,"is_disabled":false,"rental_uris":{"android":"levelo://app?vid=b6c83da9-b3c4-4843-9a1d-36871e12515b","ios":"levelo://app?vid=b6c83da9-b3c4-4843-9a1d-36871e12515b"},"vehicle_type_id":"4","last_reported":1743675055,"current_range_meters":8800,"station_id":"","pricing_plan_id":"cebpf4jnsgd1na2vs0mg"},{"bike_id":"2289eec9-7417-44ba-a4ea-e3531c3d7ec0","system_id":"levelo_inurba_marseille","lat":43.2937,"lon":5.37853,"is_reserved":false,"is_disabled":false,"rental_uris":{"android":"levelo://app?vid=2289eec9-7417-44ba-a4ea-e3531c3d7ec0","ios":"levelo://app?vid=2289eec9-7417-44ba-a4ea-e3531c3d7ec0"},"vehicle_type_id":"4","last_reported":1743675055,"current_range_meters":8800,"station_id":"ce4bgjh2rcd13ifvqbf0","pricing_plan_id":"cebpf4jnsgd1na2vs0mg"},{"bike_id":"e1b03b21-5eb0-483c-b4ac-ea8a29304382","system_id":"levelo_inurba_marseille","lat":43.23062,"lon":5.35489,"is_reserved":false,"is_disabled":false,"rental_uris":{"android":"levelo://app?vid=e1b03b21-5eb0-483c-b4ac-ea8a29304382","ios":"levelo://app?vid=e1b03b21-5eb0-483c-b4ac-ea8a29304382"},"vehicle_type_id":"4","last_reported":1743675055,"current_range_meters":9200,"station_id":"cpo3342slgdg3j2ifvpg","pricing_plan_id":"cebpf4jnsgd1na2vs0mg"},{"bike_id":"69308f1e-8bda-4393-ae6a-91f89142be75","system_id":"levelo_inurba_marseille","lat":43.29217,"lon":5.36066,"is_reserved":false,"is_disabled":false,"rental_uris":{"android":"levelo://app?vid=69308f1e-8bda-4393-ae6a-91f89142be75","ios":"levelo://app?vid=69308f1e-8bda-4393-ae6a-91f89142be75"},"vehicle_type_id":"4","last_reported":1743675055,"current_range_meters":9200,"station_id":"ce4bhbh2rcd13ifvqeqg","pricing_plan_id":"cebpf4jnsgd1na2vs0mg"},{"bike_id":"cd83c8ac-ed09-4369-9279-b6f36f2bbd3c","system_id":"levelo_inurba_marseille","lat":43.30806,"lon":5.38238,"is_reserved":false,"is_disabled":false,"rental_uris":{"android":"levelo://app?vid=cd83c8ac-ed09-4369-9279-b6f36f2bbd3c","ios":"levelo://app?vid=cd83c8ac-ed09-4369-9279-b6f36f2bbd3c"},"vehicle_type_id":"4","last_reported":1743675055,"current_range_meters":9600,"station_id":"","pricing_plan_id":"cebpf4jnsgd1na2vs0mg"},{"bike_id":"09a8a7dc-25ab-48a6-ac8b-5ee88a884479","system_id":"levelo_inurba_marseille","lat":43.28574,"lon":5.38403,"is_reserved":false,"is_disabled":false,"rental_uris":{"android":"levelo://app?vid=09a8a7dc-25ab-48a6-ac8b-5ee88a884479","ios":"levelo://app?vid=09a8a7dc-25ab-48a6-ac8b-5ee88a884479"},"vehicle_type_id":"4","last_reported":1743675055,"current_range_meters":9600,"station_id":"","pricing_plan_id":"cebpf4jnsgd1na2vs0mg"},{"bike_id":"7d49898d-4c6e-4131-9fdb-37de62f2c79c","system_id":"levelo_inurba_marseille","lat":43.28882,"lon":5.37143,"is_reserved":false,"is_disabled":false,"rental_uris":{"android":"levelo://app?vid=7d49898d-4c6e-4131-9fdb-37de62f2c79c","ios":"levelo://app?vid=7d49898d-4c6e-4131-9fdb-37de62f2c79c"},"vehicle_type_id":"4","last_reported":1743675055,"current_range_meters":9600,"station_id":"","pricing_plan_id":"cebpf4jnsgd1na2vs0mg"},{"bike_id":"902100f5-7bdc-4bf5-a133-3208a25fd683","system_id":"levelo_inurba_marseille","lat":43.27205,"lon":5.39185,"is_reserved":false,"is_disabled":false,"rental_uris":{"android":"levelo://app?vid=902100f5-7bdc-4bf5-a133-3208a25fd683","ios":"levelo://app?vid=902100f5-7bdc-4bf5-a133-3208a25fd683"},"vehicle_type_id":"4","last_reported":1743675055,"current_range_meters":9200,"station_id":"ce4bhhp2rcd13ifvqfm0","pricing_plan_id":"cebpf4jnsgd1na2vs0mg"},{"bike_id":"d14e771b-7278-49ad-baac-de64a562983e","system_id":"levelo_inurba_marseille","lat":43.25575,"lon":5.38234,"is_reserved":false,"is_disabled":false,"rental_uris":{"android":"levelo://app?vid=d14e771b-7278-49ad-baac-de64a562983e","ios":"levelo://app?vid=d14e771b-7278-49ad-baac-de64a562983e"},"vehicle_type_id":"4","last_reported":1743675055,"current_range_meters":9200,"station_id":"ce4bhih2rcd13ifvqfs0","pricing_plan_id":"cebpf4jnsgd1na2vs0mg"},{"bike_id":"87ebaa08-417c-4e4c-9c6c-0870e96c7115","system_id":"levelo_inurba_marseille","lat":43.25001,"lon":5.38923,"is_reserved":false,"is_disabled":false,"rental_uris":{"android":"levelo://app?vid=87ebaa08-417c-4e4c-9c6c-0870e96c7115","ios":"levelo://app?vid=87ebaa08-417c-4e4c-9c6c-0870e96c7115"},"vehicle_type_id":"4","last_reported":1743675055,"current_range_meters":9600,"station_id":"ce4bhgp2rcd13ifvqfd0","pricing_plan_id":"cebpf4jnsgd1na2vs0mg"},{"bike_id":"4a8d215f-728c-4424-bfbf-5faa62888e2d","system_id":"levelo_inurba_marseille","lat":43.295101,"lon":5.394076,"is_reserved":false,"is_disabled":true,"rental_uris":{"android":"levelo://app?vid=4a8d215f-728c-4424-bfbf-5faa62888e2d","ios":"levelo://app?vid=4a8d215f-728c-4424-bfbf-5faa62888e2d"},"vehicle_type_id":"4","last_reported":1743675055,"current_range_meters":9600,"station_id":"ce4bh292rcd13ifvqdf0","pricing_plan_id":"cebpf4jnsgd1na2vs0mg"},{"bike_id":"6b04b6c2-6bd5-4038-ac04-8cb37928e09c","system_id":"levelo_inurba_marseille","lat":43.30322,"lon":5.40433,"is_reserved":false,"is_disabled":false,"rental_uris":{"android":"levelo://app?vid=6b04b6c2-6bd5-4038-ac04-8cb37928e09c","ios":"levelo://app?vid=6b04b6c2-6bd5-4038-ac04-8cb37928e09c"},"vehicle_type_id":"4","last_reported":1743675055,"current_range_meters":10000,"station_id":"ce4bh012rcd13ifvqd10","pricing_plan_id":"cebpf4jnsgd1na2vs0mg"},{"bike_id":"90fc7eb7-2eb1-440e-89cf-a25d6f3ca4c7","system_id":"levelo_inurba_marseille","lat":43.25822,"lon":5.39431,"is_reserved":false,"is_disabled":false,"rental_uris":{"android":"levelo://app?vid=90fc7eb7-2eb1-440e-89cf-a25d6f3ca4c7","ios":"levelo://app?vid=90fc7eb7-2eb1-440e-89cf-a25d6f3ca4c7"},"vehicle_type_id":"4","last_reported":1743675055,"current_range_meters":10000,"station_id":"ce4bhip2rcd13ifvqft0","pricing_plan_id":"cebpf4jnsgd1na2vs0mg"},{"bike_id":"22bcfedc-fd1a-42ef-b4ce-f8cb0c81bc99","system_id":"levelo_inurba_marseille","lat":43.301344,"lon":5.387827,"is_reserved":false,"is_disabled":true,"rental_uris":{"android":"levelo://app?vid=22bcfedc-fd1a-42ef-b4ce-f8cb0c81bc99","ios":"levelo://app?vid=22bcfedc-fd1a-42ef-b4ce-f8cb0c81bc99"},"vehicle_type_id":"4","last_reported":1743675055,"current_range_meters":10000,"station_id":"ce4bghh2rcd13ifvqb60","pricing_plan_id":"cebpf4jnsgd1na2vs0mg"},{"bike_id":"74157fd8-0597-409e-9f68-969f3d916f32","system_id":"levelo_inurba_marseille","lat":43.25584,"lon":5.38223,"is_reserved":false,"is_disabled":false,"rental_uris":{"android":"levelo://app?vid=74157fd8-0597-409e-9f68-969f3d916f32","ios":"levelo://app?vid=74157fd8-0597-409e-9f68-969f3d916f32"},"vehicle_type_id":"4","last_reported":1743675055,"current_range_meters":10000,"station_id":"ce4bhih2rcd13ifvqfs0","pricing_plan_id":"cebpf4jnsgd1na2vs0mg"},{"bike_id":"96358b86-edd6-47bd-8cdc-7d4ebef66ea1","system_id":"levelo_inurba_marseille","lat":43.2708,"lon":5.42276,"is_reserved":false,"is_disabled":false,"rental_uris":{"android":"levelo://app?vid=96358b86-edd6-47bd-8cdc-7d4ebef66ea1","ios":"levelo://app?vid=96358b86-edd6-47bd-8cdc-7d4ebef66ea1"},"vehicle_type_id":"4","last_reported":1743675055,"current_range_meters":10000,"station_id":"ce4bhk92rcd13ifvqgb0","pricing_plan_id":"cebpf4jnsgd1na2vs0mg"},{"bike_id":"6c51a2a4-1207-41d6-8962-c4f070bd2bd2","system_id":"levelo_inurba_marseille","lat":43.27066,"lon":5.42281,"is_reserved":false,"is_disabled":false,"rental_uris":{"android":"levelo://app?vid=6c51a2a4-1207-41d6-8962-c4f070bd2bd2","ios":"levelo://app?vid=6c51a2a4-1207-41d6-8962-c4f070bd2bd2"},"vehicle_type_id":"4","last_reported":1743675055,"current_range_meters":10000,"station_id":"ce4bhk92rcd13ifvqgb0","pricing_plan_id":"cebpf4jnsgd1na2vs0mg"},{"bike_id":"30353176-b308-4f50-bce3-8ec56fedb6ea","system_id":"levelo_inurba_marseille","lat":43.30545,"lon":5.3671,"is_reserved":false,"is_disabled":false,"rental_uris":{"android":"levelo://app?vid=30353176-b308-4f50-bce3-8ec56fedb6ea","ios":"levelo://app?vid=30353176-b308-4f50-bce3-8ec56fedb6ea"},"vehicle_type_id":"4","last_reported":1743675055,"current_range_meters":10800,"station_id":"ce4bgrp2rcd13ifvqc9g","pricing_plan_id":"cebpf4jnsgd1na2vs0mg"},{"bike_id":"99301fc0-a3c3-4395-9adf-b646740cffda","system_id":"levelo_inurba_marseille","lat":43.25924,"lon":5.40895,"is_reserved":false,"is_disabled":false,"rental_uris":{"android":"levelo://app?vid=99301fc0-a3c3-4395-9adf-b646740cffda","ios":"levelo://app?vid=99301fc0-a3c3-4395-9adf-b646740cffda"},"vehicle_type_id":"4","last_reported":1743675055,"current_range_meters":10800,"station_id":"ce4bhm92rcd13ifvqglg","pricing_plan_id":"cebpf4jnsgd1na2vs0mg"},{"bike_id":"f9942b38-4b85-41d1-a828-e68229a2d475","system_id":"levelo_inurba_marseille","lat":43.26677,"lon":5.38274,"is_reserved":false,"is_disabled":false,"rental_uris":{"android":"levelo://app?vid=f9942b38-4b85-41d1-a828-e68229a2d475","ios":"levelo://app?vid=f9942b38-4b85-41d1-a828-e68229a2d475"},"vehicle_type_id":"4","last_reported":1743675055,"current_range_meters":10800,"station_id":"ce4bhg92rcd13ifvqf90","pricing_plan_id":"cebpf4jnsgd1na2vs0mg"},{"bike_id":"2635283e-ffd4-4c1f-b9e8-1b146ac4c8cc","system_id":"levelo_inurba_marseille","lat":43.302,"lon":5.41931,"is_reserved":false,"is_disabled":false,"rental_uris":{"android":"levelo://app?vid=2635283e-ffd4-4c1f-b9e8-1b146ac4c8cc","ios":"levelo://app?vid=2635283e-ffd4-4c1f-b9e8-1b146ac4c8cc"},"vehicle_type_id":"4","last_reported":1743675055,"current_range_meters":10800,"station_id":"","pricing_plan_id":"cebpf4jnsgd1na2vs0mg"},{"bike_id":"e6f02e74-383c-4bae-b8c4-037430863270","system_id":"levelo_inurba_marseille","lat":43.23053,"lon":5.35472,"is_reserved":false,"is_disabled":false,"rental_uris":{"android":"levelo://app?vid=e6f02e74-383c-4bae-b8c4-037430863270","ios":"levelo://app?vid=e6f02e74-383c-4bae-b8c4-037430863270"},"vehicle_type_id":"4","last_reported":1743675055,"current_range_meters":10800,"station_id":"cpo3342slgdg3j2ifvpg","pricing_plan_id":"cebpf4jnsgd1na2vs0mg"},{"bike_id":"e7d1d5eb-52f5-401c-b3e5-17376636f991","system_id":"levelo_inurba_marseille","lat":43.2956,"lon":5.37487,"is_reserved":false,"is_disabled":false,"rental_uris":{"android":"levelo://app?vid=e7d1d5eb-52f5-401c-b3e5-17376636f991","ios":"levelo://app?vid=e7d1d5eb-52f5-401c-b3e5-17376636f991"},"vehicle_type_id":"4","last_reported":1743675055,"current_range_meters":10800,"station_id":"ce4bgh92rcd13ifvqb50","pricing_plan_id":"cebpf4jnsgd1na2vs0mg"},{"bike_id":"1503f0aa-ff8c-48af-92f3-b20415e7dc97","system_id":"levelo_inurba_marseille","lat":43.24081,"lon":5.37753,"is_reserved":false,"is_disabled":false,"rental_uris":{"android":"levelo://app?vid=1503f0aa-ff8c-48af-92f3-b20415e7dc97","ios":"levelo://app?vid=1503f0aa-ff8c-48af-92f3-b20415e7dc97"},"vehicle_type_id":"4","last_reported":1743675055,"current_range_meters":10800,"station_id":"ce4bhnp2rcd13ifvqgvg","pricing_plan_id":"cebpf4jnsgd1na2vs0mg"},{"bike_id":"bd39be10-54d1-478e-8fda-c2822e2f5165","system_id":"levelo_inurba_marseille","lat":43.23968,"lon":5.36629,"is_reserved":false,"is_disabled":false,"rental_uris":{"android":"levelo://app?vid=bd39be10-54d1-478e-8fda-c2822e2f5165","ios":"levelo://app?vid=bd39be10-54d1-478e-8fda-c2822e2f5165"},"vehicle_type_id":"4","last_reported":1743675055,"current_range_meters":10800,"station_id":"ce4bhi12rcd13ifvqfp0","pricing_plan_id":"cebpf4jnsgd1na2vs0mg"},{"bike_id":"c13336a2-47ce-488c-b5b6-77c01a3ac1d1","system_id":"levelo_inurba_marseille","lat":43.318942,"lon":5.407457,"is_reserved":false,"is_disabled":true,"rental_uris":{"android":"levelo://app?vid=c13336a2-47ce-488c-b5b6-77c01a3ac1d1","ios":"levelo://app?vid=c13336a2-47ce-488c-b5b6-77c01a3ac1d1"},"vehicle_type_id":"4","last_reported":1743675055,"current_range_meters":11200,"station_id":"ce4bhq12rcd13ifvqhig","pricing_plan_id":"cebpf4jnsgd1na2vs0mg"},{"bike_id":"70e5b39f-29e3-4ea9-aa83-5a60a8eec6f8","system_id":"levelo_inurba_marseille","lat":43.2506,"lon":5.41706,"is_reserved":false,"is_disabled":false,"rental_uris":{"android":"levelo://app?vid=70e5b39f-29e3-4ea9-aa83-5a60a8eec6f8","ios":"levelo://app?vid=70e5b39f-29e3-4ea9-aa83-5a60a8eec6f8"},"vehicle_type_id":"4","last_reported":1743675055,"current_range_meters":11200,"station_id":"","pricing_plan_id":"cebpf4jnsgd1na2vs0mg"},{"bike_id":"8e4581a0-ac48-45f0-8881-72e126b8df71","system_id":"levelo_inurba_marseille","lat":43.31211,"lon":5.36839,"is_reserved":false,"is_disabled":false,"rental_uris":{"android":"levelo://app?vid=8e4581a0-ac48-45f0-8881-72e126b8df71","ios":"levelo://app?vid=8e4581a0-ac48-45f0-8881-72e126b8df71"},"vehicle_type_id":"4","last_reported":1743675055,"current_range_meters":11200,"station_id":"ce4bgl92rcd13ifvqbq0","pricing_plan_id":"cebpf4jnsgd1na2vs0mg"},{"bike_id":"03621e27-7737-4553-a20f-2f2e0e6120b9","system_id":"levelo_inurba_marseille","lat":43.26224,"lon":5.40446,"is_reserved":false,"is_disabled":false,"rental_uris":{"android":"levelo://app?vid=03621e27-7737-4553-a20f-2f2e0e6120b9","ios":"levelo://app?vid=03621e27-7737-4553-a20f-2f2e0e6120b9"},"vehicle_type_id":"4","last_reported":1743675055,"current_range_meters":11600,"station_id":"ce4bhmh2rcd13ifvqgmg","pricing_plan_id":"cebpf4jnsgd1na2vs0mg"},{"bike_id":"40370857-0c52-47ef-988a-078817274378","system_id":"levelo_inurba_marseille","lat":43.25923,"lon":5.40893,"is_reserved":false,"is_disabled":false,"rental_uris":{"android":"levelo://app?vid=40370857-0c52-47ef-988a-078817274378","ios":"levelo://app?vid=40370857-0c52-47ef-988a-078817274378"},"vehicle_type_id":"4","last_reported":1743675055,"current_range_meters":11600,"station_id":"ce4bhm92rcd13ifvqglg","pricing_plan_id":"cebpf4jnsgd1na2vs0mg"},{"bike_id":"b9bd8edf-6543-4ba2-a6cc-59a0675f59b3","system_id":"levelo_inurba_marseille","lat":43.30306,"lon":5.36886,"is_reserved":false,"is_disabled":false,"rental_uris":{"android":"levelo://app?vid=b9bd8edf-6543-4ba2-a6cc-59a0675f59b3","ios":"levelo://app?vid=b9bd8edf-6543-4ba2-a6cc-59a0675f59b3"},"vehicle_type_id":"4","last_reported":1743675055,"current_range_meters":11600,"station_id":"ce4bgqh2rcd13ifvqc5g","pricing_plan_id":"cebpf4jnsgd1na2vs0mg"},{"bike_id":"d2a9c8d5-6f1a-4cf5-9fa3-a5dbab8b5880","system_id":"levelo_inurba_marseille","lat":43.29583,"lon":5.36738,"is_reserved":false,"is_disabled":false,"rental_uris":{"android":"levelo://app?vid=d2a9c8d5-6f1a-4cf5-9fa3-a5dbab8b5880","ios":"levelo://app?vid=d2a9c8d5-6f1a-4cf5-9fa3-a5dbab8b5880"},"vehicle_type_id":"4","last_reported":1743675055,"current_range_meters":11600,"station_id":"ce4bgph2rcd13ifvqc2g","pricing_plan_id":"cebpf4jnsgd1na2vs0mg"},{"bike_id":"6cd0b091-af9b-420b-b917-bff2022c1680","system_id":"levelo_inurba_marseille","lat":43.27963,"lon":5.38718,"is_reserved":false,"is_disabled":true,"rental_uris":{"android":"levelo://app?vid=6cd0b091-af9b-420b-b917-bff2022c1680","ios":"levelo://app?vid=6cd0b091-af9b-420b-b917-bff2022c1680"},"vehicle_type_id":"4","last_reported":1743675055,"current_range_meters":11600,"station_id":"ce4bhg12rcd13ifvqf80","pricing_plan_id":"cebpf4jnsgd1na2vs0mg"},{"bike_id":"e3a29d38-a611-4b12-87ef-2fb8a21c41d5","system_id":"levelo_inurba_marseille","lat":43.229215,"lon":5.353813,"is_reserved":false,"is_disabled":false,"rental_uris":{"android":"levelo://app?vid=e3a29d38-a611-4b12-87ef-2fb8a21c41d5","ios":"levelo://app?vid=e3a29d38-a611-4b12-87ef-2fb8a21c41d5"},"vehicle_type_id":"4","last_reported":1743675055,"current_range_meters":11600,"station_id":"cpo3532slgdg3j2ikp40","pricing_plan_id":"cebpf4jnsgd1na2vs0mg"},{"bike_id":"c1c63035-c83b-4419-8cbf-133778d95125","system_id":"levelo_inurba_marseille","lat":43.29786,"lon":5.39349,"is_reserved":false,"is_disabled":true,"rental_uris":{"android":"levelo://app?vid=c1c63035-c83b-4419-8cbf-133778d95125","ios":"levelo://app?vid=c1c63035-c83b-4419-8cbf-133778d95125"},"vehicle_type_id":"4","last_reported":1743675055,"current_range_meters":11600,"station_id":"chh1huq6cuj3fo74tm60","pricing_plan_id":"cebpf4jnsgd1na2vs0mg"},{"bike_id":"4e9a6f3d-a6a6-4d45-baf5-7a4f5a7de1f5","system_id":"levelo_inurba_marseille","lat":43.30139,"lon":5.37395,"is_reserved":false,"is_disabled":false,"rental_uris":{"android":"levelo://app?vid=4e9a6f3d-a6a6-4d45-baf5-7a4f5a7de1f5","ios":"levelo://app?vid=4e9a6f3d-a6a6-4d45-baf5-7a4f5a7de1f5"},"vehicle_type_id":"4","last_reported":1743675055,"current_range_meters":11600,"station_id":"ce4bgs92rcd13ifvqcc0","pricing_plan_id":"cebpf4jnsgd1na2vs0mg"},{"bike_id":"b672fb25-95a9-4ba6-868f-de9ccfea37ac","system_id":"levelo_inurba_marseille","lat":43.30303,"lon":5.39204,"is_reserved":false,"is_disabled":true,"rental_uris":{"android":"levelo://app?vid=b672fb25-95a9-4ba6-868f-de9ccfea37ac","ios":"levelo://app?vid=b672fb25-95a9-4ba6-868f-de9ccfea37ac"},"vehicle_type_id":"4","last_reported":1743675055,"current_range_meters":12000,"station_id":"ce4bgkh2rcd13ifvqbk0","pricing_plan_id":"cebpf4jnsgd1na2vs0mg"},{"bike_id":"f8c62789-a6b7-4539-b99c-e6c73b69ae5e","system_id":"levelo_inurba_marseille","lat":43.30311,"lon":5.40438,"is_reserved":false,"is_disabled":true,"rental_uris":{"android":"levelo://app?vid=f8c62789-a6b7-4539-b99c-e6c73b69ae5e","ios":"levelo://app?vid=f8c62789-a6b7-4539-b99c-e6c73b69ae5e"},"vehicle_type_id":"4","last_reported":1743675055,"current_range_meters":12000,"station_id":"ce4bh012rcd13ifvqd10","pricing_plan_id":"cebpf4jnsgd1na2vs0mg"},{"bike_id":"efddeda7-6eb2-4c14-868d-fa0ce0b35ef3","system_id":"levelo_inurba_marseille","lat":43.3129,"lon":5.3828,"is_reserved":false,"is_disabled":false,"rental_uris":{"android":"levelo://app?vid=efddeda7-6eb2-4c14-868d-fa0ce0b35ef3","ios":"levelo://app?vid=efddeda7-6eb2-4c14-868d-fa0ce0b35ef3"},"vehicle_type_id":"4","last_reported":1743675055,"current_range_meters":12000,"station_id":"","pricing_plan_id":"cebpf4jnsgd1na2vs0mg"},{"bike_id":"b59e6d81-98e0-48bd-b3a0-a8bb3af54fb6","system_id":"levelo_inurba_marseille","lat":43.32545,"lon":5.41445,"is_reserved":false,"is_disabled":false,"rental_uris":{"android":"levelo://app?vid=b59e6d81-98e0-48bd-b3a0-a8bb3af54fb6","ios":"levelo://app?vid=b59e6d81-98e0-48bd-b3a0-a8bb3af54fb6"},"vehicle_type_id":"4","last_reported":1743675055,"current_range_meters":12400,"station_id":"ce4bhq12rcd13ifvqhhg","pricing_plan_id":"cebpf4jnsgd1na2vs0mg"},{"bike_id":"02b529db-18e7-4fe1-8d79-6dde7fc396bc","system_id":"levelo_inurba_marseille","lat":43.294079,"lon":5.386219,"is_reserved":false,"is_disabled":false,"rental_uris":{"android":"levelo://app?vid=02b529db-18e7-4fe1-8d79-6dde7fc396bc","ios":"levelo://app?vid=02b529db-18e7-4fe1-8d79-6dde7fc396bc"},"vehicle_type_id":"4","last_reported":1743675055,"current_range_meters":12400,"station_id":"ce4bh2h2rcd13ifvqdh0","pricing_plan_id":"cebpf4jnsgd1na2vs0mg"},{"bike_id":"9ada3385-2eea-446a-95da-f8740519d0e3","system_id":"levelo_inurba_marseille","lat":43.24068,"lon":5.37751,"is_reserved":false,"is_disabled":false,"rental_uris":{"android":"levelo://app?vid=9ada3385-2eea-446a-95da-f8740519d0e3","ios":"levelo://app?vid=9ada3385-2eea-446a-95da-f8740519d0e3"},"vehicle_type_id":"4","last_reported":1743675055,"current_range_meters":12400,"station_id":"ce4bhnp2rcd13ifvqgvg","pricing_plan_id":"cebpf4jnsgd1na2vs0mg"},{"bike_id":"1bd4c5e9-3479-4a34-bfb9-e556a3bbe8ed","system_id":"levelo_inurba_marseille","lat":43.23061,"lon":5.35481,"is_reserved":false,"is_disabled":false,"rental_uris":{"android":"levelo://app?vid=1bd4c5e9-3479-4a34-bfb9-e556a3bbe8ed","ios":"levelo://app?vid=1bd4c5e9-3479-4a34-bfb9-e556a3bbe8ed"},"vehicle_type_id":"4","last_reported":1743675055,"current_range_meters":12400,"station_id":"cpo3342slgdg3j2ifvpg","pricing_plan_id":"cebpf4jnsgd1na2vs0mg"},{"bike_id":"786b6bd9-7962-41fd-a0fb-25fac672c0ab","system_id":"levelo_inurba_marseille","lat":43.29585,"lon":5.3674,"is_reserved":false,"is_disabled":false,"rental_uris":{"android":"levelo://app?vid=786b6bd9-7962-41fd-a0fb-25fac672c0ab","ios":"levelo://app?vid=786b6bd9-7962-41fd-a0fb-25fac672c0ab"},"vehicle_type_id":"4","last_reported":1743675055,"current_range_meters":12800,"station_id":"ce4bgph2rcd13ifvqc2g","pricing_plan_id":"cebpf4jnsgd1na2vs0mg"},{"bike_id":"f6bd48ca-490c-403f-ba54-859cabc59f02","system_id":"levelo_inurba_marseille","lat":43.29902,"lon":5.37469,"is_reserved":false,"is_disabled":true,"rental_uris":{"android":"levelo://app?vid=f6bd48ca-490c-403f-ba54-859cabc59f02","ios":"levelo://app?vid=f6bd48ca-490c-403f-ba54-859cabc59f02"},"vehicle_type_id":"4","last_reported":1743675055,"current_range_meters":12800,"station_id":"ce4bgjh2rcd13ifvqbg0","pricing_plan_id":"cebpf4jnsgd1na2vs0mg"},{"bike_id":"005283db-9aca-49eb-ae41-cbf0dc140b6c","system_id":"levelo_inurba_marseille","lat":43.30137,"lon":5.37405,"is_reserved":false,"is_disabled":false,"rental_uris":{"android":"levelo://app?vid=005283db-9aca-49eb-ae41-cbf0dc140b6c","ios":"levelo://app?vid=005283db-9aca-49eb-ae41-cbf0dc140b6c"},"vehicle_type_id":"4","last_reported":1743675055,"current_range_meters":12800,"station_id":"ce4bgs92rcd13ifvqcc0","pricing_plan_id":"cebpf4jnsgd1na2vs0mg"},{"bike_id":"6cb0884f-aba9-44e8-92f3-61aacc7d15b0","system_id":"levelo_inurba_marseille","lat":43.2582,"lon":5.39411,"is_reserved":false,"is_disabled":false,"rental_uris":{"android":"levelo://app?vid=6cb0884f-aba9-44e8-92f3-61aacc7d15b0","ios":"levelo://app?vid=6cb0884f-aba9-44e8-92f3-61aacc7d15b0"},"vehicle_type_id":"4","last_reported":1743675055,"current_range_meters":12800,"station_id":"ce4bhip2rcd13ifvqft0","pricing_plan_id":"cebpf4jnsgd1na2vs0mg"},{"bike_id":"0aa69f03-0878-4038-837b-a34d05729b70","system_id":"levelo_inurba_marseille","lat":43.30536,"lon":5.36711,"is_reserved":false,"is_disabled":false,"rental_uris":{"android":"levelo://app?vid=0aa69f03-0878-4038-837b-a34d05729b70","ios":"levelo://app?vid=0aa69f03-0878-4038-837b-a34d05729b70"},"vehicle_type_id":"4","last_reported":1743675055,"current_range_meters":13600,"station_id":"ce4bgrp2rcd13ifvqc9g","pricing_plan_id":"cebpf4jnsgd1na2vs0mg"},{"bike_id":"8e2424bb-8c50-4583-b41b-a7e00143b6c2","system_id":"levelo_inurba_marseille","lat":43.24071,"lon":5.37755,"is_reserved":false,"is_disabled":false,"rental_uris":{"android":"levelo://app?vid=8e2424bb-8c50-4583-b41b-a7e00143b6c2","ios":"levelo://app?vid=8e2424bb-8c50-4583-b41b-a7e00143b6c2"},"vehicle_type_id":"4","last_reported":1743675055,"current_range_meters":13600,"station_id":"ce4bhnp2rcd13ifvqgvg","pricing_plan_id":"cebpf4jnsgd1na2vs0mg"},{"bike_id":"dd208f92-3f61-4bcc-b3e4-6f7097903fd7","system_id":"levelo_inurba_marseille","lat":43.28152,"lon":5.42634,"is_reserved":false,"is_disabled":false,"rental_uris":{"android":"levelo://app?vid=dd208f92-3f61-4bcc-b3e4-6f7097903fd7","ios":"levelo://app?vid=dd208f92-3f61-4bcc-b3e4-6f7097903fd7"},"vehicle_type_id":"4","last_reported":1743675055,"current_range_meters":13600,"station_id":"ce4bhnh2rcd13ifvqgug","pricing_plan_id":"cebpf4jnsgd1na2vs0mg"},{"bike_id":"0d77eb91-6d0d-4eb5-8d92-514580ff0d69","system_id":"levelo_inurba_marseille","lat":43.302155,"lon":5.394547,"is_reserved":false,"is_disabled":false,"rental_uris":{"android":"levelo://app?vid=0d77eb91-6d0d-4eb5-8d92-514580ff0d69","ios":"levelo://app?vid=0d77eb91-6d0d-4eb5-8d92-514580ff0d69"},"vehicle_type_id":"4","last_reported":1743675055,"current_range_meters":14000,"station_id":"ce4bgn12rcd13ifvqbt0","pricing_plan_id":"cebpf4jnsgd1na2vs0mg"},{"bike_id":"9962465c-063c-4e8e-b9a6-1693af105d3b","system_id":"levelo_inurba_marseille","lat":43.30144,"lon":5.38071,"is_reserved":false,"is_disabled":false,"rental_uris":{"android":"levelo://app?vid=9962465c-063c-4e8e-b9a6-1693af105d3b","ios":"levelo://app?vid=9962465c-063c-4e8e-b9a6-1693af105d3b"},"vehicle_type_id":"4","last_reported":1743675055,"current_range_meters":13600,"station_id":"ce4bgjp2rcd13ifvqbh0","pricing_plan_id":"cebpf4jnsgd1na2vs0mg"},{"bike_id":"22b8702c-0dfe-451a-841a-e968657038a3","system_id":"levelo_inurba_marseille","lat":43.3248,"lon":5.36598,"is_reserved":false,"is_disabled":false,"rental_uris":{"android":"levelo://app?vid=22b8702c-0dfe-451a-841a-e968657038a3","ios":"levelo://app?vid=22b8702c-0dfe-451a-841a-e968657038a3"},"vehicle_type_id":"4","last_reported":1743675055,"current_range_meters":14000,"station_id":"ce4bhs12rcd13ifvqhvg","pricing_plan_id":"cebpf4jnsgd1na2vs0mg"},{"bike_id":"03474075-78b9-46e2-91f9-9a3c5541b229","system_id":"levelo_inurba_marseille","lat":43.29912,"lon":5.3813,"is_reserved":false,"is_disabled":false,"rental_uris":{"android":"levelo://app?vid=03474075-78b9-46e2-91f9-9a3c5541b229","ios":"levelo://app?vid=03474075-78b9-46e2-91f9-9a3c5541b229"},"vehicle_type_id":"4","last_reported":1743675055,"current_range_meters":14000,"station_id":"ce4bgj12rcd13ifvqbc0","pricing_plan_id":"cebpf4jnsgd1na2vs0mg"},{"bike_id":"841946bd-6940-4794-9af4-41cbe287891a","system_id":"levelo_inurba_marseille","lat":43.27378,"lon":5.36263,"is_reserved":false,"is_disabled":false,"rental_uris":{"android":"levelo://app?vid=841946bd-6940-4794-9af4-41cbe287891a","ios":"levelo://app?vid=841946bd-6940-4794-9af4-41cbe287891a"},"vehicle_type_id":"4","last_reported":1743675055,"current_range_meters":14000,"station_id":"ce4bhbh2rcd13ifvqeo0","pricing_plan_id":"cebpf4jnsgd1na2vs0mg"},{"bike_id":"8f86bb90-b294-4048-b2fb-c228dc101b21","system_id":"levelo_inurba_marseille","lat":43.31357,"lon":5.36701,"is_reserved":false,"is_disabled":false,"rental_uris":{"android":"levelo://app?vid=8f86bb90-b294-4048-b2fb-c228dc101b21","ios":"levelo://app?vid=8f86bb90-b294-4048-b2fb-c228dc101b21"},"vehicle_type_id":"4","last_reported":1743675055,"current_range_meters":14000,"station_id":"ce4bgr92rcd13ifvqc6g","pricing_plan_id":"cebpf4jnsgd1na2vs0mg"},{"bike_id":"63139285-137c-4e8d-8e95-6c2a275f8333","system_id":"levelo_inurba_marseille","lat":43.32112,"lon":5.36773,"is_reserved":false,"is_disabled":false,"rental_uris":{"android":"levelo://app?vid=63139285-137c-4e8d-8e95-6c2a275f8333","ios":"levelo://app?vid=63139285-137c-4e8d-8e95-6c2a275f8333"},"vehicle_type_id":"4","last_reported":1743675055,"current_range_meters":14000,"station_id":"ce4bhrh2rcd13ifvqhug","pricing_plan_id":"cebpf4jnsgd1na2vs0mg"},{"bike_id":"d5efcd13-9084-4a44-95bc-d0283a96f497","system_id":"levelo_inurba_marseille","lat":43.25725,"lon":5.41105,"is_reserved":false,"is_disabled":false,"rental_uris":{"android":"levelo://app?vid=d5efcd13-9084-4a44-95bc-d0283a96f497","ios":"levelo://app?vid=d5efcd13-9084-4a44-95bc-d0283a96f497"},"vehicle_type_id":"4","last_reported":1743675055,"current_range_meters":14000,"station_id":"ce4bhkp2rcd13ifvqgd0","pricing_plan_id":"cebpf4jnsgd1na2vs0mg"},{"bike_id":"fe18dc06-ed4f-42b2-a183-24fe175c7853","system_id":"levelo_inurba_marseille","lat":43.28486,"lon":5.38411,"is_reserved":false,"is_disabled":false,"rental_uris":{"android":"levelo://app?vid=fe18dc06-ed4f-42b2-a183-24fe175c7853","ios":"levelo://app?vid=fe18dc06-ed4f-42b2-a183-24fe175c7853"},"vehicle_type_id":"4","last_reported":1743675055,"current_range_meters":14400,"station_id":"ce4bh512rcd13ifvqe3g","pricing_plan_id":"cebpf4jnsgd1na2vs0mg"},{"bike_id":"a6303451-5b45-435c-bf0e-748f94cc010d","system_id":"levelo_inurba_marseille","lat":43.23207,"lon":5.35546,"is_reserved":false,"is_disabled":false,"rental_uris":{"android":"levelo://app?vid=a6303451-5b45-435c-bf0e-748f94cc010d","ios":"levelo://app?vid=a6303451-5b45-435c-bf0e-748f94cc010d"},"vehicle_type_id":"4","last_reported":1743675055,"current_range_meters":14400,"station_id":"ce4bhu92rcd13ifvqi70","pricing_plan_id":"cebpf4jnsgd1na2vs0mg"},{"bike_id":"40d3c05f-bedf-494f-b574-dbba9f4f9f3e","system_id":"levelo_inurba_marseille","lat":43.29218,"lon":5.36055,"is_reserved":false,"is_disabled":false,"rental_uris":{"android":"levelo://app?vid=40d3c05f-bedf-494f-b574-dbba9f4f9f3e","ios":"levelo://app?vid=40d3c05f-bedf-494f-b574-dbba9f4f9f3e"},"vehicle_type_id":"4","last_reported":1743675055,"current_range_meters":14400,"station_id":"ce4bhbh2rcd13ifvqeqg","pricing_plan_id":"cebpf4jnsgd1na2vs0mg"},{"bike_id":"98a69793-d62d-45b4-97b3-f9f24acfb385","system_id":"levelo_inurba_marseille","lat":43.29169,"lon":5.37141,"is_reserved":false,"is_disabled":false,"rental_uris":{"android":"levelo://app?vid=98a69793-d62d-45b4-97b3-f9f24acfb385","ios":"levelo://app?vid=98a69793-d62d-45b4-97b3-f9f24acfb385"},"vehicle_type_id":"4","last_reported":1743675055,"current_range_meters":14400,"station_id":"ce4bha92rcd13ifvqeh0","pricing_plan_id":"cebpf4jnsgd1na2vs0mg"},{"bike_id":"f1e5f20d-e5bb-4349-9a72-f7ab8a004414","system_id":"levelo_inurba_marseille","lat":43.30307,"lon":5.40431,"is_reserved":false,"is_disabled":true,"rental_uris":{"android":"levelo://app?vid=f1e5f20d-e5bb-4349-9a72-f7ab8a004414","ios":"levelo://app?vid=f1e5f20d-e5bb-4349-9a72-f7ab8a004414"},"vehicle_type_id":"4","last_reported":1743675055,"current_range_meters":14400,"station_id":"ce4bh012rcd13ifvqd10","pricing_plan_id":"cebpf4jnsgd1na2vs0mg"},{"bike_id":"0b9665f6-10e1-4423-aded-262bb8614235","system_id":"levelo_inurba_marseille","lat":43.27421,"lon":5.39403,"is_reserved":false,"is_disabled":false,"rental_uris":{"android":"levelo://app?vid=0b9665f6-10e1-4423-aded-262bb8614235","ios":"levelo://app?vid=0b9665f6-10e1-4423-aded-262bb8614235"},"vehicle_type_id":"4","last_reported":1743675055,"current_range_meters":14400,"station_id":"ce4bhdp2rcd13ifvqf20","pricing_plan_id":"cebpf4jnsgd1na2vs0mg"},{"bike_id":"5f46717b-05d1-4f34-a220-8087932d755b","system_id":"levelo_inurba_marseille","lat":43.30082,"lon":5.36935,"is_reserved":false,"is_disabled":false,"rental_uris":{"android":"levelo://app?vid=5f46717b-05d1-4f34-a220-8087932d755b","ios":"levelo://app?vid=5f46717b-05d1-4f34-a220-8087932d755b"},"vehicle_type_id":"4","last_reported":1743675055,"current_range_meters":14400,"station_id":"","pricing_plan_id":"cebpf4jnsgd1na2vs0mg"},{"bike_id":"6193ad36-24c9-4002-b4ac-4cf93307596a","system_id":"levelo_inurba_marseille","lat":43.29632,"lon":5.40591,"is_reserved":false,"is_disabled":false,"rental_uris":{"android":"levelo://app?vid=6193ad36-24c9-4002-b4ac-4cf93307596a","ios":"levelo://app?vid=6193ad36-24c9-4002-b4ac-4cf93307596a"},"vehicle_type_id":"4","last_reported":1743675055,"current_range_meters":14400,"station_id":"ce4bh0h2rcd13ifvqd60","pricing_plan_id":"cebpf4jnsgd1na2vs0mg"},{"bike_id":"428bb19e-1f46-480d-80aa-9b2b45835368","system_id":"levelo_inurba_marseille","lat":43.29022,"lon":5.39988,"is_reserved":false,"is_disabled":false,"rental_uris":{"android":"levelo://app?vid=428bb19e-1f46-480d-80aa-9b2b45835368","ios":"levelo://app?vid=428bb19e-1f46-480d-80aa-9b2b45835368"},"vehicle_type_id":"4","last_reported":1743675055,"current_range_meters":14800,"station_id":"ce4bh392rcd13ifvqdm0","pricing_plan_id":"cebpf4jnsgd1na2vs0mg"},{"bike_id":"4c6c26e9-c2c0-42ca-bbad-340608c64a5a","system_id":"levelo_inurba_marseille","lat":43.31367,"lon":5.36712,"is_reserved":false,"is_disabled":false,"rental_uris":{"android":"levelo://app?vid=4c6c26e9-c2c0-42ca-bbad-340608c64a5a","ios":"levelo://app?vid=4c6c26e9-c2c0-42ca-bbad-340608c64a5a"},"vehicle_type_id":"4","last_reported":1743675055,"current_range_meters":14800,"station_id":"ce4bgr92rcd13ifvqc6g","pricing_plan_id":"cebpf4jnsgd1na2vs0mg"},{"bike_id":"8ab04e8f-c432-41cc-b5c5-8fe666f18f9d","system_id":"levelo_inurba_marseille","lat":43.30544,"lon":5.36709,"is_reserved":false,"is_disabled":false,"rental_uris":{"android":"levelo://app?vid=8ab04e8f-c432-41cc-b5c5-8fe666f18f9d","ios":"levelo://app?vid=8ab04e8f-c432-41cc-b5c5-8fe666f18f9d"},"vehicle_type_id":"4","last_reported":1743675055,"current_range_meters":15200,"station_id":"ce4bgrp2rcd13ifvqc9g","pricing_plan_id":"cebpf4jnsgd1na2vs0mg"},{"bike_id":"e9947125-e4b1-4977-bee9-fb031515997e","system_id":"levelo_inurba_marseille","lat":43.24546,"lon":5.39518,"is_reserved":false,"is_disabled":false,"rental_uris":{"android":"levelo://app?vid=e9947125-e4b1-4977-bee9-fb031515997e","ios":"levelo://app?vid=e9947125-e4b1-4977-bee9-fb031515997e"},"vehicle_type_id":"4","last_reported":1743675055,"current_range_meters":15200,"station_id":"ce4bhlp2rcd13ifvqgjg","pricing_plan_id":"cebpf4jnsgd1na2vs0mg"},{"bike_id":"761c86e1-56d9-4778-afe9-09ca449008f1","system_id":"levelo_inurba_marseille","lat":43.30463,"lon":5.37901,"is_reserved":false,"is_disabled":false,"rental_uris":{"android":"levelo://app?vid=761c86e1-56d9-4778-afe9-09ca449008f1","ios":"levelo://app?vid=761c86e1-56d9-4778-afe9-09ca449008f1"},"vehicle_type_id":"4","last_reported":1743675055,"current_range_meters":15200,"station_id":"ce4bgup2rcd13ifvqcn0","pricing_plan_id":"cebpf4jnsgd1na2vs0mg"},{"bike_id":"546355d5-f027-43b0-8136-96b4363f55c7","system_id":"levelo_inurba_marseille","lat":43.30157,"lon":5.38079,"is_reserved":false,"is_disabled":false,"rental_uris":{"android":"levelo://app?vid=546355d5-f027-43b0-8136-96b4363f55c7","ios":"levelo://app?vid=546355d5-f027-43b0-8136-96b4363f55c7"},"vehicle_type_id":"4","last_reported":1743675055,"current_range_meters":14000,"station_id":"ce4bgjp2rcd13ifvqbh0","pricing_plan_id":"cebpf4jnsgd1na2vs0mg"},{"bike_id":"0da307f0-a737-4f3f-8786-4dd451d57e79","system_id":"levelo_inurba_marseille","lat":43.30848,"lon":5.36758,"is_reserved":false,"is_disabled":false,"rental_uris":{"android":"levelo://app?vid=0da307f0-a737-4f3f-8786-4dd451d57e79","ios":"levelo://app?vid=0da307f0-a737-4f3f-8786-4dd451d57e79"},"vehicle_type_id":"4","last_reported":1743675055,"current_range_meters":16000,"station_id":"","pricing_plan_id":"cebpf4jnsgd1na2vs0mg"},{"bike_id":"cc5adc6b-8e7c-4e30-9ad0-142aad396abe","system_id":"levelo_inurba_marseille","lat":43.295273,"lon":5.385448,"is_reserved":false,"is_disabled":false,"rental_uris":{"android":"levelo://app?vid=cc5adc6b-8e7c-4e30-9ad0-142aad396abe","ios":"levelo://app?vid=cc5adc6b-8e7c-4e30-9ad0-142aad396abe"},"vehicle_type_id":"4","last_reported":1743675055,"current_range_meters":15200,"station_id":"ce4bhhh2rcd13ifvqfl0","pricing_plan_id":"cebpf4jnsgd1na2vs0mg"},{"bike_id":"69c0db05-6ded-4dc6-9720-2452c83c1020","system_id":"levelo_inurba_marseille","lat":43.2167,"lon":5.34651,"is_reserved":false,"is_disabled":false,"rental_uris":{"android":"levelo://app?vid=69c0db05-6ded-4dc6-9720-2452c83c1020","ios":"levelo://app?vid=69c0db05-6ded-4dc6-9720-2452c83c1020"},"vehicle_type_id":"4","last_reported":1743675055,"current_range_meters":16000,"station_id":"","pricing_plan_id":"cebpf4jnsgd1na2vs0mg"},{"bike_id":"4f37dc6b-2d31-4342-9b9a-d3347355547d","system_id":"levelo_inurba_marseille","lat":43.2794,"lon":5.41042,"is_reserved":false,"is_disabled":false,"rental_uris":{"android":"levelo://app?vid=4f37dc6b-2d31-4342-9b9a-d3347355547d","ios":"levelo://app?vid=4f37dc6b-2d31-4342-9b9a-d3347355547d"},"vehicle_type_id":"4","last_reported":1743675055,"current_range_meters":16000,"station_id":"ce4bhnp2rcd13ifvqh0g","pricing_plan_id":"cebpf4jnsgd1na2vs0mg"},{"bike_id":"416dbf46-c3b6-4144-a79a-c09d4af88311","system_id":"levelo_inurba_marseille","lat":43.30531,"lon":5.36695,"is_reserved":false,"is_disabled":false,"rental_uris":{"android":"levelo://app?vid=416dbf46-c3b6-4144-a79a-c09d4af88311","ios":"levelo://app?vid=416dbf46-c3b6-4144-a79a-c09d4af88311"},"vehicle_type_id":"4","last_reported":1743675055,"current_range_meters":16000,"station_id":"ce4bgrp2rcd13ifvqc9g","pricing_plan_id":"cebpf4jnsgd1na2vs0mg"},{"bike_id":"c59dd5cf-cb4f-4d90-a8e1-08bcf60ff4bb","system_id":"levelo_inurba_marseille","lat":43.28933,"lon":5.38381,"is_reserved":false,"is_disabled":false,"rental_uris":{"android":"levelo://app?vid=c59dd5cf-cb4f-4d90-a8e1-08bcf60ff4bb","ios":"levelo://app?vid=c59dd5cf-cb4f-4d90-a8e1-08bcf60ff4bb"},"vehicle_type_id":"4","last_reported":1743675055,"current_range_meters":15200,"station_id":"ce4bh612rcd13ifvqe6g","pricing_plan_id":"cebpf4jnsgd1na2vs0mg"},{"bike_id":"49a6f838-c9dd-412c-b0b3-62ff385691c9","system_id":"levelo_inurba_marseille","lat":43.2678,"lon":5.3941,"is_reserved":false,"is_disabled":false,"rental_uris":{"android":"levelo://app?vid=49a6f838-c9dd-412c-b0b3-62ff385691c9","ios":"levelo://app?vid=49a6f838-c9dd-412c-b0b3-62ff385691c9"},"vehicle_type_id":"4","last_reported":1743675055,"current_range_meters":16000,"station_id":"ce4bhh12rcd13ifvqfg0","pricing_plan_id":"cebpf4jnsgd1na2vs0mg"},{"bike_id":"82baf6ca-8daf-4ea0-9395-46278e3c6d62","system_id":"levelo_inurba_marseille","lat":43.26785,"lon":5.39408,"is_reserved":false,"is_disabled":false,"rental_uris":{"android":"levelo://app?vid=82baf6ca-8daf-4ea0-9395-46278e3c6d62","ios":"levelo://app?vid=82baf6ca-8daf-4ea0-9395-46278e3c6d62"},"vehicle_type_id":"4","last_reported":1743675055,"current_range_meters":16400,"station_id":"ce4bhh12rcd13ifvqfg0","pricing_plan_id":"cebpf4jnsgd1na2vs0mg"},{"bike_id":"15d5f809-9b16-445a-b183-fb27ac936066","system_id":"levelo_inurba_marseille","lat":43.290814,"lon":5.371641,"is_reserved":false,"is_disabled":false,"rental_uris":{"android":"levelo://app?vid=15d5f809-9b16-445a-b183-fb27ac936066","ios":"levelo://app?vid=15d5f809-9b16-445a-b183-fb27ac936066"},"vehicle_type_id":"4","last_reported":1743675055,"current_range_meters":17600,"station_id":"ce4bh5p2rcd13ifvqe4g","pricing_plan_id":"cebpf4jnsgd1na2vs0mg"},{"bike_id":"5908285b-b0e5-43e6-bda7-7ad27bf71349","system_id":"levelo_inurba_marseille","lat":43.29253,"lon":5.37611,"is_reserved":false,"is_disabled":false,"rental_uris":{"android":"levelo://app?vid=5908285b-b0e5-43e6-bda7-7ad27bf71349","ios":"levelo://app?vid=5908285b-b0e5-43e6-bda7-7ad27bf71349"},"vehicle_type_id":"4","last_reported":1743675055,"current_range_meters":16400,"station_id":"ce4bgi12rcd13ifvqb80","pricing_plan_id":"cebpf4jnsgd1na2vs0mg"},{"bike_id":"9d7b4579-2f49-4625-9d98-42fe0dd225fc","system_id":"levelo_inurba_marseille","lat":43.3022,"lon":5.41902,"is_reserved":false,"is_disabled":false,"rental_uris":{"android":"levelo://app?vid=9d7b4579-2f49-4625-9d98-42fe0dd225fc","ios":"levelo://app?vid=9d7b4579-2f49-4625-9d98-42fe0dd225fc"},"vehicle_type_id":"4","last_reported":1743675055,"current_range_meters":16400,"station_id":"","pricing_plan_id":"cebpf4jnsgd1na2vs0mg"},{"bike_id":"21d136c7-f94b-436f-94f8-dff736e9ed19","system_id":"levelo_inurba_marseille","lat":43.295532,"lon":5.422891,"is_reserved":false,"is_disabled":false,"rental_uris":{"android":"levelo://app?vid=21d136c7-f94b-436f-94f8-dff736e9ed19","ios":"levelo://app?vid=21d136c7-f94b-436f-94f8-dff736e9ed19"},"vehicle_type_id":"4","last_reported":1743675055,"current_range_meters":16000,"station_id":"ce4bhp92rcd13ifvqhag","pricing_plan_id":"cebpf4jnsgd1na2vs0mg"},{"bike_id":"8c911214-36b5-4c9c-9dc2-4c69bff4aa28","system_id":"levelo_inurba_marseille","lat":43.29027,"lon":5.38651,"is_reserved":false,"is_disabled":false,"rental_uris":{"android":"levelo://app?vid=8c911214-36b5-4c9c-9dc2-4c69bff4aa28","ios":"levelo://app?vid=8c911214-36b5-4c9c-9dc2-4c69bff4aa28"},"vehicle_type_id":"4","last_reported":1743675055,"current_range_meters":16400,"station_id":"ce4bh4p2rcd13ifvqe0g","pricing_plan_id":"cebpf4jnsgd1na2vs0mg"},{"bike_id":"65c86302-8ef0-46f4-ab6e-bac7149a2865","system_id":"levelo_inurba_marseille","lat":43.32107,"lon":5.36737,"is_reserved":false,"is_disabled":false,"rental_uris":{"android":"levelo://app?vid=65c86302-8ef0-46f4-ab6e-bac7149a2865","ios":"levelo://app?vid=65c86302-8ef0-46f4-ab6e-bac7149a2865"},"vehicle_type_id":"4","last_reported":1743675055,"current_range_meters":16400,"station_id":"ce4bhrh2rcd13ifvqhug","pricing_plan_id":"cebpf4jnsgd1na2vs0mg"},{"bike_id":"10dba690-16cc-4e3a-8cf1-837f9f6eb283","system_id":"levelo_inurba_marseille","lat":43.30133,"lon":5.37405,"is_reserved":false,"is_disabled":false,"rental_uris":{"android":"levelo://app?vid=10dba690-16cc-4e3a-8cf1-837f9f6eb283","ios":"levelo://app?vid=10dba690-16cc-4e3a-8cf1-837f9f6eb283"},"vehicle_type_id":"4","last_reported":1743675055,"current_range_meters":16400,"station_id":"ce4bgs92rcd13ifvqcc0","pricing_plan_id":"cebpf4jnsgd1na2vs0mg"},{"bike_id":"16e30be1-6821-4531-b2d3-8709a32f4f02","system_id":"levelo_inurba_marseille","lat":43.30471,"lon":5.37885,"is_reserved":false,"is_disabled":false,"rental_uris":{"android":"levelo://app?vid=16e30be1-6821-4531-b2d3-8709a32f4f02","ios":"levelo://app?vid=16e30be1-6821-4531-b2d3-8709a32f4f02"},"vehicle_type_id":"4","last_reported":1743675055,"current_range_meters":16400,"station_id":"ce4bgup2rcd13ifvqcn0","pricing_plan_id":"cebpf4jnsgd1na2vs0mg"},{"bike_id":"e6b69cd2-f965-4a12-9e02-6f28a269f9f9","system_id":"levelo_inurba_marseille","lat":43.23054,"lon":5.35502,"is_reserved":false,"is_disabled":false,"rental_uris":{"android":"levelo://app?vid=e6b69cd2-f965-4a12-9e02-6f28a269f9f9","ios":"levelo://app?vid=e6b69cd2-f965-4a12-9e02-6f28a269f9f9"},"vehicle_type_id":"4","last_reported":1743675055,"current_range_meters":16800,"station_id":"cpo3342slgdg3j2ifvpg","pricing_plan_id":"cebpf4jnsgd1na2vs0mg"},{"bike_id":"fb348b09-6abb-47a4-a266-91f2eeaee291","system_id":"levelo_inurba_marseille","lat":43.32083,"lon":5.36799,"is_reserved":false,"is_disabled":false,"rental_uris":{"android":"levelo://app?vid=fb348b09-6abb-47a4-a266-91f2eeaee291","ios":"levelo://app?vid=fb348b09-6abb-47a4-a266-91f2eeaee291"},"vehicle_type_id":"4","last_reported":1743675055,"current_range_meters":16800,"station_id":"ce4bhrh2rcd13ifvqhug","pricing_plan_id":"cebpf4jnsgd1na2vs0mg"},{"bike_id":"0df0e7a9-81b2-41f8-8fc9-9278b36af5a7","system_id":"levelo_inurba_marseille","lat":43.25093,"lon":5.3955,"is_reserved":false,"is_disabled":false,"rental_uris":{"android":"levelo://app?vid=0df0e7a9-81b2-41f8-8fc9-9278b36af5a7","ios":"levelo://app?vid=0df0e7a9-81b2-41f8-8fc9-9278b36af5a7"},"vehicle_type_id":"4","last_reported":1743675055,"current_range_meters":16800,"station_id":"ce4bhm12rcd13ifvqgkg","pricing_plan_id":"cebpf4jnsgd1na2vs0mg"},{"bike_id":"42d687ec-6729-4a30-bd98-02ec51735831","system_id":"levelo_inurba_marseille","lat":43.2871,"lon":5.37942,"is_reserved":false,"is_disabled":false,"rental_uris":{"android":"levelo://app?vid=42d687ec-6729-4a30-bd98-02ec51735831","ios":"levelo://app?vid=42d687ec-6729-4a30-bd98-02ec51735831"},"vehicle_type_id":"4","last_reported":1743675055,"current_range_meters":16800,"station_id":"ce4bh9p2rcd13ifvqec0","pricing_plan_id":"cebpf4jnsgd1na2vs0mg"},{"bike_id":"ee9d73af-b099-467c-a392-1123c69744fe","system_id":"levelo_inurba_marseille","lat":43.302088,"lon":5.369351,"is_reserved":false,"is_disabled":false,"rental_uris":{"android":"levelo://app?vid=ee9d73af-b099-467c-a392-1123c69744fe","ios":"levelo://app?vid=ee9d73af-b099-467c-a392-1123c69744fe"},"vehicle_type_id":"4","last_reported":1743675055,"current_range_meters":16800,"station_id":"ce4bgqh2rcd13ifvqc5g","pricing_plan_id":"cebpf4jnsgd1na2vs0mg"},{"bike_id":"516bbb23-60a5-43f2-8ac6-697d5fb7d5e6","system_id":"levelo_inurba_marseille","lat":43.302495,"lon":5.400619,"is_reserved":false,"is_disabled":false,"rental_uris":{"android":"levelo://app?vid=516bbb23-60a5-43f2-8ac6-697d5fb7d5e6","ios":"levelo://app?vid=516bbb23-60a5-43f2-8ac6-697d5fb7d5e6"},"vehicle_type_id":"4","last_reported":1743675055,"current_range_meters":16400,"station_id":"ce4bh292rcd13ifvqdf0","pricing_plan_id":"cebpf4jnsgd1na2vs0mg"},{"bike_id":"c0e36771-dbe7-477f-9122-f8476f7b7779","system_id":"levelo_inurba_marseille","lat":43.32364,"lon":5.36724,"is_reserved":false,"is_disabled":false,"rental_uris":{"android":"levelo://app?vid=c0e36771-dbe7-477f-9122-f8476f7b7779","ios":"levelo://app?vid=c0e36771-dbe7-477f-9122-f8476f7b7779"},"vehicle_type_id":"4","last_reported":1743675055,"current_range_meters":16800,"station_id":"ce4bhsh2rcd13ifvqi2g","pricing_plan_id":"cebpf4jnsgd1na2vs0mg"},{"bike_id":"229ba492-02d9-4033-b935-7f43b75a8976","system_id":"levelo_inurba_marseille","lat":43.30564,"lon":5.36525,"is_reserved":false,"is_disabled":false,"rental_uris":{"android":"levelo://app?vid=229ba492-02d9-4033-b935-7f43b75a8976","ios":"levelo://app?vid=229ba492-02d9-4033-b935-7f43b75a8976"},"vehicle_type_id":"4","last_reported":1743675055,"current_range_meters":16800,"station_id":"ce4bgs12rcd13ifvqcag","pricing_plan_id":"cebpf4jnsgd1na2vs0mg"},{"bike_id":"c6dbfbad-c5e4-4444-9b15-94527aba01a5","system_id":"levelo_inurba_marseille","lat":43.30538,"lon":5.36539,"is_reserved":false,"is_disabled":true,"rental_uris":{"android":"levelo://app?vid=c6dbfbad-c5e4-4444-9b15-94527aba01a5","ios":"levelo://app?vid=c6dbfbad-c5e4-4444-9b15-94527aba01a5"},"vehicle_type_id":"4","last_reported":1743675055,"current_range_meters":16800,"station_id":"ce4bgs12rcd13ifvqcag","pricing_plan_id":"cebpf4jnsgd1na2vs0mg"},{"bike_id":"4bc3510e-a77a-4147-b9e1-23b23b2f7e9f","system_id":"levelo_inurba_marseille","lat":43.30316,"lon":5.36911,"is_reserved":false,"is_disabled":false,"rental_uris":{"android":"levelo://app?vid=4bc3510e-a77a-4147-b9e1-23b23b2f7e9f","ios":"levelo://app?vid=4bc3510e-a77a-4147-b9e1-23b23b2f7e9f"},"vehicle_type_id":"4","last_reported":1743675055,"current_range_meters":17200,"station_id":"ce4bgqh2rcd13ifvqc5g","pricing_plan_id":"cebpf4jnsgd1na2vs0mg"},{"bike_id":"b2f4490f-edf0-49ca-9d34-1b76be892ddc","system_id":"levelo_inurba_marseille","lat":43.26228,"lon":5.40445,"is_reserved":false,"is_disabled":false,"rental_uris":{"android":"levelo://app?vid=b2f4490f-edf0-49ca-9d34-1b76be892ddc","ios":"levelo://app?vid=b2f4490f-edf0-49ca-9d34-1b76be892ddc"},"vehicle_type_id":"4","last_reported":1743675055,"current_range_meters":17200,"station_id":"ce4bhmh2rcd13ifvqgmg","pricing_plan_id":"cebpf4jnsgd1na2vs0mg"},{"bike_id":"fb4cfac6-d54b-4f49-96fe-f3cb5cad9b95","system_id":"levelo_inurba_marseille","lat":43.30539,"lon":5.36541,"is_reserved":false,"is_disabled":false,"rental_uris":{"android":"levelo://app?vid=fb4cfac6-d54b-4f49-96fe-f3cb5cad9b95","ios":"levelo://app?vid=fb4cfac6-d54b-4f49-96fe-f3cb5cad9b95"},"vehicle_type_id":"4","last_reported":1743675055,"current_range_meters":17200,"station_id":"ce4bgs12rcd13ifvqcag","pricing_plan_id":"cebpf4jnsgd1na2vs0mg"},{"bike_id":"f5d7baaf-c3b6-4714-ade1-a7553acc3f6e","system_id":"levelo_inurba_marseille","lat":43.30481,"lon":5.41722,"is_reserved":false,"is_disabled":false,"rental_uris":{"android":"levelo://app?vid=f5d7baaf-c3b6-4714-ade1-a7553acc3f6e","ios":"levelo://app?vid=f5d7baaf-c3b6-4714-ade1-a7553acc3f6e"},"vehicle_type_id":"4","last_reported":1743675055,"current_range_meters":17200,"station_id":"","pricing_plan_id":"cebpf4jnsgd1na2vs0mg"},{"bike_id":"98a32cbd-1ed8-4ff3-969e-8995f8f8559e","system_id":"levelo_inurba_marseille","lat":43.30925,"lon":5.36838,"is_reserved":false,"is_disabled":false,"rental_uris":{"android":"levelo://app?vid=98a32cbd-1ed8-4ff3-969e-8995f8f8559e","ios":"levelo://app?vid=98a32cbd-1ed8-4ff3-969e-8995f8f8559e"},"vehicle_type_id":"4","last_reported":1743675055,"current_range_meters":17200,"station_id":"ce4bgn92rcd13ifvqbvg","pricing_plan_id":"cebpf4jnsgd1na2vs0mg"},{"bike_id":"1e095e95-f8b6-4578-b256-7d5e3545b34d","system_id":"levelo_inurba_marseille","lat":43.29805,"lon":5.40389,"is_reserved":false,"is_disabled":false,"rental_uris":{"android":"levelo://app?vid=1e095e95-f8b6-4578-b256-7d5e3545b34d","ios":"levelo://app?vid=1e095e95-f8b6-4578-b256-7d5e3545b34d"},"vehicle_type_id":"4","last_reported":1743675055,"current_range_meters":17200,"station_id":"ce4bh112rcd13ifvqd90","pricing_plan_id":"cebpf4jnsgd1na2vs0mg"},{"bike_id":"4caff8e0-340c-490f-8a5a-b26f15704f76","system_id":"levelo_inurba_marseille","lat":43.28577,"lon":5.38439,"is_reserved":false,"is_disabled":false,"rental_uris":{"android":"levelo://app?vid=4caff8e0-340c-490f-8a5a-b26f15704f76","ios":"levelo://app?vid=4caff8e0-340c-490f-8a5a-b26f15704f76"},"vehicle_type_id":"4","last_reported":1743675055,"current_range_meters":17600,"station_id":"","pricing_plan_id":"cebpf4jnsgd1na2vs0mg"},{"bike_id":"b54c83db-6ab6-495f-a888-0f6eacdb9ec0","system_id":"levelo_inurba_marseille","lat":43.31986,"lon":5.38154,"is_reserved":false,"is_disabled":false,"rental_uris":{"android":"levelo://app?vid=b54c83db-6ab6-495f-a888-0f6eacdb9ec0","ios":"levelo://app?vid=b54c83db-6ab6-495f-a888-0f6eacdb9ec0"},"vehicle_type_id":"4","last_reported":1743675055,"current_range_meters":17600,"station_id":"ce4bhr12rcd13ifvqhpg","pricing_plan_id":"cebpf4jnsgd1na2vs0mg"},{"bike_id":"0ddde6b8-0881-44bb-aa7b-31adc8f1bbaf","system_id":"levelo_inurba_marseille","lat":43.30559,"lon":5.36528,"is_reserved":false,"is_disabled":false,"rental_uris":{"android":"levelo://app?vid=0ddde6b8-0881-44bb-aa7b-31adc8f1bbaf","ios":"levelo://app?vid=0ddde6b8-0881-44bb-aa7b-31adc8f1bbaf"},"vehicle_type_id":"4","last_reported":1743675055,"current_range_meters":17600,"station_id":"ce4bgs12rcd13ifvqcag","pricing_plan_id":"cebpf4jnsgd1na2vs0mg"},{"bike_id":"e8eca314-9223-46e2-854b-bc81555c08d4","system_id":"levelo_inurba_marseille","lat":43.3055,"lon":5.36634,"is_reserved":false,"is_disabled":false,"rental_uris":{"android":"levelo://app?vid=e8eca314-9223-46e2-854b-bc81555c08d4","ios":"levelo://app?vid=e8eca314-9223-46e2-854b-bc81555c08d4"},"vehicle_type_id":"4","last_reported":1743675055,"current_range_meters":17600,"station_id":"ce4bgrp2rcd13ifvqc9g","pricing_plan_id":"cebpf4jnsgd1na2vs0mg"},{"bike_id":"08f359ba-b561-4a7d-83dd-5490c9924838","system_id":"levelo_inurba_marseille","lat":43.29588,"lon":5.37499,"is_reserved":false,"is_disabled":true,"rental_uris":{"android":"levelo://app?vid=08f359ba-b561-4a7d-83dd-5490c9924838","ios":"levelo://app?vid=08f359ba-b561-4a7d-83dd-5490c9924838"},"vehicle_type_id":"4","last_reported":1743675055,"current_range_meters":17600,"station_id":"ce4bgh92rcd13ifvqb50","pricing_plan_id":"cebpf4jnsgd1na2vs0mg"},{"bike_id":"19224d95-e048-4cbb-8884-43e0e6b3db9b","system_id":"levelo_inurba_marseille","lat":43.29868,"lon":5.3974,"is_reserved":false,"is_disabled":true,"rental_uris":{"android":"levelo://app?vid=19224d95-e048-4cbb-8884-43e0e6b3db9b","ios":"levelo://app?vid=19224d95-e048-4cbb-8884-43e0e6b3db9b"},"vehicle_type_id":"4","last_reported":1743675055,"current_range_meters":17600,"station_id":"ce4bh0h2rcd13ifvqd50","pricing_plan_id":"cebpf4jnsgd1na2vs0mg"},{"bike_id":"2a9f3abc-80ee-4f8e-915b-e0b7b32a07a5","system_id":"levelo_inurba_marseille","lat":43.2869,"lon":5.3998,"is_reserved":false,"is_disabled":false,"rental_uris":{"android":"levelo://app?vid=2a9f3abc-80ee-4f8e-915b-e0b7b32a07a5","ios":"levelo://app?vid=2a9f3abc-80ee-4f8e-915b-e0b7b32a07a5"},"vehicle_type_id":"4","last_reported":1743675055,"current_range_meters":17600,"station_id":"ce4bho92rcd13ifvqh3g","pricing_plan_id":"cebpf4jnsgd1na2vs0mg"},{"bike_id":"8ccf70e2-ab78-4cc8-a0a7-9506b44dd07b","system_id":"levelo_inurba_marseille","lat":43.27357,"lon":5.42409,"is_reserved":false,"is_disabled":false,"rental_uris":{"android":"levelo://app?vid=8ccf70e2-ab78-4cc8-a0a7-9506b44dd07b","ios":"levelo://app?vid=8ccf70e2-ab78-4cc8-a0a7-9506b44dd07b"},"vehicle_type_id":"4","last_reported":1743675055,"current_range_meters":18000,"station_id":"","pricing_plan_id":"cebpf4jnsgd1na2vs0mg"},{"bike_id":"9239e547-2e5f-4e51-b4bd-e8231f1f8499","system_id":"levelo_inurba_marseille","lat":43.29039,"lon":5.37566,"is_reserved":false,"is_disabled":false,"rental_uris":{"android":"levelo://app?vid=9239e547-2e5f-4e51-b4bd-e8231f1f8499","ios":"levelo://app?vid=9239e547-2e5f-4e51-b4bd-e8231f1f8499"},"vehicle_type_id":"4","last_reported":1743675055,"current_range_meters":18000,"station_id":"ce4bh692rcd13ifvqe90","pricing_plan_id":"cebpf4jnsgd1na2vs0mg"},{"bike_id":"414a8a4d-0dbc-43bc-b3de-6b50dfd8f45a","system_id":"levelo_inurba_marseille","lat":43.30914,"lon":5.36853,"is_reserved":false,"is_disabled":false,"rental_uris":{"android":"levelo://app?vid=414a8a4d-0dbc-43bc-b3de-6b50dfd8f45a","ios":"levelo://app?vid=414a8a4d-0dbc-43bc-b3de-6b50dfd8f45a"},"vehicle_type_id":"4","last_reported":1743675055,"current_range_meters":18000,"station_id":"ce4bgn92rcd13ifvqbvg","pricing_plan_id":"cebpf4jnsgd1na2vs0mg"},{"bike_id":"fcab499a-eaee-4cfc-a227-7420bab15e08","system_id":"levelo_inurba_marseille","lat":43.2893,"lon":5.38399,"is_reserved":false,"is_disabled":false,"rental_uris":{"android":"levelo://app?vid=fcab499a-eaee-4cfc-a227-7420bab15e08","ios":"levelo://app?vid=fcab499a-eaee-4cfc-a227-7420bab15e08"},"vehicle_type_id":"4","last_reported":1743675055,"current_range_meters":17600,"station_id":"ce4bh612rcd13ifvqe6g","pricing_plan_id":"cebpf4jnsgd1na2vs0mg"},{"bike_id":"84a7a785-5392-42bc-8088-fb903bcc7f5c","system_id":"levelo_inurba_marseille","lat":43.23063,"lon":5.35483,"is_reserved":false,"is_disabled":false,"rental_uris":{"android":"levelo://app?vid=84a7a785-5392-42bc-8088-fb903bcc7f5c","ios":"levelo://app?vid=84a7a785-5392-42bc-8088-fb903bcc7f5c"},"vehicle_type_id":"4","last_reported":1743675055,"current_range_meters":18000,"station_id":"cpo3342slgdg3j2ifvpg","pricing_plan_id":"cebpf4jnsgd1na2vs0mg"},{"bike_id":"d81c816e-5991-473f-a308-770a24deedde","system_id":"levelo_inurba_marseille","lat":43.31357,"lon":5.36686,"is_reserved":false,"is_disabled":true,"rental_uris":{"android":"levelo://app?vid=d81c816e-5991-473f-a308-770a24deedde","ios":"levelo://app?vid=d81c816e-5991-473f-a308-770a24deedde"},"vehicle_type_id":"4","last_reported":1743675055,"current_range_meters":18000,"station_id":"ce4bgr92rcd13ifvqc6g","pricing_plan_id":"cebpf4jnsgd1na2vs0mg"},{"bike_id":"8b7ab987-1a63-45d2-a9ee-e6bc0b756ad5","system_id":"levelo_inurba_marseille","lat":43.24081,"lon":5.3774,"is_reserved":false,"is_disabled":false,"rental_uris":{"android":"levelo://app?vid=8b7ab987-1a63-45d2-a9ee-e6bc0b756ad5","ios":"levelo://app?vid=8b7ab987-1a63-45d2-a9ee-e6bc0b756ad5"},"vehicle_type_id":"4","last_reported":1743675055,"current_range_meters":18000,"station_id":"ce4bhnp2rcd13ifvqgvg","pricing_plan_id":"cebpf4jnsgd1na2vs0mg"},{"bike_id":"6d2ddf55-3192-42db-855c-243a74da2bfe","system_id":"levelo_inurba_marseille","lat":43.27214,"lon":5.392,"is_reserved":false,"is_disabled":false,"rental_uris":{"android":"levelo://app?vid=6d2ddf55-3192-42db-855c-243a74da2bfe","ios":"levelo://app?vid=6d2ddf55-3192-42db-855c-243a74da2bfe"},"vehicle_type_id":"4","last_reported":1743675055,"current_range_meters":18000,"station_id":"ce4bhhp2rcd13ifvqfm0","pricing_plan_id":"cebpf4jnsgd1na2vs0mg"},{"bike_id":"e961b6b8-c46a-4b11-b8a0-23649ce71d81","system_id":"levelo_inurba_marseille","lat":43.23054,"lon":5.35498,"is_reserved":false,"is_disabled":false,"rental_uris":{"android":"levelo://app?vid=e961b6b8-c46a-4b11-b8a0-23649ce71d81","ios":"levelo://app?vid=e961b6b8-c46a-4b11-b8a0-23649ce71d81"},"vehicle_type_id":"4","last_reported":1743675055,"current_range_meters":18000,"station_id":"cpo3342slgdg3j2ifvpg","pricing_plan_id":"cebpf4jnsgd1na2vs0mg"},{"bike_id":"0cce366f-8f9b-4fe6-b562-11a65584b986","system_id":"levelo_inurba_marseille","lat":43.29343,"lon":5.38679,"is_reserved":false,"is_disabled":false,"rental_uris":{"android":"levelo://app?vid=0cce366f-8f9b-4fe6-b562-11a65584b986","ios":"levelo://app?vid=0cce366f-8f9b-4fe6-b562-11a65584b986"},"vehicle_type_id":"4","last_reported":1743675055,"current_range_meters":18800,"station_id":"","pricing_plan_id":"cebpf4jnsgd1na2vs0mg"},{"bike_id":"1358a53f-3e83-45c9-a950-1947874d2449","system_id":"levelo_inurba_marseille","lat":43.27977,"lon":5.38735,"is_reserved":false,"is_disabled":false,"rental_uris":{"android":"levelo://app?vid=1358a53f-3e83-45c9-a950-1947874d2449","ios":"levelo://app?vid=1358a53f-3e83-45c9-a950-1947874d2449"},"vehicle_type_id":"4","last_reported":1743675055,"current_range_meters":19200,"station_id":"ce4bhg12rcd13ifvqf80","pricing_plan_id":"cebpf4jnsgd1na2vs0mg"},{"bike_id":"4a910aa7-0406-403d-947a-38946429b5ed","system_id":"levelo_inurba_marseille","lat":43.28977,"lon":5.37849,"is_reserved":false,"is_disabled":false,"rental_uris":{"android":"levelo://app?vid=4a910aa7-0406-403d-947a-38946429b5ed","ios":"levelo://app?vid=4a910aa7-0406-403d-947a-38946429b5ed"},"vehicle_type_id":"4","last_reported":1743675055,"current_range_meters":18800,"station_id":"ce4bh9p2rcd13ifvqed0","pricing_plan_id":"cebpf4jnsgd1na2vs0mg"},{"bike_id":"06f766b9-f51a-4fd2-ab05-16c67390a8e9","system_id":"levelo_inurba_marseille","lat":43.25935,"lon":5.40882,"is_reserved":false,"is_disabled":false,"rental_uris":{"android":"levelo://app?vid=06f766b9-f51a-4fd2-ab05-16c67390a8e9","ios":"levelo://app?vid=06f766b9-f51a-4fd2-ab05-16c67390a8e9"},"vehicle_type_id":"4","last_reported":1743675055,"current_range_meters":18800,"station_id":"ce4bhm92rcd13ifvqglg","pricing_plan_id":"cebpf4jnsgd1na2vs0mg"},{"bike_id":"d004abc5-8dad-4d4f-9166-95d1343cdb9a","system_id":"levelo_inurba_marseille","lat":43.30543,"lon":5.3671,"is_reserved":false,"is_disabled":false,"rental_uris":{"android":"levelo://app?vid=d004abc5-8dad-4d4f-9166-95d1343cdb9a","ios":"levelo://app?vid=d004abc5-8dad-4d4f-9166-95d1343cdb9a"},"vehicle_type_id":"4","last_reported":1743675055,"current_range_meters":18800,"station_id":"ce4bgrp2rcd13ifvqc9g","pricing_plan_id":"cebpf4jnsgd1na2vs0mg"},{"bike_id":"a16361a9-6879-446d-914b-03d1bbbc6e4e","system_id":"levelo_inurba_marseille","lat":43.3302,"lon":5.39036,"is_reserved":false,"is_disabled":false,"rental_uris":{"android":"levelo://app?vid=a16361a9-6879-446d-914b-03d1bbbc6e4e","ios":"levelo://app?vid=a16361a9-6879-446d-914b-03d1bbbc6e4e"},"vehicle_type_id":"4","last_reported":1743675055,"current_range_meters":19200,"station_id":"ce4bhr92rcd13ifvqhrg","pricing_plan_id":"cebpf4jnsgd1na2vs0mg"},{"bike_id":"d2bc0886-a87b-4888-94fc-208556e0617a","system_id":"levelo_inurba_marseille","lat":43.29519,"lon":5.37498,"is_reserved":false,"is_disabled":false,"rental_uris":{"android":"levelo://app?vid=d2bc0886-a87b-4888-94fc-208556e0617a","ios":"levelo://app?vid=d2bc0886-a87b-4888-94fc-208556e0617a"},"vehicle_type_id":"4","last_reported":1743675055,"current_range_meters":18800,"station_id":"ce4bgkp2rcd13ifvqbmg","pricing_plan_id":"cebpf4jnsgd1na2vs0mg"},{"bike_id":"c3bf86d0-2a6c-459f-8156-cf8cd83fa35a","system_id":"levelo_inurba_marseille","lat":43.24088,"lon":5.37756,"is_reserved":false,"is_disabled":false,"rental_uris":{"android":"levelo://app?vid=c3bf86d0-2a6c-459f-8156-cf8cd83fa35a","ios":"levelo://app?vid=c3bf86d0-2a6c-459f-8156-cf8cd83fa35a"},"vehicle_type_id":"4","last_reported":1743675055,"current_range_meters":19200,"station_id":"ce4bhnp2rcd13ifvqgvg","pricing_plan_id":"cebpf4jnsgd1na2vs0mg"},{"bike_id":"1410477a-2d04-47dd-9159-62256d33b2cc","system_id":"levelo_inurba_marseille","lat":43.26202,"lon":5.37475,"is_reserved":false,"is_disabled":false,"rental_uris":{"android":"levelo://app?vid=1410477a-2d04-47dd-9159-62256d33b2cc","ios":"levelo://app?vid=1410477a-2d04-47dd-9159-62256d33b2cc"},"vehicle_type_id":"4","last_reported":1743675055,"current_range_meters":19200,"station_id":"ce4bhgp2rcd13ifvqfc0","pricing_plan_id":"cebpf4jnsgd1na2vs0mg"},{"bike_id":"2cc61af1-7ae4-479d-ba72-8a93dc9ba9a6","system_id":"levelo_inurba_marseille","lat":43.32467,"lon":5.36563,"is_reserved":false,"is_disabled":false,"rental_uris":{"android":"levelo://app?vid=2cc61af1-7ae4-479d-ba72-8a93dc9ba9a6","ios":"levelo://app?vid=2cc61af1-7ae4-479d-ba72-8a93dc9ba9a6"},"vehicle_type_id":"4","last_reported":1743675055,"current_range_meters":19200,"station_id":"ce4bhs12rcd13ifvqhvg","pricing_plan_id":"cebpf4jnsgd1na2vs0mg"},{"bike_id":"bc86eb05-c2e5-4107-900b-9f28389be73d","system_id":"levelo_inurba_marseille","lat":43.30561,"lon":5.36526,"is_reserved":false,"is_disabled":false,"rental_uris":{"android":"levelo://app?vid=bc86eb05-c2e5-4107-900b-9f28389be73d","ios":"levelo://app?vid=bc86eb05-c2e5-4107-900b-9f28389be73d"},"vehicle_type_id":"4","last_reported":1743675055,"current_range_meters":19200,"station_id":"ce4bgs12rcd13ifvqcag","pricing_plan_id":"cebpf4jnsgd1na2vs0mg"},{"bike_id":"d0087e2e-f1ab-403d-a896-c0b705ee9689","system_id":"levelo_inurba_marseille","lat":43.27201,"lon":5.39179,"is_reserved":false,"is_disabled":false,"rental_uris":{"android":"levelo://app?vid=d0087e2e-f1ab-403d-a896-c0b705ee9689","ios":"levelo://app?vid=d0087e2e-f1ab-403d-a896-c0b705ee9689"},"vehicle_type_id":"4","last_reported":1743675055,"current_range_meters":19200,"station_id":"ce4bhhp2rcd13ifvqfm0","pricing_plan_id":"cebpf4jnsgd1na2vs0mg"},{"bike_id":"4bb8784f-f6ce-4ba0-9822-7bec8b6231e8","system_id":"levelo_inurba_marseille","lat":43.31549,"lon":5.38049,"is_reserved":false,"is_disabled":false,"rental_uris":{"android":"levelo://app?vid=4bb8784f-f6ce-4ba0-9822-7bec8b6231e8","ios":"levelo://app?vid=4bb8784f-f6ce-4ba0-9822-7bec8b6231e8"},"vehicle_type_id":"4","last_reported":1743675055,"current_range_meters":19200,"station_id":"ce4bhsp2rcd13ifvqi50","pricing_plan_id":"cebpf4jnsgd1na2vs0mg"},{"bike_id":"c5056e30-5d8e-4a28-a531-6f96e4081a0d","system_id":"levelo_inurba_marseille","lat":43.29798,"lon":5.38093,"is_reserved":false,"is_disabled":false,"rental_uris":{"android":"levelo://app?vid=c5056e30-5d8e-4a28-a531-6f96e4081a0d","ios":"levelo://app?vid=c5056e30-5d8e-4a28-a531-6f96e4081a0d"},"vehicle_type_id":"4","last_reported":1743675055,"current_range_meters":19200,"station_id":"ce4bgip2rcd13ifvqbb0","pricing_plan_id":"cebpf4jnsgd1na2vs0mg"},{"bike_id":"b2b416c5-6260-4ff0-9c05-fe5166afdaed","system_id":"levelo_inurba_marseille","lat":43.27503,"lon":5.42475,"is_reserved":false,"is_disabled":true,"rental_uris":{"android":"levelo://app?vid=b2b416c5-6260-4ff0-9c05-fe5166afdaed","ios":"levelo://app?vid=b2b416c5-6260-4ff0-9c05-fe5166afdaed"},"vehicle_type_id":"4","last_reported":1743675055,"current_range_meters":19200,"station_id":"ce4bhn92rcd13ifvqgrg","pricing_plan_id":"cebpf4jnsgd1na2vs0mg"},{"bike_id":"cccce150-77a7-4565-8ca1-36858ce9e6b0","system_id":"levelo_inurba_marseille","lat":43.32113,"lon":5.36761,"is_reserved":false,"is_disabled":false,"rental_uris":{"android":"levelo://app?vid=cccce150-77a7-4565-8ca1-36858ce9e6b0","ios":"levelo://app?vid=cccce150-77a7-4565-8ca1-36858ce9e6b0"},"vehicle_type_id":"4","last_reported":1743675055,"current_range_meters":19200,"station_id":"ce4bhrh2rcd13ifvqhug","pricing_plan_id":"cebpf4jnsgd1na2vs0mg"},{"bike_id":"978f00e3-47d2-481d-80c8-31e1e7283ad6","system_id":"levelo_inurba_marseille","lat":43.22925,"lon":5.3536,"is_reserved":false,"is_disabled":false,"rental_uris":{"android":"levelo://app?vid=978f00e3-47d2-481d-80c8-31e1e7283ad6","ios":"levelo://app?vid=978f00e3-47d2-481d-80c8-31e1e7283ad6"},"vehicle_type_id":"4","last_reported":1743675055,"current_range_meters":19200,"station_id":"cpo3532slgdg3j2ikp40","pricing_plan_id":"cebpf4jnsgd1na2vs0mg"},{"bike_id":"a1ac7ed7-bf3b-4f94-bb77-6241b7f5071b","system_id":"levelo_inurba_marseille","lat":43.23208,"lon":5.39982,"is_reserved":false,"is_disabled":false,"rental_uris":{"android":"levelo://app?vid=a1ac7ed7-bf3b-4f94-bb77-6241b7f5071b","ios":"levelo://app?vid=a1ac7ed7-bf3b-4f94-bb77-6241b7f5071b"},"vehicle_type_id":"4","last_reported":1743675055,"current_range_meters":19200,"station_id":"ce4bhn12rcd13ifvqgqg","pricing_plan_id":"cebpf4jnsgd1na2vs0mg"},{"bike_id":"0cf4805e-12ce-4fed-ae69-e78020620e35","system_id":"levelo_inurba_marseille","lat":43.26027,"lon":5.37544,"is_reserved":false,"is_disabled":false,"rental_uris":{"android":"levelo://app?vid=0cf4805e-12ce-4fed-ae69-e78020620e35","ios":"levelo://app?vid=0cf4805e-12ce-4fed-ae69-e78020620e35"},"vehicle_type_id":"4","last_reported":1743675055,"current_range_meters":19200,"station_id":"ce4bhgh2rcd13ifvqfa0","pricing_plan_id":"cebpf4jnsgd1na2vs0mg"},{"bike_id":"b333787d-5d86-46c2-9bfc-4b9672a5f224","system_id":"levelo_inurba_marseille","lat":43.30596,"lon":5.39338,"is_reserved":false,"is_disabled":true,"rental_uris":{"android":"levelo://app?vid=b333787d-5d86-46c2-9bfc-4b9672a5f224","ios":"levelo://app?vid=b333787d-5d86-46c2-9bfc-4b9672a5f224"},"vehicle_type_id":"4","last_reported":1743675055,"current_range_meters":19200,"station_id":"ce4bh0p2rcd13ifvqd80","pricing_plan_id":"cebpf4jnsgd1na2vs0mg"},{"bike_id":"a916740e-91ff-44c8-8443-aef87df6f431","system_id":"levelo_inurba_marseille","lat":43.296157,"lon":5.405825,"is_reserved":false,"is_disabled":false,"rental_uris":{"android":"levelo://app?vid=a916740e-91ff-44c8-8443-aef87df6f431","ios":"levelo://app?vid=a916740e-91ff-44c8-8443-aef87df6f431"},"vehicle_type_id":"4","last_reported":1743675055,"current_range_meters":19200,"station_id":"ce4bh0h2rcd13ifvqd60","pricing_plan_id":"cebpf4jnsgd1na2vs0mg"},{"bike_id":"0d4a9c30-9761-4c44-a05b-2c1ada790199","system_id":"levelo_inurba_marseille","lat":43.24172,"lon":5.39724,"is_reserved":false,"is_disabled":false,"rental_uris":{"android":"levelo://app?vid=0d4a9c30-9761-4c44-a05b-2c1ada790199","ios":"levelo://app?vid=0d4a9c30-9761-4c44-a05b-2c1ada790199"},"vehicle_type_id":"4","last_reported":1743675055,"current_range_meters":19600,"station_id":"ce4bhn12rcd13ifvqgpg","pricing_plan_id":"cebpf4jnsgd1na2vs0mg"},{"bike_id":"d628b389-2f1d-437c-a144-2e226cafdbbf","system_id":"levelo_inurba_marseille","lat":43.29095,"lon":5.38124,"is_reserved":false,"is_disabled":false,"rental_uris":{"android":"levelo://app?vid=d628b389-2f1d-437c-a144-2e226cafdbbf","ios":"levelo://app?vid=d628b389-2f1d-437c-a144-2e226cafdbbf"},"vehicle_type_id":"4","last_reported":1743675055,"current_range_meters":19600,"station_id":"ce4bh512rcd13ifvqe2g","pricing_plan_id":"cebpf4jnsgd1na2vs0mg"},{"bike_id":"33d4d7d0-2fd6-431c-bad3-6ebbfe7a108d","system_id":"levelo_inurba_marseille","lat":43.30552,"lon":5.36524,"is_reserved":false,"is_disabled":false,"rental_uris":{"android":"levelo://app?vid=33d4d7d0-2fd6-431c-bad3-6ebbfe7a108d","ios":"levelo://app?vid=33d4d7d0-2fd6-431c-bad3-6ebbfe7a108d"},"vehicle_type_id":"4","last_reported":1743675055,"current_range_meters":19600,"station_id":"ce4bgs12rcd13ifvqcag","pricing_plan_id":"cebpf4jnsgd1na2vs0mg"},{"bike_id":"9d8f9262-d240-49c7-bf17-77b30185a0a1","system_id":"levelo_inurba_marseille","lat":43.29301,"lon":5.37456,"is_reserved":false,"is_disabled":false,"rental_uris":{"android":"levelo://app?vid=9d8f9262-d240-49c7-bf17-77b30185a0a1","ios":"levelo://app?vid=9d8f9262-d240-49c7-bf17-77b30185a0a1"},"vehicle_type_id":"4","last_reported":1743675055,"current_range_meters":19600,"station_id":"ce4bgi12rcd13ifvqb70","pricing_plan_id":"cebpf4jnsgd1na2vs0mg"},{"bike_id":"53440f1e-d3fa-4638-ade9-02ac4bdb4ca2","system_id":"levelo_inurba_marseille","lat":43.24178,"lon":5.39724,"is_reserved":false,"is_disabled":false,"rental_uris":{"android":"levelo://app?vid=53440f1e-d3fa-4638-ade9-02ac4bdb4ca2","ios":"levelo://app?vid=53440f1e-d3fa-4638-ade9-02ac4bdb4ca2"},"vehicle_type_id":"4","last_reported":1743675055,"current_range_meters":19600,"station_id":"ce4bhn12rcd13ifvqgpg","pricing_plan_id":"cebpf4jnsgd1na2vs0mg"},{"bike_id":"c380e437-55be-4a18-845a-bdb3f66cb862","system_id":"levelo_inurba_marseille","lat":43.28345,"lon":5.38115,"is_reserved":false,"is_disabled":false,"rental_uris":{"android":"levelo://app?vid=c380e437-55be-4a18-845a-bdb3f66cb862","ios":"levelo://app?vid=c380e437-55be-4a18-845a-bdb3f66cb862"},"vehicle_type_id":"4","last_reported":1743675055,"current_range_meters":19600,"station_id":"ce4bh412rcd13ifvqdr0","pricing_plan_id":"cebpf4jnsgd1na2vs0mg"},{"bike_id":"16ed11c8-253f-483e-bedd-3f337245d15e","system_id":"levelo_inurba_marseille","lat":43.2984,"lon":5.36273,"is_reserved":false,"is_disabled":false,"rental_uris":{"android":"levelo://app?vid=16ed11c8-253f-483e-bedd-3f337245d15e","ios":"levelo://app?vid=16ed11c8-253f-483e-bedd-3f337245d15e"},"vehicle_type_id":"4","last_reported":1743675055,"current_range_meters":20000,"station_id":"ce4bgpp2rcd13ifvqc3g","pricing_plan_id":"cebpf4jnsgd1na2vs0mg"},{"bike_id":"fcc0a844-977a-4f26-a982-9980f9730a3f","system_id":"levelo_inurba_marseille","lat":43.28706,"lon":5.37389,"is_reserved":false,"is_disabled":false,"rental_uris":{"android":"levelo://app?vid=fcc0a844-977a-4f26-a982-9980f9730a3f","ios":"levelo://app?vid=fcc0a844-977a-4f26-a982-9980f9730a3f"},"vehicle_type_id":"4","last_reported":1743675055,"current_range_meters":19600,"station_id":"ce4bh3p2rcd13ifvqdq0","pricing_plan_id":"cebpf4jnsgd1na2vs0mg"},{"bike_id":"e3587d1b-fd20-45bb-baae-a641211d8053","system_id":"levelo_inurba_marseille","lat":43.31972,"lon":5.38155,"is_reserved":false,"is_disabled":false,"rental_uris":{"android":"levelo://app?vid=e3587d1b-fd20-45bb-baae-a641211d8053","ios":"levelo://app?vid=e3587d1b-fd20-45bb-baae-a641211d8053"},"vehicle_type_id":"4","last_reported":1743675055,"current_range_meters":20000,"station_id":"ce4bhr12rcd13ifvqhpg","pricing_plan_id":"cebpf4jnsgd1na2vs0mg"},{"bike_id":"eb79d1f9-7c91-4ea2-b5f8-796189743e1a","system_id":"levelo_inurba_marseille","lat":43.33723,"lon":5.39168,"is_reserved":false,"is_disabled":false,"rental_uris":{"android":"levelo://app?vid=eb79d1f9-7c91-4ea2-b5f8-796189743e1a","ios":"levelo://app?vid=eb79d1f9-7c91-4ea2-b5f8-796189743e1a"},"vehicle_type_id":"4","last_reported":1743675055,"current_range_meters":20000,"station_id":"ce4bhr92rcd13ifvqhsg","pricing_plan_id":"cebpf4jnsgd1na2vs0mg"},{"bike_id":"4d707c29-f0aa-42b6-80a8-103545586766","system_id":"levelo_inurba_marseille","lat":43.2454,"lon":5.39506,"is_reserved":false,"is_disabled":false,"rental_uris":{"android":"levelo://app?vid=4d707c29-f0aa-42b6-80a8-103545586766","ios":"levelo://app?vid=4d707c29-f0aa-42b6-80a8-103545586766"},"vehicle_type_id":"4","last_reported":1743675055,"current_range_meters":20000,"station_id":"ce4bhlp2rcd13ifvqgjg","pricing_plan_id":"cebpf4jnsgd1na2vs0mg"},{"bike_id":"bac72984-c07a-48db-bc44-658c603849de","system_id":"levelo_inurba_marseille","lat":43.25931,"lon":5.40873,"is_reserved":false,"is_disabled":false,"rental_uris":{"android":"levelo://app?vid=bac72984-c07a-48db-bc44-658c603849de","ios":"levelo://app?vid=bac72984-c07a-48db-bc44-658c603849de"},"vehicle_type_id":"4","last_reported":1743675055,"current_range_meters":20000,"station_id":"ce4bhm92rcd13ifvqglg","pricing_plan_id":"cebpf4jnsgd1na2vs0mg"},{"bike_id":"9cf54a3f-839e-4b07-afb7-7ae8ef536260","system_id":"levelo_inurba_marseille","lat":43.29306,"lon":5.37453,"is_reserved":false,"is_disabled":false,"rental_uris":{"android":"levelo://app?vid=9cf54a3f-839e-4b07-afb7-7ae8ef536260","ios":"levelo://app?vid=9cf54a3f-839e-4b07-afb7-7ae8ef536260"},