{"last_updated":1702584480,"ttl":30,"version":"2.2","data":{"bikes":[{"bike_id":"15562d9a-f3db-4957-8f35-bfb6b2a240b5","system_id":"levelo_inurba_marseille","lat":43.312239,"lon":5.368562,"is_reserved":false,"is_disabled":false,"rental_uris":{"android":"levelo://app?vid=15562d9a-f3db-4957-8f35-bfb6b2a240b5","ios":"levelo://app?vid=15562d9a-f3db-4957-8f35-bfb6b2a240b5"},"vehicle_type_id":"4","last_reported":1702584481,"current_range_meters":21200,"station_id":"ce4bgl92rcd13ifvqbq0","pricing_plan_id":"free"},{"bike_id":"6d110377-23db-41ce-8a38-af0e148472b5","system_id":"levelo_inurba_marseille","lat":43.314811,"lon":5.373103,"is_reserved":false,"is_disabled":false,"rental_uris":{"android":"levelo://app?vid=6d110377-23db-41ce-8a38-af0e148472b5","ios":"levelo://app?vid=6d110377-23db-41ce-8a38-af0e148472b5"},"vehicle_type_id":"4","last_reported":1702584481,"current_range_meters":10800,"station_id":"ce4bgt12rcd13ifvqcd0","pricing_plan_id":"free"},{"bike_id":"153cc774-fe7a-44a1-a5cc-17b042a7efa2","system_id":"levelo_inurba_marseille","lat":43.314811,"lon":5.373103,"is_reserved":false,"is_disabled":false,"rental_uris":{"android":"levelo://app?vid=153cc774-fe7a-44a1-a5cc-17b042a7efa2","ios":"levelo://app?vid=153cc774-fe7a-44a1-a5cc-17b042a7efa2"},"vehicle_type_id":"4","last_reported":1702584481,"current_range_meters":29200,"station_id":"ce4bgt12rcd13ifvqcd0","pricing_plan_id":"free"},{"bike_id":"f8ebcb82-3274-497d-9b14-64d4a3b701b9","system_id":"levelo_inurba_marseille","lat":43.309039,"lon":5.371797,"is_reserved":false,"is_disabled":false,"rental_uris":{"android":"levelo://app?vid=f8ebcb82-3274-497d-9b14-64d4a3b701b9","ios":"levelo://app?vid=f8ebcb82-3274-497d-9b14-64d4a3b701b9"},"vehicle_type_id":"4","last_reported":1702584481,"current_range_meters":21200,"station_id":"ce4bguh2rcd13ifvqckg","pricing_plan_id":"free"},{"bike_id":"6598fe0a-0e14-432a-8111-f8b14e8fe7d0","system_id":"levelo_inurba_marseille","lat":43.3155,"lon":5.37324,"is_reserved":false,"is_disabled":false,"rental_uris":{"android":"levelo://app?vid=6598fe0a-0e14-432a-8111-f8b14e8fe7d0","ios":"levelo://app?vid=6598fe0a-0e14-432a-8111-f8b14e8fe7d0"},"vehicle_type_id":"4","last_reported":1702584481,"current_range_meters":23600,"station_id":"","pricing_plan_id":"free"},{"bike_id":"3f8b821f-e430-4a35-bf14-f8b6e777ea11","system_id":"levelo_inurba_marseille","lat":43.313939,"lon":5.375306,"is_reserved":false,"is_disabled":false,"rental_uris":{"android":"levelo://app?vid=3f8b821f-e430-4a35-bf14-f8b6e777ea11","ios":"levelo://app?vid=3f8b821f-e430-4a35-bf14-f8b6e777ea11"},"vehicle_type_id":"4","last_reported":1702584481,"current_range_meters":2800,"station_id":"","pricing_plan_id":"free"},{"bike_id":"955e4ab2-16e5-44e8-a986-a2f50ff96c06","system_id":"levelo_inurba_marseille","lat":43.305382,"lon":5.365389,"is_reserved":false,"is_disabled":false,"rental_uris":{"android":"levelo://app?vid=955e4ab2-16e5-44e8-a986-a2f50ff96c06","ios":"levelo://app?vid=955e4ab2-16e5-44e8-a986-a2f50ff96c06"},"vehicle_type_id":"4","last_reported":1702584481,"current_range_meters":22000,"station_id":"","pricing_plan_id":"free"},{"bike_id":"3a07bdc5-94ce-4fcc-91cb-7ce44265c949","system_id":"levelo_inurba_marseille","lat":43.311127,"lon":5.37757,"is_reserved":false,"is_disabled":false,"rental_uris":{"android":"levelo://app?vid=3a07bdc5-94ce-4fcc-91cb-7ce44265c949","ios":"levelo://app?vid=3a07bdc5-94ce-4fcc-91cb-7ce44265c949"},"vehicle_type_id":"4","last_reported":1702584481,"current_range_meters":0,"station_id":"ce4bgt92rcd13ifvqcg0","pricing_plan_id":"free"},{"bike_id":"26633d32-5dc2-4b6a-aff9-d4819b77d8d1","system_id":"levelo_inurba_marseille","lat":43.307945,"lon":5.376487,"is_reserved":false,"is_disabled":false,"rental_uris":{"android":"levelo://app?vid=26633d32-5dc2-4b6a-aff9-d4819b77d8d1","ios":"levelo://app?vid=26633d32-5dc2-4b6a-aff9-d4819b77d8d1"},"vehicle_type_id":"4","last_reported":1702584481,"current_range_meters":2000,"station_id":"ce4bgv92rcd13ifvqcq0","pricing_plan_id":"free"},{"bike_id":"801a9e75-8b76-4a99-9cc7-be68011b2c44","system_id":"levelo_inurba_marseille","lat":43.317075,"lon":5.377367,"is_reserved":false,"is_disabled":false,"rental_uris":{"android":"levelo://app?vid=801a9e75-8b76-4a99-9cc7-be68011b2c44","ios":"levelo://app?vid=801a9e75-8b76-4a99-9cc7-be68011b2c44"},"vehicle_type_id":"4","last_reported":1702584481,"current_range_meters":20000,"station_id":"ce4bgth2rcd13ifvqch0","pricing_plan_id":"free"},{"bike_id":"6a3ae692-8bea-46e0-a1d8-69b8633e148e","system_id":"levelo_inurba_marseille","lat":43.317075,"lon":5.377367,"is_reserved":false,"is_disabled":false,"rental_uris":{"android":"levelo://app?vid=6a3ae692-8bea-46e0-a1d8-69b8633e148e","ios":"levelo://app?vid=6a3ae692-8bea-46e0-a1d8-69b8633e148e"},"vehicle_type_id":"4","last_reported":1702584481,"current_range_meters":31600,"station_id":"ce4bgth2rcd13ifvqch0","pricing_plan_id":"free"},{"bike_id":"c51d1b06-b69c-4bdd-9116-63755e7e48f3","system_id":"levelo_inurba_marseille","lat":43.303046,"lon":5.368981,"is_reserved":false,"is_disabled":false,"rental_uris":{"android":"levelo://app?vid=c51d1b06-b69c-4bdd-9116-63755e7e48f3","ios":"levelo://app?vid=c51d1b06-b69c-4bdd-9116-63755e7e48f3"},"vehicle_type_id":"4","last_reported":1702584481,"current_range_meters":0,"station_id":"ce4bgqh2rcd13ifvqc5g","pricing_plan_id":"free"},{"bike_id":"96bbf2a3-6eea-4dee-ae9d-bf1b6e0334cf","system_id":"levelo_inurba_marseille","lat":43.301939,"lon":5.366286,"is_reserved":false,"is_disabled":false,"rental_uris":{"android":"levelo://app?vid=96bbf2a3-6eea-4dee-ae9d-bf1b6e0334cf","ios":"levelo://app?vid=96bbf2a3-6eea-4dee-ae9d-bf1b6e0334cf"},"vehicle_type_id":"4","last_reported":1702584481,"current_range_meters":7200,"station_id":"ce4bgrh2rcd13ifvqc8g","pricing_plan_id":"free"},{"bike_id":"8998e859-7bb3-466c-a005-d2317879f687","system_id":"levelo_inurba_marseille","lat":43.301939,"lon":5.366286,"is_reserved":false,"is_disabled":false,"rental_uris":{"android":"levelo://app?vid=8998e859-7bb3-466c-a005-d2317879f687","ios":"levelo://app?vid=8998e859-7bb3-466c-a005-d2317879f687"},"vehicle_type_id":"4","last_reported":1702584481,"current_range_meters":5200,"station_id":"ce4bgrh2rcd13ifvqc8g","pricing_plan_id":"free"},{"bike_id":"dfb8b2c4-afb3-44e0-bb8f-5e69b88821cf","system_id":"levelo_inurba_marseille","lat":43.319935,"lon":5.381699,"is_reserved":false,"is_disabled":false,"rental_uris":{"android":"levelo://app?vid=dfb8b2c4-afb3-44e0-bb8f-5e69b88821cf","ios":"levelo://app?vid=dfb8b2c4-afb3-44e0-bb8f-5e69b88821cf"},"vehicle_type_id":"4","last_reported":1702584481,"current_range_meters":16000,"station_id":"ce4bhr12rcd13ifvqhpg","pricing_plan_id":"free"},{"bike_id":"fdcd74e0-5fce-436e-805d-ade6ef010660","system_id":"levelo_inurba_marseille","lat":43.319935,"lon":5.381699,"is_reserved":false,"is_disabled":false,"rental_uris":{"android":"levelo://app?vid=fdcd74e0-5fce-436e-805d-ade6ef010660","ios":"levelo://app?vid=fdcd74e0-5fce-436e-805d-ade6ef010660"},"vehicle_type_id":"4","last_reported":1702584481,"current_range_meters":2000,"station_id":"ce4bhr12rcd13ifvqhpg","pricing_plan_id":"free"},{"bike_id":"dc11063a-44ce-4604-be3b-1e17a4936ec2","system_id":"levelo_inurba_marseille","lat":43.313571,"lon":5.384829,"is_reserved":false,"is_disabled":false,"rental_uris":{"android":"levelo://app?vid=dc11063a-44ce-4604-be3b-1e17a4936ec2","ios":"levelo://app?vid=dc11063a-44ce-4604-be3b-1e17a4936ec2"},"vehicle_type_id":"4","last_reported":1702584481,"current_range_meters":28400,"station_id":"ce4bgt92rcd13ifvqcf0","pricing_plan_id":"free"},{"bike_id":"96f9c007-ff09-4dfc-b4c5-7628a1436bae","system_id":"levelo_inurba_marseille","lat":43.299724,"lon":5.371829,"is_reserved":false,"is_disabled":false,"rental_uris":{"android":"levelo://app?vid=96f9c007-ff09-4dfc-b4c5-7628a1436bae","ios":"levelo://app?vid=96f9c007-ff09-4dfc-b4c5-7628a1436bae"},"vehicle_type_id":"4","last_reported":1702584481,"current_range_meters":7600,"station_id":"ce4bgr92rcd13ifvqc7g","pricing_plan_id":"free"},{"bike_id":"d60052ba-5000-458b-b460-4b71483c8889","system_id":"levelo_inurba_marseille","lat":43.305364,"lon":5.384119,"is_reserved":false,"is_disabled":false,"rental_uris":{"android":"levelo://app?vid=d60052ba-5000-458b-b460-4b71483c8889","ios":"levelo://app?vid=d60052ba-5000-458b-b460-4b71483c8889"},"vehicle_type_id":"4","last_reported":1702584481,"current_range_meters":1200,"station_id":"ce4bgg92rcd13ifvqb30","pricing_plan_id":"free"},{"bike_id":"c7056c9b-f389-492f-89b5-f37fe22391e1","system_id":"levelo_inurba_marseille","lat":43.311722,"lon":5.387247,"is_reserved":false,"is_disabled":false,"rental_uris":{"android":"levelo://app?vid=c7056c9b-f389-492f-89b5-f37fe22391e1","ios":"levelo://app?vid=c7056c9b-f389-492f-89b5-f37fe22391e1"},"vehicle_type_id":"4","last_reported":1702584481,"current_range_meters":2000,"station_id":"ce4bgv12rcd13ifvqcp0","pricing_plan_id":"free"},{"bike_id":"3c6816c4-5a55-492f-b516-c258ade29e76","system_id":"levelo_inurba_marseille","lat":43.311722,"lon":5.387247,"is_reserved":false,"is_disabled":false,"rental_uris":{"android":"levelo://app?vid=3c6816c4-5a55-492f-b516-c258ade29e76","ios":"levelo://app?vid=3c6816c4-5a55-492f-b516-c258ade29e76"},"vehicle_type_id":"4","last_reported":1702584481,"current_range_meters":30000,"station_id":"ce4bgv12rcd13ifvqcp0","pricing_plan_id":"free"},{"bike_id":"0eea8a30-88a6-46e7-9a8c-2c6a74a10c02","system_id":"levelo_inurba_marseille","lat":43.322872,"lon":5.382756,"is_reserved":false,"is_disabled":false,"rental_uris":{"android":"levelo://app?vid=0eea8a30-88a6-46e7-9a8c-2c6a74a10c02","ios":"levelo://app?vid=0eea8a30-88a6-46e7-9a8c-2c6a74a10c02"},"vehicle_type_id":"4","last_reported":1702584481,"current_range_meters":3200,"station_id":"ce4bhr12rcd13ifvqhqg","pricing_plan_id":"free"},{"bike_id":"2584d529-803b-47fc-b758-ea5b9f34a233","system_id":"levelo_inurba_marseille","lat":43.297794,"lon":5.370888,"is_reserved":false,"is_disabled":false,"rental_uris":{"android":"levelo://app?vid=2584d529-803b-47fc-b758-ea5b9f34a233","ios":"levelo://app?vid=2584d529-803b-47fc-b758-ea5b9f34a233"},"vehicle_type_id":"4","last_reported":1702584481,"current_range_meters":20800,"station_id":"ce4bgop2rcd13ifvqc1g","pricing_plan_id":"free"},{"bike_id":"975b6a93-9a93-4fbc-8190-13b430d64414","system_id":"levelo_inurba_marseille","lat":43.322872,"lon":5.382756,"is_reserved":false,"is_disabled":false,"rental_uris":{"android":"levelo://app?vid=975b6a93-9a93-4fbc-8190-13b430d64414","ios":"levelo://app?vid=975b6a93-9a93-4fbc-8190-13b430d64414"},"vehicle_type_id":"4","last_reported":1702584481,"current_range_meters":30800,"station_id":"ce4bhr12rcd13ifvqhqg","pricing_plan_id":"free"},{"bike_id":"3da0a5ed-5b88-4e6d-9dd4-36b2db4d2363","system_id":"levelo_inurba_marseille","lat":43.32833,"lon":5.36692,"is_reserved":false,"is_disabled":false,"rental_uris":{"android":"levelo://app?vid=3da0a5ed-5b88-4e6d-9dd4-36b2db4d2363","ios":"levelo://app?vid=3da0a5ed-5b88-4e6d-9dd4-36b2db4d2363"},"vehicle_type_id":"4","last_reported":1702584481,"current_range_meters":18400,"station_id":"ce4bhs92rcd13ifvqi0g","pricing_plan_id":"free"},{"bike_id":"73313add-57b1-4ad5-b297-2450842908de","system_id":"levelo_inurba_marseille","lat":43.297163,"lon":5.365866,"is_reserved":false,"is_disabled":false,"rental_uris":{"android":"levelo://app?vid=73313add-57b1-4ad5-b297-2450842908de","ios":"levelo://app?vid=73313add-57b1-4ad5-b297-2450842908de"},"vehicle_type_id":"4","last_reported":1702584481,"current_range_meters":8800,"station_id":"ce4bgn12rcd13ifvqbt0","pricing_plan_id":"free"},{"bike_id":"98b5fa64-e3ed-4ec7-af7c-c042242233af","system_id":"levelo_inurba_marseille","lat":43.29587,"lon":5.36766,"is_reserved":false,"is_disabled":false,"rental_uris":{"android":"levelo://app?vid=98b5fa64-e3ed-4ec7-af7c-c042242233af","ios":"levelo://app?vid=98b5fa64-e3ed-4ec7-af7c-c042242233af"},"vehicle_type_id":"4","last_reported":1702584481,"current_range_meters":13600,"station_id":"ce4bgph2rcd13ifvqc2g","pricing_plan_id":"free"},{"bike_id":"e9895f84-660e-45ae-9d4f-4e93ec229f9c","system_id":"levelo_inurba_marseille","lat":43.299028,"lon":5.381509,"is_reserved":false,"is_disabled":false,"rental_uris":{"android":"levelo://app?vid=e9895f84-660e-45ae-9d4f-4e93ec229f9c","ios":"levelo://app?vid=e9895f84-660e-45ae-9d4f-4e93ec229f9c"},"vehicle_type_id":"4","last_reported":1702584481,"current_range_meters":11200,"station_id":"ce4bgj12rcd13ifvqbc0","pricing_plan_id":"free"},{"bike_id":"bbe50fdc-354b-4ed4-a6a0-3c4b5855b870","system_id":"levelo_inurba_marseille","lat":43.317557,"lon":5.390173,"is_reserved":false,"is_disabled":false,"rental_uris":{"android":"levelo://app?vid=bbe50fdc-354b-4ed4-a6a0-3c4b5855b870","ios":"levelo://app?vid=bbe50fdc-354b-4ed4-a6a0-3c4b5855b870"},"vehicle_type_id":"4","last_reported":1702584481,"current_range_meters":9200,"station_id":"ce4bhqp2rcd13ifvqhng","pricing_plan_id":"free"},{"bike_id":"746b5f47-4e6b-4021-a56f-f984f1f51478","system_id":"levelo_inurba_marseille","lat":43.304274,"lon":5.388873,"is_reserved":false,"is_disabled":false,"rental_uris":{"android":"levelo://app?vid=746b5f47-4e6b-4021-a56f-f984f1f51478","ios":"levelo://app?vid=746b5f47-4e6b-4021-a56f-f984f1f51478"},"vehicle_type_id":"4","last_reported":1702584481,"current_range_meters":10800,"station_id":"ce4bgk12rcd13ifvqbi0","pricing_plan_id":"free"},{"bike_id":"29db5516-5e0d-498e-9412-f6935b984812","system_id":"levelo_inurba_marseille","lat":43.32368,"lon":5.3888,"is_reserved":false,"is_disabled":false,"rental_uris":{"android":"levelo://app?vid=29db5516-5e0d-498e-9412-f6935b984812","ios":"levelo://app?vid=29db5516-5e0d-498e-9412-f6935b984812"},"vehicle_type_id":"4","last_reported":1702584481,"current_range_meters":10000,"station_id":"ce4bhqp2rcd13ifvqhog","pricing_plan_id":"free"},{"bike_id":"84e904d0-33e1-486c-83dd-bec0176dc85c","system_id":"levelo_inurba_marseille","lat":43.29304,"lon":5.37458,"is_reserved":false,"is_disabled":false,"rental_uris":{"android":"levelo://app?vid=84e904d0-33e1-486c-83dd-bec0176dc85c","ios":"levelo://app?vid=84e904d0-33e1-486c-83dd-bec0176dc85c"},"vehicle_type_id":"4","last_reported":1702584481,"current_range_meters":0,"station_id":"ce4bgi12rcd13ifvqb70","pricing_plan_id":"free"},{"bike_id":"2f5d8ea5-77b0-45d9-a42d-af46f72de22b","system_id":"levelo_inurba_marseille","lat":43.305994,"lon":5.393687,"is_reserved":false,"is_disabled":false,"rental_uris":{"android":"levelo://app?vid=2f5d8ea5-77b0-45d9-a42d-af46f72de22b","ios":"levelo://app?vid=2f5d8ea5-77b0-45d9-a42d-af46f72de22b"},"vehicle_type_id":"4","last_reported":1702584481,"current_range_meters":2800,"station_id":"ce4bh0p2rcd13ifvqd80","pricing_plan_id":"free"},{"bike_id":"f49022ab-d6f4-4465-bbac-1057addbfb7c","system_id":"levelo_inurba_marseille","lat":43.29872,"lon":5.38911,"is_reserved":false,"is_disabled":false,"rental_uris":{"android":"levelo://app?vid=f49022ab-d6f4-4465-bbac-1057addbfb7c","ios":"levelo://app?vid=f49022ab-d6f4-4465-bbac-1057addbfb7c"},"vehicle_type_id":"4","last_reported":1702584481,"current_range_meters":0,"station_id":"","pricing_plan_id":"free"},{"bike_id":"be557c72-c1f8-45a7-8f46-ee32a1acaf9d","system_id":"levelo_inurba_marseille","lat":43.291994,"lon":5.357886,"is_reserved":false,"is_disabled":false,"rental_uris":{"android":"levelo://app?vid=be557c72-c1f8-45a7-8f46-ee32a1acaf9d","ios":"levelo://app?vid=be557c72-c1f8-45a7-8f46-ee32a1acaf9d"},"vehicle_type_id":"4","last_reported":1702584481,"current_range_meters":1200,"station_id":"ce4bhb12rcd13ifvqel0","pricing_plan_id":"free"},{"bike_id":"5159eaa2-b8eb-4179-81ec-a01a3d45030e","system_id":"levelo_inurba_marseille","lat":43.313291,"lon":5.396838,"is_reserved":false,"is_disabled":false,"rental_uris":{"android":"levelo://app?vid=5159eaa2-b8eb-4179-81ec-a01a3d45030e","ios":"levelo://app?vid=5159eaa2-b8eb-4179-81ec-a01a3d45030e"},"vehicle_type_id":"4","last_reported":1702584481,"current_range_meters":14400,"station_id":"ce4bgvp2rcd13ifvqcu0","pricing_plan_id":"free"},{"bike_id":"4ef0327f-06fb-49c3-b431-ca1270e4d436","system_id":"levelo_inurba_marseille","lat":43.309038,"lon":5.396546,"is_reserved":false,"is_disabled":false,"rental_uris":{"android":"levelo://app?vid=4ef0327f-06fb-49c3-b431-ca1270e4d436","ios":"levelo://app?vid=4ef0327f-06fb-49c3-b431-ca1270e4d436"},"vehicle_type_id":"4","last_reported":1702584481,"current_range_meters":8800,"station_id":"ce4bh012rcd13ifvqcv0","pricing_plan_id":"free"},{"bike_id":"577cf5c4-6a7f-4a6b-9ecb-8ee3c41cb1c5","system_id":"levelo_inurba_marseille","lat":43.290779,"lon":5.371482,"is_reserved":false,"is_disabled":false,"rental_uris":{"android":"levelo://app?vid=577cf5c4-6a7f-4a6b-9ecb-8ee3c41cb1c5","ios":"levelo://app?vid=577cf5c4-6a7f-4a6b-9ecb-8ee3c41cb1c5"},"vehicle_type_id":"4","last_reported":1702584481,"current_range_meters":11200,"station_id":"ce4bh5p2rcd13ifvqe4g","pricing_plan_id":"free"},{"bike_id":"741c6a64-f2b5-462f-8c56-ac490e6e01c3","system_id":"levelo_inurba_marseille","lat":43.302008,"lon":5.394694,"is_reserved":false,"is_disabled":false,"rental_uris":{"android":"levelo://app?vid=741c6a64-f2b5-462f-8c56-ac490e6e01c3","ios":"levelo://app?vid=741c6a64-f2b5-462f-8c56-ac490e6e01c3"},"vehicle_type_id":"4","last_reported":1702584481,"current_range_meters":21600,"station_id":"ce4bh0p2rcd13ifvqd70","pricing_plan_id":"free"},{"bike_id":"74fb05d6-c33c-42cd-81ce-9a71130edf7d","system_id":"levelo_inurba_marseille","lat":43.302008,"lon":5.394694,"is_reserved":false,"is_disabled":false,"rental_uris":{"android":"levelo://app?vid=74fb05d6-c33c-42cd-81ce-9a71130edf7d","ios":"levelo://app?vid=74fb05d6-c33c-42cd-81ce-9a71130edf7d"},"vehicle_type_id":"4","last_reported":1702584481,"current_range_meters":18400,"station_id":"ce4bh0p2rcd13ifvqd70","pricing_plan_id":"free"},{"bike_id":"40e44d12-70a8-4a0b-a02d-db167d3f3b95","system_id":"levelo_inurba_marseille","lat":43.302008,"lon":5.394694,"is_reserved":false,"is_disabled":false,"rental_uris":{"android":"levelo://app?vid=40e44d12-70a8-4a0b-a02d-db167d3f3b95","ios":"levelo://app?vid=40e44d12-70a8-4a0b-a02d-db167d3f3b95"},"vehicle_type_id":"4","last_reported":1702584481,"current_range_meters":12000,"station_id":"ce4bh0p2rcd13ifvqd70","pricing_plan_id":"free"},{"bike_id":"3584c042-bf55-422f-a3e9-38be8b2d4265","system_id":"levelo_inurba_marseille","lat":43.294153,"lon":5.386305,"is_reserved":false,"is_disabled":false,"rental_uris":{"android":"levelo://app?vid=3584c042-bf55-422f-a3e9-38be8b2d4265","ios":"levelo://app?vid=3584c042-bf55-422f-a3e9-38be8b2d4265"},"vehicle_type_id":"4","last_reported":1702584481,"current_range_meters":23600,"station_id":"ce4bh2h2rcd13ifvqdh0","pricing_plan_id":"free"},{"bike_id":"a3912d0f-d711-4e52-a69d-a62c1fef53f6","system_id":"levelo_inurba_marseille","lat":43.294162,"lon":5.386292,"is_reserved":false,"is_disabled":false,"rental_uris":{"android":"levelo://app?vid=a3912d0f-d711-4e52-a69d-a62c1fef53f6","ios":"levelo://app?vid=a3912d0f-d711-4e52-a69d-a62c1fef53f6"},"vehicle_type_id":"4","last_reported":1702584481,"current_range_meters":14000,"station_id":"ce4bh2h2rcd13ifvqdh0","pricing_plan_id":"free"},{"bike_id":"83ec6f6f-390c-456f-a48b-075e0baeb865","system_id":"levelo_inurba_marseille","lat":43.294162,"lon":5.386292,"is_reserved":false,"is_disabled":false,"rental_uris":{"android":"levelo://app?vid=83ec6f6f-390c-456f-a48b-075e0baeb865","ios":"levelo://app?vid=83ec6f6f-390c-456f-a48b-075e0baeb865"},"vehicle_type_id":"4","last_reported":1702584481,"current_range_meters":19200,"station_id":"ce4bh2h2rcd13ifvqdh0","pricing_plan_id":"free"},{"bike_id":"0ed75caf-4064-4f6e-b97a-797ef8244b9a","system_id":"levelo_inurba_marseille","lat":43.289184,"lon":5.366408,"is_reserved":false,"is_disabled":false,"rental_uris":{"android":"levelo://app?vid=0ed75caf-4064-4f6e-b97a-797ef8244b9a","ios":"levelo://app?vid=0ed75caf-4064-4f6e-b97a-797ef8244b9a"},"vehicle_type_id":"4","last_reported":1702584481,"current_range_meters":5200,"station_id":"ce4bhap2rcd13ifvqek0","pricing_plan_id":"free"},{"bike_id":"05957afb-1f9a-459e-aeed-d0ba28cb65a0","system_id":"levelo_inurba_marseille","lat":43.29418,"lon":5.38627,"is_reserved":false,"is_disabled":false,"rental_uris":{"android":"levelo://app?vid=05957afb-1f9a-459e-aeed-d0ba28cb65a0","ios":"levelo://app?vid=05957afb-1f9a-459e-aeed-d0ba28cb65a0"},"vehicle_type_id":"4","last_reported":1702584481,"current_range_meters":19200,"station_id":"ce4bh2h2rcd13ifvqdh0","pricing_plan_id":"free"},{"bike_id":"b18d2958-9235-43a5-bab4-2cc694b98d91","system_id":"levelo_inurba_marseille","lat":43.294153,"lon":5.386305,"is_reserved":false,"is_disabled":false,"rental_uris":{"android":"levelo://app?vid=b18d2958-9235-43a5-bab4-2cc694b98d91","ios":"levelo://app?vid=b18d2958-9235-43a5-bab4-2cc694b98d91"},"vehicle_type_id":"4","last_reported":1702584481,"current_range_meters":2800,"station_id":"ce4bh2h2rcd13ifvqdh0","pricing_plan_id":"free"},{"bike_id":"18b55103-085c-48b0-926c-38facdce3180","system_id":"levelo_inurba_marseille","lat":43.289184,"lon":5.366408,"is_reserved":false,"is_disabled":false,"rental_uris":{"android":"levelo://app?vid=18b55103-085c-48b0-926c-38facdce3180","ios":"levelo://app?vid=18b55103-085c-48b0-926c-38facdce3180"},"vehicle_type_id":"4","last_reported":1702584481,"current_range_meters":17600,"station_id":"ce4bhap2rcd13ifvqek0","pricing_plan_id":"free"},{"bike_id":"4b9d9b5e-9176-4b50-9371-114860c4f520","system_id":"levelo_inurba_marseille","lat":43.292644,"lon":5.384257,"is_reserved":false,"is_disabled":false,"rental_uris":{"android":"levelo://app?vid=4b9d9b5e-9176-4b50-9371-114860c4f520","ios":"levelo://app?vid=4b9d9b5e-9176-4b50-9371-114860c4f520"},"vehicle_type_id":"4","last_reported":1702584481,"current_range_meters":0,"station_id":"ce4bh692rcd13ifvqea0","pricing_plan_id":"free"},{"bike_id":"74f00c6a-9bde-415a-a180-32e5bbe991c0","system_id":"levelo_inurba_marseille","lat":43.292642,"lon":5.384254,"is_reserved":false,"is_disabled":false,"rental_uris":{"android":"levelo://app?vid=74f00c6a-9bde-415a-a180-32e5bbe991c0","ios":"levelo://app?vid=74f00c6a-9bde-415a-a180-32e5bbe991c0"},"vehicle_type_id":"4","last_reported":1702584481,"current_range_meters":8400,"station_id":"ce4bh692rcd13ifvqea0","pricing_plan_id":"free"},{"bike_id":"6e466c04-612d-44f0-a513-a65679400b2f","system_id":"levelo_inurba_marseille","lat":43.292644,"lon":5.384257,"is_reserved":false,"is_disabled":false,"rental_uris":{"android":"levelo://app?vid=6e466c04-612d-44f0-a513-a65679400b2f","ios":"levelo://app?vid=6e466c04-612d-44f0-a513-a65679400b2f"},"vehicle_type_id":"4","last_reported":1702584481,"current_range_meters":3200,"station_id":"ce4bh692rcd13ifvqea0","pricing_plan_id":"free"},{"bike_id":"42b48a2b-1058-4369-ba15-121b41fc3d53","system_id":"levelo_inurba_marseille","lat":43.292644,"lon":5.384257,"is_reserved":false,"is_disabled":false,"rental_uris":{"android":"levelo://app?vid=42b48a2b-1058-4369-ba15-121b41fc3d53","ios":"levelo://app?vid=42b48a2b-1058-4369-ba15-121b41fc3d53"},"vehicle_type_id":"4","last_reported":1702584481,"current_range_meters":20800,"station_id":"ce4bh692rcd13ifvqea0","pricing_plan_id":"free"},{"bike_id":"10483181-c971-48a3-8aba-4b3328ad3569","system_id":"levelo_inurba_marseille","lat":43.292642,"lon":5.384254,"is_reserved":false,"is_disabled":false,"rental_uris":{"android":"levelo://app?vid=10483181-c971-48a3-8aba-4b3328ad3569","ios":"levelo://app?vid=10483181-c971-48a3-8aba-4b3328ad3569"},"vehicle_type_id":"4","last_reported":1702584481,"current_range_meters":6800,"station_id":"ce4bh692rcd13ifvqea0","pricing_plan_id":"free"},{"bike_id":"0da5f687-1f87-48ab-8cdc-ed161c770f80","system_id":"levelo_inurba_marseille","lat":43.292644,"lon":5.384257,"is_reserved":false,"is_disabled":false,"rental_uris":{"android":"levelo://app?vid=0da5f687-1f87-48ab-8cdc-ed161c770f80","ios":"levelo://app?vid=0da5f687-1f87-48ab-8cdc-ed161c770f80"},"vehicle_type_id":"4","last_reported":1702584481,"current_range_meters":10800,"station_id":"ce4bh692rcd13ifvqea0","pricing_plan_id":"free"},{"bike_id":"cf698b74-f05b-4015-87ae-7871b4d499ef","system_id":"levelo_inurba_marseille","lat":43.292644,"lon":5.384257,"is_reserved":false,"is_disabled":false,"rental_uris":{"android":"levelo://app?vid=cf698b74-f05b-4015-87ae-7871b4d499ef","ios":"levelo://app?vid=cf698b74-f05b-4015-87ae-7871b4d499ef"},"vehicle_type_id":"4","last_reported":1702584481,"current_range_meters":15600,"station_id":"ce4bh692rcd13ifvqea0","pricing_plan_id":"free"},{"bike_id":"d21796da-b9fc-4222-921d-3c815e9d53c1","system_id":"levelo_inurba_marseille","lat":43.292642,"lon":5.384254,"is_reserved":false,"is_disabled":false,"rental_uris":{"android":"levelo://app?vid=d21796da-b9fc-4222-921d-3c815e9d53c1","ios":"levelo://app?vid=d21796da-b9fc-4222-921d-3c815e9d53c1"},"vehicle_type_id":"4","last_reported":1702584481,"current_range_meters":0,"station_id":"ce4bh692rcd13ifvqea0","pricing_plan_id":"free"},{"bike_id":"6da57e62-5bd0-4c85-bee8-2f41cccae44c","system_id":"levelo_inurba_marseille","lat":43.304274,"lon":5.397513,"is_reserved":false,"is_disabled":false,"rental_uris":{"android":"levelo://app?vid=6da57e62-5bd0-4c85-bee8-2f41cccae44c","ios":"levelo://app?vid=6da57e62-5bd0-4c85-bee8-2f41cccae44c"},"vehicle_type_id":"4","last_reported":1702584481,"current_range_meters":18800,"station_id":"ce4bh092rcd13ifvqd20","pricing_plan_id":"free"},{"bike_id":"c1322865-2792-4385-a4b4-30fce91443a3","system_id":"levelo_inurba_marseille","lat":43.304296,"lon":5.397513,"is_reserved":false,"is_disabled":false,"rental_uris":{"android":"levelo://app?vid=c1322865-2792-4385-a4b4-30fce91443a3","ios":"levelo://app?vid=c1322865-2792-4385-a4b4-30fce91443a3"},"vehicle_type_id":"4","last_reported":1702584481,"current_range_meters":16800,"station_id":"ce4bh092rcd13ifvqd20","pricing_plan_id":"free"},{"bike_id":"9430066a-b3f6-4803-82ef-db8ee806a880","system_id":"levelo_inurba_marseille","lat":43.330442,"lon":5.389148,"is_reserved":false,"is_disabled":false,"rental_uris":{"android":"levelo://app?vid=9430066a-b3f6-4803-82ef-db8ee806a880","ios":"levelo://app?vid=9430066a-b3f6-4803-82ef-db8ee806a880"},"vehicle_type_id":"4","last_reported":1702584481,"current_range_meters":30800,"station_id":"ce4bhr92rcd13ifvqhrg","pricing_plan_id":"free"},{"bike_id":"4e33c64f-3009-4f56-864a-7e56f93a45cb","system_id":"levelo_inurba_marseille","lat":43.330442,"lon":5.389148,"is_reserved":false,"is_disabled":false,"rental_uris":{"android":"levelo://app?vid=4e33c64f-3009-4f56-864a-7e56f93a45cb","ios":"levelo://app?vid=4e33c64f-3009-4f56-864a-7e56f93a45cb"},"vehicle_type_id":"4","last_reported":1702584481,"current_range_meters":2400,"station_id":"ce4bhr92rcd13ifvqhrg","pricing_plan_id":"free"},{"bike_id":"8b3231c7-67e4-44f8-baff-aabfdc649f93","system_id":"levelo_inurba_marseille","lat":43.33045,"lon":5.38918,"is_reserved":false,"is_disabled":false,"rental_uris":{"android":"levelo://app?vid=8b3231c7-67e4-44f8-baff-aabfdc649f93","ios":"levelo://app?vid=8b3231c7-67e4-44f8-baff-aabfdc649f93"},"vehicle_type_id":"4","last_reported":1702584481,"current_range_meters":19600,"station_id":"ce4bhr92rcd13ifvqhrg","pricing_plan_id":"free"},{"bike_id":"e36fc3c3-3f2f-4976-afc1-efdf79dee1e9","system_id":"levelo_inurba_marseille","lat":43.33041,"lon":5.389244,"is_reserved":false,"is_disabled":false,"rental_uris":{"android":"levelo://app?vid=e36fc3c3-3f2f-4976-afc1-efdf79dee1e9","ios":"levelo://app?vid=e36fc3c3-3f2f-4976-afc1-efdf79dee1e9"},"vehicle_type_id":"4","last_reported":1702584481,"current_range_meters":30000,"station_id":"ce4bhr92rcd13ifvqhrg","pricing_plan_id":"free"},{"bike_id":"51b45a01-244f-453e-8718-708dfded62c8","system_id":"levelo_inurba_marseille","lat":43.297815,"lon":5.393548,"is_reserved":false,"is_disabled":false,"rental_uris":{"android":"levelo://app?vid=51b45a01-244f-453e-8718-708dfded62c8","ios":"levelo://app?vid=51b45a01-244f-453e-8718-708dfded62c8"},"vehicle_type_id":"4","last_reported":1702584481,"current_range_meters":25200,"station_id":"chh1huq6cuj3fo74tm60","pricing_plan_id":"free"},{"bike_id":"4e7f2ef4-9c7e-4ba9-854e-f9e919c0aa43","system_id":"levelo_inurba_marseille","lat":43.295169,"lon":5.390426,"is_reserved":false,"is_disabled":false,"rental_uris":{"android":"levelo://app?vid=4e7f2ef4-9c7e-4ba9-854e-f9e919c0aa43","ios":"levelo://app?vid=4e7f2ef4-9c7e-4ba9-854e-f9e919c0aa43"},"vehicle_type_id":"4","last_reported":1702584481,"current_range_meters":12800,"station_id":"ce4bh3p2rcd13ifvqdp0","pricing_plan_id":"free"},{"bike_id":"1923bfb4-6430-4b6c-b4eb-bf2663f09ef7","system_id":"levelo_inurba_marseille","lat":43.295169,"lon":5.390426,"is_reserved":false,"is_disabled":false,"rental_uris":{"android":"levelo://app?vid=1923bfb4-6430-4b6c-b4eb-bf2663f09ef7","ios":"levelo://app?vid=1923bfb4-6430-4b6c-b4eb-bf2663f09ef7"},"vehicle_type_id":"4","last_reported":1702584481,"current_range_meters":17600,"station_id":"ce4bh3p2rcd13ifvqdp0","pricing_plan_id":"free"},{"bike_id":"b6773ff5-3f80-40cf-8c75-5d2c12e46fba","system_id":"levelo_inurba_marseille","lat":43.29521,"lon":5.39044,"is_reserved":false,"is_disabled":false,"rental_uris":{"android":"levelo://app?vid=b6773ff5-3f80-40cf-8c75-5d2c12e46fba","ios":"levelo://app?vid=b6773ff5-3f80-40cf-8c75-5d2c12e46fba"},"vehicle_type_id":"4","last_reported":1702584481,"current_range_meters":24400,"station_id":"ce4bh3p2rcd13ifvqdp0","pricing_plan_id":"free"},{"bike_id":"49e51a05-2a36-40fb-bd5f-b1e4aebd0a1f","system_id":"levelo_inurba_marseille","lat":43.33737,"lon":5.37463,"is_reserved":false,"is_disabled":false,"rental_uris":{"android":"levelo://app?vid=49e51a05-2a36-40fb-bd5f-b1e4aebd0a1f","ios":"levelo://app?vid=49e51a05-2a36-40fb-bd5f-b1e4aebd0a1f"},"vehicle_type_id":"4","last_reported":1702584481,"current_range_meters":28800,"station_id":"","pricing_plan_id":"free"},{"bike_id":"76d5a3d4-ca4e-48a5-b745-5816e4f3de67","system_id":"levelo_inurba_marseille","lat":43.337377,"lon":5.374617,"is_reserved":false,"is_disabled":false,"rental_uris":{"android":"levelo://app?vid=76d5a3d4-ca4e-48a5-b745-5816e4f3de67","ios":"levelo://app?vid=76d5a3d4-ca4e-48a5-b745-5816e4f3de67"},"vehicle_type_id":"4","last_reported":1702584481,"current_range_meters":29600,"station_id":"","pricing_plan_id":"free"},{"bike_id":"bd53b792-e122-4c21-b484-b34248ff2232","system_id":"levelo_inurba_marseille","lat":43.309371,"lon":5.401449,"is_reserved":false,"is_disabled":false,"rental_uris":{"android":"levelo://app?vid=bd53b792-e122-4c21-b484-b34248ff2232","ios":"levelo://app?vid=bd53b792-e122-4c21-b484-b34248ff2232"},"vehicle_type_id":"4","last_reported":1702584481,"current_range_meters":24800,"station_id":"ce4bgvp2rcd13ifvqct0","pricing_plan_id":"free"},{"bike_id":"fef4692c-3b16-4548-92bb-85fe60f710ad","system_id":"levelo_inurba_marseille","lat":43.30934,"lon":5.4014,"is_reserved":false,"is_disabled":false,"rental_uris":{"android":"levelo://app?vid=fef4692c-3b16-4548-92bb-85fe60f710ad","ios":"levelo://app?vid=fef4692c-3b16-4548-92bb-85fe60f710ad"},"vehicle_type_id":"4","last_reported":1702584481,"current_range_meters":13600,"station_id":"ce4bgvp2rcd13ifvqct0","pricing_plan_id":"free"},{"bike_id":"a28c73ed-bd03-4b6e-85ea-cb2f5bb21984","system_id":"levelo_inurba_marseille","lat":43.3093,"lon":5.40146,"is_reserved":false,"is_disabled":false,"rental_uris":{"android":"levelo://app?vid=a28c73ed-bd03-4b6e-85ea-cb2f5bb21984","ios":"levelo://app?vid=a28c73ed-bd03-4b6e-85ea-cb2f5bb21984"},"vehicle_type_id":"4","last_reported":1702584481,"current_range_meters":5200,"station_id":"ce4bgvp2rcd13ifvqct0","pricing_plan_id":"free"},{"bike_id":"34b75910-96ff-42ec-92ad-f9d6da0e5539","system_id":"levelo_inurba_marseille","lat":43.33759,"lon":5.37443,"is_reserved":false,"is_disabled":false,"rental_uris":{"android":"levelo://app?vid=34b75910-96ff-42ec-92ad-f9d6da0e5539","ios":"levelo://app?vid=34b75910-96ff-42ec-92ad-f9d6da0e5539"},"vehicle_type_id":"4","last_reported":1702584481,"current_range_meters":27600,"station_id":"","pricing_plan_id":"free"},{"bike_id":"930bba3a-4350-44cf-bb9b-310a6cbdb5ef","system_id":"levelo_inurba_marseille","lat":43.33757,"lon":5.3748,"is_reserved":false,"is_disabled":false,"rental_uris":{"android":"levelo://app?vid=930bba3a-4350-44cf-bb9b-310a6cbdb5ef","ios":"levelo://app?vid=930bba3a-4350-44cf-bb9b-310a6cbdb5ef"},"vehicle_type_id":"4","last_reported":1702584481,"current_range_meters":31200,"station_id":"","pricing_plan_id":"free"},{"bike_id":"6da87c80-d33b-4e59-8d8e-5a6c23248146","system_id":"levelo_inurba_marseille","lat":43.306412,"lon":5.401035,"is_reserved":false,"is_disabled":false,"rental_uris":{"android":"levelo://app?vid=6da87c80-d33b-4e59-8d8e-5a6c23248146","ios":"levelo://app?vid=6da87c80-d33b-4e59-8d8e-5a6c23248146"},"vehicle_type_id":"4","last_reported":1702584481,"current_range_meters":14800,"station_id":"ce4bh112rcd13ifvqda0","pricing_plan_id":"free"},{"bike_id":"3e6371f8-9c5e-48bd-bbb3-2a5735dc05e1","system_id":"levelo_inurba_marseille","lat":43.301117,"lon":5.398795,"is_reserved":false,"is_disabled":false,"rental_uris":{"android":"levelo://app?vid=3e6371f8-9c5e-48bd-bbb3-2a5735dc05e1","ios":"levelo://app?vid=3e6371f8-9c5e-48bd-bbb3-2a5735dc05e1"},"vehicle_type_id":"4","last_reported":1702584481,"current_range_meters":23200,"station_id":"ce4bh0h2rcd13ifvqd40","pricing_plan_id":"free"},{"bike_id":"2b345619-5d58-415c-829f-9515ba684a00","system_id":"levelo_inurba_marseille","lat":43.28727,"lon":5.36078,"is_reserved":false,"is_disabled":false,"rental_uris":{"android":"levelo://app?vid=2b345619-5d58-415c-829f-9515ba684a00","ios":"levelo://app?vid=2b345619-5d58-415c-829f-9515ba684a00"},"vehicle_type_id":"4","last_reported":1702584481,"current_range_meters":15200,"station_id":"cki0cbj6b192h4jlfktg","pricing_plan_id":"free"},{"bike_id":"aa032ad6-ad2c-45b6-9263-c33819b4b3ea","system_id":"levelo_inurba_marseille","lat":43.286961,"lon":5.373785,"is_reserved":false,"is_disabled":false,"rental_uris":{"android":"levelo://app?vid=aa032ad6-ad2c-45b6-9263-c33819b4b3ea","ios":"levelo://app?vid=aa032ad6-ad2c-45b6-9263-c33819b4b3ea"},"vehicle_type_id":"4","last_reported":1702584481,"current_range_meters":22400,"station_id":"ce4bh3p2rcd13ifvqdq0","pricing_plan_id":"free"},{"bike_id":"c0dbb0cb-db4e-47bc-9577-33121577a3cc","system_id":"levelo_inurba_marseille","lat":43.298681,"lon":5.397225,"is_reserved":false,"is_disabled":false,"rental_uris":{"android":"levelo://app?vid=c0dbb0cb-db4e-47bc-9577-33121577a3cc","ios":"levelo://app?vid=c0dbb0cb-db4e-47bc-9577-33121577a3cc"},"vehicle_type_id":"4","last_reported":1702584481,"current_range_meters":14800,"station_id":"ce4bh0h2rcd13ifvqd50","pricing_plan_id":"free"},{"bike_id":"9244c460-1d7c-4281-8cb6-d3165cfc06e8","system_id":"levelo_inurba_marseille","lat":43.298681,"lon":5.397225,"is_reserved":false,"is_disabled":false,"rental_uris":{"android":"levelo://app?vid=9244c460-1d7c-4281-8cb6-d3165cfc06e8","ios":"levelo://app?vid=9244c460-1d7c-4281-8cb6-d3165cfc06e8"},"vehicle_type_id":"4","last_reported":1702584481,"current_range_meters":10800,"station_id":"ce4bh0h2rcd13ifvqd50","pricing_plan_id":"free"},{"bike_id":"d5b62bbd-591d-4bb2-9420-ee5e586b3138","system_id":"levelo_inurba_marseille","lat":43.302759,"lon":5.400793,"is_reserved":false,"is_disabled":false,"rental_uris":{"android":"levelo://app?vid=d5b62bbd-591d-4bb2-9420-ee5e586b3138","ios":"levelo://app?vid=d5b62bbd-591d-4bb2-9420-ee5e586b3138"},"vehicle_type_id":"4","last_reported":1702584481,"current_range_meters":7200,"station_id":"ce4bgvh2rcd13ifvqcs0","pricing_plan_id":"free"},{"bike_id":"5dc96440-a307-4cbe-b1a3-86ae28501ba3","system_id":"levelo_inurba_marseille","lat":43.302759,"lon":5.400793,"is_reserved":false,"is_disabled":false,"rental_uris":{"android":"levelo://app?vid=5dc96440-a307-4cbe-b1a3-86ae28501ba3","ios":"levelo://app?vid=5dc96440-a307-4cbe-b1a3-86ae28501ba3"},"vehicle_type_id":"4","last_reported":1702584481,"current_range_meters":12400,"station_id":"ce4bgvh2rcd13ifvqcs0","pricing_plan_id":"free"},{"bike_id":"a43fe0c1-cf41-49f4-a942-f186ea2eac62","system_id":"levelo_inurba_marseille","lat":43.287185,"lon":5.379373,"is_reserved":false,"is_disabled":false,"rental_uris":{"android":"levelo://app?vid=a43fe0c1-cf41-49f4-a942-f186ea2eac62","ios":"levelo://app?vid=a43fe0c1-cf41-49f4-a942-f186ea2eac62"},"vehicle_type_id":"4","last_reported":1702584481,"current_range_meters":12800,"station_id":"ce4bh9p2rcd13ifvqec0","pricing_plan_id":"free"},{"bike_id":"72e80ea4-ec43-440e-a1b0-018c5fc94001","system_id":"levelo_inurba_marseille","lat":43.316828,"lon":5.404723,"is_reserved":false,"is_disabled":false,"rental_uris":{"android":"levelo://app?vid=72e80ea4-ec43-440e-a1b0-018c5fc94001","ios":"levelo://app?vid=72e80ea4-ec43-440e-a1b0-018c5fc94001"},"vehicle_type_id":"4","last_reported":1702584481,"current_range_meters":21600,"station_id":"ce4bh012rcd13ifvqd00","pricing_plan_id":"free"},{"bike_id":"b33b88e9-bfd8-4c6b-badc-4fb62fe90440","system_id":"levelo_inurba_marseille","lat":43.291949,"lon":5.393246,"is_reserved":false,"is_disabled":false,"rental_uris":{"android":"levelo://app?vid=b33b88e9-bfd8-4c6b-badc-4fb62fe90440","ios":"levelo://app?vid=b33b88e9-bfd8-4c6b-badc-4fb62fe90440"},"vehicle_type_id":"4","last_reported":1702584481,"current_range_meters":0,"station_id":"ce4bh192rcd13ifvqdd0","pricing_plan_id":"free"},{"bike_id":"f24f8d23-a3e8-44be-808d-b27561cd7e6b","system_id":"levelo_inurba_marseille","lat":43.294314,"lon":5.397498,"is_reserved":false,"is_disabled":false,"rental_uris":{"android":"levelo://app?vid=f24f8d23-a3e8-44be-808d-b27561cd7e6b","ios":"levelo://app?vid=f24f8d23-a3e8-44be-808d-b27561cd7e6b"},"vehicle_type_id":"4","last_reported":1702584481,"current_range_meters":19200,"station_id":"ce4bh3h2rcd13ifvqdo0","pricing_plan_id":"free"},{"bike_id":"1d1e096d-5105-4883-bffe-d40ca7030c3c","system_id":"levelo_inurba_marseille","lat":43.28619,"lon":5.35108,"is_reserved":false,"is_disabled":false,"rental_uris":{"android":"levelo://app?vid=1d1e096d-5105-4883-bffe-d40ca7030c3c","ios":"levelo://app?vid=1d1e096d-5105-4883-bffe-d40ca7030c3c"},"vehicle_type_id":"4","last_reported":1702584481,"current_range_meters":23200,"station_id":"ce4bhch2rcd13ifvqeug","pricing_plan_id":"free"},{"bike_id":"59440ca7-a769-4e4e-83e7-d0fea04caa42","system_id":"levelo_inurba_marseille","lat":43.28619,"lon":5.35108,"is_reserved":false,"is_disabled":false,"rental_uris":{"android":"levelo://app?vid=59440ca7-a769-4e4e-83e7-d0fea04caa42","ios":"levelo://app?vid=59440ca7-a769-4e4e-83e7-d0fea04caa42"},"vehicle_type_id":"4","last_reported":1702584481,"current_range_meters":19600,"station_id":"ce4bhch2rcd13ifvqeug","pricing_plan_id":"free"},{"bike_id":"de1b122a-ea30-4eba-bdb5-ce8f73953f0d","system_id":"levelo_inurba_marseille","lat":43.285856,"lon":5.350771,"is_reserved":false,"is_disabled":false,"rental_uris":{"android":"levelo://app?vid=de1b122a-ea30-4eba-bdb5-ce8f73953f0d","ios":"levelo://app?vid=de1b122a-ea30-4eba-bdb5-ce8f73953f0d"},"vehicle_type_id":"4","last_reported":1702584481,"current_range_meters":25600,"station_id":"ce4bhch2rcd13ifvqeug","pricing_plan_id":"free"},{"bike_id":"313406b8-5fdc-41f0-83fe-0af7d292a505","system_id":"levelo_inurba_marseille","lat":43.285856,"lon":5.350771,"is_reserved":false,"is_disabled":false,"rental_uris":{"android":"levelo://app?vid=313406b8-5fdc-41f0-83fe-0af7d292a505","ios":"levelo://app?vid=313406b8-5fdc-41f0-83fe-0af7d292a505"},"vehicle_type_id":"4","last_reported":1702584481,"current_range_meters":11600,"station_id":"ce4bhch2rcd13ifvqeug","pricing_plan_id":"free"},{"bike_id":"2c45c7e6-b65a-4d70-a322-689569b7ce47","system_id":"levelo_inurba_marseille","lat":43.28614,"lon":5.35105,"is_reserved":false,"is_disabled":false,"rental_uris":{"android":"levelo://app?vid=2c45c7e6-b65a-4d70-a322-689569b7ce47","ios":"levelo://app?vid=2c45c7e6-b65a-4d70-a322-689569b7ce47"},"vehicle_type_id":"4","last_reported":1702584481,"current_range_meters":0,"station_id":"ce4bhch2rcd13ifvqeug","pricing_plan_id":"free"},{"bike_id":"ad8fb7da-0c21-4c3b-9874-8defec604315","system_id":"levelo_inurba_marseille","lat":43.28413,"lon":5.37515,"is_reserved":false,"is_disabled":false,"rental_uris":{"android":"levelo://app?vid=ad8fb7da-0c21-4c3b-9874-8defec604315","ios":"levelo://app?vid=ad8fb7da-0c21-4c3b-9874-8defec604315"},"vehicle_type_id":"4","last_reported":1702584481,"current_range_meters":0,"station_id":"ce4bh412rcd13ifvqds0","pricing_plan_id":"free"},{"bike_id":"996adc2b-c2a5-410e-8907-4aeaa4429da5","system_id":"levelo_inurba_marseille","lat":43.295713,"lon":5.399639,"is_reserved":false,"is_disabled":false,"rental_uris":{"android":"levelo://app?vid=996adc2b-c2a5-410e-8907-4aeaa4429da5","ios":"levelo://app?vid=996adc2b-c2a5-410e-8907-4aeaa4429da5"},"vehicle_type_id":"4","last_reported":1702584481,"current_range_meters":400,"station_id":"ce4bh312rcd13ifvqdj0","pricing_plan_id":"free"},{"bike_id":"256a3e18-77b0-4f3d-9f78-6a2f05b1ecda","system_id":"levelo_inurba_marseille","lat":43.295713,"lon":5.399639,"is_reserved":false,"is_disabled":false,"rental_uris":{"android":"levelo://app?vid=256a3e18-77b0-4f3d-9f78-6a2f05b1ecda","ios":"levelo://app?vid=256a3e18-77b0-4f3d-9f78-6a2f05b1ecda"},"vehicle_type_id":"4","last_reported":1702584481,"current_range_meters":27200,"station_id":"ce4bh312rcd13ifvqdj0","pricing_plan_id":"free"},{"bike_id":"d2b55484-0eab-4289-81ce-d220dd83099b","system_id":"levelo_inurba_marseille","lat":43.28686,"lon":5.38673,"is_reserved":false,"is_disabled":false,"rental_uris":{"android":"levelo://app?vid=d2b55484-0eab-4289-81ce-d220dd83099b","ios":"levelo://app?vid=d2b55484-0eab-4289-81ce-d220dd83099b"},"vehicle_type_id":"4","last_reported":1702584481,"current_range_meters":15200,"station_id":"ce4bh492rcd13ifvqdug","pricing_plan_id":"free"},{"bike_id":"7fd6c93f-9b78-4416-b83b-462bd0b720e1","system_id":"levelo_inurba_marseille","lat":43.286595,"lon":5.386795,"is_reserved":false,"is_disabled":false,"rental_uris":{"android":"levelo://app?vid=7fd6c93f-9b78-4416-b83b-462bd0b720e1","ios":"levelo://app?vid=7fd6c93f-9b78-4416-b83b-462bd0b720e1"},"vehicle_type_id":"4","last_reported":1702584481,"current_range_meters":27600,"station_id":"ce4bh492rcd13ifvqdug","pricing_plan_id":"free"},{"bike_id":"fca31c02-1698-40eb-8b7d-37f22e4c8b40","system_id":"levelo_inurba_marseille","lat":43.288501,"lon":5.393087,"is_reserved":false,"is_disabled":false,"rental_uris":{"android":"levelo://app?vid=fca31c02-1698-40eb-8b7d-37f22e4c8b40","ios":"levelo://app?vid=fca31c02-1698-40eb-8b7d-37f22e4c8b40"},"vehicle_type_id":"4","last_reported":1702584481,"current_range_meters":2400,"station_id":"ce4bh2p2rcd13ifvqdi0","pricing_plan_id":"free"},{"bike_id":"9b18fd05-690a-48b9-86f2-10566a7c3673","system_id":"levelo_inurba_marseille","lat":43.288611,"lon":5.393099,"is_reserved":false,"is_disabled":false,"rental_uris":{"android":"levelo://app?vid=9b18fd05-690a-48b9-86f2-10566a7c3673","ios":"levelo://app?vid=9b18fd05-690a-48b9-86f2-10566a7c3673"},"vehicle_type_id":"4","last_reported":1702584481,"current_range_meters":30000,"station_id":"","pricing_plan_id":"free"},{"bike_id":"2be90471-9de7-4472-abc3-df380157bae7","system_id":"levelo_inurba_marseille","lat":43.298075,"lon":5.40406,"is_reserved":false,"is_disabled":false,"rental_uris":{"android":"levelo://app?vid=2be90471-9de7-4472-abc3-df380157bae7","ios":"levelo://app?vid=2be90471-9de7-4472-abc3-df380157bae7"},"vehicle_type_id":"4","last_reported":1702584481,"current_range_meters":7600,"station_id":"ce4bh112rcd13ifvqd90","pricing_plan_id":"free"},{"bike_id":"473829cd-018a-45c1-b106-b81154d143c1","system_id":"levelo_inurba_marseille","lat":43.288501,"lon":5.393087,"is_reserved":false,"is_disabled":false,"rental_uris":{"android":"levelo://app?vid=473829cd-018a-45c1-b106-b81154d143c1","ios":"levelo://app?vid=473829cd-018a-45c1-b106-b81154d143c1"},"vehicle_type_id":"4","last_reported":1702584481,"current_range_meters":31600,"station_id":"ce4bh2p2rcd13ifvqdi0","pricing_plan_id":"free"},{"bike_id":"17e0fc84-9082-4f7e-84f8-531828dbf854","system_id":"levelo_inurba_marseille","lat":43.288501,"lon":5.393087,"is_reserved":false,"is_disabled":false,"rental_uris":{"android":"levelo://app?vid=17e0fc84-9082-4f7e-84f8-531828dbf854","ios":"levelo://app?vid=17e0fc84-9082-4f7e-84f8-531828dbf854"},"vehicle_type_id":"4","last_reported":1702584481,"current_range_meters":18800,"station_id":"ce4bh2p2rcd13ifvqdi0","pricing_plan_id":"free"},{"bike_id":"f1f7b115-19c2-422f-90ac-0b7f14e34257","system_id":"levelo_inurba_marseille","lat":43.28365,"lon":5.38103,"is_reserved":false,"is_disabled":false,"rental_uris":{"android":"levelo://app?vid=f1f7b115-19c2-422f-90ac-0b7f14e34257","ios":"levelo://app?vid=f1f7b115-19c2-422f-90ac-0b7f14e34257"},"vehicle_type_id":"4","last_reported":1702584481,"current_range_meters":14800,"station_id":"ce4bh412rcd13ifvqdr0","pricing_plan_id":"free"},{"bike_id":"f93f283d-2252-490c-996a-7eaa487e080e","system_id":"levelo_inurba_marseille","lat":43.288501,"lon":5.393087,"is_reserved":false,"is_disabled":false,"rental_uris":{"android":"levelo://app?vid=f93f283d-2252-490c-996a-7eaa487e080e","ios":"levelo://app?vid=f93f283d-2252-490c-996a-7eaa487e080e"},"vehicle_type_id":"4","last_reported":1702584481,"current_range_meters":26800,"station_id":"ce4bh2p2rcd13ifvqdi0","pricing_plan_id":"free"},{"bike_id":"26e828b1-a1dd-4efe-ae31-6c21c7c63b6a","system_id":"levelo_inurba_marseille","lat":43.288501,"lon":5.393087,"is_reserved":false,"is_disabled":false,"rental_uris":{"android":"levelo://app?vid=26e828b1-a1dd-4efe-ae31-6c21c7c63b6a","ios":"levelo://app?vid=26e828b1-a1dd-4efe-ae31-6c21c7c63b6a"},"vehicle_type_id":"4","last_reported":1702584481,"current_range_meters":31200,"station_id":"ce4bh2p2rcd13ifvqdi0","pricing_plan_id":"free"},{"bike_id":"7a17f3aa-67e5-460b-ad4a-b23788463900","system_id":"levelo_inurba_marseille","lat":43.283494,"lon":5.380945,"is_reserved":false,"is_disabled":false,"rental_uris":{"android":"levelo://app?vid=7a17f3aa-67e5-460b-ad4a-b23788463900","ios":"levelo://app?vid=7a17f3aa-67e5-460b-ad4a-b23788463900"},"vehicle_type_id":"4","last_reported":1702584481,"current_range_meters":8400,"station_id":"ce4bh412rcd13ifvqdr0","pricing_plan_id":"free"},{"bike_id":"a6a2a1ae-2e43-4644-a692-7812e074321e","system_id":"levelo_inurba_marseille","lat":43.289363,"lon":5.396322,"is_reserved":false,"is_disabled":false,"rental_uris":{"android":"levelo://app?vid=a6a2a1ae-2e43-4644-a692-7812e074321e","ios":"levelo://app?vid=a6a2a1ae-2e43-4644-a692-7812e074321e"},"vehicle_type_id":"4","last_reported":1702584481,"current_range_meters":28000,"station_id":"ce4bh3h2rcd13ifvqdn0","pricing_plan_id":"free"},{"bike_id":"8a5a3992-256f-4031-af6a-cb3374505f22","system_id":"levelo_inurba_marseille","lat":43.292724,"lon":5.401131,"is_reserved":false,"is_disabled":false,"rental_uris":{"android":"levelo://app?vid=8a5a3992-256f-4031-af6a-cb3374505f22","ios":"levelo://app?vid=8a5a3992-256f-4031-af6a-cb3374505f22"},"vehicle_type_id":"4","last_reported":1702584481,"current_range_meters":25600,"station_id":"ce4bh312rcd13ifvqdk0","pricing_plan_id":"free"},{"bike_id":"3c85df87-7510-4772-83dc-5b28f3520327","system_id":"levelo_inurba_marseille","lat":43.282803,"lon":5.35074,"is_reserved":false,"is_disabled":false,"rental_uris":{"android":"levelo://app?vid=3c85df87-7510-4772-83dc-5b28f3520327","ios":"levelo://app?vid=3c85df87-7510-4772-83dc-5b28f3520327"},"vehicle_type_id":"4","last_reported":1702584481,"current_range_meters":21600,"station_id":"ce4bhbp2rcd13ifvqerg","pricing_plan_id":"free"},{"bike_id":"9012fed1-5872-41ac-abf1-9b27e0217aef","system_id":"levelo_inurba_marseille","lat":43.282754,"lon":5.350519,"is_reserved":false,"is_disabled":false,"rental_uris":{"android":"levelo://app?vid=9012fed1-5872-41ac-abf1-9b27e0217aef","ios":"levelo://app?vid=9012fed1-5872-41ac-abf1-9b27e0217aef"},"vehicle_type_id":"4","last_reported":1702584481,"current_range_meters":14800,"station_id":"ce4bhbp2rcd13ifvqerg","pricing_plan_id":"free"},{"bike_id":"c74183a8-9bf7-4247-9082-4ce3d7d49bdd","system_id":"levelo_inurba_marseille","lat":43.282744,"lon":5.350533,"is_reserved":false,"is_disabled":false,"rental_uris":{"android":"levelo://app?vid=c74183a8-9bf7-4247-9082-4ce3d7d49bdd","ios":"levelo://app?vid=c74183a8-9bf7-4247-9082-4ce3d7d49bdd"},"vehicle_type_id":"4","last_reported":1702584481,"current_range_meters":0,"station_id":"ce4bhbp2rcd13ifvqerg","pricing_plan_id":"free"},{"bike_id":"1e951a99-2249-4912-a56f-d54d3f697704","system_id":"levelo_inurba_marseille","lat":43.282744,"lon":5.350533,"is_reserved":false,"is_disabled":false,"rental_uris":{"android":"levelo://app?vid=1e951a99-2249-4912-a56f-d54d3f697704","ios":"levelo://app?vid=1e951a99-2249-4912-a56f-d54d3f697704"},"vehicle_type_id":"4","last_reported":1702584481,"current_range_meters":7600,"station_id":"ce4bhbp2rcd13ifvqerg","pricing_plan_id":"free"},{"bike_id":"7f4d8487-dbdf-496d-9d7b-1f2417384832","system_id":"levelo_inurba_marseille","lat":43.280382,"lon":5.369291,"is_reserved":false,"is_disabled":false,"rental_uris":{"android":"levelo://app?vid=7f4d8487-dbdf-496d-9d7b-1f2417384832","ios":"levelo://app?vid=7f4d8487-dbdf-496d-9d7b-1f2417384832"},"vehicle_type_id":"4","last_reported":1702584481,"current_range_meters":14800,"station_id":"ce4bha12rcd13ifvqef0","pricing_plan_id":"free"},{"bike_id":"d52ba69b-7325-49c2-b343-dd0cc2e58052","system_id":"levelo_inurba_marseille","lat":43.28039,"lon":5.369297,"is_reserved":false,"is_disabled":false,"rental_uris":{"android":"levelo://app?vid=d52ba69b-7325-49c2-b343-dd0cc2e58052","ios":"levelo://app?vid=d52ba69b-7325-49c2-b343-dd0cc2e58052"},"vehicle_type_id":"4","last_reported":1702584481,"current_range_meters":0,"station_id":"ce4bha12rcd13ifvqef0","pricing_plan_id":"free"},{"bike_id":"9587dde9-936c-4198-84a9-8e3de5097a65","system_id":"levelo_inurba_marseille","lat":43.290412,"lon":5.399633,"is_reserved":false,"is_disabled":false,"rental_uris":{"android":"levelo://app?vid=9587dde9-936c-4198-84a9-8e3de5097a65","ios":"levelo://app?vid=9587dde9-936c-4198-84a9-8e3de5097a65"},"vehicle_type_id":"4","last_reported":1702584481,"current_range_meters":16000,"station_id":"ce4bh392rcd13ifvqdm0","pricing_plan_id":"free"},{"bike_id":"7c622e1e-880a-49e7-b6f6-24165eccbc3e","system_id":"levelo_inurba_marseille","lat":43.281044,"lon":5.378308,"is_reserved":false,"is_disabled":false,"rental_uris":{"android":"levelo://app?vid=7c622e1e-880a-49e7-b6f6-24165eccbc3e","ios":"levelo://app?vid=7c622e1e-880a-49e7-b6f6-24165eccbc3e"},"vehicle_type_id":"4","last_reported":1702584481,"current_range_meters":26800,"station_id":"ce4bha12rcd13ifvqee0","pricing_plan_id":"free"},{"bike_id":"bc5b4b0a-67cf-45a5-9fec-3c37e71adec7","system_id":"levelo_inurba_marseille","lat":43.281044,"lon":5.378308,"is_reserved":false,"is_disabled":false,"rental_uris":{"android":"levelo://app?vid=bc5b4b0a-67cf-45a5-9fec-3c37e71adec7","ios":"levelo://app?vid=bc5b4b0a-67cf-45a5-9fec-3c37e71adec7"},"vehicle_type_id":"4","last_reported":1702584481,"current_range_meters":8000,"station_id":"ce4bha12rcd13ifvqee0","pricing_plan_id":"free"},{"bike_id":"8243e941-199c-4616-b7f9-bd0276d13468","system_id":"levelo_inurba_marseille","lat":43.28573,"lon":5.394992,"is_reserved":false,"is_disabled":false,"rental_uris":{"android":"levelo://app?vid=8243e941-199c-4616-b7f9-bd0276d13468","ios":"levelo://app?vid=8243e941-199c-4616-b7f9-bd0276d13468"},"vehicle_type_id":"4","last_reported":1702584481,"current_range_meters":14400,"station_id":"ce4bh292rcd13ifvqdg0","pricing_plan_id":"free"},{"bike_id":"731556d7-b7ca-4bf3-85d6-d70a11af1cf2","system_id":"levelo_inurba_marseille","lat":43.28573,"lon":5.394992,"is_reserved":false,"is_disabled":false,"rental_uris":{"android":"levelo://app?vid=731556d7-b7ca-4bf3-85d6-d70a11af1cf2","ios":"levelo://app?vid=731556d7-b7ca-4bf3-85d6-d70a11af1cf2"},"vehicle_type_id":"4","last_reported":1702584481,"current_range_meters":24000,"station_id":"ce4bh292rcd13ifvqdg0","pricing_plan_id":"free"},{"bike_id":"fb70988a-0048-436c-a126-c82b9b91553e","system_id":"levelo_inurba_marseille","lat":43.285742,"lon":5.395004,"is_reserved":false,"is_disabled":false,"rental_uris":{"android":"levelo://app?vid=fb70988a-0048-436c-a126-c82b9b91553e","ios":"levelo://app?vid=fb70988a-0048-436c-a126-c82b9b91553e"},"vehicle_type_id":"4","last_reported":1702584481,"current_range_meters":13600,"station_id":"ce4bh292rcd13ifvqdg0","pricing_plan_id":"free"},{"bike_id":"4ee1a84c-60e5-4735-bf59-cea446c2523f","system_id":"levelo_inurba_marseille","lat":43.27998,"lon":5.37914,"is_reserved":false,"is_disabled":false,"rental_uris":{"android":"levelo://app?vid=4ee1a84c-60e5-4735-bf59-cea446c2523f","ios":"levelo://app?vid=4ee1a84c-60e5-4735-bf59-cea446c2523f"},"vehicle_type_id":"4","last_reported":1702584481,"current_range_meters":11200,"station_id":"","pricing_plan_id":"free"},{"bike_id":"a6750e93-4d83-46ef-8dc0-4c546875d106","system_id":"levelo_inurba_marseille","lat":43.304188,"lon":5.412904,"is_reserved":false,"is_disabled":false,"rental_uris":{"android":"levelo://app?vid=a6750e93-4d83-46ef-8dc0-4c546875d106","ios":"levelo://app?vid=a6750e93-4d83-46ef-8dc0-4c546875d106"},"vehicle_type_id":"4","last_reported":1702584481,"current_range_meters":31200,"station_id":"ce4bhop2rcd13ifvqh8g","pricing_plan_id":"free"},{"bike_id":"93cf42e1-0754-4d9a-9677-e9d06246671e","system_id":"levelo_inurba_marseille","lat":43.279087,"lon":5.380114,"is_reserved":false,"is_disabled":false,"rental_uris":{"android":"levelo://app?vid=93cf42e1-0754-4d9a-9677-e9d06246671e","ios":"levelo://app?vid=93cf42e1-0754-4d9a-9677-e9d06246671e"},"vehicle_type_id":"4","last_reported":1702584481,"current_range_meters":30400,"station_id":"ce4bhf92rcd13ifvqf50","pricing_plan_id":"free"},{"bike_id":"0567f609-3ddc-445b-ae18-e0b7d4637b0b","system_id":"levelo_inurba_marseille","lat":43.292569,"lon":5.409107,"is_reserved":false,"is_disabled":false,"rental_uris":{"android":"levelo://app?vid=0567f609-3ddc-445b-ae18-e0b7d4637b0b","ios":"levelo://app?vid=0567f609-3ddc-445b-ae18-e0b7d4637b0b"},"vehicle_type_id":"4","last_reported":1702584481,"current_range_meters":2800,"station_id":"ce4bh192rcd13ifvqdc0","pricing_plan_id":"free"},{"bike_id":"6be6e30d-a1a4-4274-a12e-04437af1d297","system_id":"levelo_inurba_marseille","lat":43.27621,"lon":5.36105,"is_reserved":false,"is_disabled":false,"rental_uris":{"android":"levelo://app?vid=6be6e30d-a1a4-4274-a12e-04437af1d297","ios":"levelo://app?vid=6be6e30d-a1a4-4274-a12e-04437af1d297"},"vehicle_type_id":"4","last_reported":1702584481,"current_range_meters":11200,"station_id":"ce4bgj92rcd13ifvqbe0","pricing_plan_id":"free"},{"bike_id":"8dd7f3b2-fac2-4f40-8d56-9a0ca7caf5b3","system_id":"levelo_inurba_marseille","lat":43.332028,"lon":5.41053,"is_reserved":false,"is_disabled":false,"rental_uris":{"android":"levelo://app?vid=8dd7f3b2-fac2-4f40-8d56-9a0ca7caf5b3","ios":"levelo://app?vid=8dd7f3b2-fac2-4f40-8d56-9a0ca7caf5b3"},"vehicle_type_id":"4","last_reported":1702584481,"current_range_meters":9600,"station_id":"","pricing_plan_id":"free"},{"bike_id":"d9271bdb-56a1-44f1-a766-777fbbe6b769","system_id":"levelo_inurba_marseille","lat":43.280784,"lon":5.396622,"is_reserved":false,"is_disabled":false,"rental_uris":{"android":"levelo://app?vid=d9271bdb-56a1-44f1-a766-777fbbe6b769","ios":"levelo://app?vid=d9271bdb-56a1-44f1-a766-777fbbe6b769"},"vehicle_type_id":"4","last_reported":1702584481,"current_range_meters":25200,"station_id":"ce4bho12rcd13ifvqh2g","pricing_plan_id":"free"},{"bike_id":"38f7ad61-5224-4eb5-a3bd-7fdefd112261","system_id":"levelo_inurba_marseille","lat":43.303837,"lon":5.418724,"is_reserved":false,"is_disabled":false,"rental_uris":{"android":"levelo://app?vid=38f7ad61-5224-4eb5-a3bd-7fdefd112261","ios":"levelo://app?vid=38f7ad61-5224-4eb5-a3bd-7fdefd112261"},"vehicle_type_id":"4","last_reported":1702584481,"current_range_meters":28000,"station_id":"ce4bhop2rcd13ifvqh7g","pricing_plan_id":"free"},{"bike_id":"a59c4da2-febd-4448-b0c6-9d96a4a58b62","system_id":"levelo_inurba_marseille","lat":43.303837,"lon":5.418724,"is_reserved":false,"is_disabled":false,"rental_uris":{"android":"levelo://app?vid=a59c4da2-febd-4448-b0c6-9d96a4a58b62","ios":"levelo://app?vid=a59c4da2-febd-4448-b0c6-9d96a4a58b62"},"vehicle_type_id":"4","last_reported":1702584481,"current_range_meters":30400,"station_id":"ce4bhop2rcd13ifvqh7g","pricing_plan_id":"free"},{"bike_id":"fab25257-2ba4-489c-8ab8-6c12e2f7e6fe","system_id":"levelo_inurba_marseille","lat":43.278399,"lon":5.392139,"is_reserved":false,"is_disabled":false,"rental_uris":{"android":"levelo://app?vid=fab25257-2ba4-489c-8ab8-6c12e2f7e6fe","ios":"levelo://app?vid=fab25257-2ba4-489c-8ab8-6c12e2f7e6fe"},"vehicle_type_id":"4","last_reported":1702584481,"current_range_meters":0,"station_id":"ce4bhjp2rcd13ifvqga0","pricing_plan_id":"free"},{"bike_id":"c4cfb68b-0ac0-4a8c-b786-f9b41850db55","system_id":"levelo_inurba_marseille","lat":43.27376,"lon":5.36256,"is_reserved":false,"is_disabled":false,"rental_uris":{"android":"levelo://app?vid=c4cfb68b-0ac0-4a8c-b786-f9b41850db55","ios":"levelo://app?vid=c4cfb68b-0ac0-4a8c-b786-f9b41850db55"},"vehicle_type_id":"4","last_reported":1702584481,"current_range_meters":30800,"station_id":"ce4bhbh2rcd13ifvqeo0","pricing_plan_id":"free"},{"bike_id":"e7e851cd-2742-4996-b5f5-233b15fc5f3b","system_id":"levelo_inurba_marseille","lat":43.336134,"lon":5.410341,"is_reserved":false,"is_disabled":false,"rental_uris":{"android":"levelo://app?vid=e7e851cd-2742-4996-b5f5-233b15fc5f3b","ios":"levelo://app?vid=e7e851cd-2742-4996-b5f5-233b15fc5f3b"},"vehicle_type_id":"4","last_reported":1702584481,"current_range_meters":27600,"station_id":"ce4bhqh2rcd13ifvqhmg","pricing_plan_id":"free"},{"bike_id":"0fc6ef23-313f-4e2e-be0f-55ab0fff6479","system_id":"levelo_inurba_marseille","lat":43.336148,"lon":5.410349,"is_reserved":false,"is_disabled":false,"rental_uris":{"android":"levelo://app?vid=0fc6ef23-313f-4e2e-be0f-55ab0fff6479","ios":"levelo://app?vid=0fc6ef23-313f-4e2e-be0f-55ab0fff6479"},"vehicle_type_id":"4","last_reported":1702584481,"current_range_meters":17200,"station_id":"ce4bhqh2rcd13ifvqhmg","pricing_plan_id":"free"},{"bike_id":"f21c1b42-f5cf-4ef5-a4e6-62d4a1817773","system_id":"levelo_inurba_marseille","lat":43.336148,"lon":5.410349,"is_reserved":false,"is_disabled":false,"rental_uris":{"android":"levelo://app?vid=f21c1b42-f5cf-4ef5-a4e6-62d4a1817773","ios":"levelo://app?vid=f21c1b42-f5cf-4ef5-a4e6-62d4a1817773"},"vehicle_type_id":"4","last_reported":1702584481,"current_range_meters":24400,"station_id":"ce4bhqh2rcd13ifvqhmg","pricing_plan_id":"free"},{"bike_id":"88e235b0-f0b3-43c0-9128-98dfde4a60f4","system_id":"levelo_inurba_marseille","lat":43.276771,"lon":5.388799,"is_reserved":false,"is_disabled":false,"rental_uris":{"android":"levelo://app?vid=88e235b0-f0b3-43c0-9128-98dfde4a60f4","ios":"levelo://app?vid=88e235b0-f0b3-43c0-9128-98dfde4a60f4"},"vehicle_type_id":"4","last_reported":1702584481,"current_range_meters":9600,"station_id":"ce4bhi12rcd13ifvqfo0","pricing_plan_id":"free"},{"bike_id":"1d483fd6-f007-4cf4-938a-7b06635152cf","system_id":"levelo_inurba_marseille","lat":43.27955,"lon":5.39957,"is_reserved":false,"is_disabled":false,"rental_uris":{"android":"levelo://app?vid=1d483fd6-f007-4cf4-938a-7b06635152cf","ios":"levelo://app?vid=1d483fd6-f007-4cf4-938a-7b06635152cf"},"vehicle_type_id":"4","last_reported":1702584481,"current_range_meters":0,"station_id":"","pricing_plan_id":"free"},{"bike_id":"689b605a-9159-4e54-ac9f-be975ff46d8d","system_id":"levelo_inurba_marseille","lat":43.340804,"lon":5.410219,"is_reserved":false,"is_disabled":false,"rental_uris":{"android":"levelo://app?vid=689b605a-9159-4e54-ac9f-be975ff46d8d","ios":"levelo://app?vid=689b605a-9159-4e54-ac9f-be975ff46d8d"},"vehicle_type_id":"4","last_reported":1702584481,"current_range_meters":24800,"station_id":"ce4bhqh2rcd13ifvqhlg","pricing_plan_id":"free"},{"bike_id":"3ca2c2d2-99b0-4aa6-a05d-e30f02e6a7fb","system_id":"levelo_inurba_marseille","lat":43.276092,"lon":5.395289,"is_reserved":false,"is_disabled":false,"rental_uris":{"android":"levelo://app?vid=3ca2c2d2-99b0-4aa6-a05d-e30f02e6a7fb","ios":"levelo://app?vid=3ca2c2d2-99b0-4aa6-a05d-e30f02e6a7fb"},"vehicle_type_id":"4","last_reported":1702584481,"current_range_meters":29600,"station_id":"","pricing_plan_id":"free"},{"bike_id":"bebde3d5-7587-4f7a-8e46-1b7b1c7ea654","system_id":"levelo_inurba_marseille","lat":43.274103,"lon":5.394016,"is_reserved":false,"is_disabled":false,"rental_uris":{"android":"levelo://app?vid=bebde3d5-7587-4f7a-8e46-1b7b1c7ea654","ios":"levelo://app?vid=bebde3d5-7587-4f7a-8e46-1b7b1c7ea654"},"vehicle_type_id":"4","last_reported":1702584481,"current_range_meters":19200,"station_id":"ce4bhdp2rcd13ifvqf20","pricing_plan_id":"free"},{"bike_id":"12b67965-db0d-42c9-bc4b-9ac7a86e8b69","system_id":"levelo_inurba_marseille","lat":43.274099,"lon":5.394019,"is_reserved":false,"is_disabled":false,"rental_uris":{"android":"levelo://app?vid=12b67965-db0d-42c9-bc4b-9ac7a86e8b69","ios":"levelo://app?vid=12b67965-db0d-42c9-bc4b-9ac7a86e8b69"},"vehicle_type_id":"4","last_reported":1702584481,"current_range_meters":8000,"station_id":"ce4bhdp2rcd13ifvqf20","pricing_plan_id":"free"},{"bike_id":"9e4a6362-1d04-4540-a442-764f2dd79216","system_id":"levelo_inurba_marseille","lat":43.304096,"lon":5.425385,"is_reserved":false,"is_disabled":false,"rental_uris":{"android":"levelo://app?vid=9e4a6362-1d04-4540-a442-764f2dd79216","ios":"levelo://app?vid=9e4a6362-1d04-4540-a442-764f2dd79216"},"vehicle_type_id":"4","last_reported":1702584481,"current_range_meters":29600,"station_id":"ce4bhoh2rcd13ifvqh6g","pricing_plan_id":"free"},{"bike_id":"5d3f594c-9b0e-418e-807f-31b01190d134","system_id":"levelo_inurba_marseille","lat":43.295523,"lon":5.422926,"is_reserved":false,"is_disabled":false,"rental_uris":{"android":"levelo://app?vid=5d3f594c-9b0e-418e-807f-31b01190d134","ios":"levelo://app?vid=5d3f594c-9b0e-418e-807f-31b01190d134"},"vehicle_type_id":"4","last_reported":1702584481,"current_range_meters":27600,"station_id":"ce4bhph2rcd13ifvqhdg","pricing_plan_id":"free"},{"bike_id":"44b5f216-a7b6-4c19-8600-d0fc7a6dee0a","system_id":"levelo_inurba_marseille","lat":43.295523,"lon":5.422926,"is_reserved":false,"is_disabled":false,"rental_uris":{"android":"levelo://app?vid=44b5f216-a7b6-4c19-8600-d0fc7a6dee0a","ios":"levelo://app?vid=44b5f216-a7b6-4c19-8600-d0fc7a6dee0a"},"vehicle_type_id":"4","last_reported":1702584481,"current_range_meters":26800,"station_id":"ce4bhph2rcd13ifvqhdg","pricing_plan_id":"free"},{"bike_id":"2a9feafd-1a90-4e49-8b52-9424cb704d5c","system_id":"levelo_inurba_marseille","lat":43.295523,"lon":5.422926,"is_reserved":false,"is_disabled":false,"rental_uris":{"android":"levelo://app?vid=2a9feafd-1a90-4e49-8b52-9424cb704d5c","ios":"levelo://app?vid=2a9feafd-1a90-4e49-8b52-9424cb704d5c"},"vehicle_type_id":"4","last_reported":1702584481,"current_range_meters":27600,"station_id":"ce4bhph2rcd13ifvqhdg","pricing_plan_id":"free"},{"bike_id":"9128feaf-36b8-4e63-849f-ccc68f896dc0","system_id":"levelo_inurba_marseille","lat":43.295523,"lon":5.422926,"is_reserved":false,"is_disabled":false,"rental_uris":{"android":"levelo://app?vid=9128feaf-36b8-4e63-849f-ccc68f896dc0","ios":"levelo://app?vid=9128feaf-36b8-4e63-849f-ccc68f896dc0"},"vehicle_type_id":"4","last_reported":1702584481,"current_range_meters":26800,"station_id":"ce4bhph2rcd13ifvqhdg","pricing_plan_id":"free"},{"bike_id":"917fea83-5adb-4540-ab16-471835e4c1f9","system_id":"levelo_inurba_marseille","lat":43.295511,"lon":5.422926,"is_reserved":false,"is_disabled":false,"rental_uris":{"android":"levelo://app?vid=917fea83-5adb-4540-ab16-471835e4c1f9","ios":"levelo://app?vid=917fea83-5adb-4540-ab16-471835e4c1f9"},"vehicle_type_id":"4","last_reported":1702584481,"current_range_meters":30000,"station_id":"ce4bhph2rcd13ifvqhdg","pricing_plan_id":"free"},{"bike_id":"0fdd36e0-a97d-4931-83bd-dc41afbd80cb","system_id":"levelo_inurba_marseille","lat":43.295511,"lon":5.422926,"is_reserved":false,"is_disabled":false,"rental_uris":{"android":"levelo://app?vid=0fdd36e0-a97d-4931-83bd-dc41afbd80cb","ios":"levelo://app?vid=0fdd36e0-a97d-4931-83bd-dc41afbd80cb"},"vehicle_type_id":"4","last_reported":1702584481,"current_range_meters":29200,"station_id":"ce4bhph2rcd13ifvqhdg","pricing_plan_id":"free"},{"bike_id":"94984fc3-6575-498f-bb52-e6c05e1c5e4b","system_id":"levelo_inurba_marseille","lat":43.295611,"lon":5.422963,"is_reserved":false,"is_disabled":false,"rental_uris":{"android":"levelo://app?vid=94984fc3-6575-498f-bb52-e6c05e1c5e4b","ios":"levelo://app?vid=94984fc3-6575-498f-bb52-e6c05e1c5e4b"},"vehicle_type_id":"4","last_reported":1702584481,"current_range_meters":27600,"station_id":"","pricing_plan_id":"free"},{"bike_id":"671a0376-a68e-4ed4-bca2-c8441c2ffbc3","system_id":"levelo_inurba_marseille","lat":43.295596,"lon":5.422955,"is_reserved":false,"is_disabled":false,"rental_uris":{"android":"levelo://app?vid=671a0376-a68e-4ed4-bca2-c8441c2ffbc3","ios":"levelo://app?vid=671a0376-a68e-4ed4-bca2-c8441c2ffbc3"},"vehicle_type_id":"4","last_reported":1702584481,"current_range_meters":28800,"station_id":"","pricing_plan_id":"free"},{"bike_id":"b4a40c2a-def9-4060-9675-c2dbe66bc4d7","system_id":"levelo_inurba_marseille","lat":43.295563,"lon":5.422937,"is_reserved":false,"is_disabled":false,"rental_uris":{"android":"levelo://app?vid=b4a40c2a-def9-4060-9675-c2dbe66bc4d7","ios":"levelo://app?vid=b4a40c2a-def9-4060-9675-c2dbe66bc4d7"},"vehicle_type_id":"4","last_reported":1702584481,"current_range_meters":27600,"station_id":"","pricing_plan_id":"free"},{"bike_id":"22ed5523-fd98-43e1-841a-4ae40168a6d2","system_id":"levelo_inurba_marseille","lat":43.295565,"lon":5.422941,"is_reserved":false,"is_disabled":false,"rental_uris":{"android":"levelo://app?vid=22ed5523-fd98-43e1-841a-4ae40168a6d2","ios":"levelo://app?vid=22ed5523-fd98-43e1-841a-4ae40168a6d2"},"vehicle_type_id":"4","last_reported":1702584481,"current_range_meters":27600,"station_id":"","pricing_plan_id":"free"},{"bike_id":"542d5303-5312-404d-bbef-63ecb3d55d90","system_id":"levelo_inurba_marseille","lat":43.295602,"lon":5.422969,"is_reserved":false,"is_disabled":false,"rental_uris":{"android":"levelo://app?vid=542d5303-5312-404d-bbef-63ecb3d55d90","ios":"levelo://app?vid=542d5303-5312-404d-bbef-63ecb3d55d90"},"vehicle_type_id":"4","last_reported":1702584481,"current_range_meters":28400,"station_id":"","pricing_plan_id":"free"},{"bike_id":"d43a6c68-3d77-46ad-ab6a-a7e95b7f3466","system_id":"levelo_inurba_marseille","lat":43.295555,"lon":5.422944,"is_reserved":false,"is_disabled":false,"rental_uris":{"android":"levelo://app?vid=d43a6c68-3d77-46ad-ab6a-a7e95b7f3466","ios":"levelo://app?vid=d43a6c68-3d77-46ad-ab6a-a7e95b7f3466"},"vehicle_type_id":"4","last_reported":1702584481,"current_range_meters":28400,"station_id":"","pricing_plan_id":"free"},{"bike_id":"1d2472e2-350f-44fa-a627-38e6bb5829da","system_id":"levelo_inurba_marseille","lat":43.295511,"lon":5.422926,"is_reserved":false,"is_disabled":false,"rental_uris":{"android":"levelo://app?vid=1d2472e2-350f-44fa-a627-38e6bb5829da","ios":"levelo://app?vid=1d2472e2-350f-44fa-a627-38e6bb5829da"},"vehicle_type_id":"4","last_reported":1702584481,"current_range_meters":26800,"station_id":"ce4bhph2rcd13ifvqhdg","pricing_plan_id":"free"},{"bike_id":"13136e7b-17d5-41a3-baf1-84312a187446","system_id":"levelo_inurba_marseille","lat":43.278128,"lon":5.407195,"is_reserved":false,"is_disabled":false,"rental_uris":{"android":"levelo://app?vid=13136e7b-17d5-41a3-baf1-84312a187446","ios":"levelo://app?vid=13136e7b-17d5-41a3-baf1-84312a187446"},"vehicle_type_id":"4","last_reported":1702584481,"current_range_meters":14800,"station_id":"ce4bhnh2rcd13ifvqgtg","pricing_plan_id":"free"},{"bike_id":"cf31a53e-dc23-4b88-b22b-12438dc29d2b","system_id":"levelo_inurba_marseille","lat":43.27816,"lon":5.40709,"is_reserved":false,"is_disabled":false,"rental_uris":{"android":"levelo://app?vid=cf31a53e-dc23-4b88-b22b-12438dc29d2b","ios":"levelo://app?vid=cf31a53e-dc23-4b88-b22b-12438dc29d2b"},"vehicle_type_id":"4","last_reported":1702584481,"current_range_meters":26000,"station_id":"ce4bhnh2rcd13ifvqgtg","pricing_plan_id":"free"},{"bike_id":"744d0915-676f-445e-8051-ce5abddae6b8","system_id":"levelo_inurba_marseille","lat":43.278128,"lon":5.407195,"is_reserved":false,"is_disabled":false,"rental_uris":{"android":"levelo://app?vid=744d0915-676f-445e-8051-ce5abddae6b8","ios":"levelo://app?vid=744d0915-676f-445e-8051-ce5abddae6b8"},"vehicle_type_id":"4","last_reported":1702584481,"current_range_meters":7200,"station_id":"ce4bhnh2rcd13ifvqgtg","pricing_plan_id":"free"},{"bike_id":"fc10e7a2-ec87-4e2b-bf4a-451521878895","system_id":"levelo_inurba_marseille","lat":43.27817,"lon":5.40715,"is_reserved":false,"is_disabled":false,"rental_uris":{"android":"levelo://app?vid=fc10e7a2-ec87-4e2b-bf4a-451521878895","ios":"levelo://app?vid=fc10e7a2-ec87-4e2b-bf4a-451521878895"},"vehicle_type_id":"4","last_reported":1702584481,"current_range_meters":6400,"station_id":"ce4bhnh2rcd13ifvqgtg","pricing_plan_id":"free"},{"bike_id":"9ed8a8b0-adcb-4301-a90b-ada718e24e35","system_id":"levelo_inurba_marseille","lat":43.278128,"lon":5.407195,"is_reserved":false,"is_disabled":false,"rental_uris":{"android":"levelo://app?vid=9ed8a8b0-adcb-4301-a90b-ada718e24e35","ios":"levelo://app?vid=9ed8a8b0-adcb-4301-a90b-ada718e24e35"},"vehicle_type_id":"4","last_reported":1702584481,"current_range_meters":20000,"station_id":"ce4bhnh2rcd13ifvqgtg","pricing_plan_id":"free"},{"bike_id":"9295d241-3ede-4962-8e94-0b2831dbd578","system_id":"levelo_inurba_marseille","lat":43.27816,"lon":5.40715,"is_reserved":false,"is_disabled":false,"rental_uris":{"android":"levelo://app?vid=9295d241-3ede-4962-8e94-0b2831dbd578","ios":"levelo://app?vid=9295d241-3ede-4962-8e94-0b2831dbd578"},"vehicle_type_id":"4","last_reported":1702584481,"current_range_meters":14000,"station_id":"ce4bhnh2rcd13ifvqgtg","pricing_plan_id":"free"},{"bike_id":"6baecf9e-750f-4685-ba33-d33fd9cbfd22","system_id":"levelo_inurba_marseille","lat":43.278128,"lon":5.407195,"is_reserved":false,"is_disabled":false,"rental_uris":{"android":"levelo://app?vid=6baecf9e-750f-4685-ba33-d33fd9cbfd22","ios":"levelo://app?vid=6baecf9e-750f-4685-ba33-d33fd9cbfd22"},"vehicle_type_id":"4","last_reported":1702584481,"current_range_meters":12800,"station_id":"ce4bhnh2rcd13ifvqgtg","pricing_plan_id":"free"},{"bike_id":"b456735f-100f-4652-bb37-d18e0143abfa","system_id":"levelo_inurba_marseille","lat":43.27809,"lon":5.40713,"is_reserved":false,"is_disabled":false,"rental_uris":{"android":"levelo://app?vid=b456735f-100f-4652-bb37-d18e0143abfa","ios":"levelo://app?vid=b456735f-100f-4652-bb37-d18e0143abfa"},"vehicle_type_id":"4","last_reported":1702584481,"current_range_meters":27600,"station_id":"ce4bhnh2rcd13ifvqgtg","pricing_plan_id":"free"},{"bike_id":"7c04fe55-b67d-4879-8a75-ecd5681064b4","system_id":"levelo_inurba_marseille","lat":43.269467,"lon":5.386439,"is_reserved":false,"is_disabled":false,"rental_uris":{"android":"levelo://app?vid=7c04fe55-b67d-4879-8a75-ecd5681064b4","ios":"levelo://app?vid=7c04fe55-b67d-4879-8a75-ecd5681064b4"},"vehicle_type_id":"4","last_reported":1702584481,"current_range_meters":25600,"station_id":"ce4bhh92rcd13ifvqfh0","pricing_plan_id":"free"},{"bike_id":"9d3626e2-a890-4a78-a9b0-9d72e6a0fa82","system_id":"levelo_inurba_marseille","lat":43.27946,"lon":5.41045,"is_reserved":false,"is_disabled":false,"rental_uris":{"android":"levelo://app?vid=9d3626e2-a890-4a78-a9b0-9d72e6a0fa82","ios":"levelo://app?vid=9d3626e2-a890-4a78-a9b0-9d72e6a0fa82"},"vehicle_type_id":"4","last_reported":1702584481,"current_range_meters":0,"station_id":"ce4bhnp2rcd13ifvqh0g","pricing_plan_id":"free"},{"bike_id":"d6490142-0185-4ba6-808c-0226cdd3d3f2","system_id":"levelo_inurba_marseille","lat":43.269319,"lon":5.389397,"is_reserved":false,"is_disabled":false,"rental_uris":{"android":"levelo://app?vid=d6490142-0185-4ba6-808c-0226cdd3d3f2","ios":"levelo://app?vid=d6490142-0185-4ba6-808c-0226cdd3d3f2"},"vehicle_type_id":"4","last_reported":1702584481,"current_range_meters":17600,"station_id":"ce4bhhh2rcd13ifvqfl0","pricing_plan_id":"free"},{"bike_id":"04b3d846-1da3-4e37-aa5f-d8bcc257dd52","system_id":"levelo_inurba_marseille","lat":43.270144,"lon":5.39288,"is_reserved":false,"is_disabled":false,"rental_uris":{"android":"levelo://app?vid=04b3d846-1da3-4e37-aa5f-d8bcc257dd52","ios":"levelo://app?vid=04b3d846-1da3-4e37-aa5f-d8bcc257dd52"},"vehicle_type_id":"4","last_reported":1702584481,"current_range_meters":0,"station_id":"","pricing_plan_id":"free"},{"bike_id":"fdbb2a64-718f-4c24-aecd-2168521f221f","system_id":"levelo_inurba_marseille","lat":43.27996,"lon":5.416624,"is_reserved":false,"is_disabled":false,"rental_uris":{"android":"levelo://app?vid=fdbb2a64-718f-4c24-aecd-2168521f221f","ios":"levelo://app?vid=fdbb2a64-718f-4c24-aecd-2168521f221f"},"vehicle_type_id":"4","last_reported":1702584481,"current_range_meters":25200,"station_id":"ce4bho12rcd13ifvqh1g","pricing_plan_id":"free"},{"bike_id":"2f3ae98b-5f46-4220-908d-4710e201f70d","system_id":"levelo_inurba_marseille","lat":43.2679,"lon":5.39412,"is_reserved":false,"is_disabled":false,"rental_uris":{"android":"levelo://app?vid=2f3ae98b-5f46-4220-908d-4710e201f70d","ios":"levelo://app?vid=2f3ae98b-5f46-4220-908d-4710e201f70d"},"vehicle_type_id":"4","last_reported":1702584481,"current_range_meters":0,"station_id":"ce4bhh12rcd13ifvqfg0","pricing_plan_id":"free"},{"bike_id":"a7d917d7-bcd4-415f-8c63-be3eb13b1ec9","system_id":"levelo_inurba_marseille","lat":43.267966,"lon":5.393976,"is_reserved":false,"is_disabled":false,"rental_uris":{"android":"levelo://app?vid=a7d917d7-bcd4-415f-8c63-be3eb13b1ec9","ios":"levelo://app?vid=a7d917d7-bcd4-415f-8c63-be3eb13b1ec9"},"vehicle_type_id":"4","last_reported":1702584481,"current_range_meters":27600,"station_id":"ce4bhh12rcd13ifvqfg0","pricing_plan_id":"free"},{"bike_id":"4523d6b4-723d-4e6d-b630-f2d7c9beed94","system_id":"levelo_inurba_marseille","lat":43.267966,"lon":5.393976,"is_reserved":false,"is_disabled":false,"rental_uris":{"android":"levelo://app?vid=4523d6b4-723d-4e6d-b630-f2d7c9beed94","ios":"levelo://app?vid=4523d6b4-723d-4e6d-b630-f2d7c9beed94"},"vehicle_type_id":"4","last_reported":1702584481,"current_range_meters":25200,"station_id":"ce4bhh12rcd13ifvqfg0","pricing_plan_id":"free"},{"bike_id":"13ebd3e7-28fb-4ddf-8641-5d128239559a","system_id":"levelo_inurba_marseille","lat":43.26788,"lon":5.394184,"is_reserved":false,"is_disabled":false,"rental_uris":{"android":"levelo://app?vid=13ebd3e7-28fb-4ddf-8641-5d128239559a","ios":"levelo://app?vid=13ebd3e7-28fb-4ddf-8641-5d128239559a"},"vehicle_type_id":"4","last_reported":1702584481,"current_range_meters":27600,"station_id":"","pricing_plan_id":"free"},{"bike_id":"44afa665-775f-4375-835e-ef5eb5907301","system_id":"levelo_inurba_marseille","lat":43.267966,"lon":5.393976,"is_reserved":false,"is_disabled":false,"rental_uris":{"android":"levelo://app?vid=44afa665-775f-4375-835e-ef5eb5907301","ios":"levelo://app?vid=44afa665-775f-4375-835e-ef5eb5907301"},"vehicle_type_id":"4","last_reported":1702584481,"current_range_meters":30400,"station_id":"ce4bhh12rcd13ifvqfg0","pricing_plan_id":"free"},{"bike_id":"4899937b-1aa0-41dd-9438-edf20f00103d","system_id":"levelo_inurba_marseille","lat":43.267966,"lon":5.393976,"is_reserved":false,"is_disabled":false,"rental_uris":{"android":"levelo://app?vid=4899937b-1aa0-41dd-9438-edf20f00103d","ios":"levelo://app?vid=4899937b-1aa0-41dd-9438-edf20f00103d"},"vehicle_type_id":"4","last_reported":1702584481,"current_range_meters":31200,"station_id":"ce4bhh12rcd13ifvqfg0","pricing_plan_id":"free"},{"bike_id":"e6b6b285-2f98-49b9-a28a-25cb70c91c27","system_id":"levelo_inurba_marseille","lat":43.265569,"lon":5.390047,"is_reserved":false,"is_disabled":false,"rental_uris":{"android":"levelo://app?vid=e6b6b285-2f98-49b9-a28a-25cb70c91c27","ios":"levelo://app?vid=e6b6b285-2f98-49b9-a28a-25cb70c91c27"},"vehicle_type_id":"4","last_reported":1702584481,"current_range_meters":0,"station_id":"ce4bhe12rcd13ifvqf30","pricing_plan_id":"free"},{"bike_id":"6608fb5f-c34b-40e1-8d57-c8fe1c96c99e","system_id":"levelo_inurba_marseille","lat":43.265633,"lon":5.390021,"is_reserved":false,"is_disabled":false,"rental_uris":{"android":"levelo://app?vid=6608fb5f-c34b-40e1-8d57-c8fe1c96c99e","ios":"levelo://app?vid=6608fb5f-c34b-40e1-8d57-c8fe1c96c99e"},"vehicle_type_id":"4","last_reported":1702584481,"current_range_meters":0,"station_id":"ce4bhe12rcd13ifvqf30","pricing_plan_id":"free"},{"bike_id":"c8960cf5-0f39-485f-a39f-b8dd41e6d2b2","system_id":"levelo_inurba_marseille","lat":43.26949,"lon":5.40262,"is_reserved":false,"is_disabled":false,"rental_uris":{"android":"levelo://app?vid=c8960cf5-0f39-485f-a39f-b8dd41e6d2b2","ios":"levelo://app?vid=c8960cf5-0f39-485f-a39f-b8dd41e6d2b2"},"vehicle_type_id":"4","last_reported":1702584481,"current_range_meters":16800,"station_id":"cjm6bp8fraef2m0cb0m0","pricing_plan_id":"free"},{"bike_id":"947fba86-9304-4947-b723-61af2691f59e","system_id":"levelo_inurba_marseille","lat":43.261782,"lon":5.374515,"is_reserved":false,"is_disabled":false,"rental_uris":{"android":"levelo://app?vid=947fba86-9304-4947-b723-61af2691f59e","ios":"levelo://app?vid=947fba86-9304-4947-b723-61af2691f59e"},"vehicle_type_id":"4","last_reported":1702584481,"current_range_meters":21600,"station_id":"ce4bhgp2rcd13ifvqfc0","pricing_plan_id":"free"},{"bike_id":"dcd51afc-e0ea-40ce-a3ed-c5c9a2a1a2ae","system_id":"levelo_inurba_marseille","lat":43.317104,"lon":5.436818,"is_reserved":false,"is_disabled":false,"rental_uris":{"android":"levelo://app?vid=dcd51afc-e0ea-40ce-a3ed-c5c9a2a1a2ae","ios":"levelo://app?vid=dcd51afc-e0ea-40ce-a3ed-c5c9a2a1a2ae"},"vehicle_type_id":"4","last_reported":1702584481,"current_range_meters":26400,"station_id":"ce4bhp92rcd13ifvqhcg","pricing_plan_id":"free"},{"bike_id":"7f84783e-5acd-446e-9626-60df6c193f32","system_id":"levelo_inurba_marseille","lat":43.261782,"lon":5.374515,"is_reserved":false,"is_disabled":false,"rental_uris":{"android":"levelo://app?vid=7f84783e-5acd-446e-9626-60df6c193f32","ios":"levelo://app?vid=7f84783e-5acd-446e-9626-60df6c193f32"},"vehicle_type_id":"4","last_reported":1702584481,"current_range_meters":12800,"station_id":"ce4bhgp2rcd13ifvqfc0","pricing_plan_id":"free"},{"bike_id":"348ca18b-dc25-4114-a3c8-d759b407f807","system_id":"levelo_inurba_marseille","lat":43.271388,"lon":5.409269,"is_reserved":false,"is_disabled":false,"rental_uris":{"android":"levelo://app?vid=348ca18b-dc25-4114-a3c8-d759b407f807","ios":"levelo://app?vid=348ca18b-dc25-4114-a3c8-d759b407f807"},"vehicle_type_id":"4","last_reported":1702584481,"current_range_meters":26800,"station_id":"ce4bhl12rcd13ifvqgf0","pricing_plan_id":"free"},{"bike_id":"2d4df44c-723e-4b54-a8fd-79a73e16deb6","system_id":"levelo_inurba_marseille","lat":43.27172,"lon":5.40993,"is_reserved":false,"is_disabled":false,"rental_uris":{"android":"levelo://app?vid=2d4df44c-723e-4b54-a8fd-79a73e16deb6","ios":"levelo://app?vid=2d4df44c-723e-4b54-a8fd-79a73e16deb6"},"vehicle_type_id":"4","last_reported":1702584481,"current_range_meters":30000,"station_id":"ce4bhl12rcd13ifvqgf0","pricing_plan_id":"free"},{"bike_id":"13f7afe0-4d90-4591-9ac6-18730f52d7f9","system_id":"levelo_inurba_marseille","lat":43.271749,"lon":5.409997,"is_reserved":false,"is_disabled":false,"rental_uris":{"android":"levelo://app?vid=13f7afe0-4d90-4591-9ac6-18730f52d7f9","ios":"levelo://app?vid=13f7afe0-4d90-4591-9ac6-18730f52d7f9"},"vehicle_type_id":"4","last_reported":1702584481,"current_range_meters":30400,"station_id":"ce4bhl12rcd13ifvqgf0","pricing_plan_id":"free"},{"bike_id":"e08cb7a0-f6bd-4a79-b1de-9d6a715917f8","system_id":"levelo_inurba_marseille","lat":43.29897,"lon":5.4366,"is_reserved":false,"is_disabled":false,"rental_uris":{"android":"levelo://app?vid=e08cb7a0-f6bd-4a79-b1de-9d6a715917f8","ios":"levelo://app?vid=e08cb7a0-f6bd-4a79-b1de-9d6a715917f8"},"vehicle_type_id":"4","last_reported":1702584481,"current_range_meters":14800,"station_id":"ce4bhpp2rcd13ifvqhfg","pricing_plan_id":"free"},{"bike_id":"0905945f-74c2-4bce-b51c-70befd2c9e4a","system_id":"levelo_inurba_marseille","lat":43.298768,"lon":5.43643,"is_reserved":false,"is_disabled":false,"rental_uris":{"android":"levelo://app?vid=0905945f-74c2-4bce-b51c-70befd2c9e4a","ios":"levelo://app?vid=0905945f-74c2-4bce-b51c-70befd2c9e4a"},"vehicle_type_id":"4","last_reported":1702584481,"current_range_meters":28800,"station_id":"ce4bhpp2rcd13ifvqhfg","pricing_plan_id":"free"},{"bike_id":"bc029538-d190-4438-a7fa-a5ba24eea074","system_id":"levelo_inurba_marseille","lat":43.298996,"lon":5.43674,"is_reserved":false,"is_disabled":false,"rental_uris":{"android":"levelo://app?vid=bc029538-d190-4438-a7fa-a5ba24eea074","ios":"levelo://app?vid=bc029538-d190-4438-a7fa-a5ba24eea074"},"vehicle_type_id":"4","last_reported":1702584481,"current_range_meters":26400,"station_id":"ce4bhpp2rcd13ifvqhfg","pricing_plan_id":"free"},{"bike_id":"bb23b0f9-4a05-46ea-86dc-f44b10b41b80","system_id":"levelo_inurba_marseille","lat":43.281548,"lon":5.42643,"is_reserved":false,"is_disabled":false,"rental_uris":{"android":"levelo://app?vid=bb23b0f9-4a05-46ea-86dc-f44b10b41b80","ios":"levelo://app?vid=bb23b0f9-4a05-46ea-86dc-f44b10b41b80"},"vehicle_type_id":"4","last_reported":1702584481,"current_range_meters":4000,"station_id":"ce4bhnh2rcd13ifvqgug","pricing_plan_id":"free"},{"bike_id":"47c09f4d-b026-488b-88bd-d86fe61e55ad","system_id":"levelo_inurba_marseille","lat":43.281548,"lon":5.42643,"is_reserved":false,"is_disabled":false,"rental_uris":{"android":"levelo://app?vid=47c09f4d-b026-488b-88bd-d86fe61e55ad","ios":"levelo://app?vid=47c09f4d-b026-488b-88bd-d86fe61e55ad"},"vehicle_type_id":"4","last_reported":1702584481,"current_range_meters":31600,"station_id":"ce4bhnh2rcd13ifvqgug","pricing_plan_id":"free"},{"bike_id":"0a0ed8c3-e8f3-4bb3-ac6f-18ed8eb40c0a","system_id":"levelo_inurba_marseille","lat":43.281548,"lon":5.42643,"is_reserved":false,"is_disabled":false,"rental_uris":{"android":"levelo://app?vid=0a0ed8c3-e8f3-4bb3-ac6f-18ed8eb40c0a","ios":"levelo://app?vid=0a0ed8c3-e8f3-4bb3-ac6f-18ed8eb40c0a"},"vehicle_type_id":"4","last_reported":1702584481,"current_range_meters":27200,"station_id":"ce4bhnh2rcd13ifvqgug","pricing_plan_id":"free"},{"bike_id":"e1a4e7f2-d6c9-431f-9be0-2c76848eb849","system_id":"levelo_inurba_marseille","lat":43.281548,"lon":5.42643,"is_reserved":false,"is_disabled":false,"rental_uris":{"android":"levelo://app?vid=e1a4e7f2-d6c9-431f-9be0-2c76848eb849","ios":"levelo://app?vid=e1a4e7f2-d6c9-431f-9be0-2c76848eb849"},"vehicle_type_id":"4","last_reported":1702584481,"current_range_meters":27600,"station_id":"ce4bhnh2rcd13ifvqgug","pricing_plan_id":"free"},{"bike_id":"e55a64e3-e75f-481c-b8d4-c6a102af8126","system_id":"levelo_inurba_marseille","lat":43.2607,"lon":5.393983,"is_reserved":false,"is_disabled":false,"rental_uris":{"android":"levelo://app?vid=e55a64e3-e75f-481c-b8d4-c6a102af8126","ios":"levelo://app?vid=e55a64e3-e75f-481c-b8d4-c6a102af8126"},"vehicle_type_id":"4","last_reported":1702584481,"current_range_meters":31600,"station_id":"ce4bhh92rcd13ifvqfj0","pricing_plan_id":"free"},{"bike_id":"5d46cd92-88bf-4cb5-b7cb-d458866fe9cb","system_id":"levelo_inurba_marseille","lat":43.260589,"lon":5.393997,"is_reserved":false,"is_disabled":false,"rental_uris":{"android":"levelo://app?vid=5d46cd92-88bf-4cb5-b7cb-d458866fe9cb","ios":"levelo://app?vid=5d46cd92-88bf-4cb5-b7cb-d458866fe9cb"},"vehicle_type_id":"4","last_reported":1702584481,"current_range_meters":25200,"station_id":"","pricing_plan_id":"free"},{"bike_id":"533ee132-8aa1-4d36-b523-3241fb14ca3d","system_id":"levelo_inurba_marseille","lat":43.260589,"lon":5.394002,"is_reserved":false,"is_disabled":false,"rental_uris":{"android":"levelo://app?vid=533ee132-8aa1-4d36-b523-3241fb14ca3d","ios":"levelo://app?vid=533ee132-8aa1-4d36-b523-3241fb14ca3d"},"vehicle_type_id":"4","last_reported":1702584481,"current_range_meters":27200,"station_id":"ce4bhh92rcd13ifvqfj0","pricing_plan_id":"free"},{"bike_id":"affded48-ee65-4fab-a684-c4a4ce0e3419","system_id":"levelo_inurba_marseille","lat":43.26059,"lon":5.394006,"is_reserved":false,"is_disabled":false,"rental_uris":{"android":"levelo://app?vid=affded48-ee65-4fab-a684-c4a4ce0e3419","ios":"levelo://app?vid=affded48-ee65-4fab-a684-c4a4ce0e3419"},"vehicle_type_id":"4","last_reported":1702584481,"current_range_meters":28400,"station_id":"ce4bhh92rcd13ifvqfj0","pricing_plan_id":"free"},{"bike_id":"68be7717-4c13-4c5a-88c8-b6e371874ffd","system_id":"levelo_inurba_marseille","lat":43.260587,"lon":5.394002,"is_reserved":false,"is_disabled":false,"rental_uris":{"android":"levelo://app?vid=68be7717-4c13-4c5a-88c8-b6e371874ffd","ios":"levelo://app?vid=68be7717-4c13-4c5a-88c8-b6e371874ffd"},"vehicle_type_id":"4","last_reported":1702584481,"current_range_meters":28000,"station_id":"ce4bhh92rcd13ifvqfj0","pricing_plan_id":"free"},{"bike_id":"e517cb32-0285-41f0-bf4b-4ccc22c9c0c1","system_id":"levelo_inurba_marseille","lat":43.26057,"lon":5.39395,"is_reserved":false,"is_disabled":false,"rental_uris":{"android":"levelo://app?vid=e517cb32-0285-41f0-bf4b-4ccc22c9c0c1","ios":"levelo://app?vid=e517cb32-0285-41f0-bf4b-4ccc22c9c0c1"},"vehicle_type_id":"4","last_reported":1702584481,"current_range_meters":29600,"station_id":"ce4bhh92rcd13ifvqfj0","pricing_plan_id":"free"},{"bike_id":"7b2e0fe9-ea1a-4096-b2f3-26186828e2f8","system_id":"levelo_inurba_marseille","lat":43.2607,"lon":5.393983,"is_reserved":false,"is_disabled":false,"rental_uris":{"android":"levelo://app?vid=7b2e0fe9-ea1a-4096-b2f3-26186828e2f8","ios":"levelo://app?vid=7b2e0fe9-ea1a-4096-b2f3-26186828e2f8"},"vehicle_type_id":"4","last_reported":1702584481,"current_range_meters":20400,"station_id":"ce4bhh92rcd13ifvqfj0","pricing_plan_id":"free"},{"bike_id":"c48f1942-51df-49d6-9b2f-54da842fee5b","system_id":"levelo_inurba_marseille","lat":43.258205,"lon":5.394369,"is_reserved":false,"is_disabled":false,"rental_uris":{"android":"levelo://app?vid=c48f1942-51df-49d6-9b2f-54da842fee5b","ios":"levelo://app?vid=c48f1942-51df-49d6-9b2f-54da842fee5b"},"vehicle_type_id":"4","last_reported":1702584481,"current_range_meters":22800,"station_id":"ce4bhip2rcd13ifvqft0","pricing_plan_id":"free"},{"bike_id":"0c1eb7a0-16fd-4f5d-8686-326e83041a35","system_id":"levelo_inurba_marseille","lat":43.25581,"lon":5.38233,"is_reserved":false,"is_disabled":false,"rental_uris":{"android":"levelo://app?vid=0c1eb7a0-16fd-4f5d-8686-326e83041a35","ios":"levelo://app?vid=0c1eb7a0-16fd-4f5d-8686-326e83041a35"},"vehicle_type_id":"4","last_reported":1702584481,"current_range_meters":0,"station_id":"ce4bhih2rcd13ifvqfs0","pricing_plan_id":"free"},{"bike_id":"8834b350-77fd-4efb-a3f5-5787c412c375","system_id":"levelo_inurba_marseille","lat":43.25574,"lon":5.38238,"is_reserved":false,"is_disabled":false,"rental_uris":{"android":"levelo://app?vid=8834b350-77fd-4efb-a3f5-5787c412c375","ios":"levelo://app?vid=8834b350-77fd-4efb-a3f5-5787c412c375"},"vehicle_type_id":"4","last_reported":1702584481,"current_range_meters":9600,"station_id":"ce4bhih2rcd13ifvqfs0","pricing_plan_id":"free"},{"bike_id":"eb51775d-e0fb-4c47-896b-b998110b41b9","system_id":"levelo_inurba_marseille","lat":43.270721,"lon":5.422764,"is_reserved":false,"is_disabled":false,"rental_uris":{"android":"levelo://app?vid=eb51775d-e0fb-4c47-896b-b998110b41b9","ios":"levelo://app?vid=eb51775d-e0fb-4c47-896b-b998110b41b9"},"vehicle_type_id":"4","last_reported":1702584481,"current_range_meters":30800,"station_id":"ce4bhk92rcd13ifvqgb0","pricing_plan_id":"free"},{"bike_id":"61704d63-2136-4d14-9494-2592e6c53b72","system_id":"levelo_inurba_marseille","lat":43.258658,"lon":5.398935,"is_reserved":false,"is_disabled":false,"rental_uris":{"android":"levelo://app?vid=61704d63-2136-4d14-9494-2592e6c53b72","ios":"levelo://app?vid=61704d63-2136-4d14-9494-2592e6c53b72"},"vehicle_type_id":"4","last_reported":1702584481,"current_range_meters":24000,"station_id":"ce4bhl92rcd13ifvqghg","pricing_plan_id":"free"},{"bike_id":"c26151e8-8d77-4365-861f-d6b3750fe3d4","system_id":"levelo_inurba_marseille","lat":43.258658,"lon":5.398935,"is_reserved":false,"is_disabled":false,"rental_uris":{"android":"levelo://app?vid=c26151e8-8d77-4365-861f-d6b3750fe3d4","ios":"levelo://app?vid=c26151e8-8d77-4365-861f-d6b3750fe3d4"},"vehicle_type_id":"4","last_reported":1702584481,"current_range_meters":30800,"station_id":"ce4bhl92rcd13ifvqghg","pricing_plan_id":"free"},{"bike_id":"87ffd965-dc16-48a8-ada2-571a9f81385b","system_id":"levelo_inurba_marseille","lat":43.257079,"lon":5.411051,"is_reserved":false,"is_disabled":false,"rental_uris":{"android":"levelo://app?vid=87ffd965-dc16-48a8-ada2-571a9f81385b","ios":"levelo://app?vid=87ffd965-dc16-48a8-ada2-571a9f81385b"},"vehicle_type_id":"4","last_reported":1702584481,"current_range_meters":22400,"station_id":"ce4bhkp2rcd13ifvqgd0","pricing_plan_id":"free"},{"bike_id":"db74abbc-1cad-4d35-a343-95f8207db7a7","system_id":"levelo_inurba_marseille","lat":43.257079,"lon":5.411051,"is_reserved":false,"is_disabled":false,"rental_uris":{"android":"levelo://app?vid=db74abbc-1cad-4d35-a343-95f8207db7a7","ios":"levelo://app?vid=db74abbc-1cad-4d35-a343-95f8207db7a7"},"vehicle_type_id":"4","last_reported":1702584481,"current_range_meters":8400,"station_id":"ce4bhkp2rcd13ifvqgd0","pricing_plan_id":"free"},{"bike_id":"03bc1e3f-e9ac-4782-8cfd-d76be499a5e5","system_id":"levelo_inurba_marseille","lat":43.250009,"lon":5.389195,"is_reserved":false,"is_disabled":false,"rental_uris":{"android":"levelo://app?vid=03bc1e3f-e9ac-4782-8cfd-d76be499a5e5","ios":"levelo://app?vid=03bc1e3f-e9ac-4782-8cfd-d76be499a5e5"},"vehicle_type_id":"4","last_reported":1702584481,"current_range_meters":31600,"station_id":"ce4bhgp2rcd13ifvqfd0","pricing_plan_id":"free"},{"bike_id":"17791fc0-eaa7-4aa4-a21b-ff72dc2b3fa0","system_id":"levelo_inurba_marseille","lat":43.250023,"lon":5.38919,"is_reserved":false,"is_disabled":false,"rental_uris":{"android":"levelo://app?vid=17791fc0-eaa7-4aa4-a21b-ff72dc2b3fa0","ios":"levelo://app?vid=17791fc0-eaa7-4aa4-a21b-ff72dc2b3fa0"},"vehicle_type_id":"4","last_reported":1702584481,"current_range_meters":30800,"station_id":"ce4bhgp2rcd13ifvqfd0","pricing_plan_id":"free"},{"bike_id":"d769b6a5-689d-414a-a1f5-8f83adb62c40","system_id":"levelo_inurba_marseille","lat":43.250023,"lon":5.38919,"is_reserved":false,"is_disabled":false,"rental_uris":{"android":"levelo://app?vid=d769b6a5-689d-414a-a1f5-8f83adb62c40","ios":"levelo://app?vid=d769b6a5-689d-414a-a1f5-8f83adb62c40"},"vehicle_type_id":"4","last_reported":1702584481,"current_range_meters":800,"station_id":"ce4bhgp2rcd13ifvqfd0","pricing_plan_id":"free"},{"bike_id":"a3203229-c6b3-4ac2-b503-9e8cdcb5301d","system_id":"levelo_inurba_marseille","lat":43.2479,"lon":5.374457,"is_reserved":false,"is_disabled":false,"rental_uris":{"android":"levelo://app?vid=a3203229-c6b3-4ac2-b503-9e8cdcb5301d","ios":"levelo://app?vid=a3203229-c6b3-4ac2-b503-9e8cdcb5301d"},"vehicle_type_id":"4","last_reported":1702584481,"current_range_meters":6000,"station_id":"ce4bhgh2rcd13ifvqfb0","pricing_plan_id":"free"},{"bike_id":"6a5adef6-b829-4c13-b631-464c92aa5d5a","system_id":"levelo_inurba_marseille","lat":43.2479,"lon":5.374457,"is_reserved":false,"is_disabled":false,"rental_uris":{"android":"levelo://app?vid=6a5adef6-b829-4c13-b631-464c92aa5d5a","ios":"levelo://app?vid=6a5adef6-b829-4c13-b631-464c92aa5d5a"},"vehicle_type_id":"4","last_reported":1702584481,"current_range_meters":5200,"station_id":"ce4bhgh2rcd13ifvqfb0","pricing_plan_id":"free"},{"bike_id":"41141c1c-d172-4264-ae0f-545f42a7f1d0","system_id":"levelo_inurba_marseille","lat":43.250966,"lon":5.395186,"is_reserved":false,"is_disabled":false,"rental_uris":{"android":"levelo://app?vid=41141c1c-d172-4264-ae0f-545f42a7f1d0","ios":"levelo://app?vid=41141c1c-d172-4264-ae0f-545f42a7f1d0"},"vehicle_type_id":"4","last_reported":1702584481,"current_range_meters":31200,"station_id":"ce4bhm12rcd13ifvqgkg","pricing_plan_id":"free"},{"bike_id":"26e81863-3862-4183-b961-29d3e5c4dd74","system_id":"levelo_inurba_marseille","lat":43.25102,"lon":5.403214,"is_reserved":false,"is_disabled":false,"rental_uris":{"android":"levelo://app?vid=26e81863-3862-4183-b961-29d3e5c4dd74","ios":"levelo://app?vid=26e81863-3862-4183-b961-29d3e5c4dd74"},"vehicle_type_id":"4","last_reported":1702584481,"current_range_meters":5200,"station_id":"ce4bhlh2rcd13ifvqgig","pricing_plan_id":"free"},{"bike_id":"82a49deb-b692-4756-8c93-1ec80849cab4","system_id":"levelo_inurba_marseille","lat":43.25102,"lon":5.403214,"is_reserved":false,"is_disabled":false,"rental_uris":{"android":"levelo://app?vid=82a49deb-b692-4756-8c93-1ec80849cab4","ios":"levelo://app?vid=82a49deb-b692-4756-8c93-1ec80849cab4"},"vehicle_type_id":"4","last_reported":1702584481,"current_range_meters":29200,"station_id":"ce4bhlh2rcd13ifvqgig","pricing_plan_id":"free"},{"bike_id":"fb1f4664-a47d-4968-a27b-55a0b3545374","system_id":"levelo_inurba_marseille","lat":43.246461,"lon":5.389014,"is_reserved":false,"is_disabled":false,"rental_uris":{"android":"levelo://app?vid=fb1f4664-a47d-4968-a27b-55a0b3545374","ios":"levelo://app?vid=fb1f4664-a47d-4968-a27b-55a0b3545374"},"vehicle_type_id":"4","last_reported":1702584481,"current_range_meters":15200,"station_id":"ce4bhg12rcd13ifvqf60","pricing_plan_id":"free"},{"bike_id":"943e52e8-36d7-4fec-9ddf-e07fe42c8d89","system_id":"levelo_inurba_marseille","lat":43.246461,"lon":5.389014,"is_reserved":false,"is_disabled":false,"rental_uris":{"android":"levelo://app?vid=943e52e8-36d7-4fec-9ddf-e07fe42c8d89","ios":"levelo://app?vid=943e52e8-36d7-4fec-9ddf-e07fe42c8d89"},"vehicle_type_id":"4","last_reported":1702584481,"current_range_meters":28000,"station_id":"ce4bhg12rcd13ifvqf60","pricing_plan_id":"free"},{"bike_id":"5eb01d94-3892-4fb0-a32e-89738077499a","system_id":"levelo_inurba_marseille","lat":43.245581,"lon":5.395069,"is_reserved":false,"is_disabled":false,"rental_uris":{"android":"levelo://app?vid=5eb01d94-3892-4fb0-a32e-89738077499a","ios":"levelo://app?vid=5eb01d94-3892-4fb0-a32e-89738077499a"},"vehicle_type_id":"4","last_reported":1702584481,"current_range_meters":3200,"station_id":"ce4bhlp2rcd13ifvqgjg","pricing_plan_id":"free"},{"bike_id":"e5ef8c4d-c866-42b3-aabb-30e0e5562645","system_id":"levelo_inurba_marseille","lat":43.245581,"lon":5.395069,"is_reserved":false,"is_disabled":false,"rental_uris":{"android":"levelo://app?vid=e5ef8c4d-c866-42b3-aabb-30e0e5562645","ios":"levelo://app?vid=e5ef8c4d-c866-42b3-aabb-30e0e5562645"},"vehicle_type_id":"4","last_reported":1702584481,"current_range_meters":16000,"station_id":"ce4bhlp2rcd13ifvqgjg","pricing_plan_id":"free"},{"bike_id":"8dd33327-9ce5-4480-9af1-9df1e94a9d5c","system_id":"levelo_inurba_marseille","lat":43.240623,"lon":5.377642,"is_reserved":false,"is_disabled":false,"rental_uris":{"android":"levelo://app?vid=8dd33327-9ce5-4480-9af1-9df1e94a9d5c","ios":"levelo://app?vid=8dd33327-9ce5-4480-9af1-9df1e94a9d5c"},"vehicle_type_id":"4","last_reported":1702584481,"current_range_meters":2000,"station_id":"ce4bhnp2rcd13ifvqgvg","pricing_plan_id":"free"},{"bike_id":"89632fb2-e1f9-4894-8e38-bd39377b5553","system_id":"levelo_inurba_marseille","lat":43.240623,"lon":5.377642,"is_reserved":false,"is_disabled":false,"rental_uris":{"android":"levelo://app?vid=89632fb2-e1f9-4894-8e38-bd39377b5553","ios":"levelo://app?vid=89632fb2-e1f9-4894-8e38-bd39377b5553"},"vehicle_type_id":"4","last_reported":1702584481,"current_range_meters":2800,"station_id":"ce4bhnp2rcd13ifvqgvg","pricing_plan_id":"free"},{"bike_id":"5b8d13f6-72bc-4b42-9a79-cd90af386fbc","system_id":"levelo_inurba_marseille","lat":43.240623,"lon":5.377642,"is_reserved":false,"is_disabled":false,"rental_uris":{"android":"levelo://app?vid=5b8d13f6-72bc-4b42-9a79-cd90af386fbc","ios":"levelo://app?vid=5b8d13f6-72bc-4b42-9a79-cd90af386fbc"},"vehicle_type_id":"4","last_reported":1702584481,"current_range_meters":8800,"station_id":"ce4bhnp2rcd13ifvqgvg","pricing_plan_id":"free"},{"bike_id":"85e4fdcc-74f4-487c-954d-e4a8bb7b50b6","system_id":"levelo_inurba_marseille","lat":43.240623,"lon":5.377642,"is_reserved":false,"is_disabled":false,"rental_uris":{"android":"levelo://app?vid=85e4fdcc-74f4-487c-954d-e4a8bb7b50b6","ios":"levelo://app?vid=85e4fdcc-74f4-487c-954d-e4a8bb7b50b6"},"vehicle_type_id":"4","last_reported":1702584481,"current_range_meters":26400,"station_id":"ce4bhnp2rcd13ifvqgvg","pricing_plan_id":"free"},{"bike_id":"3a814a24-07d8-4e6f-9e30-e43634a525e4","system_id":"levelo_inurba_marseille","lat":43.23971,"lon":5.36628,"is_reserved":false,"is_disabled":false,"rental_uris":{"android":"levelo://app?vid=3a814a24-07d8-4e6f-9e30-e43634a525e4","ios":"levelo://app?vid=3a814a24-07d8-4e6f-9e30-e43634a525e4"},"vehicle_type_id":"4","last_reported":1702584481,"current_range_meters":6000,"station_id":"ce4bhi12rcd13ifvqfp0","pricing_plan_id":"free"},{"bike_id":"bcd74aac-4773-4f73-82ec-f04bc54e0461","system_id":"levelo_inurba_marseille","lat":43.239588,"lon":5.366238,"is_reserved":false,"is_disabled":false,"rental_uris":{"android":"levelo://app?vid=bcd74aac-4773-4f73-82ec-f04bc54e0461","ios":"levelo://app?vid=bcd74aac-4773-4f73-82ec-f04bc54e0461"},"vehicle_type_id":"4","last_reported":1702584481,"current_range_meters":10400,"station_id":"ce4bhi12rcd13ifvqfp0","pricing_plan_id":"free"},{"bike_id":"39bf9e7f-bd9e-46b0-84fb-a4482e6eaab3","system_id":"levelo_inurba_marseille","lat":43.239588,"lon":5.366238,"is_reserved":false,"is_disabled":false,"rental_uris":{"android":"levelo://app?vid=39bf9e7f-bd9e-46b0-84fb-a4482e6eaab3","ios":"levelo://app?vid=39bf9e7f-bd9e-46b0-84fb-a4482e6eaab3"},"vehicle_type_id":"4","last_reported":1702584481,"current_range_meters":28800,"station_id":"ce4bhi12rcd13ifvqfp0","pricing_plan_id":"free"},{"bike_id":"09e850ea-4841-45dc-8933-cb5bc12f1ec2","system_id":"levelo_inurba_marseille","lat":43.23966,"lon":5.3663,"is_reserved":false,"is_disabled":false,"rental_uris":{"android":"levelo://app?vid=09e850ea-4841-45dc-8933-cb5bc12f1ec2","ios":"levelo://app?vid=09e850ea-4841-45dc-8933-cb5bc12f1ec2"},"vehicle_type_id":"4","last_reported":1702584481,"current_range_meters":11200,"station_id":"ce4bhi12rcd13ifvqfp0","pricing_plan_id":"free"},{"bike_id":"417c4bb2-53a9-4a4c-a128-5a6478c52446","system_id":"levelo_inurba_marseille","lat":43.23965,"lon":5.3663,"is_reserved":false,"is_disabled":false,"rental_uris":{"android":"levelo://app?vid=417c4bb2-53a9-4a4c-a128-5a6478c52446","ios":"levelo://app?vid=417c4bb2-53a9-4a4c-a128-5a6478c52446"},"vehicle_type_id":"4","last_reported":1702584481,"current_range_meters":22800,"station_id":"ce4bhi12rcd13ifvqfp0","pricing_plan_id":"free"},{"bike_id":"1497ed62-688b-4d39-afdc-e76c42d6a7ae","system_id":"levelo_inurba_marseille","lat":43.239603,"lon":5.366256,"is_reserved":false,"is_disabled":false,"rental_uris":{"android":"levelo://app?vid=1497ed62-688b-4d39-afdc-e76c42d6a7ae","ios":"levelo://app?vid=1497ed62-688b-4d39-afdc-e76c42d6a7ae"},"vehicle_type_id":"4","last_reported":1702584481,"current_range_meters":24000,"station_id":"ce4bhi12rcd13ifvqfp0","pricing_plan_id":"free"},{"bike_id":"b7637a5b-0329-45a7-bcd6-35358b19e8bd","system_id":"levelo_inurba_marseille","lat":43.239588,"lon":5.366238,"is_reserved":false,"is_disabled":false,"rental_uris":{"android":"levelo://app?vid=b7637a5b-0329-45a7-bcd6-35358b19e8bd","ios":"levelo://app?vid=b7637a5b-0329-45a7-bcd6-35358b19e8bd"},"vehicle_type_id":"4","last_reported":1702584481,"current_range_meters":30800,"station_id":"ce4bhi12rcd13ifvqfp0","pricing_plan_id":"free"},{"bike_id":"48eef3e3-7f81-4336-bb58-59b8b1661a1f","system_id":"levelo_inurba_marseille","lat":43.23952,"lon":5.36644,"is_reserved":false,"is_disabled":false,"rental_uris":{"android":"levelo://app?vid=48eef3e3-7f81-4336-bb58-59b8b1661a1f","ios":"levelo://app?vid=48eef3e3-7f81-4336-bb58-59b8b1661a1f"},"vehicle_type_id":"4","last_reported":1702584481,"current_range_meters":13200,"station_id":"ce4bhi12rcd13ifvqfp0","pricing_plan_id":"free"},{"bike_id":"1c152701-4b2a-4bae-9910-af52ecb96d7d","system_id":"levelo_inurba_marseille","lat":43.231948,"lon":5.355552,"is_reserved":false,"is_disabled":false,"rental_uris":{"android":"levelo://app?vid=1c152701-4b2a-4bae-9910-af52ecb96d7d","ios":"levelo://app?vid=1c152701-4b2a-4bae-9910-af52ecb96d7d"},"vehicle_type_id":"4","last_reported":1702584481,"current_range_meters":18400,"station_id":"ce4bhu92rcd13ifvqi70","pricing_plan_id":"free"},