{"last_updated":1744784088,"ttl":60,"version":"2.2","data":{"bikes":[{"bike_id":"5a0b3a31-87cb-4dc6-bc8c-65a0b510adbb","system_id":"levelo_inurba_marseille","lat":43.27506,"lon":5.4244,"is_reserved":false,"is_disabled":false,"rental_uris":{"android":"levelo://app?vid=5a0b3a31-87cb-4dc6-bc8c-65a0b510adbb","ios":"levelo://app?vid=5a0b3a31-87cb-4dc6-bc8c-65a0b510adbb"},"vehicle_type_id":"4","last_reported":1744784089,"current_range_meters":2800,"station_id":"ce4bhn92rcd13ifvqgrg","pricing_plan_id":"cebpf4jnsgd1na2vs0mg"},{"bike_id":"f43ee2ef-323b-4592-9300-6e35081a5ef8","system_id":"levelo_inurba_marseille","lat":43.248009,"lon":5.374491,"is_reserved":false,"is_disabled":false,"rental_uris":{"android":"levelo://app?vid=f43ee2ef-323b-4592-9300-6e35081a5ef8","ios":"levelo://app?vid=f43ee2ef-323b-4592-9300-6e35081a5ef8"},"vehicle_type_id":"4","last_reported":1744784089,"current_range_meters":2800,"station_id":"ce4bhgh2rcd13ifvqfb0","pricing_plan_id":"cebpf4jnsgd1na2vs0mg"},{"bike_id":"1064b9a7-5947-42b0-b3ab-02b74ee64902","system_id":"levelo_inurba_marseille","lat":43.2501,"lon":5.38914,"is_reserved":false,"is_disabled":true,"rental_uris":{"android":"levelo://app?vid=1064b9a7-5947-42b0-b3ab-02b74ee64902","ios":"levelo://app?vid=1064b9a7-5947-42b0-b3ab-02b74ee64902"},"vehicle_type_id":"4","last_reported":1744784089,"current_range_meters":2800,"station_id":"ce4bhgp2rcd13ifvqfd0","pricing_plan_id":"cebpf4jnsgd1na2vs0mg"},{"bike_id":"5da6e9ca-8d0b-4134-8f15-74cf4bb9e26a","system_id":"levelo_inurba_marseille","lat":43.29201,"lon":5.358,"is_reserved":false,"is_disabled":true,"rental_uris":{"android":"levelo://app?vid=5da6e9ca-8d0b-4134-8f15-74cf4bb9e26a","ios":"levelo://app?vid=5da6e9ca-8d0b-4134-8f15-74cf4bb9e26a"},"vehicle_type_id":"4","last_reported":1744784089,"current_range_meters":3200,"station_id":"ce4bhb12rcd13ifvqel0","pricing_plan_id":"cebpf4jnsgd1na2vs0mg"},{"bike_id":"8fb9e7bc-8a04-4f5d-9440-892df4b1b295","system_id":"levelo_inurba_marseille","lat":43.309479,"lon":5.390329,"is_reserved":false,"is_disabled":true,"rental_uris":{"android":"levelo://app?vid=8fb9e7bc-8a04-4f5d-9440-892df4b1b295","ios":"levelo://app?vid=8fb9e7bc-8a04-4f5d-9440-892df4b1b295"},"vehicle_type_id":"4","last_reported":1744784089,"current_range_meters":3600,"station_id":"ce4bgup2rcd13ifvqco0","pricing_plan_id":"cebpf4jnsgd1na2vs0mg"},{"bike_id":"6e813554-554a-49dd-9009-02d95efd3de7","system_id":"levelo_inurba_marseille","lat":43.32427,"lon":5.3911,"is_reserved":false,"is_disabled":true,"rental_uris":{"android":"levelo://app?vid=6e813554-554a-49dd-9009-02d95efd3de7","ios":"levelo://app?vid=6e813554-554a-49dd-9009-02d95efd3de7"},"vehicle_type_id":"4","last_reported":1744784089,"current_range_meters":4000,"station_id":"","pricing_plan_id":"cebpf4jnsgd1na2vs0mg"},{"bike_id":"0e262e1d-d85f-4b85-9573-166962666f8f","system_id":"levelo_inurba_marseille","lat":43.270636,"lon":5.422769,"is_reserved":false,"is_disabled":false,"rental_uris":{"android":"levelo://app?vid=0e262e1d-d85f-4b85-9573-166962666f8f","ios":"levelo://app?vid=0e262e1d-d85f-4b85-9573-166962666f8f"},"vehicle_type_id":"4","last_reported":1744784089,"current_range_meters":4400,"station_id":"ce4bhk92rcd13ifvqgb0","pricing_plan_id":"cebpf4jnsgd1na2vs0mg"},{"bike_id":"dddf7314-1c94-4eef-9f77-fcee7efca655","system_id":"levelo_inurba_marseille","lat":43.299824,"lon":5.371898,"is_reserved":false,"is_disabled":true,"rental_uris":{"android":"levelo://app?vid=dddf7314-1c94-4eef-9f77-fcee7efca655","ios":"levelo://app?vid=dddf7314-1c94-4eef-9f77-fcee7efca655"},"vehicle_type_id":"4","last_reported":1744784089,"current_range_meters":4400,"station_id":"ce4bgr92rcd13ifvqc7g","pricing_plan_id":"cebpf4jnsgd1na2vs0mg"},{"bike_id":"d64aa8f0-0884-41cf-84e6-ae25f8a6ae2a","system_id":"levelo_inurba_marseille","lat":43.28568,"lon":5.377663,"is_reserved":false,"is_disabled":false,"rental_uris":{"android":"levelo://app?vid=d64aa8f0-0884-41cf-84e6-ae25f8a6ae2a","ios":"levelo://app?vid=d64aa8f0-0884-41cf-84e6-ae25f8a6ae2a"},"vehicle_type_id":"4","last_reported":1744784089,"current_range_meters":4400,"station_id":"","pricing_plan_id":"cebpf4jnsgd1na2vs0mg"},{"bike_id":"69e8c088-0147-4276-912f-15af3a88bb4c","system_id":"levelo_inurba_marseille","lat":43.30462,"lon":5.37909,"is_reserved":false,"is_disabled":false,"rental_uris":{"android":"levelo://app?vid=69e8c088-0147-4276-912f-15af3a88bb4c","ios":"levelo://app?vid=69e8c088-0147-4276-912f-15af3a88bb4c"},"vehicle_type_id":"4","last_reported":1744784089,"current_range_meters":4400,"station_id":"ce4bgup2rcd13ifvqcn0","pricing_plan_id":"cebpf4jnsgd1na2vs0mg"},{"bike_id":"2dec63ef-91b7-47a2-8edd-2c5cdd33fce2","system_id":"levelo_inurba_marseille","lat":43.29037,"lon":5.37558,"is_reserved":false,"is_disabled":false,"rental_uris":{"android":"levelo://app?vid=2dec63ef-91b7-47a2-8edd-2c5cdd33fce2","ios":"levelo://app?vid=2dec63ef-91b7-47a2-8edd-2c5cdd33fce2"},"vehicle_type_id":"4","last_reported":1744784089,"current_range_meters":4800,"station_id":"ce4bh692rcd13ifvqe90","pricing_plan_id":"cebpf4jnsgd1na2vs0mg"},{"bike_id":"cbc427fb-38a2-4977-bce5-5c0b23cf8f99","system_id":"levelo_inurba_marseille","lat":43.28272,"lon":5.35078,"is_reserved":false,"is_disabled":false,"rental_uris":{"android":"levelo://app?vid=cbc427fb-38a2-4977-bce5-5c0b23cf8f99","ios":"levelo://app?vid=cbc427fb-38a2-4977-bce5-5c0b23cf8f99"},"vehicle_type_id":"4","last_reported":1744784089,"current_range_meters":4800,"station_id":"ce4bhbp2rcd13ifvqerg","pricing_plan_id":"cebpf4jnsgd1na2vs0mg"},{"bike_id":"64ab060f-13b3-4b79-8cbe-f040da6f98da","system_id":"levelo_inurba_marseille","lat":43.28466,"lon":5.3918,"is_reserved":false,"is_disabled":false,"rental_uris":{"android":"levelo://app?vid=64ab060f-13b3-4b79-8cbe-f040da6f98da","ios":"levelo://app?vid=64ab060f-13b3-4b79-8cbe-f040da6f98da"},"vehicle_type_id":"4","last_reported":1744784089,"current_range_meters":4800,"station_id":"ce4bhoh2rcd13ifvqh5g","pricing_plan_id":"cebpf4jnsgd1na2vs0mg"},{"bike_id":"8ce62c24-20da-4f99-9f5e-f18589a9038f","system_id":"levelo_inurba_marseille","lat":43.24171,"lon":5.39721,"is_reserved":false,"is_disabled":false,"rental_uris":{"android":"levelo://app?vid=8ce62c24-20da-4f99-9f5e-f18589a9038f","ios":"levelo://app?vid=8ce62c24-20da-4f99-9f5e-f18589a9038f"},"vehicle_type_id":"4","last_reported":1744784089,"current_range_meters":4800,"station_id":"ce4bhn12rcd13ifvqgpg","pricing_plan_id":"cebpf4jnsgd1na2vs0mg"},{"bike_id":"1c41dae5-02d2-4367-8a5c-5ff8a0ae456b","system_id":"levelo_inurba_marseille","lat":43.21749,"lon":5.34613,"is_reserved":false,"is_disabled":false,"rental_uris":{"android":"levelo://app?vid=1c41dae5-02d2-4367-8a5c-5ff8a0ae456b","ios":"levelo://app?vid=1c41dae5-02d2-4367-8a5c-5ff8a0ae456b"},"vehicle_type_id":"4","last_reported":1744784089,"current_range_meters":5600,"station_id":"st_cvj6r9ubvosntc0bgbag","pricing_plan_id":"cebpf4jnsgd1na2vs0mg"},{"bike_id":"c8d5c35f-b304-4a4a-b283-9920c3076e87","system_id":"levelo_inurba_marseille","lat":43.287103,"lon":5.399878,"is_reserved":false,"is_disabled":false,"rental_uris":{"android":"levelo://app?vid=c8d5c35f-b304-4a4a-b283-9920c3076e87","ios":"levelo://app?vid=c8d5c35f-b304-4a4a-b283-9920c3076e87"},"vehicle_type_id":"4","last_reported":1744784089,"current_range_meters":5600,"station_id":"ce4bho92rcd13ifvqh3g","pricing_plan_id":"cebpf4jnsgd1na2vs0mg"},{"bike_id":"236f62a7-85c2-4e55-b0b0-4460227d50b5","system_id":"levelo_inurba_marseille","lat":43.27824,"lon":5.39222,"is_reserved":false,"is_disabled":false,"rental_uris":{"android":"levelo://app?vid=236f62a7-85c2-4e55-b0b0-4460227d50b5","ios":"levelo://app?vid=236f62a7-85c2-4e55-b0b0-4460227d50b5"},"vehicle_type_id":"4","last_reported":1744784089,"current_range_meters":6000,"station_id":"ce4bhjp2rcd13ifvqga0","pricing_plan_id":"cebpf4jnsgd1na2vs0mg"},{"bike_id":"95c956ea-b78e-48fc-a938-9a4a49935cf7","system_id":"levelo_inurba_marseille","lat":43.30463,"lon":5.37899,"is_reserved":false,"is_disabled":false,"rental_uris":{"android":"levelo://app?vid=95c956ea-b78e-48fc-a938-9a4a49935cf7","ios":"levelo://app?vid=95c956ea-b78e-48fc-a938-9a4a49935cf7"},"vehicle_type_id":"4","last_reported":1744784089,"current_range_meters":6000,"station_id":"ce4bgup2rcd13ifvqcn0","pricing_plan_id":"cebpf4jnsgd1na2vs0mg"},{"bike_id":"cae589eb-10af-4a8f-8ef6-1f6b43e97ea4","system_id":"levelo_inurba_marseille","lat":43.31067,"lon":5.38346,"is_reserved":false,"is_disabled":false,"rental_uris":{"android":"levelo://app?vid=cae589eb-10af-4a8f-8ef6-1f6b43e97ea4","ios":"levelo://app?vid=cae589eb-10af-4a8f-8ef6-1f6b43e97ea4"},"vehicle_type_id":"4","last_reported":1744784089,"current_range_meters":6400,"station_id":"ce4bgv92rcd13ifvqcr0","pricing_plan_id":"cebpf4jnsgd1na2vs0mg"},{"bike_id":"207b15a7-69f1-4c4a-a29d-f91df1564475","system_id":"levelo_inurba_marseille","lat":43.24034,"lon":5.37724,"is_reserved":false,"is_disabled":false,"rental_uris":{"android":"levelo://app?vid=207b15a7-69f1-4c4a-a29d-f91df1564475","ios":"levelo://app?vid=207b15a7-69f1-4c4a-a29d-f91df1564475"},"vehicle_type_id":"4","last_reported":1744784089,"current_range_meters":6400,"station_id":"","pricing_plan_id":"cebpf4jnsgd1na2vs0mg"},{"bike_id":"c273cedc-5337-4dec-91b4-1636fd7d09ad","system_id":"levelo_inurba_marseille","lat":43.314459,"lon":5.376025,"is_reserved":false,"is_disabled":false,"rental_uris":{"android":"levelo://app?vid=c273cedc-5337-4dec-91b4-1636fd7d09ad","ios":"levelo://app?vid=c273cedc-5337-4dec-91b4-1636fd7d09ad"},"vehicle_type_id":"4","last_reported":1744784089,"current_range_meters":6800,"station_id":"","pricing_plan_id":"cebpf4jnsgd1na2vs0mg"},{"bike_id":"a8bce765-48d7-4f94-907d-9b3fef87e2cf","system_id":"levelo_inurba_marseille","lat":43.27841,"lon":5.39205,"is_reserved":false,"is_disabled":false,"rental_uris":{"android":"levelo://app?vid=a8bce765-48d7-4f94-907d-9b3fef87e2cf","ios":"levelo://app?vid=a8bce765-48d7-4f94-907d-9b3fef87e2cf"},"vehicle_type_id":"4","last_reported":1744784089,"current_range_meters":6800,"station_id":"ce4bhjp2rcd13ifvqga0","pricing_plan_id":"cebpf4jnsgd1na2vs0mg"},{"bike_id":"a668abbc-a092-49f5-9124-b0b71b0d2e46","system_id":"levelo_inurba_marseille","lat":43.22941,"lon":5.35376,"is_reserved":false,"is_disabled":false,"rental_uris":{"android":"levelo://app?vid=a668abbc-a092-49f5-9124-b0b71b0d2e46","ios":"levelo://app?vid=a668abbc-a092-49f5-9124-b0b71b0d2e46"},"vehicle_type_id":"4","last_reported":1744784089,"current_range_meters":6800,"station_id":"cpo3532slgdg3j2ikp40","pricing_plan_id":"cebpf4jnsgd1na2vs0mg"},{"bike_id":"1395488a-de73-4c0c-99f8-ead07ddbb67d","system_id":"levelo_inurba_marseille","lat":43.24008,"lon":5.36696,"is_reserved":false,"is_disabled":false,"rental_uris":{"android":"levelo://app?vid=1395488a-de73-4c0c-99f8-ead07ddbb67d","ios":"levelo://app?vid=1395488a-de73-4c0c-99f8-ead07ddbb67d"},"vehicle_type_id":"4","last_reported":1744784089,"current_range_meters":6800,"station_id":"","pricing_plan_id":"cebpf4jnsgd1na2vs0mg"},{"bike_id":"4d5c9219-dab2-4a84-8f6e-9bff1ce514f0","system_id":"levelo_inurba_marseille","lat":43.27837,"lon":5.39215,"is_reserved":false,"is_disabled":false,"rental_uris":{"android":"levelo://app?vid=4d5c9219-dab2-4a84-8f6e-9bff1ce514f0","ios":"levelo://app?vid=4d5c9219-dab2-4a84-8f6e-9bff1ce514f0"},"vehicle_type_id":"4","last_reported":1744784089,"current_range_meters":6800,"station_id":"ce4bhjp2rcd13ifvqga0","pricing_plan_id":"cebpf4jnsgd1na2vs0mg"},{"bike_id":"2eddb365-fb20-4708-9142-98949a1d789a","system_id":"levelo_inurba_marseille","lat":43.29902,"lon":5.381503,"is_reserved":false,"is_disabled":false,"rental_uris":{"android":"levelo://app?vid=2eddb365-fb20-4708-9142-98949a1d789a","ios":"levelo://app?vid=2eddb365-fb20-4708-9142-98949a1d789a"},"vehicle_type_id":"4","last_reported":1744784089,"current_range_meters":7200,"station_id":"ce4bgj12rcd13ifvqbc0","pricing_plan_id":"cebpf4jnsgd1na2vs0mg"},{"bike_id":"2931a643-dda5-4fc3-95c6-414da5432646","system_id":"levelo_inurba_marseille","lat":43.30654,"lon":5.40074,"is_reserved":false,"is_disabled":false,"rental_uris":{"android":"levelo://app?vid=2931a643-dda5-4fc3-95c6-414da5432646","ios":"levelo://app?vid=2931a643-dda5-4fc3-95c6-414da5432646"},"vehicle_type_id":"4","last_reported":1744784089,"current_range_meters":7200,"station_id":"ce4bh112rcd13ifvqda0","pricing_plan_id":"cebpf4jnsgd1na2vs0mg"},{"bike_id":"a44d4243-dc49-432f-9e21-e7f407740c31","system_id":"levelo_inurba_marseille","lat":43.29021,"lon":5.37568,"is_reserved":false,"is_disabled":false,"rental_uris":{"android":"levelo://app?vid=a44d4243-dc49-432f-9e21-e7f407740c31","ios":"levelo://app?vid=a44d4243-dc49-432f-9e21-e7f407740c31"},"vehicle_type_id":"4","last_reported":1744784089,"current_range_meters":7200,"station_id":"ce4bh692rcd13ifvqe90","pricing_plan_id":"cebpf4jnsgd1na2vs0mg"},{"bike_id":"bb3fa259-4909-465e-99f8-7d363c8fd144","system_id":"levelo_inurba_marseille","lat":43.306366,"lon":5.400823,"is_reserved":false,"is_disabled":false,"rental_uris":{"android":"levelo://app?vid=bb3fa259-4909-465e-99f8-7d363c8fd144","ios":"levelo://app?vid=bb3fa259-4909-465e-99f8-7d363c8fd144"},"vehicle_type_id":"4","last_reported":1744784089,"current_range_meters":7200,"station_id":"ce4bh112rcd13ifvqda0","pricing_plan_id":"cebpf4jnsgd1na2vs0mg"},{"bike_id":"347598f2-7636-431d-aa2a-ee922a6e92de","system_id":"levelo_inurba_marseille","lat":43.28882,"lon":5.3642,"is_reserved":false,"is_disabled":false,"rental_uris":{"android":"levelo://app?vid=347598f2-7636-431d-aa2a-ee922a6e92de","ios":"levelo://app?vid=347598f2-7636-431d-aa2a-ee922a6e92de"},"vehicle_type_id":"4","last_reported":1744784089,"current_range_meters":7200,"station_id":"","pricing_plan_id":"cebpf4jnsgd1na2vs0mg"},{"bike_id":"ab40beae-ef77-4516-8a73-e9fccc0d9e5f","system_id":"levelo_inurba_marseille","lat":43.304196,"lon":5.377725,"is_reserved":false,"is_disabled":false,"rental_uris":{"android":"levelo://app?vid=ab40beae-ef77-4516-8a73-e9fccc0d9e5f","ios":"levelo://app?vid=ab40beae-ef77-4516-8a73-e9fccc0d9e5f"},"vehicle_type_id":"4","last_reported":1744784089,"current_range_meters":7200,"station_id":"ce4bgi92rcd13ifvqb90","pricing_plan_id":"cebpf4jnsgd1na2vs0mg"},{"bike_id":"427689a9-0cd4-4119-82a4-9e9bd7ecd185","system_id":"levelo_inurba_marseille","lat":43.28609,"lon":5.37057,"is_reserved":false,"is_disabled":false,"rental_uris":{"android":"levelo://app?vid=427689a9-0cd4-4119-82a4-9e9bd7ecd185","ios":"levelo://app?vid=427689a9-0cd4-4119-82a4-9e9bd7ecd185"},"vehicle_type_id":"4","last_reported":1744784089,"current_range_meters":7200,"station_id":"ce4bht12rcd13ifvqi60","pricing_plan_id":"cebpf4jnsgd1na2vs0mg"},{"bike_id":"3f6e6fd0-fab9-4f68-a6ca-15289375554f","system_id":"levelo_inurba_marseille","lat":43.2757,"lon":5.38419,"is_reserved":false,"is_disabled":false,"rental_uris":{"android":"levelo://app?vid=3f6e6fd0-fab9-4f68-a6ca-15289375554f","ios":"levelo://app?vid=3f6e6fd0-fab9-4f68-a6ca-15289375554f"},"vehicle_type_id":"4","last_reported":1744784089,"current_range_meters":7200,"station_id":"ce4bhh92rcd13ifvqfi0","pricing_plan_id":"cebpf4jnsgd1na2vs0mg"},{"bike_id":"98864900-9929-4876-b962-fb80b57b0071","system_id":"levelo_inurba_marseille","lat":43.30338,"lon":5.40447,"is_reserved":false,"is_disabled":false,"rental_uris":{"android":"levelo://app?vid=98864900-9929-4876-b962-fb80b57b0071","ios":"levelo://app?vid=98864900-9929-4876-b962-fb80b57b0071"},"vehicle_type_id":"4","last_reported":1744784089,"current_range_meters":7200,"station_id":"ce4bh012rcd13ifvqd10","pricing_plan_id":"cebpf4jnsgd1na2vs0mg"},{"bike_id":"3b74ab54-5151-41f4-a56c-2041acf8a2e0","system_id":"levelo_inurba_marseille","lat":43.31961,"lon":5.382706,"is_reserved":false,"is_disabled":false,"rental_uris":{"android":"levelo://app?vid=3b74ab54-5151-41f4-a56c-2041acf8a2e0","ios":"levelo://app?vid=3b74ab54-5151-41f4-a56c-2041acf8a2e0"},"vehicle_type_id":"4","last_reported":1744784089,"current_range_meters":7200,"station_id":"","pricing_plan_id":"cebpf4jnsgd1na2vs0mg"},{"bike_id":"27a55245-8dd2-4f1a-af63-95a9d7b71690","system_id":"levelo_inurba_marseille","lat":43.310658,"lon":5.378482,"is_reserved":false,"is_disabled":false,"rental_uris":{"android":"levelo://app?vid=27a55245-8dd2-4f1a-af63-95a9d7b71690","ios":"levelo://app?vid=27a55245-8dd2-4f1a-af63-95a9d7b71690"},"vehicle_type_id":"4","last_reported":1744784089,"current_range_meters":7200,"station_id":"","pricing_plan_id":"cebpf4jnsgd1na2vs0mg"},{"bike_id":"fedf7c4f-c9e3-4ffc-8526-d46d99681b89","system_id":"levelo_inurba_marseille","lat":43.28596,"lon":5.38946,"is_reserved":false,"is_disabled":true,"rental_uris":{"android":"levelo://app?vid=fedf7c4f-c9e3-4ffc-8526-d46d99681b89","ios":"levelo://app?vid=fedf7c4f-c9e3-4ffc-8526-d46d99681b89"},"vehicle_type_id":"4","last_reported":1744784089,"current_range_meters":7200,"station_id":"","pricing_plan_id":"cebpf4jnsgd1na2vs0mg"},{"bike_id":"019aebdb-ca21-4835-a2d5-7cb30e9a1a5c","system_id":"levelo_inurba_marseille","lat":43.21807,"lon":5.34658,"is_reserved":false,"is_disabled":false,"rental_uris":{"android":"levelo://app?vid=019aebdb-ca21-4835-a2d5-7cb30e9a1a5c","ios":"levelo://app?vid=019aebdb-ca21-4835-a2d5-7cb30e9a1a5c"},"vehicle_type_id":"4","last_reported":1744784089,"current_range_meters":8000,"station_id":"","pricing_plan_id":"cebpf4jnsgd1na2vs0mg"},{"bike_id":"9179bfdd-2f37-41da-a73e-8ce1901f0d33","system_id":"levelo_inurba_marseille","lat":43.28485,"lon":5.38553,"is_reserved":false,"is_disabled":false,"rental_uris":{"android":"levelo://app?vid=9179bfdd-2f37-41da-a73e-8ce1901f0d33","ios":"levelo://app?vid=9179bfdd-2f37-41da-a73e-8ce1901f0d33"},"vehicle_type_id":"4","last_reported":1744784089,"current_range_meters":8000,"station_id":"ce4bh8p2rcd13ifvqeb0","pricing_plan_id":"cebpf4jnsgd1na2vs0mg"},{"bike_id":"d0ded8d0-29b8-42f0-8e27-b304f7842b78","system_id":"levelo_inurba_marseille","lat":43.2854,"lon":5.39491,"is_reserved":false,"is_disabled":false,"rental_uris":{"android":"levelo://app?vid=d0ded8d0-29b8-42f0-8e27-b304f7842b78","ios":"levelo://app?vid=d0ded8d0-29b8-42f0-8e27-b304f7842b78"},"vehicle_type_id":"4","last_reported":1744784089,"current_range_meters":8000,"station_id":"ce4bh292rcd13ifvqdg0","pricing_plan_id":"cebpf4jnsgd1na2vs0mg"},{"bike_id":"e1103876-639d-4bb4-8300-d22110ae76d3","system_id":"levelo_inurba_marseille","lat":43.273018,"lon":5.410948,"is_reserved":false,"is_disabled":false,"rental_uris":{"android":"levelo://app?vid=e1103876-639d-4bb4-8300-d22110ae76d3","ios":"levelo://app?vid=e1103876-639d-4bb4-8300-d22110ae76d3"},"vehicle_type_id":"4","last_reported":1744784089,"current_range_meters":8000,"station_id":"","pricing_plan_id":"cebpf4jnsgd1na2vs0mg"},{"bike_id":"a0636e31-c89e-4ae1-aea4-880988d0da0e","system_id":"levelo_inurba_marseille","lat":43.29573,"lon":5.42282,"is_reserved":false,"is_disabled":false,"rental_uris":{"android":"levelo://app?vid=a0636e31-c89e-4ae1-aea4-880988d0da0e","ios":"levelo://app?vid=a0636e31-c89e-4ae1-aea4-880988d0da0e"},"vehicle_type_id":"4","last_reported":1744784089,"current_range_meters":8000,"station_id":"ce4bhph2rcd13ifvqhdg","pricing_plan_id":"cebpf4jnsgd1na2vs0mg"},{"bike_id":"4ca1fc76-01c8-4686-94a5-a46dd951837f","system_id":"levelo_inurba_marseille","lat":43.2782,"lon":5.4071,"is_reserved":false,"is_disabled":false,"rental_uris":{"android":"levelo://app?vid=4ca1fc76-01c8-4686-94a5-a46dd951837f","ios":"levelo://app?vid=4ca1fc76-01c8-4686-94a5-a46dd951837f"},"vehicle_type_id":"4","last_reported":1744784089,"current_range_meters":8000,"station_id":"ce4bhnh2rcd13ifvqgtg","pricing_plan_id":"cebpf4jnsgd1na2vs0mg"},{"bike_id":"45152fd8-c07c-4d52-b7a7-6670add35e00","system_id":"levelo_inurba_marseille","lat":43.261169,"lon":5.420595,"is_reserved":false,"is_disabled":false,"rental_uris":{"android":"levelo://app?vid=45152fd8-c07c-4d52-b7a7-6670add35e00","ios":"levelo://app?vid=45152fd8-c07c-4d52-b7a7-6670add35e00"},"vehicle_type_id":"4","last_reported":1744784089,"current_range_meters":8000,"station_id":"","pricing_plan_id":"cebpf4jnsgd1na2vs0mg"},{"bike_id":"0ee6e897-9651-4b0c-92a1-8a45e96d9917","system_id":"levelo_inurba_marseille","lat":43.31338,"lon":5.39689,"is_reserved":false,"is_disabled":false,"rental_uris":{"android":"levelo://app?vid=0ee6e897-9651-4b0c-92a1-8a45e96d9917","ios":"levelo://app?vid=0ee6e897-9651-4b0c-92a1-8a45e96d9917"},"vehicle_type_id":"4","last_reported":1744784089,"current_range_meters":8000,"station_id":"ce4bgvp2rcd13ifvqcu0","pricing_plan_id":"cebpf4jnsgd1na2vs0mg"},{"bike_id":"b7ab99ba-94bb-4274-aca7-e6131d0e5ab1","system_id":"levelo_inurba_marseille","lat":43.241655,"lon":5.36407,"is_reserved":false,"is_disabled":false,"rental_uris":{"android":"levelo://app?vid=b7ab99ba-94bb-4274-aca7-e6131d0e5ab1","ios":"levelo://app?vid=b7ab99ba-94bb-4274-aca7-e6131d0e5ab1"},"vehicle_type_id":"4","last_reported":1744784089,"current_range_meters":8400,"station_id":"cpo36qri1sfpv3e86is0","pricing_plan_id":"cebpf4jnsgd1na2vs0mg"},{"bike_id":"ecc26774-7f80-4834-883f-3a8990a5fcbe","system_id":"levelo_inurba_marseille","lat":43.23936,"lon":5.36576,"is_reserved":false,"is_disabled":false,"rental_uris":{"android":"levelo://app?vid=ecc26774-7f80-4834-883f-3a8990a5fcbe","ios":"levelo://app?vid=ecc26774-7f80-4834-883f-3a8990a5fcbe"},"vehicle_type_id":"4","last_reported":1744784089,"current_range_meters":8400,"station_id":"ce4bhi12rcd13ifvqfp0","pricing_plan_id":"cebpf4jnsgd1na2vs0mg"},{"bike_id":"803ce35a-c634-48c2-a8a2-643b90ca630c","system_id":"levelo_inurba_marseille","lat":43.31074,"lon":5.38351,"is_reserved":false,"is_disabled":false,"rental_uris":{"android":"levelo://app?vid=803ce35a-c634-48c2-a8a2-643b90ca630c","ios":"levelo://app?vid=803ce35a-c634-48c2-a8a2-643b90ca630c"},"vehicle_type_id":"4","last_reported":1744784089,"current_range_meters":8400,"station_id":"ce4bgv92rcd13ifvqcr0","pricing_plan_id":"cebpf4jnsgd1na2vs0mg"},{"bike_id":"b0c39566-c574-4a34-ba6c-4dbae94c4114","system_id":"levelo_inurba_marseille","lat":43.30148,"lon":5.381,"is_reserved":false,"is_disabled":false,"rental_uris":{"android":"levelo://app?vid=b0c39566-c574-4a34-ba6c-4dbae94c4114","ios":"levelo://app?vid=b0c39566-c574-4a34-ba6c-4dbae94c4114"},"vehicle_type_id":"4","last_reported":1744784089,"current_range_meters":8400,"station_id":"ce4bgjp2rcd13ifvqbh0","pricing_plan_id":"cebpf4jnsgd1na2vs0mg"},{"bike_id":"dfb429f5-b822-43c0-ae61-4fb10764c71e","system_id":"levelo_inurba_marseille","lat":43.30159,"lon":5.38082,"is_reserved":false,"is_disabled":false,"rental_uris":{"android":"levelo://app?vid=dfb429f5-b822-43c0-ae61-4fb10764c71e","ios":"levelo://app?vid=dfb429f5-b822-43c0-ae61-4fb10764c71e"},"vehicle_type_id":"4","last_reported":1744784089,"current_range_meters":8400,"station_id":"ce4bgjp2rcd13ifvqbh0","pricing_plan_id":"cebpf4jnsgd1na2vs0mg"},{"bike_id":"f8083576-a8bc-41be-8ee6-167248c9cf07","system_id":"levelo_inurba_marseille","lat":43.304644,"lon":5.379171,"is_reserved":false,"is_disabled":false,"rental_uris":{"android":"levelo://app?vid=f8083576-a8bc-41be-8ee6-167248c9cf07","ios":"levelo://app?vid=f8083576-a8bc-41be-8ee6-167248c9cf07"},"vehicle_type_id":"4","last_reported":1744784089,"current_range_meters":8400,"station_id":"ce4bgup2rcd13ifvqcn0","pricing_plan_id":"cebpf4jnsgd1na2vs0mg"},{"bike_id":"cc019aaa-33a8-42d2-a2d4-ef26fcdd651f","system_id":"levelo_inurba_marseille","lat":43.308,"lon":5.37321,"is_reserved":false,"is_disabled":false,"rental_uris":{"android":"levelo://app?vid=cc019aaa-33a8-42d2-a2d4-ef26fcdd651f","ios":"levelo://app?vid=cc019aaa-33a8-42d2-a2d4-ef26fcdd651f"},"vehicle_type_id":"4","last_reported":1744784089,"current_range_meters":8800,"station_id":"","pricing_plan_id":"cebpf4jnsgd1na2vs0mg"},{"bike_id":"bc041d30-627d-4258-99c1-8ca3314cb73b","system_id":"levelo_inurba_marseille","lat":43.284523,"lon":5.374873,"is_reserved":false,"is_disabled":false,"rental_uris":{"android":"levelo://app?vid=bc041d30-627d-4258-99c1-8ca3314cb73b","ios":"levelo://app?vid=bc041d30-627d-4258-99c1-8ca3314cb73b"},"vehicle_type_id":"4","last_reported":1744784089,"current_range_meters":8800,"station_id":"ce4bh3p2rcd13ifvqdq0","pricing_plan_id":"cebpf4jnsgd1na2vs0mg"},{"bike_id":"4a2fdfe9-5135-4bdb-800a-463a15252b7b","system_id":"levelo_inurba_marseille","lat":43.281411,"lon":5.426429,"is_reserved":false,"is_disabled":false,"rental_uris":{"android":"levelo://app?vid=4a2fdfe9-5135-4bdb-800a-463a15252b7b","ios":"levelo://app?vid=4a2fdfe9-5135-4bdb-800a-463a15252b7b"},"vehicle_type_id":"4","last_reported":1744784089,"current_range_meters":8800,"station_id":"ce4bhnh2rcd13ifvqgug","pricing_plan_id":"cebpf4jnsgd1na2vs0mg"},{"bike_id":"45c77ecd-980e-4383-ab9a-31be7a98a675","system_id":"levelo_inurba_marseille","lat":43.24056,"lon":5.37755,"is_reserved":false,"is_disabled":false,"rental_uris":{"android":"levelo://app?vid=45c77ecd-980e-4383-ab9a-31be7a98a675","ios":"levelo://app?vid=45c77ecd-980e-4383-ab9a-31be7a98a675"},"vehicle_type_id":"4","last_reported":1744784089,"current_range_meters":8800,"station_id":"ce4bhnp2rcd13ifvqgvg","pricing_plan_id":"cebpf4jnsgd1na2vs0mg"},{"bike_id":"7a2e094b-19fc-4112-8f78-d6e65b66137c","system_id":"levelo_inurba_marseille","lat":43.30325,"lon":5.40435,"is_reserved":false,"is_disabled":false,"rental_uris":{"android":"levelo://app?vid=7a2e094b-19fc-4112-8f78-d6e65b66137c","ios":"levelo://app?vid=7a2e094b-19fc-4112-8f78-d6e65b66137c"},"vehicle_type_id":"4","last_reported":1744784089,"current_range_meters":9200,"station_id":"ce4bh012rcd13ifvqd10","pricing_plan_id":"cebpf4jnsgd1na2vs0mg"},{"bike_id":"e5a8463a-5b3f-4a43-961e-7322a50c6233","system_id":"levelo_inurba_marseille","lat":43.30416,"lon":5.4129,"is_reserved":false,"is_disabled":false,"rental_uris":{"android":"levelo://app?vid=e5a8463a-5b3f-4a43-961e-7322a50c6233","ios":"levelo://app?vid=e5a8463a-5b3f-4a43-961e-7322a50c6233"},"vehicle_type_id":"4","last_reported":1744784089,"current_range_meters":9200,"station_id":"ce4bhop2rcd13ifvqh8g","pricing_plan_id":"cebpf4jnsgd1na2vs0mg"},{"bike_id":"31ec0d9b-2863-4f99-981c-cc4e7c4c68bd","system_id":"levelo_inurba_marseille","lat":43.292717,"lon":5.384283,"is_reserved":false,"is_disabled":false,"rental_uris":{"android":"levelo://app?vid=31ec0d9b-2863-4f99-981c-cc4e7c4c68bd","ios":"levelo://app?vid=31ec0d9b-2863-4f99-981c-cc4e7c4c68bd"},"vehicle_type_id":"4","last_reported":1744784089,"current_range_meters":9200,"station_id":"ce4bh692rcd13ifvqea0","pricing_plan_id":"cebpf4jnsgd1na2vs0mg"},{"bike_id":"376f754b-7bba-4962-babe-b49b1468281c","system_id":"levelo_inurba_marseille","lat":43.309256,"lon":5.401486,"is_reserved":false,"is_disabled":true,"rental_uris":{"android":"levelo://app?vid=376f754b-7bba-4962-babe-b49b1468281c","ios":"levelo://app?vid=376f754b-7bba-4962-babe-b49b1468281c"},"vehicle_type_id":"4","last_reported":1744784089,"current_range_meters":9200,"station_id":"ce4bgvp2rcd13ifvqct0","pricing_plan_id":"cebpf4jnsgd1na2vs0mg"},{"bike_id":"b8fc41cd-41c8-4b48-bacc-bbafb8e021c1","system_id":"levelo_inurba_marseille","lat":43.313287,"lon":5.396895,"is_reserved":false,"is_disabled":false,"rental_uris":{"android":"levelo://app?vid=b8fc41cd-41c8-4b48-bacc-bbafb8e021c1","ios":"levelo://app?vid=b8fc41cd-41c8-4b48-bacc-bbafb8e021c1"},"vehicle_type_id":"4","last_reported":1744784089,"current_range_meters":9600,"station_id":"","pricing_plan_id":"cebpf4jnsgd1na2vs0mg"},{"bike_id":"2797dcdb-c4e1-48b2-82d6-5677d371fa39","system_id":"levelo_inurba_marseille","lat":43.24179,"lon":5.36428,"is_reserved":false,"is_disabled":false,"rental_uris":{"android":"levelo://app?vid=2797dcdb-c4e1-48b2-82d6-5677d371fa39","ios":"levelo://app?vid=2797dcdb-c4e1-48b2-82d6-5677d371fa39"},"vehicle_type_id":"4","last_reported":1744784089,"current_range_meters":9600,"station_id":"cpo36qri1sfpv3e86is0","pricing_plan_id":"cebpf4jnsgd1na2vs0mg"},{"bike_id":"d2d37f01-fa46-4fbc-a721-7789f4003663","system_id":"levelo_inurba_marseille","lat":43.249774,"lon":5.389611,"is_reserved":false,"is_disabled":false,"rental_uris":{"android":"levelo://app?vid=d2d37f01-fa46-4fbc-a721-7789f4003663","ios":"levelo://app?vid=d2d37f01-fa46-4fbc-a721-7789f4003663"},"vehicle_type_id":"4","last_reported":1744784089,"current_range_meters":9600,"station_id":"ce4bhgp2rcd13ifvqfd0","pricing_plan_id":"cebpf4jnsgd1na2vs0mg"},{"bike_id":"797dd5e2-da39-473a-b854-cceac2c9f546","system_id":"levelo_inurba_marseille","lat":43.28733,"lon":5.36082,"is_reserved":false,"is_disabled":false,"rental_uris":{"android":"levelo://app?vid=797dd5e2-da39-473a-b854-cceac2c9f546","ios":"levelo://app?vid=797dd5e2-da39-473a-b854-cceac2c9f546"},"vehicle_type_id":"4","last_reported":1744784089,"current_range_meters":9600,"station_id":"cki0cbj6b192h4jlfktg","pricing_plan_id":"cebpf4jnsgd1na2vs0mg"},{"bike_id":"b5d978c8-0bb0-45d7-be49-b92cba244dc5","system_id":"levelo_inurba_marseille","lat":43.292859,"lon":5.374423,"is_reserved":false,"is_disabled":true,"rental_uris":{"android":"levelo://app?vid=b5d978c8-0bb0-45d7-be49-b92cba244dc5","ios":"levelo://app?vid=b5d978c8-0bb0-45d7-be49-b92cba244dc5"},"vehicle_type_id":"4","last_reported":1744784089,"current_range_meters":9600,"station_id":"ce4bgi12rcd13ifvqb70","pricing_plan_id":"cebpf4jnsgd1na2vs0mg"},{"bike_id":"68bb5c2f-fd19-492d-b0bb-5841e6724b4a","system_id":"levelo_inurba_marseille","lat":43.22932,"lon":5.35376,"is_reserved":false,"is_disabled":false,"rental_uris":{"android":"levelo://app?vid=68bb5c2f-fd19-492d-b0bb-5841e6724b4a","ios":"levelo://app?vid=68bb5c2f-fd19-492d-b0bb-5841e6724b4a"},"vehicle_type_id":"4","last_reported":1744784089,"current_range_meters":10000,"station_id":"cpo3532slgdg3j2ikp40","pricing_plan_id":"cebpf4jnsgd1na2vs0mg"},{"bike_id":"4bf95762-f540-4a84-9062-209f02f6ed6a","system_id":"levelo_inurba_marseille","lat":43.29264,"lon":5.38437,"is_reserved":false,"is_disabled":false,"rental_uris":{"android":"levelo://app?vid=4bf95762-f540-4a84-9062-209f02f6ed6a","ios":"levelo://app?vid=4bf95762-f540-4a84-9062-209f02f6ed6a"},"vehicle_type_id":"4","last_reported":1744784089,"current_range_meters":10000,"station_id":"ce4bh692rcd13ifvqea0","pricing_plan_id":"cebpf4jnsgd1na2vs0mg"},{"bike_id":"dd8f0ff9-117f-4fd9-bc7c-ef5d85c7f322","system_id":"levelo_inurba_marseille","lat":43.31986,"lon":5.38134,"is_reserved":false,"is_disabled":false,"rental_uris":{"android":"levelo://app?vid=dd8f0ff9-117f-4fd9-bc7c-ef5d85c7f322","ios":"levelo://app?vid=dd8f0ff9-117f-4fd9-bc7c-ef5d85c7f322"},"vehicle_type_id":"4","last_reported":1744784089,"current_range_meters":10000,"station_id":"ce4bhr12rcd13ifvqhpg","pricing_plan_id":"cebpf4jnsgd1na2vs0mg"},{"bike_id":"726c7627-2db8-4833-af5c-40c97435ce53","system_id":"levelo_inurba_marseille","lat":43.31089,"lon":5.38336,"is_reserved":false,"is_disabled":false,"rental_uris":{"android":"levelo://app?vid=726c7627-2db8-4833-af5c-40c97435ce53","ios":"levelo://app?vid=726c7627-2db8-4833-af5c-40c97435ce53"},"vehicle_type_id":"4","last_reported":1744784089,"current_range_meters":10000,"station_id":"ce4bgv92rcd13ifvqcr0","pricing_plan_id":"cebpf4jnsgd1na2vs0mg"},{"bike_id":"03c8cee0-a6a5-48f4-b783-f14451736b24","system_id":"levelo_inurba_marseille","lat":43.27184,"lon":5.41014,"is_reserved":false,"is_disabled":false,"rental_uris":{"android":"levelo://app?vid=03c8cee0-a6a5-48f4-b783-f14451736b24","ios":"levelo://app?vid=03c8cee0-a6a5-48f4-b783-f14451736b24"},"vehicle_type_id":"4","last_reported":1744784089,"current_range_meters":10000,"station_id":"ce4bhl12rcd13ifvqgf0","pricing_plan_id":"cebpf4jnsgd1na2vs0mg"},{"bike_id":"04ccf5cd-5294-4bef-91b5-b07c993b6d28","system_id":"levelo_inurba_marseille","lat":43.24677,"lon":5.41197,"is_reserved":false,"is_disabled":false,"rental_uris":{"android":"levelo://app?vid=04ccf5cd-5294-4bef-91b5-b07c993b6d28","ios":"levelo://app?vid=04ccf5cd-5294-4bef-91b5-b07c993b6d28"},"vehicle_type_id":"4","last_reported":1744784089,"current_range_meters":10000,"station_id":"","pricing_plan_id":"cebpf4jnsgd1na2vs0mg"},{"bike_id":"1c0c17d4-38c5-4a1c-8a19-a752fa5d90ed","system_id":"levelo_inurba_marseille","lat":43.23189,"lon":5.39972,"is_reserved":false,"is_disabled":false,"rental_uris":{"android":"levelo://app?vid=1c0c17d4-38c5-4a1c-8a19-a752fa5d90ed","ios":"levelo://app?vid=1c0c17d4-38c5-4a1c-8a19-a752fa5d90ed"},"vehicle_type_id":"4","last_reported":1744784089,"current_range_meters":10000,"station_id":"ce4bhn12rcd13ifvqgqg","pricing_plan_id":"cebpf4jnsgd1na2vs0mg"},{"bike_id":"ac93b782-2c24-4c21-8bf5-8e2a67f7cc1b","system_id":"levelo_inurba_marseille","lat":43.275639,"lon":5.384071,"is_reserved":false,"is_disabled":false,"rental_uris":{"android":"levelo://app?vid=ac93b782-2c24-4c21-8bf5-8e2a67f7cc1b","ios":"levelo://app?vid=ac93b782-2c24-4c21-8bf5-8e2a67f7cc1b"},"vehicle_type_id":"4","last_reported":1744784089,"current_range_meters":10000,"station_id":"ce4bhh92rcd13ifvqfi0","pricing_plan_id":"cebpf4jnsgd1na2vs0mg"},{"bike_id":"50068623-f958-469c-b0e7-488af0bf83ad","system_id":"levelo_inurba_marseille","lat":43.28486,"lon":5.38575,"is_reserved":false,"is_disabled":false,"rental_uris":{"android":"levelo://app?vid=50068623-f958-469c-b0e7-488af0bf83ad","ios":"levelo://app?vid=50068623-f958-469c-b0e7-488af0bf83ad"},"vehicle_type_id":"4","last_reported":1744784089,"current_range_meters":10000,"station_id":"ce4bh8p2rcd13ifvqeb0","pricing_plan_id":"cebpf4jnsgd1na2vs0mg"},{"bike_id":"982b1a86-cd40-472c-8020-39a4110d0e44","system_id":"levelo_inurba_marseille","lat":43.310857,"lon":5.383537,"is_reserved":false,"is_disabled":true,"rental_uris":{"android":"levelo://app?vid=982b1a86-cd40-472c-8020-39a4110d0e44","ios":"levelo://app?vid=982b1a86-cd40-472c-8020-39a4110d0e44"},"vehicle_type_id":"4","last_reported":1744784089,"current_range_meters":10800,"station_id":"ce4bgv92rcd13ifvqcr0","pricing_plan_id":"cebpf4jnsgd1na2vs0mg"},{"bike_id":"0e595d3d-cf93-49d7-9007-a4e937834013","system_id":"levelo_inurba_marseille","lat":43.29055,"lon":5.3997,"is_reserved":false,"is_disabled":false,"rental_uris":{"android":"levelo://app?vid=0e595d3d-cf93-49d7-9007-a4e937834013","ios":"levelo://app?vid=0e595d3d-cf93-49d7-9007-a4e937834013"},"vehicle_type_id":"4","last_reported":1744784089,"current_range_meters":10800,"station_id":"ce4bh392rcd13ifvqdm0","pricing_plan_id":"cebpf4jnsgd1na2vs0mg"},{"bike_id":"e9d4d290-cdfb-4336-875a-74ed55eb5c9a","system_id":"levelo_inurba_marseille","lat":43.270648,"lon":5.422829,"is_reserved":false,"is_disabled":false,"rental_uris":{"android":"levelo://app?vid=e9d4d290-cdfb-4336-875a-74ed55eb5c9a","ios":"levelo://app?vid=e9d4d290-cdfb-4336-875a-74ed55eb5c9a"},"vehicle_type_id":"4","last_reported":1744784089,"current_range_meters":10800,"station_id":"ce4bhk92rcd13ifvqgb0","pricing_plan_id":"cebpf4jnsgd1na2vs0mg"},{"bike_id":"a8132d22-4ce6-4e24-9e2c-e02042e4181b","system_id":"levelo_inurba_marseille","lat":43.217522,"lon":5.34599,"is_reserved":false,"is_disabled":false,"rental_uris":{"android":"levelo://app?vid=a8132d22-4ce6-4e24-9e2c-e02042e4181b","ios":"levelo://app?vid=a8132d22-4ce6-4e24-9e2c-e02042e4181b"},"vehicle_type_id":"4","last_reported":1744784089,"current_range_meters":11200,"station_id":"st_cvj6r9ubvosntc0bgbag","pricing_plan_id":"cebpf4jnsgd1na2vs0mg"},{"bike_id":"b04d8da2-4e58-4f17-ae53-0cc1d89b7f48","system_id":"levelo_inurba_marseille","lat":43.302126,"lon":5.394906,"is_reserved":false,"is_disabled":false,"rental_uris":{"android":"levelo://app?vid=b04d8da2-4e58-4f17-ae53-0cc1d89b7f48","ios":"levelo://app?vid=b04d8da2-4e58-4f17-ae53-0cc1d89b7f48"},"vehicle_type_id":"4","last_reported":1744784089,"current_range_meters":11200,"station_id":"ce4bh0p2rcd13ifvqd70","pricing_plan_id":"cebpf4jnsgd1na2vs0mg"},{"bike_id":"45c6b552-68fd-454d-84d3-cf79221aaee4","system_id":"levelo_inurba_marseille","lat":43.298684,"lon":5.408623,"is_reserved":false,"is_disabled":false,"rental_uris":{"android":"levelo://app?vid=45c6b552-68fd-454d-84d3-cf79221aaee4","ios":"levelo://app?vid=45c6b552-68fd-454d-84d3-cf79221aaee4"},"vehicle_type_id":"4","last_reported":1744784089,"current_range_meters":11200,"station_id":"","pricing_plan_id":"cebpf4jnsgd1na2vs0mg"},{"bike_id":"f0253c80-dad4-43d6-a039-d52f16c3c433","system_id":"levelo_inurba_marseille","lat":43.2594,"lon":5.40902,"is_reserved":false,"is_disabled":false,"rental_uris":{"android":"levelo://app?vid=f0253c80-dad4-43d6-a039-d52f16c3c433","ios":"levelo://app?vid=f0253c80-dad4-43d6-a039-d52f16c3c433"},"vehicle_type_id":"4","last_reported":1744784089,"current_range_meters":11600,"station_id":"ce4bhm92rcd13ifvqglg","pricing_plan_id":"cebpf4jnsgd1na2vs0mg"},{"bike_id":"7eacb872-0584-4b06-8fad-feb612d3799a","system_id":"levelo_inurba_marseille","lat":43.29679,"lon":5.38143,"is_reserved":false,"is_disabled":false,"rental_uris":{"android":"levelo://app?vid=7eacb872-0584-4b06-8fad-feb612d3799a","ios":"levelo://app?vid=7eacb872-0584-4b06-8fad-feb612d3799a"},"vehicle_type_id":"4","last_reported":1744784089,"current_range_meters":11600,"station_id":"","pricing_plan_id":"cebpf4jnsgd1na2vs0mg"},{"bike_id":"001c3717-1d6d-49fa-8e48-85296ae8abbe","system_id":"levelo_inurba_marseille","lat":43.299047,"lon":5.381418,"is_reserved":false,"is_disabled":false,"rental_uris":{"android":"levelo://app?vid=001c3717-1d6d-49fa-8e48-85296ae8abbe","ios":"levelo://app?vid=001c3717-1d6d-49fa-8e48-85296ae8abbe"},"vehicle_type_id":"4","last_reported":1744784089,"current_range_meters":11600,"station_id":"ce4bgj12rcd13ifvqbc0","pricing_plan_id":"cebpf4jnsgd1na2vs0mg"},{"bike_id":"46b9d12b-d4e5-481e-8406-452fd0e34662","system_id":"levelo_inurba_marseille","lat":43.31301,"lon":5.39701,"is_reserved":false,"is_disabled":false,"rental_uris":{"android":"levelo://app?vid=46b9d12b-d4e5-481e-8406-452fd0e34662","ios":"levelo://app?vid=46b9d12b-d4e5-481e-8406-452fd0e34662"},"vehicle_type_id":"4","last_reported":1744784089,"current_range_meters":11600,"station_id":"ce4bgvp2rcd13ifvqcu0","pricing_plan_id":"cebpf4jnsgd1na2vs0mg"},{"bike_id":"4aef0fa6-a0da-4fa2-9099-9fa1ba81c16a","system_id":"levelo_inurba_marseille","lat":43.281699,"lon":5.404495,"is_reserved":false,"is_disabled":false,"rental_uris":{"android":"levelo://app?vid=4aef0fa6-a0da-4fa2-9099-9fa1ba81c16a","ios":"levelo://app?vid=4aef0fa6-a0da-4fa2-9099-9fa1ba81c16a"},"vehicle_type_id":"4","last_reported":1744784089,"current_range_meters":12400,"station_id":"","pricing_plan_id":"cebpf4jnsgd1na2vs0mg"},{"bike_id":"9df4d04c-49c0-4cc9-90fb-8c204c2453c2","system_id":"levelo_inurba_marseille","lat":43.25935,"lon":5.40915,"is_reserved":false,"is_disabled":false,"rental_uris":{"android":"levelo://app?vid=9df4d04c-49c0-4cc9-90fb-8c204c2453c2","ios":"levelo://app?vid=9df4d04c-49c0-4cc9-90fb-8c204c2453c2"},"vehicle_type_id":"4","last_reported":1744784089,"current_range_meters":12400,"station_id":"ce4bhm92rcd13ifvqglg","pricing_plan_id":"cebpf4jnsgd1na2vs0mg"},{"bike_id":"ee465a00-80df-4308-a2c3-b5ea33f92667","system_id":"levelo_inurba_marseille","lat":43.32098,"lon":5.36762,"is_reserved":false,"is_disabled":false,"rental_uris":{"android":"levelo://app?vid=ee465a00-80df-4308-a2c3-b5ea33f92667","ios":"levelo://app?vid=ee465a00-80df-4308-a2c3-b5ea33f92667"},"vehicle_type_id":"4","last_reported":1744784089,"current_range_meters":12400,"station_id":"ce4bhrh2rcd13ifvqhug","pricing_plan_id":"cebpf4jnsgd1na2vs0mg"},{"bike_id":"e4257eb6-3279-499f-8a4a-e01750851d1b","system_id":"levelo_inurba_marseille","lat":43.279902,"lon":5.416663,"is_reserved":false,"is_disabled":false,"rental_uris":{"android":"levelo://app?vid=e4257eb6-3279-499f-8a4a-e01750851d1b","ios":"levelo://app?vid=e4257eb6-3279-499f-8a4a-e01750851d1b"},"vehicle_type_id":"4","last_reported":1744784089,"current_range_meters":12400,"station_id":"ce4bho12rcd13ifvqh1g","pricing_plan_id":"cebpf4jnsgd1na2vs0mg"},{"bike_id":"67c5df41-b8f9-479f-8eb4-01212bb809db","system_id":"levelo_inurba_marseille","lat":43.29293,"lon":5.37199,"is_reserved":false,"is_disabled":true,"rental_uris":{"android":"levelo://app?vid=67c5df41-b8f9-479f-8eb4-01212bb809db","ios":"levelo://app?vid=67c5df41-b8f9-479f-8eb4-01212bb809db"},"vehicle_type_id":"4","last_reported":1744784089,"current_range_meters":12800,"station_id":"ce4bgh92rcd13ifvqb40","pricing_plan_id":"cebpf4jnsgd1na2vs0mg"},{"bike_id":"03e91ee8-13c5-4857-bc25-64c58292191b","system_id":"levelo_inurba_marseille","lat":43.28425,"lon":5.34985,"is_reserved":false,"is_disabled":false,"rental_uris":{"android":"levelo://app?vid=03e91ee8-13c5-4857-bc25-64c58292191b","ios":"levelo://app?vid=03e91ee8-13c5-4857-bc25-64c58292191b"},"vehicle_type_id":"4","last_reported":1744784089,"current_range_meters":12800,"station_id":"ce4bhbh2rcd13ifvqepg","pricing_plan_id":"cebpf4jnsgd1na2vs0mg"},{"bike_id":"f14bce7a-b864-41f9-b089-fed11ce290ed","system_id":"levelo_inurba_marseille","lat":43.24079,"lon":5.37751,"is_reserved":false,"is_disabled":false,"rental_uris":{"android":"levelo://app?vid=f14bce7a-b864-41f9-b089-fed11ce290ed","ios":"levelo://app?vid=f14bce7a-b864-41f9-b089-fed11ce290ed"},"vehicle_type_id":"4","last_reported":1744784089,"current_range_meters":12800,"station_id":"ce4bhnp2rcd13ifvqgvg","pricing_plan_id":"cebpf4jnsgd1na2vs0mg"},{"bike_id":"0ef5e2c6-674f-4b3d-bde9-b773d1ae54ca","system_id":"levelo_inurba_marseille","lat":43.29911,"lon":5.38147,"is_reserved":false,"is_disabled":false,"rental_uris":{"android":"levelo://app?vid=0ef5e2c6-674f-4b3d-bde9-b773d1ae54ca","ios":"levelo://app?vid=0ef5e2c6-674f-4b3d-bde9-b773d1ae54ca"},"vehicle_type_id":"4","last_reported":1744784089,"current_range_meters":12800,"station_id":"ce4bgj12rcd13ifvqbc0","pricing_plan_id":"cebpf4jnsgd1na2vs0mg"},{"bike_id":"561936ef-54e4-4d15-b2a7-dfd018b9e12e","system_id":"levelo_inurba_marseille","lat":43.298159,"lon":5.402564,"is_reserved":false,"is_disabled":false,"rental_uris":{"android":"levelo://app?vid=561936ef-54e4-4d15-b2a7-dfd018b9e12e","ios":"levelo://app?vid=561936ef-54e4-4d15-b2a7-dfd018b9e12e"},"vehicle_type_id":"4","last_reported":1744784089,"current_range_meters":12800,"station_id":"","pricing_plan_id":"cebpf4jnsgd1na2vs0mg"},{"bike_id":"075fcdf5-b249-40b2-bc7e-7ad517887fb8","system_id":"levelo_inurba_marseille","lat":43.27514,"lon":5.4245,"is_reserved":false,"is_disabled":false,"rental_uris":{"android":"levelo://app?vid=075fcdf5-b249-40b2-bc7e-7ad517887fb8","ios":"levelo://app?vid=075fcdf5-b249-40b2-bc7e-7ad517887fb8"},"vehicle_type_id":"4","last_reported":1744784089,"current_range_meters":12800,"station_id":"ce4bhn92rcd13ifvqgrg","pricing_plan_id":"cebpf4jnsgd1na2vs0mg"},{"bike_id":"04679acd-f6e6-4933-8e5c-3e10c420dd2d","system_id":"levelo_inurba_marseille","lat":43.27048,"lon":5.40255,"is_reserved":false,"is_disabled":false,"rental_uris":{"android":"levelo://app?vid=04679acd-f6e6-4933-8e5c-3e10c420dd2d","ios":"levelo://app?vid=04679acd-f6e6-4933-8e5c-3e10c420dd2d"},"vehicle_type_id":"4","last_reported":1744784089,"current_range_meters":12800,"station_id":"ce4bhk92rcd13ifvqgc0","pricing_plan_id":"cebpf4jnsgd1na2vs0mg"},{"bike_id":"e8412f40-a8dc-44ee-bbc2-e01b1cf2ab9a","system_id":"levelo_inurba_marseille","lat":43.27837,"lon":5.39202,"is_reserved":false,"is_disabled":false,"rental_uris":{"android":"levelo://app?vid=e8412f40-a8dc-44ee-bbc2-e01b1cf2ab9a","ios":"levelo://app?vid=e8412f40-a8dc-44ee-bbc2-e01b1cf2ab9a"},"vehicle_type_id":"4","last_reported":1744784089,"current_range_meters":13600,"station_id":"ce4bhjp2rcd13ifvqga0","pricing_plan_id":"cebpf4jnsgd1na2vs0mg"},{"bike_id":"98b073a9-6f8e-4345-ad47-65369c5611d5","system_id":"levelo_inurba_marseille","lat":43.28696,"lon":5.37396,"is_reserved":false,"is_disabled":true,"rental_uris":{"android":"levelo://app?vid=98b073a9-6f8e-4345-ad47-65369c5611d5","ios":"levelo://app?vid=98b073a9-6f8e-4345-ad47-65369c5611d5"},"vehicle_type_id":"4","last_reported":1744784089,"current_range_meters":13600,"station_id":"ce4bh3p2rcd13ifvqdq0","pricing_plan_id":"cebpf4jnsgd1na2vs0mg"},{"bike_id":"0700f502-e0a7-4bcd-97e9-8123ce091459","system_id":"levelo_inurba_marseille","lat":43.30453,"lon":5.37919,"is_reserved":false,"is_disabled":false,"rental_uris":{"android":"levelo://app?vid=0700f502-e0a7-4bcd-97e9-8123ce091459","ios":"levelo://app?vid=0700f502-e0a7-4bcd-97e9-8123ce091459"},"vehicle_type_id":"4","last_reported":1744784089,"current_range_meters":13600,"station_id":"ce4bgup2rcd13ifvqcn0","pricing_plan_id":"cebpf4jnsgd1na2vs0mg"},{"bike_id":"fc95437d-de2c-403a-9e7d-19c7c07aa4c6","system_id":"levelo_inurba_marseille","lat":43.33599,"lon":5.41035,"is_reserved":false,"is_disabled":false,"rental_uris":{"android":"levelo://app?vid=fc95437d-de2c-403a-9e7d-19c7c07aa4c6","ios":"levelo://app?vid=fc95437d-de2c-403a-9e7d-19c7c07aa4c6"},"vehicle_type_id":"4","last_reported":1744784089,"current_range_meters":14000,"station_id":"ce4bhqh2rcd13ifvqhmg","pricing_plan_id":"cebpf4jnsgd1na2vs0mg"},{"bike_id":"c6dbfc45-b590-49e2-b343-7169e4d20dfb","system_id":"levelo_inurba_marseille","lat":43.30166,"lon":5.38079,"is_reserved":false,"is_disabled":false,"rental_uris":{"android":"levelo://app?vid=c6dbfc45-b590-49e2-b343-7169e4d20dfb","ios":"levelo://app?vid=c6dbfc45-b590-49e2-b343-7169e4d20dfb"},"vehicle_type_id":"4","last_reported":1744784089,"current_range_meters":14000,"station_id":"ce4bgjp2rcd13ifvqbh0","pricing_plan_id":"cebpf4jnsgd1na2vs0mg"},{"bike_id":"e4459993-9eaa-4e6f-96c2-ac0a1e58cb08","system_id":"levelo_inurba_marseille","lat":43.23156,"lon":5.43734,"is_reserved":false,"is_disabled":false,"rental_uris":{"android":"levelo://app?vid=e4459993-9eaa-4e6f-96c2-ac0a1e58cb08","ios":"levelo://app?vid=e4459993-9eaa-4e6f-96c2-ac0a1e58cb08"},"vehicle_type_id":"4","last_reported":1744784089,"current_range_meters":13600,"station_id":"ce4bhmp2rcd13ifvqgog","pricing_plan_id":"cebpf4jnsgd1na2vs0mg"},{"bike_id":"ce86423c-7fda-4347-b51e-6014b639a5a1","system_id":"levelo_inurba_marseille","lat":43.310736,"lon":5.38349,"is_reserved":false,"is_disabled":false,"rental_uris":{"android":"levelo://app?vid=ce86423c-7fda-4347-b51e-6014b639a5a1","ios":"levelo://app?vid=ce86423c-7fda-4347-b51e-6014b639a5a1"},"vehicle_type_id":"4","last_reported":1744784089,"current_range_meters":14000,"station_id":"ce4bgv92rcd13ifvqcr0","pricing_plan_id":"cebpf4jnsgd1na2vs0mg"},{"bike_id":"08665e19-be9b-4b06-a7d4-30f714f1faad","system_id":"levelo_inurba_marseille","lat":43.25715,"lon":5.41105,"is_reserved":false,"is_disabled":false,"rental_uris":{"android":"levelo://app?vid=08665e19-be9b-4b06-a7d4-30f714f1faad","ios":"levelo://app?vid=08665e19-be9b-4b06-a7d4-30f714f1faad"},"vehicle_type_id":"4","last_reported":1744784089,"current_range_meters":14400,"station_id":"ce4bhkp2rcd13ifvqgd0","pricing_plan_id":"cebpf4jnsgd1na2vs0mg"},{"bike_id":"ca260c1e-2b88-4449-bb12-4bf37d5ac540","system_id":"levelo_inurba_marseille","lat":43.282587,"lon":5.386966,"is_reserved":false,"is_disabled":false,"rental_uris":{"android":"levelo://app?vid=ca260c1e-2b88-4449-bb12-4bf37d5ac540","ios":"levelo://app?vid=ca260c1e-2b88-4449-bb12-4bf37d5ac540"},"vehicle_type_id":"4","last_reported":1744784089,"current_range_meters":14800,"station_id":"","pricing_plan_id":"cebpf4jnsgd1na2vs0mg"},{"bike_id":"38ecccac-92d2-4d3e-929b-694e6cd14adf","system_id":"levelo_inurba_marseille","lat":43.30953,"lon":5.39059,"is_reserved":false,"is_disabled":false,"rental_uris":{"android":"levelo://app?vid=38ecccac-92d2-4d3e-929b-694e6cd14adf","ios":"levelo://app?vid=38ecccac-92d2-4d3e-929b-694e6cd14adf"},"vehicle_type_id":"4","last_reported":1744784089,"current_range_meters":14400,"station_id":"ce4bgup2rcd13ifvqco0","pricing_plan_id":"cebpf4jnsgd1na2vs0mg"},{"bike_id":"456a03ee-7a76-476e-96d6-376406a71552","system_id":"levelo_inurba_marseille","lat":43.27174,"lon":5.39186,"is_reserved":false,"is_disabled":false,"rental_uris":{"android":"levelo://app?vid=456a03ee-7a76-476e-96d6-376406a71552","ios":"levelo://app?vid=456a03ee-7a76-476e-96d6-376406a71552"},"vehicle_type_id":"4","last_reported":1744784089,"current_range_meters":14400,"station_id":"ce4bhhp2rcd13ifvqfm0","pricing_plan_id":"cebpf4jnsgd1na2vs0mg"},{"bike_id":"834ec9e1-9d50-4bee-85ae-d1db335c55e5","system_id":"levelo_inurba_marseille","lat":43.31807,"lon":5.36831,"is_reserved":false,"is_disabled":false,"rental_uris":{"android":"levelo://app?vid=834ec9e1-9d50-4bee-85ae-d1db335c55e5","ios":"levelo://app?vid=834ec9e1-9d50-4bee-85ae-d1db335c55e5"},"vehicle_type_id":"4","last_reported":1744784089,"current_range_meters":14800,"station_id":"","pricing_plan_id":"cebpf4jnsgd1na2vs0mg"},{"bike_id":"4c470df7-4cbb-413f-b587-893637313088","system_id":"levelo_inurba_marseille","lat":43.25119,"lon":5.40337,"is_reserved":false,"is_disabled":false,"rental_uris":{"android":"levelo://app?vid=4c470df7-4cbb-413f-b587-893637313088","ios":"levelo://app?vid=4c470df7-4cbb-413f-b587-893637313088"},"vehicle_type_id":"4","last_reported":1744784089,"current_range_meters":14800,"station_id":"ce4bhlh2rcd13ifvqgig","pricing_plan_id":"cebpf4jnsgd1na2vs0mg"},{"bike_id":"6f23923f-fc67-460a-b0b8-5119c016d5b0","system_id":"levelo_inurba_marseille","lat":43.269366,"lon":5.389321,"is_reserved":false,"is_disabled":true,"rental_uris":{"android":"levelo://app?vid=6f23923f-fc67-460a-b0b8-5119c016d5b0","ios":"levelo://app?vid=6f23923f-fc67-460a-b0b8-5119c016d5b0"},"vehicle_type_id":"4","last_reported":1744784089,"current_range_meters":14800,"station_id":"ce4bhhh2rcd13ifvqfl0","pricing_plan_id":"cebpf4jnsgd1na2vs0mg"},{"bike_id":"15839d76-0879-42d7-9bf8-b60f30413855","system_id":"levelo_inurba_marseille","lat":43.29269,"lon":5.36841,"is_reserved":false,"is_disabled":true,"rental_uris":{"android":"levelo://app?vid=15839d76-0879-42d7-9bf8-b60f30413855","ios":"levelo://app?vid=15839d76-0879-42d7-9bf8-b60f30413855"},"vehicle_type_id":"4","last_reported":1744784089,"current_range_meters":14800,"station_id":"ce4bhbp2rcd13ifvqesg","pricing_plan_id":"cebpf4jnsgd1na2vs0mg"},{"bike_id":"39bb7fa7-e10e-44b0-9660-f8a00315d2f8","system_id":"levelo_inurba_marseille","lat":43.28486,"lon":5.38553,"is_reserved":false,"is_disabled":false,"rental_uris":{"android":"levelo://app?vid=39bb7fa7-e10e-44b0-9660-f8a00315d2f8","ios":"levelo://app?vid=39bb7fa7-e10e-44b0-9660-f8a00315d2f8"},"vehicle_type_id":"4","last_reported":1744784089,"current_range_meters":15200,"station_id":"ce4bh8p2rcd13ifvqeb0","pricing_plan_id":"cebpf4jnsgd1na2vs0mg"},{"bike_id":"749d68ab-d999-4213-8b50-f5963d394e38","system_id":"levelo_inurba_marseille","lat":43.30787,"lon":5.37663,"is_reserved":false,"is_disabled":false,"rental_uris":{"android":"levelo://app?vid=749d68ab-d999-4213-8b50-f5963d394e38","ios":"levelo://app?vid=749d68ab-d999-4213-8b50-f5963d394e38"},"vehicle_type_id":"4","last_reported":1744784089,"current_range_meters":15200,"station_id":"ce4bgv92rcd13ifvqcq0","pricing_plan_id":"cebpf4jnsgd1na2vs0mg"},{"bike_id":"62c6c739-f04a-4496-be5e-ce38b6345be1","system_id":"levelo_inurba_marseille","lat":43.28108,"lon":5.37847,"is_reserved":false,"is_disabled":false,"rental_uris":{"android":"levelo://app?vid=62c6c739-f04a-4496-be5e-ce38b6345be1","ios":"levelo://app?vid=62c6c739-f04a-4496-be5e-ce38b6345be1"},"vehicle_type_id":"4","last_reported":1744784089,"current_range_meters":15200,"station_id":"ce4bha12rcd13ifvqee0","pricing_plan_id":"cebpf4jnsgd1na2vs0mg"},{"bike_id":"74ec87ab-fa5e-44d2-83e9-d18666eb1af3","system_id":"levelo_inurba_marseille","lat":43.28401,"lon":5.37512,"is_reserved":false,"is_disabled":false,"rental_uris":{"android":"levelo://app?vid=74ec87ab-fa5e-44d2-83e9-d18666eb1af3","ios":"levelo://app?vid=74ec87ab-fa5e-44d2-83e9-d18666eb1af3"},"vehicle_type_id":"4","last_reported":1744784089,"current_range_meters":16000,"station_id":"ce4bh412rcd13ifvqds0","pricing_plan_id":"cebpf4jnsgd1na2vs0mg"},{"bike_id":"986a349a-ce2e-4c4e-9cec-cb2229ac855f","system_id":"levelo_inurba_marseille","lat":43.3128,"lon":5.37519,"is_reserved":false,"is_disabled":false,"rental_uris":{"android":"levelo://app?vid=986a349a-ce2e-4c4e-9cec-cb2229ac855f","ios":"levelo://app?vid=986a349a-ce2e-4c4e-9cec-cb2229ac855f"},"vehicle_type_id":"4","last_reported":1744784089,"current_range_meters":16000,"station_id":"","pricing_plan_id":"cebpf4jnsgd1na2vs0mg"},{"bike_id":"cc56a60f-281d-47dc-9b78-ea2c6cfbbee8","system_id":"levelo_inurba_marseille","lat":43.28696,"lon":5.4,"is_reserved":false,"is_disabled":false,"rental_uris":{"android":"levelo://app?vid=cc56a60f-281d-47dc-9b78-ea2c6cfbbee8","ios":"levelo://app?vid=cc56a60f-281d-47dc-9b78-ea2c6cfbbee8"},"vehicle_type_id":"4","last_reported":1744784089,"current_range_meters":16000,"station_id":"ce4bho92rcd13ifvqh3g","pricing_plan_id":"cebpf4jnsgd1na2vs0mg"},{"bike_id":"4c0ede51-6b22-44f8-8575-b86906a20779","system_id":"levelo_inurba_marseille","lat":43.21746,"lon":5.34602,"is_reserved":false,"is_disabled":false,"rental_uris":{"android":"levelo://app?vid=4c0ede51-6b22-44f8-8575-b86906a20779","ios":"levelo://app?vid=4c0ede51-6b22-44f8-8575-b86906a20779"},"vehicle_type_id":"4","last_reported":1744784089,"current_range_meters":16000,"station_id":"st_cvj6r9ubvosntc0bgbag","pricing_plan_id":"cebpf4jnsgd1na2vs0mg"},{"bike_id":"d34693e3-4b7f-4ed5-8929-fa8011f280b8","system_id":"levelo_inurba_marseille","lat":43.284132,"lon":5.375272,"is_reserved":false,"is_disabled":false,"rental_uris":{"android":"levelo://app?vid=d34693e3-4b7f-4ed5-8929-fa8011f280b8","ios":"levelo://app?vid=d34693e3-4b7f-4ed5-8929-fa8011f280b8"},"vehicle_type_id":"4","last_reported":1744784089,"current_range_meters":16000,"station_id":"ce4bh412rcd13ifvqds0","pricing_plan_id":"cebpf4jnsgd1na2vs0mg"},{"bike_id":"09651454-ba98-489f-84d4-7c0b820526b4","system_id":"levelo_inurba_marseille","lat":43.31191,"lon":5.36863,"is_reserved":false,"is_disabled":false,"rental_uris":{"android":"levelo://app?vid=09651454-ba98-489f-84d4-7c0b820526b4","ios":"levelo://app?vid=09651454-ba98-489f-84d4-7c0b820526b4"},"vehicle_type_id":"4","last_reported":1744784089,"current_range_meters":16000,"station_id":"ce4bgl92rcd13ifvqbq0","pricing_plan_id":"cebpf4jnsgd1na2vs0mg"},{"bike_id":"91971bf2-30da-4905-b03a-ff29698f674a","system_id":"levelo_inurba_marseille","lat":43.2867,"lon":5.38663,"is_reserved":false,"is_disabled":false,"rental_uris":{"android":"levelo://app?vid=91971bf2-30da-4905-b03a-ff29698f674a","ios":"levelo://app?vid=91971bf2-30da-4905-b03a-ff29698f674a"},"vehicle_type_id":"4","last_reported":1744784089,"current_range_meters":16400,"station_id":"ce4bh492rcd13ifvqdug","pricing_plan_id":"cebpf4jnsgd1na2vs0mg"},{"bike_id":"3de426c9-05f1-467d-9020-cc2b6b85afd7","system_id":"levelo_inurba_marseille","lat":43.28301,"lon":5.38115,"is_reserved":false,"is_disabled":true,"rental_uris":{"android":"levelo://app?vid=3de426c9-05f1-467d-9020-cc2b6b85afd7","ios":"levelo://app?vid=3de426c9-05f1-467d-9020-cc2b6b85afd7"},"vehicle_type_id":"4","last_reported":1744784089,"current_range_meters":16400,"station_id":"ce4bh412rcd13ifvqdr0","pricing_plan_id":"cebpf4jnsgd1na2vs0mg"},{"bike_id":"fa8b5d88-c56b-4501-99c1-1b5a6dfd1f66","system_id":"levelo_inurba_marseille","lat":43.21201,"lon":5.35081,"is_reserved":false,"is_disabled":false,"rental_uris":{"android":"levelo://app?vid=fa8b5d88-c56b-4501-99c1-1b5a6dfd1f66","ios":"levelo://app?vid=fa8b5d88-c56b-4501-99c1-1b5a6dfd1f66"},"vehicle_type_id":"4","last_reported":1744784089,"current_range_meters":16400,"station_id":"st_cvj6sg6p6f1abm77japg","pricing_plan_id":"cebpf4jnsgd1na2vs0mg"},{"bike_id":"fea98b0b-ade0-432d-9d0c-9cebd4cf6312","system_id":"levelo_inurba_marseille","lat":43.29034,"lon":5.39972,"is_reserved":false,"is_disabled":false,"rental_uris":{"android":"levelo://app?vid=fea98b0b-ade0-432d-9d0c-9cebd4cf6312","ios":"levelo://app?vid=fea98b0b-ade0-432d-9d0c-9cebd4cf6312"},"vehicle_type_id":"4","last_reported":1744784089,"current_range_meters":16800,"station_id":"ce4bh392rcd13ifvqdm0","pricing_plan_id":"cebpf4jnsgd1na2vs0mg"},{"bike_id":"f556879c-5c9c-404c-bfda-1bbcb0880b98","system_id":"levelo_inurba_marseille","lat":43.29565,"lon":5.375,"is_reserved":false,"is_disabled":true,"rental_uris":{"android":"levelo://app?vid=f556879c-5c9c-404c-bfda-1bbcb0880b98","ios":"levelo://app?vid=f556879c-5c9c-404c-bfda-1bbcb0880b98"},"vehicle_type_id":"4","last_reported":1744784089,"current_range_meters":16800,"station_id":"ce4bgh92rcd13ifvqb50","pricing_plan_id":"cebpf4jnsgd1na2vs0mg"},{"bike_id":"6bf5a380-400e-4cd6-bc1e-356afac9ee45","system_id":"levelo_inurba_marseille","lat":43.24162,"lon":5.36399,"is_reserved":false,"is_disabled":false,"rental_uris":{"android":"levelo://app?vid=6bf5a380-400e-4cd6-bc1e-356afac9ee45","ios":"levelo://app?vid=6bf5a380-400e-4cd6-bc1e-356afac9ee45"},"vehicle_type_id":"4","last_reported":1744784089,"current_range_meters":16800,"station_id":"cpo36qri1sfpv3e86is0","pricing_plan_id":"cebpf4jnsgd1na2vs0mg"},{"bike_id":"6c103f9f-c959-46ad-a2e8-e44f9660c68e","system_id":"levelo_inurba_marseille","lat":43.21192,"lon":5.35078,"is_reserved":false,"is_disabled":true,"rental_uris":{"android":"levelo://app?vid=6c103f9f-c959-46ad-a2e8-e44f9660c68e","ios":"levelo://app?vid=6c103f9f-c959-46ad-a2e8-e44f9660c68e"},"vehicle_type_id":"4","last_reported":1744784089,"current_range_meters":16800,"station_id":"st_cvj6sg6p6f1abm77japg","pricing_plan_id":"cebpf4jnsgd1na2vs0mg"},{"bike_id":"37af77cd-da0b-4d48-87c4-b37ee2687136","system_id":"levelo_inurba_marseille","lat":43.2886,"lon":5.35936,"is_reserved":false,"is_disabled":false,"rental_uris":{"android":"levelo://app?vid=37af77cd-da0b-4d48-87c4-b37ee2687136","ios":"levelo://app?vid=37af77cd-da0b-4d48-87c4-b37ee2687136"},"vehicle_type_id":"4","last_reported":1744784089,"current_range_meters":16800,"station_id":"","pricing_plan_id":"cebpf4jnsgd1na2vs0mg"},{"bike_id":"2be2e8c5-ff49-4a5a-963a-4bbeabb11512","system_id":"levelo_inurba_marseille","lat":43.30729,"lon":5.42447,"is_reserved":false,"is_disabled":false,"rental_uris":{"android":"levelo://app?vid=2be2e8c5-ff49-4a5a-963a-4bbeabb11512","ios":"levelo://app?vid=2be2e8c5-ff49-4a5a-963a-4bbeabb11512"},"vehicle_type_id":"4","last_reported":1744784089,"current_range_meters":16800,"station_id":"st_cvj6ca6bvosntc0bfgr0","pricing_plan_id":"cebpf4jnsgd1na2vs0mg"},{"bike_id":"4cc60183-f086-4946-9e35-7a75728daa73","system_id":"levelo_inurba_marseille","lat":43.257188,"lon":5.386661,"is_reserved":false,"is_disabled":false,"rental_uris":{"android":"levelo://app?vid=4cc60183-f086-4946-9e35-7a75728daa73","ios":"levelo://app?vid=4cc60183-f086-4946-9e35-7a75728daa73"},"vehicle_type_id":"4","last_reported":1744784089,"current_range_meters":16800,"station_id":"","pricing_plan_id":"cebpf4jnsgd1na2vs0mg"},{"bike_id":"e3670510-219d-4ce8-90e9-deef08906868","system_id":"levelo_inurba_marseille","lat":43.3198,"lon":5.38178,"is_reserved":false,"is_disabled":false,"rental_uris":{"android":"levelo://app?vid=e3670510-219d-4ce8-90e9-deef08906868","ios":"levelo://app?vid=e3670510-219d-4ce8-90e9-deef08906868"},"vehicle_type_id":"4","last_reported":1744784089,"current_range_meters":17200,"station_id":"ce4bhr12rcd13ifvqhpg","pricing_plan_id":"cebpf4jnsgd1na2vs0mg"},{"bike_id":"1d42bf00-ac3d-4bcd-b058-d356740cab40","system_id":"levelo_inurba_marseille","lat":43.30758,"lon":5.37655,"is_reserved":false,"is_disabled":false,"rental_uris":{"android":"levelo://app?vid=1d42bf00-ac3d-4bcd-b058-d356740cab40","ios":"levelo://app?vid=1d42bf00-ac3d-4bcd-b058-d356740cab40"},"vehicle_type_id":"4","last_reported":1744784089,"current_range_meters":17200,"station_id":"ce4bgv92rcd13ifvqcq0","pricing_plan_id":"cebpf4jnsgd1na2vs0mg"},{"bike_id":"b5e608ec-54ff-4088-bdf2-41d55ef5547f","system_id":"levelo_inurba_marseille","lat":43.24396,"lon":5.37062,"is_reserved":false,"is_disabled":false,"rental_uris":{"android":"levelo://app?vid=b5e608ec-54ff-4088-bdf2-41d55ef5547f","ios":"levelo://app?vid=b5e608ec-54ff-4088-bdf2-41d55ef5547f"},"vehicle_type_id":"4","last_reported":1744784089,"current_range_meters":17200,"station_id":"ce4bhhh2rcd13ifvqfk0","pricing_plan_id":"cebpf4jnsgd1na2vs0mg"},{"bike_id":"f8205049-59cf-4c67-95d9-2ae60dd41d42","system_id":"levelo_inurba_marseille","lat":43.26066,"lon":5.39386,"is_reserved":false,"is_disabled":false,"rental_uris":{"android":"levelo://app?vid=f8205049-59cf-4c67-95d9-2ae60dd41d42","ios":"levelo://app?vid=f8205049-59cf-4c67-95d9-2ae60dd41d42"},"vehicle_type_id":"4","last_reported":1744784089,"current_range_meters":17200,"station_id":"ce4bhh92rcd13ifvqfj0","pricing_plan_id":"cebpf4jnsgd1na2vs0mg"},{"bike_id":"974cd6d2-8ca7-44c8-a5d0-76fac1ad1503","system_id":"levelo_inurba_marseille","lat":43.23186,"lon":5.39987,"is_reserved":false,"is_disabled":false,"rental_uris":{"android":"levelo://app?vid=974cd6d2-8ca7-44c8-a5d0-76fac1ad1503","ios":"levelo://app?vid=974cd6d2-8ca7-44c8-a5d0-76fac1ad1503"},"vehicle_type_id":"4","last_reported":1744784089,"current_range_meters":17200,"station_id":"ce4bhn12rcd13ifvqgqg","pricing_plan_id":"cebpf4jnsgd1na2vs0mg"},{"bike_id":"3f43a50c-05da-4e00-b1e1-be54458029bc","system_id":"levelo_inurba_marseille","lat":43.28282,"lon":5.35078,"is_reserved":false,"is_disabled":false,"rental_uris":{"android":"levelo://app?vid=3f43a50c-05da-4e00-b1e1-be54458029bc","ios":"levelo://app?vid=3f43a50c-05da-4e00-b1e1-be54458029bc"},"vehicle_type_id":"4","last_reported":1744784089,"current_range_meters":17200,"station_id":"ce4bhbp2rcd13ifvqerg","pricing_plan_id":"cebpf4jnsgd1na2vs0mg"},{"bike_id":"b082caf9-1aa9-41e8-8081-4da72e64e8e4","system_id":"levelo_inurba_marseille","lat":43.309267,"lon":5.401436,"is_reserved":false,"is_disabled":true,"rental_uris":{"android":"levelo://app?vid=b082caf9-1aa9-41e8-8081-4da72e64e8e4","ios":"levelo://app?vid=b082caf9-1aa9-41e8-8081-4da72e64e8e4"},"vehicle_type_id":"4","last_reported":1744784089,"current_range_meters":17200,"station_id":"ce4bgvp2rcd13ifvqct0","pricing_plan_id":"cebpf4jnsgd1na2vs0mg"},{"bike_id":"38dbf9a5-ca67-4d58-a0cd-4cfb543fe6c0","system_id":"levelo_inurba_marseille","lat":43.30921,"lon":5.40135,"is_reserved":false,"is_disabled":false,"rental_uris":{"android":"levelo://app?vid=38dbf9a5-ca67-4d58-a0cd-4cfb543fe6c0","ios":"levelo://app?vid=38dbf9a5-ca67-4d58-a0cd-4cfb543fe6c0"},"vehicle_type_id":"4","last_reported":1744784089,"current_range_meters":17200,"station_id":"ce4bgvp2rcd13ifvqct0","pricing_plan_id":"cebpf4jnsgd1na2vs0mg"},{"bike_id":"1b184255-9c20-4e62-8ae1-defa22786c18","system_id":"levelo_inurba_marseille","lat":43.278868,"lon":5.395716,"is_reserved":false,"is_disabled":false,"rental_uris":{"android":"levelo://app?vid=1b184255-9c20-4e62-8ae1-defa22786c18","ios":"levelo://app?vid=1b184255-9c20-4e62-8ae1-defa22786c18"},"vehicle_type_id":"4","last_reported":1744784089,"current_range_meters":17600,"station_id":"ce4bhk92rcd13ifvqgc0","pricing_plan_id":"cebpf4jnsgd1na2vs0mg"},{"bike_id":"ed97a721-7aee-47b1-b49b-a65ade99fd09","system_id":"levelo_inurba_marseille","lat":43.3431,"lon":5.378,"is_reserved":false,"is_disabled":false,"rental_uris":{"android":"levelo://app?vid=ed97a721-7aee-47b1-b49b-a65ade99fd09","ios":"levelo://app?vid=ed97a721-7aee-47b1-b49b-a65ade99fd09"},"vehicle_type_id":"4","last_reported":1744784089,"current_range_meters":17600,"station_id":"","pricing_plan_id":"cebpf4jnsgd1na2vs0mg"},{"bike_id":"d6fee597-3293-47ae-914e-c48760e9f772","system_id":"levelo_inurba_marseille","lat":43.240645,"lon":5.37768,"is_reserved":false,"is_disabled":false,"rental_uris":{"android":"levelo://app?vid=d6fee597-3293-47ae-914e-c48760e9f772","ios":"levelo://app?vid=d6fee597-3293-47ae-914e-c48760e9f772"},"vehicle_type_id":"4","last_reported":1744784089,"current_range_meters":17600,"station_id":"ce4bhnp2rcd13ifvqgvg","pricing_plan_id":"cebpf4jnsgd1na2vs0mg"},{"bike_id":"b76a366b-6464-49b8-8aea-9aa46635f1d1","system_id":"levelo_inurba_marseille","lat":43.28407,"lon":5.37517,"is_reserved":false,"is_disabled":false,"rental_uris":{"android":"levelo://app?vid=b76a366b-6464-49b8-8aea-9aa46635f1d1","ios":"levelo://app?vid=b76a366b-6464-49b8-8aea-9aa46635f1d1"},"vehicle_type_id":"4","last_reported":1744784089,"current_range_meters":18000,"station_id":"ce4bh412rcd13ifvqds0","pricing_plan_id":"cebpf4jnsgd1na2vs0mg"},{"bike_id":"e563cec3-5ef6-4520-be15-e8848a75180a","system_id":"levelo_inurba_marseille","lat":43.285712,"lon":5.394963,"is_reserved":false,"is_disabled":false,"rental_uris":{"android":"levelo://app?vid=e563cec3-5ef6-4520-be15-e8848a75180a","ios":"levelo://app?vid=e563cec3-5ef6-4520-be15-e8848a75180a"},"vehicle_type_id":"4","last_reported":1744784089,"current_range_meters":18000,"station_id":"ce4bh292rcd13ifvqdg0","pricing_plan_id":"cebpf4jnsgd1na2vs0mg"},{"bike_id":"10a05b79-c3d5-4be7-a18b-8140be240501","system_id":"levelo_inurba_marseille","lat":43.295895,"lon":5.380963,"is_reserved":false,"is_disabled":true,"rental_uris":{"android":"levelo://app?vid=10a05b79-c3d5-4be7-a18b-8140be240501","ios":"levelo://app?vid=10a05b79-c3d5-4be7-a18b-8140be240501"},"vehicle_type_id":"4","last_reported":1744784089,"current_range_meters":18000,"station_id":"ce4bgl12rcd13ifvqbo0","pricing_plan_id":"cebpf4jnsgd1na2vs0mg"},{"bike_id":"f3a17301-f4cd-4211-8c74-a7b1a492d742","system_id":"levelo_inurba_marseille","lat":43.28082,"lon":5.40785,"is_reserved":false,"is_disabled":false,"rental_uris":{"android":"levelo://app?vid=f3a17301-f4cd-4211-8c74-a7b1a492d742","ios":"levelo://app?vid=f3a17301-f4cd-4211-8c74-a7b1a492d742"},"vehicle_type_id":"4","last_reported":1744784089,"current_range_meters":18000,"station_id":"","pricing_plan_id":"cebpf4jnsgd1na2vs0mg"},{"bike_id":"c31c0ecc-e896-4522-8f59-f94ab8194ac3","system_id":"levelo_inurba_marseille","lat":43.31696,"lon":5.40465,"is_reserved":false,"is_disabled":false,"rental_uris":{"android":"levelo://app?vid=c31c0ecc-e896-4522-8f59-f94ab8194ac3","ios":"levelo://app?vid=c31c0ecc-e896-4522-8f59-f94ab8194ac3"},"vehicle_type_id":"4","last_reported":1744784089,"current_range_meters":18000,"station_id":"ce4bh012rcd13ifvqd00","pricing_plan_id":"cebpf4jnsgd1na2vs0mg"},{"bike_id":"4c6745eb-406f-446c-a220-2c154e104cdb","system_id":"levelo_inurba_marseille","lat":43.28508,"lon":5.38547,"is_reserved":false,"is_disabled":false,"rental_uris":{"android":"levelo://app?vid=4c6745eb-406f-446c-a220-2c154e104cdb","ios":"levelo://app?vid=4c6745eb-406f-446c-a220-2c154e104cdb"},"vehicle_type_id":"4","last_reported":1744784089,"current_range_meters":18000,"station_id":"ce4bh8p2rcd13ifvqeb0","pricing_plan_id":"cebpf4jnsgd1na2vs0mg"},{"bike_id":"7fcc1271-7200-4fda-a838-060f83266864","system_id":"levelo_inurba_marseille","lat":43.24662,"lon":5.38154,"is_reserved":false,"is_disabled":false,"rental_uris":{"android":"levelo://app?vid=7fcc1271-7200-4fda-a838-060f83266864","ios":"levelo://app?vid=7fcc1271-7200-4fda-a838-060f83266864"},"vehicle_type_id":"4","last_reported":1744784089,"current_range_meters":18000,"station_id":"ce4bhih2rcd13ifvqfr0","pricing_plan_id":"cebpf4jnsgd1na2vs0mg"},{"bike_id":"0f197072-e66d-4711-a6fc-f246d86a4204","system_id":"levelo_inurba_marseille","lat":43.29043,"lon":5.39969,"is_reserved":false,"is_disabled":false,"rental_uris":{"android":"levelo://app?vid=0f197072-e66d-4711-a6fc-f246d86a4204","ios":"levelo://app?vid=0f197072-e66d-4711-a6fc-f246d86a4204"},"vehicle_type_id":"4","last_reported":1744784089,"current_range_meters":18000,"station_id":"ce4bh392rcd13ifvqdm0","pricing_plan_id":"cebpf4jnsgd1na2vs0mg"},{"bike_id":"d2cd8bf5-ba5c-4e24-bf91-af6d2896d6cd","system_id":"levelo_inurba_marseille","lat":43.30505,"lon":5.37897,"is_reserved":false,"is_disabled":false,"rental_uris":{"android":"levelo://app?vid=d2cd8bf5-ba5c-4e24-bf91-af6d2896d6cd","ios":"levelo://app?vid=d2cd8bf5-ba5c-4e24-bf91-af6d2896d6cd"},"vehicle_type_id":"4","last_reported":1744784089,"current_range_meters":18000,"station_id":"ce4bgup2rcd13ifvqcn0","pricing_plan_id":"cebpf4jnsgd1na2vs0mg"},{"bike_id":"6a8e9068-2a8d-4c93-8c2d-e30f03079545","system_id":"levelo_inurba_marseille","lat":43.25923,"lon":5.41278,"is_reserved":false,"is_disabled":true,"rental_uris":{"android":"levelo://app?vid=6a8e9068-2a8d-4c93-8c2d-e30f03079545","ios":"levelo://app?vid=6a8e9068-2a8d-4c93-8c2d-e30f03079545"},"vehicle_type_id":"4","last_reported":1744784089,"current_range_meters":18000,"station_id":"ce4bhkp2rcd13ifvqgd0","pricing_plan_id":"cebpf4jnsgd1na2vs0mg"},{"bike_id":"90a27645-a5f6-487a-a1a8-67ca08ff4b5c","system_id":"levelo_inurba_marseille","lat":43.24379,"lon":5.37088,"is_reserved":false,"is_disabled":false,"rental_uris":{"android":"levelo://app?vid=90a27645-a5f6-487a-a1a8-67ca08ff4b5c","ios":"levelo://app?vid=90a27645-a5f6-487a-a1a8-67ca08ff4b5c"},"vehicle_type_id":"4","last_reported":1744784089,"current_range_meters":18800,"station_id":"ce4bhhh2rcd13ifvqfk0","pricing_plan_id":"cebpf4jnsgd1na2vs0mg"},{"bike_id":"bf5b1fd2-4b80-40f8-91bb-bbff3b3627cb","system_id":"levelo_inurba_marseille","lat":43.27383,"lon":5.36255,"is_reserved":false,"is_disabled":false,"rental_uris":{"android":"levelo://app?vid=bf5b1fd2-4b80-40f8-91bb-bbff3b3627cb","ios":"levelo://app?vid=bf5b1fd2-4b80-40f8-91bb-bbff3b3627cb"},"vehicle_type_id":"4","last_reported":1744784089,"current_range_meters":18800,"station_id":"ce4bhbh2rcd13ifvqeo0","pricing_plan_id":"cebpf4jnsgd1na2vs0mg"},{"bike_id":"ef372a5e-4fde-4cce-a6b9-36c336b8ff05","system_id":"levelo_inurba_marseille","lat":43.27085,"lon":5.40333,"is_reserved":false,"is_disabled":false,"rental_uris":{"android":"levelo://app?vid=ef372a5e-4fde-4cce-a6b9-36c336b8ff05","ios":"levelo://app?vid=ef372a5e-4fde-4cce-a6b9-36c336b8ff05"},"vehicle_type_id":"4","last_reported":1744784089,"current_range_meters":18800,"station_id":"","pricing_plan_id":"cebpf4jnsgd1na2vs0mg"},{"bike_id":"57406be6-c0b4-4691-8abf-3f6842e4ec81","system_id":"levelo_inurba_marseille","lat":43.28445,"lon":5.39191,"is_reserved":false,"is_disabled":true,"rental_uris":{"android":"levelo://app?vid=57406be6-c0b4-4691-8abf-3f6842e4ec81","ios":"levelo://app?vid=57406be6-c0b4-4691-8abf-3f6842e4ec81"},"vehicle_type_id":"4","last_reported":1744784089,"current_range_meters":18800,"station_id":"ce4bhoh2rcd13ifvqh5g","pricing_plan_id":"cebpf4jnsgd1na2vs0mg"},{"bike_id":"a0ddb0a5-f7f0-4281-aa27-9e82747cc573","system_id":"levelo_inurba_marseille","lat":43.337583,"lon":5.374929,"is_reserved":false,"is_disabled":false,"rental_uris":{"android":"levelo://app?vid=a0ddb0a5-f7f0-4281-aa27-9e82747cc573","ios":"levelo://app?vid=a0ddb0a5-f7f0-4281-aa27-9e82747cc573"},"vehicle_type_id":"4","last_reported":1744784089,"current_range_meters":18800,"station_id":"","pricing_plan_id":"cebpf4jnsgd1na2vs0mg"},{"bike_id":"73c748f5-d34c-4696-bbd1-e96fdf17278a","system_id":"levelo_inurba_marseille","lat":43.291438,"lon":5.379499,"is_reserved":false,"is_disabled":false,"rental_uris":{"android":"levelo://app?vid=73c748f5-d34c-4696-bbd1-e96fdf17278a","ios":"levelo://app?vid=73c748f5-d34c-4696-bbd1-e96fdf17278a"},"vehicle_type_id":"4","last_reported":1744784089,"current_range_meters":18800,"station_id":"","pricing_plan_id":"cebpf4jnsgd1na2vs0mg"},{"bike_id":"bac8cada-45d8-42a0-871d-8bfddf55dd77","system_id":"levelo_inurba_marseille","lat":43.284639,"lon":5.358948,"is_reserved":false,"is_disabled":true,"rental_uris":{"android":"levelo://app?vid=bac8cada-45d8-42a0-871d-8bfddf55dd77","ios":"levelo://app?vid=bac8cada-45d8-42a0-871d-8bfddf55dd77"},"vehicle_type_id":"4","last_reported":1744784089,"current_range_meters":19200,"station_id":"ce4bhah2rcd13ifvqei0","pricing_plan_id":"cebpf4jnsgd1na2vs0mg"},{"bike_id":"3d3e85b3-b957-4512-ade2-580297bfc019","system_id":"levelo_inurba_marseille","lat":43.27208,"lon":5.39196,"is_reserved":false,"is_disabled":true,"rental_uris":{"android":"levelo://app?vid=3d3e85b3-b957-4512-ade2-580297bfc019","ios":"levelo://app?vid=3d3e85b3-b957-4512-ade2-580297bfc019"},"vehicle_type_id":"4","last_reported":1744784089,"current_range_meters":19200,"station_id":"ce4bhhp2rcd13ifvqfm0","pricing_plan_id":"cebpf4jnsgd1na2vs0mg"},{"bike_id":"8bc36e41-831d-474c-b559-3a592c8740c4","system_id":"levelo_inurba_marseille","lat":43.25728,"lon":5.41136,"is_reserved":false,"is_disabled":false,"rental_uris":{"android":"levelo://app?vid=8bc36e41-831d-474c-b559-3a592c8740c4","ios":"levelo://app?vid=8bc36e41-831d-474c-b559-3a592c8740c4"},"vehicle_type_id":"4","last_reported":1744784089,"current_range_meters":19200,"station_id":"ce4bhkp2rcd13ifvqgd0","pricing_plan_id":"cebpf4jnsgd1na2vs0mg"},{"bike_id":"71e94148-75c9-4d56-b41d-f80df28d87b0","system_id":"levelo_inurba_marseille","lat":43.319983,"lon":5.381579,"is_reserved":false,"is_disabled":false,"rental_uris":{"android":"levelo://app?vid=71e94148-75c9-4d56-b41d-f80df28d87b0","ios":"levelo://app?vid=71e94148-75c9-4d56-b41d-f80df28d87b0"},"vehicle_type_id":"4","last_reported":1744784089,"current_range_meters":19200,"station_id":"ce4bhr12rcd13ifvqhpg","pricing_plan_id":"cebpf4jnsgd1na2vs0mg"},{"bike_id":"72644e8a-1bab-456d-823e-f10ffe92d0ec","system_id":"levelo_inurba_marseille","lat":43.29549,"lon":5.42289,"is_reserved":false,"is_disabled":false,"rental_uris":{"android":"levelo://app?vid=72644e8a-1bab-456d-823e-f10ffe92d0ec","ios":"levelo://app?vid=72644e8a-1bab-456d-823e-f10ffe92d0ec"},"vehicle_type_id":"4","last_reported":1744784089,"current_range_meters":19200,"station_id":"ce4bhph2rcd13ifvqhdg","pricing_plan_id":"cebpf4jnsgd1na2vs0mg"},{"bike_id":"8eb34cd0-0c23-43cb-9b28-0c713fc2bf0d","system_id":"levelo_inurba_marseille","lat":43.312699,"lon":5.401947,"is_reserved":false,"is_disabled":false,"rental_uris":{"android":"levelo://app?vid=8eb34cd0-0c23-43cb-9b28-0c713fc2bf0d","ios":"levelo://app?vid=8eb34cd0-0c23-43cb-9b28-0c713fc2bf0d"},"vehicle_type_id":"4","last_reported":1744784089,"current_range_meters":19200,"station_id":"ce4bh092rcd13ifvqd30","pricing_plan_id":"cebpf4jnsgd1na2vs0mg"},{"bike_id":"633e09c0-95d2-47f9-b4bf-0feb1e273e77","system_id":"levelo_inurba_marseille","lat":43.290149,"lon":5.399493,"is_reserved":false,"is_disabled":false,"rental_uris":{"android":"levelo://app?vid=633e09c0-95d2-47f9-b4bf-0feb1e273e77","ios":"levelo://app?vid=633e09c0-95d2-47f9-b4bf-0feb1e273e77"},"vehicle_type_id":"4","last_reported":1744784089,"current_range_meters":19200,"station_id":"ce4bh392rcd13ifvqdm0","pricing_plan_id":"cebpf4jnsgd1na2vs0mg"},{"bike_id":"253cb408-1292-4456-8381-70bdc9615886","system_id":"levelo_inurba_marseille","lat":43.25,"lon":5.38929,"is_reserved":false,"is_disabled":false,"rental_uris":{"android":"levelo://app?vid=253cb408-1292-4456-8381-70bdc9615886","ios":"levelo://app?vid=253cb408-1292-4456-8381-70bdc9615886"},"vehicle_type_id":"4","last_reported":1744784089,"current_range_meters":19200,"station_id":"ce4bhgp2rcd13ifvqfd0","pricing_plan_id":"cebpf4jnsgd1na2vs0mg"},{"bike_id":"007ea789-37cd-4aaa-8c30-eec534b70e07","system_id":"levelo_inurba_marseille","lat":43.288414,"lon":5.385501,"is_reserved":false,"is_disabled":false,"rental_uris":{"android":"levelo://app?vid=007ea789-37cd-4aaa-8c30-eec534b70e07","ios":"levelo://app?vid=007ea789-37cd-4aaa-8c30-eec534b70e07"},"vehicle_type_id":"4","last_reported":1744784089,"current_range_meters":19200,"station_id":"","pricing_plan_id":"cebpf4jnsgd1na2vs0mg"},{"bike_id":"d07f3575-c570-4366-9138-201949d4b627","system_id":"levelo_inurba_marseille","lat":43.22936,"lon":5.35396,"is_reserved":false,"is_disabled":false,"rental_uris":{"android":"levelo://app?vid=d07f3575-c570-4366-9138-201949d4b627","ios":"levelo://app?vid=d07f3575-c570-4366-9138-201949d4b627"},"vehicle_type_id":"4","last_reported":1744784089,"current_range_meters":19600,"station_id":"cpo3532slgdg3j2ikp40","pricing_plan_id":"cebpf4jnsgd1na2vs0mg"},{"bike_id":"c749e214-1a58-4daa-8f2f-3e7d98436ae6","system_id":"levelo_inurba_marseille","lat":43.28042,"lon":5.36948,"is_reserved":false,"is_disabled":true,"rental_uris":{"android":"levelo://app?vid=c749e214-1a58-4daa-8f2f-3e7d98436ae6","ios":"levelo://app?vid=c749e214-1a58-4daa-8f2f-3e7d98436ae6"},"vehicle_type_id":"4","last_reported":1744784089,"current_range_meters":19600,"station_id":"ce4bh412rcd13ifvqds0","pricing_plan_id":"cebpf4jnsgd1na2vs0mg"},{"bike_id":"479d5a5f-271f-4ac2-a568-4c71926ce846","system_id":"levelo_inurba_marseille","lat":43.26211,"lon":5.37441,"is_reserved":false,"is_disabled":false,"rental_uris":{"android":"levelo://app?vid=479d5a5f-271f-4ac2-a568-4c71926ce846","ios":"levelo://app?vid=479d5a5f-271f-4ac2-a568-4c71926ce846"},"vehicle_type_id":"4","last_reported":1744784089,"current_range_meters":19600,"station_id":"ce4bhgp2rcd13ifvqfc0","pricing_plan_id":"cebpf4jnsgd1na2vs0mg"},{"bike_id":"58422983-0d94-4112-993a-86a4c1f94262","system_id":"levelo_inurba_marseille","lat":43.28732,"lon":5.36084,"is_reserved":false,"is_disabled":false,"rental_uris":{"android":"levelo://app?vid=58422983-0d94-4112-993a-86a4c1f94262","ios":"levelo://app?vid=58422983-0d94-4112-993a-86a4c1f94262"},"vehicle_type_id":"4","last_reported":1744784089,"current_range_meters":20000,"station_id":"cki0cbj6b192h4jlfktg","pricing_plan_id":"cebpf4jnsgd1na2vs0mg"},{"bike_id":"2d03e3c2-09e4-4978-8dbc-31228f7e9fd5","system_id":"levelo_inurba_marseille","lat":43.25582,"lon":5.38234,"is_reserved":false,"is_disabled":false,"rental_uris":{"android":"levelo://app?vid=2d03e3c2-09e4-4978-8dbc-31228f7e9fd5","ios":"levelo://app?vid=2d03e3c2-09e4-4978-8dbc-31228f7e9fd5"},"vehicle_type_id":"4","last_reported":1744784089,"current_range_meters":20000,"station_id":"ce4bhih2rcd13ifvqfs0","pricing_plan_id":"cebpf4jnsgd1na2vs0mg"},{"bike_id":"bf4659ae-1e1e-46e0-aae0-87527cd1ccd6","system_id":"levelo_inurba_marseille","lat":43.28155,"lon":5.42645,"is_reserved":false,"is_disabled":false,"rental_uris":{"android":"levelo://app?vid=bf4659ae-1e1e-46e0-aae0-87527cd1ccd6","ios":"levelo://app?vid=bf4659ae-1e1e-46e0-aae0-87527cd1ccd6"},"vehicle_type_id":"4","last_reported":1744784089,"current_range_meters":20000,"station_id":"ce4bhnh2rcd13ifvqgug","pricing_plan_id":"cebpf4jnsgd1na2vs0mg"},{"bike_id":"3ebbd8d1-9b0f-4ed2-9560-e66bdaffdb20","system_id":"levelo_inurba_marseille","lat":43.25937,"lon":5.40898,"is_reserved":false,"is_disabled":false,"rental_uris":{"android":"levelo://app?vid=3ebbd8d1-9b0f-4ed2-9560-e66bdaffdb20","ios":"levelo://app?vid=3ebbd8d1-9b0f-4ed2-9560-e66bdaffdb20"},"vehicle_type_id":"4","last_reported":1744784089,"current_range_meters":20000,"station_id":"ce4bhm92rcd13ifvqglg","pricing_plan_id":"cebpf4jnsgd1na2vs0mg"},{"bike_id":"4792c0f4-8718-4099-853c-d353f96cbb2e","system_id":"levelo_inurba_marseille","lat":43.28366,"lon":5.38646,"is_reserved":false,"is_disabled":false,"rental_uris":{"android":"levelo://app?vid=4792c0f4-8718-4099-853c-d353f96cbb2e","ios":"levelo://app?vid=4792c0f4-8718-4099-853c-d353f96cbb2e"},"vehicle_type_id":"4","last_reported":1744784089,"current_range_meters":19600,"station_id":"ce4bh492rcd13ifvqdvg","pricing_plan_id":"cebpf4jnsgd1na2vs0mg"},{"bike_id":"607d0f63-df06-4263-aecf-bfbe4fd9429b","system_id":"levelo_inurba_marseille","lat":43.26845,"lon":5.40347,"is_reserved":false,"is_disabled":false,"rental_uris":{"android":"levelo://app?vid=607d0f63-df06-4263-aecf-bfbe4fd9429b","ios":"levelo://app?vid=607d0f63-df06-4263-aecf-bfbe4fd9429b"},"vehicle_type_id":"4","last_reported":1744784089,"current_range_meters":20000,"station_id":"ce501612rcd8frsf0b60","pricing_plan_id":"cebpf4jnsgd1na2vs0mg"},{"bike_id":"c0324feb-e3ae-4306-a3e5-11e2f46c4652","system_id":"levelo_inurba_marseille","lat":43.29039,"lon":5.39966,"is_reserved":false,"is_disabled":false,"rental_uris":{"android":"levelo://app?vid=c0324feb-e3ae-4306-a3e5-11e2f46c4652","ios":"levelo://app?vid=c0324feb-e3ae-4306-a3e5-11e2f46c4652"},"vehicle_type_id":"4","last_reported":1744784089,"current_range_meters":20400,"station_id":"ce4bh392rcd13ifvqdm0","pricing_plan_id":"cebpf4jnsgd1na2vs0mg"},{"bike_id":"58a6c056-c4c9-496e-9a01-a9dc486c603a","system_id":"levelo_inurba_marseille","lat":43.31484,"lon":5.37308,"is_reserved":false,"is_disabled":false,"rental_uris":{"android":"levelo://app?vid=58a6c056-c4c9-496e-9a01-a9dc486c603a","ios":"levelo://app?vid=58a6c056-c4c9-496e-9a01-a9dc486c603a"},"vehicle_type_id":"4","last_reported":1744784089,"current_range_meters":20400,"station_id":"ce4bgt12rcd13ifvqcd0","pricing_plan_id":"cebpf4jnsgd1na2vs0mg"},{"bike_id":"ad8e04fe-6af1-4d9c-86d4-a2d183b2a273","system_id":"levelo_inurba_marseille","lat":43.29201,"lon":5.35804,"is_reserved":false,"is_disabled":false,"rental_uris":{"android":"levelo://app?vid=ad8e04fe-6af1-4d9c-86d4-a2d183b2a273","ios":"levelo://app?vid=ad8e04fe-6af1-4d9c-86d4-a2d183b2a273"},"vehicle_type_id":"4","last_reported":1744784089,"current_range_meters":20400,"station_id":"ce4bhb12rcd13ifvqel0","pricing_plan_id":"cebpf4jnsgd1na2vs0mg"},{"bike_id":"f4f2a3c2-2e88-42f2-a842-4b821963dedc","system_id":"levelo_inurba_marseille","lat":43.229291,"lon":5.353809,"is_reserved":false,"is_disabled":false,"rental_uris":{"android":"levelo://app?vid=f4f2a3c2-2e88-42f2-a842-4b821963dedc","ios":"levelo://app?vid=f4f2a3c2-2e88-42f2-a842-4b821963dedc"},"vehicle_type_id":"4","last_reported":1744784089,"current_range_meters":20400,"station_id":"cpo3532slgdg3j2ikp40","pricing_plan_id":"cebpf4jnsgd1na2vs0mg"},{"bike_id":"0dd9d89e-51f4-44cf-b540-fafe6c948915","system_id":"levelo_inurba_marseille","lat":43.284018,"lon":5.375431,"is_reserved":false,"is_disabled":false,"rental_uris":{"android":"levelo://app?vid=0dd9d89e-51f4-44cf-b540-fafe6c948915","ios":"levelo://app?vid=0dd9d89e-51f4-44cf-b540-fafe6c948915"},"vehicle_type_id":"4","last_reported":1744784089,"current_range_meters":20400,"station_id":"ce4bh412rcd13ifvqds0","pricing_plan_id":"cebpf4jnsgd1na2vs0mg"},{"bike_id":"88f3759b-2c1f-4762-b11a-067d1d7bb035","system_id":"levelo_inurba_marseille","lat":43.241768,"lon":5.397332,"is_reserved":false,"is_disabled":false,"rental_uris":{"android":"levelo://app?vid=88f3759b-2c1f-4762-b11a-067d1d7bb035","ios":"levelo://app?vid=88f3759b-2c1f-4762-b11a-067d1d7bb035"},"vehicle_type_id":"4","last_reported":1744784089,"current_range_meters":20400,"station_id":"ce4bhn12rcd13ifvqgpg","pricing_plan_id":"cebpf4jnsgd1na2vs0mg"},{"bike_id":"f0dc8035-92fe-403c-9e0c-922ffb105b34","system_id":"levelo_inurba_marseille","lat":43.25924,"lon":5.40893,"is_reserved":false,"is_disabled":false,"rental_uris":{"android":"levelo://app?vid=f0dc8035-92fe-403c-9e0c-922ffb105b34","ios":"levelo://app?vid=f0dc8035-92fe-403c-9e0c-922ffb105b34"},"vehicle_type_id":"4","last_reported":1744784089,"current_range_meters":20400,"station_id":"ce4bhm92rcd13ifvqglg","pricing_plan_id":"cebpf4jnsgd1na2vs0mg"},{"bike_id":"cdf47538-c127-4d77-8160-f0aed9fcc6bc","system_id":"levelo_inurba_marseille","lat":43.28638,"lon":5.40161,"is_reserved":false,"is_disabled":false,"rental_uris":{"android":"levelo://app?vid=cdf47538-c127-4d77-8160-f0aed9fcc6bc","ios":"levelo://app?vid=cdf47538-c127-4d77-8160-f0aed9fcc6bc"},"vehicle_type_id":"4","last_reported":1744784089,"current_range_meters":20800,"station_id":"","pricing_plan_id":"cebpf4jnsgd1na2vs0mg"},{"bike_id":"67a56d67-eb57-422c-b852-2e0c9e0dfd7d","system_id":"levelo_inurba_marseille","lat":43.283764,"lon":5.373061,"is_reserved":false,"is_disabled":false,"rental_uris":{"android":"levelo://app?vid=67a56d67-eb57-422c-b852-2e0c9e0dfd7d","ios":"levelo://app?vid=67a56d67-eb57-422c-b852-2e0c9e0dfd7d"},"vehicle_type_id":"4","last_reported":1744784089,"current_range_meters":20800,"station_id":"","pricing_plan_id":"cebpf4jnsgd1na2vs0mg"},{"bike_id":"9ae6a8ac-5836-4649-bd53-f348a84f4e34","system_id":"levelo_inurba_marseille","lat":43.28412,"lon":5.37513,"is_reserved":false,"is_disabled":false,"rental_uris":{"android":"levelo://app?vid=9ae6a8ac-5836-4649-bd53-f348a84f4e34","ios":"levelo://app?vid=9ae6a8ac-5836-4649-bd53-f348a84f4e34"},"vehicle_type_id":"4","last_reported":1744784089,"current_range_meters":20800,"station_id":"ce4bh412rcd13ifvqds0","pricing_plan_id":"cebpf4jnsgd1na2vs0mg"},{"bike_id":"cb2339f4-0371-4078-a89b-835123189f9a","system_id":"levelo_inurba_marseille","lat":43.2573,"lon":5.4111,"is_reserved":false,"is_disabled":false,"rental_uris":{"android":"levelo://app?vid=cb2339f4-0371-4078-a89b-835123189f9a","ios":"levelo://app?vid=cb2339f4-0371-4078-a89b-835123189f9a"},"vehicle_type_id":"4","last_reported":1744784089,"current_range_meters":21600,"station_id":"ce4bhkp2rcd13ifvqgd0","pricing_plan_id":"cebpf4jnsgd1na2vs0mg"},{"bike_id":"eb2c19a1-62aa-4899-868a-04e9d024bfdd","system_id":"levelo_inurba_marseille","lat":43.279824,"lon":5.416611,"is_reserved":false,"is_disabled":false,"rental_uris":{"android":"levelo://app?vid=eb2c19a1-62aa-4899-868a-04e9d024bfdd","ios":"levelo://app?vid=eb2c19a1-62aa-4899-868a-04e9d024bfdd"},"vehicle_type_id":"4","last_reported":1744784089,"current_range_meters":21600,"station_id":"ce4bho12rcd13ifvqh1g","pricing_plan_id":"cebpf4jnsgd1na2vs0mg"},{"bike_id":"487366b8-ede2-4185-a4dd-c97fcd7ab12f","system_id":"levelo_inurba_marseille","lat":43.30917,"lon":5.40155,"is_reserved":false,"is_disabled":false,"rental_uris":{"android":"levelo://app?vid=487366b8-ede2-4185-a4dd-c97fcd7ab12f","ios":"levelo://app?vid=487366b8-ede2-4185-a4dd-c97fcd7ab12f"},"vehicle_type_id":"4","last_reported":1744784089,"current_range_meters":21600,"station_id":"ce4bgvp2rcd13ifvqct0","pricing_plan_id":"cebpf4jnsgd1na2vs0mg"},{"bike_id":"6d94bdd1-6e6c-4f63-8b03-35be0cd7b47c","system_id":"levelo_inurba_marseille","lat":43.30647,"lon":5.40098,"is_reserved":false,"is_disabled":false,"rental_uris":{"android":"levelo://app?vid=6d94bdd1-6e6c-4f63-8b03-35be0cd7b47c","ios":"levelo://app?vid=6d94bdd1-6e6c-4f63-8b03-35be0cd7b47c"},"vehicle_type_id":"4","last_reported":1744784089,"current_range_meters":21600,"station_id":"ce4bh112rcd13ifvqda0","pricing_plan_id":"cebpf4jnsgd1na2vs0mg"},{"bike_id":"4d420fd2-582f-4f07-8195-25925eff8902","system_id":"levelo_inurba_marseille","lat":43.30913,"lon":5.36841,"is_reserved":false,"is_disabled":false,"rental_uris":{"android":"levelo://app?vid=4d420fd2-582f-4f07-8195-25925eff8902","ios":"levelo://app?vid=4d420fd2-582f-4f07-8195-25925eff8902"},"vehicle_type_id":"4","last_reported":1744784089,"current_range_meters":21600,"station_id":"ce4bgn92rcd13ifvqbvg","pricing_plan_id":"cebpf4jnsgd1na2vs0mg"},{"bike_id":"1540b796-9ab4-4ad1-b278-a5bc9ddc3c3f","system_id":"levelo_inurba_marseille","lat":43.28692,"lon":5.38672,"is_reserved":false,"is_disabled":true,"rental_uris":{"android":"levelo://app?vid=1540b796-9ab4-4ad1-b278-a5bc9ddc3c3f","ios":"levelo://app?vid=1540b796-9ab4-4ad1-b278-a5bc9ddc3c3f"},"vehicle_type_id":"4","last_reported":1744784089,"current_range_meters":22000,"station_id":"ce4bh492rcd13ifvqdug","pricing_plan_id":"cebpf4jnsgd1na2vs0mg"},{"bike_id":"3e60995b-eda7-45e6-afdd-eb03fa30fe85","system_id":"levelo_inurba_marseille","lat":43.2871,"lon":5.39989,"is_reserved":false,"is_disabled":false,"rental_uris":{"android":"levelo://app?vid=3e60995b-eda7-45e6-afdd-eb03fa30fe85","ios":"levelo://app?vid=3e60995b-eda7-45e6-afdd-eb03fa30fe85"},"vehicle_type_id":"4","last_reported":1744784089,"current_range_meters":22000,"station_id":"ce4bho92rcd13ifvqh3g","pricing_plan_id":"cebpf4jnsgd1na2vs0mg"},{"bike_id":"04f2c050-9bf8-433b-aac4-02ccbaf0626f","system_id":"levelo_inurba_marseille","lat":43.2468,"lon":5.38165,"is_reserved":false,"is_disabled":false,"rental_uris":{"android":"levelo://app?vid=04f2c050-9bf8-433b-aac4-02ccbaf0626f","ios":"levelo://app?vid=04f2c050-9bf8-433b-aac4-02ccbaf0626f"},"vehicle_type_id":"4","last_reported":1744784089,"current_range_meters":22000,"station_id":"ce4bhih2rcd13ifvqfr0","pricing_plan_id":"cebpf4jnsgd1na2vs0mg"},{"bike_id":"6fd16c1d-68a4-4b51-8579-6a0d593dff16","system_id":"levelo_inurba_marseille","lat":43.33603,"lon":5.41034,"is_reserved":false,"is_disabled":false,"rental_uris":{"android":"levelo://app?vid=6fd16c1d-68a4-4b51-8579-6a0d593dff16","ios":"levelo://app?vid=6fd16c1d-68a4-4b51-8579-6a0d593dff16"},"vehicle_type_id":"4","last_reported":1744784089,"current_range_meters":22000,"station_id":"ce4bhqh2rcd13ifvqhmg","pricing_plan_id":"cebpf4jnsgd1na2vs0mg"},{"bike_id":"2901bf78-ccdb-4c25-9684-7f02cbfa5ffc","system_id":"levelo_inurba_marseille","lat":43.28376,"lon":5.37564,"is_reserved":false,"is_disabled":false,"rental_uris":{"android":"levelo://app?vid=2901bf78-ccdb-4c25-9684-7f02cbfa5ffc","ios":"levelo://app?vid=2901bf78-ccdb-4c25-9684-7f02cbfa5ffc"},"vehicle_type_id":"4","last_reported":1744784089,"current_range_meters":22000,"station_id":"ce4bh412rcd13ifvqds0","pricing_plan_id":"cebpf4jnsgd1na2vs0mg"},{"bike_id":"73c893b1-a0be-4e73-8c83-dccab642a871","system_id":"levelo_inurba_marseille","lat":43.30226,"lon":5.40091,"is_reserved":false,"is_disabled":false,"rental_uris":{"android":"levelo://app?vid=73c893b1-a0be-4e73-8c83-dccab642a871","ios":"levelo://app?vid=73c893b1-a0be-4e73-8c83-dccab642a871"},"vehicle_type_id":"4","last_reported":1744784089,"current_range_meters":22000,"station_id":"","pricing_plan_id":"cebpf4jnsgd1na2vs0mg"},{"bike_id":"1d4f76a0-4f08-4c0e-b6c6-1119c8fb2e72","system_id":"levelo_inurba_marseille","lat":43.30902,"lon":5.36857,"is_reserved":false,"is_disabled":false,"rental_uris":{"android":"levelo://app?vid=1d4f76a0-4f08-4c0e-b6c6-1119c8fb2e72","ios":"levelo://app?vid=1d4f76a0-4f08-4c0e-b6c6-1119c8fb2e72"},"vehicle_type_id":"4","last_reported":1744784089,"current_range_meters":22000,"station_id":"ce4bgn92rcd13ifvqbvg","pricing_plan_id":"cebpf4jnsgd1na2vs0mg"},{"bike_id":"3919f6ba-dd52-4187-8c7f-45f33213c7fa","system_id":"levelo_inurba_marseille","lat":43.30785,"lon":5.37366,"is_reserved":false,"is_disabled":false,"rental_uris":{"android":"levelo://app?vid=3919f6ba-dd52-4187-8c7f-45f33213c7fa","ios":"levelo://app?vid=3919f6ba-dd52-4187-8c7f-45f33213c7fa"},"vehicle_type_id":"4","last_reported":1744784089,"current_range_meters":22000,"station_id":"","pricing_plan_id":"cebpf4jnsgd1na2vs0mg"},{"bike_id":"bc0837a1-279f-4396-af1b-42270f8cd9b7","system_id":"levelo_inurba_marseille","lat":43.26221,"lon":5.40455,"is_reserved":false,"is_disabled":false,"rental_uris":{"android":"levelo://app?vid=bc0837a1-279f-4396-af1b-42270f8cd9b7","ios":"levelo://app?vid=bc0837a1-279f-4396-af1b-42270f8cd9b7"},"vehicle_type_id":"4","last_reported":1744784089,"current_range_meters":22000,"station_id":"ce4bhmh2rcd13ifvqgmg","pricing_plan_id":"cebpf4jnsgd1na2vs0mg"},{"bike_id":"d750596a-6ac6-4755-84cc-45acd4464f3d","system_id":"levelo_inurba_marseille","lat":43.2439,"lon":5.37066,"is_reserved":false,"is_disabled":false,"rental_uris":{"android":"levelo://app?vid=d750596a-6ac6-4755-84cc-45acd4464f3d","ios":"levelo://app?vid=d750596a-6ac6-4755-84cc-45acd4464f3d"},"vehicle_type_id":"4","last_reported":1744784089,"current_range_meters":22400,"station_id":"ce4bhhh2rcd13ifvqfk0","pricing_plan_id":"cebpf4jnsgd1na2vs0mg"},{"bike_id":"0e0ef55c-3371-466a-9dd9-fb994c537480","system_id":"levelo_inurba_marseille","lat":43.30888,"lon":5.37199,"is_reserved":false,"is_disabled":false,"rental_uris":{"android":"levelo://app?vid=0e0ef55c-3371-466a-9dd9-fb994c537480","ios":"levelo://app?vid=0e0ef55c-3371-466a-9dd9-fb994c537480"},"vehicle_type_id":"4","last_reported":1744784089,"current_range_meters":22400,"station_id":"ce4bguh2rcd13ifvqckg","pricing_plan_id":"cebpf4jnsgd1na2vs0mg"},{"bike_id":"3e6b0972-92c8-4481-aeee-cd75f4719e35","system_id":"levelo_inurba_marseille","lat":43.2707,"lon":5.42281,"is_reserved":false,"is_disabled":false,"rental_uris":{"android":"levelo://app?vid=3e6b0972-92c8-4481-aeee-cd75f4719e35","ios":"levelo://app?vid=3e6b0972-92c8-4481-aeee-cd75f4719e35"},"vehicle_type_id":"4","last_reported":1744784089,"current_range_meters":22400,"station_id":"ce4bhk92rcd13ifvqgb0","pricing_plan_id":"cebpf4jnsgd1na2vs0mg"},{"bike_id":"d39e5537-c00a-4bf8-9f22-53966b448679","system_id":"levelo_inurba_marseille","lat":43.29542,"lon":5.42277,"is_reserved":false,"is_disabled":false,"rental_uris":{"android":"levelo://app?vid=d39e5537-c00a-4bf8-9f22-53966b448679","ios":"levelo://app?vid=d39e5537-c00a-4bf8-9f22-53966b448679"},"vehicle_type_id":"4","last_reported":1744784089,"current_range_meters":22400,"station_id":"ce4bhph2rcd13ifvqhdg","pricing_plan_id":"cebpf4jnsgd1na2vs0mg"},{"bike_id":"a3e5d7aa-c595-425d-ac36-8770e48450a3","system_id":"levelo_inurba_marseille","lat":43.310693,"lon":5.383637,"is_reserved":false,"is_disabled":true,"rental_uris":{"android":"levelo://app?vid=a3e5d7aa-c595-425d-ac36-8770e48450a3","ios":"levelo://app?vid=a3e5d7aa-c595-425d-ac36-8770e48450a3"},"vehicle_type_id":"4","last_reported":1744784089,"current_range_meters":22400,"station_id":"ce4bgv92rcd13ifvqcr0","pricing_plan_id":"cebpf4jnsgd1na2vs0mg"},{"bike_id":"925ef101-f0c3-4e97-8741-bd30c562f33a","system_id":"levelo_inurba_marseille","lat":43.29948,"lon":5.371835,"is_reserved":false,"is_disabled":false,"rental_uris":{"android":"levelo://app?vid=925ef101-f0c3-4e97-8741-bd30c562f33a","ios":"levelo://app?vid=925ef101-f0c3-4e97-8741-bd30c562f33a"},"vehicle_type_id":"4","last_reported":1744784089,"current_range_meters":22400,"station_id":"ce4bgrp2rcd13ifvqc9g","pricing_plan_id":"cebpf4jnsgd1na2vs0mg"},{"bike_id":"82b3d61b-a410-467f-8017-24fda4610f21","system_id":"levelo_inurba_marseille","lat":43.3361,"lon":5.41027,"is_reserved":false,"is_disabled":false,"rental_uris":{"android":"levelo://app?vid=82b3d61b-a410-467f-8017-24fda4610f21","ios":"levelo://app?vid=82b3d61b-a410-467f-8017-24fda4610f21"},"vehicle_type_id":"4","last_reported":1744784089,"current_range_meters":22400,"station_id":"ce4bhqh2rcd13ifvqhmg","pricing_plan_id":"cebpf4jnsgd1na2vs0mg"},{"bike_id":"2d72e961-7754-4ab1-b597-14a2855ca6ac","system_id":"levelo_inurba_marseille","lat":43.29231,"lon":5.36074,"is_reserved":false,"is_disabled":false,"rental_uris":{"android":"levelo://app?vid=2d72e961-7754-4ab1-b597-14a2855ca6ac","ios":"levelo://app?vid=2d72e961-7754-4ab1-b597-14a2855ca6ac"},"vehicle_type_id":"4","last_reported":1744784089,"current_range_meters":22400,"station_id":"ce4bhbh2rcd13ifvqeqg","pricing_plan_id":"cebpf4jnsgd1na2vs0mg"},{"bike_id":"a0402125-00ed-4d42-9bd7-39b6fe98bbbf","system_id":"levelo_inurba_marseille","lat":43.29042,"lon":5.39962,"is_reserved":false,"is_disabled":false,"rental_uris":{"android":"levelo://app?vid=a0402125-00ed-4d42-9bd7-39b6fe98bbbf","ios":"levelo://app?vid=a0402125-00ed-4d42-9bd7-39b6fe98bbbf"},"vehicle_type_id":"4","last_reported":1744784089,"current_range_meters":22400,"station_id":"ce4bh392rcd13ifvqdm0","pricing_plan_id":"cebpf4jnsgd1na2vs0mg"},{"bike_id":"08f4dcee-7656-4957-9022-f13783bb2667","system_id":"levelo_inurba_marseille","lat":43.29688,"lon":5.37221,"is_reserved":false,"is_disabled":false,"rental_uris":{"android":"levelo://app?vid=08f4dcee-7656-4957-9022-f13783bb2667","ios":"levelo://app?vid=08f4dcee-7656-4957-9022-f13783bb2667"},"vehicle_type_id":"4","last_reported":1744784089,"current_range_meters":22800,"station_id":"","pricing_plan_id":"cebpf4jnsgd1na2vs0mg"},{"bike_id":"60f5cd1e-5c1d-4bfe-94b8-a6be94506db8","system_id":"levelo_inurba_marseille","lat":43.337444,"lon":5.374475,"is_reserved":false,"is_disabled":false,"rental_uris":{"android":"levelo://app?vid=60f5cd1e-5c1d-4bfe-94b8-a6be94506db8","ios":"levelo://app?vid=60f5cd1e-5c1d-4bfe-94b8-a6be94506db8"},"vehicle_type_id":"4","last_reported":1744784089,"current_range_meters":22800,"station_id":"","pricing_plan_id":"cebpf4jnsgd1na2vs0mg"},{"bike_id":"8cc30c4e-a446-4e85-8a4c-059f8cf9aca2","system_id":"levelo_inurba_marseille","lat":43.29618,"lon":5.37154,"is_reserved":false,"is_disabled":false,"rental_uris":{"android":"levelo://app?vid=8cc30c4e-a446-4e85-8a4c-059f8cf9aca2","ios":"levelo://app?vid=8cc30c4e-a446-4e85-8a4c-059f8cf9aca2"},"vehicle_type_id":"4","last_reported":1744784089,"current_range_meters":22400,"station_id":"ce4bgnh2rcd13ifvqc0g","pricing_plan_id":"cebpf4jnsgd1na2vs0mg"},{"bike_id":"6f2360da-5688-4f6a-8ebd-9e32ee7c678f","system_id":"levelo_inurba_marseille","lat":43.31698,"lon":5.40469,"is_reserved":false,"is_disabled":false,"rental_uris":{"android":"levelo://app?vid=6f2360da-5688-4f6a-8ebd-9e32ee7c678f","ios":"levelo://app?vid=6f2360da-5688-4f6a-8ebd-9e32ee7c678f"},"vehicle_type_id":"4","last_reported":1744784089,"current_range_meters":22800,"station_id":"ce4bh012rcd13ifvqd00","pricing_plan_id":"cebpf4jnsgd1na2vs0mg"},{"bike_id":"3f761246-0d21-4df1-9aa1-2fe452c29abd","system_id":"levelo_inurba_marseille","lat":43.21763,"lon":5.34629,"is_reserved":false,"is_disabled":false,"rental_uris":{"android":"levelo://app?vid=3f761246-0d21-4df1-9aa1-2fe452c29abd","ios":"levelo://app?vid=3f761246-0d21-4df1-9aa1-2fe452c29abd"},"vehicle_type_id":"4","last_reported":1744784089,"current_range_meters":22800,"station_id":"st_cvj6r9ubvosntc0bgbag","pricing_plan_id":"cebpf4jnsgd1na2vs0mg"},{"bike_id":"113813ce-15c7-4eb4-bc8c-a83f979fccc0","system_id":"levelo_inurba_marseille","lat":43.2174,"lon":5.34643,"is_reserved":false,"is_disabled":false,"rental_uris":{"android":"levelo://app?vid=113813ce-15c7-4eb4-bc8c-a83f979fccc0","ios":"levelo://app?vid=113813ce-15c7-4eb4-bc8c-a83f979fccc0"},"vehicle_type_id":"4","last_reported":1744784089,"current_range_meters":23200,"station_id":"st_cvj6r9ubvosntc0bgbag","pricing_plan_id":"cebpf4jnsgd1na2vs0mg"},{"bike_id":"c182a9b1-e76a-4ead-aa22-e183ee00c712","system_id":"levelo_inurba_marseille","lat":43.31216,"lon":5.36833,"is_reserved":false,"is_disabled":false,"rental_uris":{"android":"levelo://app?vid=c182a9b1-e76a-4ead-aa22-e183ee00c712","ios":"levelo://app?vid=c182a9b1-e76a-4ead-aa22-e183ee00c712"},"vehicle_type_id":"4","last_reported":1744784089,"current_range_meters":23200,"station_id":"ce4bgl92rcd13ifvqbq0","pricing_plan_id":"cebpf4jnsgd1na2vs0mg"},{"bike_id":"bf865714-4ac0-4bad-b0c5-b752e147f52b","system_id":"levelo_inurba_marseille","lat":43.3033,"lon":5.40443,"is_reserved":false,"is_disabled":false,"rental_uris":{"android":"levelo://app?vid=bf865714-4ac0-4bad-b0c5-b752e147f52b","ios":"levelo://app?vid=bf865714-4ac0-4bad-b0c5-b752e147f52b"},"vehicle_type_id":"4","last_reported":1744784089,"current_range_meters":23200,"station_id":"ce4bh012rcd13ifvqd10","pricing_plan_id":"cebpf4jnsgd1na2vs0mg"},{"bike_id":"7ed9a81a-169b-437d-a718-7d28a51c26a5","system_id":"levelo_inurba_marseille","lat":43.266929,"lon":5.382794,"is_reserved":false,"is_disabled":false,"rental_uris":{"android":"levelo://app?vid=7ed9a81a-169b-437d-a718-7d28a51c26a5","ios":"levelo://app?vid=7ed9a81a-169b-437d-a718-7d28a51c26a5"},"vehicle_type_id":"4","last_reported":1744784089,"current_range_meters":23200,"station_id":"ce4bhg92rcd13ifvqf90","pricing_plan_id":"cebpf4jnsgd1na2vs0mg"},{"bike_id":"fd2e9bd5-6aa2-47a2-a5d1-9e4a436a0b5f","system_id":"levelo_inurba_marseille","lat":43.31993,"lon":5.38148,"is_reserved":false,"is_disabled":false,"rental_uris":{"android":"levelo://app?vid=fd2e9bd5-6aa2-47a2-a5d1-9e4a436a0b5f","ios":"levelo://app?vid=fd2e9bd5-6aa2-47a2-a5d1-9e4a436a0b5f"},"vehicle_type_id":"4","last_reported":1744784089,"current_range_meters":23200,"station_id":"ce4bhr12rcd13ifvqhpg","pricing_plan_id":"cebpf4jnsgd1na2vs0mg"},{"bike_id":"ab863a17-a8a2-4073-b516-607cb08fc41a","system_id":"levelo_inurba_marseille","lat":43.274927,"lon":5.424526,"is_reserved":false,"is_disabled":false,"rental_uris":{"android":"levelo://app?vid=ab863a17-a8a2-4073-b516-607cb08fc41a","ios":"levelo://app?vid=ab863a17-a8a2-4073-b516-607cb08fc41a"},"vehicle_type_id":"4","last_reported":1744784089,"current_range_meters":23200,"station_id":"ce4bhn92rcd13ifvqgrg","pricing_plan_id":"cebpf4jnsgd1na2vs0mg"},{"bike_id":"0b9bbcb6-1379-4298-9f6e-97b13432243b","system_id":"levelo_inurba_marseille","lat":43.28488,"lon":5.38418,"is_reserved":false,"is_disabled":false,"rental_uris":{"android":"levelo://app?vid=0b9bbcb6-1379-4298-9f6e-97b13432243b","ios":"levelo://app?vid=0b9bbcb6-1379-4298-9f6e-97b13432243b"},"vehicle_type_id":"4","last_reported":1744784089,"current_range_meters":23200,"station_id":"ce4bh512rcd13ifvqe3g","pricing_plan_id":"cebpf4jnsgd1na2vs0mg"},{"bike_id":"e74950ed-816d-4555-9a6d-820b73e5570c","system_id":"levelo_inurba_marseille","lat":43.29554,"lon":5.42294,"is_reserved":false,"is_disabled":false,"rental_uris":{"android":"levelo://app?vid=e74950ed-816d-4555-9a6d-820b73e5570c","ios":"levelo://app?vid=e74950ed-816d-4555-9a6d-820b73e5570c"},"vehicle_type_id":"4","last_reported":1744784089,"current_range_meters":23200,"station_id":"ce4bhph2rcd13ifvqhdg","pricing_plan_id":"cebpf4jnsgd1na2vs0mg"},{"bike_id":"94c8b160-29dd-45c4-9d5f-86d40f79a61c","system_id":"levelo_inurba_marseille","lat":43.262192,"lon":5.40467,"is_reserved":false,"is_disabled":false,"rental_uris":{"android":"levelo://app?vid=94c8b160-29dd-45c4-9d5f-86d40f79a61c","ios":"levelo://app?vid=94c8b160-29dd-45c4-9d5f-86d40f79a61c"},"vehicle_type_id":"4","last_reported":1744784089,"current_range_meters":23200,"station_id":"ce4bhmh2rcd13ifvqgmg","pricing_plan_id":"cebpf4jnsgd1na2vs0mg"},