{"last_updated":1741360157,"ttl":60,"version":"2.2","data":{"bikes":[{"bike_id":"f28f7533-ea96-4565-b599-a29310aea5b6","system_id":"levelo_inurba_marseille","lat":43.304174,"lon":5.412751,"is_reserved":false,"is_disabled":false,"rental_uris":{"android":"levelo://app?vid=f28f7533-ea96-4565-b599-a29310aea5b6","ios":"levelo://app?vid=f28f7533-ea96-4565-b599-a29310aea5b6"},"vehicle_type_id":"4","last_reported":1741360158,"current_range_meters":2800,"station_id":"ce4bhop2rcd13ifvqh8g","pricing_plan_id":"cebpf4jnsgd1na2vs0mg"},{"bike_id":"0e6b5f51-0649-4fbb-a84f-2c80edba4f83","system_id":"levelo_inurba_marseille","lat":43.23195,"lon":5.39984,"is_reserved":false,"is_disabled":false,"rental_uris":{"android":"levelo://app?vid=0e6b5f51-0649-4fbb-a84f-2c80edba4f83","ios":"levelo://app?vid=0e6b5f51-0649-4fbb-a84f-2c80edba4f83"},"vehicle_type_id":"4","last_reported":1741360158,"current_range_meters":2800,"station_id":"ce4bhn12rcd13ifvqgqg","pricing_plan_id":"cebpf4jnsgd1na2vs0mg"},{"bike_id":"de754493-593d-484d-850a-eaba979f3d3f","system_id":"levelo_inurba_marseille","lat":43.27945,"lon":5.41039,"is_reserved":false,"is_disabled":false,"rental_uris":{"android":"levelo://app?vid=de754493-593d-484d-850a-eaba979f3d3f","ios":"levelo://app?vid=de754493-593d-484d-850a-eaba979f3d3f"},"vehicle_type_id":"4","last_reported":1741360158,"current_range_meters":3200,"station_id":"ce4bhnp2rcd13ifvqh0g","pricing_plan_id":"cebpf4jnsgd1na2vs0mg"},{"bike_id":"14829976-69b1-45fa-bf17-55d2e8e82951","system_id":"levelo_inurba_marseille","lat":43.2842,"lon":5.34978,"is_reserved":false,"is_disabled":false,"rental_uris":{"android":"levelo://app?vid=14829976-69b1-45fa-bf17-55d2e8e82951","ios":"levelo://app?vid=14829976-69b1-45fa-bf17-55d2e8e82951"},"vehicle_type_id":"4","last_reported":1741360158,"current_range_meters":3200,"station_id":"ce4bhbh2rcd13ifvqepg","pricing_plan_id":"cebpf4jnsgd1na2vs0mg"},{"bike_id":"4d5a36a8-13f4-4a93-b101-f7f2d4e5ecc0","system_id":"levelo_inurba_marseille","lat":43.29424,"lon":5.386315,"is_reserved":false,"is_disabled":false,"rental_uris":{"android":"levelo://app?vid=4d5a36a8-13f4-4a93-b101-f7f2d4e5ecc0","ios":"levelo://app?vid=4d5a36a8-13f4-4a93-b101-f7f2d4e5ecc0"},"vehicle_type_id":"4","last_reported":1741360158,"current_range_meters":3600,"station_id":"ce4bh2h2rcd13ifvqdh0","pricing_plan_id":"cebpf4jnsgd1na2vs0mg"},{"bike_id":"a0085643-f0da-4dde-8856-91207936b17a","system_id":"levelo_inurba_marseille","lat":43.29534,"lon":5.38544,"is_reserved":false,"is_disabled":false,"rental_uris":{"android":"levelo://app?vid=a0085643-f0da-4dde-8856-91207936b17a","ios":"levelo://app?vid=a0085643-f0da-4dde-8856-91207936b17a"},"vehicle_type_id":"4","last_reported":1741360158,"current_range_meters":3600,"station_id":"ce4bgih2rcd13ifvqba0","pricing_plan_id":"cebpf4jnsgd1na2vs0mg"},{"bike_id":"40e2e695-d552-4542-901f-9cd18e8de670","system_id":"levelo_inurba_marseille","lat":43.26688,"lon":5.38273,"is_reserved":false,"is_disabled":true,"rental_uris":{"android":"levelo://app?vid=40e2e695-d552-4542-901f-9cd18e8de670","ios":"levelo://app?vid=40e2e695-d552-4542-901f-9cd18e8de670"},"vehicle_type_id":"4","last_reported":1741360158,"current_range_meters":3600,"station_id":"ce4bhg92rcd13ifvqf90","pricing_plan_id":"cebpf4jnsgd1na2vs0mg"},{"bike_id":"2ca6b1e8-7dff-4456-8a11-8fa901a7d30b","system_id":"levelo_inurba_marseille","lat":43.30146,"lon":5.38788,"is_reserved":false,"is_disabled":false,"rental_uris":{"android":"levelo://app?vid=2ca6b1e8-7dff-4456-8a11-8fa901a7d30b","ios":"levelo://app?vid=2ca6b1e8-7dff-4456-8a11-8fa901a7d30b"},"vehicle_type_id":"4","last_reported":1741360158,"current_range_meters":3600,"station_id":"ce4bghh2rcd13ifvqb60","pricing_plan_id":"cebpf4jnsgd1na2vs0mg"},{"bike_id":"54b589b7-3237-48b6-97bf-c04937b070a5","system_id":"levelo_inurba_marseille","lat":43.28705,"lon":5.39987,"is_reserved":false,"is_disabled":false,"rental_uris":{"android":"levelo://app?vid=54b589b7-3237-48b6-97bf-c04937b070a5","ios":"levelo://app?vid=54b589b7-3237-48b6-97bf-c04937b070a5"},"vehicle_type_id":"4","last_reported":1741360158,"current_range_meters":3600,"station_id":"ce4bho92rcd13ifvqh3g","pricing_plan_id":"cebpf4jnsgd1na2vs0mg"},{"bike_id":"83a81c0d-b127-46cc-9c1f-15ebed303881","system_id":"levelo_inurba_marseille","lat":43.25885,"lon":5.412442,"is_reserved":false,"is_disabled":false,"rental_uris":{"android":"levelo://app?vid=83a81c0d-b127-46cc-9c1f-15ebed303881","ios":"levelo://app?vid=83a81c0d-b127-46cc-9c1f-15ebed303881"},"vehicle_type_id":"4","last_reported":1741360158,"current_range_meters":4000,"station_id":"ce4bhkp2rcd13ifvqgd0","pricing_plan_id":"cebpf4jnsgd1na2vs0mg"},{"bike_id":"1ef4465b-6d62-40d3-af62-f7eeab41fd02","system_id":"levelo_inurba_marseille","lat":43.29608,"lon":5.38095,"is_reserved":false,"is_disabled":false,"rental_uris":{"android":"levelo://app?vid=1ef4465b-6d62-40d3-af62-f7eeab41fd02","ios":"levelo://app?vid=1ef4465b-6d62-40d3-af62-f7eeab41fd02"},"vehicle_type_id":"4","last_reported":1741360158,"current_range_meters":4000,"station_id":"ce4bgl12rcd13ifvqbo0","pricing_plan_id":"cebpf4jnsgd1na2vs0mg"},{"bike_id":"9d21e549-7ac9-4449-a7f8-6ce463f19167","system_id":"levelo_inurba_marseille","lat":43.31071,"lon":5.38346,"is_reserved":false,"is_disabled":false,"rental_uris":{"android":"levelo://app?vid=9d21e549-7ac9-4449-a7f8-6ce463f19167","ios":"levelo://app?vid=9d21e549-7ac9-4449-a7f8-6ce463f19167"},"vehicle_type_id":"4","last_reported":1741360158,"current_range_meters":4400,"station_id":"ce4bgv92rcd13ifvqcr0","pricing_plan_id":"cebpf4jnsgd1na2vs0mg"},{"bike_id":"5e68b84f-912e-42db-84c7-0b695de163d5","system_id":"levelo_inurba_marseille","lat":43.30898,"lon":5.3682,"is_reserved":false,"is_disabled":false,"rental_uris":{"android":"levelo://app?vid=5e68b84f-912e-42db-84c7-0b695de163d5","ios":"levelo://app?vid=5e68b84f-912e-42db-84c7-0b695de163d5"},"vehicle_type_id":"4","last_reported":1741360158,"current_range_meters":4400,"station_id":"ce4bgn92rcd13ifvqbvg","pricing_plan_id":"cebpf4jnsgd1na2vs0mg"},{"bike_id":"4a76fd7e-239c-4449-9301-14930233d4f2","system_id":"levelo_inurba_marseille","lat":43.27969,"lon":5.38737,"is_reserved":false,"is_disabled":false,"rental_uris":{"android":"levelo://app?vid=4a76fd7e-239c-4449-9301-14930233d4f2","ios":"levelo://app?vid=4a76fd7e-239c-4449-9301-14930233d4f2"},"vehicle_type_id":"4","last_reported":1741360158,"current_range_meters":4400,"station_id":"ce4bhg12rcd13ifvqf80","pricing_plan_id":"cebpf4jnsgd1na2vs0mg"},{"bike_id":"de10dad3-cc48-400a-922c-cca5bf1a3a20","system_id":"levelo_inurba_marseille","lat":43.29938,"lon":5.38831,"is_reserved":false,"is_disabled":true,"rental_uris":{"android":"levelo://app?vid=de10dad3-cc48-400a-922c-cca5bf1a3a20","ios":"levelo://app?vid=de10dad3-cc48-400a-922c-cca5bf1a3a20"},"vehicle_type_id":"4","last_reported":1741360158,"current_range_meters":4800,"station_id":"","pricing_plan_id":"cebpf4jnsgd1na2vs0mg"},{"bike_id":"d572b633-d5af-4df0-87b8-0a5b1819b02b","system_id":"levelo_inurba_marseille","lat":43.24164,"lon":5.39739,"is_reserved":false,"is_disabled":true,"rental_uris":{"android":"levelo://app?vid=d572b633-d5af-4df0-87b8-0a5b1819b02b","ios":"levelo://app?vid=d572b633-d5af-4df0-87b8-0a5b1819b02b"},"vehicle_type_id":"4","last_reported":1741360158,"current_range_meters":4800,"station_id":"ce4bhn12rcd13ifvqgpg","pricing_plan_id":"cebpf4jnsgd1na2vs0mg"},{"bike_id":"f149b74a-6c5c-40a1-a18a-8c5f287ab0ae","system_id":"levelo_inurba_marseille","lat":43.26198,"lon":5.37934,"is_reserved":false,"is_disabled":false,"rental_uris":{"android":"levelo://app?vid=f149b74a-6c5c-40a1-a18a-8c5f287ab0ae","ios":"levelo://app?vid=f149b74a-6c5c-40a1-a18a-8c5f287ab0ae"},"vehicle_type_id":"4","last_reported":1741360158,"current_range_meters":4800,"station_id":"ce4bhjp2rcd13ifvqg90","pricing_plan_id":"cebpf4jnsgd1na2vs0mg"},{"bike_id":"58005c01-1058-4012-826c-491eaf4a87ed","system_id":"levelo_inurba_marseille","lat":43.28438,"lon":5.39191,"is_reserved":false,"is_disabled":false,"rental_uris":{"android":"levelo://app?vid=58005c01-1058-4012-826c-491eaf4a87ed","ios":"levelo://app?vid=58005c01-1058-4012-826c-491eaf4a87ed"},"vehicle_type_id":"4","last_reported":1741360158,"current_range_meters":5600,"station_id":"ce4bhoh2rcd13ifvqh5g","pricing_plan_id":"cebpf4jnsgd1na2vs0mg"},{"bike_id":"e7ed0841-93ed-4c2c-afdc-5222d3066d7c","system_id":"levelo_inurba_marseille","lat":43.29973,"lon":5.38502,"is_reserved":false,"is_disabled":false,"rental_uris":{"android":"levelo://app?vid=e7ed0841-93ed-4c2c-afdc-5222d3066d7c","ios":"levelo://app?vid=e7ed0841-93ed-4c2c-afdc-5222d3066d7c"},"vehicle_type_id":"4","last_reported":1741360158,"current_range_meters":5600,"station_id":"ce4bgj92rcd13ifvqbd0","pricing_plan_id":"cebpf4jnsgd1na2vs0mg"},{"bike_id":"c0c47341-625e-4ef2-ba2f-5e525ff9942e","system_id":"levelo_inurba_marseille","lat":43.29258,"lon":5.37616,"is_reserved":false,"is_disabled":false,"rental_uris":{"android":"levelo://app?vid=c0c47341-625e-4ef2-ba2f-5e525ff9942e","ios":"levelo://app?vid=c0c47341-625e-4ef2-ba2f-5e525ff9942e"},"vehicle_type_id":"4","last_reported":1741360158,"current_range_meters":5600,"station_id":"ce4bgi12rcd13ifvqb80","pricing_plan_id":"cebpf4jnsgd1na2vs0mg"},{"bike_id":"89aaf873-9381-4fc3-85fd-b9e428012882","system_id":"levelo_inurba_marseille","lat":43.2407,"lon":5.37765,"is_reserved":false,"is_disabled":false,"rental_uris":{"android":"levelo://app?vid=89aaf873-9381-4fc3-85fd-b9e428012882","ios":"levelo://app?vid=89aaf873-9381-4fc3-85fd-b9e428012882"},"vehicle_type_id":"4","last_reported":1741360158,"current_range_meters":6000,"station_id":"ce4bhnp2rcd13ifvqgvg","pricing_plan_id":"cebpf4jnsgd1na2vs0mg"},{"bike_id":"1fb604a7-f5e0-4c63-86b9-bbe67d23d241","system_id":"levelo_inurba_marseille","lat":43.26573,"lon":5.39021,"is_reserved":false,"is_disabled":false,"rental_uris":{"android":"levelo://app?vid=1fb604a7-f5e0-4c63-86b9-bbe67d23d241","ios":"levelo://app?vid=1fb604a7-f5e0-4c63-86b9-bbe67d23d241"},"vehicle_type_id":"4","last_reported":1741360158,"current_range_meters":6000,"station_id":"ce4bhe12rcd13ifvqf30","pricing_plan_id":"cebpf4jnsgd1na2vs0mg"},{"bike_id":"f927a9c8-5d84-472f-b8fd-88f2fc3bc3e6","system_id":"levelo_inurba_marseille","lat":43.299013,"lon":5.436737,"is_reserved":false,"is_disabled":false,"rental_uris":{"android":"levelo://app?vid=f927a9c8-5d84-472f-b8fd-88f2fc3bc3e6","ios":"levelo://app?vid=f927a9c8-5d84-472f-b8fd-88f2fc3bc3e6"},"vehicle_type_id":"4","last_reported":1741360158,"current_range_meters":6000,"station_id":"ce4bhpp2rcd13ifvqhfg","pricing_plan_id":"cebpf4jnsgd1na2vs0mg"},{"bike_id":"9d0ec4f4-6f2c-4ac4-8eeb-15ec8de7d519","system_id":"levelo_inurba_marseille","lat":43.27424,"lon":5.39422,"is_reserved":false,"is_disabled":false,"rental_uris":{"android":"levelo://app?vid=9d0ec4f4-6f2c-4ac4-8eeb-15ec8de7d519","ios":"levelo://app?vid=9d0ec4f4-6f2c-4ac4-8eeb-15ec8de7d519"},"vehicle_type_id":"4","last_reported":1741360158,"current_range_meters":6000,"station_id":"ce4bhdp2rcd13ifvqf20","pricing_plan_id":"cebpf4jnsgd1na2vs0mg"},{"bike_id":"8d598184-be52-411a-b340-d741c3b436a6","system_id":"levelo_inurba_marseille","lat":43.29397,"lon":5.386762,"is_reserved":false,"is_disabled":false,"rental_uris":{"android":"levelo://app?vid=8d598184-be52-411a-b340-d741c3b436a6","ios":"levelo://app?vid=8d598184-be52-411a-b340-d741c3b436a6"},"vehicle_type_id":"4","last_reported":1741360158,"current_range_meters":5600,"station_id":"ce4bh2h2rcd13ifvqdh0","pricing_plan_id":"cebpf4jnsgd1na2vs0mg"},{"bike_id":"6abd6455-2026-40d2-b5a7-9373dd35b2a5","system_id":"levelo_inurba_marseille","lat":43.30295,"lon":5.39207,"is_reserved":false,"is_disabled":false,"rental_uris":{"android":"levelo://app?vid=6abd6455-2026-40d2-b5a7-9373dd35b2a5","ios":"levelo://app?vid=6abd6455-2026-40d2-b5a7-9373dd35b2a5"},"vehicle_type_id":"4","last_reported":1741360158,"current_range_meters":6000,"station_id":"ce4bgkh2rcd13ifvqbk0","pricing_plan_id":"cebpf4jnsgd1na2vs0mg"},{"bike_id":"46097b83-27a1-480d-9424-35eecc2469d8","system_id":"levelo_inurba_marseille","lat":43.23156,"lon":5.43712,"is_reserved":false,"is_disabled":false,"rental_uris":{"android":"levelo://app?vid=46097b83-27a1-480d-9424-35eecc2469d8","ios":"levelo://app?vid=46097b83-27a1-480d-9424-35eecc2469d8"},"vehicle_type_id":"4","last_reported":1741360158,"current_range_meters":6400,"station_id":"ce4bhmp2rcd13ifvqgog","pricing_plan_id":"cebpf4jnsgd1na2vs0mg"},{"bike_id":"d93bdeca-d0ff-402c-a1ae-de5375476d11","system_id":"levelo_inurba_marseille","lat":43.2823,"lon":5.4028,"is_reserved":false,"is_disabled":true,"rental_uris":{"android":"levelo://app?vid=d93bdeca-d0ff-402c-a1ae-de5375476d11","ios":"levelo://app?vid=d93bdeca-d0ff-402c-a1ae-de5375476d11"},"vehicle_type_id":"4","last_reported":1741360158,"current_range_meters":6400,"station_id":"","pricing_plan_id":"cebpf4jnsgd1na2vs0mg"},{"bike_id":"7f1905bf-da4d-4f13-af14-c5d46804e585","system_id":"levelo_inurba_marseille","lat":43.23192,"lon":5.35562,"is_reserved":false,"is_disabled":false,"rental_uris":{"android":"levelo://app?vid=7f1905bf-da4d-4f13-af14-c5d46804e585","ios":"levelo://app?vid=7f1905bf-da4d-4f13-af14-c5d46804e585"},"vehicle_type_id":"4","last_reported":1741360158,"current_range_meters":6400,"station_id":"ce4bhu92rcd13ifvqi70","pricing_plan_id":"cebpf4jnsgd1na2vs0mg"},{"bike_id":"d97b34a5-4a9d-4d9c-b55f-b72c9be6ca47","system_id":"levelo_inurba_marseille","lat":43.25107,"lon":5.40331,"is_reserved":false,"is_disabled":true,"rental_uris":{"android":"levelo://app?vid=d97b34a5-4a9d-4d9c-b55f-b72c9be6ca47","ios":"levelo://app?vid=d97b34a5-4a9d-4d9c-b55f-b72c9be6ca47"},"vehicle_type_id":"4","last_reported":1741360158,"current_range_meters":6400,"station_id":"ce4bhlh2rcd13ifvqgig","pricing_plan_id":"cebpf4jnsgd1na2vs0mg"},{"bike_id":"81220ab9-fb8e-4638-a084-692a6595df85","system_id":"levelo_inurba_marseille","lat":43.26187,"lon":5.42079,"is_reserved":false,"is_disabled":false,"rental_uris":{"android":"levelo://app?vid=81220ab9-fb8e-4638-a084-692a6595df85","ios":"levelo://app?vid=81220ab9-fb8e-4638-a084-692a6595df85"},"vehicle_type_id":"4","last_reported":1741360158,"current_range_meters":6400,"station_id":"","pricing_plan_id":"cebpf4jnsgd1na2vs0mg"},{"bike_id":"bfbbd4e4-b285-4bd8-92fe-fba97d154994","system_id":"levelo_inurba_marseille","lat":43.26769,"lon":5.3943,"is_reserved":false,"is_disabled":false,"rental_uris":{"android":"levelo://app?vid=bfbbd4e4-b285-4bd8-92fe-fba97d154994","ios":"levelo://app?vid=bfbbd4e4-b285-4bd8-92fe-fba97d154994"},"vehicle_type_id":"4","last_reported":1741360158,"current_range_meters":6400,"station_id":"ce4bhh12rcd13ifvqfg0","pricing_plan_id":"cebpf4jnsgd1na2vs0mg"},{"bike_id":"9bfe4e82-241b-4620-b471-d226beb88b23","system_id":"levelo_inurba_marseille","lat":43.22922,"lon":5.35371,"is_reserved":false,"is_disabled":false,"rental_uris":{"android":"levelo://app?vid=9bfe4e82-241b-4620-b471-d226beb88b23","ios":"levelo://app?vid=9bfe4e82-241b-4620-b471-d226beb88b23"},"vehicle_type_id":"4","last_reported":1741360158,"current_range_meters":6400,"station_id":"cpo3532slgdg3j2ikp40","pricing_plan_id":"cebpf4jnsgd1na2vs0mg"},{"bike_id":"80b50e88-d414-489c-a163-da0504b59c35","system_id":"levelo_inurba_marseille","lat":43.30929,"lon":5.40166,"is_reserved":false,"is_disabled":false,"rental_uris":{"android":"levelo://app?vid=80b50e88-d414-489c-a163-da0504b59c35","ios":"levelo://app?vid=80b50e88-d414-489c-a163-da0504b59c35"},"vehicle_type_id":"4","last_reported":1741360158,"current_range_meters":6800,"station_id":"ce4bgvp2rcd13ifvqct0","pricing_plan_id":"cebpf4jnsgd1na2vs0mg"},{"bike_id":"16a60255-29a6-4e10-9ee8-c18dfa61b2c7","system_id":"levelo_inurba_marseille","lat":43.28931,"lon":5.38406,"is_reserved":false,"is_disabled":false,"rental_uris":{"android":"levelo://app?vid=16a60255-29a6-4e10-9ee8-c18dfa61b2c7","ios":"levelo://app?vid=16a60255-29a6-4e10-9ee8-c18dfa61b2c7"},"vehicle_type_id":"4","last_reported":1741360158,"current_range_meters":6800,"station_id":"ce4bh612rcd13ifvqe6g","pricing_plan_id":"cebpf4jnsgd1na2vs0mg"},{"bike_id":"886ec5fe-098f-4f9c-82a2-2458b3448aa6","system_id":"levelo_inurba_marseille","lat":43.23066,"lon":5.35498,"is_reserved":false,"is_disabled":false,"rental_uris":{"android":"levelo://app?vid=886ec5fe-098f-4f9c-82a2-2458b3448aa6","ios":"levelo://app?vid=886ec5fe-098f-4f9c-82a2-2458b3448aa6"},"vehicle_type_id":"4","last_reported":1741360158,"current_range_meters":6800,"station_id":"cpo3342slgdg3j2ifvpg","pricing_plan_id":"cebpf4jnsgd1na2vs0mg"},{"bike_id":"18a10384-b574-40a1-91d7-47f76690788e","system_id":"levelo_inurba_marseille","lat":43.29791,"lon":5.38094,"is_reserved":false,"is_disabled":false,"rental_uris":{"android":"levelo://app?vid=18a10384-b574-40a1-91d7-47f76690788e","ios":"levelo://app?vid=18a10384-b574-40a1-91d7-47f76690788e"},"vehicle_type_id":"4","last_reported":1741360158,"current_range_meters":6800,"station_id":"ce4bgip2rcd13ifvqbb0","pricing_plan_id":"cebpf4jnsgd1na2vs0mg"},{"bike_id":"04393cbd-9b3d-4e29-8893-184a4c2c2c7f","system_id":"levelo_inurba_marseille","lat":43.28711,"lon":5.39973,"is_reserved":false,"is_disabled":true,"rental_uris":{"android":"levelo://app?vid=04393cbd-9b3d-4e29-8893-184a4c2c2c7f","ios":"levelo://app?vid=04393cbd-9b3d-4e29-8893-184a4c2c2c7f"},"vehicle_type_id":"4","last_reported":1741360158,"current_range_meters":6800,"station_id":"ce4bho92rcd13ifvqh3g","pricing_plan_id":"cebpf4jnsgd1na2vs0mg"},{"bike_id":"fe7ef837-b5c0-4bda-a0a2-8f02735437a1","system_id":"levelo_inurba_marseille","lat":43.29417,"lon":5.38627,"is_reserved":false,"is_disabled":false,"rental_uris":{"android":"levelo://app?vid=fe7ef837-b5c0-4bda-a0a2-8f02735437a1","ios":"levelo://app?vid=fe7ef837-b5c0-4bda-a0a2-8f02735437a1"},"vehicle_type_id":"4","last_reported":1741360158,"current_range_meters":6800,"station_id":"ce4bh2h2rcd13ifvqdh0","pricing_plan_id":"cebpf4jnsgd1na2vs0mg"},{"bike_id":"8117bdf1-139f-4cd9-aa3f-831f4d72ad1a","system_id":"levelo_inurba_marseille","lat":43.30886,"lon":5.39654,"is_reserved":false,"is_disabled":false,"rental_uris":{"android":"levelo://app?vid=8117bdf1-139f-4cd9-aa3f-831f4d72ad1a","ios":"levelo://app?vid=8117bdf1-139f-4cd9-aa3f-831f4d72ad1a"},"vehicle_type_id":"4","last_reported":1741360158,"current_range_meters":6800,"station_id":"ce4bh012rcd13ifvqcv0","pricing_plan_id":"cebpf4jnsgd1na2vs0mg"},{"bike_id":"c5d9a748-fb84-4751-9008-dc4467d9ed9a","system_id":"levelo_inurba_marseille","lat":43.23207,"lon":5.35568,"is_reserved":false,"is_disabled":false,"rental_uris":{"android":"levelo://app?vid=c5d9a748-fb84-4751-9008-dc4467d9ed9a","ios":"levelo://app?vid=c5d9a748-fb84-4751-9008-dc4467d9ed9a"},"vehicle_type_id":"4","last_reported":1741360158,"current_range_meters":6800,"station_id":"ce4bhu92rcd13ifvqi70","pricing_plan_id":"cebpf4jnsgd1na2vs0mg"},{"bike_id":"7b7b550e-b23c-4659-932d-4c2dc9990f94","system_id":"levelo_inurba_marseille","lat":43.28705,"lon":5.40003,"is_reserved":false,"is_disabled":false,"rental_uris":{"android":"levelo://app?vid=7b7b550e-b23c-4659-932d-4c2dc9990f94","ios":"levelo://app?vid=7b7b550e-b23c-4659-932d-4c2dc9990f94"},"vehicle_type_id":"4","last_reported":1741360158,"current_range_meters":6800,"station_id":"ce4bho92rcd13ifvqh3g","pricing_plan_id":"cebpf4jnsgd1na2vs0mg"},{"bike_id":"a8346857-aeb5-446d-a7c0-256440b8c5b2","system_id":"levelo_inurba_marseille","lat":43.279513,"lon":5.410492,"is_reserved":false,"is_disabled":false,"rental_uris":{"android":"levelo://app?vid=a8346857-aeb5-446d-a7c0-256440b8c5b2","ios":"levelo://app?vid=a8346857-aeb5-446d-a7c0-256440b8c5b2"},"vehicle_type_id":"4","last_reported":1741360158,"current_range_meters":6800,"station_id":"ce4bgip2rcd13ifvqbb0","pricing_plan_id":"cebpf4jnsgd1na2vs0mg"},{"bike_id":"9ca80f1d-375f-4f52-bf88-119973f9a2c3","system_id":"levelo_inurba_marseille","lat":43.30174,"lon":5.40052,"is_reserved":false,"is_disabled":false,"rental_uris":{"android":"levelo://app?vid=9ca80f1d-375f-4f52-bf88-119973f9a2c3","ios":"levelo://app?vid=9ca80f1d-375f-4f52-bf88-119973f9a2c3"},"vehicle_type_id":"4","last_reported":1741360158,"current_range_meters":6800,"station_id":"","pricing_plan_id":"cebpf4jnsgd1na2vs0mg"},{"bike_id":"1b34c58c-f011-43f3-baac-47c6cf7523c0","system_id":"levelo_inurba_marseille","lat":43.29907,"lon":5.43675,"is_reserved":false,"is_disabled":false,"rental_uris":{"android":"levelo://app?vid=1b34c58c-f011-43f3-baac-47c6cf7523c0","ios":"levelo://app?vid=1b34c58c-f011-43f3-baac-47c6cf7523c0"},"vehicle_type_id":"4","last_reported":1741360158,"current_range_meters":7200,"station_id":"ce4bhpp2rcd13ifvqhfg","pricing_plan_id":"cebpf4jnsgd1na2vs0mg"},{"bike_id":"c90bf3f0-4519-4752-a09b-f5e406753061","system_id":"levelo_inurba_marseille","lat":43.28568,"lon":5.39499,"is_reserved":false,"is_disabled":false,"rental_uris":{"android":"levelo://app?vid=c90bf3f0-4519-4752-a09b-f5e406753061","ios":"levelo://app?vid=c90bf3f0-4519-4752-a09b-f5e406753061"},"vehicle_type_id":"4","last_reported":1741360158,"current_range_meters":7200,"station_id":"ce4bh292rcd13ifvqdg0","pricing_plan_id":"cebpf4jnsgd1na2vs0mg"},{"bike_id":"ad7a3408-e9e9-4c83-8aaf-b1cacd4756e0","system_id":"levelo_inurba_marseille","lat":43.28825,"lon":5.39327,"is_reserved":false,"is_disabled":false,"rental_uris":{"android":"levelo://app?vid=ad7a3408-e9e9-4c83-8aaf-b1cacd4756e0","ios":"levelo://app?vid=ad7a3408-e9e9-4c83-8aaf-b1cacd4756e0"},"vehicle_type_id":"4","last_reported":1741360158,"current_range_meters":7200,"station_id":"ce4bh2p2rcd13ifvqdi0","pricing_plan_id":"cebpf4jnsgd1na2vs0mg"},{"bike_id":"b4c8f7c6-4370-4640-b211-499f90edd1e6","system_id":"levelo_inurba_marseille","lat":43.24547,"lon":5.39528,"is_reserved":false,"is_disabled":false,"rental_uris":{"android":"levelo://app?vid=b4c8f7c6-4370-4640-b211-499f90edd1e6","ios":"levelo://app?vid=b4c8f7c6-4370-4640-b211-499f90edd1e6"},"vehicle_type_id":"4","last_reported":1741360158,"current_range_meters":7200,"station_id":"ce4bhlp2rcd13ifvqgjg","pricing_plan_id":"cebpf4jnsgd1na2vs0mg"},{"bike_id":"24df224d-ffa5-472e-acc0-380979001d96","system_id":"levelo_inurba_marseille","lat":43.25721,"lon":5.41119,"is_reserved":false,"is_disabled":false,"rental_uris":{"android":"levelo://app?vid=24df224d-ffa5-472e-acc0-380979001d96","ios":"levelo://app?vid=24df224d-ffa5-472e-acc0-380979001d96"},"vehicle_type_id":"4","last_reported":1741360158,"current_range_meters":7200,"station_id":"ce4bhkp2rcd13ifvqgd0","pricing_plan_id":"cebpf4jnsgd1na2vs0mg"},{"bike_id":"858c50df-ffa3-4ac3-a680-aba957e8944e","system_id":"levelo_inurba_marseille","lat":43.29894,"lon":5.43655,"is_reserved":false,"is_disabled":false,"rental_uris":{"android":"levelo://app?vid=858c50df-ffa3-4ac3-a680-aba957e8944e","ios":"levelo://app?vid=858c50df-ffa3-4ac3-a680-aba957e8944e"},"vehicle_type_id":"4","last_reported":1741360158,"current_range_meters":7200,"station_id":"ce4bhpp2rcd13ifvqhfg","pricing_plan_id":"cebpf4jnsgd1na2vs0mg"},{"bike_id":"892d91bc-d510-4f7d-a5a5-569c8067cb45","system_id":"levelo_inurba_marseille","lat":43.3026,"lon":5.40079,"is_reserved":false,"is_disabled":false,"rental_uris":{"android":"levelo://app?vid=892d91bc-d510-4f7d-a5a5-569c8067cb45","ios":"levelo://app?vid=892d91bc-d510-4f7d-a5a5-569c8067cb45"},"vehicle_type_id":"4","last_reported":1741360158,"current_range_meters":8000,"station_id":"ce4bgvh2rcd13ifvqcs0","pricing_plan_id":"cebpf4jnsgd1na2vs0mg"},{"bike_id":"3d2c0b49-e25e-471b-b673-c493ce65b223","system_id":"levelo_inurba_marseille","lat":43.2979,"lon":5.40412,"is_reserved":false,"is_disabled":false,"rental_uris":{"android":"levelo://app?vid=3d2c0b49-e25e-471b-b673-c493ce65b223","ios":"levelo://app?vid=3d2c0b49-e25e-471b-b673-c493ce65b223"},"vehicle_type_id":"4","last_reported":1741360158,"current_range_meters":8000,"station_id":"ce4bh112rcd13ifvqd90","pricing_plan_id":"cebpf4jnsgd1na2vs0mg"},{"bike_id":"357f6b0d-7429-4870-b5b1-c540923d954d","system_id":"levelo_inurba_marseille","lat":43.23067,"lon":5.35496,"is_reserved":false,"is_disabled":false,"rental_uris":{"android":"levelo://app?vid=357f6b0d-7429-4870-b5b1-c540923d954d","ios":"levelo://app?vid=357f6b0d-7429-4870-b5b1-c540923d954d"},"vehicle_type_id":"4","last_reported":1741360158,"current_range_meters":8000,"station_id":"cpo3342slgdg3j2ifvpg","pricing_plan_id":"cebpf4jnsgd1na2vs0mg"},{"bike_id":"7a60d2cb-3bf0-404d-8573-df878562c632","system_id":"levelo_inurba_marseille","lat":43.26201,"lon":5.37933,"is_reserved":false,"is_disabled":false,"rental_uris":{"android":"levelo://app?vid=7a60d2cb-3bf0-404d-8573-df878562c632","ios":"levelo://app?vid=7a60d2cb-3bf0-404d-8573-df878562c632"},"vehicle_type_id":"4","last_reported":1741360158,"current_range_meters":8000,"station_id":"ce4bhjp2rcd13ifvqg90","pricing_plan_id":"cebpf4jnsgd1na2vs0mg"},{"bike_id":"f10983dd-22d3-4f46-a2c6-006eac3e0c85","system_id":"levelo_inurba_marseille","lat":43.25083,"lon":5.395301,"is_reserved":false,"is_disabled":false,"rental_uris":{"android":"levelo://app?vid=f10983dd-22d3-4f46-a2c6-006eac3e0c85","ios":"levelo://app?vid=f10983dd-22d3-4f46-a2c6-006eac3e0c85"},"vehicle_type_id":"4","last_reported":1741360158,"current_range_meters":8000,"station_id":"ce4bhm12rcd13ifvqgkg","pricing_plan_id":"cebpf4jnsgd1na2vs0mg"},{"bike_id":"24681b37-b43a-40eb-a62b-46f559f835b8","system_id":"levelo_inurba_marseille","lat":43.30142,"lon":5.39875,"is_reserved":false,"is_disabled":false,"rental_uris":{"android":"levelo://app?vid=24681b37-b43a-40eb-a62b-46f559f835b8","ios":"levelo://app?vid=24681b37-b43a-40eb-a62b-46f559f835b8"},"vehicle_type_id":"4","last_reported":1741360158,"current_range_meters":8000,"station_id":"ce4bh0h2rcd13ifvqd40","pricing_plan_id":"cebpf4jnsgd1na2vs0mg"},{"bike_id":"2f7d576a-03ee-4256-9304-ad8af4bca53b","system_id":"levelo_inurba_marseille","lat":43.29272,"lon":5.38447,"is_reserved":false,"is_disabled":false,"rental_uris":{"android":"levelo://app?vid=2f7d576a-03ee-4256-9304-ad8af4bca53b","ios":"levelo://app?vid=2f7d576a-03ee-4256-9304-ad8af4bca53b"},"vehicle_type_id":"4","last_reported":1741360158,"current_range_meters":9600,"station_id":"ce4bh692rcd13ifvqea0","pricing_plan_id":"cebpf4jnsgd1na2vs0mg"},{"bike_id":"305ae609-526a-4409-ac67-e53bcafb9b2a","system_id":"levelo_inurba_marseille","lat":43.2979,"lon":5.38094,"is_reserved":false,"is_disabled":false,"rental_uris":{"android":"levelo://app?vid=305ae609-526a-4409-ac67-e53bcafb9b2a","ios":"levelo://app?vid=305ae609-526a-4409-ac67-e53bcafb9b2a"},"vehicle_type_id":"4","last_reported":1741360158,"current_range_meters":8400,"station_id":"ce4bgip2rcd13ifvqbb0","pricing_plan_id":"cebpf4jnsgd1na2vs0mg"},{"bike_id":"143b74fc-ab7b-4910-8495-ffc1ad22971d","system_id":"levelo_inurba_marseille","lat":43.25012,"lon":5.38928,"is_reserved":false,"is_disabled":true,"rental_uris":{"android":"levelo://app?vid=143b74fc-ab7b-4910-8495-ffc1ad22971d","ios":"levelo://app?vid=143b74fc-ab7b-4910-8495-ffc1ad22971d"},"vehicle_type_id":"4","last_reported":1741360158,"current_range_meters":8400,"station_id":"ce4bhgp2rcd13ifvqfd0","pricing_plan_id":"cebpf4jnsgd1na2vs0mg"},{"bike_id":"663accf6-681a-4ca4-bd91-1c8e74411d3e","system_id":"levelo_inurba_marseille","lat":43.26559,"lon":5.37289,"is_reserved":false,"is_disabled":false,"rental_uris":{"android":"levelo://app?vid=663accf6-681a-4ca4-bd91-1c8e74411d3e","ios":"levelo://app?vid=663accf6-681a-4ca4-bd91-1c8e74411d3e"},"vehicle_type_id":"4","last_reported":1741360158,"current_range_meters":8400,"station_id":"ce4bhg12rcd13ifvqf70","pricing_plan_id":"cebpf4jnsgd1na2vs0mg"},{"bike_id":"90e8826d-321b-49e8-af4c-ad97b34ab28b","system_id":"levelo_inurba_marseille","lat":43.29417,"lon":5.38652,"is_reserved":false,"is_disabled":false,"rental_uris":{"android":"levelo://app?vid=90e8826d-321b-49e8-af4c-ad97b34ab28b","ios":"levelo://app?vid=90e8826d-321b-49e8-af4c-ad97b34ab28b"},"vehicle_type_id":"4","last_reported":1741360158,"current_range_meters":8400,"station_id":"ce4bh2h2rcd13ifvqdh0","pricing_plan_id":"cebpf4jnsgd1na2vs0mg"},{"bike_id":"568bfbbd-c86a-449f-9035-a07245a96fe8","system_id":"levelo_inurba_marseille","lat":43.24681,"lon":5.38175,"is_reserved":false,"is_disabled":false,"rental_uris":{"android":"levelo://app?vid=568bfbbd-c86a-449f-9035-a07245a96fe8","ios":"levelo://app?vid=568bfbbd-c86a-449f-9035-a07245a96fe8"},"vehicle_type_id":"4","last_reported":1741360158,"current_range_meters":8400,"station_id":"ce4bhih2rcd13ifvqfr0","pricing_plan_id":"cebpf4jnsgd1na2vs0mg"},{"bike_id":"1504eb35-e70f-4b31-b648-514c75fd585f","system_id":"levelo_inurba_marseille","lat":43.291712,"lon":5.371548,"is_reserved":false,"is_disabled":false,"rental_uris":{"android":"levelo://app?vid=1504eb35-e70f-4b31-b648-514c75fd585f","ios":"levelo://app?vid=1504eb35-e70f-4b31-b648-514c75fd585f"},"vehicle_type_id":"4","last_reported":1741360158,"current_range_meters":8400,"station_id":"ce4bh192rcd13ifvqdb0","pricing_plan_id":"cebpf4jnsgd1na2vs0mg"},{"bike_id":"39b0cca3-4a40-4b9b-a300-c2a73dd8bcc2","system_id":"levelo_inurba_marseille","lat":43.30888,"lon":5.37177,"is_reserved":false,"is_disabled":false,"rental_uris":{"android":"levelo://app?vid=39b0cca3-4a40-4b9b-a300-c2a73dd8bcc2","ios":"levelo://app?vid=39b0cca3-4a40-4b9b-a300-c2a73dd8bcc2"},"vehicle_type_id":"4","last_reported":1741360158,"current_range_meters":8400,"station_id":"ce4bguh2rcd13ifvqckg","pricing_plan_id":"cebpf4jnsgd1na2vs0mg"},{"bike_id":"e18870ec-9071-4499-9848-6e304dada92f","system_id":"levelo_inurba_marseille","lat":43.24661,"lon":5.38162,"is_reserved":false,"is_disabled":false,"rental_uris":{"android":"levelo://app?vid=e18870ec-9071-4499-9848-6e304dada92f","ios":"levelo://app?vid=e18870ec-9071-4499-9848-6e304dada92f"},"vehicle_type_id":"4","last_reported":1741360158,"current_range_meters":8400,"station_id":"ce4bhih2rcd13ifvqfr0","pricing_plan_id":"cebpf4jnsgd1na2vs0mg"},{"bike_id":"ecb82cc0-c722-45c2-b7a0-0ff29afa65eb","system_id":"levelo_inurba_marseille","lat":43.289795,"lon":5.382137,"is_reserved":false,"is_disabled":false,"rental_uris":{"android":"levelo://app?vid=ecb82cc0-c722-45c2-b7a0-0ff29afa65eb","ios":"levelo://app?vid=ecb82cc0-c722-45c2-b7a0-0ff29afa65eb"},"vehicle_type_id":"4","last_reported":1741360158,"current_range_meters":8400,"station_id":"ce4bh512rcd13ifvqe2g","pricing_plan_id":"cebpf4jnsgd1na2vs0mg"},{"bike_id":"a0eba378-6e6c-4d61-8892-c93f44882be1","system_id":"levelo_inurba_marseille","lat":43.28853,"lon":5.39305,"is_reserved":false,"is_disabled":false,"rental_uris":{"android":"levelo://app?vid=a0eba378-6e6c-4d61-8892-c93f44882be1","ios":"levelo://app?vid=a0eba378-6e6c-4d61-8892-c93f44882be1"},"vehicle_type_id":"4","last_reported":1741360158,"current_range_meters":8000,"station_id":"ce4bh2p2rcd13ifvqdi0","pricing_plan_id":"cebpf4jnsgd1na2vs0mg"},{"bike_id":"d7f5c0c7-9fee-4f14-8b5f-1b4b8760c803","system_id":"levelo_inurba_marseille","lat":43.31705,"lon":5.40477,"is_reserved":false,"is_disabled":false,"rental_uris":{"android":"levelo://app?vid=d7f5c0c7-9fee-4f14-8b5f-1b4b8760c803","ios":"levelo://app?vid=d7f5c0c7-9fee-4f14-8b5f-1b4b8760c803"},"vehicle_type_id":"4","last_reported":1741360158,"current_range_meters":8800,"station_id":"ce4bh012rcd13ifvqd00","pricing_plan_id":"cebpf4jnsgd1na2vs0mg"},{"bike_id":"d96126cd-63e5-4211-9e57-1275b84ff6a5","system_id":"levelo_inurba_marseille","lat":43.26562,"lon":5.39003,"is_reserved":false,"is_disabled":false,"rental_uris":{"android":"levelo://app?vid=d96126cd-63e5-4211-9e57-1275b84ff6a5","ios":"levelo://app?vid=d96126cd-63e5-4211-9e57-1275b84ff6a5"},"vehicle_type_id":"4","last_reported":1741360158,"current_range_meters":8800,"station_id":"ce4bhe12rcd13ifvqf30","pricing_plan_id":"cebpf4jnsgd1na2vs0mg"},{"bike_id":"454ee227-75ee-46e5-b5c5-97d64bc0b6fa","system_id":"levelo_inurba_marseille","lat":43.28416,"lon":5.34983,"is_reserved":false,"is_disabled":false,"rental_uris":{"android":"levelo://app?vid=454ee227-75ee-46e5-b5c5-97d64bc0b6fa","ios":"levelo://app?vid=454ee227-75ee-46e5-b5c5-97d64bc0b6fa"},"vehicle_type_id":"4","last_reported":1741360158,"current_range_meters":8800,"station_id":"ce4bhbh2rcd13ifvqepg","pricing_plan_id":"cebpf4jnsgd1na2vs0mg"},{"bike_id":"f3edc732-89a5-4941-a33e-0a8e649128da","system_id":"levelo_inurba_marseille","lat":43.30139,"lon":5.39876,"is_reserved":false,"is_disabled":false,"rental_uris":{"android":"levelo://app?vid=f3edc732-89a5-4941-a33e-0a8e649128da","ios":"levelo://app?vid=f3edc732-89a5-4941-a33e-0a8e649128da"},"vehicle_type_id":"4","last_reported":1741360158,"current_range_meters":8800,"station_id":"ce4bh0h2rcd13ifvqd40","pricing_plan_id":"cebpf4jnsgd1na2vs0mg"},{"bike_id":"32f4c2e3-6047-4544-ba7b-7e26bdb821f8","system_id":"levelo_inurba_marseille","lat":43.28414,"lon":5.34984,"is_reserved":false,"is_disabled":false,"rental_uris":{"android":"levelo://app?vid=32f4c2e3-6047-4544-ba7b-7e26bdb821f8","ios":"levelo://app?vid=32f4c2e3-6047-4544-ba7b-7e26bdb821f8"},"vehicle_type_id":"4","last_reported":1741360158,"current_range_meters":8800,"station_id":"ce4bhbh2rcd13ifvqepg","pricing_plan_id":"cebpf4jnsgd1na2vs0mg"},{"bike_id":"9f055065-a6c8-4709-9dbe-86f74ebd9ddb","system_id":"levelo_inurba_marseille","lat":43.29574,"lon":5.39988,"is_reserved":false,"is_disabled":false,"rental_uris":{"android":"levelo://app?vid=9f055065-a6c8-4709-9dbe-86f74ebd9ddb","ios":"levelo://app?vid=9f055065-a6c8-4709-9dbe-86f74ebd9ddb"},"vehicle_type_id":"4","last_reported":1741360158,"current_range_meters":8800,"station_id":"ce4bh312rcd13ifvqdj0","pricing_plan_id":"cebpf4jnsgd1na2vs0mg"},{"bike_id":"35130f87-b313-43ca-86df-0e44026654c1","system_id":"levelo_inurba_marseille","lat":43.30808,"lon":5.37983,"is_reserved":false,"is_disabled":false,"rental_uris":{"android":"levelo://app?vid=35130f87-b313-43ca-86df-0e44026654c1","ios":"levelo://app?vid=35130f87-b313-43ca-86df-0e44026654c1"},"vehicle_type_id":"4","last_reported":1741360158,"current_range_meters":8800,"station_id":"","pricing_plan_id":"cebpf4jnsgd1na2vs0mg"},{"bike_id":"93ed6756-0d76-4f7a-af69-82ec38cbd17f","system_id":"levelo_inurba_marseille","lat":43.29424,"lon":5.38627,"is_reserved":false,"is_disabled":false,"rental_uris":{"android":"levelo://app?vid=93ed6756-0d76-4f7a-af69-82ec38cbd17f","ios":"levelo://app?vid=93ed6756-0d76-4f7a-af69-82ec38cbd17f"},"vehicle_type_id":"4","last_reported":1741360158,"current_range_meters":8800,"station_id":"ce4bh2h2rcd13ifvqdh0","pricing_plan_id":"cebpf4jnsgd1na2vs0mg"},{"bike_id":"28437508-fa41-4054-b93c-b2fb98fbe78d","system_id":"levelo_inurba_marseille","lat":43.2791,"lon":5.38015,"is_reserved":false,"is_disabled":false,"rental_uris":{"android":"levelo://app?vid=28437508-fa41-4054-b93c-b2fb98fbe78d","ios":"levelo://app?vid=28437508-fa41-4054-b93c-b2fb98fbe78d"},"vehicle_type_id":"4","last_reported":1741360158,"current_range_meters":8800,"station_id":"ce4bhf92rcd13ifvqf50","pricing_plan_id":"cebpf4jnsgd1na2vs0mg"},{"bike_id":"afa83466-cbbf-41dd-b1cd-a635c8800780","system_id":"levelo_inurba_marseille","lat":43.26499,"lon":5.39541,"is_reserved":false,"is_disabled":false,"rental_uris":{"android":"levelo://app?vid=afa83466-cbbf-41dd-b1cd-a635c8800780","ios":"levelo://app?vid=afa83466-cbbf-41dd-b1cd-a635c8800780"},"vehicle_type_id":"4","last_reported":1741360158,"current_range_meters":8800,"station_id":"ce4bhi12rcd13ifvqfq0","pricing_plan_id":"cebpf4jnsgd1na2vs0mg"},{"bike_id":"9ea97274-f89e-4949-b179-e5cdb228aae6","system_id":"levelo_inurba_marseille","lat":43.26748,"lon":5.39451,"is_reserved":false,"is_disabled":false,"rental_uris":{"android":"levelo://app?vid=9ea97274-f89e-4949-b179-e5cdb228aae6","ios":"levelo://app?vid=9ea97274-f89e-4949-b179-e5cdb228aae6"},"vehicle_type_id":"4","last_reported":1741360158,"current_range_meters":9200,"station_id":"ce4bhh12rcd13ifvqfg0","pricing_plan_id":"cebpf4jnsgd1na2vs0mg"},{"bike_id":"7db82e19-099e-4bc8-a79f-ba951ad1b5a6","system_id":"levelo_inurba_marseille","lat":43.28656,"lon":5.36385,"is_reserved":false,"is_disabled":false,"rental_uris":{"android":"levelo://app?vid=7db82e19-099e-4bc8-a79f-ba951ad1b5a6","ios":"levelo://app?vid=7db82e19-099e-4bc8-a79f-ba951ad1b5a6"},"vehicle_type_id":"4","last_reported":1741360158,"current_range_meters":9200,"station_id":"ce4bhah2rcd13ifvqej0","pricing_plan_id":"cebpf4jnsgd1na2vs0mg"},{"bike_id":"903d168c-6ddd-4279-b00b-7d6538e327b3","system_id":"levelo_inurba_marseille","lat":43.29701,"lon":5.36601,"is_reserved":false,"is_disabled":false,"rental_uris":{"android":"levelo://app?vid=903d168c-6ddd-4279-b00b-7d6538e327b3","ios":"levelo://app?vid=903d168c-6ddd-4279-b00b-7d6538e327b3"},"vehicle_type_id":"4","last_reported":1741360158,"current_range_meters":9200,"station_id":"ce4bgn12rcd13ifvqbt0","pricing_plan_id":"cebpf4jnsgd1na2vs0mg"},{"bike_id":"ee20e5f1-3f6a-40ef-84cc-c34b6d09e34e","system_id":"levelo_inurba_marseille","lat":43.29976,"lon":5.38497,"is_reserved":false,"is_disabled":false,"rental_uris":{"android":"levelo://app?vid=ee20e5f1-3f6a-40ef-84cc-c34b6d09e34e","ios":"levelo://app?vid=ee20e5f1-3f6a-40ef-84cc-c34b6d09e34e"},"vehicle_type_id":"4","last_reported":1741360158,"current_range_meters":9200,"station_id":"ce4bgj92rcd13ifvqbd0","pricing_plan_id":"cebpf4jnsgd1na2vs0mg"},{"bike_id":"430f6fb6-c885-4ca4-825c-ab7135cd6fc9","system_id":"levelo_inurba_marseille","lat":43.28965,"lon":5.37842,"is_reserved":false,"is_disabled":false,"rental_uris":{"android":"levelo://app?vid=430f6fb6-c885-4ca4-825c-ab7135cd6fc9","ios":"levelo://app?vid=430f6fb6-c885-4ca4-825c-ab7135cd6fc9"},"vehicle_type_id":"4","last_reported":1741360158,"current_range_meters":6800,"station_id":"ce4bh9p2rcd13ifvqed0","pricing_plan_id":"cebpf4jnsgd1na2vs0mg"},{"bike_id":"7d0c7890-2b14-4685-b52e-119b337f9d80","system_id":"levelo_inurba_marseille","lat":43.28419,"lon":5.37521,"is_reserved":false,"is_disabled":false,"rental_uris":{"android":"levelo://app?vid=7d0c7890-2b14-4685-b52e-119b337f9d80","ios":"levelo://app?vid=7d0c7890-2b14-4685-b52e-119b337f9d80"},"vehicle_type_id":"4","last_reported":1741360158,"current_range_meters":9600,"station_id":"ce4bh412rcd13ifvqds0","pricing_plan_id":"cebpf4jnsgd1na2vs0mg"},{"bike_id":"1ad7ba79-c4e4-427a-b6a6-3be502e9fd00","system_id":"levelo_inurba_marseille","lat":43.265728,"lon":5.390003,"is_reserved":false,"is_disabled":false,"rental_uris":{"android":"levelo://app?vid=1ad7ba79-c4e4-427a-b6a6-3be502e9fd00","ios":"levelo://app?vid=1ad7ba79-c4e4-427a-b6a6-3be502e9fd00"},"vehicle_type_id":"4","last_reported":1741360158,"current_range_meters":9600,"station_id":"ce4bhe12rcd13ifvqf30","pricing_plan_id":"cebpf4jnsgd1na2vs0mg"},{"bike_id":"85bc4f34-4ba6-4708-bcb2-38da0f6d5955","system_id":"levelo_inurba_marseille","lat":43.28925,"lon":5.38392,"is_reserved":false,"is_disabled":false,"rental_uris":{"android":"levelo://app?vid=85bc4f34-4ba6-4708-bcb2-38da0f6d5955","ios":"levelo://app?vid=85bc4f34-4ba6-4708-bcb2-38da0f6d5955"},"vehicle_type_id":"4","last_reported":1741360158,"current_range_meters":9600,"station_id":"ce4bh612rcd13ifvqe6g","pricing_plan_id":"cebpf4jnsgd1na2vs0mg"},{"bike_id":"accf7804-e92b-4cb4-be54-2034d6e790ab","system_id":"levelo_inurba_marseille","lat":43.30606,"lon":5.37257,"is_reserved":false,"is_disabled":false,"rental_uris":{"android":"levelo://app?vid=accf7804-e92b-4cb4-be54-2034d6e790ab","ios":"levelo://app?vid=accf7804-e92b-4cb4-be54-2034d6e790ab"},"vehicle_type_id":"4","last_reported":1741360158,"current_range_meters":9600,"station_id":"ce4bgqh2rcd13ifvqc4g","pricing_plan_id":"cebpf4jnsgd1na2vs0mg"},{"bike_id":"97c79ffb-1f3d-497d-aea3-a93a32575ae6","system_id":"levelo_inurba_marseille","lat":43.3015,"lon":5.38093,"is_reserved":false,"is_disabled":false,"rental_uris":{"android":"levelo://app?vid=97c79ffb-1f3d-497d-aea3-a93a32575ae6","ios":"levelo://app?vid=97c79ffb-1f3d-497d-aea3-a93a32575ae6"},"vehicle_type_id":"4","last_reported":1741360158,"current_range_meters":9600,"station_id":"ce4bgjp2rcd13ifvqbh0","pricing_plan_id":"cebpf4jnsgd1na2vs0mg"},{"bike_id":"55f1a346-655d-4ceb-961f-e11c032b07e0","system_id":"levelo_inurba_marseille","lat":43.32688,"lon":5.40279,"is_reserved":false,"is_disabled":false,"rental_uris":{"android":"levelo://app?vid=55f1a346-655d-4ceb-961f-e11c032b07e0","ios":"levelo://app?vid=55f1a346-655d-4ceb-961f-e11c032b07e0"},"vehicle_type_id":"4","last_reported":1741360158,"current_range_meters":9600,"station_id":"","pricing_plan_id":"cebpf4jnsgd1na2vs0mg"},{"bike_id":"f501b336-a153-491b-b354-d0c70f05e90a","system_id":"levelo_inurba_marseille","lat":43.25111,"lon":5.40324,"is_reserved":false,"is_disabled":false,"rental_uris":{"android":"levelo://app?vid=f501b336-a153-491b-b354-d0c70f05e90a","ios":"levelo://app?vid=f501b336-a153-491b-b354-d0c70f05e90a"},"vehicle_type_id":"4","last_reported":1741360158,"current_range_meters":9600,"station_id":"ce4bhlh2rcd13ifvqgig","pricing_plan_id":"cebpf4jnsgd1na2vs0mg"},{"bike_id":"cec5a9d9-3269-4f40-8f68-02c828cdb767","system_id":"levelo_inurba_marseille","lat":43.29603,"lon":5.38092,"is_reserved":false,"is_disabled":false,"rental_uris":{"android":"levelo://app?vid=cec5a9d9-3269-4f40-8f68-02c828cdb767","ios":"levelo://app?vid=cec5a9d9-3269-4f40-8f68-02c828cdb767"},"vehicle_type_id":"4","last_reported":1741360158,"current_range_meters":9600,"station_id":"ce4bgl12rcd13ifvqbo0","pricing_plan_id":"cebpf4jnsgd1na2vs0mg"},{"bike_id":"9f6cf164-abf3-49fa-8460-db1189dfd004","system_id":"levelo_inurba_marseille","lat":43.31703,"lon":5.40461,"is_reserved":false,"is_disabled":false,"rental_uris":{"android":"levelo://app?vid=9f6cf164-abf3-49fa-8460-db1189dfd004","ios":"levelo://app?vid=9f6cf164-abf3-49fa-8460-db1189dfd004"},"vehicle_type_id":"4","last_reported":1741360158,"current_range_meters":9600,"station_id":"ce4bh012rcd13ifvqd00","pricing_plan_id":"cebpf4jnsgd1na2vs0mg"},{"bike_id":"f7225e91-53b0-4d03-be0f-238536070947","system_id":"levelo_inurba_marseille","lat":43.2656,"lon":5.38996,"is_reserved":false,"is_disabled":false,"rental_uris":{"android":"levelo://app?vid=f7225e91-53b0-4d03-be0f-238536070947","ios":"levelo://app?vid=f7225e91-53b0-4d03-be0f-238536070947"},"vehicle_type_id":"4","last_reported":1741360158,"current_range_meters":9600,"station_id":"ce4bhe12rcd13ifvqf30","pricing_plan_id":"cebpf4jnsgd1na2vs0mg"},{"bike_id":"6b5ed41a-b047-49ed-b2eb-95dc3f5a273e","system_id":"levelo_inurba_marseille","lat":43.29867,"lon":5.39725,"is_reserved":false,"is_disabled":false,"rental_uris":{"android":"levelo://app?vid=6b5ed41a-b047-49ed-b2eb-95dc3f5a273e","ios":"levelo://app?vid=6b5ed41a-b047-49ed-b2eb-95dc3f5a273e"},"vehicle_type_id":"4","last_reported":1741360158,"current_range_meters":10000,"station_id":"ce4bh0h2rcd13ifvqd50","pricing_plan_id":"cebpf4jnsgd1na2vs0mg"},{"bike_id":"bfa0e307-1a8b-41b2-901a-731aa4c1d196","system_id":"levelo_inurba_marseille","lat":43.29544,"lon":5.42301,"is_reserved":false,"is_disabled":false,"rental_uris":{"android":"levelo://app?vid=bfa0e307-1a8b-41b2-901a-731aa4c1d196","ios":"levelo://app?vid=bfa0e307-1a8b-41b2-901a-731aa4c1d196"},"vehicle_type_id":"4","last_reported":1741360158,"current_range_meters":10000,"station_id":"ce4bhph2rcd13ifvqhdg","pricing_plan_id":"cebpf4jnsgd1na2vs0mg"},{"bike_id":"a5e8b949-6fee-4e25-a095-3718d4f14aca","system_id":"levelo_inurba_marseille","lat":43.25114,"lon":5.40332,"is_reserved":false,"is_disabled":false,"rental_uris":{"android":"levelo://app?vid=a5e8b949-6fee-4e25-a095-3718d4f14aca","ios":"levelo://app?vid=a5e8b949-6fee-4e25-a095-3718d4f14aca"},"vehicle_type_id":"4","last_reported":1741360158,"current_range_meters":10000,"station_id":"ce4bhlh2rcd13ifvqgig","pricing_plan_id":"cebpf4jnsgd1na2vs0mg"},{"bike_id":"74115dde-800e-4416-963f-21ccb334f73c","system_id":"levelo_inurba_marseille","lat":43.2861,"lon":5.37063,"is_reserved":false,"is_disabled":false,"rental_uris":{"android":"levelo://app?vid=74115dde-800e-4416-963f-21ccb334f73c","ios":"levelo://app?vid=74115dde-800e-4416-963f-21ccb334f73c"},"vehicle_type_id":"4","last_reported":1741360158,"current_range_meters":10000,"station_id":"ce4bht12rcd13ifvqi60","pricing_plan_id":"cebpf4jnsgd1na2vs0mg"},{"bike_id":"42323b44-4776-4993-88db-08c90d643018","system_id":"levelo_inurba_marseille","lat":43.30089,"lon":5.37677,"is_reserved":false,"is_disabled":false,"rental_uris":{"android":"levelo://app?vid=42323b44-4776-4993-88db-08c90d643018","ios":"levelo://app?vid=42323b44-4776-4993-88db-08c90d643018"},"vehicle_type_id":"4","last_reported":1741360158,"current_range_meters":10000,"station_id":"","pricing_plan_id":"cebpf4jnsgd1na2vs0mg"},{"bike_id":"3b40fc7a-09e5-43cd-af4a-867d41893975","system_id":"levelo_inurba_marseille","lat":43.29787,"lon":5.38073,"is_reserved":false,"is_disabled":false,"rental_uris":{"android":"levelo://app?vid=3b40fc7a-09e5-43cd-af4a-867d41893975","ios":"levelo://app?vid=3b40fc7a-09e5-43cd-af4a-867d41893975"},"vehicle_type_id":"4","last_reported":1741360158,"current_range_meters":10000,"station_id":"ce4bgip2rcd13ifvqbb0","pricing_plan_id":"cebpf4jnsgd1na2vs0mg"},{"bike_id":"f6a9d99b-40e1-4313-955e-fe1045af5dfd","system_id":"levelo_inurba_marseille","lat":43.276484,"lon":5.53058,"is_reserved":false,"is_disabled":false,"rental_uris":{"android":"levelo://app?vid=f6a9d99b-40e1-4313-955e-fe1045af5dfd","ios":"levelo://app?vid=f6a9d99b-40e1-4313-955e-fe1045af5dfd"},"vehicle_type_id":"4","last_reported":1741360158,"current_range_meters":10000,"station_id":"","pricing_plan_id":"cebpf4jnsgd1na2vs0mg"},{"bike_id":"57d3e582-746a-4ccb-aea3-ab51ed764b36","system_id":"levelo_inurba_marseille","lat":43.2972,"lon":5.37697,"is_reserved":false,"is_disabled":false,"rental_uris":{"android":"levelo://app?vid=57d3e582-746a-4ccb-aea3-ab51ed764b36","ios":"levelo://app?vid=57d3e582-746a-4ccb-aea3-ab51ed764b36"},"vehicle_type_id":"4","last_reported":1741360158,"current_range_meters":10000,"station_id":"ce4bgkh2rcd13ifvqbl0","pricing_plan_id":"cebpf4jnsgd1na2vs0mg"},{"bike_id":"14d944f1-340c-4625-9e7c-9858f81a1ec8","system_id":"levelo_inurba_marseille","lat":43.24165,"lon":5.36405,"is_reserved":false,"is_disabled":false,"rental_uris":{"android":"levelo://app?vid=14d944f1-340c-4625-9e7c-9858f81a1ec8","ios":"levelo://app?vid=14d944f1-340c-4625-9e7c-9858f81a1ec8"},"vehicle_type_id":"4","last_reported":1741360158,"current_range_meters":10800,"station_id":"cpo36qri1sfpv3e86is0","pricing_plan_id":"cebpf4jnsgd1na2vs0mg"},{"bike_id":"6eb36d94-2a08-4129-9978-c104d9d30c63","system_id":"levelo_inurba_marseille","lat":43.26201,"lon":5.37449,"is_reserved":false,"is_disabled":false,"rental_uris":{"android":"levelo://app?vid=6eb36d94-2a08-4129-9978-c104d9d30c63","ios":"levelo://app?vid=6eb36d94-2a08-4129-9978-c104d9d30c63"},"vehicle_type_id":"4","last_reported":1741360158,"current_range_meters":10800,"station_id":"ce4bhgp2rcd13ifvqfc0","pricing_plan_id":"cebpf4jnsgd1na2vs0mg"},{"bike_id":"f8431d1a-03f4-44a4-b2a4-0a876001c270","system_id":"levelo_inurba_marseille","lat":43.29596,"lon":5.38331,"is_reserved":false,"is_disabled":false,"rental_uris":{"android":"levelo://app?vid=f8431d1a-03f4-44a4-b2a4-0a876001c270","ios":"levelo://app?vid=f8431d1a-03f4-44a4-b2a4-0a876001c270"},"vehicle_type_id":"4","last_reported":1741360158,"current_range_meters":10800,"station_id":"","pricing_plan_id":"cebpf4jnsgd1na2vs0mg"},{"bike_id":"7dac107e-d49e-474d-923c-dc817225f2dc","system_id":"levelo_inurba_marseille","lat":43.2895,"lon":5.38437,"is_reserved":false,"is_disabled":false,"rental_uris":{"android":"levelo://app?vid=7dac107e-d49e-474d-923c-dc817225f2dc","ios":"levelo://app?vid=7dac107e-d49e-474d-923c-dc817225f2dc"},"vehicle_type_id":"4","last_reported":1741360158,"current_range_meters":10800,"station_id":"ce4bh612rcd13ifvqe6g","pricing_plan_id":"cebpf4jnsgd1na2vs0mg"},{"bike_id":"9da935d0-0941-44db-bb4f-7f7e582bd3d3","system_id":"levelo_inurba_marseille","lat":43.2417,"lon":5.36435,"is_reserved":false,"is_disabled":false,"rental_uris":{"android":"levelo://app?vid=9da935d0-0941-44db-bb4f-7f7e582bd3d3","ios":"levelo://app?vid=9da935d0-0941-44db-bb4f-7f7e582bd3d3"},"vehicle_type_id":"4","last_reported":1741360158,"current_range_meters":10800,"station_id":"cpo36qri1sfpv3e86is0","pricing_plan_id":"cebpf4jnsgd1na2vs0mg"},{"bike_id":"5a69a9bd-a80d-4ce4-b5c8-bec3b60b93e6","system_id":"levelo_inurba_marseille","lat":43.29004,"lon":5.3672,"is_reserved":false,"is_disabled":false,"rental_uris":{"android":"levelo://app?vid=5a69a9bd-a80d-4ce4-b5c8-bec3b60b93e6","ios":"levelo://app?vid=5a69a9bd-a80d-4ce4-b5c8-bec3b60b93e6"},"vehicle_type_id":"4","last_reported":1741360158,"current_range_meters":10800,"station_id":"","pricing_plan_id":"cebpf4jnsgd1na2vs0mg"},{"bike_id":"0b31ea68-5f26-41b9-a349-11cd52410a26","system_id":"levelo_inurba_marseille","lat":43.30796,"lon":5.37616,"is_reserved":false,"is_disabled":false,"rental_uris":{"android":"levelo://app?vid=0b31ea68-5f26-41b9-a349-11cd52410a26","ios":"levelo://app?vid=0b31ea68-5f26-41b9-a349-11cd52410a26"},"vehicle_type_id":"4","last_reported":1741360158,"current_range_meters":10000,"station_id":"ce4bgv92rcd13ifvqcq0","pricing_plan_id":"cebpf4jnsgd1na2vs0mg"},{"bike_id":"797f11ac-4221-460d-a9c9-ac674a3430ce","system_id":"levelo_inurba_marseille","lat":43.30265,"lon":5.40086,"is_reserved":false,"is_disabled":false,"rental_uris":{"android":"levelo://app?vid=797f11ac-4221-460d-a9c9-ac674a3430ce","ios":"levelo://app?vid=797f11ac-4221-460d-a9c9-ac674a3430ce"},"vehicle_type_id":"4","last_reported":1741360158,"current_range_meters":10800,"station_id":"ce4bgvh2rcd13ifvqcs0","pricing_plan_id":"cebpf4jnsgd1na2vs0mg"},{"bike_id":"daa48c53-c5de-46aa-94fc-655cbd710c8c","system_id":"levelo_inurba_marseille","lat":43.22937,"lon":5.35376,"is_reserved":false,"is_disabled":false,"rental_uris":{"android":"levelo://app?vid=daa48c53-c5de-46aa-94fc-655cbd710c8c","ios":"levelo://app?vid=daa48c53-c5de-46aa-94fc-655cbd710c8c"},"vehicle_type_id":"4","last_reported":1741360158,"current_range_meters":10800,"station_id":"cpo3532slgdg3j2ikp40","pricing_plan_id":"cebpf4jnsgd1na2vs0mg"},{"bike_id":"3974584c-1cc8-43f5-b241-5f85ded2ac5b","system_id":"levelo_inurba_marseille","lat":43.27054,"lon":5.40262,"is_reserved":false,"is_disabled":false,"rental_uris":{"android":"levelo://app?vid=3974584c-1cc8-43f5-b241-5f85ded2ac5b","ios":"levelo://app?vid=3974584c-1cc8-43f5-b241-5f85ded2ac5b"},"vehicle_type_id":"4","last_reported":1741360158,"current_range_meters":11200,"station_id":"ce4bhk92rcd13ifvqgc0","pricing_plan_id":"cebpf4jnsgd1na2vs0mg"},{"bike_id":"fb98bf0d-17de-4138-ba00-32359315790a","system_id":"levelo_inurba_marseille","lat":43.29424,"lon":5.38619,"is_reserved":false,"is_disabled":false,"rental_uris":{"android":"levelo://app?vid=fb98bf0d-17de-4138-ba00-32359315790a","ios":"levelo://app?vid=fb98bf0d-17de-4138-ba00-32359315790a"},"vehicle_type_id":"4","last_reported":1741360158,"current_range_meters":11200,"station_id":"ce4bh2h2rcd13ifvqdh0","pricing_plan_id":"cebpf4jnsgd1na2vs0mg"},{"bike_id":"d3f49a7d-9017-4ac8-a4e3-0ce129d3bfa5","system_id":"levelo_inurba_marseille","lat":43.23968,"lon":5.36635,"is_reserved":false,"is_disabled":false,"rental_uris":{"android":"levelo://app?vid=d3f49a7d-9017-4ac8-a4e3-0ce129d3bfa5","ios":"levelo://app?vid=d3f49a7d-9017-4ac8-a4e3-0ce129d3bfa5"},"vehicle_type_id":"4","last_reported":1741360158,"current_range_meters":11200,"station_id":"ce4bhi12rcd13ifvqfp0","pricing_plan_id":"cebpf4jnsgd1na2vs0mg"},{"bike_id":"6f4034b1-e0e1-435f-9cf6-baad24e62aca","system_id":"levelo_inurba_marseille","lat":43.29543,"lon":5.3856,"is_reserved":false,"is_disabled":false,"rental_uris":{"android":"levelo://app?vid=6f4034b1-e0e1-435f-9cf6-baad24e62aca","ios":"levelo://app?vid=6f4034b1-e0e1-435f-9cf6-baad24e62aca"},"vehicle_type_id":"4","last_reported":1741360158,"current_range_meters":11200,"station_id":"ce4bgih2rcd13ifvqba0","pricing_plan_id":"cebpf4jnsgd1na2vs0mg"},{"bike_id":"21ca33ea-7ad0-443d-a7af-31500b5c9392","system_id":"levelo_inurba_marseille","lat":43.28037,"lon":5.36957,"is_reserved":false,"is_disabled":false,"rental_uris":{"android":"levelo://app?vid=21ca33ea-7ad0-443d-a7af-31500b5c9392","ios":"levelo://app?vid=21ca33ea-7ad0-443d-a7af-31500b5c9392"},"vehicle_type_id":"4","last_reported":1741360158,"current_range_meters":11200,"station_id":"ce4bha12rcd13ifvqef0","pricing_plan_id":"cebpf4jnsgd1na2vs0mg"},{"bike_id":"e2cd6983-8cde-465d-98ed-f029afbff2c4","system_id":"levelo_inurba_marseille","lat":43.28576,"lon":5.38325,"is_reserved":false,"is_disabled":false,"rental_uris":{"android":"levelo://app?vid=e2cd6983-8cde-465d-98ed-f029afbff2c4","ios":"levelo://app?vid=e2cd6983-8cde-465d-98ed-f029afbff2c4"},"vehicle_type_id":"4","last_reported":1741360158,"current_range_meters":11200,"station_id":"ce4bhg92rcd13ifvqf90","pricing_plan_id":"cebpf4jnsgd1na2vs0mg"},{"bike_id":"d2ff21a2-8f3f-4506-8d9c-840e1df3842a","system_id":"levelo_inurba_marseille","lat":43.27947,"lon":5.41051,"is_reserved":false,"is_disabled":false,"rental_uris":{"android":"levelo://app?vid=d2ff21a2-8f3f-4506-8d9c-840e1df3842a","ios":"levelo://app?vid=d2ff21a2-8f3f-4506-8d9c-840e1df3842a"},"vehicle_type_id":"4","last_reported":1741360158,"current_range_meters":11200,"station_id":"ce4bhnp2rcd13ifvqh0g","pricing_plan_id":"cebpf4jnsgd1na2vs0mg"},{"bike_id":"d81dca7a-fe6d-4f89-9577-ef53829ed669","system_id":"levelo_inurba_marseille","lat":43.26949,"lon":5.40281,"is_reserved":false,"is_disabled":false,"rental_uris":{"android":"levelo://app?vid=d81dca7a-fe6d-4f89-9577-ef53829ed669","ios":"levelo://app?vid=d81dca7a-fe6d-4f89-9577-ef53829ed669"},"vehicle_type_id":"4","last_reported":1741360158,"current_range_meters":11600,"station_id":"cjm6bp8fraef2m0cb0m0","pricing_plan_id":"cebpf4jnsgd1na2vs0mg"},{"bike_id":"e66d7e5e-a2f1-447a-a115-0f7c9480043f","system_id":"levelo_inurba_marseille","lat":43.31085,"lon":5.42434,"is_reserved":false,"is_disabled":false,"rental_uris":{"android":"levelo://app?vid=e66d7e5e-a2f1-447a-a115-0f7c9480043f","ios":"levelo://app?vid=e66d7e5e-a2f1-447a-a115-0f7c9480043f"},"vehicle_type_id":"4","last_reported":1741360158,"current_range_meters":11200,"station_id":"ce4bhp92rcd13ifvqhag","pricing_plan_id":"cebpf4jnsgd1na2vs0mg"},{"bike_id":"d77a3d0b-32a9-45df-af6d-8a94ab91e238","system_id":"levelo_inurba_marseille","lat":43.29372,"lon":5.37863,"is_reserved":false,"is_disabled":false,"rental_uris":{"android":"levelo://app?vid=d77a3d0b-32a9-45df-af6d-8a94ab91e238","ios":"levelo://app?vid=d77a3d0b-32a9-45df-af6d-8a94ab91e238"},"vehicle_type_id":"4","last_reported":1741360158,"current_range_meters":11200,"station_id":"ce4bgjh2rcd13ifvqbf0","pricing_plan_id":"cebpf4jnsgd1na2vs0mg"},{"bike_id":"3949e300-2dbd-4203-aa58-eef0b1b0c774","system_id":"levelo_inurba_marseille","lat":43.33784,"lon":5.37448,"is_reserved":false,"is_disabled":false,"rental_uris":{"android":"levelo://app?vid=3949e300-2dbd-4203-aa58-eef0b1b0c774","ios":"levelo://app?vid=3949e300-2dbd-4203-aa58-eef0b1b0c774"},"vehicle_type_id":"4","last_reported":1741360158,"current_range_meters":11600,"station_id":"","pricing_plan_id":"cebpf4jnsgd1na2vs0mg"},{"bike_id":"839edfd1-5067-4925-bb4a-fb8c09ab0f09","system_id":"levelo_inurba_marseille","lat":43.27074,"lon":5.4228,"is_reserved":false,"is_disabled":false,"rental_uris":{"android":"levelo://app?vid=839edfd1-5067-4925-bb4a-fb8c09ab0f09","ios":"levelo://app?vid=839edfd1-5067-4925-bb4a-fb8c09ab0f09"},"vehicle_type_id":"4","last_reported":1741360158,"current_range_meters":11600,"station_id":"ce4bhk92rcd13ifvqgb0","pricing_plan_id":"cebpf4jnsgd1na2vs0mg"},{"bike_id":"db7cd95b-0159-457d-aa08-f78ad0493427","system_id":"levelo_inurba_marseille","lat":43.32369,"lon":5.38884,"is_reserved":false,"is_disabled":false,"rental_uris":{"android":"levelo://app?vid=db7cd95b-0159-457d-aa08-f78ad0493427","ios":"levelo://app?vid=db7cd95b-0159-457d-aa08-f78ad0493427"},"vehicle_type_id":"4","last_reported":1741360158,"current_range_meters":12000,"station_id":"ce4bhqp2rcd13ifvqhog","pricing_plan_id":"cebpf4jnsgd1na2vs0mg"},{"bike_id":"10bb9330-1935-4233-a472-ba308772ac16","system_id":"levelo_inurba_marseille","lat":43.28931,"lon":5.38394,"is_reserved":false,"is_disabled":false,"rental_uris":{"android":"levelo://app?vid=10bb9330-1935-4233-a472-ba308772ac16","ios":"levelo://app?vid=10bb9330-1935-4233-a472-ba308772ac16"},"vehicle_type_id":"4","last_reported":1741360158,"current_range_meters":12000,"station_id":"ce4bh612rcd13ifvqe6g","pricing_plan_id":"cebpf4jnsgd1na2vs0mg"},{"bike_id":"6d7e0450-89ad-4e81-9f4f-61db2e3e009a","system_id":"levelo_inurba_marseille","lat":43.29895,"lon":5.43669,"is_reserved":false,"is_disabled":false,"rental_uris":{"android":"levelo://app?vid=6d7e0450-89ad-4e81-9f4f-61db2e3e009a","ios":"levelo://app?vid=6d7e0450-89ad-4e81-9f4f-61db2e3e009a"},"vehicle_type_id":"4","last_reported":1741360158,"current_range_meters":12400,"station_id":"ce4bhpp2rcd13ifvqhfg","pricing_plan_id":"cebpf4jnsgd1na2vs0mg"},{"bike_id":"42c749af-0edf-435f-a808-db70feaa7135","system_id":"levelo_inurba_marseille","lat":43.25502,"lon":5.37642,"is_reserved":false,"is_disabled":false,"rental_uris":{"android":"levelo://app?vid=42c749af-0edf-435f-a808-db70feaa7135","ios":"levelo://app?vid=42c749af-0edf-435f-a808-db70feaa7135"},"vehicle_type_id":"4","last_reported":1741360158,"current_range_meters":12400,"station_id":"ce4bhh12rcd13ifvqff0","pricing_plan_id":"cebpf4jnsgd1na2vs0mg"},{"bike_id":"d5395aa7-8e53-44e9-8b5c-ff547ebcd1bf","system_id":"levelo_inurba_marseille","lat":43.299133,"lon":5.380986,"is_reserved":false,"is_disabled":false,"rental_uris":{"android":"levelo://app?vid=d5395aa7-8e53-44e9-8b5c-ff547ebcd1bf","ios":"levelo://app?vid=d5395aa7-8e53-44e9-8b5c-ff547ebcd1bf"},"vehicle_type_id":"4","last_reported":1741360158,"current_range_meters":12000,"station_id":"ce4bgnh2rcd13ifvqc0g","pricing_plan_id":"cebpf4jnsgd1na2vs0mg"},{"bike_id":"79247c64-c9ad-45a4-8f6e-8000a37602c9","system_id":"levelo_inurba_marseille","lat":43.26065,"lon":5.39403,"is_reserved":false,"is_disabled":true,"rental_uris":{"android":"levelo://app?vid=79247c64-c9ad-45a4-8f6e-8000a37602c9","ios":"levelo://app?vid=79247c64-c9ad-45a4-8f6e-8000a37602c9"},"vehicle_type_id":"4","last_reported":1741360158,"current_range_meters":12400,"station_id":"ce4bhh92rcd13ifvqfj0","pricing_plan_id":"cebpf4jnsgd1na2vs0mg"},{"bike_id":"943d9b48-5446-41e3-b83c-e3f02be8ebef","system_id":"levelo_inurba_marseille","lat":43.30881,"lon":5.37181,"is_reserved":false,"is_disabled":false,"rental_uris":{"android":"levelo://app?vid=943d9b48-5446-41e3-b83c-e3f02be8ebef","ios":"levelo://app?vid=943d9b48-5446-41e3-b83c-e3f02be8ebef"},"vehicle_type_id":"4","last_reported":1741360158,"current_range_meters":12000,"station_id":"ce4bguh2rcd13ifvqckg","pricing_plan_id":"cebpf4jnsgd1na2vs0mg"},{"bike_id":"9c3f2636-c1e9-4085-8e62-5c37505521d7","system_id":"levelo_inurba_marseille","lat":43.27182,"lon":5.40996,"is_reserved":false,"is_disabled":false,"rental_uris":{"android":"levelo://app?vid=9c3f2636-c1e9-4085-8e62-5c37505521d7","ios":"levelo://app?vid=9c3f2636-c1e9-4085-8e62-5c37505521d7"},"vehicle_type_id":"4","last_reported":1741360158,"current_range_meters":12400,"station_id":"ce4bhl12rcd13ifvqgf0","pricing_plan_id":"cebpf4jnsgd1na2vs0mg"},{"bike_id":"c8ce01f5-0d26-4807-bad2-e1663c1961b5","system_id":"levelo_inurba_marseille","lat":43.26211,"lon":5.37451,"is_reserved":false,"is_disabled":false,"rental_uris":{"android":"levelo://app?vid=c8ce01f5-0d26-4807-bad2-e1663c1961b5","ios":"levelo://app?vid=c8ce01f5-0d26-4807-bad2-e1663c1961b5"},"vehicle_type_id":"4","last_reported":1741360158,"current_range_meters":12400,"station_id":"ce4bhgp2rcd13ifvqfc0","pricing_plan_id":"cebpf4jnsgd1na2vs0mg"},{"bike_id":"e6472cf0-0ad7-491d-9b42-ba9a1b7210e2","system_id":"levelo_inurba_marseille","lat":43.29895,"lon":5.436741,"is_reserved":false,"is_disabled":false,"rental_uris":{"android":"levelo://app?vid=e6472cf0-0ad7-491d-9b42-ba9a1b7210e2","ios":"levelo://app?vid=e6472cf0-0ad7-491d-9b42-ba9a1b7210e2"},"vehicle_type_id":"4","last_reported":1741360158,"current_range_meters":12800,"station_id":"ce4bhpp2rcd13ifvqhfg","pricing_plan_id":"cebpf4jnsgd1na2vs0mg"},{"bike_id":"f5c67fed-fdbd-4e5e-a7ee-46dbf9eee184","system_id":"levelo_inurba_marseille","lat":43.29535,"lon":5.38563,"is_reserved":false,"is_disabled":false,"rental_uris":{"android":"levelo://app?vid=f5c67fed-fdbd-4e5e-a7ee-46dbf9eee184","ios":"levelo://app?vid=f5c67fed-fdbd-4e5e-a7ee-46dbf9eee184"},"vehicle_type_id":"4","last_reported":1741360158,"current_range_meters":12800,"station_id":"ce4bgih2rcd13ifvqba0","pricing_plan_id":"cebpf4jnsgd1na2vs0mg"},{"bike_id":"10b0daac-3c27-4966-a061-f391ee67ee75","system_id":"levelo_inurba_marseille","lat":43.28418,"lon":5.34982,"is_reserved":false,"is_disabled":false,"rental_uris":{"android":"levelo://app?vid=10b0daac-3c27-4966-a061-f391ee67ee75","ios":"levelo://app?vid=10b0daac-3c27-4966-a061-f391ee67ee75"},"vehicle_type_id":"4","last_reported":1741360158,"current_range_meters":12800,"station_id":"ce4bhbh2rcd13ifvqepg","pricing_plan_id":"cebpf4jnsgd1na2vs0mg"},{"bike_id":"93ee5eb5-bc07-4fa4-84ef-fcef721c938d","system_id":"levelo_inurba_marseille","lat":43.28265,"lon":5.3508,"is_reserved":false,"is_disabled":false,"rental_uris":{"android":"levelo://app?vid=93ee5eb5-bc07-4fa4-84ef-fcef721c938d","ios":"levelo://app?vid=93ee5eb5-bc07-4fa4-84ef-fcef721c938d"},"vehicle_type_id":"4","last_reported":1741360158,"current_range_meters":12800,"station_id":"ce4bhbp2rcd13ifvqerg","pricing_plan_id":"cebpf4jnsgd1na2vs0mg"},{"bike_id":"99bc5722-6509-4c8d-b9ec-d8d4424bd12c","system_id":"levelo_inurba_marseille","lat":43.29928,"lon":5.37463,"is_reserved":false,"is_disabled":false,"rental_uris":{"android":"levelo://app?vid=99bc5722-6509-4c8d-b9ec-d8d4424bd12c","ios":"levelo://app?vid=99bc5722-6509-4c8d-b9ec-d8d4424bd12c"},"vehicle_type_id":"4","last_reported":1741360158,"current_range_meters":12800,"station_id":"ce4bgjh2rcd13ifvqbg0","pricing_plan_id":"cebpf4jnsgd1na2vs0mg"},{"bike_id":"b3fd98d3-61be-4c7b-9ba7-6bc47f1e1145","system_id":"levelo_inurba_marseille","lat":43.31123,"lon":5.37768,"is_reserved":false,"is_disabled":false,"rental_uris":{"android":"levelo://app?vid=b3fd98d3-61be-4c7b-9ba7-6bc47f1e1145","ios":"levelo://app?vid=b3fd98d3-61be-4c7b-9ba7-6bc47f1e1145"},"vehicle_type_id":"4","last_reported":1741360158,"current_range_meters":12800,"station_id":"ce4bgt92rcd13ifvqcg0","pricing_plan_id":"cebpf4jnsgd1na2vs0mg"},{"bike_id":"d811932e-caaa-49ed-9812-8630dd4ee900","system_id":"levelo_inurba_marseille","lat":43.26202,"lon":5.37936,"is_reserved":false,"is_disabled":false,"rental_uris":{"android":"levelo://app?vid=d811932e-caaa-49ed-9812-8630dd4ee900","ios":"levelo://app?vid=d811932e-caaa-49ed-9812-8630dd4ee900"},"vehicle_type_id":"4","last_reported":1741360158,"current_range_meters":12800,"station_id":"ce4bhjp2rcd13ifvqg90","pricing_plan_id":"cebpf4jnsgd1na2vs0mg"},{"bike_id":"28823f9f-20dc-4b6b-9daa-9836035c992e","system_id":"levelo_inurba_marseille","lat":43.28727,"lon":5.36078,"is_reserved":false,"is_disabled":false,"rental_uris":{"android":"levelo://app?vid=28823f9f-20dc-4b6b-9daa-9836035c992e","ios":"levelo://app?vid=28823f9f-20dc-4b6b-9daa-9836035c992e"},"vehicle_type_id":"4","last_reported":1741360158,"current_range_meters":12800,"station_id":"cki0cbj6b192h4jlfktg","pricing_plan_id":"cebpf4jnsgd1na2vs0mg"},{"bike_id":"0e674cb4-f37d-4bd5-aaff-7ec953d386c6","system_id":"levelo_inurba_marseille","lat":43.24173,"lon":5.36399,"is_reserved":false,"is_disabled":false,"rental_uris":{"android":"levelo://app?vid=0e674cb4-f37d-4bd5-aaff-7ec953d386c6","ios":"levelo://app?vid=0e674cb4-f37d-4bd5-aaff-7ec953d386c6"},"vehicle_type_id":"4","last_reported":1741360158,"current_range_meters":12800,"station_id":"cpo36qri1sfpv3e86is0","pricing_plan_id":"cebpf4jnsgd1na2vs0mg"},{"bike_id":"3c94b931-3649-4c69-bf1c-99f8fd15e284","system_id":"levelo_inurba_marseille","lat":43.32489,"lon":5.36587,"is_reserved":false,"is_disabled":false,"rental_uris":{"android":"levelo://app?vid=3c94b931-3649-4c69-bf1c-99f8fd15e284","ios":"levelo://app?vid=3c94b931-3649-4c69-bf1c-99f8fd15e284"},"vehicle_type_id":"4","last_reported":1741360158,"current_range_meters":13600,"station_id":"ce4bhs12rcd13ifvqhvg","pricing_plan_id":"cebpf4jnsgd1na2vs0mg"},{"bike_id":"dac09d9e-9ab6-4c54-8fe2-7fcfc9203869","system_id":"levelo_inurba_marseille","lat":43.2656,"lon":5.37302,"is_reserved":false,"is_disabled":true,"rental_uris":{"android":"levelo://app?vid=dac09d9e-9ab6-4c54-8fe2-7fcfc9203869","ios":"levelo://app?vid=dac09d9e-9ab6-4c54-8fe2-7fcfc9203869"},"vehicle_type_id":"4","last_reported":1741360158,"current_range_meters":13600,"station_id":"ce4bhg12rcd13ifvqf70","pricing_plan_id":"cebpf4jnsgd1na2vs0mg"},{"bike_id":"54954614-0ac5-41d2-8a16-307c508cf4e1","system_id":"levelo_inurba_marseille","lat":43.33025,"lon":5.39048,"is_reserved":false,"is_disabled":false,"rental_uris":{"android":"levelo://app?vid=54954614-0ac5-41d2-8a16-307c508cf4e1","ios":"levelo://app?vid=54954614-0ac5-41d2-8a16-307c508cf4e1"},"vehicle_type_id":"4","last_reported":1741360158,"current_range_meters":13600,"station_id":"ce4bhr92rcd13ifvqhrg","pricing_plan_id":"cebpf4jnsgd1na2vs0mg"},{"bike_id":"44b8184b-70bf-414d-9037-edff154ba896","system_id":"levelo_inurba_marseille","lat":43.28668,"lon":5.36355,"is_reserved":false,"is_disabled":false,"rental_uris":{"android":"levelo://app?vid=44b8184b-70bf-414d-9037-edff154ba896","ios":"levelo://app?vid=44b8184b-70bf-414d-9037-edff154ba896"},"vehicle_type_id":"4","last_reported":1741360158,"current_range_meters":14000,"station_id":"ce4bhah2rcd13ifvqej0","pricing_plan_id":"cebpf4jnsgd1na2vs0mg"},{"bike_id":"7372ba19-4949-453e-a20c-490c28817add","system_id":"levelo_inurba_marseille","lat":43.33781,"lon":5.37444,"is_reserved":false,"is_disabled":false,"rental_uris":{"android":"levelo://app?vid=7372ba19-4949-453e-a20c-490c28817add","ios":"levelo://app?vid=7372ba19-4949-453e-a20c-490c28817add"},"vehicle_type_id":"4","last_reported":1741360158,"current_range_meters":14000,"station_id":"","pricing_plan_id":"cebpf4jnsgd1na2vs0mg"},{"bike_id":"fd7938d0-6427-4c6d-b71e-646b176b8099","system_id":"levelo_inurba_marseille","lat":43.2656,"lon":5.37297,"is_reserved":false,"is_disabled":false,"rental_uris":{"android":"levelo://app?vid=fd7938d0-6427-4c6d-b71e-646b176b8099","ios":"levelo://app?vid=fd7938d0-6427-4c6d-b71e-646b176b8099"},"vehicle_type_id":"4","last_reported":1741360158,"current_range_meters":14000,"station_id":"ce4bhg12rcd13ifvqf70","pricing_plan_id":"cebpf4jnsgd1na2vs0mg"},{"bike_id":"7cf72f02-ccb9-45c8-8e70-9f8c0855b0fd","system_id":"levelo_inurba_marseille","lat":43.30555,"lon":5.36536,"is_reserved":false,"is_disabled":false,"rental_uris":{"android":"levelo://app?vid=7cf72f02-ccb9-45c8-8e70-9f8c0855b0fd","ios":"levelo://app?vid=7cf72f02-ccb9-45c8-8e70-9f8c0855b0fd"},"vehicle_type_id":"4","last_reported":1741360158,"current_range_meters":14000,"station_id":"ce4bgs12rcd13ifvqcag","pricing_plan_id":"cebpf4jnsgd1na2vs0mg"},{"bike_id":"e524bcef-a391-41b2-bad2-673eae53ea51","system_id":"levelo_inurba_marseille","lat":43.31709,"lon":5.43715,"is_reserved":false,"is_disabled":false,"rental_uris":{"android":"levelo://app?vid=e524bcef-a391-41b2-bad2-673eae53ea51","ios":"levelo://app?vid=e524bcef-a391-41b2-bad2-673eae53ea51"},"vehicle_type_id":"4","last_reported":1741360158,"current_range_meters":14000,"station_id":"ce4bhp92rcd13ifvqhcg","pricing_plan_id":"cebpf4jnsgd1na2vs0mg"},{"bike_id":"42168c6f-35a5-43f2-8ef8-61a75051262d","system_id":"levelo_inurba_marseille","lat":43.28155,"lon":5.42643,"is_reserved":false,"is_disabled":true,"rental_uris":{"android":"levelo://app?vid=42168c6f-35a5-43f2-8ef8-61a75051262d","ios":"levelo://app?vid=42168c6f-35a5-43f2-8ef8-61a75051262d"},"vehicle_type_id":"4","last_reported":1741360158,"current_range_meters":14000,"station_id":"ce4bhnh2rcd13ifvqgug","pricing_plan_id":"cebpf4jnsgd1na2vs0mg"},{"bike_id":"6ae77951-a909-4dfa-a933-35324bca41b7","system_id":"levelo_inurba_marseille","lat":43.2501,"lon":5.38914,"is_reserved":false,"is_disabled":false,"rental_uris":{"android":"levelo://app?vid=6ae77951-a909-4dfa-a933-35324bca41b7","ios":"levelo://app?vid=6ae77951-a909-4dfa-a933-35324bca41b7"},"vehicle_type_id":"4","last_reported":1741360158,"current_range_meters":14000,"station_id":"ce4bhgp2rcd13ifvqfd0","pricing_plan_id":"cebpf4jnsgd1na2vs0mg"},{"bike_id":"f37a41b8-16c4-401a-a540-2310ce84ae38","system_id":"levelo_inurba_marseille","lat":43.33027,"lon":5.39047,"is_reserved":false,"is_disabled":false,"rental_uris":{"android":"levelo://app?vid=f37a41b8-16c4-401a-a540-2310ce84ae38","ios":"levelo://app?vid=f37a41b8-16c4-401a-a540-2310ce84ae38"},"vehicle_type_id":"4","last_reported":1741360158,"current_range_meters":14000,"station_id":"ce4bhr92rcd13ifvqhrg","pricing_plan_id":"cebpf4jnsgd1na2vs0mg"},{"bike_id":"ca56f945-8b7e-44ff-8c48-3e0b263d9492","system_id":"levelo_inurba_marseille","lat":43.30916,"lon":5.36789,"is_reserved":false,"is_disabled":false,"rental_uris":{"android":"levelo://app?vid=ca56f945-8b7e-44ff-8c48-3e0b263d9492","ios":"levelo://app?vid=ca56f945-8b7e-44ff-8c48-3e0b263d9492"},"vehicle_type_id":"4","last_reported":1741360158,"current_range_meters":14400,"station_id":"ce4bgn92rcd13ifvqbvg","pricing_plan_id":"cebpf4jnsgd1na2vs0mg"},{"bike_id":"cd71ae77-a591-4fec-b680-66cded268137","system_id":"levelo_inurba_marseille","lat":43.25007,"lon":5.3893,"is_reserved":false,"is_disabled":false,"rental_uris":{"android":"levelo://app?vid=cd71ae77-a591-4fec-b680-66cded268137","ios":"levelo://app?vid=cd71ae77-a591-4fec-b680-66cded268137"},"vehicle_type_id":"4","last_reported":1741360158,"current_range_meters":14400,"station_id":"ce4bhgp2rcd13ifvqfd0","pricing_plan_id":"cebpf4jnsgd1na2vs0mg"},{"bike_id":"c31054c6-01c3-454a-a896-4a7e4f6f487b","system_id":"levelo_inurba_marseille","lat":43.27976,"lon":5.3874,"is_reserved":false,"is_disabled":false,"rental_uris":{"android":"levelo://app?vid=c31054c6-01c3-454a-a896-4a7e4f6f487b","ios":"levelo://app?vid=c31054c6-01c3-454a-a896-4a7e4f6f487b"},"vehicle_type_id":"4","last_reported":1741360158,"current_range_meters":14400,"station_id":"ce4bhg12rcd13ifvqf80","pricing_plan_id":"cebpf4jnsgd1na2vs0mg"},{"bike_id":"d593854f-b41d-4558-9bcb-511854438601","system_id":"levelo_inurba_marseille","lat":43.23069,"lon":5.35492,"is_reserved":false,"is_disabled":false,"rental_uris":{"android":"levelo://app?vid=d593854f-b41d-4558-9bcb-511854438601","ios":"levelo://app?vid=d593854f-b41d-4558-9bcb-511854438601"},"vehicle_type_id":"4","last_reported":1741360158,"current_range_meters":14400,"station_id":"cpo3342slgdg3j2ifvpg","pricing_plan_id":"cebpf4jnsgd1na2vs0mg"},{"bike_id":"e17d547b-d658-4136-a69d-30196e4a5424","system_id":"levelo_inurba_marseille","lat":43.28865,"lon":5.39302,"is_reserved":false,"is_disabled":false,"rental_uris":{"android":"levelo://app?vid=e17d547b-d658-4136-a69d-30196e4a5424","ios":"levelo://app?vid=e17d547b-d658-4136-a69d-30196e4a5424"},"vehicle_type_id":"4","last_reported":1741360158,"current_range_meters":14400,"station_id":"ce4bh2p2rcd13ifvqdi0","pricing_plan_id":"cebpf4jnsgd1na2vs0mg"},{"bike_id":"faee5b0d-235a-4af3-813f-46f6d750e794","system_id":"levelo_inurba_marseille","lat":43.296,"lon":5.3812,"is_reserved":false,"is_disabled":false,"rental_uris":{"android":"levelo://app?vid=faee5b0d-235a-4af3-813f-46f6d750e794","ios":"levelo://app?vid=faee5b0d-235a-4af3-813f-46f6d750e794"},"vehicle_type_id":"4","last_reported":1741360158,"current_range_meters":14400,"station_id":"ce4bgl12rcd13ifvqbo0","pricing_plan_id":"cebpf4jnsgd1na2vs0mg"},{"bike_id":"6f4a8b4b-c037-4f70-9d3b-ed9408678acf","system_id":"levelo_inurba_marseille","lat":43.25728,"lon":5.4111,"is_reserved":false,"is_disabled":false,"rental_uris":{"android":"levelo://app?vid=6f4a8b4b-c037-4f70-9d3b-ed9408678acf","ios":"levelo://app?vid=6f4a8b4b-c037-4f70-9d3b-ed9408678acf"},"vehicle_type_id":"4","last_reported":1741360158,"current_range_meters":14400,"station_id":"ce4bhkp2rcd13ifvqgd0","pricing_plan_id":"cebpf4jnsgd1na2vs0mg"},{"bike_id":"71a0c16e-4c6a-46dd-a7ce-2d536e8b5e71","system_id":"levelo_inurba_marseille","lat":43.30537,"lon":5.36562,"is_reserved":false,"is_disabled":false,"rental_uris":{"android":"levelo://app?vid=71a0c16e-4c6a-46dd-a7ce-2d536e8b5e71","ios":"levelo://app?vid=71a0c16e-4c6a-46dd-a7ce-2d536e8b5e71"},"vehicle_type_id":"4","last_reported":1741360158,"current_range_meters":14400,"station_id":"ce4bgs12rcd13ifvqcag","pricing_plan_id":"cebpf4jnsgd1na2vs0mg"},{"bike_id":"01e995b4-4351-4d7f-ac12-92985e79f506","system_id":"levelo_inurba_marseille","lat":43.29932,"lon":5.37469,"is_reserved":false,"is_disabled":false,"rental_uris":{"android":"levelo://app?vid=01e995b4-4351-4d7f-ac12-92985e79f506","ios":"levelo://app?vid=01e995b4-4351-4d7f-ac12-92985e79f506"},"vehicle_type_id":"4","last_reported":1741360158,"current_range_meters":14400,"station_id":"ce4bgjh2rcd13ifvqbg0","pricing_plan_id":"cebpf4jnsgd1na2vs0mg"},{"bike_id":"c7c9ecb8-77f9-4bcf-bc66-75fd38f25601","system_id":"levelo_inurba_marseille","lat":43.25722,"lon":5.41119,"is_reserved":false,"is_disabled":false,"rental_uris":{"android":"levelo://app?vid=c7c9ecb8-77f9-4bcf-bc66-75fd38f25601","ios":"levelo://app?vid=c7c9ecb8-77f9-4bcf-bc66-75fd38f25601"},"vehicle_type_id":"4","last_reported":1741360158,"current_range_meters":14800,"station_id":"ce4bhkp2rcd13ifvqgd0","pricing_plan_id":"cebpf4jnsgd1na2vs0mg"},{"bike_id":"117576de-ea7a-4e20-89ce-191a1398e64d","system_id":"levelo_inurba_marseille","lat":43.23188,"lon":5.39992,"is_reserved":false,"is_disabled":false,"rental_uris":{"android":"levelo://app?vid=117576de-ea7a-4e20-89ce-191a1398e64d","ios":"levelo://app?vid=117576de-ea7a-4e20-89ce-191a1398e64d"},"vehicle_type_id":"4","last_reported":1741360158,"current_range_meters":14800,"station_id":"ce4bhn12rcd13ifvqgqg","pricing_plan_id":"cebpf4jnsgd1na2vs0mg"},{"bike_id":"7e60b09d-959c-4d55-a820-f3270555724f","system_id":"levelo_inurba_marseille","lat":43.2862,"lon":5.35099,"is_reserved":false,"is_disabled":false,"rental_uris":{"android":"levelo://app?vid=7e60b09d-959c-4d55-a820-f3270555724f","ios":"levelo://app?vid=7e60b09d-959c-4d55-a820-f3270555724f"},"vehicle_type_id":"4","last_reported":1741360158,"current_range_meters":14800,"station_id":"ce4bhch2rcd13ifvqeug","pricing_plan_id":"cebpf4jnsgd1na2vs0mg"},{"bike_id":"db1c7047-7b9f-4b56-96ef-3b289cb537df","system_id":"levelo_inurba_marseille","lat":43.30817,"lon":5.37426,"is_reserved":false,"is_disabled":false,"rental_uris":{"android":"levelo://app?vid=db1c7047-7b9f-4b56-96ef-3b289cb537df","ios":"levelo://app?vid=db1c7047-7b9f-4b56-96ef-3b289cb537df"},"vehicle_type_id":"4","last_reported":1741360158,"current_range_meters":14800,"station_id":"","pricing_plan_id":"cebpf4jnsgd1na2vs0mg"},{"bike_id":"b1d03295-5a4c-4b8b-ad8e-3dbefaa793f2","system_id":"levelo_inurba_marseille","lat":43.23196,"lon":5.35553,"is_reserved":false,"is_disabled":false,"rental_uris":{"android":"levelo://app?vid=b1d03295-5a4c-4b8b-ad8e-3dbefaa793f2","ios":"levelo://app?vid=b1d03295-5a4c-4b8b-ad8e-3dbefaa793f2"},"vehicle_type_id":"4","last_reported":1741360158,"current_range_meters":14800,"station_id":"ce4bhu92rcd13ifvqi70","pricing_plan_id":"cebpf4jnsgd1na2vs0mg"},{"bike_id":"9b8789be-c150-4679-b8ba-e1d5e4639da2","system_id":"levelo_inurba_marseille","lat":43.25748,"lon":5.41014,"is_reserved":false,"is_disabled":false,"rental_uris":{"android":"levelo://app?vid=9b8789be-c150-4679-b8ba-e1d5e4639da2","ios":"levelo://app?vid=9b8789be-c150-4679-b8ba-e1d5e4639da2"},"vehicle_type_id":"4","last_reported":1741360158,"current_range_meters":14800,"station_id":"","pricing_plan_id":"cebpf4jnsgd1na2vs0mg"},{"bike_id":"54e56be5-5c6a-49ad-a780-fd2b0777e89e","system_id":"levelo_inurba_marseille","lat":43.23205,"lon":5.35567,"is_reserved":false,"is_disabled":false,"rental_uris":{"android":"levelo://app?vid=54e56be5-5c6a-49ad-a780-fd2b0777e89e","ios":"levelo://app?vid=54e56be5-5c6a-49ad-a780-fd2b0777e89e"},"vehicle_type_id":"4","last_reported":1741360158,"current_range_meters":14800,"station_id":"ce4bhu92rcd13ifvqi70","pricing_plan_id":"cebpf4jnsgd1na2vs0mg"},{"bike_id":"5c6f1928-720f-4080-a144-aa8016f81270","system_id":"levelo_inurba_marseille","lat":43.24673,"lon":5.38149,"is_reserved":false,"is_disabled":false,"rental_uris":{"android":"levelo://app?vid=5c6f1928-720f-4080-a144-aa8016f81270","ios":"levelo://app?vid=5c6f1928-720f-4080-a144-aa8016f81270"},"vehicle_type_id":"4","last_reported":1741360158,"current_range_meters":15200,"station_id":"ce4bhih2rcd13ifvqfr0","pricing_plan_id":"cebpf4jnsgd1na2vs0mg"},{"bike_id":"2c572867-5304-48ee-bd95-edbd644ce62d","system_id":"levelo_inurba_marseille","lat":43.30151,"lon":5.37432,"is_reserved":false,"is_disabled":false,"rental_uris":{"android":"levelo://app?vid=2c572867-5304-48ee-bd95-edbd644ce62d","ios":"levelo://app?vid=2c572867-5304-48ee-bd95-edbd644ce62d"},"vehicle_type_id":"4","last_reported":1741360158,"current_range_meters":15200,"station_id":"ce4bgs92rcd13ifvqcc0","pricing_plan_id":"cebpf4jnsgd1na2vs0mg"},{"bike_id":"d15888b3-84cd-42f5-8973-07174fa936f9","system_id":"levelo_inurba_marseille","lat":43.31357,"lon":5.37696,"is_reserved":false,"is_disabled":false,"rental_uris":{"android":"levelo://app?vid=d15888b3-84cd-42f5-8973-07174fa936f9","ios":"levelo://app?vid=d15888b3-84cd-42f5-8973-07174fa936f9"},"vehicle_type_id":"4","last_reported":1741360158,"current_range_meters":15200,"station_id":"","pricing_plan_id":"cebpf4jnsgd1na2vs0mg"},{"bike_id":"30fe97e5-9184-4ff2-bcca-02fb86b07e37","system_id":"levelo_inurba_marseille","lat":43.28861,"lon":5.3586,"is_reserved":false,"is_disabled":false,"rental_uris":{"android":"levelo://app?vid=30fe97e5-9184-4ff2-bcca-02fb86b07e37","ios":"levelo://app?vid=30fe97e5-9184-4ff2-bcca-02fb86b07e37"},"vehicle_type_id":"4","last_reported":1741360158,"current_range_meters":15200,"station_id":"ce4bhb12rcd13ifvqem0","pricing_plan_id":"cebpf4jnsgd1na2vs0mg"},{"bike_id":"f84c64ae-e147-4700-b6d1-713e2a1925b5","system_id":"levelo_inurba_marseille","lat":43.29009,"lon":5.3561,"is_reserved":false,"is_disabled":false,"rental_uris":{"android":"levelo://app?vid=f84c64ae-e147-4700-b6d1-713e2a1925b5","ios":"levelo://app?vid=f84c64ae-e147-4700-b6d1-713e2a1925b5"},"vehicle_type_id":"4","last_reported":1741360158,"current_range_meters":14800,"station_id":"ce4bhb92rcd13ifvqen0","pricing_plan_id":"cebpf4jnsgd1na2vs0mg"},{"bike_id":"921299b9-08be-4218-8edb-4885831d6cdf","system_id":"levelo_inurba_marseille","lat":43.301331,"lon":5.398573,"is_reserved":false,"is_disabled":false,"rental_uris":{"android":"levelo://app?vid=921299b9-08be-4218-8edb-4885831d6cdf","ios":"levelo://app?vid=921299b9-08be-4218-8edb-4885831d6cdf"},"vehicle_type_id":"4","last_reported":1741360158,"current_range_meters":15200,"station_id":"ce4bh0h2rcd13ifvqd40","pricing_plan_id":"cebpf4jnsgd1na2vs0mg"},{"bike_id":"90a62ca9-aa0b-4d9e-97e2-3cc7a433d8ab","system_id":"levelo_inurba_marseille","lat":43.29534,"lon":5.38549,"is_reserved":false,"is_disabled":false,"rental_uris":{"android":"levelo://app?vid=90a62ca9-aa0b-4d9e-97e2-3cc7a433d8ab","ios":"levelo://app?vid=90a62ca9-aa0b-4d9e-97e2-3cc7a433d8ab"},"vehicle_type_id":"4","last_reported":1741360158,"current_range_meters":15200,"station_id":"ce4bgih2rcd13ifvqba0","pricing_plan_id":"cebpf4jnsgd1na2vs0mg"},{"bike_id":"62cfbc1e-e5fb-4215-81dd-a5e373c2ccab","system_id":"levelo_inurba_marseille","lat":43.26782,"lon":5.39421,"is_reserved":false,"is_disabled":false,"rental_uris":{"android":"levelo://app?vid=62cfbc1e-e5fb-4215-81dd-a5e373c2ccab","ios":"levelo://app?vid=62cfbc1e-e5fb-4215-81dd-a5e373c2ccab"},"vehicle_type_id":"4","last_reported":1741360158,"current_range_meters":15200,"station_id":"ce4bhh12rcd13ifvqfg0","pricing_plan_id":"cebpf4jnsgd1na2vs0mg"},{"bike_id":"314956c5-c0bd-4dd3-acb7-2d753b4ee221","system_id":"levelo_inurba_marseille","lat":43.25872,"lon":5.39895,"is_reserved":false,"is_disabled":false,"rental_uris":{"android":"levelo://app?vid=314956c5-c0bd-4dd3-acb7-2d753b4ee221","ios":"levelo://app?vid=314956c5-c0bd-4dd3-acb7-2d753b4ee221"},"vehicle_type_id":"4","last_reported":1741360158,"current_range_meters":17600,"station_id":"ce4bhl92rcd13ifvqghg","pricing_plan_id":"cebpf4jnsgd1na2vs0mg"},{"bike_id":"4b5fc702-9777-491c-9485-10397149f800","system_id":"levelo_inurba_marseille","lat":43.29609,"lon":5.38106,"is_reserved":false,"is_disabled":false,"rental_uris":{"android":"levelo://app?vid=4b5fc702-9777-491c-9485-10397149f800","ios":"levelo://app?vid=4b5fc702-9777-491c-9485-10397149f800"},"vehicle_type_id":"4","last_reported":1741360158,"current_range_meters":15200,"station_id":"ce4bgl12rcd13ifvqbo0","pricing_plan_id":"cebpf4jnsgd1na2vs0mg"},{"bike_id":"ac4e37af-1ba4-43ce-aa86-7cd5e40775ae","system_id":"levelo_inurba_marseille","lat":43.295405,"lon":5.422806,"is_reserved":false,"is_disabled":false,"rental_uris":{"android":"levelo://app?vid=ac4e37af-1ba4-43ce-aa86-7cd5e40775ae","ios":"levelo://app?vid=ac4e37af-1ba4-43ce-aa86-7cd5e40775ae"},"vehicle_type_id":"4","last_reported":1741360158,"current_range_meters":15200,"station_id":"ce4bhph2rcd13ifvqhdg","pricing_plan_id":"cebpf4jnsgd1na2vs0mg"},{"bike_id":"7faa6641-0a2c-4226-b143-95d5db5da548","system_id":"levelo_inurba_marseille","lat":43.27974,"lon":5.38744,"is_reserved":false,"is_disabled":false,"rental_uris":{"android":"levelo://app?vid=7faa6641-0a2c-4226-b143-95d5db5da548","ios":"levelo://app?vid=7faa6641-0a2c-4226-b143-95d5db5da548"},"vehicle_type_id":"4","last_reported":1741360158,"current_range_meters":15200,"station_id":"ce4bhg12rcd13ifvqf80","pricing_plan_id":"cebpf4jnsgd1na2vs0mg"},{"bike_id":"9313cb60-bd66-4ec2-8670-aa2960b743b5","system_id":"levelo_inurba_marseille","lat":43.30543,"lon":5.36541,"is_reserved":false,"is_disabled":false,"rental_uris":{"android":"levelo://app?vid=9313cb60-bd66-4ec2-8670-aa2960b743b5","ios":"levelo://app?vid=9313cb60-bd66-4ec2-8670-aa2960b743b5"},"vehicle_type_id":"4","last_reported":1741360158,"current_range_meters":18800,"station_id":"ce4bgs12rcd13ifvqcag","pricing_plan_id":"cebpf4jnsgd1na2vs0mg"},{"bike_id":"36c078da-1448-4709-af50-ce8a64dbbee5","system_id":"levelo_inurba_marseille","lat":43.30905,"lon":5.37177,"is_reserved":false,"is_disabled":false,"rental_uris":{"android":"levelo://app?vid=36c078da-1448-4709-af50-ce8a64dbbee5","ios":"levelo://app?vid=36c078da-1448-4709-af50-ce8a64dbbee5"},"vehicle_type_id":"4","last_reported":1741360158,"current_range_meters":16000,"station_id":"ce4bguh2rcd13ifvqckg","pricing_plan_id":"cebpf4jnsgd1na2vs0mg"},{"bike_id":"25db000e-d19c-4398-ae97-e9e1deee0744","system_id":"levelo_inurba_marseille","lat":43.29761,"lon":5.37127,"is_reserved":false,"is_disabled":false,"rental_uris":{"android":"levelo://app?vid=25db000e-d19c-4398-ae97-e9e1deee0744","ios":"levelo://app?vid=25db000e-d19c-4398-ae97-e9e1deee0744"},"vehicle_type_id":"4","last_reported":1741360158,"current_range_meters":16000,"station_id":"ce4bgop2rcd13ifvqc1g","pricing_plan_id":"cebpf4jnsgd1na2vs0mg"},{"bike_id":"6782b118-bf7c-4d3e-863a-0e1ba9b4cd3b","system_id":"levelo_inurba_marseille","lat":43.3109,"lon":5.42435,"is_reserved":false,"is_disabled":false,"rental_uris":{"android":"levelo://app?vid=6782b118-bf7c-4d3e-863a-0e1ba9b4cd3b","ios":"levelo://app?vid=6782b118-bf7c-4d3e-863a-0e1ba9b4cd3b"},"vehicle_type_id":"4","last_reported":1741360158,"current_range_meters":16000,"station_id":"ce4bhp92rcd13ifvqhag","pricing_plan_id":"cebpf4jnsgd1na2vs0mg"},{"bike_id":"acee29b2-7aad-42c9-a64a-292d2124dc8f","system_id":"levelo_inurba_marseille","lat":43.30648,"lon":5.40103,"is_reserved":false,"is_disabled":false,"rental_uris":{"android":"levelo://app?vid=acee29b2-7aad-42c9-a64a-292d2124dc8f","ios":"levelo://app?vid=acee29b2-7aad-42c9-a64a-292d2124dc8f"},"vehicle_type_id":"4","last_reported":1741360158,"current_range_meters":16000,"station_id":"ce4bh112rcd13ifvqda0","pricing_plan_id":"cebpf4jnsgd1na2vs0mg"},{"bike_id":"f44efeed-8acc-47b2-8bae-9ae0326e8d94","system_id":"levelo_inurba_marseille","lat":43.31492,"lon":5.37311,"is_reserved":false,"is_disabled":false,"rental_uris":{"android":"levelo://app?vid=f44efeed-8acc-47b2-8bae-9ae0326e8d94","ios":"levelo://app?vid=f44efeed-8acc-47b2-8bae-9ae0326e8d94"},"vehicle_type_id":"4","last_reported":1741360158,"current_range_meters":16000,"station_id":"ce4bgt12rcd13ifvqcd0","pricing_plan_id":"cebpf4jnsgd1na2vs0mg"},{"bike_id":"b2c2514d-58df-4080-9acc-0a3325c87525","system_id":"levelo_inurba_marseille","lat":43.32368,"lon":5.36746,"is_reserved":false,"is_disabled":false,"rental_uris":{"android":"levelo://app?vid=b2c2514d-58df-4080-9acc-0a3325c87525","ios":"levelo://app?vid=b2c2514d-58df-4080-9acc-0a3325c87525"},"vehicle_type_id":"4","last_reported":1741360158,"current_range_meters":16400,"station_id":"ce4bhsh2rcd13ifvqi2g","pricing_plan_id":"cebpf4jnsgd1na2vs0mg"},{"bike_id":"9cad2a1d-cc3a-41dd-8d4f-b8b677928f00","system_id":"levelo_inurba_marseille","lat":43.30134,"lon":5.39886,"is_reserved":false,"is_disabled":false,"rental_uris":{"android":"levelo://app?vid=9cad2a1d-cc3a-41dd-8d4f-b8b677928f00","ios":"levelo://app?vid=9cad2a1d-cc3a-41dd-8d4f-b8b677928f00"},"vehicle_type_id":"4","last_reported":1741360158,"current_range_meters":16400,"station_id":"ce4bh0h2rcd13ifvqd40","pricing_plan_id":"cebpf4jnsgd1na2vs0mg"},{"bike_id":"a8c09f92-1535-487a-85c8-b62f09901bf8","system_id":"levelo_inurba_marseille","lat":43.30158,"lon":5.38092,"is_reserved":false,"is_disabled":false,"rental_uris":{"android":"levelo://app?vid=a8c09f92-1535-487a-85c8-b62f09901bf8","ios":"levelo://app?vid=a8c09f92-1535-487a-85c8-b62f09901bf8"},"vehicle_type_id":"4","last_reported":1741360158,"current_range_meters":16400,"station_id":"ce4bgjp2rcd13ifvqbh0","pricing_plan_id":"cebpf4jnsgd1na2vs0mg"},{"bike_id":"c262f8cf-6400-4efd-af91-c8aabadab203","system_id":"levelo_inurba_marseille","lat":43.23198,"lon":5.39967,"is_reserved":false,"is_disabled":false,"rental_uris":{"android":"levelo://app?vid=c262f8cf-6400-4efd-af91-c8aabadab203","ios":"levelo://app?vid=c262f8cf-6400-4efd-af91-c8aabadab203"},"vehicle_type_id":"4","last_reported":1741360158,"current_range_meters":16800,"station_id":"ce4bhn12rcd13ifvqgqg","pricing_plan_id":"cebpf4jnsgd1na2vs0mg"},{"bike_id":"814238aa-54d7-4300-87dc-41edec1357a5","system_id":"levelo_inurba_marseille","lat":43.262,"lon":5.37454,"is_reserved":false,"is_disabled":false,"rental_uris":{"android":"levelo://app?vid=814238aa-54d7-4300-87dc-41edec1357a5","ios":"levelo://app?vid=814238aa-54d7-4300-87dc-41edec1357a5"},"vehicle_type_id":"4","last_reported":1741360158,"current_range_meters":16800,"station_id":"ce4bhgp2rcd13ifvqfc0","pricing_plan_id":"cebpf4jnsgd1na2vs0mg"},{"bike_id":"443f2743-7e24-4dc2-a9cc-341608cb81d0","system_id":"levelo_inurba_marseille","lat":43.27913,"lon":5.39578,"is_reserved":false,"is_disabled":false,"rental_uris":{"android":"levelo://app?vid=443f2743-7e24-4dc2-a9cc-341608cb81d0","ios":"levelo://app?vid=443f2743-7e24-4dc2-a9cc-341608cb81d0"},"vehicle_type_id":"4","last_reported":1741360158,"current_range_meters":16800,"station_id":"ce4bhf92rcd13ifvqf40","pricing_plan_id":"cebpf4jnsgd1na2vs0mg"},{"bike_id":"388ea826-f5fa-4632-a530-45d13cc0a769","system_id":"levelo_inurba_marseille","lat":43.23191,"lon":5.40003,"is_reserved":false,"is_disabled":false,"rental_uris":{"android":"levelo://app?vid=388ea826-f5fa-4632-a530-45d13cc0a769","ios":"levelo://app?vid=388ea826-f5fa-4632-a530-45d13cc0a769"},"vehicle_type_id":"4","last_reported":1741360158,"current_range_meters":16800,"station_id":"ce4bhn12rcd13ifvqgqg","pricing_plan_id":"cebpf4jnsgd1na2vs0mg"},{"bike_id":"ff7dbc40-9f92-4cfe-b99d-aa041adbac4f","system_id":"levelo_inurba_marseille","lat":43.30761,"lon":5.36819,"is_reserved":false,"is_disabled":false,"rental_uris":{"android":"levelo://app?vid=ff7dbc40-9f92-4cfe-b99d-aa041adbac4f","ios":"levelo://app?vid=ff7dbc40-9f92-4cfe-b99d-aa041adbac4f"},"vehicle_type_id":"4","last_reported":1741360158,"current_range_meters":16800,"station_id":"","pricing_plan_id":"cebpf4jnsgd1na2vs0mg"},{"bike_id":"1ff664cb-f378-4a6c-b3c1-b47ee25a2174","system_id":"levelo_inurba_marseille","lat":43.32341,"lon":5.38932,"is_reserved":false,"is_disabled":false,"rental_uris":{"android":"levelo://app?vid=1ff664cb-f378-4a6c-b3c1-b47ee25a2174","ios":"levelo://app?vid=1ff664cb-f378-4a6c-b3c1-b47ee25a2174"},"vehicle_type_id":"4","last_reported":1741360158,"current_range_meters":16800,"station_id":"ce4bhqp2rcd13ifvqhog","pricing_plan_id":"cebpf4jnsgd1na2vs0mg"},{"bike_id":"4bd84117-4c6f-4603-8126-4006d0858926","system_id":"levelo_inurba_marseille","lat":43.28082,"lon":5.3967,"is_reserved":false,"is_disabled":false,"rental_uris":{"android":"levelo://app?vid=4bd84117-4c6f-4603-8126-4006d0858926","ios":"levelo://app?vid=4bd84117-4c6f-4603-8126-4006d0858926"},"vehicle_type_id":"4","last_reported":1741360158,"current_range_meters":16800,"station_id":"ce4bho12rcd13ifvqh2g","pricing_plan_id":"cebpf4jnsgd1na2vs0mg"},{"bike_id":"dc1af145-7034-4d27-997b-a43292da49f9","system_id":"levelo_inurba_marseille","lat":43.25586,"lon":5.38229,"is_reserved":false,"is_disabled":false,"rental_uris":{"android":"levelo://app?vid=dc1af145-7034-4d27-997b-a43292da49f9","ios":"levelo://app?vid=dc1af145-7034-4d27-997b-a43292da49f9"},"vehicle_type_id":"4","last_reported":1741360158,"current_range_meters":17200,"station_id":"ce4bhih2rcd13ifvqfs0","pricing_plan_id":"cebpf4jnsgd1na2vs0mg"},{"bike_id":"cbc52a4d-b1a3-4bdf-8ed7-d851e16ba8f2","system_id":"levelo_inurba_marseille","lat":43.27667,"lon":5.38906,"is_reserved":false,"is_disabled":true,"rental_uris":{"android":"levelo://app?vid=cbc52a4d-b1a3-4bdf-8ed7-d851e16ba8f2","ios":"levelo://app?vid=cbc52a4d-b1a3-4bdf-8ed7-d851e16ba8f2"},"vehicle_type_id":"4","last_reported":1741360158,"current_range_meters":17200,"station_id":"ce4bhi12rcd13ifvqfo0","pricing_plan_id":"cebpf4jnsgd1na2vs0mg"},{"bike_id":"7f9a3d26-3db6-46d9-8528-4b9d05bfa92f","system_id":"levelo_inurba_marseille","lat":43.31499,"lon":5.37299,"is_reserved":false,"is_disabled":false,"rental_uris":{"android":"levelo://app?vid=7f9a3d26-3db6-46d9-8528-4b9d05bfa92f","ios":"levelo://app?vid=7f9a3d26-3db6-46d9-8528-4b9d05bfa92f"},"vehicle_type_id":"4","last_reported":1741360158,"current_range_meters":17200,"station_id":"ce4bgt12rcd13ifvqcd0","pricing_plan_id":"cebpf4jnsgd1na2vs0mg"},{"bike_id":"fbf804d7-6c73-46e9-abdb-acb74deb6dc4","system_id":"levelo_inurba_marseille","lat":43.23058,"lon":5.35501,"is_reserved":false,"is_disabled":false,"rental_uris":{"android":"levelo://app?vid=fbf804d7-6c73-46e9-abdb-acb74deb6dc4","ios":"levelo://app?vid=fbf804d7-6c73-46e9-abdb-acb74deb6dc4"},"vehicle_type_id":"4","last_reported":1741360158,"current_range_meters":17200,"station_id":"cpo3342slgdg3j2ifvpg","pricing_plan_id":"cebpf4jnsgd1na2vs0mg"},{"bike_id":"c33a8483-45d6-48b0-93b0-066c45377e7f","system_id":"levelo_inurba_marseille","lat":43.26205,"lon":5.37433,"is_reserved":false,"is_disabled":false,"rental_uris":{"android":"levelo://app?vid=c33a8483-45d6-48b0-93b0-066c45377e7f","ios":"levelo://app?vid=c33a8483-45d6-48b0-93b0-066c45377e7f"},"vehicle_type_id":"4","last_reported":1741360158,"current_range_meters":17200,"station_id":"ce4bhgp2rcd13ifvqfc0","pricing_plan_id":"cebpf4jnsgd1na2vs0mg"},{"bike_id":"09c3463b-4b38-4307-9f2a-119aaf770843","system_id":"levelo_inurba_marseille","lat":43.31122,"lon":5.37785,"is_reserved":false,"is_disabled":false,"rental_uris":{"android":"levelo://app?vid=09c3463b-4b38-4307-9f2a-119aaf770843","ios":"levelo://app?vid=09c3463b-4b38-4307-9f2a-119aaf770843"},"vehicle_type_id":"4","last_reported":1741360158,"current_range_meters":17200,"station_id":"ce4bgt92rcd13ifvqcg0","pricing_plan_id":"cebpf4jnsgd1na2vs0mg"},{"bike_id":"e82329bd-8893-454f-af31-8d3e659d0b6c","system_id":"levelo_inurba_marseille","lat":43.28374,"lon":5.38641,"is_reserved":false,"is_disabled":false,"rental_uris":{"android":"levelo://app?vid=e82329bd-8893-454f-af31-8d3e659d0b6c","ios":"levelo://app?vid=e82329bd-8893-454f-af31-8d3e659d0b6c"},"vehicle_type_id":"4","last_reported":1741360158,"current_range_meters":17200,"station_id":"ce4bh492rcd13ifvqdvg","pricing_plan_id":"cebpf4jnsgd1na2vs0mg"},{"bike_id":"16653a7c-cdab-47d0-bdb0-f5cca2d1f876","system_id":"levelo_inurba_marseille","lat":43.26792,"lon":5.39471,"is_reserved":false,"is_disabled":false,"rental_uris":{"android":"levelo://app?vid=16653a7c-cdab-47d0-bdb0-f5cca2d1f876","ios":"levelo://app?vid=16653a7c-cdab-47d0-bdb0-f5cca2d1f876"},"vehicle_type_id":"4","last_reported":1741360158,"current_range_meters":17200,"station_id":"ce4bhh12rcd13ifvqfg0","pricing_plan_id":"cebpf4jnsgd1na2vs0mg"},{"bike_id":"e7eecb6c-aac4-4dc0-bc93-3ae7881ab617","system_id":"levelo_inurba_marseille","lat":43.28551,"lon":5.39494,"is_reserved":false,"is_disabled":false,"rental_uris":{"android":"levelo://app?vid=e7eecb6c-aac4-4dc0-bc93-3ae7881ab617","ios":"levelo://app?vid=e7eecb6c-aac4-4dc0-bc93-3ae7881ab617"},"vehicle_type_id":"4","last_reported":1741360158,"current_range_meters":17200,"station_id":"ce4bh292rcd13ifvqdg0","pricing_plan_id":"cebpf4jnsgd1na2vs0mg"},{"bike_id":"c1c412b3-ae23-45ab-894a-fe5b494cc9e6","system_id":"levelo_inurba_marseille","lat":43.23196,"lon":5.3556,"is_reserved":false,"is_disabled":false,"rental_uris":{"android":"levelo://app?vid=c1c412b3-ae23-45ab-894a-fe5b494cc9e6","ios":"levelo://app?vid=c1c412b3-ae23-45ab-894a-fe5b494cc9e6"},"vehicle_type_id":"4","last_reported":1741360158,"current_range_meters":17200,"station_id":"ce4bhu92rcd13ifvqi70","pricing_plan_id":"cebpf4jnsgd1na2vs0mg"},{"bike_id":"2e928b24-4137-4e20-8bb8-57cdf26ace17","system_id":"levelo_inurba_marseille","lat":43.28441,"lon":5.39178,"is_reserved":false,"is_disabled":false,"rental_uris":{"android":"levelo://app?vid=2e928b24-4137-4e20-8bb8-57cdf26ace17","ios":"levelo://app?vid=2e928b24-4137-4e20-8bb8-57cdf26ace17"},"vehicle_type_id":"4","last_reported":1741360158,"current_range_meters":17200,"station_id":"ce4bhoh2rcd13ifvqh5g","pricing_plan_id":"cebpf4jnsgd1na2vs0mg"},{"bike_id":"36adef16-0a44-405f-9f1f-026941f886b8","system_id":"levelo_inurba_marseille","lat":43.27977,"lon":5.4103,"is_reserved":false,"is_disabled":false,"rental_uris":{"android":"levelo://app?vid=36adef16-0a44-405f-9f1f-026941f886b8","ios":"levelo://app?vid=36adef16-0a44-405f-9f1f-026941f886b8"},"vehicle_type_id":"4","last_reported":1741360158,"current_range_meters":17200,"station_id":"ce4bhnp2rcd13ifvqh0g","pricing_plan_id":"cebpf4jnsgd1na2vs0mg"},{"bike_id":"6b2f2b30-55d7-41ec-a65a-eed15df8cd83","system_id":"levelo_inurba_marseille","lat":43.29584,"lon":5.38109,"is_reserved":false,"is_disabled":false,"rental_uris":{"android":"levelo://app?vid=6b2f2b30-55d7-41ec-a65a-eed15df8cd83","ios":"levelo://app?vid=6b2f2b30-55d7-41ec-a65a-eed15df8cd83"},"vehicle_type_id":"4","last_reported":1741360158,"current_range_meters":17600,"station_id":"ce4bgl12rcd13ifvqbo0","pricing_plan_id":"cebpf4jnsgd1na2vs0mg"},{"bike_id":"27ab3f75-d5ee-43a9-8ddd-f6fbab7edacb","system_id":"levelo_inurba_marseille","lat":43.32112,"lon":5.36779,"is_reserved":false,"is_disabled":false,"rental_uris":{"android":"levelo://app?vid=27ab3f75-d5ee-43a9-8ddd-f6fbab7edacb","ios":"levelo://app?vid=27ab3f75-d5ee-43a9-8ddd-f6fbab7edacb"},"vehicle_type_id":"4","last_reported":1741360158,"current_range_meters":17600,"station_id":"ce4bhrh2rcd13ifvqhug","pricing_plan_id":"cebpf4jnsgd1na2vs0mg"},{"bike_id":"9ad5802d-7dba-4b65-b21d-4e8eb8da3b61","system_id":"levelo_inurba_marseille","lat":43.30538,"lon":5.36577,"is_reserved":false,"is_disabled":false,"rental_uris":{"android":"levelo://app?vid=9ad5802d-7dba-4b65-b21d-4e8eb8da3b61","ios":"levelo://app?vid=9ad5802d-7dba-4b65-b21d-4e8eb8da3b61"},"vehicle_type_id":"4","last_reported":1741360158,"current_range_meters":17600,"station_id":"ce4bgs12rcd13ifvqcag","pricing_plan_id":"cebpf4jnsgd1na2vs0mg"},{"bike_id":"6eca938b-7e84-4743-b492-f66c977dac22","system_id":"levelo_inurba_marseille","lat":43.30548,"lon":5.36548,"is_reserved":false,"is_disabled":false,"rental_uris":{"android":"levelo://app?vid=6eca938b-7e84-4743-b492-f66c977dac22","ios":"levelo://app?vid=6eca938b-7e84-4743-b492-f66c977dac22"},"vehicle_type_id":"4","last_reported":1741360158,"current_range_meters":17600,"station_id":"ce4bgs12rcd13ifvqcag","pricing_plan_id":"cebpf4jnsgd1na2vs0mg"},{"bike_id":"f69bea4c-0471-4726-a4b6-42083f94e17c","system_id":"levelo_inurba_marseille","lat":43.30555,"lon":5.3664,"is_reserved":false,"is_disabled":false,"rental_uris":{"android":"levelo://app?vid=f69bea4c-0471-4726-a4b6-42083f94e17c","ios":"levelo://app?vid=f69bea4c-0471-4726-a4b6-42083f94e17c"},"vehicle_type_id":"4","last_reported":1741360158,"current_range_meters":17600,"station_id":"ce4bgs12rcd13ifvqcag","pricing_plan_id":"cebpf4jnsgd1na2vs0mg"},{"bike_id":"4166c107-21a7-4f50-8585-6477907f8898","system_id":"levelo_inurba_marseille","lat":43.28673,"lon":5.36363,"is_reserved":false,"is_disabled":false,"rental_uris":{"android":"levelo://app?vid=4166c107-21a7-4f50-8585-6477907f8898","ios":"levelo://app?vid=4166c107-21a7-4f50-8585-6477907f8898"},"vehicle_type_id":"4","last_reported":1741360158,"current_range_meters":17600,"station_id":"ce4bhah2rcd13ifvqej0","pricing_plan_id":"cebpf4jnsgd1na2vs0mg"},{"bike_id":"417e8f11-7964-4339-b99e-a7f9797cdb75","system_id":"levelo_inurba_marseille","lat":43.26061,"lon":5.39404,"is_reserved":false,"is_disabled":false,"rental_uris":{"android":"levelo://app?vid=417e8f11-7964-4339-b99e-a7f9797cdb75","ios":"levelo://app?vid=417e8f11-7964-4339-b99e-a7f9797cdb75"},"vehicle_type_id":"4","last_reported":1741360158,"current_range_meters":17600,"station_id":"ce4bhh92rcd13ifvqfj0","pricing_plan_id":"cebpf4jnsgd1na2vs0mg"},{"bike_id":"a5781e36-3931-436f-927d-5927526ab93f","system_id":"levelo_inurba_marseille","lat":43.30144,"lon":5.39871,"is_reserved":false,"is_disabled":false,"rental_uris":{"android":"levelo://app?vid=a5781e36-3931-436f-927d-5927526ab93f","ios":"levelo://app?vid=a5781e36-3931-436f-927d-5927526ab93f"},"vehicle_type_id":"4","last_reported":1741360158,"current_range_meters":17600,"station_id":"ce4bh0h2rcd13ifvqd40","pricing_plan_id":"cebpf4jnsgd1na2vs0mg"},{"bike_id":"21a97c5e-42a1-42dc-8f0b-c09a56ace1b8","system_id":"levelo_inurba_marseille","lat":43.30387,"lon":5.42493,"is_reserved":false,"is_disabled":true,"rental_uris":{"android":"levelo://app?vid=21a97c5e-42a1-42dc-8f0b-c09a56ace1b8","ios":"levelo://app?vid=21a97c5e-42a1-42dc-8f0b-c09a56ace1b8"},"vehicle_type_id":"4","last_reported":1741360158,"current_range_meters":17600,"station_id":"","pricing_plan_id":"cebpf4jnsgd1na2vs0mg"},{"bike_id":"2aa02b04-d8e4-4c4c-9a13-7f1627b6d29e","system_id":"levelo_inurba_marseille","lat":43.24803,"lon":5.37451,"is_reserved":false,"is_disabled":false,"rental_uris":{"android":"levelo://app?vid=2aa02b04-d8e4-4c4c-9a13-7f1627b6d29e","ios":"levelo://app?vid=2aa02b04-d8e4-4c4c-9a13-7f1627b6d29e"},"vehicle_type_id":"4","last_reported":1741360158,"current_range_meters":17600,"station_id":"ce4bhgh2rcd13ifvqfb0","pricing_plan_id":"cebpf4jnsgd1na2vs0mg"},{"bike_id":"d093d637-27cf-40fd-bc96-d11cfe8b8e0f","system_id":"levelo_inurba_marseille","lat":43.23197,"lon":5.35553,"is_reserved":false,"is_disabled":false,"rental_uris":{"android":"levelo://app?vid=d093d637-27cf-40fd-bc96-d11cfe8b8e0f","ios":"levelo://app?vid=d093d637-27cf-40fd-bc96-d11cfe8b8e0f"},"vehicle_type_id":"4","last_reported":1741360158,"current_range_meters":18000,"station_id":"ce4bhu92rcd13ifvqi70","pricing_plan_id":"cebpf4jnsgd1na2vs0mg"},{"bike_id":"981d4d7f-1709-460e-ac0d-bf5b333fba9e","system_id":"levelo_inurba_marseille","lat":43.30156,"lon":5.38099,"is_reserved":false,"is_disabled":false,"rental_uris":{"android":"levelo://app?vid=981d4d7f-1709-460e-ac0d-bf5b333fba9e","ios":"levelo://app?vid=981d4d7f-1709-460e-ac0d-bf5b333fba9e"},"vehicle_type_id":"4","last_reported":1741360158,"current_range_meters":18000,"station_id":"ce4bgjp2rcd13ifvqbh0","pricing_plan_id":"cebpf4jnsgd1na2vs0mg"},{"bike_id":"40c64aa9-1336-423f-9514-33eafaf9b0bb","system_id":"levelo_inurba_marseille","lat":43.29791,"lon":5.38094,"is_reserved":false,"is_disabled":false,"rental_uris":{"android":"levelo://app?vid=40c64aa9-1336-423f-9514-33eafaf9b0bb","ios":"levelo://app?vid=40c64aa9-1336-423f-9514-33eafaf9b0bb"},"vehicle_type_id":"4","last_reported":1741360158,"current_range_meters":18000,"station_id":"ce4bgip2rcd13ifvqbb0","pricing_plan_id":"cebpf4jnsgd1na2vs0mg"},{"bike_id":"37ce3eeb-4d9f-4d93-a9bc-ce8e595b98b3","system_id":"levelo_inurba_marseille","lat":43.30539,"lon":5.3652,"is_reserved":false,"is_disabled":false,"rental_uris":{"android":"levelo://app?vid=37ce3eeb-4d9f-4d93-a9bc-ce8e595b98b3","ios":"levelo://app?vid=37ce3eeb-4d9f-4d93-a9bc-ce8e595b98b3"},