{"last_updated":1719148040,"ttl":30,"version":"2.2","data":{"bikes":[{"bike_id":"969d5cdb-3cc1-48b5-8fca-aee5cb1f4691","system_id":"levelo_inurba_marseille","lat":43.312239,"lon":5.368562,"is_reserved":false,"is_disabled":false,"rental_uris":{"android":"levelo://app?vid=969d5cdb-3cc1-48b5-8fca-aee5cb1f4691","ios":"levelo://app?vid=969d5cdb-3cc1-48b5-8fca-aee5cb1f4691"},"vehicle_type_id":"4","last_reported":1719148040,"current_range_meters":11600,"station_id":"ce4bgl92rcd13ifvqbq0","pricing_plan_id":"cebpf4jnsgd1na2vs0mg"},{"bike_id":"61eb1055-856c-40f9-85e0-9309d26cfbbc","system_id":"levelo_inurba_marseille","lat":43.31756,"lon":5.36864,"is_reserved":false,"is_disabled":false,"rental_uris":{"android":"levelo://app?vid=61eb1055-856c-40f9-85e0-9309d26cfbbc","ios":"levelo://app?vid=61eb1055-856c-40f9-85e0-9309d26cfbbc"},"vehicle_type_id":"4","last_reported":1719148040,"current_range_meters":0,"station_id":"","pricing_plan_id":"cebpf4jnsgd1na2vs0mg"},{"bike_id":"77460ccb-960a-4153-8783-e0a172f31a95","system_id":"levelo_inurba_marseille","lat":43.314499,"lon":5.373613,"is_reserved":false,"is_disabled":false,"rental_uris":{"android":"levelo://app?vid=77460ccb-960a-4153-8783-e0a172f31a95","ios":"levelo://app?vid=77460ccb-960a-4153-8783-e0a172f31a95"},"vehicle_type_id":"4","last_reported":1719148040,"current_range_meters":5600,"station_id":"","pricing_plan_id":"cebpf4jnsgd1na2vs0mg"},{"bike_id":"bfa7cfe4-5366-42e2-8d3f-de889b54e47e","system_id":"levelo_inurba_marseille","lat":43.309039,"lon":5.371797,"is_reserved":false,"is_disabled":false,"rental_uris":{"android":"levelo://app?vid=bfa7cfe4-5366-42e2-8d3f-de889b54e47e","ios":"levelo://app?vid=bfa7cfe4-5366-42e2-8d3f-de889b54e47e"},"vehicle_type_id":"4","last_reported":1719148040,"current_range_meters":24000,"station_id":"ce4bguh2rcd13ifvqckg","pricing_plan_id":"cebpf4jnsgd1na2vs0mg"},{"bike_id":"3e6229a9-daa1-4e8e-b7ec-60b28f97252f","system_id":"levelo_inurba_marseille","lat":43.314524,"lon":5.373645,"is_reserved":false,"is_disabled":false,"rental_uris":{"android":"levelo://app?vid=3e6229a9-daa1-4e8e-b7ec-60b28f97252f","ios":"levelo://app?vid=3e6229a9-daa1-4e8e-b7ec-60b28f97252f"},"vehicle_type_id":"4","last_reported":1719148040,"current_range_meters":1200,"station_id":"","pricing_plan_id":"cebpf4jnsgd1na2vs0mg"},{"bike_id":"20f31c62-307b-4c16-93b6-6fcc5accd677","system_id":"levelo_inurba_marseille","lat":43.31458,"lon":5.373641,"is_reserved":false,"is_disabled":false,"rental_uris":{"android":"levelo://app?vid=20f31c62-307b-4c16-93b6-6fcc5accd677","ios":"levelo://app?vid=20f31c62-307b-4c16-93b6-6fcc5accd677"},"vehicle_type_id":"4","last_reported":1719148040,"current_range_meters":12400,"station_id":"","pricing_plan_id":"cebpf4jnsgd1na2vs0mg"},{"bike_id":"24d509b5-ef37-465b-b8cc-6a71986a5c4f","system_id":"levelo_inurba_marseille","lat":43.31463,"lon":5.37372,"is_reserved":false,"is_disabled":false,"rental_uris":{"android":"levelo://app?vid=24d509b5-ef37-465b-b8cc-6a71986a5c4f","ios":"levelo://app?vid=24d509b5-ef37-465b-b8cc-6a71986a5c4f"},"vehicle_type_id":"4","last_reported":1719148040,"current_range_meters":22800,"station_id":"ce4bgt12rcd13ifvqcd0","pricing_plan_id":"cebpf4jnsgd1na2vs0mg"},{"bike_id":"6702c3ae-2862-4cc4-89fd-826bd12fb5b2","system_id":"levelo_inurba_marseille","lat":43.30545,"lon":5.3656,"is_reserved":false,"is_disabled":false,"rental_uris":{"android":"levelo://app?vid=6702c3ae-2862-4cc4-89fd-826bd12fb5b2","ios":"levelo://app?vid=6702c3ae-2862-4cc4-89fd-826bd12fb5b2"},"vehicle_type_id":"4","last_reported":1719148040,"current_range_meters":26400,"station_id":"","pricing_plan_id":"cebpf4jnsgd1na2vs0mg"},{"bike_id":"1205d405-7ce0-4a82-9936-59a97e524b90","system_id":"levelo_inurba_marseille","lat":43.305714,"lon":5.365633,"is_reserved":false,"is_disabled":false,"rental_uris":{"android":"levelo://app?vid=1205d405-7ce0-4a82-9936-59a97e524b90","ios":"levelo://app?vid=1205d405-7ce0-4a82-9936-59a97e524b90"},"vehicle_type_id":"4","last_reported":1719148040,"current_range_meters":13200,"station_id":"ce4bgs12rcd13ifvqcag","pricing_plan_id":"cebpf4jnsgd1na2vs0mg"},{"bike_id":"a3d9557c-440c-4286-b5ad-5800f4d7b3a2","system_id":"levelo_inurba_marseille","lat":43.305714,"lon":5.365633,"is_reserved":false,"is_disabled":false,"rental_uris":{"android":"levelo://app?vid=a3d9557c-440c-4286-b5ad-5800f4d7b3a2","ios":"levelo://app?vid=a3d9557c-440c-4286-b5ad-5800f4d7b3a2"},"vehicle_type_id":"4","last_reported":1719148040,"current_range_meters":9600,"station_id":"ce4bgs12rcd13ifvqcag","pricing_plan_id":"cebpf4jnsgd1na2vs0mg"},{"bike_id":"a43e7e1e-e283-47ba-bb74-77104a25b45c","system_id":"levelo_inurba_marseille","lat":43.30532,"lon":5.36661,"is_reserved":false,"is_disabled":false,"rental_uris":{"android":"levelo://app?vid=a43e7e1e-e283-47ba-bb74-77104a25b45c","ios":"levelo://app?vid=a43e7e1e-e283-47ba-bb74-77104a25b45c"},"vehicle_type_id":"4","last_reported":1719148040,"current_range_meters":18400,"station_id":"","pricing_plan_id":"cebpf4jnsgd1na2vs0mg"},{"bike_id":"d1d4ca09-8bc4-480a-a69e-5df0524f0d22","system_id":"levelo_inurba_marseille","lat":43.31912,"lon":5.37353,"is_reserved":false,"is_disabled":false,"rental_uris":{"android":"levelo://app?vid=d1d4ca09-8bc4-480a-a69e-5df0524f0d22","ios":"levelo://app?vid=d1d4ca09-8bc4-480a-a69e-5df0524f0d22"},"vehicle_type_id":"4","last_reported":1719148040,"current_range_meters":12000,"station_id":"","pricing_plan_id":"cebpf4jnsgd1na2vs0mg"},{"bike_id":"3fde2d84-e998-42fc-8227-ce9c4cbb677b","system_id":"levelo_inurba_marseille","lat":43.30783,"lon":5.37656,"is_reserved":false,"is_disabled":false,"rental_uris":{"android":"levelo://app?vid=3fde2d84-e998-42fc-8227-ce9c4cbb677b","ios":"levelo://app?vid=3fde2d84-e998-42fc-8227-ce9c4cbb677b"},"vehicle_type_id":"4","last_reported":1719148040,"current_range_meters":2400,"station_id":"","pricing_plan_id":"cebpf4jnsgd1na2vs0mg"},{"bike_id":"38021268-5bfe-4137-9f0e-9d6cc16146ad","system_id":"levelo_inurba_marseille","lat":43.315289,"lon":5.380349,"is_reserved":false,"is_disabled":false,"rental_uris":{"android":"levelo://app?vid=38021268-5bfe-4137-9f0e-9d6cc16146ad","ios":"levelo://app?vid=38021268-5bfe-4137-9f0e-9d6cc16146ad"},"vehicle_type_id":"4","last_reported":1719148040,"current_range_meters":25600,"station_id":"ce4bhsp2rcd13ifvqi50","pricing_plan_id":"cebpf4jnsgd1na2vs0mg"},{"bike_id":"1aa9382d-bd55-4aff-8971-b23615fccdae","system_id":"levelo_inurba_marseille","lat":43.311,"lon":5.38145,"is_reserved":false,"is_disabled":false,"rental_uris":{"android":"levelo://app?vid=1aa9382d-bd55-4aff-8971-b23615fccdae","ios":"levelo://app?vid=1aa9382d-bd55-4aff-8971-b23615fccdae"},"vehicle_type_id":"4","last_reported":1719148040,"current_range_meters":1600,"station_id":"","pricing_plan_id":"cebpf4jnsgd1na2vs0mg"},{"bike_id":"c8d74784-cfa3-4dc0-a55e-c53d6b6b7590","system_id":"levelo_inurba_marseille","lat":43.31294,"lon":5.38177,"is_reserved":false,"is_disabled":false,"rental_uris":{"android":"levelo://app?vid=c8d74784-cfa3-4dc0-a55e-c53d6b6b7590","ios":"levelo://app?vid=c8d74784-cfa3-4dc0-a55e-c53d6b6b7590"},"vehicle_type_id":"4","last_reported":1719148040,"current_range_meters":17600,"station_id":"","pricing_plan_id":"cebpf4jnsgd1na2vs0mg"},{"bike_id":"1eaa03c8-0241-43d5-add2-015acd1e0fbf","system_id":"levelo_inurba_marseille","lat":43.31288,"lon":5.38316,"is_reserved":false,"is_disabled":false,"rental_uris":{"android":"levelo://app?vid=1eaa03c8-0241-43d5-add2-015acd1e0fbf","ios":"levelo://app?vid=1eaa03c8-0241-43d5-add2-015acd1e0fbf"},"vehicle_type_id":"4","last_reported":1719148040,"current_range_meters":24000,"station_id":"","pricing_plan_id":"cebpf4jnsgd1na2vs0mg"},{"bike_id":"50b39718-513a-4b06-8295-0de692239f1f","system_id":"levelo_inurba_marseille","lat":43.304606,"lon":5.379026,"is_reserved":false,"is_disabled":false,"rental_uris":{"android":"levelo://app?vid=50b39718-513a-4b06-8295-0de692239f1f","ios":"levelo://app?vid=50b39718-513a-4b06-8295-0de692239f1f"},"vehicle_type_id":"4","last_reported":1719148040,"current_range_meters":24000,"station_id":"ce4bgup2rcd13ifvqcn0","pricing_plan_id":"cebpf4jnsgd1na2vs0mg"},{"bike_id":"ed181fdb-3ae8-4e51-9e74-f7137893ff4e","system_id":"levelo_inurba_marseille","lat":43.324771,"lon":5.36557,"is_reserved":false,"is_disabled":false,"rental_uris":{"android":"levelo://app?vid=ed181fdb-3ae8-4e51-9e74-f7137893ff4e","ios":"levelo://app?vid=ed181fdb-3ae8-4e51-9e74-f7137893ff4e"},"vehicle_type_id":"4","last_reported":1719148040,"current_range_meters":22000,"station_id":"ce4bhs12rcd13ifvqhvg","pricing_plan_id":"cebpf4jnsgd1na2vs0mg"},{"bike_id":"c0404608-5e03-4c57-9c73-4a05f705417d","system_id":"levelo_inurba_marseille","lat":43.324771,"lon":5.36557,"is_reserved":false,"is_disabled":false,"rental_uris":{"android":"levelo://app?vid=c0404608-5e03-4c57-9c73-4a05f705417d","ios":"levelo://app?vid=c0404608-5e03-4c57-9c73-4a05f705417d"},"vehicle_type_id":"4","last_reported":1719148040,"current_range_meters":23600,"station_id":"ce4bhs12rcd13ifvqhvg","pricing_plan_id":"cebpf4jnsgd1na2vs0mg"},{"bike_id":"4f84bb50-b9da-447b-a0e6-204287565547","system_id":"levelo_inurba_marseille","lat":43.324771,"lon":5.36557,"is_reserved":false,"is_disabled":false,"rental_uris":{"android":"levelo://app?vid=4f84bb50-b9da-447b-a0e6-204287565547","ios":"levelo://app?vid=4f84bb50-b9da-447b-a0e6-204287565547"},"vehicle_type_id":"4","last_reported":1719148040,"current_range_meters":15200,"station_id":"ce4bhs12rcd13ifvqhvg","pricing_plan_id":"cebpf4jnsgd1na2vs0mg"},{"bike_id":"604d4770-7dac-4ff8-9f30-628959ff3970","system_id":"levelo_inurba_marseille","lat":43.30143,"lon":5.37413,"is_reserved":false,"is_disabled":false,"rental_uris":{"android":"levelo://app?vid=604d4770-7dac-4ff8-9f30-628959ff3970","ios":"levelo://app?vid=604d4770-7dac-4ff8-9f30-628959ff3970"},"vehicle_type_id":"4","last_reported":1719148040,"current_range_meters":8400,"station_id":"ce4bgs92rcd13ifvqcc0","pricing_plan_id":"cebpf4jnsgd1na2vs0mg"},{"bike_id":"e3bdd770-0a5c-4444-8425-2fc432e50efe","system_id":"levelo_inurba_marseille","lat":43.32001,"lon":5.38148,"is_reserved":false,"is_disabled":false,"rental_uris":{"android":"levelo://app?vid=e3bdd770-0a5c-4444-8425-2fc432e50efe","ios":"levelo://app?vid=e3bdd770-0a5c-4444-8425-2fc432e50efe"},"vehicle_type_id":"4","last_reported":1719148040,"current_range_meters":0,"station_id":"ce4bhr12rcd13ifvqhpg","pricing_plan_id":"cebpf4jnsgd1na2vs0mg"},{"bike_id":"348ef1ee-d086-4d3c-98ad-26c7fa7ed509","system_id":"levelo_inurba_marseille","lat":43.31997,"lon":5.38157,"is_reserved":false,"is_disabled":false,"rental_uris":{"android":"levelo://app?vid=348ef1ee-d086-4d3c-98ad-26c7fa7ed509","ios":"levelo://app?vid=348ef1ee-d086-4d3c-98ad-26c7fa7ed509"},"vehicle_type_id":"4","last_reported":1719148040,"current_range_meters":2800,"station_id":"ce4bhr12rcd13ifvqhpg","pricing_plan_id":"cebpf4jnsgd1na2vs0mg"},{"bike_id":"2fcecd20-15cd-4749-a390-6f6b397e0de8","system_id":"levelo_inurba_marseille","lat":43.316063,"lon":5.38406,"is_reserved":false,"is_disabled":false,"rental_uris":{"android":"levelo://app?vid=2fcecd20-15cd-4749-a390-6f6b397e0de8","ios":"levelo://app?vid=2fcecd20-15cd-4749-a390-6f6b397e0de8"},"vehicle_type_id":"4","last_reported":1719148040,"current_range_meters":18000,"station_id":"","pricing_plan_id":"cebpf4jnsgd1na2vs0mg"},{"bike_id":"06b6df33-829a-40b5-8f83-f5925e9aa899","system_id":"levelo_inurba_marseille","lat":43.313571,"lon":5.384829,"is_reserved":false,"is_disabled":false,"rental_uris":{"android":"levelo://app?vid=06b6df33-829a-40b5-8f83-f5925e9aa899","ios":"levelo://app?vid=06b6df33-829a-40b5-8f83-f5925e9aa899"},"vehicle_type_id":"4","last_reported":1719148040,"current_range_meters":6400,"station_id":"ce4bgt92rcd13ifvqcf0","pricing_plan_id":"cebpf4jnsgd1na2vs0mg"},{"bike_id":"4aba6f14-868b-46d1-9dae-c655a7457a26","system_id":"levelo_inurba_marseille","lat":43.322872,"lon":5.382756,"is_reserved":false,"is_disabled":false,"rental_uris":{"android":"levelo://app?vid=4aba6f14-868b-46d1-9dae-c655a7457a26","ios":"levelo://app?vid=4aba6f14-868b-46d1-9dae-c655a7457a26"},"vehicle_type_id":"4","last_reported":1719148040,"current_range_meters":31200,"station_id":"ce4bhr12rcd13ifvqhqg","pricing_plan_id":"cebpf4jnsgd1na2vs0mg"},{"bike_id":"8be10d32-00e7-4e5e-8f4c-584f3edd3f96","system_id":"levelo_inurba_marseille","lat":43.322872,"lon":5.382756,"is_reserved":false,"is_disabled":false,"rental_uris":{"android":"levelo://app?vid=8be10d32-00e7-4e5e-8f4c-584f3edd3f96","ios":"levelo://app?vid=8be10d32-00e7-4e5e-8f4c-584f3edd3f96"},"vehicle_type_id":"4","last_reported":1719148040,"current_range_meters":8000,"station_id":"ce4bhr12rcd13ifvqhqg","pricing_plan_id":"cebpf4jnsgd1na2vs0mg"},{"bike_id":"4c203650-2a3c-4e90-abde-267e94f1fba0","system_id":"levelo_inurba_marseille","lat":43.297774,"lon":5.370875,"is_reserved":false,"is_disabled":false,"rental_uris":{"android":"levelo://app?vid=4c203650-2a3c-4e90-abde-267e94f1fba0","ios":"levelo://app?vid=4c203650-2a3c-4e90-abde-267e94f1fba0"},"vehicle_type_id":"4","last_reported":1719148040,"current_range_meters":4400,"station_id":"ce4bgop2rcd13ifvqc1g","pricing_plan_id":"cebpf4jnsgd1na2vs0mg"},{"bike_id":"f150b6b6-fb27-4bd2-a9df-6635cdbe7332","system_id":"levelo_inurba_marseille","lat":43.29695,"lon":5.36593,"is_reserved":false,"is_disabled":false,"rental_uris":{"android":"levelo://app?vid=f150b6b6-fb27-4bd2-a9df-6635cdbe7332","ios":"levelo://app?vid=f150b6b6-fb27-4bd2-a9df-6635cdbe7332"},"vehicle_type_id":"4","last_reported":1719148040,"current_range_meters":22800,"station_id":"ce4bgn12rcd13ifvqbt0","pricing_plan_id":"cebpf4jnsgd1na2vs0mg"},{"bike_id":"b8d33a01-e3a3-4cad-b72b-44d6dfc207b9","system_id":"levelo_inurba_marseille","lat":43.29573,"lon":5.367355,"is_reserved":false,"is_disabled":false,"rental_uris":{"android":"levelo://app?vid=b8d33a01-e3a3-4cad-b72b-44d6dfc207b9","ios":"levelo://app?vid=b8d33a01-e3a3-4cad-b72b-44d6dfc207b9"},"vehicle_type_id":"4","last_reported":1719148040,"current_range_meters":20800,"station_id":"ce4bgph2rcd13ifvqc2g","pricing_plan_id":"cebpf4jnsgd1na2vs0mg"},{"bike_id":"94c00246-ddef-4af7-9c31-72618b02d906","system_id":"levelo_inurba_marseille","lat":43.29622,"lon":5.37166,"is_reserved":false,"is_disabled":false,"rental_uris":{"android":"levelo://app?vid=94c00246-ddef-4af7-9c31-72618b02d906","ios":"levelo://app?vid=94c00246-ddef-4af7-9c31-72618b02d906"},"vehicle_type_id":"4","last_reported":1719148040,"current_range_meters":0,"station_id":"ce4bgnh2rcd13ifvqc0g","pricing_plan_id":"cebpf4jnsgd1na2vs0mg"},{"bike_id":"03b07095-9e00-462c-ad57-73271723176b","system_id":"levelo_inurba_marseille","lat":43.296921,"lon":5.376579,"is_reserved":false,"is_disabled":false,"rental_uris":{"android":"levelo://app?vid=03b07095-9e00-462c-ad57-73271723176b","ios":"levelo://app?vid=03b07095-9e00-462c-ad57-73271723176b"},"vehicle_type_id":"4","last_reported":1719148040,"current_range_meters":0,"station_id":"ce4bgkh2rcd13ifvqbl0","pricing_plan_id":"cebpf4jnsgd1na2vs0mg"},{"bike_id":"d126bf62-4cec-4c3a-a882-4b92c06cbeeb","system_id":"levelo_inurba_marseille","lat":43.309589,"lon":5.390258,"is_reserved":false,"is_disabled":false,"rental_uris":{"android":"levelo://app?vid=d126bf62-4cec-4c3a-a882-4b92c06cbeeb","ios":"levelo://app?vid=d126bf62-4cec-4c3a-a882-4b92c06cbeeb"},"vehicle_type_id":"4","last_reported":1719148040,"current_range_meters":0,"station_id":"ce4bgup2rcd13ifvqco0","pricing_plan_id":"cebpf4jnsgd1na2vs0mg"},{"bike_id":"b2f8c189-9044-422e-b64d-4a088a546d2e","system_id":"levelo_inurba_marseille","lat":43.295623,"lon":5.362593,"is_reserved":false,"is_disabled":false,"rental_uris":{"android":"levelo://app?vid=b2f8c189-9044-422e-b64d-4a088a546d2e","ios":"levelo://app?vid=b2f8c189-9044-422e-b64d-4a088a546d2e"},"vehicle_type_id":"4","last_reported":1719148040,"current_range_meters":18800,"station_id":"","pricing_plan_id":"cebpf4jnsgd1na2vs0mg"},{"bike_id":"d7c21ce2-a776-470c-b443-51e8cb8311e6","system_id":"levelo_inurba_marseille","lat":43.29829,"lon":5.38065,"is_reserved":false,"is_disabled":false,"rental_uris":{"android":"levelo://app?vid=d7c21ce2-a776-470c-b443-51e8cb8311e6","ios":"levelo://app?vid=d7c21ce2-a776-470c-b443-51e8cb8311e6"},"vehicle_type_id":"4","last_reported":1719148040,"current_range_meters":11600,"station_id":"","pricing_plan_id":"cebpf4jnsgd1na2vs0mg"},{"bike_id":"170c1840-3e91-47ce-bad6-44675f5744f4","system_id":"levelo_inurba_marseille","lat":43.298037,"lon":5.381066,"is_reserved":false,"is_disabled":false,"rental_uris":{"android":"levelo://app?vid=170c1840-3e91-47ce-bad6-44675f5744f4","ios":"levelo://app?vid=170c1840-3e91-47ce-bad6-44675f5744f4"},"vehicle_type_id":"4","last_reported":1719148040,"current_range_meters":21200,"station_id":"ce4bgip2rcd13ifvqbb0","pricing_plan_id":"cebpf4jnsgd1na2vs0mg"},{"bike_id":"49376045-01ab-41de-8e6f-53786d34755b","system_id":"levelo_inurba_marseille","lat":43.32367,"lon":5.388836,"is_reserved":false,"is_disabled":false,"rental_uris":{"android":"levelo://app?vid=49376045-01ab-41de-8e6f-53786d34755b","ios":"levelo://app?vid=49376045-01ab-41de-8e6f-53786d34755b"},"vehicle_type_id":"4","last_reported":1719148040,"current_range_meters":0,"station_id":"ce4bhqp2rcd13ifvqhog","pricing_plan_id":"cebpf4jnsgd1na2vs0mg"},{"bike_id":"0bff47d7-172c-4077-a151-37fc80af9f47","system_id":"levelo_inurba_marseille","lat":43.29275,"lon":5.36837,"is_reserved":false,"is_disabled":false,"rental_uris":{"android":"levelo://app?vid=0bff47d7-172c-4077-a151-37fc80af9f47","ios":"levelo://app?vid=0bff47d7-172c-4077-a151-37fc80af9f47"},"vehicle_type_id":"4","last_reported":1719148040,"current_range_meters":14800,"station_id":"ce4bhbp2rcd13ifvqesg","pricing_plan_id":"cebpf4jnsgd1na2vs0mg"},{"bike_id":"ac2e38fe-c6ca-4fba-8049-0dc6870b404d","system_id":"levelo_inurba_marseille","lat":43.303002,"lon":5.392142,"is_reserved":false,"is_disabled":false,"rental_uris":{"android":"levelo://app?vid=ac2e38fe-c6ca-4fba-8049-0dc6870b404d","ios":"levelo://app?vid=ac2e38fe-c6ca-4fba-8049-0dc6870b404d"},"vehicle_type_id":"4","last_reported":1719148040,"current_range_meters":15200,"station_id":"ce4bgkh2rcd13ifvqbk0","pricing_plan_id":"cebpf4jnsgd1na2vs0mg"},{"bike_id":"8e80db88-c0ab-4c6e-8c2c-25461f3dda58","system_id":"levelo_inurba_marseille","lat":43.293009,"lon":5.374584,"is_reserved":false,"is_disabled":false,"rental_uris":{"android":"levelo://app?vid=8e80db88-c0ab-4c6e-8c2c-25461f3dda58","ios":"levelo://app?vid=8e80db88-c0ab-4c6e-8c2c-25461f3dda58"},"vehicle_type_id":"4","last_reported":1719148040,"current_range_meters":19600,"station_id":"ce4bgi12rcd13ifvqb70","pricing_plan_id":"cebpf4jnsgd1na2vs0mg"},{"bike_id":"5efca608-7094-4ce9-acf2-1190976cf70d","system_id":"levelo_inurba_marseille","lat":43.305994,"lon":5.393687,"is_reserved":false,"is_disabled":false,"rental_uris":{"android":"levelo://app?vid=5efca608-7094-4ce9-acf2-1190976cf70d","ios":"levelo://app?vid=5efca608-7094-4ce9-acf2-1190976cf70d"},"vehicle_type_id":"4","last_reported":1719148040,"current_range_meters":0,"station_id":"ce4bh0p2rcd13ifvqd80","pricing_plan_id":"cebpf4jnsgd1na2vs0mg"},{"bike_id":"8a44b54c-f12a-4894-8cfc-ee97b8bc228e","system_id":"levelo_inurba_marseille","lat":43.292311,"lon":5.360731,"is_reserved":false,"is_disabled":false,"rental_uris":{"android":"levelo://app?vid=8a44b54c-f12a-4894-8cfc-ee97b8bc228e","ios":"levelo://app?vid=8a44b54c-f12a-4894-8cfc-ee97b8bc228e"},"vehicle_type_id":"4","last_reported":1719148040,"current_range_meters":0,"station_id":"ce4bhbh2rcd13ifvqeqg","pricing_plan_id":"cebpf4jnsgd1na2vs0mg"},{"bike_id":"12dbdb05-b364-4ef0-9643-4f223d756efb","system_id":"levelo_inurba_marseille","lat":43.292311,"lon":5.360731,"is_reserved":false,"is_disabled":false,"rental_uris":{"android":"levelo://app?vid=12dbdb05-b364-4ef0-9643-4f223d756efb","ios":"levelo://app?vid=12dbdb05-b364-4ef0-9643-4f223d756efb"},"vehicle_type_id":"4","last_reported":1719148040,"current_range_meters":0,"station_id":"ce4bhbh2rcd13ifvqeqg","pricing_plan_id":"cebpf4jnsgd1na2vs0mg"},{"bike_id":"faf8883a-5d9f-4896-999e-de3b4455d5b3","system_id":"levelo_inurba_marseille","lat":43.298764,"lon":5.388973,"is_reserved":false,"is_disabled":false,"rental_uris":{"android":"levelo://app?vid=faf8883a-5d9f-4896-999e-de3b4455d5b3","ios":"levelo://app?vid=faf8883a-5d9f-4896-999e-de3b4455d5b3"},"vehicle_type_id":"4","last_reported":1719148040,"current_range_meters":31200,"station_id":"ce4bh392rcd13ifvqdl0","pricing_plan_id":"cebpf4jnsgd1na2vs0mg"},{"bike_id":"e9f8c0c0-ac3d-46e8-9470-e1799570f886","system_id":"levelo_inurba_marseille","lat":43.33209,"lon":5.380671,"is_reserved":false,"is_disabled":false,"rental_uris":{"android":"levelo://app?vid=e9f8c0c0-ac3d-46e8-9470-e1799570f886","ios":"levelo://app?vid=e9f8c0c0-ac3d-46e8-9470-e1799570f886"},"vehicle_type_id":"4","last_reported":1719148040,"current_range_meters":0,"station_id":"","pricing_plan_id":"cebpf4jnsgd1na2vs0mg"},{"bike_id":"e456b544-2c65-4a87-ae09-4ab7cd0ec988","system_id":"levelo_inurba_marseille","lat":43.290779,"lon":5.371482,"is_reserved":false,"is_disabled":false,"rental_uris":{"android":"levelo://app?vid=e456b544-2c65-4a87-ae09-4ab7cd0ec988","ios":"levelo://app?vid=e456b544-2c65-4a87-ae09-4ab7cd0ec988"},"vehicle_type_id":"4","last_reported":1719148040,"current_range_meters":0,"station_id":"ce4bh5p2rcd13ifvqe4g","pricing_plan_id":"cebpf4jnsgd1na2vs0mg"},{"bike_id":"28492cb4-f17b-4f74-9ae0-653f94c761a7","system_id":"levelo_inurba_marseille","lat":43.313291,"lon":5.396838,"is_reserved":false,"is_disabled":false,"rental_uris":{"android":"levelo://app?vid=28492cb4-f17b-4f74-9ae0-653f94c761a7","ios":"levelo://app?vid=28492cb4-f17b-4f74-9ae0-653f94c761a7"},"vehicle_type_id":"4","last_reported":1719148040,"current_range_meters":29600,"station_id":"ce4bgvp2rcd13ifvqcu0","pricing_plan_id":"cebpf4jnsgd1na2vs0mg"},{"bike_id":"087430e2-60f2-4861-b4fa-0d9603f207c7","system_id":"levelo_inurba_marseille","lat":43.290631,"lon":5.359244,"is_reserved":false,"is_disabled":false,"rental_uris":{"android":"levelo://app?vid=087430e2-60f2-4861-b4fa-0d9603f207c7","ios":"levelo://app?vid=087430e2-60f2-4861-b4fa-0d9603f207c7"},"vehicle_type_id":"4","last_reported":1719148040,"current_range_meters":26800,"station_id":"ce4bha92rcd13ifvqeg0","pricing_plan_id":"cebpf4jnsgd1na2vs0mg"},{"bike_id":"cd513de1-4bdc-4624-975c-cceaf195e3f7","system_id":"levelo_inurba_marseille","lat":43.294162,"lon":5.386292,"is_reserved":false,"is_disabled":false,"rental_uris":{"android":"levelo://app?vid=cd513de1-4bdc-4624-975c-cceaf195e3f7","ios":"levelo://app?vid=cd513de1-4bdc-4624-975c-cceaf195e3f7"},"vehicle_type_id":"4","last_reported":1719148040,"current_range_meters":1200,"station_id":"ce4bh2h2rcd13ifvqdh0","pricing_plan_id":"cebpf4jnsgd1na2vs0mg"},{"bike_id":"c7d58d31-1a12-49fa-b829-02f8d43858ef","system_id":"levelo_inurba_marseille","lat":43.289184,"lon":5.366408,"is_reserved":false,"is_disabled":false,"rental_uris":{"android":"levelo://app?vid=c7d58d31-1a12-49fa-b829-02f8d43858ef","ios":"levelo://app?vid=c7d58d31-1a12-49fa-b829-02f8d43858ef"},"vehicle_type_id":"4","last_reported":1719148040,"current_range_meters":13200,"station_id":"ce4bhap2rcd13ifvqek0","pricing_plan_id":"cebpf4jnsgd1na2vs0mg"},{"bike_id":"bc84102a-73f9-43c7-bfd2-ba9bec775c84","system_id":"levelo_inurba_marseille","lat":43.289468,"lon":5.363719,"is_reserved":false,"is_disabled":false,"rental_uris":{"android":"levelo://app?vid=bc84102a-73f9-43c7-bfd2-ba9bec775c84","ios":"levelo://app?vid=bc84102a-73f9-43c7-bfd2-ba9bec775c84"},"vehicle_type_id":"4","last_reported":1719148040,"current_range_meters":18400,"station_id":"ce4bhc92rcd13ifvqetg","pricing_plan_id":"cebpf4jnsgd1na2vs0mg"},{"bike_id":"e9925d3a-2eb1-46b8-b775-4962a31205f8","system_id":"levelo_inurba_marseille","lat":43.289468,"lon":5.363719,"is_reserved":false,"is_disabled":false,"rental_uris":{"android":"levelo://app?vid=e9925d3a-2eb1-46b8-b775-4962a31205f8","ios":"levelo://app?vid=e9925d3a-2eb1-46b8-b775-4962a31205f8"},"vehicle_type_id":"4","last_reported":1719148040,"current_range_meters":1200,"station_id":"ce4bhc92rcd13ifvqetg","pricing_plan_id":"cebpf4jnsgd1na2vs0mg"},{"bike_id":"119c83bb-7f8c-45da-adc5-e3b002d9a1d0","system_id":"levelo_inurba_marseille","lat":43.290104,"lon":5.356111,"is_reserved":false,"is_disabled":false,"rental_uris":{"android":"levelo://app?vid=119c83bb-7f8c-45da-adc5-e3b002d9a1d0","ios":"levelo://app?vid=119c83bb-7f8c-45da-adc5-e3b002d9a1d0"},"vehicle_type_id":"4","last_reported":1719148040,"current_range_meters":0,"station_id":"ce4bhb92rcd13ifvqen0","pricing_plan_id":"cebpf4jnsgd1na2vs0mg"},{"bike_id":"84c13783-4060-4179-a855-28fe0edeb47e","system_id":"levelo_inurba_marseille","lat":43.290995,"lon":5.381361,"is_reserved":false,"is_disabled":false,"rental_uris":{"android":"levelo://app?vid=84c13783-4060-4179-a855-28fe0edeb47e","ios":"levelo://app?vid=84c13783-4060-4179-a855-28fe0edeb47e"},"vehicle_type_id":"4","last_reported":1719148040,"current_range_meters":22400,"station_id":"ce4bh512rcd13ifvqe2g","pricing_plan_id":"cebpf4jnsgd1na2vs0mg"},{"bike_id":"dba22a58-53ee-482d-b925-6fba77cd24df","system_id":"levelo_inurba_marseille","lat":43.290995,"lon":5.381361,"is_reserved":false,"is_disabled":false,"rental_uris":{"android":"levelo://app?vid=dba22a58-53ee-482d-b925-6fba77cd24df","ios":"levelo://app?vid=dba22a58-53ee-482d-b925-6fba77cd24df"},"vehicle_type_id":"4","last_reported":1719148040,"current_range_meters":18800,"station_id":"ce4bh512rcd13ifvqe2g","pricing_plan_id":"cebpf4jnsgd1na2vs0mg"},{"bike_id":"2973e575-e367-4606-953c-63ddfe80225b","system_id":"levelo_inurba_marseille","lat":43.290995,"lon":5.381361,"is_reserved":false,"is_disabled":false,"rental_uris":{"android":"levelo://app?vid=2973e575-e367-4606-953c-63ddfe80225b","ios":"levelo://app?vid=2973e575-e367-4606-953c-63ddfe80225b"},"vehicle_type_id":"4","last_reported":1719148040,"current_range_meters":6800,"station_id":"ce4bh512rcd13ifvqe2g","pricing_plan_id":"cebpf4jnsgd1na2vs0mg"},{"bike_id":"2b0bf35b-6e07-462f-85b4-128c1c574c05","system_id":"levelo_inurba_marseille","lat":43.290995,"lon":5.381361,"is_reserved":false,"is_disabled":false,"rental_uris":{"android":"levelo://app?vid=2b0bf35b-6e07-462f-85b4-128c1c574c05","ios":"levelo://app?vid=2b0bf35b-6e07-462f-85b4-128c1c574c05"},"vehicle_type_id":"4","last_reported":1719148040,"current_range_meters":10400,"station_id":"ce4bh512rcd13ifvqe2g","pricing_plan_id":"cebpf4jnsgd1na2vs0mg"},{"bike_id":"7cffc5ab-1d98-4b39-9271-059357023ad7","system_id":"levelo_inurba_marseille","lat":43.33016,"lon":5.3904,"is_reserved":false,"is_disabled":false,"rental_uris":{"android":"levelo://app?vid=7cffc5ab-1d98-4b39-9271-059357023ad7","ios":"levelo://app?vid=7cffc5ab-1d98-4b39-9271-059357023ad7"},"vehicle_type_id":"4","last_reported":1719148040,"current_range_meters":0,"station_id":"ce4bhr92rcd13ifvqhrg","pricing_plan_id":"cebpf4jnsgd1na2vs0mg"},{"bike_id":"02fdb8e9-a9a3-4376-aff3-dd6689863224","system_id":"levelo_inurba_marseille","lat":43.330442,"lon":5.389148,"is_reserved":false,"is_disabled":false,"rental_uris":{"android":"levelo://app?vid=02fdb8e9-a9a3-4376-aff3-dd6689863224","ios":"levelo://app?vid=02fdb8e9-a9a3-4376-aff3-dd6689863224"},"vehicle_type_id":"4","last_reported":1719148040,"current_range_meters":25200,"station_id":"ce4bhr92rcd13ifvqhrg","pricing_plan_id":"cebpf4jnsgd1na2vs0mg"},{"bike_id":"54635aa0-dd94-4d52-960b-2776c65c4f74","system_id":"levelo_inurba_marseille","lat":43.33026,"lon":5.39042,"is_reserved":false,"is_disabled":false,"rental_uris":{"android":"levelo://app?vid=54635aa0-dd94-4d52-960b-2776c65c4f74","ios":"levelo://app?vid=54635aa0-dd94-4d52-960b-2776c65c4f74"},"vehicle_type_id":"4","last_reported":1719148040,"current_range_meters":2800,"station_id":"ce4bhr92rcd13ifvqhrg","pricing_plan_id":"cebpf4jnsgd1na2vs0mg"},{"bike_id":"9d1ba484-7e6b-4fd5-95f2-c9e684cd0558","system_id":"levelo_inurba_marseille","lat":43.2901,"lon":5.381269,"is_reserved":false,"is_disabled":false,"rental_uris":{"android":"levelo://app?vid=9d1ba484-7e6b-4fd5-95f2-c9e684cd0558","ios":"levelo://app?vid=9d1ba484-7e6b-4fd5-95f2-c9e684cd0558"},"vehicle_type_id":"4","last_reported":1719148040,"current_range_meters":0,"station_id":"ce4bh4p2rcd13ifvqe1g","pricing_plan_id":"cebpf4jnsgd1na2vs0mg"},{"bike_id":"05092e03-5cef-41c3-9575-df5db7507ebd","system_id":"levelo_inurba_marseille","lat":43.33739,"lon":5.37464,"is_reserved":false,"is_disabled":false,"rental_uris":{"android":"levelo://app?vid=05092e03-5cef-41c3-9575-df5db7507ebd","ios":"levelo://app?vid=05092e03-5cef-41c3-9575-df5db7507ebd"},"vehicle_type_id":"4","last_reported":1719148040,"current_range_meters":15600,"station_id":"","pricing_plan_id":"cebpf4jnsgd1na2vs0mg"},{"bike_id":"a00c218c-138a-4388-aca4-2952a6961815","system_id":"levelo_inurba_marseille","lat":43.337479,"lon":5.37488,"is_reserved":false,"is_disabled":false,"rental_uris":{"android":"levelo://app?vid=a00c218c-138a-4388-aca4-2952a6961815","ios":"levelo://app?vid=a00c218c-138a-4388-aca4-2952a6961815"},"vehicle_type_id":"4","last_reported":1719148040,"current_range_meters":29600,"station_id":"","pricing_plan_id":"cebpf4jnsgd1na2vs0mg"},{"bike_id":"5b5cae36-09e1-4bd0-aeb4-83d37c064d16","system_id":"levelo_inurba_marseille","lat":43.33758,"lon":5.37433,"is_reserved":false,"is_disabled":false,"rental_uris":{"android":"levelo://app?vid=5b5cae36-09e1-4bd0-aeb4-83d37c064d16","ios":"levelo://app?vid=5b5cae36-09e1-4bd0-aeb4-83d37c064d16"},"vehicle_type_id":"4","last_reported":1719148040,"current_range_meters":18400,"station_id":"","pricing_plan_id":"cebpf4jnsgd1na2vs0mg"},{"bike_id":"0e11bbab-a5d9-4098-a6f1-624d89f27c59","system_id":"levelo_inurba_marseille","lat":43.337572,"lon":5.374546,"is_reserved":false,"is_disabled":false,"rental_uris":{"android":"levelo://app?vid=0e11bbab-a5d9-4098-a6f1-624d89f27c59","ios":"levelo://app?vid=0e11bbab-a5d9-4098-a6f1-624d89f27c59"},"vehicle_type_id":"4","last_reported":1719148040,"current_range_meters":20400,"station_id":"","pricing_plan_id":"cebpf4jnsgd1na2vs0mg"},{"bike_id":"db534928-e6a2-47cc-a852-558fe66ed50c","system_id":"levelo_inurba_marseille","lat":43.337583,"lon":5.374633,"is_reserved":false,"is_disabled":false,"rental_uris":{"android":"levelo://app?vid=db534928-e6a2-47cc-a852-558fe66ed50c","ios":"levelo://app?vid=db534928-e6a2-47cc-a852-558fe66ed50c"},"vehicle_type_id":"4","last_reported":1719148040,"current_range_meters":18800,"station_id":"","pricing_plan_id":"cebpf4jnsgd1na2vs0mg"},{"bike_id":"e7be790b-07e4-40f3-b60f-da683b157943","system_id":"levelo_inurba_marseille","lat":43.33033,"lon":5.39238,"is_reserved":false,"is_disabled":false,"rental_uris":{"android":"levelo://app?vid=e7be790b-07e4-40f3-b60f-da683b157943","ios":"levelo://app?vid=e7be790b-07e4-40f3-b60f-da683b157943"},"vehicle_type_id":"4","last_reported":1719148040,"current_range_meters":15200,"station_id":"","pricing_plan_id":"cebpf4jnsgd1na2vs0mg"},{"bike_id":"a77bf3f1-dc55-4e35-8fe0-6292cee970ef","system_id":"levelo_inurba_marseille","lat":43.33035,"lon":5.39239,"is_reserved":false,"is_disabled":false,"rental_uris":{"android":"levelo://app?vid=a77bf3f1-dc55-4e35-8fe0-6292cee970ef","ios":"levelo://app?vid=a77bf3f1-dc55-4e35-8fe0-6292cee970ef"},"vehicle_type_id":"4","last_reported":1719148040,"current_range_meters":17600,"station_id":"","pricing_plan_id":"cebpf4jnsgd1na2vs0mg"},{"bike_id":"46b41374-61f9-4c3f-b67e-bb1e1d19e123","system_id":"levelo_inurba_marseille","lat":43.28727,"lon":5.36078,"is_reserved":false,"is_disabled":false,"rental_uris":{"android":"levelo://app?vid=46b41374-61f9-4c3f-b67e-bb1e1d19e123","ios":"levelo://app?vid=46b41374-61f9-4c3f-b67e-bb1e1d19e123"},"vehicle_type_id":"4","last_reported":1719148040,"current_range_meters":0,"station_id":"cki0cbj6b192h4jlfktg","pricing_plan_id":"cebpf4jnsgd1na2vs0mg"},{"bike_id":"6658b144-abc4-4010-ae39-da79d6c6f7d6","system_id":"levelo_inurba_marseille","lat":43.295194,"lon":5.39397,"is_reserved":false,"is_disabled":false,"rental_uris":{"android":"levelo://app?vid=6658b144-abc4-4010-ae39-da79d6c6f7d6","ios":"levelo://app?vid=6658b144-abc4-4010-ae39-da79d6c6f7d6"},"vehicle_type_id":"4","last_reported":1719148040,"current_range_meters":0,"station_id":"ce4bh292rcd13ifvqdf0","pricing_plan_id":"cebpf4jnsgd1na2vs0mg"},{"bike_id":"a8e39418-4e01-43d4-b660-9dc456b53e7a","system_id":"levelo_inurba_marseille","lat":43.295196,"lon":5.39397,"is_reserved":false,"is_disabled":false,"rental_uris":{"android":"levelo://app?vid=a8e39418-4e01-43d4-b660-9dc456b53e7a","ios":"levelo://app?vid=a8e39418-4e01-43d4-b660-9dc456b53e7a"},"vehicle_type_id":"4","last_reported":1719148040,"current_range_meters":12400,"station_id":"ce4bh292rcd13ifvqdf0","pricing_plan_id":"cebpf4jnsgd1na2vs0mg"},{"bike_id":"ee7a2530-9794-4ad5-87fe-58f8c955eaa0","system_id":"levelo_inurba_marseille","lat":43.287185,"lon":5.379373,"is_reserved":false,"is_disabled":false,"rental_uris":{"android":"levelo://app?vid=ee7a2530-9794-4ad5-87fe-58f8c955eaa0","ios":"levelo://app?vid=ee7a2530-9794-4ad5-87fe-58f8c955eaa0"},"vehicle_type_id":"4","last_reported":1719148040,"current_range_meters":24800,"station_id":"ce4bh9p2rcd13ifvqec0","pricing_plan_id":"cebpf4jnsgd1na2vs0mg"},{"bike_id":"a3f907bb-faf4-4f51-b72e-a602ae95dbea","system_id":"levelo_inurba_marseille","lat":43.284538,"lon":5.358657,"is_reserved":false,"is_disabled":false,"rental_uris":{"android":"levelo://app?vid=a3f907bb-faf4-4f51-b72e-a602ae95dbea","ios":"levelo://app?vid=a3f907bb-faf4-4f51-b72e-a602ae95dbea"},"vehicle_type_id":"4","last_reported":1719148040,"current_range_meters":12400,"station_id":"ce4bhah2rcd13ifvqei0","pricing_plan_id":"cebpf4jnsgd1na2vs0mg"},{"bike_id":"245373f3-eea1-4b73-aa59-3073829f75b4","system_id":"levelo_inurba_marseille","lat":43.284538,"lon":5.358657,"is_reserved":false,"is_disabled":false,"rental_uris":{"android":"levelo://app?vid=245373f3-eea1-4b73-aa59-3073829f75b4","ios":"levelo://app?vid=245373f3-eea1-4b73-aa59-3073829f75b4"},"vehicle_type_id":"4","last_reported":1719148040,"current_range_meters":18800,"station_id":"ce4bhah2rcd13ifvqei0","pricing_plan_id":"cebpf4jnsgd1na2vs0mg"},{"bike_id":"40b6956e-b338-404f-b3fa-0016bf507355","system_id":"levelo_inurba_marseille","lat":43.285856,"lon":5.350771,"is_reserved":false,"is_disabled":false,"rental_uris":{"android":"levelo://app?vid=40b6956e-b338-404f-b3fa-0016bf507355","ios":"levelo://app?vid=40b6956e-b338-404f-b3fa-0016bf507355"},"vehicle_type_id":"4","last_reported":1719148040,"current_range_meters":25600,"station_id":"ce4bhch2rcd13ifvqeug","pricing_plan_id":"cebpf4jnsgd1na2vs0mg"},{"bike_id":"74a3511d-73f9-41df-a4cc-7feafc6b7805","system_id":"levelo_inurba_marseille","lat":43.285856,"lon":5.350771,"is_reserved":false,"is_disabled":false,"rental_uris":{"android":"levelo://app?vid=74a3511d-73f9-41df-a4cc-7feafc6b7805","ios":"levelo://app?vid=74a3511d-73f9-41df-a4cc-7feafc6b7805"},"vehicle_type_id":"4","last_reported":1719148040,"current_range_meters":0,"station_id":"ce4bhch2rcd13ifvqeug","pricing_plan_id":"cebpf4jnsgd1na2vs0mg"},{"bike_id":"18fc7cfb-d728-4afe-bd19-635dc362a979","system_id":"levelo_inurba_marseille","lat":43.28615,"lon":5.35103,"is_reserved":false,"is_disabled":false,"rental_uris":{"android":"levelo://app?vid=18fc7cfb-d728-4afe-bd19-635dc362a979","ios":"levelo://app?vid=18fc7cfb-d728-4afe-bd19-635dc362a979"},"vehicle_type_id":"4","last_reported":1719148040,"current_range_meters":0,"station_id":"ce4bhch2rcd13ifvqeug","pricing_plan_id":"cebpf4jnsgd1na2vs0mg"},{"bike_id":"9cc52f55-ca36-4eac-ab25-fa1843d80602","system_id":"levelo_inurba_marseille","lat":43.283998,"lon":5.375062,"is_reserved":false,"is_disabled":false,"rental_uris":{"android":"levelo://app?vid=9cc52f55-ca36-4eac-ab25-fa1843d80602","ios":"levelo://app?vid=9cc52f55-ca36-4eac-ab25-fa1843d80602"},"vehicle_type_id":"4","last_reported":1719148040,"current_range_meters":24400,"station_id":"ce4bh412rcd13ifvqds0","pricing_plan_id":"cebpf4jnsgd1na2vs0mg"},{"bike_id":"b4a4a92d-e364-454c-b527-d9a1565f3857","system_id":"levelo_inurba_marseille","lat":43.337168,"lon":5.391825,"is_reserved":false,"is_disabled":false,"rental_uris":{"android":"levelo://app?vid=b4a4a92d-e364-454c-b527-d9a1565f3857","ios":"levelo://app?vid=b4a4a92d-e364-454c-b527-d9a1565f3857"},"vehicle_type_id":"4","last_reported":1719148040,"current_range_meters":4800,"station_id":"ce4bhr92rcd13ifvqhsg","pricing_plan_id":"cebpf4jnsgd1na2vs0mg"},{"bike_id":"26039db4-1ecb-45e5-8ded-9aa34b0dc996","system_id":"levelo_inurba_marseille","lat":43.337168,"lon":5.391825,"is_reserved":false,"is_disabled":false,"rental_uris":{"android":"levelo://app?vid=26039db4-1ecb-45e5-8ded-9aa34b0dc996","ios":"levelo://app?vid=26039db4-1ecb-45e5-8ded-9aa34b0dc996"},"vehicle_type_id":"4","last_reported":1719148040,"current_range_meters":31200,"station_id":"ce4bhr92rcd13ifvqhsg","pricing_plan_id":"cebpf4jnsgd1na2vs0mg"},{"bike_id":"3720418d-da95-43ab-883e-5ec4534758a0","system_id":"levelo_inurba_marseille","lat":43.337168,"lon":5.391825,"is_reserved":false,"is_disabled":false,"rental_uris":{"android":"levelo://app?vid=3720418d-da95-43ab-883e-5ec4534758a0","ios":"levelo://app?vid=3720418d-da95-43ab-883e-5ec4534758a0"},"vehicle_type_id":"4","last_reported":1719148040,"current_range_meters":11600,"station_id":"ce4bhr92rcd13ifvqhsg","pricing_plan_id":"cebpf4jnsgd1na2vs0mg"},{"bike_id":"f3afbcfa-fef5-4566-b335-b95d65d96a32","system_id":"levelo_inurba_marseille","lat":43.337252,"lon":5.391814,"is_reserved":false,"is_disabled":false,"rental_uris":{"android":"levelo://app?vid=f3afbcfa-fef5-4566-b335-b95d65d96a32","ios":"levelo://app?vid=f3afbcfa-fef5-4566-b335-b95d65d96a32"},"vehicle_type_id":"4","last_reported":1719148040,"current_range_meters":0,"station_id":"ce4bhr92rcd13ifvqhsg","pricing_plan_id":"cebpf4jnsgd1na2vs0mg"},{"bike_id":"2f372673-34b6-4d76-8bf4-1257331c3399","system_id":"levelo_inurba_marseille","lat":43.32349,"lon":5.40619,"is_reserved":false,"is_disabled":false,"rental_uris":{"android":"levelo://app?vid=2f372673-34b6-4d76-8bf4-1257331c3399","ios":"levelo://app?vid=2f372673-34b6-4d76-8bf4-1257331c3399"},"vehicle_type_id":"4","last_reported":1719148040,"current_range_meters":0,"station_id":"ce4bhq92rcd13ifvqhjg","pricing_plan_id":"cebpf4jnsgd1na2vs0mg"},{"bike_id":"8e5cd603-3547-40e4-ba0c-c0ac08e4c9d9","system_id":"levelo_inurba_marseille","lat":43.32349,"lon":5.4062,"is_reserved":false,"is_disabled":false,"rental_uris":{"android":"levelo://app?vid=8e5cd603-3547-40e4-ba0c-c0ac08e4c9d9","ios":"levelo://app?vid=8e5cd603-3547-40e4-ba0c-c0ac08e4c9d9"},"vehicle_type_id":"4","last_reported":1719148040,"current_range_meters":10000,"station_id":"ce4bhq92rcd13ifvqhjg","pricing_plan_id":"cebpf4jnsgd1na2vs0mg"},{"bike_id":"2a4998ae-7649-424c-be86-10f0b95eac6c","system_id":"levelo_inurba_marseille","lat":43.28481,"lon":5.349969,"is_reserved":false,"is_disabled":false,"rental_uris":{"android":"levelo://app?vid=2a4998ae-7649-424c-be86-10f0b95eac6c","ios":"levelo://app?vid=2a4998ae-7649-424c-be86-10f0b95eac6c"},"vehicle_type_id":"4","last_reported":1719148040,"current_range_meters":0,"station_id":"","pricing_plan_id":"cebpf4jnsgd1na2vs0mg"},{"bike_id":"ce7a878f-1ecd-4a5f-82fa-83e18b63015a","system_id":"levelo_inurba_marseille","lat":43.288497,"lon":5.393089,"is_reserved":false,"is_disabled":false,"rental_uris":{"android":"levelo://app?vid=ce7a878f-1ecd-4a5f-82fa-83e18b63015a","ios":"levelo://app?vid=ce7a878f-1ecd-4a5f-82fa-83e18b63015a"},"vehicle_type_id":"4","last_reported":1719148040,"current_range_meters":24000,"station_id":"ce4bh2p2rcd13ifvqdi0","pricing_plan_id":"cebpf4jnsgd1na2vs0mg"},{"bike_id":"acfd03de-4c10-4ae8-aefc-6a0326ce4a55","system_id":"levelo_inurba_marseille","lat":43.283494,"lon":5.380945,"is_reserved":false,"is_disabled":false,"rental_uris":{"android":"levelo://app?vid=acfd03de-4c10-4ae8-aefc-6a0326ce4a55","ios":"levelo://app?vid=acfd03de-4c10-4ae8-aefc-6a0326ce4a55"},"vehicle_type_id":"4","last_reported":1719148040,"current_range_meters":20400,"station_id":"ce4bh412rcd13ifvqdr0","pricing_plan_id":"cebpf4jnsgd1na2vs0mg"},{"bike_id":"653ba488-8537-4dcd-b45d-040182b043a9","system_id":"levelo_inurba_marseille","lat":43.2843,"lon":5.34996,"is_reserved":false,"is_disabled":false,"rental_uris":{"android":"levelo://app?vid=653ba488-8537-4dcd-b45d-040182b043a9","ios":"levelo://app?vid=653ba488-8537-4dcd-b45d-040182b043a9"},"vehicle_type_id":"4","last_reported":1719148040,"current_range_meters":31200,"station_id":"ce4bhbh2rcd13ifvqepg","pricing_plan_id":"cebpf4jnsgd1na2vs0mg"},{"bike_id":"9a3b38d2-e258-4431-9e64-3806520cfeb1","system_id":"levelo_inurba_marseille","lat":43.28424,"lon":5.34987,"is_reserved":false,"is_disabled":false,"rental_uris":{"android":"levelo://app?vid=9a3b38d2-e258-4431-9e64-3806520cfeb1","ios":"levelo://app?vid=9a3b38d2-e258-4431-9e64-3806520cfeb1"},"vehicle_type_id":"4","last_reported":1719148040,"current_range_meters":26000,"station_id":"ce4bhbh2rcd13ifvqepg","pricing_plan_id":"cebpf4jnsgd1na2vs0mg"},{"bike_id":"9deaf663-f83a-40c0-88b9-45376bf5cd72","system_id":"levelo_inurba_marseille","lat":43.284225,"lon":5.349895,"is_reserved":false,"is_disabled":false,"rental_uris":{"android":"levelo://app?vid=9deaf663-f83a-40c0-88b9-45376bf5cd72","ios":"levelo://app?vid=9deaf663-f83a-40c0-88b9-45376bf5cd72"},"vehicle_type_id":"4","last_reported":1719148040,"current_range_meters":20800,"station_id":"ce4bhbh2rcd13ifvqepg","pricing_plan_id":"cebpf4jnsgd1na2vs0mg"},{"bike_id":"4a07e63a-1fdb-48d5-8675-eb51b34185e6","system_id":"levelo_inurba_marseille","lat":43.284219,"lon":5.3497,"is_reserved":false,"is_disabled":false,"rental_uris":{"android":"levelo://app?vid=4a07e63a-1fdb-48d5-8675-eb51b34185e6","ios":"levelo://app?vid=4a07e63a-1fdb-48d5-8675-eb51b34185e6"},"vehicle_type_id":"4","last_reported":1719148040,"current_range_meters":28000,"station_id":"ce4bhbh2rcd13ifvqepg","pricing_plan_id":"cebpf4jnsgd1na2vs0mg"},{"bike_id":"3a0d0980-fb5d-4d32-b92c-d91bf0423260","system_id":"levelo_inurba_marseille","lat":43.28423,"lon":5.34983,"is_reserved":false,"is_disabled":false,"rental_uris":{"android":"levelo://app?vid=3a0d0980-fb5d-4d32-b92c-d91bf0423260","ios":"levelo://app?vid=3a0d0980-fb5d-4d32-b92c-d91bf0423260"},"vehicle_type_id":"4","last_reported":1719148040,"current_range_meters":17600,"station_id":"ce4bhbh2rcd13ifvqepg","pricing_plan_id":"cebpf4jnsgd1na2vs0mg"},{"bike_id":"dc2d463f-1b27-4101-b4a9-3d5ab9dc7d10","system_id":"levelo_inurba_marseille","lat":43.284214,"lon":5.349706,"is_reserved":false,"is_disabled":false,"rental_uris":{"android":"levelo://app?vid=dc2d463f-1b27-4101-b4a9-3d5ab9dc7d10","ios":"levelo://app?vid=dc2d463f-1b27-4101-b4a9-3d5ab9dc7d10"},"vehicle_type_id":"4","last_reported":1719148040,"current_range_meters":30000,"station_id":"ce4bhbh2rcd13ifvqepg","pricing_plan_id":"cebpf4jnsgd1na2vs0mg"},{"bike_id":"4031632d-8c38-476f-bb4d-7b07422fbae7","system_id":"levelo_inurba_marseille","lat":43.28419,"lon":5.34983,"is_reserved":false,"is_disabled":false,"rental_uris":{"android":"levelo://app?vid=4031632d-8c38-476f-bb4d-7b07422fbae7","ios":"levelo://app?vid=4031632d-8c38-476f-bb4d-7b07422fbae7"},"vehicle_type_id":"4","last_reported":1719148040,"current_range_meters":20800,"station_id":"ce4bhbh2rcd13ifvqepg","pricing_plan_id":"cebpf4jnsgd1na2vs0mg"},{"bike_id":"cab5bfe5-7543-4f7b-b301-be81bb3dfa09","system_id":"levelo_inurba_marseille","lat":43.28418,"lon":5.34985,"is_reserved":false,"is_disabled":false,"rental_uris":{"android":"levelo://app?vid=cab5bfe5-7543-4f7b-b301-be81bb3dfa09","ios":"levelo://app?vid=cab5bfe5-7543-4f7b-b301-be81bb3dfa09"},"vehicle_type_id":"4","last_reported":1719148040,"current_range_meters":0,"station_id":"ce4bhbh2rcd13ifvqepg","pricing_plan_id":"cebpf4jnsgd1na2vs0mg"},{"bike_id":"c320cd45-492c-4cf8-982a-e946d37b3e21","system_id":"levelo_inurba_marseille","lat":43.284197,"lon":5.349796,"is_reserved":false,"is_disabled":false,"rental_uris":{"android":"levelo://app?vid=c320cd45-492c-4cf8-982a-e946d37b3e21","ios":"levelo://app?vid=c320cd45-492c-4cf8-982a-e946d37b3e21"},"vehicle_type_id":"4","last_reported":1719148040,"current_range_meters":4400,"station_id":"ce4bhbh2rcd13ifvqepg","pricing_plan_id":"cebpf4jnsgd1na2vs0mg"},{"bike_id":"55cb7f88-30e8-4ff5-ab54-a1c24b499c04","system_id":"levelo_inurba_marseille","lat":43.28414,"lon":5.34997,"is_reserved":false,"is_disabled":false,"rental_uris":{"android":"levelo://app?vid=55cb7f88-30e8-4ff5-ab54-a1c24b499c04","ios":"levelo://app?vid=55cb7f88-30e8-4ff5-ab54-a1c24b499c04"},"vehicle_type_id":"4","last_reported":1719148040,"current_range_meters":13200,"station_id":"ce4bhbh2rcd13ifvqepg","pricing_plan_id":"cebpf4jnsgd1na2vs0mg"},{"bike_id":"25e2f04f-a9d9-4072-a89e-5a5df7771d0e","system_id":"levelo_inurba_marseille","lat":43.28418,"lon":5.34984,"is_reserved":false,"is_disabled":false,"rental_uris":{"android":"levelo://app?vid=25e2f04f-a9d9-4072-a89e-5a5df7771d0e","ios":"levelo://app?vid=25e2f04f-a9d9-4072-a89e-5a5df7771d0e"},"vehicle_type_id":"4","last_reported":1719148040,"current_range_meters":21200,"station_id":"ce4bhbh2rcd13ifvqepg","pricing_plan_id":"cebpf4jnsgd1na2vs0mg"},{"bike_id":"d93f52e9-f3d4-4524-811d-8d86437e5038","system_id":"levelo_inurba_marseille","lat":43.284189,"lon":5.349787,"is_reserved":false,"is_disabled":false,"rental_uris":{"android":"levelo://app?vid=d93f52e9-f3d4-4524-811d-8d86437e5038","ios":"levelo://app?vid=d93f52e9-f3d4-4524-811d-8d86437e5038"},"vehicle_type_id":"4","last_reported":1719148040,"current_range_meters":23600,"station_id":"ce4bhbh2rcd13ifvqepg","pricing_plan_id":"cebpf4jnsgd1na2vs0mg"},{"bike_id":"89d2d7b2-ec79-4f98-a943-34670f05e315","system_id":"levelo_inurba_marseille","lat":43.284219,"lon":5.3497,"is_reserved":false,"is_disabled":false,"rental_uris":{"android":"levelo://app?vid=89d2d7b2-ec79-4f98-a943-34670f05e315","ios":"levelo://app?vid=89d2d7b2-ec79-4f98-a943-34670f05e315"},"vehicle_type_id":"4","last_reported":1719148040,"current_range_meters":9600,"station_id":"ce4bhbh2rcd13ifvqepg","pricing_plan_id":"cebpf4jnsgd1na2vs0mg"},{"bike_id":"7d519584-725d-4c17-b282-9a9dc3533303","system_id":"levelo_inurba_marseille","lat":43.284154,"lon":5.349834,"is_reserved":false,"is_disabled":false,"rental_uris":{"android":"levelo://app?vid=7d519584-725d-4c17-b282-9a9dc3533303","ios":"levelo://app?vid=7d519584-725d-4c17-b282-9a9dc3533303"},"vehicle_type_id":"4","last_reported":1719148040,"current_range_meters":31200,"station_id":"ce4bhbh2rcd13ifvqepg","pricing_plan_id":"cebpf4jnsgd1na2vs0mg"},{"bike_id":"58892bc2-ba2f-46a2-8784-1d24676337eb","system_id":"levelo_inurba_marseille","lat":43.28415,"lon":5.34983,"is_reserved":false,"is_disabled":false,"rental_uris":{"android":"levelo://app?vid=58892bc2-ba2f-46a2-8784-1d24676337eb","ios":"levelo://app?vid=58892bc2-ba2f-46a2-8784-1d24676337eb"},"vehicle_type_id":"4","last_reported":1719148040,"current_range_meters":18800,"station_id":"ce4bhbh2rcd13ifvqepg","pricing_plan_id":"cebpf4jnsgd1na2vs0mg"},{"bike_id":"eb8ff7e1-d8bf-4791-9a7b-41d06db91e15","system_id":"levelo_inurba_marseille","lat":43.28417,"lon":5.34975,"is_reserved":false,"is_disabled":false,"rental_uris":{"android":"levelo://app?vid=eb8ff7e1-d8bf-4791-9a7b-41d06db91e15","ios":"levelo://app?vid=eb8ff7e1-d8bf-4791-9a7b-41d06db91e15"},"vehicle_type_id":"4","last_reported":1719148040,"current_range_meters":10000,"station_id":"ce4bhbh2rcd13ifvqepg","pricing_plan_id":"cebpf4jnsgd1na2vs0mg"},{"bike_id":"82dda6ec-3543-4db2-9718-8c6cf6890bdc","system_id":"levelo_inurba_marseille","lat":43.284151,"lon":5.349789,"is_reserved":false,"is_disabled":false,"rental_uris":{"android":"levelo://app?vid=82dda6ec-3543-4db2-9718-8c6cf6890bdc","ios":"levelo://app?vid=82dda6ec-3543-4db2-9718-8c6cf6890bdc"},"vehicle_type_id":"4","last_reported":1719148040,"current_range_meters":8000,"station_id":"ce4bhbh2rcd13ifvqepg","pricing_plan_id":"cebpf4jnsgd1na2vs0mg"},{"bike_id":"7b3820c1-f985-4dac-b23d-e6080bff60a0","system_id":"levelo_inurba_marseille","lat":43.28416,"lon":5.3497,"is_reserved":false,"is_disabled":false,"rental_uris":{"android":"levelo://app?vid=7b3820c1-f985-4dac-b23d-e6080bff60a0","ios":"levelo://app?vid=7b3820c1-f985-4dac-b23d-e6080bff60a0"},"vehicle_type_id":"4","last_reported":1719148040,"current_range_meters":27200,"station_id":"ce4bhbh2rcd13ifvqepg","pricing_plan_id":"cebpf4jnsgd1na2vs0mg"},{"bike_id":"73bc9445-60cc-4897-b6f4-35c9564e423f","system_id":"levelo_inurba_marseille","lat":43.28412,"lon":5.3498,"is_reserved":false,"is_disabled":false,"rental_uris":{"android":"levelo://app?vid=73bc9445-60cc-4897-b6f4-35c9564e423f","ios":"levelo://app?vid=73bc9445-60cc-4897-b6f4-35c9564e423f"},"vehicle_type_id":"4","last_reported":1719148040,"current_range_meters":0,"station_id":"ce4bhbh2rcd13ifvqepg","pricing_plan_id":"cebpf4jnsgd1na2vs0mg"},{"bike_id":"37fa4943-6d87-48b0-8a40-786644f56f1c","system_id":"levelo_inurba_marseille","lat":43.28416,"lon":5.34965,"is_reserved":false,"is_disabled":false,"rental_uris":{"android":"levelo://app?vid=37fa4943-6d87-48b0-8a40-786644f56f1c","ios":"levelo://app?vid=37fa4943-6d87-48b0-8a40-786644f56f1c"},"vehicle_type_id":"4","last_reported":1719148040,"current_range_meters":31200,"station_id":"ce4bhbh2rcd13ifvqepg","pricing_plan_id":"cebpf4jnsgd1na2vs0mg"},{"bike_id":"cc682662-7c71-4cda-ac92-b1f3ddeb9387","system_id":"levelo_inurba_marseille","lat":43.28414,"lon":5.3497,"is_reserved":false,"is_disabled":false,"rental_uris":{"android":"levelo://app?vid=cc682662-7c71-4cda-ac92-b1f3ddeb9387","ios":"levelo://app?vid=cc682662-7c71-4cda-ac92-b1f3ddeb9387"},"vehicle_type_id":"4","last_reported":1719148040,"current_range_meters":16400,"station_id":"ce4bhbh2rcd13ifvqepg","pricing_plan_id":"cebpf4jnsgd1na2vs0mg"},{"bike_id":"85a7aa0c-a71a-4254-9918-b7497f342de7","system_id":"levelo_inurba_marseille","lat":43.284129,"lon":5.349731,"is_reserved":false,"is_disabled":false,"rental_uris":{"android":"levelo://app?vid=85a7aa0c-a71a-4254-9918-b7497f342de7","ios":"levelo://app?vid=85a7aa0c-a71a-4254-9918-b7497f342de7"},"vehicle_type_id":"4","last_reported":1719148040,"current_range_meters":21600,"station_id":"ce4bhbh2rcd13ifvqepg","pricing_plan_id":"cebpf4jnsgd1na2vs0mg"},{"bike_id":"7e8affc1-d43b-44e1-85e5-c26242b1e511","system_id":"levelo_inurba_marseille","lat":43.28408,"lon":5.34986,"is_reserved":false,"is_disabled":false,"rental_uris":{"android":"levelo://app?vid=7e8affc1-d43b-44e1-85e5-c26242b1e511","ios":"levelo://app?vid=7e8affc1-d43b-44e1-85e5-c26242b1e511"},"vehicle_type_id":"4","last_reported":1719148040,"current_range_meters":29200,"station_id":"ce4bhbh2rcd13ifvqepg","pricing_plan_id":"cebpf4jnsgd1na2vs0mg"},{"bike_id":"63fe2fdb-d1d9-4f90-86b8-d24895b78341","system_id":"levelo_inurba_marseille","lat":43.28408,"lon":5.34981,"is_reserved":false,"is_disabled":false,"rental_uris":{"android":"levelo://app?vid=63fe2fdb-d1d9-4f90-86b8-d24895b78341","ios":"levelo://app?vid=63fe2fdb-d1d9-4f90-86b8-d24895b78341"},"vehicle_type_id":"4","last_reported":1719148040,"current_range_meters":31200,"station_id":"ce4bhbh2rcd13ifvqepg","pricing_plan_id":"cebpf4jnsgd1na2vs0mg"},{"bike_id":"536e1e48-22b6-491e-8df2-360b2e9dcc52","system_id":"levelo_inurba_marseille","lat":43.284073,"lon":5.349777,"is_reserved":false,"is_disabled":false,"rental_uris":{"android":"levelo://app?vid=536e1e48-22b6-491e-8df2-360b2e9dcc52","ios":"levelo://app?vid=536e1e48-22b6-491e-8df2-360b2e9dcc52"},"vehicle_type_id":"4","last_reported":1719148040,"current_range_meters":31200,"station_id":"ce4bhbh2rcd13ifvqepg","pricing_plan_id":"cebpf4jnsgd1na2vs0mg"},{"bike_id":"2f0641af-51a6-4b81-ad65-0eebab1cc0b7","system_id":"levelo_inurba_marseille","lat":43.28403,"lon":5.34985,"is_reserved":false,"is_disabled":false,"rental_uris":{"android":"levelo://app?vid=2f0641af-51a6-4b81-ad65-0eebab1cc0b7","ios":"levelo://app?vid=2f0641af-51a6-4b81-ad65-0eebab1cc0b7"},"vehicle_type_id":"4","last_reported":1719148040,"current_range_meters":15200,"station_id":"ce4bhbh2rcd13ifvqepg","pricing_plan_id":"cebpf4jnsgd1na2vs0mg"},{"bike_id":"14a60dce-da4f-4a99-b5dd-9dc69662c6ac","system_id":"levelo_inurba_marseille","lat":43.282744,"lon":5.350533,"is_reserved":false,"is_disabled":false,"rental_uris":{"android":"levelo://app?vid=14a60dce-da4f-4a99-b5dd-9dc69662c6ac","ios":"levelo://app?vid=14a60dce-da4f-4a99-b5dd-9dc69662c6ac"},"vehicle_type_id":"4","last_reported":1719148040,"current_range_meters":21200,"station_id":"ce4bhbp2rcd13ifvqerg","pricing_plan_id":"cebpf4jnsgd1na2vs0mg"},{"bike_id":"4fd4fdd8-95a8-40e9-bba6-3952051b9aa2","system_id":"levelo_inurba_marseille","lat":43.282784,"lon":5.35071,"is_reserved":false,"is_disabled":false,"rental_uris":{"android":"levelo://app?vid=4fd4fdd8-95a8-40e9-bba6-3952051b9aa2","ios":"levelo://app?vid=4fd4fdd8-95a8-40e9-bba6-3952051b9aa2"},"vehicle_type_id":"4","last_reported":1719148040,"current_range_meters":27600,"station_id":"ce4bhbp2rcd13ifvqerg","pricing_plan_id":"cebpf4jnsgd1na2vs0mg"},{"bike_id":"0a1468a8-fb6d-44a3-95b8-3f474196506d","system_id":"levelo_inurba_marseille","lat":43.282754,"lon":5.350519,"is_reserved":false,"is_disabled":false,"rental_uris":{"android":"levelo://app?vid=0a1468a8-fb6d-44a3-95b8-3f474196506d","ios":"levelo://app?vid=0a1468a8-fb6d-44a3-95b8-3f474196506d"},"vehicle_type_id":"4","last_reported":1719148040,"current_range_meters":1600,"station_id":"ce4bhbp2rcd13ifvqerg","pricing_plan_id":"cebpf4jnsgd1na2vs0mg"},{"bike_id":"13211793-38b2-4133-b816-3bce84ef663d","system_id":"levelo_inurba_marseille","lat":43.28273,"lon":5.35076,"is_reserved":false,"is_disabled":false,"rental_uris":{"android":"levelo://app?vid=13211793-38b2-4133-b816-3bce84ef663d","ios":"levelo://app?vid=13211793-38b2-4133-b816-3bce84ef663d"},"vehicle_type_id":"4","last_reported":1719148040,"current_range_meters":2000,"station_id":"","pricing_plan_id":"cebpf4jnsgd1na2vs0mg"},{"bike_id":"bf926465-09e9-450b-9b2a-f6788c96a878","system_id":"levelo_inurba_marseille","lat":43.282754,"lon":5.350519,"is_reserved":false,"is_disabled":false,"rental_uris":{"android":"levelo://app?vid=bf926465-09e9-450b-9b2a-f6788c96a878","ios":"levelo://app?vid=bf926465-09e9-450b-9b2a-f6788c96a878"},"vehicle_type_id":"4","last_reported":1719148040,"current_range_meters":8400,"station_id":"ce4bhbp2rcd13ifvqerg","pricing_plan_id":"cebpf4jnsgd1na2vs0mg"},{"bike_id":"a68828ae-cd8b-4c38-9bf7-4efdfd72ee01","system_id":"levelo_inurba_marseille","lat":43.2827,"lon":5.35076,"is_reserved":false,"is_disabled":false,"rental_uris":{"android":"levelo://app?vid=a68828ae-cd8b-4c38-9bf7-4efdfd72ee01","ios":"levelo://app?vid=a68828ae-cd8b-4c38-9bf7-4efdfd72ee01"},"vehicle_type_id":"4","last_reported":1719148040,"current_range_meters":27600,"station_id":"ce4bhbp2rcd13ifvqerg","pricing_plan_id":"cebpf4jnsgd1na2vs0mg"},{"bike_id":"9093ad8b-a087-40d9-ba6b-fc7ba6bc917d","system_id":"levelo_inurba_marseille","lat":43.28271,"lon":5.3507,"is_reserved":false,"is_disabled":false,"rental_uris":{"android":"levelo://app?vid=9093ad8b-a087-40d9-ba6b-fc7ba6bc917d","ios":"levelo://app?vid=9093ad8b-a087-40d9-ba6b-fc7ba6bc917d"},"vehicle_type_id":"4","last_reported":1719148040,"current_range_meters":27600,"station_id":"ce4bhbp2rcd13ifvqerg","pricing_plan_id":"cebpf4jnsgd1na2vs0mg"},{"bike_id":"c5992670-c545-4c23-9824-8d9629be40a1","system_id":"levelo_inurba_marseille","lat":43.28272,"lon":5.35066,"is_reserved":false,"is_disabled":false,"rental_uris":{"android":"levelo://app?vid=c5992670-c545-4c23-9824-8d9629be40a1","ios":"levelo://app?vid=c5992670-c545-4c23-9824-8d9629be40a1"},"vehicle_type_id":"4","last_reported":1719148040,"current_range_meters":29200,"station_id":"ce4bhbp2rcd13ifvqerg","pricing_plan_id":"cebpf4jnsgd1na2vs0mg"},{"bike_id":"346e48bb-b057-4c66-9b83-a9e7ede65b30","system_id":"levelo_inurba_marseille","lat":43.282749,"lon":5.350512,"is_reserved":false,"is_disabled":false,"rental_uris":{"android":"levelo://app?vid=346e48bb-b057-4c66-9b83-a9e7ede65b30","ios":"levelo://app?vid=346e48bb-b057-4c66-9b83-a9e7ede65b30"},"vehicle_type_id":"4","last_reported":1719148040,"current_range_meters":31200,"station_id":"ce4bhbp2rcd13ifvqerg","pricing_plan_id":"cebpf4jnsgd1na2vs0mg"},{"bike_id":"66fd68e2-b494-4a0f-86f6-0d2a8ebd64d6","system_id":"levelo_inurba_marseille","lat":43.282682,"lon":5.35068,"is_reserved":false,"is_disabled":false,"rental_uris":{"android":"levelo://app?vid=66fd68e2-b494-4a0f-86f6-0d2a8ebd64d6","ios":"levelo://app?vid=66fd68e2-b494-4a0f-86f6-0d2a8ebd64d6"},"vehicle_type_id":"4","last_reported":1719148040,"current_range_meters":400,"station_id":"ce4bhbp2rcd13ifvqerg","pricing_plan_id":"cebpf4jnsgd1na2vs0mg"},{"bike_id":"bd9b097d-4e2c-4abc-9ecc-c93687822189","system_id":"levelo_inurba_marseille","lat":43.28268,"lon":5.35068,"is_reserved":false,"is_disabled":false,"rental_uris":{"android":"levelo://app?vid=bd9b097d-4e2c-4abc-9ecc-c93687822189","ios":"levelo://app?vid=bd9b097d-4e2c-4abc-9ecc-c93687822189"},"vehicle_type_id":"4","last_reported":1719148040,"current_range_meters":31200,"station_id":"ce4bhbp2rcd13ifvqerg","pricing_plan_id":"cebpf4jnsgd1na2vs0mg"},{"bike_id":"fb4ab5de-5fe2-45b7-866f-1dbc55ec0862","system_id":"levelo_inurba_marseille","lat":43.282754,"lon":5.350519,"is_reserved":false,"is_disabled":false,"rental_uris":{"android":"levelo://app?vid=fb4ab5de-5fe2-45b7-866f-1dbc55ec0862","ios":"levelo://app?vid=fb4ab5de-5fe2-45b7-866f-1dbc55ec0862"},"vehicle_type_id":"4","last_reported":1719148040,"current_range_meters":0,"station_id":"ce4bhbp2rcd13ifvqerg","pricing_plan_id":"cebpf4jnsgd1na2vs0mg"},{"bike_id":"90429f50-a52a-4583-a01f-24b6832be7f7","system_id":"levelo_inurba_marseille","lat":43.283502,"lon":5.386471,"is_reserved":false,"is_disabled":false,"rental_uris":{"android":"levelo://app?vid=90429f50-a52a-4583-a01f-24b6832be7f7","ios":"levelo://app?vid=90429f50-a52a-4583-a01f-24b6832be7f7"},"vehicle_type_id":"4","last_reported":1719148040,"current_range_meters":0,"station_id":"ce4bh492rcd13ifvqdvg","pricing_plan_id":"cebpf4jnsgd1na2vs0mg"},{"bike_id":"3131563f-2081-4bfb-abaa-c69441f9db3d","system_id":"levelo_inurba_marseille","lat":43.2827,"lon":5.350565,"is_reserved":false,"is_disabled":false,"rental_uris":{"android":"levelo://app?vid=3131563f-2081-4bfb-abaa-c69441f9db3d","ios":"levelo://app?vid=3131563f-2081-4bfb-abaa-c69441f9db3d"},"vehicle_type_id":"4","last_reported":1719148040,"current_range_meters":27600,"station_id":"ce4bhbp2rcd13ifvqerg","pricing_plan_id":"cebpf4jnsgd1na2vs0mg"},{"bike_id":"d9e0c6dc-7b79-4b04-bd2e-1d8b70e28386","system_id":"levelo_inurba_marseille","lat":43.28269,"lon":5.35056,"is_reserved":false,"is_disabled":false,"rental_uris":{"android":"levelo://app?vid=d9e0c6dc-7b79-4b04-bd2e-1d8b70e28386","ios":"levelo://app?vid=d9e0c6dc-7b79-4b04-bd2e-1d8b70e28386"},"vehicle_type_id":"4","last_reported":1719148040,"current_range_meters":30000,"station_id":"ce4bhbp2rcd13ifvqerg","pricing_plan_id":"cebpf4jnsgd1na2vs0mg"},{"bike_id":"9ae9712b-9b62-410c-bef4-59449130d103","system_id":"levelo_inurba_marseille","lat":43.28265,"lon":5.35068,"is_reserved":false,"is_disabled":false,"rental_uris":{"android":"levelo://app?vid=9ae9712b-9b62-410c-bef4-59449130d103","ios":"levelo://app?vid=9ae9712b-9b62-410c-bef4-59449130d103"},"vehicle_type_id":"4","last_reported":1719148040,"current_range_meters":0,"station_id":"ce4bhbp2rcd13ifvqerg","pricing_plan_id":"cebpf4jnsgd1na2vs0mg"},{"bike_id":"5d4c03a2-5bad-46ed-a56e-d6ed21078679","system_id":"levelo_inurba_marseille","lat":43.282744,"lon":5.350533,"is_reserved":false,"is_disabled":false,"rental_uris":{"android":"levelo://app?vid=5d4c03a2-5bad-46ed-a56e-d6ed21078679","ios":"levelo://app?vid=5d4c03a2-5bad-46ed-a56e-d6ed21078679"},"vehicle_type_id":"4","last_reported":1719148040,"current_range_meters":26400,"station_id":"ce4bhbp2rcd13ifvqerg","pricing_plan_id":"cebpf4jnsgd1na2vs0mg"},{"bike_id":"8562d557-6d96-48c4-8856-59dbdc39a3a9","system_id":"levelo_inurba_marseille","lat":43.28267,"lon":5.35059,"is_reserved":false,"is_disabled":false,"rental_uris":{"android":"levelo://app?vid=8562d557-6d96-48c4-8856-59dbdc39a3a9","ios":"levelo://app?vid=8562d557-6d96-48c4-8856-59dbdc39a3a9"},"vehicle_type_id":"4","last_reported":1719148040,"current_range_meters":0,"station_id":"ce4bhbp2rcd13ifvqerg","pricing_plan_id":"cebpf4jnsgd1na2vs0mg"},{"bike_id":"b1793149-3a8a-4fd4-b687-8878db876a5d","system_id":"levelo_inurba_marseille","lat":43.283641,"lon":5.38631,"is_reserved":false,"is_disabled":false,"rental_uris":{"android":"levelo://app?vid=b1793149-3a8a-4fd4-b687-8878db876a5d","ios":"levelo://app?vid=b1793149-3a8a-4fd4-b687-8878db876a5d"},"vehicle_type_id":"4","last_reported":1719148040,"current_range_meters":0,"station_id":"ce4bh492rcd13ifvqdvg","pricing_plan_id":"cebpf4jnsgd1na2vs0mg"},{"bike_id":"f0cf0c33-7abe-4d99-b641-200371856330","system_id":"levelo_inurba_marseille","lat":43.282744,"lon":5.350533,"is_reserved":false,"is_disabled":false,"rental_uris":{"android":"levelo://app?vid=f0cf0c33-7abe-4d99-b641-200371856330","ios":"levelo://app?vid=f0cf0c33-7abe-4d99-b641-200371856330"},"vehicle_type_id":"4","last_reported":1719148040,"current_range_meters":6400,"station_id":"ce4bhbp2rcd13ifvqerg","pricing_plan_id":"cebpf4jnsgd1na2vs0mg"},{"bike_id":"74aca979-2c45-49c4-b65f-12cbb5033138","system_id":"levelo_inurba_marseille","lat":43.282744,"lon":5.350533,"is_reserved":false,"is_disabled":false,"rental_uris":{"android":"levelo://app?vid=74aca979-2c45-49c4-b65f-12cbb5033138","ios":"levelo://app?vid=74aca979-2c45-49c4-b65f-12cbb5033138"},"vehicle_type_id":"4","last_reported":1719148040,"current_range_meters":16400,"station_id":"ce4bhbp2rcd13ifvqerg","pricing_plan_id":"cebpf4jnsgd1na2vs0mg"},{"bike_id":"d11e7eb8-9345-490c-9e5e-f3d8d894f6f8","system_id":"levelo_inurba_marseille","lat":43.28261,"lon":5.35047,"is_reserved":false,"is_disabled":false,"rental_uris":{"android":"levelo://app?vid=d11e7eb8-9345-490c-9e5e-f3d8d894f6f8","ios":"levelo://app?vid=d11e7eb8-9345-490c-9e5e-f3d8d894f6f8"},"vehicle_type_id":"4","last_reported":1719148040,"current_range_meters":26400,"station_id":"ce4bhbp2rcd13ifvqerg","pricing_plan_id":"cebpf4jnsgd1na2vs0mg"},{"bike_id":"39a0c271-fdcd-48e2-b6ab-0ac97ed8962f","system_id":"levelo_inurba_marseille","lat":43.28258,"lon":5.35056,"is_reserved":false,"is_disabled":false,"rental_uris":{"android":"levelo://app?vid=39a0c271-fdcd-48e2-b6ab-0ac97ed8962f","ios":"levelo://app?vid=39a0c271-fdcd-48e2-b6ab-0ac97ed8962f"},"vehicle_type_id":"4","last_reported":1719148040,"current_range_meters":9200,"station_id":"ce4bhbp2rcd13ifvqerg","pricing_plan_id":"cebpf4jnsgd1na2vs0mg"},{"bike_id":"e6e30b01-3104-4a06-aba1-f849c55f3f70","system_id":"levelo_inurba_marseille","lat":43.296263,"lon":5.40601,"is_reserved":false,"is_disabled":false,"rental_uris":{"android":"levelo://app?vid=e6e30b01-3104-4a06-aba1-f849c55f3f70","ios":"levelo://app?vid=e6e30b01-3104-4a06-aba1-f849c55f3f70"},"vehicle_type_id":"4","last_reported":1719148040,"current_range_meters":2400,"station_id":"ce4bh0h2rcd13ifvqd60","pricing_plan_id":"cebpf4jnsgd1na2vs0mg"},{"bike_id":"baa7eb4c-5d50-45d7-b449-6e4d61e0054f","system_id":"levelo_inurba_marseille","lat":43.3266,"lon":5.40982,"is_reserved":false,"is_disabled":false,"rental_uris":{"android":"levelo://app?vid=baa7eb4c-5d50-45d7-b449-6e4d61e0054f","ios":"levelo://app?vid=baa7eb4c-5d50-45d7-b449-6e4d61e0054f"},"vehicle_type_id":"4","last_reported":1719148040,"current_range_meters":19200,"station_id":"ce4bhpp2rcd13ifvqhgg","pricing_plan_id":"cebpf4jnsgd1na2vs0mg"},{"bike_id":"955f928c-8778-43db-a4f1-a1bcdcf885d6","system_id":"levelo_inurba_marseille","lat":43.3266,"lon":5.40992,"is_reserved":false,"is_disabled":false,"rental_uris":{"android":"levelo://app?vid=955f928c-8778-43db-a4f1-a1bcdcf885d6","ios":"levelo://app?vid=955f928c-8778-43db-a4f1-a1bcdcf885d6"},"vehicle_type_id":"4","last_reported":1719148040,"current_range_meters":22800,"station_id":"ce4bhpp2rcd13ifvqhgg","pricing_plan_id":"cebpf4jnsgd1na2vs0mg"},{"bike_id":"f566dcaa-a0d3-458c-a9e4-88729bf72745","system_id":"levelo_inurba_marseille","lat":43.304188,"lon":5.412904,"is_reserved":false,"is_disabled":false,"rental_uris":{"android":"levelo://app?vid=f566dcaa-a0d3-458c-a9e4-88729bf72745","ios":"levelo://app?vid=f566dcaa-a0d3-458c-a9e4-88729bf72745"},"vehicle_type_id":"4","last_reported":1719148040,"current_range_meters":6400,"station_id":"ce4bhop2rcd13ifvqh8g","pricing_plan_id":"cebpf4jnsgd1na2vs0mg"},{"bike_id":"92af76a3-b74a-4996-8f52-0ed48ab6c988","system_id":"levelo_inurba_marseille","lat":43.32671,"lon":5.4102,"is_reserved":false,"is_disabled":false,"rental_uris":{"android":"levelo://app?vid=92af76a3-b74a-4996-8f52-0ed48ab6c988","ios":"levelo://app?vid=92af76a3-b74a-4996-8f52-0ed48ab6c988"},"vehicle_type_id":"4","last_reported":1719148040,"current_range_meters":24000,"station_id":"ce4bhpp2rcd13ifvqhgg","pricing_plan_id":"cebpf4jnsgd1na2vs0mg"},{"bike_id":"0f4ae3b2-34d1-4c11-bb79-466e378e1db4","system_id":"levelo_inurba_marseille","lat":43.32051,"lon":5.41548,"is_reserved":false,"is_disabled":false,"rental_uris":{"android":"levelo://app?vid=0f4ae3b2-34d1-4c11-bb79-466e378e1db4","ios":"levelo://app?vid=0f4ae3b2-34d1-4c11-bb79-466e378e1db4"},"vehicle_type_id":"4","last_reported":1719148040,"current_range_meters":0,"station_id":"ce4bhq92rcd13ifvqhkg","pricing_plan_id":"cebpf4jnsgd1na2vs0mg"},{"bike_id":"0a89c24c-80aa-421f-b9f3-ff569df3ba41","system_id":"levelo_inurba_marseille","lat":43.2762,"lon":5.36116,"is_reserved":false,"is_disabled":false,"rental_uris":{"android":"levelo://app?vid=0a89c24c-80aa-421f-b9f3-ff569df3ba41","ios":"levelo://app?vid=0a89c24c-80aa-421f-b9f3-ff569df3ba41"},"vehicle_type_id":"4","last_reported":1719148040,"current_range_meters":28000,"station_id":"ce4bgj92rcd13ifvqbe0","pricing_plan_id":"cebpf4jnsgd1na2vs0mg"},{"bike_id":"85e95abc-659a-4734-94fb-041bcc230732","system_id":"levelo_inurba_marseille","lat":43.2762,"lon":5.36111,"is_reserved":false,"is_disabled":false,"rental_uris":{"android":"levelo://app?vid=85e95abc-659a-4734-94fb-041bcc230732","ios":"levelo://app?vid=85e95abc-659a-4734-94fb-041bcc230732"},"vehicle_type_id":"4","last_reported":1719148040,"current_range_meters":21200,"station_id":"ce4bgj92rcd13ifvqbe0","pricing_plan_id":"cebpf4jnsgd1na2vs0mg"},{"bike_id":"09d81ec3-6705-46d1-bb4b-0f3649117a6c","system_id":"levelo_inurba_marseille","lat":43.276179,"lon":5.361009,"is_reserved":false,"is_disabled":false,"rental_uris":{"android":"levelo://app?vid=09d81ec3-6705-46d1-bb4b-0f3649117a6c","ios":"levelo://app?vid=09d81ec3-6705-46d1-bb4b-0f3649117a6c"},"vehicle_type_id":"4","last_reported":1719148040,"current_range_meters":13200,"station_id":"ce4bgj92rcd13ifvqbe0","pricing_plan_id":"cebpf4jnsgd1na2vs0mg"},{"bike_id":"4c23fc10-6399-4f4b-b7ce-649d8c398c75","system_id":"levelo_inurba_marseille","lat":43.27595,"lon":5.35872,"is_reserved":false,"is_disabled":false,"rental_uris":{"android":"levelo://app?vid=4c23fc10-6399-4f4b-b7ce-649d8c398c75","ios":"levelo://app?vid=4c23fc10-6399-4f4b-b7ce-649d8c398c75"},"vehicle_type_id":"4","last_reported":1719148040,"current_range_meters":4000,"station_id":"","pricing_plan_id":"cebpf4jnsgd1na2vs0mg"},{"bike_id":"397737d3-a319-43f1-8022-b7e05e968a7f","system_id":"levelo_inurba_marseille","lat":43.275684,"lon":5.360175,"is_reserved":false,"is_disabled":false,"rental_uris":{"android":"levelo://app?vid=397737d3-a319-43f1-8022-b7e05e968a7f","ios":"levelo://app?vid=397737d3-a319-43f1-8022-b7e05e968a7f"},"vehicle_type_id":"4","last_reported":1719148040,"current_range_meters":18400,"station_id":"","pricing_plan_id":"cebpf4jnsgd1na2vs0mg"},{"bike_id":"f3615187-e6f6-4d0a-9aea-ef48a3c4cd24","system_id":"levelo_inurba_marseille","lat":43.27583,"lon":5.377636,"is_reserved":false,"is_disabled":false,"rental_uris":{"android":"levelo://app?vid=f3615187-e6f6-4d0a-9aea-ef48a3c4cd24","ios":"levelo://app?vid=f3615187-e6f6-4d0a-9aea-ef48a3c4cd24"},"vehicle_type_id":"4","last_reported":1719148040,"current_range_meters":23200,"station_id":"","pricing_plan_id":"cebpf4jnsgd1na2vs0mg"},{"bike_id":"5bde39e1-b1bf-4ad4-ae34-e8bec0ddbae0","system_id":"levelo_inurba_marseille","lat":43.27384,"lon":5.36257,"is_reserved":false,"is_disabled":false,"rental_uris":{"android":"levelo://app?vid=5bde39e1-b1bf-4ad4-ae34-e8bec0ddbae0","ios":"levelo://app?vid=5bde39e1-b1bf-4ad4-ae34-e8bec0ddbae0"},"vehicle_type_id":"4","last_reported":1719148040,"current_range_meters":26000,"station_id":"ce4bhbh2rcd13ifvqeo0","pricing_plan_id":"cebpf4jnsgd1na2vs0mg"},{"bike_id":"ebcc99ac-df69-44a4-bf8a-4406bef333fb","system_id":"levelo_inurba_marseille","lat":43.275625,"lon":5.384392,"is_reserved":false,"is_disabled":false,"rental_uris":{"android":"levelo://app?vid=ebcc99ac-df69-44a4-bf8a-4406bef333fb","ios":"levelo://app?vid=ebcc99ac-df69-44a4-bf8a-4406bef333fb"},"vehicle_type_id":"4","last_reported":1719148040,"current_range_meters":14400,"station_id":"ce4bhh92rcd13ifvqfi0","pricing_plan_id":"cebpf4jnsgd1na2vs0mg"},{"bike_id":"3575a16d-9ab9-41b0-94c4-4dee4e697dc1","system_id":"levelo_inurba_marseille","lat":43.273613,"lon":5.362705,"is_reserved":false,"is_disabled":false,"rental_uris":{"android":"levelo://app?vid=3575a16d-9ab9-41b0-94c4-4dee4e697dc1","ios":"levelo://app?vid=3575a16d-9ab9-41b0-94c4-4dee4e697dc1"},"vehicle_type_id":"4","last_reported":1719148040,"current_range_meters":23200,"station_id":"ce4bhbh2rcd13ifvqeo0","pricing_plan_id":"cebpf4jnsgd1na2vs0mg"},{"bike_id":"1d73c942-2f23-413a-bee9-83cb87695bab","system_id":"levelo_inurba_marseille","lat":43.273613,"lon":5.362705,"is_reserved":false,"is_disabled":false,"rental_uris":{"android":"levelo://app?vid=1d73c942-2f23-413a-bee9-83cb87695bab","ios":"levelo://app?vid=1d73c942-2f23-413a-bee9-83cb87695bab"},"vehicle_type_id":"4","last_reported":1719148040,"current_range_meters":26400,"station_id":"ce4bhbh2rcd13ifvqeo0","pricing_plan_id":"cebpf4jnsgd1na2vs0mg"},{"bike_id":"17b96444-730c-4717-a42d-4ba07e3ee6ac","system_id":"levelo_inurba_marseille","lat":43.27379,"lon":5.36249,"is_reserved":false,"is_disabled":false,"rental_uris":{"android":"levelo://app?vid=17b96444-730c-4717-a42d-4ba07e3ee6ac","ios":"levelo://app?vid=17b96444-730c-4717-a42d-4ba07e3ee6ac"},"vehicle_type_id":"4","last_reported":1719148040,"current_range_meters":31200,"station_id":"ce4bhbh2rcd13ifvqeo0","pricing_plan_id":"cebpf4jnsgd1na2vs0mg"},{"bike_id":"6324dfe8-1222-45dd-9dcd-0be2d6956aac","system_id":"levelo_inurba_marseille","lat":43.273609,"lon":5.362708,"is_reserved":false,"is_disabled":false,"rental_uris":{"android":"levelo://app?vid=6324dfe8-1222-45dd-9dcd-0be2d6956aac","ios":"levelo://app?vid=6324dfe8-1222-45dd-9dcd-0be2d6956aac"},"vehicle_type_id":"4","last_reported":1719148040,"current_range_meters":18000,"station_id":"ce4bhbh2rcd13ifvqeo0","pricing_plan_id":"cebpf4jnsgd1na2vs0mg"},{"bike_id":"1d0486a1-2afc-43a9-91ae-e30c88380e3e","system_id":"levelo_inurba_marseille","lat":43.273613,"lon":5.362705,"is_reserved":false,"is_disabled":false,"rental_uris":{"android":"levelo://app?vid=1d0486a1-2afc-43a9-91ae-e30c88380e3e","ios":"levelo://app?vid=1d0486a1-2afc-43a9-91ae-e30c88380e3e"},"vehicle_type_id":"4","last_reported":1719148040,"current_range_meters":10000,"station_id":"ce4bhbh2rcd13ifvqeo0","pricing_plan_id":"cebpf4jnsgd1na2vs0mg"},{"bike_id":"955ce490-5ee4-4279-8976-fd9906c3f06f","system_id":"levelo_inurba_marseille","lat":43.273613,"lon":5.362705,"is_reserved":false,"is_disabled":false,"rental_uris":{"android":"levelo://app?vid=955ce490-5ee4-4279-8976-fd9906c3f06f","ios":"levelo://app?vid=955ce490-5ee4-4279-8976-fd9906c3f06f"},"vehicle_type_id":"4","last_reported":1719148040,"current_range_meters":400,"station_id":"ce4bhbh2rcd13ifvqeo0","pricing_plan_id":"cebpf4jnsgd1na2vs0mg"},{"bike_id":"0ca8db34-48ad-469c-b8e6-bec4c557e9ba","system_id":"levelo_inurba_marseille","lat":43.273609,"lon":5.362708,"is_reserved":false,"is_disabled":false,"rental_uris":{"android":"levelo://app?vid=0ca8db34-48ad-469c-b8e6-bec4c557e9ba","ios":"levelo://app?vid=0ca8db34-48ad-469c-b8e6-bec4c557e9ba"},"vehicle_type_id":"4","last_reported":1719148040,"current_range_meters":4400,"station_id":"ce4bhbh2rcd13ifvqeo0","pricing_plan_id":"cebpf4jnsgd1na2vs0mg"},{"bike_id":"30f206a6-2546-408a-a7d6-a676196bd7aa","system_id":"levelo_inurba_marseille","lat":43.273613,"lon":5.362705,"is_reserved":false,"is_disabled":false,"rental_uris":{"android":"levelo://app?vid=30f206a6-2546-408a-a7d6-a676196bd7aa","ios":"levelo://app?vid=30f206a6-2546-408a-a7d6-a676196bd7aa"},"vehicle_type_id":"4","last_reported":1719148040,"current_range_meters":19200,"station_id":"ce4bhbh2rcd13ifvqeo0","pricing_plan_id":"cebpf4jnsgd1na2vs0mg"},{"bike_id":"f96aa61e-18c5-4f34-8bc7-6e666bf0574d","system_id":"levelo_inurba_marseille","lat":43.27376,"lon":5.36254,"is_reserved":false,"is_disabled":false,"rental_uris":{"android":"levelo://app?vid=f96aa61e-18c5-4f34-8bc7-6e666bf0574d","ios":"levelo://app?vid=f96aa61e-18c5-4f34-8bc7-6e666bf0574d"},"vehicle_type_id":"4","last_reported":1719148040,"current_range_meters":0,"station_id":"ce4bhbh2rcd13ifvqeo0","pricing_plan_id":"cebpf4jnsgd1na2vs0mg"},{"bike_id":"641d48a6-e743-44e9-8540-6ec0587ea69f","system_id":"levelo_inurba_marseille","lat":43.273613,"lon":5.362705,"is_reserved":false,"is_disabled":false,"rental_uris":{"android":"levelo://app?vid=641d48a6-e743-44e9-8540-6ec0587ea69f","ios":"levelo://app?vid=641d48a6-e743-44e9-8540-6ec0587ea69f"},"vehicle_type_id":"4","last_reported":1719148040,"current_range_meters":27600,"station_id":"ce4bhbh2rcd13ifvqeo0","pricing_plan_id":"cebpf4jnsgd1na2vs0mg"},{"bike_id":"481eec6d-31fa-46a9-96a5-489c50aff1a8","system_id":"levelo_inurba_marseille","lat":43.273613,"lon":5.362705,"is_reserved":false,"is_disabled":false,"rental_uris":{"android":"levelo://app?vid=481eec6d-31fa-46a9-96a5-489c50aff1a8","ios":"levelo://app?vid=481eec6d-31fa-46a9-96a5-489c50aff1a8"},"vehicle_type_id":"4","last_reported":1719148040,"current_range_meters":5600,"station_id":"ce4bhbh2rcd13ifvqeo0","pricing_plan_id":"cebpf4jnsgd1na2vs0mg"},{"bike_id":"9b6d11ca-9954-499e-8a46-292dcdfb80b8","system_id":"levelo_inurba_marseille","lat":43.273613,"lon":5.362705,"is_reserved":false,"is_disabled":false,"rental_uris":{"android":"levelo://app?vid=9b6d11ca-9954-499e-8a46-292dcdfb80b8","ios":"levelo://app?vid=9b6d11ca-9954-499e-8a46-292dcdfb80b8"},"vehicle_type_id":"4","last_reported":1719148040,"current_range_meters":4800,"station_id":"ce4bhbh2rcd13ifvqeo0","pricing_plan_id":"cebpf4jnsgd1na2vs0mg"},{"bike_id":"8c3cbdf0-f6af-42b2-bb7c-6bed450e05d1","system_id":"levelo_inurba_marseille","lat":43.273613,"lon":5.362705,"is_reserved":false,"is_disabled":false,"rental_uris":{"android":"levelo://app?vid=8c3cbdf0-f6af-42b2-bb7c-6bed450e05d1","ios":"levelo://app?vid=8c3cbdf0-f6af-42b2-bb7c-6bed450e05d1"},"vehicle_type_id":"4","last_reported":1719148040,"current_range_meters":10800,"station_id":"ce4bhbh2rcd13ifvqeo0","pricing_plan_id":"cebpf4jnsgd1na2vs0mg"},{"bike_id":"34d3fffa-d712-47a9-8a4e-5e05a87e9fb5","system_id":"levelo_inurba_marseille","lat":43.273613,"lon":5.362705,"is_reserved":false,"is_disabled":false,"rental_uris":{"android":"levelo://app?vid=34d3fffa-d712-47a9-8a4e-5e05a87e9fb5","ios":"levelo://app?vid=34d3fffa-d712-47a9-8a4e-5e05a87e9fb5"},"vehicle_type_id":"4","last_reported":1719148040,"current_range_meters":21200,"station_id":"ce4bhbh2rcd13ifvqeo0","pricing_plan_id":"cebpf4jnsgd1na2vs0mg"},{"bike_id":"4c4d3558-6dae-4c53-a745-e08df50494c1","system_id":"levelo_inurba_marseille","lat":43.273609,"lon":5.362708,"is_reserved":false,"is_disabled":false,"rental_uris":{"android":"levelo://app?vid=4c4d3558-6dae-4c53-a745-e08df50494c1","ios":"levelo://app?vid=4c4d3558-6dae-4c53-a745-e08df50494c1"},"vehicle_type_id":"4","last_reported":1719148040,"current_range_meters":0,"station_id":"ce4bhbh2rcd13ifvqeo0","pricing_plan_id":"cebpf4jnsgd1na2vs0mg"},{"bike_id":"3bbe758f-a11f-4355-94f5-af04bf7aa64c","system_id":"levelo_inurba_marseille","lat":43.273609,"lon":5.362708,"is_reserved":false,"is_disabled":false,"rental_uris":{"android":"levelo://app?vid=3bbe758f-a11f-4355-94f5-af04bf7aa64c","ios":"levelo://app?vid=3bbe758f-a11f-4355-94f5-af04bf7aa64c"},"vehicle_type_id":"4","last_reported":1719148040,"current_range_meters":12800,"station_id":"ce4bhbh2rcd13ifvqeo0","pricing_plan_id":"cebpf4jnsgd1na2vs0mg"},{"bike_id":"5749b860-6e2e-40a3-ba94-030aa17d7ef9","system_id":"levelo_inurba_marseille","lat":43.33612,"lon":5.410321,"is_reserved":false,"is_disabled":false,"rental_uris":{"android":"levelo://app?vid=5749b860-6e2e-40a3-ba94-030aa17d7ef9","ios":"levelo://app?vid=5749b860-6e2e-40a3-ba94-030aa17d7ef9"},"vehicle_type_id":"4","last_reported":1719148040,"current_range_meters":31200,"station_id":"ce4bhqh2rcd13ifvqhmg","pricing_plan_id":"cebpf4jnsgd1na2vs0mg"},{"bike_id":"a3f0d680-d91a-4783-922c-ebe913818e15","system_id":"levelo_inurba_marseille","lat":43.275625,"lon":5.384392,"is_reserved":false,"is_disabled":false,"rental_uris":{"android":"levelo://app?vid=a3f0d680-d91a-4783-922c-ebe913818e15","ios":"levelo://app?vid=a3f0d680-d91a-4783-922c-ebe913818e15"},"vehicle_type_id":"4","last_reported":1719148040,"current_range_meters":0,"station_id":"ce4bhh92rcd13ifvqfi0","pricing_plan_id":"cebpf4jnsgd1na2vs0mg"},{"bike_id":"32aa1223-dce0-4e6e-9141-266418f38fe7","system_id":"levelo_inurba_marseille","lat":43.279975,"lon":5.40009,"is_reserved":false,"is_disabled":false,"rental_uris":{"android":"levelo://app?vid=32aa1223-dce0-4e6e-9141-266418f38fe7","ios":"levelo://app?vid=32aa1223-dce0-4e6e-9141-266418f38fe7"},"vehicle_type_id":"4","last_reported":1719148040,"current_range_meters":8800,"station_id":"ce4bho92rcd13ifvqh4g","pricing_plan_id":"cebpf4jnsgd1na2vs0mg"},{"bike_id":"29301b5a-620e-4646-b1b0-6fc3a59d8801","system_id":"levelo_inurba_marseille","lat":43.279952,"lon":5.400085,"is_reserved":false,"is_disabled":false,"rental_uris":{"android":"levelo://app?vid=29301b5a-620e-4646-b1b0-6fc3a59d8801","ios":"levelo://app?vid=29301b5a-620e-4646-b1b0-6fc3a59d8801"},"vehicle_type_id":"4","last_reported":1719148040,"current_range_meters":28400,"station_id":"ce4bho92rcd13ifvqh4g","pricing_plan_id":"cebpf4jnsgd1na2vs0mg"},{"bike_id":"ed6556cb-04ce-47db-9a93-311a0fab8fc2","system_id":"levelo_inurba_marseille","lat":43.27999,"lon":5.40008,"is_reserved":false,"is_disabled":false,"rental_uris":{"android":"levelo://app?vid=ed6556cb-04ce-47db-9a93-311a0fab8fc2","ios":"levelo://app?vid=ed6556cb-04ce-47db-9a93-311a0fab8fc2"},"vehicle_type_id":"4","last_reported":1719148040,"current_range_meters":0,"station_id":"ce4bho92rcd13ifvqh4g","pricing_plan_id":"cebpf4jnsgd1na2vs0mg"},{"bike_id":"7d2fdd12-d963-4dce-8b49-ddb8026d4fcd","system_id":"levelo_inurba_marseille","lat":43.317121,"lon":5.423936,"is_reserved":false,"is_disabled":false,"rental_uris":{"android":"levelo://app?vid=7d2fdd12-d963-4dce-8b49-ddb8026d4fcd","ios":"levelo://app?vid=7d2fdd12-d963-4dce-8b49-ddb8026d4fcd"},"vehicle_type_id":"4","last_reported":1719148040,"current_range_meters":7600,"station_id":"ce4bhp92rcd13ifvqhbg","pricing_plan_id":"cebpf4jnsgd1na2vs0mg"},{"bike_id":"c6e8be3d-7ecc-4231-ba96-2aa0d11cb3be","system_id":"levelo_inurba_marseille","lat":43.295511,"lon":5.422926,"is_reserved":false,"is_disabled":false,"rental_uris":{"android":"levelo://app?vid=c6e8be3d-7ecc-4231-ba96-2aa0d11cb3be","ios":"levelo://app?vid=c6e8be3d-7ecc-4231-ba96-2aa0d11cb3be"},"vehicle_type_id":"4","last_reported":1719148040,"current_range_meters":24000,"station_id":"ce4bhph2rcd13ifvqhdg","pricing_plan_id":"cebpf4jnsgd1na2vs0mg"},{"bike_id":"2e35d279-f45c-4755-b7be-eaec971223e6","system_id":"levelo_inurba_marseille","lat":43.295511,"lon":5.422926,"is_reserved":false,"is_disabled":false,"rental_uris":{"android":"levelo://app?vid=2e35d279-f45c-4755-b7be-eaec971223e6","ios":"levelo://app?vid=2e35d279-f45c-4755-b7be-eaec971223e6"},"vehicle_type_id":"4","last_reported":1719148040,"current_range_meters":28000,"station_id":"ce4bhph2rcd13ifvqhdg","pricing_plan_id":"cebpf4jnsgd1na2vs0mg"},{"bike_id":"afc3fd0a-17fc-484e-b9c8-fa8faf6911db","system_id":"levelo_inurba_marseille","lat":43.295523,"lon":5.422926,"is_reserved":false,"is_disabled":false,"rental_uris":{"android":"levelo://app?vid=afc3fd0a-17fc-484e-b9c8-fa8faf6911db","ios":"levelo://app?vid=afc3fd0a-17fc-484e-b9c8-fa8faf6911db"},"vehicle_type_id":"4","last_reported":1719148040,"current_range_meters":30800,"station_id":"ce4bhph2rcd13ifvqhdg","pricing_plan_id":"cebpf4jnsgd1na2vs0mg"},{"bike_id":"3016c52b-529b-43ee-b62d-a4e6f427e0cc","system_id":"levelo_inurba_marseille","lat":43.27216,"lon":5.39175,"is_reserved":false,"is_disabled":false,"rental_uris":{"android":"levelo://app?vid=3016c52b-529b-43ee-b62d-a4e6f427e0cc","ios":"levelo://app?vid=3016c52b-529b-43ee-b62d-a4e6f427e0cc"},"vehicle_type_id":"4","last_reported":1719148040,"current_range_meters":4000,"station_id":"ce4bhhp2rcd13ifvqfm0","pricing_plan_id":"cebpf4jnsgd1na2vs0mg"},{"bike_id":"ac4d8517-fc31-4b96-83d3-e64c22f1a725","system_id":"levelo_inurba_marseille","lat":43.278128,"lon":5.407195,"is_reserved":false,"is_disabled":false,"rental_uris":{"android":"levelo://app?vid=ac4d8517-fc31-4b96-83d3-e64c22f1a725","ios":"levelo://app?vid=ac4d8517-fc31-4b96-83d3-e64c22f1a725"},"vehicle_type_id":"4","last_reported":1719148040,"current_range_meters":30000,"station_id":"ce4bhnh2rcd13ifvqgtg","pricing_plan_id":"cebpf4jnsgd1na2vs0mg"},{"bike_id":"e179d3e1-b9eb-40bc-b5f4-e6d5ee4b756c","system_id":"levelo_inurba_marseille","lat":43.278128,"lon":5.407195,"is_reserved":false,"is_disabled":false,"rental_uris":{"android":"levelo://app?vid=e179d3e1-b9eb-40bc-b5f4-e6d5ee4b756c","ios":"levelo://app?vid=e179d3e1-b9eb-40bc-b5f4-e6d5ee4b756c"},"vehicle_type_id":"4","last_reported":1719148040,"current_range_meters":30800,"station_id":"ce4bhnh2rcd13ifvqgtg","pricing_plan_id":"cebpf4jnsgd1na2vs0mg"},{"bike_id":"7e61e989-ac95-4859-9bf7-33af0621dabc","system_id":"levelo_inurba_marseille","lat":43.278128,"lon":5.407195,"is_reserved":false,"is_disabled":false,"rental_uris":{"android":"levelo://app?vid=7e61e989-ac95-4859-9bf7-33af0621dabc","ios":"levelo://app?vid=7e61e989-ac95-4859-9bf7-33af0621dabc"},"vehicle_type_id":"4","last_reported":1719148040,"current_range_meters":7200,"station_id":"ce4bhnh2rcd13ifvqgtg","pricing_plan_id":"cebpf4jnsgd1na2vs0mg"},{"bike_id":"77105995-7561-47c7-bed3-f1f9c7660db7","system_id":"levelo_inurba_marseille","lat":43.269467,"lon":5.386439,"is_reserved":false,"is_disabled":false,"rental_uris":{"android":"levelo://app?vid=77105995-7561-47c7-bed3-f1f9c7660db7","ios":"levelo://app?vid=77105995-7561-47c7-bed3-f1f9c7660db7"},"vehicle_type_id":"4","last_reported":1719148040,"current_range_meters":0,"station_id":"ce4bhh92rcd13ifvqfh0","pricing_plan_id":"cebpf4jnsgd1na2vs0mg"},{"bike_id":"50ae679a-7dc4-49c6-b9c3-6fefa192014c","system_id":"levelo_inurba_marseille","lat":43.278128,"lon":5.407195,"is_reserved":false,"is_disabled":false,"rental_uris":{"android":"levelo://app?vid=50ae679a-7dc4-49c6-b9c3-6fefa192014c","ios":"levelo://app?vid=50ae679a-7dc4-49c6-b9c3-6fefa192014c"},"vehicle_type_id":"4","last_reported":1719148040,"current_range_meters":12000,"station_id":"ce4bhnh2rcd13ifvqgtg","pricing_plan_id":"cebpf4jnsgd1na2vs0mg"},{"bike_id":"3c92c126-fb4f-4814-a831-47febe2e1df9","system_id":"levelo_inurba_marseille","lat":43.279512,"lon":5.410502,"is_reserved":false,"is_disabled":false,"rental_uris":{"android":"levelo://app?vid=3c92c126-fb4f-4814-a831-47febe2e1df9","ios":"levelo://app?vid=3c92c126-fb4f-4814-a831-47febe2e1df9"},"vehicle_type_id":"4","last_reported":1719148040,"current_range_meters":30000,"station_id":"ce4bhnp2rcd13ifvqh0g","pricing_plan_id":"cebpf4jnsgd1na2vs0mg"},{"bike_id":"56ca4a41-ec58-4f7c-866f-374b3e7a8442","system_id":"levelo_inurba_marseille","lat":43.27946,"lon":5.41049,"is_reserved":false,"is_disabled":false,"rental_uris":{"android":"levelo://app?vid=56ca4a41-ec58-4f7c-866f-374b3e7a8442","ios":"levelo://app?vid=56ca4a41-ec58-4f7c-866f-374b3e7a8442"},"vehicle_type_id":"4","last_reported":1719148040,"current_range_meters":13600,"station_id":"ce4bhnp2rcd13ifvqh0g","pricing_plan_id":"cebpf4jnsgd1na2vs0mg"},{"bike_id":"dbceb0d7-879a-417a-9420-8894aeb0b763","system_id":"levelo_inurba_marseille","lat":43.279465,"lon":5.410561,"is_reserved":false,"is_disabled":false,"rental_uris":{"android":"levelo://app?vid=dbceb0d7-879a-417a-9420-8894aeb0b763","ios":"levelo://app?vid=dbceb0d7-879a-417a-9420-8894aeb0b763"},"vehicle_type_id":"4","last_reported":1719148040,"current_range_meters":2000,"station_id":"ce4bhnp2rcd13ifvqh0g","pricing_plan_id":"cebpf4jnsgd1na2vs0mg"},{"bike_id":"097eb86a-c5dc-4c2f-aaae-8f3b7b8109d7","system_id":"levelo_inurba_marseille","lat":43.2794,"lon":5.41042,"is_reserved":false,"is_disabled":false,"rental_uris":{"android":"levelo://app?vid=097eb86a-c5dc-4c2f-aaae-8f3b7b8109d7","ios":"levelo://app?vid=097eb86a-c5dc-4c2f-aaae-8f3b7b8109d7"},"vehicle_type_id":"4","last_reported":1719148040,"current_range_meters":14800,"station_id":"ce4bhnp2rcd13ifvqh0g","pricing_plan_id":"cebpf4jnsgd1na2vs0mg"},{"bike_id":"c0883ff0-7925-457f-8fa1-518a066c7180","system_id":"levelo_inurba_marseille","lat":43.269319,"lon":5.389397,"is_reserved":false,"is_disabled":false,"rental_uris":{"android":"levelo://app?vid=c0883ff0-7925-457f-8fa1-518a066c7180","ios":"levelo://app?vid=c0883ff0-7925-457f-8fa1-518a066c7180"},"vehicle_type_id":"4","last_reported":1719148040,"current_range_meters":10400,"station_id":"ce4bhhh2rcd13ifvqfl0","pricing_plan_id":"cebpf4jnsgd1na2vs0mg"},{"bike_id":"d03cc309-8c15-4253-822c-efad0be60c6f","system_id":"levelo_inurba_marseille","lat":43.26681,"lon":5.382694,"is_reserved":false,"is_disabled":false,"rental_uris":{"android":"levelo://app?vid=d03cc309-8c15-4253-822c-efad0be60c6f","ios":"levelo://app?vid=d03cc309-8c15-4253-822c-efad0be60c6f"},"vehicle_type_id":"4","last_reported":1719148040,"current_range_meters":17200,"station_id":"ce4bhg92rcd13ifvqf90","pricing_plan_id":"cebpf4jnsgd1na2vs0mg"},{"bike_id":"f663e7d1-497f-4530-b7f2-df2841e3abaa","system_id":"levelo_inurba_marseille","lat":43.28005,"lon":5.41662,"is_reserved":false,"is_disabled":false,"rental_uris":{"android":"levelo://app?vid=f663e7d1-497f-4530-b7f2-df2841e3abaa","ios":"levelo://app?vid=f663e7d1-497f-4530-b7f2-df2841e3abaa"},"vehicle_type_id":"4","last_reported":1719148040,"current_range_meters":21200,"station_id":"ce4bho12rcd13ifvqh1g","pricing_plan_id":"cebpf4jnsgd1na2vs0mg"},{"bike_id":"904fc172-a54c-454c-9b06-e5e8eaa345a9","system_id":"levelo_inurba_marseille","lat":43.267966,"lon":5.393976,"is_reserved":false,"is_disabled":false,"rental_uris":{"android":"levelo://app?vid=904fc172-a54c-454c-9b06-e5e8eaa345a9","ios":"levelo://app?vid=904fc172-a54c-454c-9b06-e5e8eaa345a9"},"vehicle_type_id":"4","last_reported":1719148040,"current_range_meters":27200,"station_id":"ce4bhh12rcd13ifvqfg0","pricing_plan_id":"cebpf4jnsgd1na2vs0mg"},{"bike_id":"e5a6c0b0-842a-4e7b-9570-bae567c09793","system_id":"levelo_inurba_marseille","lat":43.30805,"lon":5.43517,"is_reserved":false,"is_disabled":false,"rental_uris":{"android":"levelo://app?vid=e5a6c0b0-842a-4e7b-9570-bae567c09793","ios":"levelo://app?vid=e5a6c0b0-842a-4e7b-9570-bae567c09793"},"vehicle_type_id":"4","last_reported":1719148040,"current_range_meters":24400,"station_id":"ce4bhph2rcd13ifvqheg","pricing_plan_id":"cebpf4jnsgd1na2vs0mg"},{"bike_id":"aecd2ca4-d540-42a2-8ca5-7a0215bd3aa5","system_id":"levelo_inurba_marseille","lat":43.308041,"lon":5.435176,"is_reserved":false,"is_disabled":false,"rental_uris":{"android":"levelo://app?vid=aecd2ca4-d540-42a2-8ca5-7a0215bd3aa5","ios":"levelo://app?vid=aecd2ca4-d540-42a2-8ca5-7a0215bd3aa5"},"vehicle_type_id":"4","last_reported":1719148040,"current_range_meters":28800,"station_id":"ce4bhph2rcd13ifvqheg","pricing_plan_id":"cebpf4jnsgd1na2vs0mg"},{"bike_id":"419b0b47-7dfa-4f51-bac6-3fc18ad60c52","system_id":"levelo_inurba_marseille","lat":43.308025,"lon":5.435187,"is_reserved":false,"is_disabled":false,"rental_uris":{"android":"levelo://app?vid=419b0b47-7dfa-4f51-bac6-3fc18ad60c52","ios":"levelo://app?vid=419b0b47-7dfa-4f51-bac6-3fc18ad60c52"},"vehicle_type_id":"4","last_reported":1719148040,"current_range_meters":21200,"station_id":"ce4bhph2rcd13ifvqheg","pricing_plan_id":"cebpf4jnsgd1na2vs0mg"},{"bike_id":"4798aa96-b12e-4778-8caf-c5d5746a2c17","system_id":"levelo_inurba_marseille","lat":43.30798,"lon":5.43519,"is_reserved":false,"is_disabled":false,"rental_uris":{"android":"levelo://app?vid=4798aa96-b12e-4778-8caf-c5d5746a2c17","ios":"levelo://app?vid=4798aa96-b12e-4778-8caf-c5d5746a2c17"},"vehicle_type_id":"4","last_reported":1719148040,"current_range_meters":3200,"station_id":"ce4bhph2rcd13ifvqheg","pricing_plan_id":"cebpf4jnsgd1na2vs0mg"},{"bike_id":"f3cfe14f-b316-4323-ba2a-9915cd99aacf","system_id":"levelo_inurba_marseille","lat":43.308051,"lon":5.43527,"is_reserved":false,"is_disabled":false,"rental_uris":{"android":"levelo://app?vid=f3cfe14f-b316-4323-ba2a-9915cd99aacf","ios":"levelo://app?vid=f3cfe14f-b316-4323-ba2a-9915cd99aacf"},"vehicle_type_id":"4","last_reported":1719148040,"current_range_meters":31200,"station_id":"ce4bhph2rcd13ifvqheg","pricing_plan_id":"cebpf4jnsgd1na2vs0mg"},{"bike_id":"1654ac7f-dd7b-472a-9758-061f555d8623","system_id":"levelo_inurba_marseille","lat":43.307975,"lon":5.435204,"is_reserved":false,"is_disabled":false,"rental_uris":{"android":"levelo://app?vid=1654ac7f-dd7b-472a-9758-061f555d8623","ios":"levelo://app?vid=1654ac7f-dd7b-472a-9758-061f555d8623"},"vehicle_type_id":"4","last_reported":1719148040,"current_range_meters":20400,"station_id":"ce4bhph2rcd13ifvqheg","pricing_plan_id":"cebpf4jnsgd1na2vs0mg"},{"bike_id":"9da7b522-93d0-4318-86b5-9b0bd263b87a","system_id":"levelo_inurba_marseille","lat":43.308,"lon":5.43521,"is_reserved":false,"is_disabled":false,"rental_uris":{"android":"levelo://app?vid=9da7b522-93d0-4318-86b5-9b0bd263b87a","ios":"levelo://app?vid=9da7b522-93d0-4318-86b5-9b0bd263b87a"},"vehicle_type_id":"4","last_reported":1719148040,"current_range_meters":25200,"station_id":"ce4bhph2rcd13ifvqheg","pricing_plan_id":"cebpf4jnsgd1na2vs0mg"},{"bike_id":"2ed97361-23be-4829-9af7-8552aabb4d16","system_id":"levelo_inurba_marseille","lat":43.30803,"lon":5.43526,"is_reserved":false,"is_disabled":false,"rental_uris":{"android":"levelo://app?vid=2ed97361-23be-4829-9af7-8552aabb4d16","ios":"levelo://app?vid=2ed97361-23be-4829-9af7-8552aabb4d16"},"vehicle_type_id":"4","last_reported":1719148040,"current_range_meters":29200,"station_id":"ce4bhph2rcd13ifvqheg","pricing_plan_id":"cebpf4jnsgd1na2vs0mg"},{"bike_id":"e24df87a-61f5-4768-a5c1-36447fe57bc2","system_id":"levelo_inurba_marseille","lat":43.308,"lon":5.43526,"is_reserved":false,"is_disabled":false,"rental_uris":{"android":"levelo://app?vid=e24df87a-61f5-4768-a5c1-36447fe57bc2","ios":"levelo://app?vid=e24df87a-61f5-4768-a5c1-36447fe57bc2"},"vehicle_type_id":"4","last_reported":1719148040,"current_range_meters":28800,"station_id":"ce4bhph2rcd13ifvqheg","pricing_plan_id":"cebpf4jnsgd1na2vs0mg"},{"bike_id":"dd401efe-23c1-459e-b1cb-c17f0f1578c1","system_id":"levelo_inurba_marseille","lat":43.26306,"lon":5.37622,"is_reserved":false,"is_disabled":false,"rental_uris":{"android":"levelo://app?vid=dd401efe-23c1-459e-b1cb-c17f0f1578c1","ios":"levelo://app?vid=dd401efe-23c1-459e-b1cb-c17f0f1578c1"},"vehicle_type_id":"4","last_reported":1719148040,"current_range_meters":0,"station_id":"","pricing_plan_id":"cebpf4jnsgd1na2vs0mg"},{"bike_id":"0cdd625d-4c3c-45ca-bd7d-851555136306","system_id":"levelo_inurba_marseille","lat":43.26218,"lon":5.37443,"is_reserved":false,"is_disabled":false,"rental_uris":{"android":"levelo://app?vid=0cdd625d-4c3c-45ca-bd7d-851555136306","ios":"levelo://app?vid=0cdd625d-4c3c-45ca-bd7d-851555136306"},"vehicle_type_id":"4","last_reported":1719148040,"current_range_meters":9200,"station_id":"ce4bhgp2rcd13ifvqfc0","pricing_plan_id":"cebpf4jnsgd1na2vs0mg"},{"bike_id":"9d85ce08-fd3b-42d5-a153-3eeb0fbfbddd","system_id":"levelo_inurba_marseille","lat":43.26215,"lon":5.37438,"is_reserved":false,"is_disabled":false,"rental_uris":{"android":"levelo://app?vid=9d85ce08-fd3b-42d5-a153-3eeb0fbfbddd","ios":"levelo://app?vid=9d85ce08-fd3b-42d5-a153-3eeb0fbfbddd"},"vehicle_type_id":"4","last_reported":1719148040,"current_range_meters":2000,"station_id":"ce4bhgp2rcd13ifvqfc0","pricing_plan_id":"cebpf4jnsgd1na2vs0mg"},{"bike_id":"44f02786-8f9d-4ea3-a1d6-62501f93cdea","system_id":"levelo_inurba_marseille","lat":43.261782,"lon":5.374515,"is_reserved":false,"is_disabled":false,"rental_uris":{"android":"levelo://app?vid=44f02786-8f9d-4ea3-a1d6-62501f93cdea","ios":"levelo://app?vid=44f02786-8f9d-4ea3-a1d6-62501f93cdea"},"vehicle_type_id":"4","last_reported":1719148040,"current_range_meters":8000,"station_id":"ce4bhgp2rcd13ifvqfc0","pricing_plan_id":"cebpf4jnsgd1na2vs0mg"},{"bike_id":"3f03193b-dcbb-4f1f-a552-24fd15bccf4d","system_id":"levelo_inurba_marseille","lat":43.261782,"lon":5.374515,"is_reserved":false,"is_disabled":false,"rental_uris":{"android":"levelo://app?vid=3f03193b-dcbb-4f1f-a552-24fd15bccf4d","ios":"levelo://app?vid=3f03193b-dcbb-4f1f-a552-24fd15bccf4d"},"vehicle_type_id":"4","last_reported":1719148040,"current_range_meters":12000,"station_id":"ce4bhgp2rcd13ifvqfc0","pricing_plan_id":"cebpf4jnsgd1na2vs0mg"},{"bike_id":"7ee217e3-8a06-4ca8-8ec0-3be442506077","system_id":"levelo_inurba_marseille","lat":43.262125,"lon":5.374425,"is_reserved":false,"is_disabled":false,"rental_uris":{"android":"levelo://app?vid=7ee217e3-8a06-4ca8-8ec0-3be442506077","ios":"levelo://app?vid=7ee217e3-8a06-4ca8-8ec0-3be442506077"},"vehicle_type_id":"4","last_reported":1719148040,"current_range_meters":28000,"station_id":"ce4bhgp2rcd13ifvqfc0","pricing_plan_id":"cebpf4jnsgd1na2vs0mg"},{"bike_id":"e141a1cf-ec0f-439a-a514-5de550183936","system_id":"levelo_inurba_marseille","lat":43.26212,"lon":5.37438,"is_reserved":false,"is_disabled":false,"rental_uris":{"android":"levelo://app?vid=e141a1cf-ec0f-439a-a514-5de550183936","ios":"levelo://app?vid=e141a1cf-ec0f-439a-a514-5de550183936"},"vehicle_type_id":"4","last_reported":1719148040,"current_range_meters":400,"station_id":"ce4bhgp2rcd13ifvqfc0","pricing_plan_id":"cebpf4jnsgd1na2vs0mg"},{"bike_id":"ff9f3ae8-0d45-4ad6-9d86-4a43486dd781","system_id":"levelo_inurba_marseille","lat":43.261782,"lon":5.374515,"is_reserved":false,"is_disabled":false,"rental_uris":{"android":"levelo://app?vid=ff9f3ae8-0d45-4ad6-9d86-4a43486dd781","ios":"levelo://app?vid=ff9f3ae8-0d45-4ad6-9d86-4a43486dd781"},"vehicle_type_id":"4","last_reported":1719148040,"current_range_meters":21200,"station_id":"ce4bhgp2rcd13ifvqfc0","pricing_plan_id":"cebpf4jnsgd1na2vs0mg"},{"bike_id":"7288dc98-c9fe-48c7-b451-5fd5827bc68d","system_id":"levelo_inurba_marseille","lat":43.26212,"lon":5.37441,"is_reserved":false,"is_disabled":false,"rental_uris":{"android":"levelo://app?vid=7288dc98-c9fe-48c7-b451-5fd5827bc68d","ios":"levelo://app?vid=7288dc98-c9fe-48c7-b451-5fd5827bc68d"},"vehicle_type_id":"4","last_reported":1719148040,"current_range_meters":23200,"station_id":"ce4bhgp2rcd13ifvqfc0","pricing_plan_id":"cebpf4jnsgd1na2vs0mg"},{"bike_id":"27a6dfad-7bf0-4c70-94f7-dd6c02d2b1fc","system_id":"levelo_inurba_marseille","lat":43.261782,"lon":5.374515,"is_reserved":false,"is_disabled":false,"rental_uris":{"android":"levelo://app?vid=27a6dfad-7bf0-4c70-94f7-dd6c02d2b1fc","ios":"levelo://app?vid=27a6dfad-7bf0-4c70-94f7-dd6c02d2b1fc"},"vehicle_type_id":"4","last_reported":1719148040,"current_range_meters":6000,"station_id":"ce4bhgp2rcd13ifvqfc0","pricing_plan_id":"cebpf4jnsgd1na2vs0mg"},{"bike_id":"8baf810a-42be-4e09-9fc8-9f154066f5f6","system_id":"levelo_inurba_marseille","lat":43.26211,"lon":5.37442,"is_reserved":false,"is_disabled":false,"rental_uris":{"android":"levelo://app?vid=8baf810a-42be-4e09-9fc8-9f154066f5f6","ios":"levelo://app?vid=8baf810a-42be-4e09-9fc8-9f154066f5f6"},"vehicle_type_id":"4","last_reported":1719148040,"current_range_meters":0,"station_id":"ce4bhgp2rcd13ifvqfc0","pricing_plan_id":"cebpf4jnsgd1na2vs0mg"},{"bike_id":"fa52bf54-3e24-434e-8674-dfa579823cbf","system_id":"levelo_inurba_marseille","lat":43.2621,"lon":5.37439,"is_reserved":false,"is_disabled":false,"rental_uris":{"android":"levelo://app?vid=fa52bf54-3e24-434e-8674-dfa579823cbf","ios":"levelo://app?vid=fa52bf54-3e24-434e-8674-dfa579823cbf"},"vehicle_type_id":"4","last_reported":1719148040,"current_range_meters":7600,"station_id":"ce4bhgp2rcd13ifvqfc0","pricing_plan_id":"cebpf4jnsgd1na2vs0mg"},{"bike_id":"1c0f2891-b8df-461d-851d-0d77784f6f9a","system_id":"levelo_inurba_marseille","lat":43.261782,"lon":5.374515,"is_reserved":false,"is_disabled":false,"rental_uris":{"android":"levelo://app?vid=1c0f2891-b8df-461d-851d-0d77784f6f9a","ios":"levelo://app?vid=1c0f2891-b8df-461d-851d-0d77784f6f9a"},"vehicle_type_id":"4","last_reported":1719148040,"current_range_meters":25600,"station_id":"ce4bhgp2rcd13ifvqfc0","pricing_plan_id":"cebpf4jnsgd1na2vs0mg"},{"bike_id":"693c6010-5b67-4d79-8fbd-5238bb6726d7","system_id":"levelo_inurba_marseille","lat":43.261782,"lon":5.374515,"is_reserved":false,"is_disabled":false,"rental_uris":{"android":"levelo://app?vid=693c6010-5b67-4d79-8fbd-5238bb6726d7","ios":"levelo://app?vid=693c6010-5b67-4d79-8fbd-5238bb6726d7"},"vehicle_type_id":"4","last_reported":1719148040,"current_range_meters":28800,"station_id":"ce4bhgp2rcd13ifvqfc0","pricing_plan_id":"cebpf4jnsgd1na2vs0mg"},{"bike_id":"437440d3-08b9-48d2-822b-b81de9130976","system_id":"levelo_inurba_marseille","lat":43.261782,"lon":5.374515,"is_reserved":false,"is_disabled":false,"rental_uris":{"android":"levelo://app?vid=437440d3-08b9-48d2-822b-b81de9130976","ios":"levelo://app?vid=437440d3-08b9-48d2-822b-b81de9130976"},"vehicle_type_id":"4","last_reported":1719148040,"current_range_meters":10400,"station_id":"ce4bhgp2rcd13ifvqfc0","pricing_plan_id":"cebpf4jnsgd1na2vs0mg"},{"bike_id":"eb8d384d-9b77-45a3-9c48-7b89abc3b714","system_id":"levelo_inurba_marseille","lat":43.261782,"lon":5.374515,"is_reserved":false,"is_disabled":false,"rental_uris":{"android":"levelo://app?vid=eb8d384d-9b77-45a3-9c48-7b89abc3b714","ios":"levelo://app?vid=eb8d384d-9b77-45a3-9c48-7b89abc3b714"},"vehicle_type_id":"4","last_reported":1719148040,"current_range_meters":29600,"station_id":"ce4bhgp2rcd13ifvqfc0","pricing_plan_id":"cebpf4jnsgd1na2vs0mg"},{"bike_id":"665ebe9d-8cd3-4867-988c-041e447328bc","system_id":"levelo_inurba_marseille","lat":43.261782,"lon":5.374515,"is_reserved":false,"is_disabled":false,"rental_uris":{"android":"levelo://app?vid=665ebe9d-8cd3-4867-988c-041e447328bc","ios":"levelo://app?vid=665ebe9d-8cd3-4867-988c-041e447328bc"},"vehicle_type_id":"4","last_reported":1719148040,"current_range_meters":4000,"station_id":"ce4bhgp2rcd13ifvqfc0","pricing_plan_id":"cebpf4jnsgd1na2vs0mg"},{"bike_id":"a3cffb7b-6909-4ad3-a062-38c15d73135b","system_id":"levelo_inurba_marseille","lat":43.261782,"lon":5.374515,"is_reserved":false,"is_disabled":false,"rental_uris":{"android":"levelo://app?vid=a3cffb7b-6909-4ad3-a062-38c15d73135b","ios":"levelo://app?vid=a3cffb7b-6909-4ad3-a062-38c15d73135b"},"vehicle_type_id":"4","last_reported":1719148040,"current_range_meters":29200,"station_id":"ce4bhgp2rcd13ifvqfc0","pricing_plan_id":"cebpf4jnsgd1na2vs0mg"},{"bike_id":"7992b42a-30a1-440e-bec9-d6671864fc69","system_id":"levelo_inurba_marseille","lat":43.26192,"lon":5.37446,"is_reserved":false,"is_disabled":false,"rental_uris":{"android":"levelo://app?vid=7992b42a-30a1-440e-bec9-d6671864fc69","ios":"levelo://app?vid=7992b42a-30a1-440e-bec9-d6671864fc69"},"vehicle_type_id":"4","last_reported":1719148040,"current_range_meters":12000,"station_id":"ce4bhgp2rcd13ifvqfc0","pricing_plan_id":"cebpf4jnsgd1na2vs0mg"},{"bike_id":"441d89ea-8eac-4976-9a0c-03320be759d3","system_id":"levelo_inurba_marseille","lat":43.261782,"lon":5.374515,"is_reserved":false,"is_disabled":false,"rental_uris":{"android":"levelo://app?vid=441d89ea-8eac-4976-9a0c-03320be759d3","ios":"levelo://app?vid=441d89ea-8eac-4976-9a0c-03320be759d3"},"vehicle_type_id":"4","last_reported":1719148040,"current_range_meters":0,"station_id":"ce4bhgp2rcd13ifvqfc0","pricing_plan_id":"cebpf4jnsgd1na2vs0mg"},{"bike_id":"951dc8e7-7be3-40f4-9261-aec282c92c6a","system_id":"levelo_inurba_marseille","lat":43.26187,"lon":5.37455,"is_reserved":false,"is_disabled":false,"rental_uris":{"android":"levelo://app?vid=951dc8e7-7be3-40f4-9261-aec282c92c6a","ios":"levelo://app?vid=951dc8e7-7be3-40f4-9261-aec282c92c6a"},