{"last_updated":1753859792,"ttl":60,"version":"2.2","data":{"bikes":[{"bike_id":"9e636b11-f09d-4708-8edd-606ef74f1066","system_id":"levelo_inurba_marseille","lat":43.259829,"lon":5.372479,"is_reserved":false,"is_disabled":false,"rental_uris":{"android":"levelo://app?vid=9e636b11-f09d-4708-8edd-606ef74f1066","ios":"levelo://app?vid=9e636b11-f09d-4708-8edd-606ef74f1066"},"vehicle_type_id":"4","last_reported":1753859792,"current_range_meters":2800,"station_id":"","pricing_plan_id":"cebpf4jnsgd1na2vs0mg"},{"bike_id":"b75a439a-68a8-4ba3-89f3-7f38a4e0b99c","system_id":"levelo_inurba_marseille","lat":43.33754,"lon":5.37431,"is_reserved":false,"is_disabled":false,"rental_uris":{"android":"levelo://app?vid=b75a439a-68a8-4ba3-89f3-7f38a4e0b99c","ios":"levelo://app?vid=b75a439a-68a8-4ba3-89f3-7f38a4e0b99c"},"vehicle_type_id":"4","last_reported":1753859792,"current_range_meters":3200,"station_id":"","pricing_plan_id":"cebpf4jnsgd1na2vs0mg"},{"bike_id":"83fdb9f2-ef9d-4a70-8333-65f103ec90ae","system_id":"levelo_inurba_marseille","lat":43.273725,"lon":5.362576,"is_reserved":false,"is_disabled":true,"rental_uris":{"android":"levelo://app?vid=83fdb9f2-ef9d-4a70-8333-65f103ec90ae","ios":"levelo://app?vid=83fdb9f2-ef9d-4a70-8333-65f103ec90ae"},"vehicle_type_id":"4","last_reported":1753859792,"current_range_meters":3200,"station_id":"ce4bhbh2rcd13ifvqeo0","pricing_plan_id":"cebpf4jnsgd1na2vs0mg"},{"bike_id":"d8925079-05c5-4f4c-b723-be27ba0cd5f7","system_id":"levelo_inurba_marseille","lat":43.29909,"lon":5.37453,"is_reserved":false,"is_disabled":false,"rental_uris":{"android":"levelo://app?vid=d8925079-05c5-4f4c-b723-be27ba0cd5f7","ios":"levelo://app?vid=d8925079-05c5-4f4c-b723-be27ba0cd5f7"},"vehicle_type_id":"4","last_reported":1753859792,"current_range_meters":3200,"station_id":"ce4bgjh2rcd13ifvqbg0","pricing_plan_id":"cebpf4jnsgd1na2vs0mg"},{"bike_id":"c2f360c6-a5bc-4791-9ff4-4881dc752e16","system_id":"levelo_inurba_marseille","lat":43.27674,"lon":5.38869,"is_reserved":false,"is_disabled":false,"rental_uris":{"android":"levelo://app?vid=c2f360c6-a5bc-4791-9ff4-4881dc752e16","ios":"levelo://app?vid=c2f360c6-a5bc-4791-9ff4-4881dc752e16"},"vehicle_type_id":"4","last_reported":1753859792,"current_range_meters":2800,"station_id":"ce4bhi12rcd13ifvqfo0","pricing_plan_id":"cebpf4jnsgd1na2vs0mg"},{"bike_id":"115c2104-8a6d-426c-80f2-975c04e60097","system_id":"levelo_inurba_marseille","lat":43.32353,"lon":5.36753,"is_reserved":false,"is_disabled":false,"rental_uris":{"android":"levelo://app?vid=115c2104-8a6d-426c-80f2-975c04e60097","ios":"levelo://app?vid=115c2104-8a6d-426c-80f2-975c04e60097"},"vehicle_type_id":"4","last_reported":1753859792,"current_range_meters":3200,"station_id":"ce4bhsh2rcd13ifvqi2g","pricing_plan_id":"cebpf4jnsgd1na2vs0mg"},{"bike_id":"64f258c6-1e92-4dd0-a4f6-11b336a5b138","system_id":"levelo_inurba_marseille","lat":43.225157,"lon":5.347707,"is_reserved":false,"is_disabled":false,"rental_uris":{"android":"levelo://app?vid=64f258c6-1e92-4dd0-a4f6-11b336a5b138","ios":"levelo://app?vid=64f258c6-1e92-4dd0-a4f6-11b336a5b138"},"vehicle_type_id":"4","last_reported":1753859792,"current_range_meters":3200,"station_id":"st_cvj5dfep6f1abm77gieg","pricing_plan_id":"cebpf4jnsgd1na2vs0mg"},{"bike_id":"3152576e-d602-4c3f-980e-717f41aed773","system_id":"levelo_inurba_marseille","lat":43.33737,"lon":5.37465,"is_reserved":false,"is_disabled":false,"rental_uris":{"android":"levelo://app?vid=3152576e-d602-4c3f-980e-717f41aed773","ios":"levelo://app?vid=3152576e-d602-4c3f-980e-717f41aed773"},"vehicle_type_id":"4","last_reported":1753859792,"current_range_meters":3200,"station_id":"","pricing_plan_id":"cebpf4jnsgd1na2vs0mg"},{"bike_id":"06f604ce-521c-4ca9-a2a8-6e3080810a28","system_id":"levelo_inurba_marseille","lat":43.28727,"lon":5.37941,"is_reserved":false,"is_disabled":false,"rental_uris":{"android":"levelo://app?vid=06f604ce-521c-4ca9-a2a8-6e3080810a28","ios":"levelo://app?vid=06f604ce-521c-4ca9-a2a8-6e3080810a28"},"vehicle_type_id":"4","last_reported":1753859792,"current_range_meters":3600,"station_id":"ce4bh9p2rcd13ifvqec0","pricing_plan_id":"cebpf4jnsgd1na2vs0mg"},{"bike_id":"5cf8c9a0-d9b7-4bc1-a334-a4dc6613837a","system_id":"levelo_inurba_marseille","lat":43.269345,"lon":5.393309,"is_reserved":false,"is_disabled":false,"rental_uris":{"android":"levelo://app?vid=5cf8c9a0-d9b7-4bc1-a334-a4dc6613837a","ios":"levelo://app?vid=5cf8c9a0-d9b7-4bc1-a334-a4dc6613837a"},"vehicle_type_id":"4","last_reported":1753859792,"current_range_meters":4000,"station_id":"ce4bhh12rcd13ifvqfg0","pricing_plan_id":"cebpf4jnsgd1na2vs0mg"},{"bike_id":"f115f434-df4a-4c11-8f46-c37a59d96c01","system_id":"levelo_inurba_marseille","lat":43.2417,"lon":5.39723,"is_reserved":false,"is_disabled":false,"rental_uris":{"android":"levelo://app?vid=f115f434-df4a-4c11-8f46-c37a59d96c01","ios":"levelo://app?vid=f115f434-df4a-4c11-8f46-c37a59d96c01"},"vehicle_type_id":"4","last_reported":1753859792,"current_range_meters":4000,"station_id":"ce4bhn12rcd13ifvqgpg","pricing_plan_id":"cebpf4jnsgd1na2vs0mg"},{"bike_id":"5915c484-bd7c-435f-bca1-185e1e80dfcf","system_id":"levelo_inurba_marseille","lat":43.23167,"lon":5.43673,"is_reserved":false,"is_disabled":false,"rental_uris":{"android":"levelo://app?vid=5915c484-bd7c-435f-bca1-185e1e80dfcf","ios":"levelo://app?vid=5915c484-bd7c-435f-bca1-185e1e80dfcf"},"vehicle_type_id":"4","last_reported":1753859792,"current_range_meters":4400,"station_id":"ce4bhmp2rcd13ifvqgog","pricing_plan_id":"cebpf4jnsgd1na2vs0mg"},{"bike_id":"a91e042f-0591-44bd-bd75-d2a6ddbdc904","system_id":"levelo_inurba_marseille","lat":43.32478,"lon":5.36565,"is_reserved":false,"is_disabled":false,"rental_uris":{"android":"levelo://app?vid=a91e042f-0591-44bd-bd75-d2a6ddbdc904","ios":"levelo://app?vid=a91e042f-0591-44bd-bd75-d2a6ddbdc904"},"vehicle_type_id":"4","last_reported":1753859792,"current_range_meters":4400,"station_id":"ce4bhs12rcd13ifvqhvg","pricing_plan_id":"cebpf4jnsgd1na2vs0mg"},{"bike_id":"bd1e50aa-d668-4324-90fa-420f471d8c96","system_id":"levelo_inurba_marseille","lat":43.30477,"lon":5.37908,"is_reserved":false,"is_disabled":false,"rental_uris":{"android":"levelo://app?vid=bd1e50aa-d668-4324-90fa-420f471d8c96","ios":"levelo://app?vid=bd1e50aa-d668-4324-90fa-420f471d8c96"},"vehicle_type_id":"4","last_reported":1753859792,"current_range_meters":4800,"station_id":"ce4bgup2rcd13ifvqcn0","pricing_plan_id":"cebpf4jnsgd1na2vs0mg"},{"bike_id":"8a569b31-55c0-441f-9435-5ac594ac9c22","system_id":"levelo_inurba_marseille","lat":43.297302,"lon":5.374166,"is_reserved":false,"is_disabled":false,"rental_uris":{"android":"levelo://app?vid=8a569b31-55c0-441f-9435-5ac594ac9c22","ios":"levelo://app?vid=8a569b31-55c0-441f-9435-5ac594ac9c22"},"vehicle_type_id":"4","last_reported":1753859792,"current_range_meters":4800,"station_id":"","pricing_plan_id":"cebpf4jnsgd1na2vs0mg"},{"bike_id":"370ae9b0-a2a5-4171-8a99-35a3daa5d2ab","system_id":"levelo_inurba_marseille","lat":43.284208,"lon":5.349867,"is_reserved":false,"is_disabled":true,"rental_uris":{"android":"levelo://app?vid=370ae9b0-a2a5-4171-8a99-35a3daa5d2ab","ios":"levelo://app?vid=370ae9b0-a2a5-4171-8a99-35a3daa5d2ab"},"vehicle_type_id":"4","last_reported":1753859792,"current_range_meters":4800,"station_id":"ce4bhbh2rcd13ifvqepg","pricing_plan_id":"cebpf4jnsgd1na2vs0mg"},{"bike_id":"edbc8d56-bf45-40cb-a925-e1997d545da9","system_id":"levelo_inurba_marseille","lat":43.31336,"lon":5.39681,"is_reserved":false,"is_disabled":false,"rental_uris":{"android":"levelo://app?vid=edbc8d56-bf45-40cb-a925-e1997d545da9","ios":"levelo://app?vid=edbc8d56-bf45-40cb-a925-e1997d545da9"},"vehicle_type_id":"4","last_reported":1753859792,"current_range_meters":4800,"station_id":"ce4bgvp2rcd13ifvqcu0","pricing_plan_id":"cebpf4jnsgd1na2vs0mg"},{"bike_id":"209c73e6-1f69-4d13-9fed-77cb46eecd05","system_id":"levelo_inurba_marseille","lat":43.34681,"lon":5.38065,"is_reserved":false,"is_disabled":false,"rental_uris":{"android":"levelo://app?vid=209c73e6-1f69-4d13-9fed-77cb46eecd05","ios":"levelo://app?vid=209c73e6-1f69-4d13-9fed-77cb46eecd05"},"vehicle_type_id":"4","last_reported":1753859792,"current_range_meters":4800,"station_id":"","pricing_plan_id":"cebpf4jnsgd1na2vs0mg"},{"bike_id":"181c8049-4fb7-4c27-a6b2-7bb8fea4f09f","system_id":"levelo_inurba_marseille","lat":43.29532,"lon":5.39268,"is_reserved":false,"is_disabled":false,"rental_uris":{"android":"levelo://app?vid=181c8049-4fb7-4c27-a6b2-7bb8fea4f09f","ios":"levelo://app?vid=181c8049-4fb7-4c27-a6b2-7bb8fea4f09f"},"vehicle_type_id":"4","last_reported":1753859792,"current_range_meters":5600,"station_id":"","pricing_plan_id":"cebpf4jnsgd1na2vs0mg"},{"bike_id":"80915a30-ef88-4d81-b5d1-969d1c17a42d","system_id":"levelo_inurba_marseille","lat":43.30413,"lon":5.40821,"is_reserved":false,"is_disabled":false,"rental_uris":{"android":"levelo://app?vid=80915a30-ef88-4d81-b5d1-969d1c17a42d","ios":"levelo://app?vid=80915a30-ef88-4d81-b5d1-969d1c17a42d"},"vehicle_type_id":"4","last_reported":1753859792,"current_range_meters":5600,"station_id":"","pricing_plan_id":"cebpf4jnsgd1na2vs0mg"},{"bike_id":"95dd70e4-879c-49e7-b318-a6c71b22a43e","system_id":"levelo_inurba_marseille","lat":43.2703,"lon":5.39295,"is_reserved":false,"is_disabled":false,"rental_uris":{"android":"levelo://app?vid=95dd70e4-879c-49e7-b318-a6c71b22a43e","ios":"levelo://app?vid=95dd70e4-879c-49e7-b318-a6c71b22a43e"},"vehicle_type_id":"4","last_reported":1753859792,"current_range_meters":5600,"station_id":"","pricing_plan_id":"cebpf4jnsgd1na2vs0mg"},{"bike_id":"65e3db07-f188-422b-b687-3d06cfe2bcf8","system_id":"levelo_inurba_marseille","lat":43.280434,"lon":5.350075,"is_reserved":false,"is_disabled":false,"rental_uris":{"android":"levelo://app?vid=65e3db07-f188-422b-b687-3d06cfe2bcf8","ios":"levelo://app?vid=65e3db07-f188-422b-b687-3d06cfe2bcf8"},"vehicle_type_id":"4","last_reported":1753859792,"current_range_meters":6000,"station_id":"","pricing_plan_id":"cebpf4jnsgd1na2vs0mg"},{"bike_id":"6fc6a898-ca39-4f1a-a017-12dca116cecb","system_id":"levelo_inurba_marseille","lat":43.30796,"lon":5.43522,"is_reserved":false,"is_disabled":false,"rental_uris":{"android":"levelo://app?vid=6fc6a898-ca39-4f1a-a017-12dca116cecb","ios":"levelo://app?vid=6fc6a898-ca39-4f1a-a017-12dca116cecb"},"vehicle_type_id":"4","last_reported":1753859792,"current_range_meters":5600,"station_id":"ce4bhph2rcd13ifvqheg","pricing_plan_id":"cebpf4jnsgd1na2vs0mg"},{"bike_id":"b74c3768-eb8a-4205-8dbb-b16d09d8a7a5","system_id":"levelo_inurba_marseille","lat":43.308842,"lon":5.396301,"is_reserved":false,"is_disabled":false,"rental_uris":{"android":"levelo://app?vid=b74c3768-eb8a-4205-8dbb-b16d09d8a7a5","ios":"levelo://app?vid=b74c3768-eb8a-4205-8dbb-b16d09d8a7a5"},"vehicle_type_id":"4","last_reported":1753859792,"current_range_meters":6000,"station_id":"ce4bh012rcd13ifvqcv0","pricing_plan_id":"cebpf4jnsgd1na2vs0mg"},{"bike_id":"494c6822-e6f7-4d56-aebe-7ab2dd4beb12","system_id":"levelo_inurba_marseille","lat":43.290406,"lon":5.375686,"is_reserved":false,"is_disabled":false,"rental_uris":{"android":"levelo://app?vid=494c6822-e6f7-4d56-aebe-7ab2dd4beb12","ios":"levelo://app?vid=494c6822-e6f7-4d56-aebe-7ab2dd4beb12"},"vehicle_type_id":"4","last_reported":1753859792,"current_range_meters":6000,"station_id":"ce4bh692rcd13ifvqe90","pricing_plan_id":"cebpf4jnsgd1na2vs0mg"},{"bike_id":"7ead535a-e7f2-4489-9051-59e4f5eeec8a","system_id":"levelo_inurba_marseille","lat":43.306859,"lon":5.373444,"is_reserved":false,"is_disabled":false,"rental_uris":{"android":"levelo://app?vid=7ead535a-e7f2-4489-9051-59e4f5eeec8a","ios":"levelo://app?vid=7ead535a-e7f2-4489-9051-59e4f5eeec8a"},"vehicle_type_id":"4","last_reported":1753859792,"current_range_meters":6800,"station_id":"","pricing_plan_id":"cebpf4jnsgd1na2vs0mg"},{"bike_id":"149fbe11-3bce-47a0-b584-c7c7bd6bb12f","system_id":"levelo_inurba_marseille","lat":43.216274,"lon":5.344367,"is_reserved":false,"is_disabled":false,"rental_uris":{"android":"levelo://app?vid=149fbe11-3bce-47a0-b584-c7c7bd6bb12f","ios":"levelo://app?vid=149fbe11-3bce-47a0-b584-c7c7bd6bb12f"},"vehicle_type_id":"4","last_reported":1753859792,"current_range_meters":6800,"station_id":"","pricing_plan_id":"cebpf4jnsgd1na2vs0mg"},{"bike_id":"882bdff1-651a-41c1-9ab0-596f43205cf1","system_id":"levelo_inurba_marseille","lat":43.337444,"lon":5.374475,"is_reserved":false,"is_disabled":false,"rental_uris":{"android":"levelo://app?vid=882bdff1-651a-41c1-9ab0-596f43205cf1","ios":"levelo://app?vid=882bdff1-651a-41c1-9ab0-596f43205cf1"},"vehicle_type_id":"4","last_reported":1753859792,"current_range_meters":7200,"station_id":"ce4bgkp2rcd13ifvqbmg","pricing_plan_id":"cebpf4jnsgd1na2vs0mg"},{"bike_id":"632d7b60-ee4b-4add-ac5a-9a94e1aa7ee0","system_id":"levelo_inurba_marseille","lat":43.24175,"lon":5.39728,"is_reserved":false,"is_disabled":false,"rental_uris":{"android":"levelo://app?vid=632d7b60-ee4b-4add-ac5a-9a94e1aa7ee0","ios":"levelo://app?vid=632d7b60-ee4b-4add-ac5a-9a94e1aa7ee0"},"vehicle_type_id":"4","last_reported":1753859792,"current_range_meters":7200,"station_id":"ce4bhn12rcd13ifvqgpg","pricing_plan_id":"cebpf4jnsgd1na2vs0mg"},{"bike_id":"92383e12-1bb9-481d-8178-8f4713781f5b","system_id":"levelo_inurba_marseille","lat":43.29267,"lon":5.37614,"is_reserved":false,"is_disabled":false,"rental_uris":{"android":"levelo://app?vid=92383e12-1bb9-481d-8178-8f4713781f5b","ios":"levelo://app?vid=92383e12-1bb9-481d-8178-8f4713781f5b"},"vehicle_type_id":"4","last_reported":1753859792,"current_range_meters":7200,"station_id":"ce4bgi12rcd13ifvqb80","pricing_plan_id":"cebpf4jnsgd1na2vs0mg"},{"bike_id":"64d16de7-cb0f-4526-b27b-218cfae2b026","system_id":"levelo_inurba_marseille","lat":43.32373,"lon":5.36774,"is_reserved":false,"is_disabled":false,"rental_uris":{"android":"levelo://app?vid=64d16de7-cb0f-4526-b27b-218cfae2b026","ios":"levelo://app?vid=64d16de7-cb0f-4526-b27b-218cfae2b026"},"vehicle_type_id":"4","last_reported":1753859792,"current_range_meters":7200,"station_id":"ce4bhsh2rcd13ifvqi2g","pricing_plan_id":"cebpf4jnsgd1na2vs0mg"},{"bike_id":"363cd716-fe3b-4131-b0d7-bfb529d3966c","system_id":"levelo_inurba_marseille","lat":43.29794,"lon":5.37091,"is_reserved":false,"is_disabled":false,"rental_uris":{"android":"levelo://app?vid=363cd716-fe3b-4131-b0d7-bfb529d3966c","ios":"levelo://app?vid=363cd716-fe3b-4131-b0d7-bfb529d3966c"},"vehicle_type_id":"4","last_reported":1753859792,"current_range_meters":7200,"station_id":"ce4bgop2rcd13ifvqc1g","pricing_plan_id":"cebpf4jnsgd1na2vs0mg"},{"bike_id":"9054b4b1-1bf4-4af0-9b0d-75c5f3bc27da","system_id":"levelo_inurba_marseille","lat":43.24648,"lon":5.38904,"is_reserved":false,"is_disabled":false,"rental_uris":{"android":"levelo://app?vid=9054b4b1-1bf4-4af0-9b0d-75c5f3bc27da","ios":"levelo://app?vid=9054b4b1-1bf4-4af0-9b0d-75c5f3bc27da"},"vehicle_type_id":"4","last_reported":1753859792,"current_range_meters":7200,"station_id":"ce4bhg12rcd13ifvqf60","pricing_plan_id":"cebpf4jnsgd1na2vs0mg"},{"bike_id":"5c472ca2-ec2e-4e6e-9224-c1e25bb75340","system_id":"levelo_inurba_marseille","lat":43.29321,"lon":5.37174,"is_reserved":false,"is_disabled":false,"rental_uris":{"android":"levelo://app?vid=5c472ca2-ec2e-4e6e-9224-c1e25bb75340","ios":"levelo://app?vid=5c472ca2-ec2e-4e6e-9224-c1e25bb75340"},"vehicle_type_id":"4","last_reported":1753859792,"current_range_meters":7200,"station_id":"ce4bgh92rcd13ifvqb40","pricing_plan_id":"cebpf4jnsgd1na2vs0mg"},{"bike_id":"2a3a9f20-00d1-4c95-a093-ba8e28724bc0","system_id":"levelo_inurba_marseille","lat":43.306883,"lon":5.375565,"is_reserved":false,"is_disabled":false,"rental_uris":{"android":"levelo://app?vid=2a3a9f20-00d1-4c95-a093-ba8e28724bc0","ios":"levelo://app?vid=2a3a9f20-00d1-4c95-a093-ba8e28724bc0"},"vehicle_type_id":"4","last_reported":1753859792,"current_range_meters":7200,"station_id":"","pricing_plan_id":"cebpf4jnsgd1na2vs0mg"},{"bike_id":"ee294293-b484-40ec-a941-e6b5b62a025b","system_id":"levelo_inurba_marseille","lat":43.211894,"lon":5.350736,"is_reserved":false,"is_disabled":false,"rental_uris":{"android":"levelo://app?vid=ee294293-b484-40ec-a941-e6b5b62a025b","ios":"levelo://app?vid=ee294293-b484-40ec-a941-e6b5b62a025b"},"vehicle_type_id":"4","last_reported":1753859792,"current_range_meters":8000,"station_id":"st_cvj6sg6p6f1abm77japg","pricing_plan_id":"cebpf4jnsgd1na2vs0mg"},{"bike_id":"3b08c7fe-da62-4fb4-8da1-3e8b0064e2d8","system_id":"levelo_inurba_marseille","lat":43.308908,"lon":5.396435,"is_reserved":false,"is_disabled":false,"rental_uris":{"android":"levelo://app?vid=3b08c7fe-da62-4fb4-8da1-3e8b0064e2d8","ios":"levelo://app?vid=3b08c7fe-da62-4fb4-8da1-3e8b0064e2d8"},"vehicle_type_id":"4","last_reported":1753859792,"current_range_meters":8000,"station_id":"ce4bh012rcd13ifvqcv0","pricing_plan_id":"cebpf4jnsgd1na2vs0mg"},{"bike_id":"edef2d62-2376-4a3b-9acb-4bcafacf33ad","system_id":"levelo_inurba_marseille","lat":43.29958,"lon":5.37158,"is_reserved":false,"is_disabled":false,"rental_uris":{"android":"levelo://app?vid=edef2d62-2376-4a3b-9acb-4bcafacf33ad","ios":"levelo://app?vid=edef2d62-2376-4a3b-9acb-4bcafacf33ad"},"vehicle_type_id":"4","last_reported":1753859792,"current_range_meters":8000,"station_id":"ce4bgr92rcd13ifvqc7g","pricing_plan_id":"cebpf4jnsgd1na2vs0mg"},{"bike_id":"d4b0442d-37e3-4887-8827-87b59f4e9086","system_id":"levelo_inurba_marseille","lat":43.2977,"lon":5.38108,"is_reserved":false,"is_disabled":false,"rental_uris":{"android":"levelo://app?vid=d4b0442d-37e3-4887-8827-87b59f4e9086","ios":"levelo://app?vid=d4b0442d-37e3-4887-8827-87b59f4e9086"},"vehicle_type_id":"4","last_reported":1753859792,"current_range_meters":8000,"station_id":"","pricing_plan_id":"cebpf4jnsgd1na2vs0mg"},{"bike_id":"37893da5-64f1-41a3-ad6b-ddd7c20d9fba","system_id":"levelo_inurba_marseille","lat":43.3047,"lon":5.3791,"is_reserved":false,"is_disabled":false,"rental_uris":{"android":"levelo://app?vid=37893da5-64f1-41a3-ad6b-ddd7c20d9fba","ios":"levelo://app?vid=37893da5-64f1-41a3-ad6b-ddd7c20d9fba"},"vehicle_type_id":"4","last_reported":1753859792,"current_range_meters":8000,"station_id":"ce4bgup2rcd13ifvqcn0","pricing_plan_id":"cebpf4jnsgd1na2vs0mg"},{"bike_id":"bb650ed0-d989-4f7c-9fda-1512931e29aa","system_id":"levelo_inurba_marseille","lat":43.29976,"lon":5.37161,"is_reserved":false,"is_disabled":false,"rental_uris":{"android":"levelo://app?vid=bb650ed0-d989-4f7c-9fda-1512931e29aa","ios":"levelo://app?vid=bb650ed0-d989-4f7c-9fda-1512931e29aa"},"vehicle_type_id":"4","last_reported":1753859792,"current_range_meters":8000,"station_id":"ce4bgr92rcd13ifvqc7g","pricing_plan_id":"cebpf4jnsgd1na2vs0mg"},{"bike_id":"d7918252-9ded-43fa-9c14-191d8e290ecf","system_id":"levelo_inurba_marseille","lat":43.31729,"lon":5.40465,"is_reserved":false,"is_disabled":false,"rental_uris":{"android":"levelo://app?vid=d7918252-9ded-43fa-9c14-191d8e290ecf","ios":"levelo://app?vid=d7918252-9ded-43fa-9c14-191d8e290ecf"},"vehicle_type_id":"4","last_reported":1753859792,"current_range_meters":8400,"station_id":"","pricing_plan_id":"cebpf4jnsgd1na2vs0mg"},{"bike_id":"b958e876-273b-40f7-a30c-a3cdc266298a","system_id":"levelo_inurba_marseille","lat":43.31221,"lon":5.36842,"is_reserved":false,"is_disabled":false,"rental_uris":{"android":"levelo://app?vid=b958e876-273b-40f7-a30c-a3cdc266298a","ios":"levelo://app?vid=b958e876-273b-40f7-a30c-a3cdc266298a"},"vehicle_type_id":"4","last_reported":1753859792,"current_range_meters":8400,"station_id":"ce4bgl92rcd13ifvqbq0","pricing_plan_id":"cebpf4jnsgd1na2vs0mg"},{"bike_id":"7e9aeb8e-f66f-43c2-a59d-c0e42783ddbc","system_id":"levelo_inurba_marseille","lat":43.25403,"lon":5.41896,"is_reserved":false,"is_disabled":false,"rental_uris":{"android":"levelo://app?vid=7e9aeb8e-f66f-43c2-a59d-c0e42783ddbc","ios":"levelo://app?vid=7e9aeb8e-f66f-43c2-a59d-c0e42783ddbc"},"vehicle_type_id":"4","last_reported":1753859792,"current_range_meters":8400,"station_id":"","pricing_plan_id":"cebpf4jnsgd1na2vs0mg"},{"bike_id":"6ece6d3c-2e2e-4625-81f6-1bd7ab7fe783","system_id":"levelo_inurba_marseille","lat":43.301535,"lon":5.380805,"is_reserved":false,"is_disabled":false,"rental_uris":{"android":"levelo://app?vid=6ece6d3c-2e2e-4625-81f6-1bd7ab7fe783","ios":"levelo://app?vid=6ece6d3c-2e2e-4625-81f6-1bd7ab7fe783"},"vehicle_type_id":"4","last_reported":1753859792,"current_range_meters":8400,"station_id":"ce4bgjp2rcd13ifvqbh0","pricing_plan_id":"cebpf4jnsgd1na2vs0mg"},{"bike_id":"37fcf059-83b8-4b6e-bc28-0c83f77e3c05","system_id":"levelo_inurba_marseille","lat":43.22557,"lon":5.34759,"is_reserved":false,"is_disabled":false,"rental_uris":{"android":"levelo://app?vid=37fcf059-83b8-4b6e-bc28-0c83f77e3c05","ios":"levelo://app?vid=37fcf059-83b8-4b6e-bc28-0c83f77e3c05"},"vehicle_type_id":"4","last_reported":1753859792,"current_range_meters":8400,"station_id":"","pricing_plan_id":"cebpf4jnsgd1na2vs0mg"},{"bike_id":"872b45f1-9a7e-47f7-92a5-f405d47b9857","system_id":"levelo_inurba_marseille","lat":43.27967,"lon":5.38734,"is_reserved":false,"is_disabled":false,"rental_uris":{"android":"levelo://app?vid=872b45f1-9a7e-47f7-92a5-f405d47b9857","ios":"levelo://app?vid=872b45f1-9a7e-47f7-92a5-f405d47b9857"},"vehicle_type_id":"4","last_reported":1753859792,"current_range_meters":8400,"station_id":"ce4bhg12rcd13ifvqf80","pricing_plan_id":"cebpf4jnsgd1na2vs0mg"},{"bike_id":"55201a9e-328f-452a-8b58-b76f0e5a4511","system_id":"levelo_inurba_marseille","lat":43.23181,"lon":5.400041,"is_reserved":false,"is_disabled":true,"rental_uris":{"android":"levelo://app?vid=55201a9e-328f-452a-8b58-b76f0e5a4511","ios":"levelo://app?vid=55201a9e-328f-452a-8b58-b76f0e5a4511"},"vehicle_type_id":"4","last_reported":1753859792,"current_range_meters":8800,"station_id":"ce4bhn12rcd13ifvqgqg","pricing_plan_id":"cebpf4jnsgd1na2vs0mg"},{"bike_id":"9ef0bad5-595e-4d28-90ae-6550089f4a98","system_id":"levelo_inurba_marseille","lat":43.30559,"lon":5.36704,"is_reserved":false,"is_disabled":false,"rental_uris":{"android":"levelo://app?vid=9ef0bad5-595e-4d28-90ae-6550089f4a98","ios":"levelo://app?vid=9ef0bad5-595e-4d28-90ae-6550089f4a98"},"vehicle_type_id":"4","last_reported":1753859792,"current_range_meters":8800,"station_id":"ce4bgrp2rcd13ifvqc9g","pricing_plan_id":"cebpf4jnsgd1na2vs0mg"},{"bike_id":"6bfe09b6-60c3-4a80-8cd6-4732abbe2c70","system_id":"levelo_inurba_marseille","lat":43.29316,"lon":5.37175,"is_reserved":false,"is_disabled":false,"rental_uris":{"android":"levelo://app?vid=6bfe09b6-60c3-4a80-8cd6-4732abbe2c70","ios":"levelo://app?vid=6bfe09b6-60c3-4a80-8cd6-4732abbe2c70"},"vehicle_type_id":"4","last_reported":1753859792,"current_range_meters":8800,"station_id":"ce4bgh92rcd13ifvqb40","pricing_plan_id":"cebpf4jnsgd1na2vs0mg"},{"bike_id":"b91eea8e-5bfd-4015-80e3-c6a73f1ee420","system_id":"levelo_inurba_marseille","lat":43.32078,"lon":5.36764,"is_reserved":false,"is_disabled":false,"rental_uris":{"android":"levelo://app?vid=b91eea8e-5bfd-4015-80e3-c6a73f1ee420","ios":"levelo://app?vid=b91eea8e-5bfd-4015-80e3-c6a73f1ee420"},"vehicle_type_id":"4","last_reported":1753859792,"current_range_meters":8800,"station_id":"ce4bhrh2rcd13ifvqhug","pricing_plan_id":"cebpf4jnsgd1na2vs0mg"},{"bike_id":"da913aa8-3d8c-4ab2-b48f-187998fd2a99","system_id":"levelo_inurba_marseille","lat":43.29575,"lon":5.36739,"is_reserved":false,"is_disabled":false,"rental_uris":{"android":"levelo://app?vid=da913aa8-3d8c-4ab2-b48f-187998fd2a99","ios":"levelo://app?vid=da913aa8-3d8c-4ab2-b48f-187998fd2a99"},"vehicle_type_id":"4","last_reported":1753859792,"current_range_meters":9200,"station_id":"ce4bgph2rcd13ifvqc2g","pricing_plan_id":"cebpf4jnsgd1na2vs0mg"},{"bike_id":"9a9f7ee4-cd30-4503-882e-9e36249bea47","system_id":"levelo_inurba_marseille","lat":43.29538,"lon":5.39011,"is_reserved":false,"is_disabled":true,"rental_uris":{"android":"levelo://app?vid=9a9f7ee4-cd30-4503-882e-9e36249bea47","ios":"levelo://app?vid=9a9f7ee4-cd30-4503-882e-9e36249bea47"},"vehicle_type_id":"4","last_reported":1753859792,"current_range_meters":9200,"station_id":"ce4bh3p2rcd13ifvqdp0","pricing_plan_id":"cebpf4jnsgd1na2vs0mg"},{"bike_id":"b5e469a6-8e8f-4b1a-91cc-e9f6f04151ad","system_id":"levelo_inurba_marseille","lat":43.29586,"lon":5.43667,"is_reserved":false,"is_disabled":false,"rental_uris":{"android":"levelo://app?vid=b5e469a6-8e8f-4b1a-91cc-e9f6f04151ad","ios":"levelo://app?vid=b5e469a6-8e8f-4b1a-91cc-e9f6f04151ad"},"vehicle_type_id":"4","last_reported":1753859792,"current_range_meters":9200,"station_id":"","pricing_plan_id":"cebpf4jnsgd1na2vs0mg"},{"bike_id":"91dedfa9-6c8d-437a-a4ea-107111842acd","system_id":"levelo_inurba_marseille","lat":43.28038,"lon":5.3695,"is_reserved":false,"is_disabled":false,"rental_uris":{"android":"levelo://app?vid=91dedfa9-6c8d-437a-a4ea-107111842acd","ios":"levelo://app?vid=91dedfa9-6c8d-437a-a4ea-107111842acd"},"vehicle_type_id":"4","last_reported":1753859792,"current_range_meters":9200,"station_id":"ce4bha12rcd13ifvqef0","pricing_plan_id":"cebpf4jnsgd1na2vs0mg"},{"bike_id":"7cc1da72-5a84-4656-af48-1b30d4971806","system_id":"levelo_inurba_marseille","lat":43.26249,"lon":5.39782,"is_reserved":false,"is_disabled":false,"rental_uris":{"android":"levelo://app?vid=7cc1da72-5a84-4656-af48-1b30d4971806","ios":"levelo://app?vid=7cc1da72-5a84-4656-af48-1b30d4971806"},"vehicle_type_id":"4","last_reported":1753859792,"current_range_meters":9200,"station_id":"","pricing_plan_id":"cebpf4jnsgd1na2vs0mg"},{"bike_id":"cf93a6c0-e83e-44e7-afe7-d8cefafb93e3","system_id":"levelo_inurba_marseille","lat":43.29552,"lon":5.42285,"is_reserved":false,"is_disabled":false,"rental_uris":{"android":"levelo://app?vid=cf93a6c0-e83e-44e7-afe7-d8cefafb93e3","ios":"levelo://app?vid=cf93a6c0-e83e-44e7-afe7-d8cefafb93e3"},"vehicle_type_id":"4","last_reported":1753859792,"current_range_meters":9200,"station_id":"ce4bhph2rcd13ifvqhdg","pricing_plan_id":"cebpf4jnsgd1na2vs0mg"},{"bike_id":"5de1edf2-7625-49c3-b2e3-b1ada2f1f7f4","system_id":"levelo_inurba_marseille","lat":43.285377,"lon":5.3738,"is_reserved":false,"is_disabled":false,"rental_uris":{"android":"levelo://app?vid=5de1edf2-7625-49c3-b2e3-b1ada2f1f7f4","ios":"levelo://app?vid=5de1edf2-7625-49c3-b2e3-b1ada2f1f7f4"},"vehicle_type_id":"4","last_reported":1753859792,"current_range_meters":9200,"station_id":"ce4bht12rcd13ifvqi60","pricing_plan_id":"cebpf4jnsgd1na2vs0mg"},{"bike_id":"eb9042a2-1eb1-43d6-9127-890efbe72dea","system_id":"levelo_inurba_marseille","lat":43.31359,"lon":5.38494,"is_reserved":false,"is_disabled":false,"rental_uris":{"android":"levelo://app?vid=eb9042a2-1eb1-43d6-9127-890efbe72dea","ios":"levelo://app?vid=eb9042a2-1eb1-43d6-9127-890efbe72dea"},"vehicle_type_id":"4","last_reported":1753859792,"current_range_meters":9200,"station_id":"ce4bgt92rcd13ifvqcf0","pricing_plan_id":"cebpf4jnsgd1na2vs0mg"},{"bike_id":"5139116d-9424-4cef-93b3-b66d7928b57c","system_id":"levelo_inurba_marseille","lat":43.29258,"lon":5.40106,"is_reserved":false,"is_disabled":true,"rental_uris":{"android":"levelo://app?vid=5139116d-9424-4cef-93b3-b66d7928b57c","ios":"levelo://app?vid=5139116d-9424-4cef-93b3-b66d7928b57c"},"vehicle_type_id":"4","last_reported":1753859792,"current_range_meters":9600,"station_id":"ce4bh312rcd13ifvqdk0","pricing_plan_id":"cebpf4jnsgd1na2vs0mg"},{"bike_id":"50427cb4-f7c5-45fa-9402-39ede650aa5c","system_id":"levelo_inurba_marseille","lat":43.31293,"lon":5.40158,"is_reserved":false,"is_disabled":false,"rental_uris":{"android":"levelo://app?vid=50427cb4-f7c5-45fa-9402-39ede650aa5c","ios":"levelo://app?vid=50427cb4-f7c5-45fa-9402-39ede650aa5c"},"vehicle_type_id":"4","last_reported":1753859792,"current_range_meters":9600,"station_id":"ce4bh092rcd13ifvqd30","pricing_plan_id":"cebpf4jnsgd1na2vs0mg"},{"bike_id":"cda6e837-df72-433c-8eab-6b3a7b65d25d","system_id":"levelo_inurba_marseille","lat":43.24173,"lon":5.39729,"is_reserved":false,"is_disabled":false,"rental_uris":{"android":"levelo://app?vid=cda6e837-df72-433c-8eab-6b3a7b65d25d","ios":"levelo://app?vid=cda6e837-df72-433c-8eab-6b3a7b65d25d"},"vehicle_type_id":"4","last_reported":1753859792,"current_range_meters":9600,"station_id":"ce4bhn12rcd13ifvqgpg","pricing_plan_id":"cebpf4jnsgd1na2vs0mg"},{"bike_id":"b0f2b2c1-b378-4164-a22b-6eceaa434acc","system_id":"levelo_inurba_marseille","lat":43.29221,"lon":5.42673,"is_reserved":false,"is_disabled":false,"rental_uris":{"android":"levelo://app?vid=b0f2b2c1-b378-4164-a22b-6eceaa434acc","ios":"levelo://app?vid=b0f2b2c1-b378-4164-a22b-6eceaa434acc"},"vehicle_type_id":"4","last_reported":1753859792,"current_range_meters":9600,"station_id":"","pricing_plan_id":"cebpf4jnsgd1na2vs0mg"},{"bike_id":"a5d21f19-a2f8-4c79-9341-84f97b97beb0","system_id":"levelo_inurba_marseille","lat":43.3339,"lon":5.40092,"is_reserved":false,"is_disabled":false,"rental_uris":{"android":"levelo://app?vid=a5d21f19-a2f8-4c79-9341-84f97b97beb0","ios":"levelo://app?vid=a5d21f19-a2f8-4c79-9341-84f97b97beb0"},"vehicle_type_id":"4","last_reported":1753859792,"current_range_meters":9600,"station_id":"","pricing_plan_id":"cebpf4jnsgd1na2vs0mg"},{"bike_id":"145808b6-bd6e-4373-a5f8-64c90b6b6c82","system_id":"levelo_inurba_marseille","lat":43.31336,"lon":5.36713,"is_reserved":false,"is_disabled":false,"rental_uris":{"android":"levelo://app?vid=145808b6-bd6e-4373-a5f8-64c90b6b6c82","ios":"levelo://app?vid=145808b6-bd6e-4373-a5f8-64c90b6b6c82"},"vehicle_type_id":"4","last_reported":1753859792,"current_range_meters":9600,"station_id":"ce4bgr92rcd13ifvqc6g","pricing_plan_id":"cebpf4jnsgd1na2vs0mg"},{"bike_id":"036b9385-ac6e-4636-91bb-e02909e77d53","system_id":"levelo_inurba_marseille","lat":43.321125,"lon":5.367702,"is_reserved":false,"is_disabled":false,"rental_uris":{"android":"levelo://app?vid=036b9385-ac6e-4636-91bb-e02909e77d53","ios":"levelo://app?vid=036b9385-ac6e-4636-91bb-e02909e77d53"},"vehicle_type_id":"4","last_reported":1753859792,"current_range_meters":9600,"station_id":"ce4bhrh2rcd13ifvqhug","pricing_plan_id":"cebpf4jnsgd1na2vs0mg"},{"bike_id":"dfce3856-466c-4b68-a0d5-1243834daf02","system_id":"levelo_inurba_marseille","lat":43.24999,"lon":5.38929,"is_reserved":false,"is_disabled":false,"rental_uris":{"android":"levelo://app?vid=dfce3856-466c-4b68-a0d5-1243834daf02","ios":"levelo://app?vid=dfce3856-466c-4b68-a0d5-1243834daf02"},"vehicle_type_id":"4","last_reported":1753859792,"current_range_meters":9600,"station_id":"ce4bhgp2rcd13ifvqfd0","pricing_plan_id":"cebpf4jnsgd1na2vs0mg"},{"bike_id":"1c2cee29-6d27-4bdf-b97c-eecf71616341","system_id":"levelo_inurba_marseille","lat":43.231865,"lon":5.355607,"is_reserved":false,"is_disabled":false,"rental_uris":{"android":"levelo://app?vid=1c2cee29-6d27-4bdf-b97c-eecf71616341","ios":"levelo://app?vid=1c2cee29-6d27-4bdf-b97c-eecf71616341"},"vehicle_type_id":"4","last_reported":1753859792,"current_range_meters":10000,"station_id":"ce4bhu92rcd13ifvqi70","pricing_plan_id":"cebpf4jnsgd1na2vs0mg"},{"bike_id":"73c28b44-fb9a-4083-b9eb-e60de241e4cb","system_id":"levelo_inurba_marseille","lat":43.323618,"lon":5.388893,"is_reserved":false,"is_disabled":false,"rental_uris":{"android":"levelo://app?vid=73c28b44-fb9a-4083-b9eb-e60de241e4cb","ios":"levelo://app?vid=73c28b44-fb9a-4083-b9eb-e60de241e4cb"},"vehicle_type_id":"4","last_reported":1753859792,"current_range_meters":10000,"station_id":"ce4bhqp2rcd13ifvqhog","pricing_plan_id":"cebpf4jnsgd1na2vs0mg"},{"bike_id":"2f5a766e-3ece-4a36-9442-eef7b36a8a22","system_id":"levelo_inurba_marseille","lat":43.24822,"lon":5.37457,"is_reserved":false,"is_disabled":false,"rental_uris":{"android":"levelo://app?vid=2f5a766e-3ece-4a36-9442-eef7b36a8a22","ios":"levelo://app?vid=2f5a766e-3ece-4a36-9442-eef7b36a8a22"},"vehicle_type_id":"4","last_reported":1753859792,"current_range_meters":10000,"station_id":"ce4bhgh2rcd13ifvqfb0","pricing_plan_id":"cebpf4jnsgd1na2vs0mg"},{"bike_id":"d3ccb0ed-778c-4fc8-a9fb-ca77740dd70a","system_id":"levelo_inurba_marseille","lat":43.30478,"lon":5.37899,"is_reserved":false,"is_disabled":false,"rental_uris":{"android":"levelo://app?vid=d3ccb0ed-778c-4fc8-a9fb-ca77740dd70a","ios":"levelo://app?vid=d3ccb0ed-778c-4fc8-a9fb-ca77740dd70a"},"vehicle_type_id":"4","last_reported":1753859792,"current_range_meters":10000,"station_id":"ce4bgup2rcd13ifvqcn0","pricing_plan_id":"cebpf4jnsgd1na2vs0mg"},{"bike_id":"d26365d2-3cd7-4e3c-808d-3362d6bbfb56","system_id":"levelo_inurba_marseille","lat":43.29587,"lon":5.36735,"is_reserved":false,"is_disabled":false,"rental_uris":{"android":"levelo://app?vid=d26365d2-3cd7-4e3c-808d-3362d6bbfb56","ios":"levelo://app?vid=d26365d2-3cd7-4e3c-808d-3362d6bbfb56"},"vehicle_type_id":"4","last_reported":1753859792,"current_range_meters":10000,"station_id":"ce4bgph2rcd13ifvqc2g","pricing_plan_id":"cebpf4jnsgd1na2vs0mg"},{"bike_id":"f73f8966-8b7e-457a-8b9d-c5b89ce65a5c","system_id":"levelo_inurba_marseille","lat":43.28418,"lon":5.34978,"is_reserved":false,"is_disabled":true,"rental_uris":{"android":"levelo://app?vid=f73f8966-8b7e-457a-8b9d-c5b89ce65a5c","ios":"levelo://app?vid=f73f8966-8b7e-457a-8b9d-c5b89ce65a5c"},"vehicle_type_id":"4","last_reported":1753859792,"current_range_meters":10000,"station_id":"ce4bhbh2rcd13ifvqepg","pricing_plan_id":"cebpf4jnsgd1na2vs0mg"},{"bike_id":"3d4696de-a064-4a37-9930-53ec06ebfbfd","system_id":"levelo_inurba_marseille","lat":43.31226,"lon":5.36827,"is_reserved":false,"is_disabled":false,"rental_uris":{"android":"levelo://app?vid=3d4696de-a064-4a37-9930-53ec06ebfbfd","ios":"levelo://app?vid=3d4696de-a064-4a37-9930-53ec06ebfbfd"},"vehicle_type_id":"4","last_reported":1753859792,"current_range_meters":10000,"station_id":"ce4bgl92rcd13ifvqbq0","pricing_plan_id":"cebpf4jnsgd1na2vs0mg"},{"bike_id":"d67e0e99-7b83-4e70-99f0-d1403f37dbd8","system_id":"levelo_inurba_marseille","lat":43.30142,"lon":5.3808,"is_reserved":false,"is_disabled":false,"rental_uris":{"android":"levelo://app?vid=d67e0e99-7b83-4e70-99f0-d1403f37dbd8","ios":"levelo://app?vid=d67e0e99-7b83-4e70-99f0-d1403f37dbd8"},"vehicle_type_id":"4","last_reported":1753859792,"current_range_meters":10000,"station_id":"ce4bgjp2rcd13ifvqbh0","pricing_plan_id":"cebpf4jnsgd1na2vs0mg"},{"bike_id":"24256dfb-30b8-44fe-a71a-46c10cfa4edc","system_id":"levelo_inurba_marseille","lat":43.313912,"lon":5.367091,"is_reserved":false,"is_disabled":false,"rental_uris":{"android":"levelo://app?vid=24256dfb-30b8-44fe-a71a-46c10cfa4edc","ios":"levelo://app?vid=24256dfb-30b8-44fe-a71a-46c10cfa4edc"},"vehicle_type_id":"4","last_reported":1753859792,"current_range_meters":10000,"station_id":"","pricing_plan_id":"cebpf4jnsgd1na2vs0mg"},{"bike_id":"379c7f09-561d-4db9-a25a-8bd9b697a9df","system_id":"levelo_inurba_marseille","lat":43.285613,"lon":5.394859,"is_reserved":false,"is_disabled":false,"rental_uris":{"android":"levelo://app?vid=379c7f09-561d-4db9-a25a-8bd9b697a9df","ios":"levelo://app?vid=379c7f09-561d-4db9-a25a-8bd9b697a9df"},"vehicle_type_id":"4","last_reported":1753859792,"current_range_meters":10000,"station_id":"ce4bh292rcd13ifvqdg0","pricing_plan_id":"cebpf4jnsgd1na2vs0mg"},{"bike_id":"0dc99cab-1546-4588-8ef9-e9c6ae8e0a6f","system_id":"levelo_inurba_marseille","lat":43.23063,"lon":5.35496,"is_reserved":false,"is_disabled":false,"rental_uris":{"android":"levelo://app?vid=0dc99cab-1546-4588-8ef9-e9c6ae8e0a6f","ios":"levelo://app?vid=0dc99cab-1546-4588-8ef9-e9c6ae8e0a6f"},"vehicle_type_id":"4","last_reported":1753859792,"current_range_meters":10000,"station_id":"cpo3342slgdg3j2ifvpg","pricing_plan_id":"cebpf4jnsgd1na2vs0mg"},{"bike_id":"e9624a09-b572-4bcb-944b-ef4683557984","system_id":"levelo_inurba_marseille","lat":43.23067,"lon":5.3548,"is_reserved":false,"is_disabled":false,"rental_uris":{"android":"levelo://app?vid=e9624a09-b572-4bcb-944b-ef4683557984","ios":"levelo://app?vid=e9624a09-b572-4bcb-944b-ef4683557984"},"vehicle_type_id":"4","last_reported":1753859792,"current_range_meters":10000,"station_id":"cpo3342slgdg3j2ifvpg","pricing_plan_id":"cebpf4jnsgd1na2vs0mg"},{"bike_id":"1dc3f058-b499-4a71-890c-0492cdb7c3da","system_id":"levelo_inurba_marseille","lat":43.30909,"lon":5.36849,"is_reserved":false,"is_disabled":false,"rental_uris":{"android":"levelo://app?vid=1dc3f058-b499-4a71-890c-0492cdb7c3da","ios":"levelo://app?vid=1dc3f058-b499-4a71-890c-0492cdb7c3da"},"vehicle_type_id":"4","last_reported":1753859792,"current_range_meters":10800,"station_id":"ce4bgn92rcd13ifvqbvg","pricing_plan_id":"cebpf4jnsgd1na2vs0mg"},{"bike_id":"ab666d87-3e70-4814-9ff2-9c4c5eb8d522","system_id":"levelo_inurba_marseille","lat":43.321297,"lon":5.367753,"is_reserved":false,"is_disabled":false,"rental_uris":{"android":"levelo://app?vid=ab666d87-3e70-4814-9ff2-9c4c5eb8d522","ios":"levelo://app?vid=ab666d87-3e70-4814-9ff2-9c4c5eb8d522"},"vehicle_type_id":"4","last_reported":1753859792,"current_range_meters":10800,"station_id":"ce4bhrh2rcd13ifvqhug","pricing_plan_id":"cebpf4jnsgd1na2vs0mg"},{"bike_id":"be5def60-627d-4b01-b89a-b3e2cf58672d","system_id":"levelo_inurba_marseille","lat":43.30957,"lon":5.39026,"is_reserved":false,"is_disabled":false,"rental_uris":{"android":"levelo://app?vid=be5def60-627d-4b01-b89a-b3e2cf58672d","ios":"levelo://app?vid=be5def60-627d-4b01-b89a-b3e2cf58672d"},"vehicle_type_id":"4","last_reported":1753859792,"current_range_meters":10800,"station_id":"ce4bgup2rcd13ifvqco0","pricing_plan_id":"cebpf4jnsgd1na2vs0mg"},{"bike_id":"3f2e4588-2f11-45a0-9570-5e81f866b02f","system_id":"levelo_inurba_marseille","lat":43.31717,"lon":5.3782,"is_reserved":false,"is_disabled":false,"rental_uris":{"android":"levelo://app?vid=3f2e4588-2f11-45a0-9570-5e81f866b02f","ios":"levelo://app?vid=3f2e4588-2f11-45a0-9570-5e81f866b02f"},"vehicle_type_id":"4","last_reported":1753859792,"current_range_meters":10800,"station_id":"","pricing_plan_id":"cebpf4jnsgd1na2vs0mg"},{"bike_id":"b7234136-bf62-4ef1-9964-a9c43529d354","system_id":"levelo_inurba_marseille","lat":43.3184,"lon":5.39412,"is_reserved":false,"is_disabled":false,"rental_uris":{"android":"levelo://app?vid=b7234136-bf62-4ef1-9964-a9c43529d354","ios":"levelo://app?vid=b7234136-bf62-4ef1-9964-a9c43529d354"},"vehicle_type_id":"4","last_reported":1753859792,"current_range_meters":10800,"station_id":"","pricing_plan_id":"cebpf4jnsgd1na2vs0mg"},{"bike_id":"e137dc03-26cf-440c-b3ea-1ea522645199","system_id":"levelo_inurba_marseille","lat":43.280815,"lon":5.396626,"is_reserved":false,"is_disabled":false,"rental_uris":{"android":"levelo://app?vid=e137dc03-26cf-440c-b3ea-1ea522645199","ios":"levelo://app?vid=e137dc03-26cf-440c-b3ea-1ea522645199"},"vehicle_type_id":"4","last_reported":1753859792,"current_range_meters":10800,"station_id":"","pricing_plan_id":"cebpf4jnsgd1na2vs0mg"},{"bike_id":"d29b62cf-4142-4fac-87d5-e64841551607","system_id":"levelo_inurba_marseille","lat":43.250892,"lon":5.395024,"is_reserved":false,"is_disabled":false,"rental_uris":{"android":"levelo://app?vid=d29b62cf-4142-4fac-87d5-e64841551607","ios":"levelo://app?vid=d29b62cf-4142-4fac-87d5-e64841551607"},"vehicle_type_id":"4","last_reported":1753859792,"current_range_meters":11200,"station_id":"ce4bhm12rcd13ifvqgkg","pricing_plan_id":"cebpf4jnsgd1na2vs0mg"},{"bike_id":"0589adf5-02d3-40da-b5b6-c249c95d437f","system_id":"levelo_inurba_marseille","lat":43.25006,"lon":5.38919,"is_reserved":false,"is_disabled":false,"rental_uris":{"android":"levelo://app?vid=0589adf5-02d3-40da-b5b6-c249c95d437f","ios":"levelo://app?vid=0589adf5-02d3-40da-b5b6-c249c95d437f"},"vehicle_type_id":"4","last_reported":1753859792,"current_range_meters":11200,"station_id":"ce4bhgp2rcd13ifvqfd0","pricing_plan_id":"cebpf4jnsgd1na2vs0mg"},{"bike_id":"a027973f-c8c9-4811-a512-806c935b4c27","system_id":"levelo_inurba_marseille","lat":43.21195,"lon":5.35059,"is_reserved":false,"is_disabled":false,"rental_uris":{"android":"levelo://app?vid=a027973f-c8c9-4811-a512-806c935b4c27","ios":"levelo://app?vid=a027973f-c8c9-4811-a512-806c935b4c27"},"vehicle_type_id":"4","last_reported":1753859792,"current_range_meters":11200,"station_id":"st_cvj6sg6p6f1abm77japg","pricing_plan_id":"cebpf4jnsgd1na2vs0mg"},{"bike_id":"3f7f0e56-03ef-4b4d-82a4-6d3657286d83","system_id":"levelo_inurba_marseille","lat":43.30928,"lon":5.36847,"is_reserved":false,"is_disabled":false,"rental_uris":{"android":"levelo://app?vid=3f7f0e56-03ef-4b4d-82a4-6d3657286d83","ios":"levelo://app?vid=3f7f0e56-03ef-4b4d-82a4-6d3657286d83"},"vehicle_type_id":"4","last_reported":1753859792,"current_range_meters":10800,"station_id":"ce4bgn92rcd13ifvqbvg","pricing_plan_id":"cebpf4jnsgd1na2vs0mg"},{"bike_id":"45aac5c3-2446-4ec7-8f39-4ac0d7e020e1","system_id":"levelo_inurba_marseille","lat":43.2319,"lon":5.399797,"is_reserved":false,"is_disabled":false,"rental_uris":{"android":"levelo://app?vid=45aac5c3-2446-4ec7-8f39-4ac0d7e020e1","ios":"levelo://app?vid=45aac5c3-2446-4ec7-8f39-4ac0d7e020e1"},"vehicle_type_id":"4","last_reported":1753859792,"current_range_meters":11600,"station_id":"ce4bhn12rcd13ifvqgqg","pricing_plan_id":"cebpf4jnsgd1na2vs0mg"},{"bike_id":"ed2653a8-cef8-419b-b19a-e1a7f6058aa9","system_id":"levelo_inurba_marseille","lat":43.23192,"lon":5.35551,"is_reserved":false,"is_disabled":false,"rental_uris":{"android":"levelo://app?vid=ed2653a8-cef8-419b-b19a-e1a7f6058aa9","ios":"levelo://app?vid=ed2653a8-cef8-419b-b19a-e1a7f6058aa9"},"vehicle_type_id":"4","last_reported":1753859792,"current_range_meters":11600,"station_id":"ce4bhu92rcd13ifvqi70","pricing_plan_id":"cebpf4jnsgd1na2vs0mg"},{"bike_id":"2e397900-529c-4043-861b-635ddeb95abe","system_id":"levelo_inurba_marseille","lat":43.31342,"lon":5.36709,"is_reserved":false,"is_disabled":false,"rental_uris":{"android":"levelo://app?vid=2e397900-529c-4043-861b-635ddeb95abe","ios":"levelo://app?vid=2e397900-529c-4043-861b-635ddeb95abe"},"vehicle_type_id":"4","last_reported":1753859792,"current_range_meters":11600,"station_id":"ce4bgr92rcd13ifvqc6g","pricing_plan_id":"cebpf4jnsgd1na2vs0mg"},{"bike_id":"bf34a1cf-df68-4dd3-8cfe-1feeb16f4ee5","system_id":"levelo_inurba_marseille","lat":43.30155,"lon":5.38097,"is_reserved":false,"is_disabled":false,"rental_uris":{"android":"levelo://app?vid=bf34a1cf-df68-4dd3-8cfe-1feeb16f4ee5","ios":"levelo://app?vid=bf34a1cf-df68-4dd3-8cfe-1feeb16f4ee5"},"vehicle_type_id":"4","last_reported":1753859792,"current_range_meters":11600,"station_id":"ce4bgjp2rcd13ifvqbh0","pricing_plan_id":"cebpf4jnsgd1na2vs0mg"},{"bike_id":"938becca-5de5-4c97-bb97-3e45de7eff02","system_id":"levelo_inurba_marseille","lat":43.23189,"lon":5.39988,"is_reserved":false,"is_disabled":false,"rental_uris":{"android":"levelo://app?vid=938becca-5de5-4c97-bb97-3e45de7eff02","ios":"levelo://app?vid=938becca-5de5-4c97-bb97-3e45de7eff02"},"vehicle_type_id":"4","last_reported":1753859792,"current_range_meters":11600,"station_id":"ce4bhn12rcd13ifvqgqg","pricing_plan_id":"cebpf4jnsgd1na2vs0mg"},{"bike_id":"b2472dae-9cd2-4055-ae20-8f4b3d52f62e","system_id":"levelo_inurba_marseille","lat":43.26779,"lon":5.3942,"is_reserved":false,"is_disabled":false,"rental_uris":{"android":"levelo://app?vid=b2472dae-9cd2-4055-ae20-8f4b3d52f62e","ios":"levelo://app?vid=b2472dae-9cd2-4055-ae20-8f4b3d52f62e"},"vehicle_type_id":"4","last_reported":1753859792,"current_range_meters":11600,"station_id":"ce4bhh12rcd13ifvqfg0","pricing_plan_id":"cebpf4jnsgd1na2vs0mg"},{"bike_id":"ef65f066-de96-432a-a3bf-b1b3ad0e62a1","system_id":"levelo_inurba_marseille","lat":43.32042,"lon":5.36742,"is_reserved":false,"is_disabled":false,"rental_uris":{"android":"levelo://app?vid=ef65f066-de96-432a-a3bf-b1b3ad0e62a1","ios":"levelo://app?vid=ef65f066-de96-432a-a3bf-b1b3ad0e62a1"},"vehicle_type_id":"4","last_reported":1753859792,"current_range_meters":11600,"station_id":"","pricing_plan_id":"cebpf4jnsgd1na2vs0mg"},{"bike_id":"1986c31b-8ecd-4b7e-ac6e-82ca07175cb2","system_id":"levelo_inurba_marseille","lat":43.25916,"lon":5.4087,"is_reserved":false,"is_disabled":false,"rental_uris":{"android":"levelo://app?vid=1986c31b-8ecd-4b7e-ac6e-82ca07175cb2","ios":"levelo://app?vid=1986c31b-8ecd-4b7e-ac6e-82ca07175cb2"},"vehicle_type_id":"4","last_reported":1753859792,"current_range_meters":11600,"station_id":"ce4bhm92rcd13ifvqglg","pricing_plan_id":"cebpf4jnsgd1na2vs0mg"},{"bike_id":"c297cd42-f0e2-4362-a315-541c52087136","system_id":"levelo_inurba_marseille","lat":43.25053,"lon":5.3894,"is_reserved":false,"is_disabled":false,"rental_uris":{"android":"levelo://app?vid=c297cd42-f0e2-4362-a315-541c52087136","ios":"levelo://app?vid=c297cd42-f0e2-4362-a315-541c52087136"},"vehicle_type_id":"4","last_reported":1753859792,"current_range_meters":11600,"station_id":"","pricing_plan_id":"cebpf4jnsgd1na2vs0mg"},{"bike_id":"00de3457-bb26-4f86-be97-d29604933a4d","system_id":"levelo_inurba_marseille","lat":43.286422,"lon":5.371724,"is_reserved":false,"is_disabled":false,"rental_uris":{"android":"levelo://app?vid=00de3457-bb26-4f86-be97-d29604933a4d","ios":"levelo://app?vid=00de3457-bb26-4f86-be97-d29604933a4d"},"vehicle_type_id":"4","last_reported":1753859792,"current_range_meters":11600,"station_id":"","pricing_plan_id":"cebpf4jnsgd1na2vs0mg"},{"bike_id":"5af96fbf-8e7d-48b2-940d-ad1702f3b7c6","system_id":"levelo_inurba_marseille","lat":43.28649,"lon":5.3701,"is_reserved":false,"is_disabled":false,"rental_uris":{"android":"levelo://app?vid=5af96fbf-8e7d-48b2-940d-ad1702f3b7c6","ios":"levelo://app?vid=5af96fbf-8e7d-48b2-940d-ad1702f3b7c6"},"vehicle_type_id":"4","last_reported":1753859792,"current_range_meters":12000,"station_id":"","pricing_plan_id":"cebpf4jnsgd1na2vs0mg"},{"bike_id":"b48f5dd0-6dba-4454-bab2-8fe0e77c0439","system_id":"levelo_inurba_marseille","lat":43.241687,"lon":5.363884,"is_reserved":false,"is_disabled":false,"rental_uris":{"android":"levelo://app?vid=b48f5dd0-6dba-4454-bab2-8fe0e77c0439","ios":"levelo://app?vid=b48f5dd0-6dba-4454-bab2-8fe0e77c0439"},"vehicle_type_id":"4","last_reported":1753859792,"current_range_meters":12000,"station_id":"cpo36qri1sfpv3e86is0","pricing_plan_id":"cebpf4jnsgd1na2vs0mg"},{"bike_id":"e9797795-865c-41d4-9c8a-8b8644dbd343","system_id":"levelo_inurba_marseille","lat":43.26793,"lon":5.3941,"is_reserved":false,"is_disabled":false,"rental_uris":{"android":"levelo://app?vid=e9797795-865c-41d4-9c8a-8b8644dbd343","ios":"levelo://app?vid=e9797795-865c-41d4-9c8a-8b8644dbd343"},"vehicle_type_id":"4","last_reported":1753859792,"current_range_meters":12000,"station_id":"ce4bhh12rcd13ifvqfg0","pricing_plan_id":"cebpf4jnsgd1na2vs0mg"},{"bike_id":"a3dee983-3a57-4c3f-81b3-946d59684355","system_id":"levelo_inurba_marseille","lat":43.30961,"lon":5.39029,"is_reserved":false,"is_disabled":false,"rental_uris":{"android":"levelo://app?vid=a3dee983-3a57-4c3f-81b3-946d59684355","ios":"levelo://app?vid=a3dee983-3a57-4c3f-81b3-946d59684355"},"vehicle_type_id":"4","last_reported":1753859792,"current_range_meters":12000,"station_id":"ce4bgup2rcd13ifvqco0","pricing_plan_id":"cebpf4jnsgd1na2vs0mg"},{"bike_id":"91e673d4-c8d9-4e81-a0e8-9221155bd169","system_id":"levelo_inurba_marseille","lat":43.292848,"lon":5.401295,"is_reserved":false,"is_disabled":false,"rental_uris":{"android":"levelo://app?vid=91e673d4-c8d9-4e81-a0e8-9221155bd169","ios":"levelo://app?vid=91e673d4-c8d9-4e81-a0e8-9221155bd169"},"vehicle_type_id":"4","last_reported":1753859792,"current_range_meters":12000,"station_id":"ce4bh312rcd13ifvqdk0","pricing_plan_id":"cebpf4jnsgd1na2vs0mg"},{"bike_id":"74a75414-a993-47e8-9f4a-1404e33b13ef","system_id":"levelo_inurba_marseille","lat":43.240622,"lon":5.377678,"is_reserved":false,"is_disabled":false,"rental_uris":{"android":"levelo://app?vid=74a75414-a993-47e8-9f4a-1404e33b13ef","ios":"levelo://app?vid=74a75414-a993-47e8-9f4a-1404e33b13ef"},"vehicle_type_id":"4","last_reported":1753859792,"current_range_meters":12000,"station_id":"ce4bhnp2rcd13ifvqgvg","pricing_plan_id":"cebpf4jnsgd1na2vs0mg"},{"bike_id":"cb30d5a1-6776-4ffa-b252-5340200d88d2","system_id":"levelo_inurba_marseille","lat":43.2511,"lon":5.40343,"is_reserved":false,"is_disabled":false,"rental_uris":{"android":"levelo://app?vid=cb30d5a1-6776-4ffa-b252-5340200d88d2","ios":"levelo://app?vid=cb30d5a1-6776-4ffa-b252-5340200d88d2"},"vehicle_type_id":"4","last_reported":1753859792,"current_range_meters":12000,"station_id":"ce4bhlh2rcd13ifvqgig","pricing_plan_id":"cebpf4jnsgd1na2vs0mg"},{"bike_id":"ab9c577b-9cc3-4d9b-9e71-2ee231744295","system_id":"levelo_inurba_marseille","lat":43.28107,"lon":5.38314,"is_reserved":false,"is_disabled":false,"rental_uris":{"android":"levelo://app?vid=ab9c577b-9cc3-4d9b-9e71-2ee231744295","ios":"levelo://app?vid=ab9c577b-9cc3-4d9b-9e71-2ee231744295"},"vehicle_type_id":"4","last_reported":1753859792,"current_range_meters":12400,"station_id":"","pricing_plan_id":"cebpf4jnsgd1na2vs0mg"},{"bike_id":"431d40db-954f-490b-905f-c59a66798509","system_id":"levelo_inurba_marseille","lat":43.25002,"lon":5.3893,"is_reserved":false,"is_disabled":false,"rental_uris":{"android":"levelo://app?vid=431d40db-954f-490b-905f-c59a66798509","ios":"levelo://app?vid=431d40db-954f-490b-905f-c59a66798509"},"vehicle_type_id":"4","last_reported":1753859792,"current_range_meters":12400,"station_id":"ce4bhgp2rcd13ifvqfd0","pricing_plan_id":"cebpf4jnsgd1na2vs0mg"},{"bike_id":"e04978f3-d665-4a61-ae50-6a07923d04b6","system_id":"levelo_inurba_marseille","lat":43.284048,"lon":5.349793,"is_reserved":false,"is_disabled":false,"rental_uris":{"android":"levelo://app?vid=e04978f3-d665-4a61-ae50-6a07923d04b6","ios":"levelo://app?vid=e04978f3-d665-4a61-ae50-6a07923d04b6"},"vehicle_type_id":"4","last_reported":1753859792,"current_range_meters":12800,"station_id":"ce4bhbh2rcd13ifvqepg","pricing_plan_id":"cebpf4jnsgd1na2vs0mg"},{"bike_id":"617a32dc-7c0f-4407-9187-0b7941d4c50e","system_id":"levelo_inurba_marseille","lat":43.28983,"lon":5.37836,"is_reserved":false,"is_disabled":false,"rental_uris":{"android":"levelo://app?vid=617a32dc-7c0f-4407-9187-0b7941d4c50e","ios":"levelo://app?vid=617a32dc-7c0f-4407-9187-0b7941d4c50e"},"vehicle_type_id":"4","last_reported":1753859792,"current_range_meters":10000,"station_id":"ce4bh9p2rcd13ifvqed0","pricing_plan_id":"cebpf4jnsgd1na2vs0mg"},{"bike_id":"116d91c8-22c6-44b9-ad68-dfbfbe9e23dc","system_id":"levelo_inurba_marseille","lat":43.32466,"lon":5.36545,"is_reserved":false,"is_disabled":false,"rental_uris":{"android":"levelo://app?vid=116d91c8-22c6-44b9-ad68-dfbfbe9e23dc","ios":"levelo://app?vid=116d91c8-22c6-44b9-ad68-dfbfbe9e23dc"},"vehicle_type_id":"4","last_reported":1753859792,"current_range_meters":12400,"station_id":"ce4bhs12rcd13ifvqhvg","pricing_plan_id":"cebpf4jnsgd1na2vs0mg"},{"bike_id":"07011de4-93e6-44b9-910b-3084325b7fe4","system_id":"levelo_inurba_marseille","lat":43.32689,"lon":5.395518,"is_reserved":false,"is_disabled":false,"rental_uris":{"android":"levelo://app?vid=07011de4-93e6-44b9-910b-3084325b7fe4","ios":"levelo://app?vid=07011de4-93e6-44b9-910b-3084325b7fe4"},"vehicle_type_id":"4","last_reported":1753859792,"current_range_meters":12400,"station_id":"","pricing_plan_id":"cebpf4jnsgd1na2vs0mg"},{"bike_id":"f6a089c4-c838-4618-80dd-1fd22a15755a","system_id":"levelo_inurba_marseille","lat":43.2678,"lon":5.39412,"is_reserved":false,"is_disabled":false,"rental_uris":{"android":"levelo://app?vid=f6a089c4-c838-4618-80dd-1fd22a15755a","ios":"levelo://app?vid=f6a089c4-c838-4618-80dd-1fd22a15755a"},"vehicle_type_id":"4","last_reported":1753859792,"current_range_meters":12400,"station_id":"ce4bhh12rcd13ifvqfg0","pricing_plan_id":"cebpf4jnsgd1na2vs0mg"},{"bike_id":"80e462b8-532e-4e2d-a54c-a11c58c3cdc0","system_id":"levelo_inurba_marseille","lat":43.29778,"lon":5.37091,"is_reserved":false,"is_disabled":false,"rental_uris":{"android":"levelo://app?vid=80e462b8-532e-4e2d-a54c-a11c58c3cdc0","ios":"levelo://app?vid=80e462b8-532e-4e2d-a54c-a11c58c3cdc0"},"vehicle_type_id":"4","last_reported":1753859792,"current_range_meters":12400,"station_id":"ce4bgop2rcd13ifvqc1g","pricing_plan_id":"cebpf4jnsgd1na2vs0mg"},{"bike_id":"de0d17df-be84-4879-a59f-baa4ec3324c5","system_id":"levelo_inurba_marseille","lat":43.308774,"lon":5.39648,"is_reserved":false,"is_disabled":false,"rental_uris":{"android":"levelo://app?vid=de0d17df-be84-4879-a59f-baa4ec3324c5","ios":"levelo://app?vid=de0d17df-be84-4879-a59f-baa4ec3324c5"},"vehicle_type_id":"4","last_reported":1753859792,"current_range_meters":12400,"station_id":"ce4bh012rcd13ifvqcv0","pricing_plan_id":"cebpf4jnsgd1na2vs0mg"},{"bike_id":"8e636ccc-6fcd-4bdc-8a89-ed20c26deba9","system_id":"levelo_inurba_marseille","lat":43.23195,"lon":5.35554,"is_reserved":false,"is_disabled":false,"rental_uris":{"android":"levelo://app?vid=8e636ccc-6fcd-4bdc-8a89-ed20c26deba9","ios":"levelo://app?vid=8e636ccc-6fcd-4bdc-8a89-ed20c26deba9"},"vehicle_type_id":"4","last_reported":1753859792,"current_range_meters":12400,"station_id":"ce4bhu92rcd13ifvqi70","pricing_plan_id":"cebpf4jnsgd1na2vs0mg"},{"bike_id":"8347bd29-03c6-4a32-a906-fc1337104bd5","system_id":"levelo_inurba_marseille","lat":43.30888,"lon":5.39638,"is_reserved":false,"is_disabled":false,"rental_uris":{"android":"levelo://app?vid=8347bd29-03c6-4a32-a906-fc1337104bd5","ios":"levelo://app?vid=8347bd29-03c6-4a32-a906-fc1337104bd5"},"vehicle_type_id":"4","last_reported":1753859792,"current_range_meters":12800,"station_id":"ce4bh012rcd13ifvqcv0","pricing_plan_id":"cebpf4jnsgd1na2vs0mg"},{"bike_id":"3c65e3a4-d98b-4db2-8d36-951b9612ba65","system_id":"levelo_inurba_marseille","lat":43.231905,"lon":5.355532,"is_reserved":false,"is_disabled":false,"rental_uris":{"android":"levelo://app?vid=3c65e3a4-d98b-4db2-8d36-951b9612ba65","ios":"levelo://app?vid=3c65e3a4-d98b-4db2-8d36-951b9612ba65"},"vehicle_type_id":"4","last_reported":1753859792,"current_range_meters":12800,"station_id":"ce4bhu92rcd13ifvqi70","pricing_plan_id":"cebpf4jnsgd1na2vs0mg"},{"bike_id":"58d60ef7-501e-48a0-a97f-c0e09ff3aab0","system_id":"levelo_inurba_marseille","lat":43.222792,"lon":5.345958,"is_reserved":false,"is_disabled":false,"rental_uris":{"android":"levelo://app?vid=58d60ef7-501e-48a0-a97f-c0e09ff3aab0","ios":"levelo://app?vid=58d60ef7-501e-48a0-a97f-c0e09ff3aab0"},"vehicle_type_id":"4","last_reported":1753859792,"current_range_meters":12800,"station_id":"ce4bhp92rcd13ifvqhag","pricing_plan_id":"cebpf4jnsgd1na2vs0mg"},{"bike_id":"135ab1ea-fc9a-4785-9240-6bfa3adf7c7c","system_id":"levelo_inurba_marseille","lat":43.32356,"lon":5.36744,"is_reserved":false,"is_disabled":false,"rental_uris":{"android":"levelo://app?vid=135ab1ea-fc9a-4785-9240-6bfa3adf7c7c","ios":"levelo://app?vid=135ab1ea-fc9a-4785-9240-6bfa3adf7c7c"},"vehicle_type_id":"4","last_reported":1753859792,"current_range_meters":13600,"station_id":"ce4bhsh2rcd13ifvqi2g","pricing_plan_id":"cebpf4jnsgd1na2vs0mg"},{"bike_id":"1992815c-936f-411d-896b-9008157cf32f","system_id":"levelo_inurba_marseille","lat":43.27675,"lon":5.38947,"is_reserved":false,"is_disabled":false,"rental_uris":{"android":"levelo://app?vid=1992815c-936f-411d-896b-9008157cf32f","ios":"levelo://app?vid=1992815c-936f-411d-896b-9008157cf32f"},"vehicle_type_id":"4","last_reported":1753859792,"current_range_meters":13600,"station_id":"ce4bhi12rcd13ifvqfo0","pricing_plan_id":"cebpf4jnsgd1na2vs0mg"},{"bike_id":"e835e740-02a8-4b55-b83d-8f7e332e158e","system_id":"levelo_inurba_marseille","lat":43.230598,"lon":5.354893,"is_reserved":false,"is_disabled":false,"rental_uris":{"android":"levelo://app?vid=e835e740-02a8-4b55-b83d-8f7e332e158e","ios":"levelo://app?vid=e835e740-02a8-4b55-b83d-8f7e332e158e"},"vehicle_type_id":"4","last_reported":1753859792,"current_range_meters":13600,"station_id":"cpo3342slgdg3j2ifvpg","pricing_plan_id":"cebpf4jnsgd1na2vs0mg"},{"bike_id":"23c5ff6b-8cac-4dff-9b59-ceed36159023","system_id":"levelo_inurba_marseille","lat":43.23059,"lon":5.35485,"is_reserved":false,"is_disabled":false,"rental_uris":{"android":"levelo://app?vid=23c5ff6b-8cac-4dff-9b59-ceed36159023","ios":"levelo://app?vid=23c5ff6b-8cac-4dff-9b59-ceed36159023"},"vehicle_type_id":"4","last_reported":1753859792,"current_range_meters":13600,"station_id":"cpo3342slgdg3j2ifvpg","pricing_plan_id":"cebpf4jnsgd1na2vs0mg"},{"bike_id":"f129605f-c561-462b-9dd8-38b1fae764e6","system_id":"levelo_inurba_marseille","lat":43.32362,"lon":5.36765,"is_reserved":false,"is_disabled":false,"rental_uris":{"android":"levelo://app?vid=f129605f-c561-462b-9dd8-38b1fae764e6","ios":"levelo://app?vid=f129605f-c561-462b-9dd8-38b1fae764e6"},"vehicle_type_id":"4","last_reported":1753859792,"current_range_meters":13600,"station_id":"ce4bhsh2rcd13ifvqi2g","pricing_plan_id":"cebpf4jnsgd1na2vs0mg"},{"bike_id":"aafc3bc1-c1be-40f5-91e7-c27bec18fc48","system_id":"levelo_inurba_marseille","lat":43.27222,"lon":5.40975,"is_reserved":false,"is_disabled":false,"rental_uris":{"android":"levelo://app?vid=aafc3bc1-c1be-40f5-91e7-c27bec18fc48","ios":"levelo://app?vid=aafc3bc1-c1be-40f5-91e7-c27bec18fc48"},"vehicle_type_id":"4","last_reported":1753859792,"current_range_meters":13600,"station_id":"ce4bhl12rcd13ifvqgf0","pricing_plan_id":"cebpf4jnsgd1na2vs0mg"},{"bike_id":"9eec0301-4694-4b5a-824c-d28ac74d4fc4","system_id":"levelo_inurba_marseille","lat":43.26213,"lon":5.37439,"is_reserved":false,"is_disabled":false,"rental_uris":{"android":"levelo://app?vid=9eec0301-4694-4b5a-824c-d28ac74d4fc4","ios":"levelo://app?vid=9eec0301-4694-4b5a-824c-d28ac74d4fc4"},"vehicle_type_id":"4","last_reported":1753859792,"current_range_meters":13600,"station_id":"ce4bhgp2rcd13ifvqfc0","pricing_plan_id":"cebpf4jnsgd1na2vs0mg"},{"bike_id":"23cb5642-15b1-4dff-8751-77349dab4204","system_id":"levelo_inurba_marseille","lat":43.229412,"lon":5.353623,"is_reserved":false,"is_disabled":false,"rental_uris":{"android":"levelo://app?vid=23cb5642-15b1-4dff-8751-77349dab4204","ios":"levelo://app?vid=23cb5642-15b1-4dff-8751-77349dab4204"},"vehicle_type_id":"4","last_reported":1753859792,"current_range_meters":14000,"station_id":"cpo3532slgdg3j2ikp40","pricing_plan_id":"cebpf4jnsgd1na2vs0mg"},{"bike_id":"85d95a9a-bae1-4127-a50f-dff98ce29fd5","system_id":"levelo_inurba_marseille","lat":43.324726,"lon":5.373727,"is_reserved":false,"is_disabled":false,"rental_uris":{"android":"levelo://app?vid=85d95a9a-bae1-4127-a50f-dff98ce29fd5","ios":"levelo://app?vid=85d95a9a-bae1-4127-a50f-dff98ce29fd5"},"vehicle_type_id":"4","last_reported":1753859792,"current_range_meters":14000,"station_id":"","pricing_plan_id":"cebpf4jnsgd1na2vs0mg"},{"bike_id":"7ae9a301-af81-4c61-b264-f97fbac78c92","system_id":"levelo_inurba_marseille","lat":43.248212,"lon":5.374598,"is_reserved":false,"is_disabled":false,"rental_uris":{"android":"levelo://app?vid=7ae9a301-af81-4c61-b264-f97fbac78c92","ios":"levelo://app?vid=7ae9a301-af81-4c61-b264-f97fbac78c92"},"vehicle_type_id":"4","last_reported":1753859792,"current_range_meters":14000,"station_id":"ce4bhgh2rcd13ifvqfb0","pricing_plan_id":"cebpf4jnsgd1na2vs0mg"},{"bike_id":"ffdb147b-302f-46e3-b6e2-7d3141bff3da","system_id":"levelo_inurba_marseille","lat":43.33721,"lon":5.39192,"is_reserved":false,"is_disabled":false,"rental_uris":{"android":"levelo://app?vid=ffdb147b-302f-46e3-b6e2-7d3141bff3da","ios":"levelo://app?vid=ffdb147b-302f-46e3-b6e2-7d3141bff3da"},"vehicle_type_id":"4","last_reported":1753859792,"current_range_meters":14000,"station_id":"ce4bhr92rcd13ifvqhsg","pricing_plan_id":"cebpf4jnsgd1na2vs0mg"},{"bike_id":"671701a9-7243-46ba-9df9-fa49b6935265","system_id":"levelo_inurba_marseille","lat":43.25981,"lon":5.37237,"is_reserved":false,"is_disabled":false,"rental_uris":{"android":"levelo://app?vid=671701a9-7243-46ba-9df9-fa49b6935265","ios":"levelo://app?vid=671701a9-7243-46ba-9df9-fa49b6935265"},"vehicle_type_id":"4","last_reported":1753859792,"current_range_meters":14000,"station_id":"","pricing_plan_id":"cebpf4jnsgd1na2vs0mg"},{"bike_id":"58393c2c-caac-478a-92a7-0dad0c9ca20d","system_id":"levelo_inurba_marseille","lat":43.26796,"lon":5.39406,"is_reserved":false,"is_disabled":false,"rental_uris":{"android":"levelo://app?vid=58393c2c-caac-478a-92a7-0dad0c9ca20d","ios":"levelo://app?vid=58393c2c-caac-478a-92a7-0dad0c9ca20d"},"vehicle_type_id":"4","last_reported":1753859792,"current_range_meters":14000,"station_id":"ce4bhh12rcd13ifvqfg0","pricing_plan_id":"cebpf4jnsgd1na2vs0mg"},{"bike_id":"7a2e82e0-8302-4549-adc9-89b5e6842920","system_id":"levelo_inurba_marseille","lat":43.32376,"lon":5.38886,"is_reserved":false,"is_disabled":false,"rental_uris":{"android":"levelo://app?vid=7a2e82e0-8302-4549-adc9-89b5e6842920","ios":"levelo://app?vid=7a2e82e0-8302-4549-adc9-89b5e6842920"},"vehicle_type_id":"4","last_reported":1753859792,"current_range_meters":14000,"station_id":"ce4bhqp2rcd13ifvqhog","pricing_plan_id":"cebpf4jnsgd1na2vs0mg"},{"bike_id":"feae27af-ed33-41f6-8fae-34610606c482","system_id":"levelo_inurba_marseille","lat":43.29851,"lon":5.36283,"is_reserved":false,"is_disabled":false,"rental_uris":{"android":"levelo://app?vid=feae27af-ed33-41f6-8fae-34610606c482","ios":"levelo://app?vid=feae27af-ed33-41f6-8fae-34610606c482"},"vehicle_type_id":"4","last_reported":1753859792,"current_range_meters":14000,"station_id":"ce4bgpp2rcd13ifvqc3g","pricing_plan_id":"cebpf4jnsgd1na2vs0mg"},{"bike_id":"056e4f3d-4ab7-42da-9834-2ca05b8a0f52","system_id":"levelo_inurba_marseille","lat":43.314783,"lon":5.368548,"is_reserved":false,"is_disabled":false,"rental_uris":{"android":"levelo://app?vid=056e4f3d-4ab7-42da-9834-2ca05b8a0f52","ios":"levelo://app?vid=056e4f3d-4ab7-42da-9834-2ca05b8a0f52"},"vehicle_type_id":"4","last_reported":1753859792,"current_range_meters":14000,"station_id":"","pricing_plan_id":"cebpf4jnsgd1na2vs0mg"},{"bike_id":"05197b4a-5d07-4d72-8fd7-9c08d812c5d8","system_id":"levelo_inurba_marseille","lat":43.27307,"lon":5.39092,"is_reserved":false,"is_disabled":false,"rental_uris":{"android":"levelo://app?vid=05197b4a-5d07-4d72-8fd7-9c08d812c5d8","ios":"levelo://app?vid=05197b4a-5d07-4d72-8fd7-9c08d812c5d8"},"vehicle_type_id":"4","last_reported":1753859792,"current_range_meters":14000,"station_id":"ce4bhgp2rcd13ifvqfe0","pricing_plan_id":"cebpf4jnsgd1na2vs0mg"},{"bike_id":"27121016-03d3-4670-9ce6-a156435b86ae","system_id":"levelo_inurba_marseille","lat":43.32321,"lon":5.40562,"is_reserved":false,"is_disabled":false,"rental_uris":{"android":"levelo://app?vid=27121016-03d3-4670-9ce6-a156435b86ae","ios":"levelo://app?vid=27121016-03d3-4670-9ce6-a156435b86ae"},"vehicle_type_id":"4","last_reported":1753859792,"current_range_meters":14400,"station_id":"ce4bhq92rcd13ifvqhjg","pricing_plan_id":"cebpf4jnsgd1na2vs0mg"},{"bike_id":"960686aa-c1ee-4bd3-b41f-488bc79641f1","system_id":"levelo_inurba_marseille","lat":43.3054,"lon":5.36693,"is_reserved":false,"is_disabled":false,"rental_uris":{"android":"levelo://app?vid=960686aa-c1ee-4bd3-b41f-488bc79641f1","ios":"levelo://app?vid=960686aa-c1ee-4bd3-b41f-488bc79641f1"},"vehicle_type_id":"4","last_reported":1753859792,"current_range_meters":14400,"station_id":"ce4bgrp2rcd13ifvqc9g","pricing_plan_id":"cebpf4jnsgd1na2vs0mg"},{"bike_id":"2002cc2c-a47c-4777-8dac-3a5e369cf994","system_id":"levelo_inurba_marseille","lat":43.24689,"lon":5.38141,"is_reserved":false,"is_disabled":false,"rental_uris":{"android":"levelo://app?vid=2002cc2c-a47c-4777-8dac-3a5e369cf994","ios":"levelo://app?vid=2002cc2c-a47c-4777-8dac-3a5e369cf994"},"vehicle_type_id":"4","last_reported":1753859792,"current_range_meters":14400,"station_id":"ce4bhih2rcd13ifvqfr0","pricing_plan_id":"cebpf4jnsgd1na2vs0mg"},{"bike_id":"913a987f-2b3a-4051-b6db-275ff4634e96","system_id":"levelo_inurba_marseille","lat":43.2991,"lon":5.3747,"is_reserved":false,"is_disabled":false,"rental_uris":{"android":"levelo://app?vid=913a987f-2b3a-4051-b6db-275ff4634e96","ios":"levelo://app?vid=913a987f-2b3a-4051-b6db-275ff4634e96"},"vehicle_type_id":"4","last_reported":1753859792,"current_range_meters":14000,"station_id":"ce4bgjh2rcd13ifvqbg0","pricing_plan_id":"cebpf4jnsgd1na2vs0mg"},{"bike_id":"24ddc855-9db1-447b-8cc7-fb33f85a47fb","system_id":"levelo_inurba_marseille","lat":43.30595,"lon":5.37213,"is_reserved":false,"is_disabled":false,"rental_uris":{"android":"levelo://app?vid=24ddc855-9db1-447b-8cc7-fb33f85a47fb","ios":"levelo://app?vid=24ddc855-9db1-447b-8cc7-fb33f85a47fb"},"vehicle_type_id":"4","last_reported":1753859792,"current_range_meters":14400,"station_id":"ce4bgqh2rcd13ifvqc4g","pricing_plan_id":"cebpf4jnsgd1na2vs0mg"},{"bike_id":"a36bd7ba-074a-442d-8f4e-bb3cc65a52a2","system_id":"levelo_inurba_marseille","lat":43.291986,"lon":5.395409,"is_reserved":false,"is_disabled":false,"rental_uris":{"android":"levelo://app?vid=a36bd7ba-074a-442d-8f4e-bb3cc65a52a2","ios":"levelo://app?vid=a36bd7ba-074a-442d-8f4e-bb3cc65a52a2"},"vehicle_type_id":"4","last_reported":1753859792,"current_range_meters":14400,"station_id":"","pricing_plan_id":"cebpf4jnsgd1na2vs0mg"},{"bike_id":"a6a46ae2-d764-44ee-baf2-a76e49bd9084","system_id":"levelo_inurba_marseille","lat":43.269732,"lon":5.402932,"is_reserved":false,"is_disabled":false,"rental_uris":{"android":"levelo://app?vid=a6a46ae2-d764-44ee-baf2-a76e49bd9084","ios":"levelo://app?vid=a6a46ae2-d764-44ee-baf2-a76e49bd9084"},"vehicle_type_id":"4","last_reported":1753859792,"current_range_meters":14400,"station_id":"cjm6bp8fraef2m0cb0m0","pricing_plan_id":"cebpf4jnsgd1na2vs0mg"},{"bike_id":"c686771c-e4d6-4ee5-934b-f3ca190b833e","system_id":"levelo_inurba_marseille","lat":43.32765,"lon":5.39204,"is_reserved":false,"is_disabled":false,"rental_uris":{"android":"levelo://app?vid=c686771c-e4d6-4ee5-934b-f3ca190b833e","ios":"levelo://app?vid=c686771c-e4d6-4ee5-934b-f3ca190b833e"},"vehicle_type_id":"4","last_reported":1753859792,"current_range_meters":14400,"station_id":"","pricing_plan_id":"cebpf4jnsgd1na2vs0mg"},{"bike_id":"915513aa-2ef0-4e1b-9aa3-73608a47efab","system_id":"levelo_inurba_marseille","lat":43.22502,"lon":5.34768,"is_reserved":false,"is_disabled":false,"rental_uris":{"android":"levelo://app?vid=915513aa-2ef0-4e1b-9aa3-73608a47efab","ios":"levelo://app?vid=915513aa-2ef0-4e1b-9aa3-73608a47efab"},"vehicle_type_id":"4","last_reported":1753859792,"current_range_meters":14400,"station_id":"st_cvj5dfep6f1abm77gieg","pricing_plan_id":"cebpf4jnsgd1na2vs0mg"},{"bike_id":"98790585-f05b-467b-a7ca-975c08fe2ee5","system_id":"levelo_inurba_marseille","lat":43.29711,"lon":5.37699,"is_reserved":false,"is_disabled":false,"rental_uris":{"android":"levelo://app?vid=98790585-f05b-467b-a7ca-975c08fe2ee5","ios":"levelo://app?vid=98790585-f05b-467b-a7ca-975c08fe2ee5"},"vehicle_type_id":"4","last_reported":1753859792,"current_range_meters":14000,"station_id":"ce4bgkh2rcd13ifvqbl0","pricing_plan_id":"cebpf4jnsgd1na2vs0mg"},{"bike_id":"6b3e1ae5-9feb-431f-9e26-e7420c46a535","system_id":"levelo_inurba_marseille","lat":43.24386,"lon":5.37055,"is_reserved":false,"is_disabled":false,"rental_uris":{"android":"levelo://app?vid=6b3e1ae5-9feb-431f-9e26-e7420c46a535","ios":"levelo://app?vid=6b3e1ae5-9feb-431f-9e26-e7420c46a535"},"vehicle_type_id":"4","last_reported":1753859792,"current_range_meters":14800,"station_id":"ce4bhhh2rcd13ifvqfk0","pricing_plan_id":"cebpf4jnsgd1na2vs0mg"},{"bike_id":"2fad1b6f-d0b7-4211-9b9d-661d7c090096","system_id":"levelo_inurba_marseille","lat":43.298117,"lon":5.433353,"is_reserved":false,"is_disabled":false,"rental_uris":{"android":"levelo://app?vid=2fad1b6f-d0b7-4211-9b9d-661d7c090096","ios":"levelo://app?vid=2fad1b6f-d0b7-4211-9b9d-661d7c090096"},"vehicle_type_id":"4","last_reported":1753859792,"current_range_meters":14800,"station_id":"","pricing_plan_id":"cebpf4jnsgd1na2vs0mg"},{"bike_id":"ba5a1200-4c02-4ac9-9573-afcd521ec53f","system_id":"levelo_inurba_marseille","lat":43.29296,"lon":5.37459,"is_reserved":false,"is_disabled":false,"rental_uris":{"android":"levelo://app?vid=ba5a1200-4c02-4ac9-9573-afcd521ec53f","ios":"levelo://app?vid=ba5a1200-4c02-4ac9-9573-afcd521ec53f"},"vehicle_type_id":"4","last_reported":1753859792,"current_range_meters":14800,"station_id":"ce4bgi12rcd13ifvqb70","pricing_plan_id":"cebpf4jnsgd1na2vs0mg"},{"bike_id":"3d60e95a-8706-4e13-b31f-ac7a913f607a","system_id":"levelo_inurba_marseille","lat":43.22946,"lon":5.35372,"is_reserved":false,"is_disabled":false,"rental_uris":{"android":"levelo://app?vid=3d60e95a-8706-4e13-b31f-ac7a913f607a","ios":"levelo://app?vid=3d60e95a-8706-4e13-b31f-ac7a913f607a"},"vehicle_type_id":"4","last_reported":1753859792,"current_range_meters":15200,"station_id":"cpo3532slgdg3j2ikp40","pricing_plan_id":"cebpf4jnsgd1na2vs0mg"},{"bike_id":"3b0fc468-0f53-43b2-bdc9-2accbf6297e5","system_id":"levelo_inurba_marseille","lat":43.29633,"lon":5.3793,"is_reserved":false,"is_disabled":false,"rental_uris":{"android":"levelo://app?vid=3b0fc468-0f53-43b2-bdc9-2accbf6297e5","ios":"levelo://app?vid=3b0fc468-0f53-43b2-bdc9-2accbf6297e5"},"vehicle_type_id":"4","last_reported":1753859792,"current_range_meters":15200,"station_id":"","pricing_plan_id":"cebpf4jnsgd1na2vs0mg"},{"bike_id":"b4e22d7a-25cf-4328-b44d-366b87f14ef6","system_id":"levelo_inurba_marseille","lat":43.29585,"lon":5.36734,"is_reserved":false,"is_disabled":false,"rental_uris":{"android":"levelo://app?vid=b4e22d7a-25cf-4328-b44d-366b87f14ef6","ios":"levelo://app?vid=b4e22d7a-25cf-4328-b44d-366b87f14ef6"},"vehicle_type_id":"4","last_reported":1753859792,"current_range_meters":15200,"station_id":"ce4bgph2rcd13ifvqc2g","pricing_plan_id":"cebpf4jnsgd1na2vs0mg"},{"bike_id":"9892abb3-7f2b-45d0-a172-7e79742c3981","system_id":"levelo_inurba_marseille","lat":43.27314,"lon":5.39072,"is_reserved":false,"is_disabled":false,"rental_uris":{"android":"levelo://app?vid=9892abb3-7f2b-45d0-a172-7e79742c3981","ios":"levelo://app?vid=9892abb3-7f2b-45d0-a172-7e79742c3981"},"vehicle_type_id":"4","last_reported":1753859792,"current_range_meters":15200,"station_id":"ce4bhgp2rcd13ifvqfe0","pricing_plan_id":"cebpf4jnsgd1na2vs0mg"},{"bike_id":"ae6c8428-e39e-40be-9df7-f418521aa777","system_id":"levelo_inurba_marseille","lat":43.22921,"lon":5.35384,"is_reserved":false,"is_disabled":false,"rental_uris":{"android":"levelo://app?vid=ae6c8428-e39e-40be-9df7-f418521aa777","ios":"levelo://app?vid=ae6c8428-e39e-40be-9df7-f418521aa777"},"vehicle_type_id":"4","last_reported":1753859792,"current_range_meters":15200,"station_id":"cpo3532slgdg3j2ikp40","pricing_plan_id":"cebpf4jnsgd1na2vs0mg"},{"bike_id":"96e3ef03-ebd1-4704-94c5-7f685f92d4dc","system_id":"levelo_inurba_marseille","lat":43.28401,"lon":5.37509,"is_reserved":false,"is_disabled":false,"rental_uris":{"android":"levelo://app?vid=96e3ef03-ebd1-4704-94c5-7f685f92d4dc","ios":"levelo://app?vid=96e3ef03-ebd1-4704-94c5-7f685f92d4dc"},"vehicle_type_id":"4","last_reported":1753859792,"current_range_meters":15200,"station_id":"ce4bh412rcd13ifvqds0","pricing_plan_id":"cebpf4jnsgd1na2vs0mg"},{"bike_id":"5ff7b424-be72-460e-9279-c80ac3b388ac","system_id":"levelo_inurba_marseille","lat":43.231872,"lon":5.399959,"is_reserved":false,"is_disabled":false,"rental_uris":{"android":"levelo://app?vid=5ff7b424-be72-460e-9279-c80ac3b388ac","ios":"levelo://app?vid=5ff7b424-be72-460e-9279-c80ac3b388ac"},"vehicle_type_id":"4","last_reported":1753859792,"current_range_meters":15200,"station_id":"ce4bhn12rcd13ifvqgqg","pricing_plan_id":"cebpf4jnsgd1na2vs0mg"},{"bike_id":"1628ee4e-3e21-43ab-95bc-dbe65e3e11eb","system_id":"levelo_inurba_marseille","lat":43.24392,"lon":5.37059,"is_reserved":false,"is_disabled":false,"rental_uris":{"android":"levelo://app?vid=1628ee4e-3e21-43ab-95bc-dbe65e3e11eb","ios":"levelo://app?vid=1628ee4e-3e21-43ab-95bc-dbe65e3e11eb"},"vehicle_type_id":"4","last_reported":1753859792,"current_range_meters":15200,"station_id":"ce4bhhh2rcd13ifvqfk0","pricing_plan_id":"cebpf4jnsgd1na2vs0mg"},{"bike_id":"212e5cba-9e3e-4729-afba-f536276883e1","system_id":"levelo_inurba_marseille","lat":43.25002,"lon":5.38927,"is_reserved":false,"is_disabled":false,"rental_uris":{"android":"levelo://app?vid=212e5cba-9e3e-4729-afba-f536276883e1","ios":"levelo://app?vid=212e5cba-9e3e-4729-afba-f536276883e1"},"vehicle_type_id":"4","last_reported":1753859792,"current_range_meters":15200,"station_id":"ce4bhgp2rcd13ifvqfd0","pricing_plan_id":"cebpf4jnsgd1na2vs0mg"},{"bike_id":"d69e0ef8-a13f-4867-b7f0-5d88f0a641eb","system_id":"levelo_inurba_marseille","lat":43.29686,"lon":5.37293,"is_reserved":false,"is_disabled":false,"rental_uris":{"android":"levelo://app?vid=d69e0ef8-a13f-4867-b7f0-5d88f0a641eb","ios":"levelo://app?vid=d69e0ef8-a13f-4867-b7f0-5d88f0a641eb"},"vehicle_type_id":"4","last_reported":1753859792,"current_range_meters":15200,"station_id":"ce4bgk12rcd13ifvqbj0","pricing_plan_id":"cebpf4jnsgd1na2vs0mg"},{"bike_id":"6f47bd7d-3516-4b85-8609-2fce8d195afb","system_id":"levelo_inurba_marseille","lat":43.305364,"lon":5.365478,"is_reserved":false,"is_disabled":false,"rental_uris":{"android":"levelo://app?vid=6f47bd7d-3516-4b85-8609-2fce8d195afb","ios":"levelo://app?vid=6f47bd7d-3516-4b85-8609-2fce8d195afb"},"vehicle_type_id":"4","last_reported":1753859792,"current_range_meters":16000,"station_id":"ce4bgs12rcd13ifvqcag","pricing_plan_id":"cebpf4jnsgd1na2vs0mg"},{"bike_id":"b44d763b-4f92-4731-b76a-85ebcd91acd5","system_id":"levelo_inurba_marseille","lat":43.301978,"lon":5.371477,"is_reserved":false,"is_disabled":false,"rental_uris":{"android":"levelo://app?vid=b44d763b-4f92-4731-b76a-85ebcd91acd5","ios":"levelo://app?vid=b44d763b-4f92-4731-b76a-85ebcd91acd5"},"vehicle_type_id":"4","last_reported":1753859792,"current_range_meters":16000,"station_id":"","pricing_plan_id":"cebpf4jnsgd1na2vs0mg"},{"bike_id":"886bb3e8-befe-4194-bad0-5ad77f5653c8","system_id":"levelo_inurba_marseille","lat":43.2439,"lon":5.3706,"is_reserved":false,"is_disabled":false,"rental_uris":{"android":"levelo://app?vid=886bb3e8-befe-4194-bad0-5ad77f5653c8","ios":"levelo://app?vid=886bb3e8-befe-4194-bad0-5ad77f5653c8"},"vehicle_type_id":"4","last_reported":1753859792,"current_range_meters":16000,"station_id":"ce4bhhh2rcd13ifvqfk0","pricing_plan_id":"cebpf4jnsgd1na2vs0mg"},{"bike_id":"0aa3d069-0b2c-4ad8-afcb-33ace28f6be3","system_id":"levelo_inurba_marseille","lat":43.319994,"lon":5.38166,"is_reserved":false,"is_disabled":false,"rental_uris":{"android":"levelo://app?vid=0aa3d069-0b2c-4ad8-afcb-33ace28f6be3","ios":"levelo://app?vid=0aa3d069-0b2c-4ad8-afcb-33ace28f6be3"},"vehicle_type_id":"4","last_reported":1753859792,"current_range_meters":16000,"station_id":"ce4bhr12rcd13ifvqhpg","pricing_plan_id":"cebpf4jnsgd1na2vs0mg"},{"bike_id":"6a664d4b-940c-4c07-9452-a9104589cf3a","system_id":"levelo_inurba_marseille","lat":43.29556,"lon":5.42277,"is_reserved":false,"is_disabled":true,"rental_uris":{"android":"levelo://app?vid=6a664d4b-940c-4c07-9452-a9104589cf3a","ios":"levelo://app?vid=6a664d4b-940c-4c07-9452-a9104589cf3a"},"vehicle_type_id":"4","last_reported":1753859792,"current_range_meters":16000,"station_id":"ce4bhph2rcd13ifvqhdg","pricing_plan_id":"cebpf4jnsgd1na2vs0mg"},{"bike_id":"0bdbae00-c3b8-4601-960f-1c9eb444ba0a","system_id":"levelo_inurba_marseille","lat":43.29284,"lon":5.401195,"is_reserved":false,"is_disabled":false,"rental_uris":{"android":"levelo://app?vid=0bdbae00-c3b8-4601-960f-1c9eb444ba0a","ios":"levelo://app?vid=0bdbae00-c3b8-4601-960f-1c9eb444ba0a"},"vehicle_type_id":"4","last_reported":1753859792,"current_range_meters":16000,"station_id":"ce4bh312rcd13ifvqdk0","pricing_plan_id":"cebpf4jnsgd1na2vs0mg"},{"bike_id":"b28ad17b-d26a-458a-b690-9100105ac419","system_id":"levelo_inurba_marseille","lat":43.30561,"lon":5.38428,"is_reserved":false,"is_disabled":false,"rental_uris":{"android":"levelo://app?vid=b28ad17b-d26a-458a-b690-9100105ac419","ios":"levelo://app?vid=b28ad17b-d26a-458a-b690-9100105ac419"},"vehicle_type_id":"4","last_reported":1753859792,"current_range_meters":16000,"station_id":"ce4bgg92rcd13ifvqb30","pricing_plan_id":"cebpf4jnsgd1na2vs0mg"},{"bike_id":"daabd21d-fe72-4bef-9caa-c5886e1b6fe4","system_id":"levelo_inurba_marseille","lat":43.31999,"lon":5.37445,"is_reserved":false,"is_disabled":false,"rental_uris":{"android":"levelo://app?vid=daabd21d-fe72-4bef-9caa-c5886e1b6fe4","ios":"levelo://app?vid=daabd21d-fe72-4bef-9caa-c5886e1b6fe4"},"vehicle_type_id":"4","last_reported":1753859792,"current_range_meters":16000,"station_id":"","pricing_plan_id":"cebpf4jnsgd1na2vs0mg"},{"bike_id":"bba660a4-64e7-41bf-a51f-980ab0eacd81","system_id":"levelo_inurba_marseille","lat":43.28706,"lon":5.37405,"is_reserved":false,"is_disabled":false,"rental_uris":{"android":"levelo://app?vid=bba660a4-64e7-41bf-a51f-980ab0eacd81","ios":"levelo://app?vid=bba660a4-64e7-41bf-a51f-980ab0eacd81"},"vehicle_type_id":"4","last_reported":1753859792,"current_range_meters":16000,"station_id":"ce4bh3p2rcd13ifvqdq0","pricing_plan_id":"cebpf4jnsgd1na2vs0mg"},{"bike_id":"9dfc7680-8bea-45bb-bf88-a97cf0382c64","system_id":"levelo_inurba_marseille","lat":43.27214,"lon":5.39178,"is_reserved":false,"is_disabled":false,"rental_uris":{"android":"levelo://app?vid=9dfc7680-8bea-45bb-bf88-a97cf0382c64","ios":"levelo://app?vid=9dfc7680-8bea-45bb-bf88-a97cf0382c64"},"vehicle_type_id":"4","last_reported":1753859792,"current_range_meters":15200,"station_id":"ce4bhhp2rcd13ifvqfm0","pricing_plan_id":"cebpf4jnsgd1na2vs0mg"},{"bike_id":"746c3209-aa97-4d6e-bb69-2a85cdd5ec72","system_id":"levelo_inurba_marseille","lat":43.22556,"lon":5.3469,"is_reserved":false,"is_disabled":false,"rental_uris":{"android":"levelo://app?vid=746c3209-aa97-4d6e-bb69-2a85cdd5ec72","ios":"levelo://app?vid=746c3209-aa97-4d6e-bb69-2a85cdd5ec72"},"vehicle_type_id":"4","last_reported":1753859792,"current_range_meters":16000,"station_id":"","pricing_plan_id":"cebpf4jnsgd1na2vs0mg"},{"bike_id":"19295018-235d-4f62-9c12-0203c908e699","system_id":"levelo_inurba_marseille","lat":43.229299,"lon":5.35378,"is_reserved":false,"is_disabled":false,"rental_uris":{"android":"levelo://app?vid=19295018-235d-4f62-9c12-0203c908e699","ios":"levelo://app?vid=19295018-235d-4f62-9c12-0203c908e699"},"vehicle_type_id":"4","last_reported":1753859792,"current_range_meters":16400,"station_id":"cpo3532slgdg3j2ikp40","pricing_plan_id":"cebpf4jnsgd1na2vs0mg"},{"bike_id":"05b79db3-f0fb-414e-9f53-32e4bb665b59","system_id":"levelo_inurba_marseille","lat":43.265672,"lon":5.389871,"is_reserved":false,"is_disabled":false,"rental_uris":{"android":"levelo://app?vid=05b79db3-f0fb-414e-9f53-32e4bb665b59","ios":"levelo://app?vid=05b79db3-f0fb-414e-9f53-32e4bb665b59"},"vehicle_type_id":"4","last_reported":1753859792,"current_range_meters":16400,"station_id":"ce4bhe12rcd13ifvqf30","pricing_plan_id":"cebpf4jnsgd1na2vs0mg"},{"bike_id":"441278bf-caa7-49ad-9c25-18de6801ac47","system_id":"levelo_inurba_marseille","lat":43.29295,"lon":5.40133,"is_reserved":false,"is_disabled":false,"rental_uris":{"android":"levelo://app?vid=441278bf-caa7-49ad-9c25-18de6801ac47","ios":"levelo://app?vid=441278bf-caa7-49ad-9c25-18de6801ac47"},"vehicle_type_id":"4","last_reported":1753859792,"current_range_meters":16400,"station_id":"ce4bh312rcd13ifvqdk0","pricing_plan_id":"cebpf4jnsgd1na2vs0mg"},{"bike_id":"8423498e-f13f-4fe9-a2a7-49d2f1d71a92","system_id":"levelo_inurba_marseille","lat":43.30818,"lon":5.38154,"is_reserved":false,"is_disabled":false,"rental_uris":{"android":"levelo://app?vid=8423498e-f13f-4fe9-a2a7-49d2f1d71a92","ios":"levelo://app?vid=8423498e-f13f-4fe9-a2a7-49d2f1d71a92"},"vehicle_type_id":"4","last_reported":1753859792,"current_range_meters":16400,"station_id":"ce4bgt12rcd13ifvqce0","pricing_plan_id":"cebpf4jnsgd1na2vs0mg"},{"bike_id":"5f72df66-2d68-4c6e-a917-44e1dcfede98","system_id":"levelo_inurba_marseille","lat":43.22919,"lon":5.35388,"is_reserved":false,"is_disabled":false,"rental_uris":{"android":"levelo://app?vid=5f72df66-2d68-4c6e-a917-44e1dcfede98","ios":"levelo://app?vid=5f72df66-2d68-4c6e-a917-44e1dcfede98"},"vehicle_type_id":"4","last_reported":1753859792,"current_range_meters":16400,"station_id":"cpo3532slgdg3j2ikp40","pricing_plan_id":"cebpf4jnsgd1na2vs0mg"},{"bike_id":"2e1bdbd1-042c-4bf4-b623-908b6301c20d","system_id":"levelo_inurba_marseille","lat":43.281349,"lon":5.44196,"is_reserved":false,"is_disabled":false,"rental_uris":{"android":"levelo://app?vid=2e1bdbd1-042c-4bf4-b623-908b6301c20d","ios":"levelo://app?vid=2e1bdbd1-042c-4bf4-b623-908b6301c20d"},"vehicle_type_id":"4","last_reported":1753859792,"current_range_meters":16400,"station_id":"","pricing_plan_id":"cebpf4jnsgd1na2vs0mg"},{"bike_id":"6b5a8423-59e6-41e0-9800-c3f91ce1824a","system_id":"levelo_inurba_marseille","lat":43.24699,"lon":5.38152,"is_reserved":false,"is_disabled":true,"rental_uris":{"android":"levelo://app?vid=6b5a8423-59e6-41e0-9800-c3f91ce1824a","ios":"levelo://app?vid=6b5a8423-59e6-41e0-9800-c3f91ce1824a"},"vehicle_type_id":"4","last_reported":1753859792,"current_range_meters":16400,"station_id":"ce4bhih2rcd13ifvqfr0","pricing_plan_id":"cebpf4jnsgd1na2vs0mg"},{"bike_id":"0642bec0-d5df-45d1-8f24-13fa0bd6adc2","system_id":"levelo_inurba_marseille","lat":43.278144,"lon":5.407105,"is_reserved":false,"is_disabled":false,"rental_uris":{"android":"levelo://app?vid=0642bec0-d5df-45d1-8f24-13fa0bd6adc2","ios":"levelo://app?vid=0642bec0-d5df-45d1-8f24-13fa0bd6adc2"},"vehicle_type_id":"4","last_reported":1753859792,"current_range_meters":16400,"station_id":"ce4bhnh2rcd13ifvqgtg","pricing_plan_id":"cebpf4jnsgd1na2vs0mg"},{"bike_id":"006989d0-e964-4aa4-ad1e-5b81a65c337e","system_id":"levelo_inurba_marseille","lat":43.308,"lon":5.38164,"is_reserved":false,"is_disabled":true,"rental_uris":{"android":"levelo://app?vid=006989d0-e964-4aa4-ad1e-5b81a65c337e","ios":"levelo://app?vid=006989d0-e964-4aa4-ad1e-5b81a65c337e"},"vehicle_type_id":"4","last_reported":1753859792,"current_range_meters":16400,"station_id":"ce4bgt12rcd13ifvqce0","pricing_plan_id":"cebpf4jnsgd1na2vs0mg"},{"bike_id":"60e58f3c-8dd1-4155-9758-97cc75b8bef5","system_id":"levelo_inurba_marseille","lat":43.26689,"lon":5.38269,"is_reserved":false,"is_disabled":false,"rental_uris":{"android":"levelo://app?vid=60e58f3c-8dd1-4155-9758-97cc75b8bef5","ios":"levelo://app?vid=60e58f3c-8dd1-4155-9758-97cc75b8bef5"},"vehicle_type_id":"4","last_reported":1753859792,"current_range_meters":16400,"station_id":"ce4bhg92rcd13ifvqf90","pricing_plan_id":"cebpf4jnsgd1na2vs0mg"},{"bike_id":"e2e172c1-13f1-49ad-b301-7f7fdfa08aca","system_id":"levelo_inurba_marseille","lat":43.23206,"lon":5.35551,"is_reserved":false,"is_disabled":false,"rental_uris":{"android":"levelo://app?vid=e2e172c1-13f1-49ad-b301-7f7fdfa08aca","ios":"levelo://app?vid=e2e172c1-13f1-49ad-b301-7f7fdfa08aca"},"vehicle_type_id":"4","last_reported":1753859792,"current_range_meters":16800,"station_id":"ce4bhu92rcd13ifvqi70","pricing_plan_id":"cebpf4jnsgd1na2vs0mg"},{"bike_id":"3ade2723-600a-4a28-a636-9f0444046ba7","system_id":"levelo_inurba_marseille","lat":43.25919,"lon":5.40889,"is_reserved":false,"is_disabled":false,"rental_uris":{"android":"levelo://app?vid=3ade2723-600a-4a28-a636-9f0444046ba7","ios":"levelo://app?vid=3ade2723-600a-4a28-a636-9f0444046ba7"},"vehicle_type_id":"4","last_reported":1753859792,"current_range_meters":16800,"station_id":"ce4bhm92rcd13ifvqglg","pricing_plan_id":"cebpf4jnsgd1na2vs0mg"},{"bike_id":"6590494b-43e7-43e0-b312-c754fd5ea433","system_id":"levelo_inurba_marseille","lat":43.29054,"lon":5.42997,"is_reserved":false,"is_disabled":false,"rental_uris":{"android":"levelo://app?vid=6590494b-43e7-43e0-b312-c754fd5ea433","ios":"levelo://app?vid=6590494b-43e7-43e0-b312-c754fd5ea433"},"vehicle_type_id":"4","last_reported":1753859792,"current_range_meters":16800,"station_id":"","pricing_plan_id":"cebpf4jnsgd1na2vs0mg"},{"bike_id":"039afcc9-554e-46c7-986f-df0551137072","system_id":"levelo_inurba_marseille","lat":43.29307,"lon":5.38448,"is_reserved":false,"is_disabled":true,"rental_uris":{"android":"levelo://app?vid=039afcc9-554e-46c7-986f-df0551137072","ios":"levelo://app?vid=039afcc9-554e-46c7-986f-df0551137072"},"vehicle_type_id":"4","last_reported":1753859792,"current_range_meters":16800,"station_id":"","pricing_plan_id":"cebpf4jnsgd1na2vs0mg"},{"bike_id":"1a0ca16f-4b93-4052-acd5-440501907ad3","system_id":"levelo_inurba_marseille","lat":43.231874,"lon":5.355555,"is_reserved":false,"is_disabled":false,"rental_uris":{"android":"levelo://app?vid=1a0ca16f-4b93-4052-acd5-440501907ad3","ios":"levelo://app?vid=1a0ca16f-4b93-4052-acd5-440501907ad3"},"vehicle_type_id":"4","last_reported":1753859792,"current_range_meters":16800,"station_id":"ce4bhu92rcd13ifvqi70","pricing_plan_id":"cebpf4jnsgd1na2vs0mg"},{"bike_id":"b89ad748-f7c1-4685-8c85-3009b186b7d0","system_id":"levelo_inurba_marseille","lat":43.248117,"lon":5.37463,"is_reserved":false,"is_disabled":false,"rental_uris":{"android":"levelo://app?vid=b89ad748-f7c1-4685-8c85-3009b186b7d0","ios":"levelo://app?vid=b89ad748-f7c1-4685-8c85-3009b186b7d0"},"vehicle_type_id":"4","last_reported":1753859792,"current_range_meters":16800,"station_id":"ce4bhgh2rcd13ifvqfb0","pricing_plan_id":"cebpf4jnsgd1na2vs0mg"},{"bike_id":"bc57ed6a-3de6-46e1-a14f-69813789fe74","system_id":"levelo_inurba_marseille","lat":43.26513,"lon":5.3953,"is_reserved":false,"is_disabled":false,"rental_uris":{"android":"levelo://app?vid=bc57ed6a-3de6-46e1-a14f-69813789fe74","ios":"levelo://app?vid=bc57ed6a-3de6-46e1-a14f-69813789fe74"},"vehicle_type_id":"4","last_reported":1753859792,"current_range_meters":16800,"station_id":"ce4bhi12rcd13ifvqfq0","pricing_plan_id":"cebpf4jnsgd1na2vs0mg"},{"bike_id":"fc72750c-8629-412d-8606-ffe7b2eda556","system_id":"levelo_inurba_marseille","lat":43.274978,"lon":5.424479,"is_reserved":false,"is_disabled":false,"rental_uris":{"android":"levelo://app?vid=fc72750c-8629-412d-8606-ffe7b2eda556","ios":"levelo://app?vid=fc72750c-8629-412d-8606-ffe7b2eda556"},"vehicle_type_id":"4","last_reported":1753859792,"current_range_meters":17200,"station_id":"ce4bhn92rcd13ifvqgrg","pricing_plan_id":"cebpf4jnsgd1na2vs0mg"},{"bike_id":"2c4400c7-2bd6-4d8f-805d-b1037b3fe518","system_id":"levelo_inurba_marseille","lat":43.22504,"lon":5.34778,"is_reserved":false,"is_disabled":false,"rental_uris":{"android":"levelo://app?vid=2c4400c7-2bd6-4d8f-805d-b1037b3fe518","ios":"levelo://app?vid=2c4400c7-2bd6-4d8f-805d-b1037b3fe518"},"vehicle_type_id":"4","last_reported":1753859792,"current_range_meters":17200,"station_id":"st_cvj5dfep6f1abm77gieg","pricing_plan_id":"cebpf4jnsgd1na2vs0mg"},{"bike_id":"ed19a57a-f0e4-44f3-bbd5-b3a8ea904ac0","system_id":"levelo_inurba_marseille","lat":43.30886,"lon":5.37199,"is_reserved":false,"is_disabled":false,"rental_uris":{"android":"levelo://app?vid=ed19a57a-f0e4-44f3-bbd5-b3a8ea904ac0","ios":"levelo://app?vid=ed19a57a-f0e4-44f3-bbd5-b3a8ea904ac0"},"vehicle_type_id":"4","last_reported":1753859792,"current_range_meters":17200,"station_id":"ce4bguh2rcd13ifvqckg","pricing_plan_id":"cebpf4jnsgd1na2vs0mg"},{"bike_id":"d4424f1a-7111-486a-b680-8f9a94e6262b","system_id":"levelo_inurba_marseille","lat":43.27614,"lon":5.36102,"is_reserved":false,"is_disabled":false,"rental_uris":{"android":"levelo://app?vid=d4424f1a-7111-486a-b680-8f9a94e6262b","ios":"levelo://app?vid=d4424f1a-7111-486a-b680-8f9a94e6262b"},"vehicle_type_id":"4","last_reported":1753859792,"current_range_meters":17200,"station_id":"ce4bgj92rcd13ifvqbe0","pricing_plan_id":"cebpf4jnsgd1na2vs0mg"},{"bike_id":"0eb4132d-7392-4fc2-bcfa-c8b12dee7439","system_id":"levelo_inurba_marseille","lat":43.28853,"lon":5.358465,"is_reserved":false,"is_disabled":false,"rental_uris":{"android":"levelo://app?vid=0eb4132d-7392-4fc2-bcfa-c8b12dee7439","ios":"levelo://app?vid=0eb4132d-7392-4fc2-bcfa-c8b12dee7439"},"vehicle_type_id":"4","last_reported":1753859792,"current_range_meters":17200,"station_id":"","pricing_plan_id":"cebpf4jnsgd1na2vs0mg"},{"bike_id":"6261aae1-bcb4-4a00-888e-7789f7437da9","system_id":"levelo_inurba_marseille","lat":43.30538,"lon":5.36542,"is_reserved":false,"is_disabled":false,"rental_uris":{"android":"levelo://app?vid=6261aae1-bcb4-4a00-888e-7789f7437da9","ios":"levelo://app?vid=6261aae1-bcb4-4a00-888e-7789f7437da9"},"vehicle_type_id":"4","last_reported":1753859792,"current_range_meters":17200,"station_id":"ce4bgs12rcd13ifvqcag","pricing_plan_id":"cebpf4jnsgd1na2vs0mg"},{"bike_id":"1126f44e-6002-4232-b288-2d61f3000e14","system_id":"levelo_inurba_marseille","lat":43.30543,"lon":5.36702,"is_reserved":false,"is_disabled":false,"rental_uris":{"android":"levelo://app?vid=1126f44e-6002-4232-b288-2d61f3000e14","ios":"levelo://app?vid=1126f44e-6002-4232-b288-2d61f3000e14"},"vehicle_type_id":"4","last_reported":1753859792,"current_range_meters":17200,"station_id":"ce4bgrp2rcd13ifvqc9g","pricing_plan_id":"cebpf4jnsgd1na2vs0mg"},{"bike_id":"1e73f798-c7cd-492d-a4e5-2b44b4d83ee1","system_id":"levelo_inurba_marseille","lat":43.31341,"lon":5.36715,"is_reserved":false,"is_disabled":false,"rental_uris":{"android":"levelo://app?vid=1e73f798-c7cd-492d-a4e5-2b44b4d83ee1","ios":"levelo://app?vid=1e73f798-c7cd-492d-a4e5-2b44b4d83ee1"},"vehicle_type_id":"4","last_reported":1753859792,"current_range_meters":17600,"station_id":"ce4bgr92rcd13ifvqc6g","pricing_plan_id":"cebpf4jnsgd1na2vs0mg"},{"bike_id":"52aa1d0d-4466-44b5-a116-ec1102c8f422","system_id":"levelo_inurba_marseille","lat":43.32886,"lon":5.36041,"is_reserved":false,"is_disabled":false,"rental_uris":{"android":"levelo://app?vid=52aa1d0d-4466-44b5-a116-ec1102c8f422","ios":"levelo://app?vid=52aa1d0d-4466-44b5-a116-ec1102c8f422"},"vehicle_type_id":"4","last_reported":1753859792,"current_range_meters":17600,"station_id":"","pricing_plan_id":"cebpf4jnsgd1na2vs0mg"},{"bike_id":"aff1c2a6-2116-45b8-9d9e-2b8797d6e9ec","system_id":"levelo_inurba_marseille","lat":43.28691,"lon":5.37387,"is_reserved":false,"is_disabled":false,"rental_uris":{"android":"levelo://app?vid=aff1c2a6-2116-45b8-9d9e-2b8797d6e9ec","ios":"levelo://app?vid=aff1c2a6-2116-45b8-9d9e-2b8797d6e9ec"},"vehicle_type_id":"4","last_reported":1753859792,"current_range_meters":18000,"station_id":"ce4bh3p2rcd13ifvqdq0","pricing_plan_id":"cebpf4jnsgd1na2vs0mg"},{"bike_id":"17b835b0-8d87-4807-964d-7df4ce9a697a","system_id":"levelo_inurba_marseille","lat":43.30171,"lon":5.3808,"is_reserved":false,"is_disabled":false,"rental_uris":{"android":"levelo://app?vid=17b835b0-8d87-4807-964d-7df4ce9a697a","ios":"levelo://app?vid=17b835b0-8d87-4807-964d-7df4ce9a697a"},"vehicle_type_id":"4","last_reported":1753859792,"current_range_meters":18000,"station_id":"ce4bgjp2rcd13ifvqbh0","pricing_plan_id":"cebpf4jnsgd1na2vs0mg"},{"bike_id":"b3981504-66de-4d4d-88a4-7f2a1ee4eb0b","system_id":"levelo_inurba_marseille","lat":43.27992,"lon":5.3871,"is_reserved":false,"is_disabled":false,"rental_uris":{"android":"levelo://app?vid=b3981504-66de-4d4d-88a4-7f2a1ee4eb0b","ios":"levelo://app?vid=b3981504-66de-4d4d-88a4-7f2a1ee4eb0b"},"vehicle_type_id":"4","last_reported":1753859792,"current_range_meters":18000,"station_id":"ce4bhg12rcd13ifvqf80","pricing_plan_id":"cebpf4jnsgd1na2vs0mg"},{"bike_id":"e1900653-729a-4afc-a747-674eac0ecd3c","system_id":"levelo_inurba_marseille","lat":43.25708,"lon":5.411237,"is_reserved":false,"is_disabled":false,"rental_uris":{"android":"levelo://app?vid=e1900653-729a-4afc-a747-674eac0ecd3c","ios":"levelo://app?vid=e1900653-729a-4afc-a747-674eac0ecd3c"},"vehicle_type_id":"4","last_reported":1753859792,"current_range_meters":18000,"station_id":"ce4bhkp2rcd13ifvqgd0","pricing_plan_id":"cebpf4jnsgd1na2vs0mg"},{"bike_id":"e66ebb4d-e7f4-4351-b8ea-4dec0620a5bc","system_id":"levelo_inurba_marseille","lat":43.28574,"lon":5.39495,"is_reserved":false,"is_disabled":false,"rental_uris":{"android":"levelo://app?vid=e66ebb4d-e7f4-4351-b8ea-4dec0620a5bc","ios":"levelo://app?vid=e66ebb4d-e7f4-4351-b8ea-4dec0620a5bc"},"vehicle_type_id":"4","last_reported":1753859792,"current_range_meters":18000,"station_id":"ce4bh292rcd13ifvqdg0","pricing_plan_id":"cebpf4jnsgd1na2vs0mg"},{"bike_id":"08ca8ae8-b77c-49d8-b9a3-9de07830275f","system_id":"levelo_inurba_marseille","lat":43.27499,"lon":5.42449,"is_reserved":false,"is_disabled":false,"rental_uris":{"android":"levelo://app?vid=08ca8ae8-b77c-49d8-b9a3-9de07830275f","ios":"levelo://app?vid=08ca8ae8-b77c-49d8-b9a3-9de07830275f"},"vehicle_type_id":"4","last_reported":1753859792,"current_range_meters":18000,"station_id":"ce4bhn92rcd13ifvqgrg","pricing_plan_id":"cebpf4jnsgd1na2vs0mg"},{"bike_id":"d1ef298e-87b7-47a5-aaec-79fd9c0baa71","system_id":"levelo_inurba_marseille","lat":43.24812,"lon":5.37455,"is_reserved":false,"is_disabled":false,"rental_uris":{"android":"levelo://app?vid=d1ef298e-87b7-47a5-aaec-79fd9c0baa71","ios":"levelo://app?vid=d1ef298e-87b7-47a5-aaec-79fd9c0baa71"},"vehicle_type_id":"4","last_reported":1753859792,"current_range_meters":18000,"station_id":"ce4bhgh2rcd13ifvqfb0","pricing_plan_id":"cebpf4jnsgd1na2vs0mg"},{"bike_id":"27e3af3a-615b-4cc9-8468-7f9a0e895f93","system_id":"levelo_inurba_marseille","lat":43.30529,"lon":5.36716,"is_reserved":false,"is_disabled":false,"rental_uris":{"android":"levelo://app?vid=27e3af3a-615b-4cc9-8468-7f9a0e895f93","ios":"levelo://app?vid=27e3af3a-615b-4cc9-8468-7f9a0e895f93"},"vehicle_type_id":"4","last_reported":1753859792,"current_range_meters":18000,"station_id":"ce4bgrp2rcd13ifvqc9g","pricing_plan_id":"cebpf4jnsgd1na2vs0mg"},{"bike_id":"cd135ec5-1f0e-488f-a7bf-0e94c2e06e6f","system_id":"levelo_inurba_marseille","lat":43.212024,"lon":5.350531,"is_reserved":false,"is_disabled":false,"rental_uris":{"android":"levelo://app?vid=cd135ec5-1f0e-488f-a7bf-0e94c2e06e6f","ios":"levelo://app?vid=cd135ec5-1f0e-488f-a7bf-0e94c2e06e6f"},"vehicle_type_id":"4","last_reported":1753859792,"current_range_meters":18000,"station_id":"st_cvj6sg6p6f1abm77japg","pricing_plan_id":"cebpf4jnsgd1na2vs0mg"},{"bike_id":"779f16c9-be4e-43db-b028-12a31c95d841","system_id":"levelo_inurba_marseille","lat":43.25014,"lon":5.38934,"is_reserved":false,"is_disabled":false,"rental_uris":{"android":"levelo://app?vid=779f16c9-be4e-43db-b028-12a31c95d841","ios":"levelo://app?vid=779f16c9-be4e-43db-b028-12a31c95d841"},"vehicle_type_id":"4","last_reported":1753859792,"current_range_meters":18000,"station_id":"ce4bhgp2rcd13ifvqfd0","pricing_plan_id":"cebpf4jnsgd1na2vs0mg"},{"bike_id":"3dc94204-2f3e-4b8d-a98a-2eebdfcaff10","system_id":"levelo_inurba_marseille","lat":43.22473,"lon":5.34808,"is_reserved":false,"is_disabled":false,"rental_uris":{"android":"levelo://app?vid=3dc94204-2f3e-4b8d-a98a-2eebdfcaff10","ios":"levelo://app?vid=3dc94204-2f3e-4b8d-a98a-2eebdfcaff10"},"vehicle_type_id":"4","last_reported":1753859792,"current_range_meters":18000,"station_id":"st_cvj5dfep6f1abm77gieg","pricing_plan_id":"cebpf4jnsgd1na2vs0mg"},{"bike_id":"0233d43e-49c3-401f-99b5-e5c9694505fc","system_id":"levelo_inurba_marseille","lat":43.30492,"lon":5.37894,"is_reserved":false,"is_disabled":false,"rental_uris":{"android":"levelo://app?vid=0233d43e-49c3-401f-99b5-e5c9694505fc","ios":"levelo://app?vid=0233d43e-49c3-401f-99b5-e5c9694505fc"},"vehicle_type_id":"4","last_reported":1753859792,"current_range_meters":18800,"station_id":"ce4bgup2rcd13ifvqcn0","pricing_plan_id":"cebpf4jnsgd1na2vs0mg"},{"bike_id":"85571ceb-5dfe-407f-a57f-e3e4a5c0e31a","system_id":"levelo_inurba_marseille","lat":43.24195,"lon":5.39676,"is_reserved":false,"is_disabled":false,"rental_uris":{"android":"levelo://app?vid=85571ceb-5dfe-407f-a57f-e3e4a5c0e31a","ios":"levelo://app?vid=85571ceb-5dfe-407f-a57f-e3e4a5c0e31a"},"vehicle_type_id":"4","last_reported":1753859792,"current_range_meters":18800,"station_id":"ce4bhn12rcd13ifvqgpg","pricing_plan_id":"cebpf4jnsgd1na2vs0mg"},{"bike_id":"e40c3280-49b0-490b-abb0-b04091477816","system_id":"levelo_inurba_marseille","lat":43.28034,"lon":5.36938,"is_reserved":false,"is_disabled":false,"rental_uris":{"android":"levelo://app?vid=e40c3280-49b0-490b-abb0-b04091477816","ios":"levelo://app?vid=e40c3280-49b0-490b-abb0-b04091477816"},"vehicle_type_id":"4","last_reported":1753859792,"current_range_meters":18800,"station_id":"ce4bha12rcd13ifvqef0","pricing_plan_id":"cebpf4jnsgd1na2vs0mg"},{"bike_id":"12a220c8-0b1b-4330-8cc1-7ededba84a81","system_id":"levelo_inurba_marseille","lat":43.23154,"lon":5.43702,"is_reserved":false,"is_disabled":false,"rental_uris":{"android":"levelo://app?vid=12a220c8-0b1b-4330-8cc1-7ededba84a81","ios":"levelo://app?vid=12a220c8-0b1b-4330-8cc1-7ededba84a81"},"vehicle_type_id":"4","last_reported":1753859792,"current_range_meters":18800,"station_id":"ce4bhmp2rcd13ifvqgog","pricing_plan_id":"cebpf4jnsgd1na2vs0mg"},{"bike_id":"ffbc5986-1fd6-423d-bdb9-2a77778a9c41","system_id":"levelo_inurba_marseille","lat":43.24187,"lon":5.39725,"is_reserved":false,"is_disabled":false,"rental_uris":{"android":"levelo://app?vid=ffbc5986-1fd6-423d-bdb9-2a77778a9c41","ios":"levelo://app?vid=ffbc5986-1fd6-423d-bdb9-2a77778a9c41"},"vehicle_type_id":"4","last_reported":1753859792,"current_range_meters":18800,"station_id":"ce4bhn12rcd13ifvqgpg","pricing_plan_id":"cebpf4jnsgd1na2vs0mg"},{"bike_id":"2c15ace0-9e36-4a2d-88a7-cb5dc58fe56f","system_id":"levelo_inurba_marseille","lat":43.29692,"lon":5.37292,"is_reserved":false,"is_disabled":false,"rental_uris":{"android":"levelo://app?vid=2c15ace0-9e36-4a2d-88a7-cb5dc58fe56f","ios":"levelo://app?vid=2c15ace0-9e36-4a2d-88a7-cb5dc58fe56f"},"vehicle_type_id":"4","last_reported":1753859792,"current_range_meters":18800,"station_id":"ce4bgk12rcd13ifvqbj0","pricing_plan_id":"cebpf4jnsgd1na2vs0mg"},{"bike_id":"a9181efc-5840-45a7-8c43-031b3985b65a","system_id":"levelo_inurba_marseille","lat":43.25866,"lon":5.39896,"is_reserved":false,"is_disabled":false,"rental_uris":{"android":"levelo://app?vid=a9181efc-5840-45a7-8c43-031b3985b65a","ios":"levelo://app?vid=a9181efc-5840-45a7-8c43-031b3985b65a"},"vehicle_type_id":"4","last_reported":1753859792,"current_range_meters":18800,"station_id":"ce4bhl92rcd13ifvqghg","pricing_plan_id":"cebpf4jnsgd1na2vs0mg"},{"bike_id":"6f945904-e30e-4baa-be01-1bd0424776dc","system_id":"levelo_inurba_marseille","lat":43.231851,"lon":5.355619,"is_reserved":false,"is_disabled":false,"rental_uris":{"android":"levelo://app?vid=6f945904-e30e-4baa-be01-1bd0424776dc","ios":"levelo://app?vid=6f945904-e30e-4baa-be01-1bd0424776dc"},"vehicle_type_id":"4","last_reported":1753859792,"current_range_meters":18800,"station_id":"ce4bhu92rcd13ifvqi70","pricing_plan_id":"cebpf4jnsgd1na2vs0mg"},{"bike_id":"93ff8c72-2733-49fa-bdec-ab74121004da","system_id":"levelo_inurba_marseille","lat":43.23196,"lon":5.35549,"is_reserved":false,"is_disabled":false,"rental_uris":{"android":"levelo://app?vid=93ff8c72-2733-49fa-bdec-ab74121004da","ios":"levelo://app?vid=93ff8c72-2733-49fa-bdec-ab74121004da"},"vehicle_type_id":"4","last_reported":1753859792,"current_range_meters":18800,"station_id":"ce4bhu92rcd13ifvqi70","pricing_plan_id":"cebpf4jnsgd1na2vs0mg"},{"bike_id":"34be742c-6e59-4c4c-a509-950f8293f589","system_id":"levelo_inurba_marseille","lat":43.229301,"lon":5.353701,"is_reserved":false,"is_disabled":false,"rental_uris":{"android":"levelo://app?vid=34be742c-6e59-4c4c-a509-950f8293f589","ios":"levelo://app?vid=34be742c-6e59-4c4c-a509-950f8293f589"},"vehicle_type_id":"4","last_reported":1753859792,"current_range_meters":18800,"station_id":"cpo3532slgdg3j2ikp40","pricing_plan_id":"cebpf4jnsgd1na2vs0mg"},{"bike_id":"82421548-9820-4ad4-b3c2-dfb64180eb25","system_id":"levelo_inurba_marseille","lat":43.2125,"lon":5.3509,"is_reserved":false,"is_disabled":false,"rental_uris":{"android":"levelo://app?vid=82421548-9820-4ad4-b3c2-dfb64180eb25","ios":"levelo://app?vid=82421548-9820-4ad4-b3c2-dfb64180eb25"},"vehicle_type_id":"4","last_reported":1753859792,"current_range_meters":18800,"station_id":"","pricing_plan_id":"cebpf4jnsgd1na2vs0mg"},{"bike_id":"6d4a8c8c-d8c5-4215-a06a-7475cf4d5132","system_id":"levelo_inurba_marseille","lat":43.280382,"lon":5.369312,"is_reserved":false,"is_disabled":false,"rental_uris":{"android":"levelo://app?vid=6d4a8c8c-d8c5-4215-a06a-7475cf4d5132","ios":"levelo://app?vid=6d4a8c8c-d8c5-4215-a06a-7475cf4d5132"},"vehicle_type_id":"4","last_reported":1753859792,"current_range_meters":19200,"station_id":"ce4bha12rcd13ifvqef0","pricing_plan_id":"cebpf4jnsgd1na2vs0mg"},{"bike_id":"68c38899-ce62-43e8-883b-58ae20ed23a4","system_id":"levelo_inurba_marseille","lat":43.29986,"lon":5.37184,"is_reserved":false,"is_disabled":false,"rental_uris":{"android":"levelo://app?vid=68c38899-ce62-43e8-883b-58ae20ed23a4","ios":"levelo://app?vid=68c38899-ce62-43e8-883b-58ae20ed23a4"},"vehicle_type_id":"4","last_reported":1753859792,"current_range_meters":19200,"station_id":"ce4bgr92rcd13ifvqc7g","pricing_plan_id":"cebpf4jnsgd1na2vs0mg"},