{"last_updated":1729357671,"ttl":60,"version":"2.2","data":{"bikes":[{"bike_id":"0335aef3-d02e-4f37-a39d-178d68ac0801","system_id":"levelo_inurba_marseille","lat":43.299866,"lon":5.371891,"is_reserved":false,"is_disabled":false,"rental_uris":{"android":"levelo://app?vid=0335aef3-d02e-4f37-a39d-178d68ac0801","ios":"levelo://app?vid=0335aef3-d02e-4f37-a39d-178d68ac0801"},"vehicle_type_id":"4","last_reported":1729357672,"current_range_meters":14400,"station_id":"ce4bgr92rcd13ifvqc7g","pricing_plan_id":"cebpf4jnsgd1na2vs0mg"},{"bike_id":"1e11454c-279d-46fb-9196-45f0b0abc855","system_id":"levelo_inurba_marseille","lat":43.27995,"lon":5.40028,"is_reserved":false,"is_disabled":false,"rental_uris":{"android":"levelo://app?vid=1e11454c-279d-46fb-9196-45f0b0abc855","ios":"levelo://app?vid=1e11454c-279d-46fb-9196-45f0b0abc855"},"vehicle_type_id":"4","last_reported":1729357672,"current_range_meters":2800,"station_id":"ce4bho92rcd13ifvqh4g","pricing_plan_id":"cebpf4jnsgd1na2vs0mg"},{"bike_id":"e0879c3f-10eb-4d3b-8053-605cb1c6310c","system_id":"levelo_inurba_marseille","lat":43.26059,"lon":5.39392,"is_reserved":false,"is_disabled":false,"rental_uris":{"android":"levelo://app?vid=e0879c3f-10eb-4d3b-8053-605cb1c6310c","ios":"levelo://app?vid=e0879c3f-10eb-4d3b-8053-605cb1c6310c"},"vehicle_type_id":"4","last_reported":1729357672,"current_range_meters":25600,"station_id":"ce4bhh92rcd13ifvqfj0","pricing_plan_id":"cebpf4jnsgd1na2vs0mg"},{"bike_id":"4c2faac9-7dda-4889-bace-7e8bd3faeb3f","system_id":"levelo_inurba_marseille","lat":43.28446,"lon":5.39206,"is_reserved":false,"is_disabled":false,"rental_uris":{"android":"levelo://app?vid=4c2faac9-7dda-4889-bace-7e8bd3faeb3f","ios":"levelo://app?vid=4c2faac9-7dda-4889-bace-7e8bd3faeb3f"},"vehicle_type_id":"4","last_reported":1729357672,"current_range_meters":25200,"station_id":"ce4bhoh2rcd13ifvqh5g","pricing_plan_id":"cebpf4jnsgd1na2vs0mg"},{"bike_id":"56e9750c-463d-48da-acdc-7d70278f6c1a","system_id":"levelo_inurba_marseille","lat":43.30904,"lon":5.36844,"is_reserved":false,"is_disabled":false,"rental_uris":{"android":"levelo://app?vid=56e9750c-463d-48da-acdc-7d70278f6c1a","ios":"levelo://app?vid=56e9750c-463d-48da-acdc-7d70278f6c1a"},"vehicle_type_id":"4","last_reported":1729357672,"current_range_meters":12400,"station_id":"ce4bgn92rcd13ifvqbvg","pricing_plan_id":"cebpf4jnsgd1na2vs0mg"},{"bike_id":"2f13f52a-6108-4973-bfc2-cfe742f2b921","system_id":"levelo_inurba_marseille","lat":43.23962,"lon":5.36625,"is_reserved":false,"is_disabled":false,"rental_uris":{"android":"levelo://app?vid=2f13f52a-6108-4973-bfc2-cfe742f2b921","ios":"levelo://app?vid=2f13f52a-6108-4973-bfc2-cfe742f2b921"},"vehicle_type_id":"4","last_reported":1729357672,"current_range_meters":32800,"station_id":"ce4bhi12rcd13ifvqfp0","pricing_plan_id":"cebpf4jnsgd1na2vs0mg"},{"bike_id":"ae295232-c88f-41d2-8c7c-8ea1aa511873","system_id":"levelo_inurba_marseille","lat":43.30415,"lon":5.41295,"is_reserved":false,"is_disabled":false,"rental_uris":{"android":"levelo://app?vid=ae295232-c88f-41d2-8c7c-8ea1aa511873","ios":"levelo://app?vid=ae295232-c88f-41d2-8c7c-8ea1aa511873"},"vehicle_type_id":"4","last_reported":1729357672,"current_range_meters":19600,"station_id":"ce4bhop2rcd13ifvqh8g","pricing_plan_id":"cebpf4jnsgd1na2vs0mg"},{"bike_id":"474ccd54-d884-4c48-ac27-1f7190ae4438","system_id":"levelo_inurba_marseille","lat":43.33723,"lon":5.39199,"is_reserved":false,"is_disabled":false,"rental_uris":{"android":"levelo://app?vid=474ccd54-d884-4c48-ac27-1f7190ae4438","ios":"levelo://app?vid=474ccd54-d884-4c48-ac27-1f7190ae4438"},"vehicle_type_id":"4","last_reported":1729357672,"current_range_meters":11600,"station_id":"ce4bhr92rcd13ifvqhsg","pricing_plan_id":"cebpf4jnsgd1na2vs0mg"},{"bike_id":"0cfeef57-eb26-4ecd-b3ba-9c991caf3722","system_id":"levelo_inurba_marseille","lat":43.288879,"lon":5.358404,"is_reserved":false,"is_disabled":false,"rental_uris":{"android":"levelo://app?vid=0cfeef57-eb26-4ecd-b3ba-9c991caf3722","ios":"levelo://app?vid=0cfeef57-eb26-4ecd-b3ba-9c991caf3722"},"vehicle_type_id":"4","last_reported":1729357672,"current_range_meters":10800,"station_id":"ce4bh3p2rcd13ifvqdp0","pricing_plan_id":"cebpf4jnsgd1na2vs0mg"},{"bike_id":"ba9561f4-f570-4e1b-85ec-0544f4290be6","system_id":"levelo_inurba_marseille","lat":43.27614,"lon":5.36108,"is_reserved":false,"is_disabled":false,"rental_uris":{"android":"levelo://app?vid=ba9561f4-f570-4e1b-85ec-0544f4290be6","ios":"levelo://app?vid=ba9561f4-f570-4e1b-85ec-0544f4290be6"},"vehicle_type_id":"4","last_reported":1729357672,"current_range_meters":13600,"station_id":"ce4bgj92rcd13ifvqbe0","pricing_plan_id":"cebpf4jnsgd1na2vs0mg"},{"bike_id":"97b1a1e9-8f88-4ac2-817d-c91b3a9e2bec","system_id":"levelo_inurba_marseille","lat":43.31491,"lon":5.37305,"is_reserved":false,"is_disabled":false,"rental_uris":{"android":"levelo://app?vid=97b1a1e9-8f88-4ac2-817d-c91b3a9e2bec","ios":"levelo://app?vid=97b1a1e9-8f88-4ac2-817d-c91b3a9e2bec"},"vehicle_type_id":"4","last_reported":1729357672,"current_range_meters":23200,"station_id":"ce4bgt12rcd13ifvqcd0","pricing_plan_id":"cebpf4jnsgd1na2vs0mg"},{"bike_id":"d0572c30-13bf-4746-a29b-111549056bfa","system_id":"levelo_inurba_marseille","lat":43.25939,"lon":5.40908,"is_reserved":false,"is_disabled":false,"rental_uris":{"android":"levelo://app?vid=d0572c30-13bf-4746-a29b-111549056bfa","ios":"levelo://app?vid=d0572c30-13bf-4746-a29b-111549056bfa"},"vehicle_type_id":"4","last_reported":1729357672,"current_range_meters":11600,"station_id":"ce4bhm92rcd13ifvqglg","pricing_plan_id":"cebpf4jnsgd1na2vs0mg"},{"bike_id":"fc6e513b-da81-4d34-a427-493e42edd768","system_id":"levelo_inurba_marseille","lat":43.29535,"lon":5.39239,"is_reserved":false,"is_disabled":false,"rental_uris":{"android":"levelo://app?vid=fc6e513b-da81-4d34-a427-493e42edd768","ios":"levelo://app?vid=fc6e513b-da81-4d34-a427-493e42edd768"},"vehicle_type_id":"4","last_reported":1729357672,"current_range_meters":20800,"station_id":"","pricing_plan_id":"cebpf4jnsgd1na2vs0mg"},{"bike_id":"b84f6a29-daa9-4b01-85ce-5bd200bcd931","system_id":"levelo_inurba_marseille","lat":43.27381,"lon":5.362541,"is_reserved":false,"is_disabled":false,"rental_uris":{"android":"levelo://app?vid=b84f6a29-daa9-4b01-85ce-5bd200bcd931","ios":"levelo://app?vid=b84f6a29-daa9-4b01-85ce-5bd200bcd931"},"vehicle_type_id":"4","last_reported":1729357672,"current_range_meters":8000,"station_id":"ce4bhbh2rcd13ifvqeo0","pricing_plan_id":"cebpf4jnsgd1na2vs0mg"},{"bike_id":"2884b687-5b77-41d6-b1b8-bb9b810c6844","system_id":"levelo_inurba_marseille","lat":43.3031,"lon":5.369,"is_reserved":false,"is_disabled":false,"rental_uris":{"android":"levelo://app?vid=2884b687-5b77-41d6-b1b8-bb9b810c6844","ios":"levelo://app?vid=2884b687-5b77-41d6-b1b8-bb9b810c6844"},"vehicle_type_id":"4","last_reported":1729357672,"current_range_meters":11600,"station_id":"ce4bgqh2rcd13ifvqc5g","pricing_plan_id":"cebpf4jnsgd1na2vs0mg"},{"bike_id":"ecb85f99-17b9-4bf1-829c-0f61a2cf1ee6","system_id":"levelo_inurba_marseille","lat":43.27976,"lon":5.41671,"is_reserved":false,"is_disabled":false,"rental_uris":{"android":"levelo://app?vid=ecb85f99-17b9-4bf1-829c-0f61a2cf1ee6","ios":"levelo://app?vid=ecb85f99-17b9-4bf1-829c-0f61a2cf1ee6"},"vehicle_type_id":"4","last_reported":1729357672,"current_range_meters":16000,"station_id":"ce4bho12rcd13ifvqh1g","pricing_plan_id":"cebpf4jnsgd1na2vs0mg"},{"bike_id":"c9d8a5a3-dc65-4e0b-aebd-59452b9ac7b4","system_id":"levelo_inurba_marseille","lat":43.2952,"lon":5.39053,"is_reserved":false,"is_disabled":false,"rental_uris":{"android":"levelo://app?vid=c9d8a5a3-dc65-4e0b-aebd-59452b9ac7b4","ios":"levelo://app?vid=c9d8a5a3-dc65-4e0b-aebd-59452b9ac7b4"},"vehicle_type_id":"4","last_reported":1729357672,"current_range_meters":13600,"station_id":"ce4bh3p2rcd13ifvqdp0","pricing_plan_id":"cebpf4jnsgd1na2vs0mg"},{"bike_id":"57dd0012-e7c2-43e3-90a1-087125ac63fa","system_id":"levelo_inurba_marseille","lat":43.33753,"lon":5.37454,"is_reserved":false,"is_disabled":false,"rental_uris":{"android":"levelo://app?vid=57dd0012-e7c2-43e3-90a1-087125ac63fa","ios":"levelo://app?vid=57dd0012-e7c2-43e3-90a1-087125ac63fa"},"vehicle_type_id":"4","last_reported":1729357672,"current_range_meters":38800,"station_id":"","pricing_plan_id":"cebpf4jnsgd1na2vs0mg"},{"bike_id":"db749fb1-dcec-4aa8-92bb-524d5ee5cdf4","system_id":"levelo_inurba_marseille","lat":43.31224,"lon":5.36853,"is_reserved":false,"is_disabled":false,"rental_uris":{"android":"levelo://app?vid=db749fb1-dcec-4aa8-92bb-524d5ee5cdf4","ios":"levelo://app?vid=db749fb1-dcec-4aa8-92bb-524d5ee5cdf4"},"vehicle_type_id":"4","last_reported":1729357672,"current_range_meters":33600,"station_id":"ce4bgl92rcd13ifvqbq0","pricing_plan_id":"cebpf4jnsgd1na2vs0mg"},{"bike_id":"cbf25c5f-5e41-4f30-8f40-3915d37736fe","system_id":"levelo_inurba_marseille","lat":43.229345,"lon":5.353737,"is_reserved":false,"is_disabled":false,"rental_uris":{"android":"levelo://app?vid=cbf25c5f-5e41-4f30-8f40-3915d37736fe","ios":"levelo://app?vid=cbf25c5f-5e41-4f30-8f40-3915d37736fe"},"vehicle_type_id":"4","last_reported":1729357672,"current_range_meters":26000,"station_id":"cpo3532slgdg3j2ikp40","pricing_plan_id":"cebpf4jnsgd1na2vs0mg"},{"bike_id":"5796a74a-abc1-4205-ba0f-b1fd57b47951","system_id":"levelo_inurba_marseille","lat":43.3019,"lon":5.36626,"is_reserved":false,"is_disabled":false,"rental_uris":{"android":"levelo://app?vid=5796a74a-abc1-4205-ba0f-b1fd57b47951","ios":"levelo://app?vid=5796a74a-abc1-4205-ba0f-b1fd57b47951"},"vehicle_type_id":"4","last_reported":1729357672,"current_range_meters":20400,"station_id":"ce4bgrh2rcd13ifvqc8g","pricing_plan_id":"cebpf4jnsgd1na2vs0mg"},{"bike_id":"228e369e-c282-4594-bb9c-3f55e96624ce","system_id":"levelo_inurba_marseille","lat":43.27491,"lon":5.42459,"is_reserved":false,"is_disabled":false,"rental_uris":{"android":"levelo://app?vid=228e369e-c282-4594-bb9c-3f55e96624ce","ios":"levelo://app?vid=228e369e-c282-4594-bb9c-3f55e96624ce"},"vehicle_type_id":"4","last_reported":1729357672,"current_range_meters":8800,"station_id":"ce4bhn92rcd13ifvqgrg","pricing_plan_id":"cebpf4jnsgd1na2vs0mg"},{"bike_id":"a4954706-636e-4bd4-b3fc-8edafaaa98d3","system_id":"levelo_inurba_marseille","lat":43.31328,"lon":5.36726,"is_reserved":false,"is_disabled":false,"rental_uris":{"android":"levelo://app?vid=a4954706-636e-4bd4-b3fc-8edafaaa98d3","ios":"levelo://app?vid=a4954706-636e-4bd4-b3fc-8edafaaa98d3"},"vehicle_type_id":"4","last_reported":1729357672,"current_range_meters":30400,"station_id":"ce4bgr92rcd13ifvqc6g","pricing_plan_id":"cebpf4jnsgd1na2vs0mg"},{"bike_id":"32ce68a3-3fc7-4257-974f-ab657619c295","system_id":"levelo_inurba_marseille","lat":43.33759,"lon":5.37454,"is_reserved":false,"is_disabled":false,"rental_uris":{"android":"levelo://app?vid=32ce68a3-3fc7-4257-974f-ab657619c295","ios":"levelo://app?vid=32ce68a3-3fc7-4257-974f-ab657619c295"},"vehicle_type_id":"4","last_reported":1729357672,"current_range_meters":2800,"station_id":"","pricing_plan_id":"cebpf4jnsgd1na2vs0mg"},{"bike_id":"ae34e110-7788-46f4-9de6-8e738d7be5b8","system_id":"levelo_inurba_marseille","lat":43.28856,"lon":5.39306,"is_reserved":false,"is_disabled":false,"rental_uris":{"android":"levelo://app?vid=ae34e110-7788-46f4-9de6-8e738d7be5b8","ios":"levelo://app?vid=ae34e110-7788-46f4-9de6-8e738d7be5b8"},"vehicle_type_id":"4","last_reported":1729357672,"current_range_meters":28000,"station_id":"ce4bh2p2rcd13ifvqdi0","pricing_plan_id":"cebpf4jnsgd1na2vs0mg"},{"bike_id":"873672db-fbe9-4c1e-87d3-647d3de5f9da","system_id":"levelo_inurba_marseille","lat":43.24808,"lon":5.37464,"is_reserved":false,"is_disabled":false,"rental_uris":{"android":"levelo://app?vid=873672db-fbe9-4c1e-87d3-647d3de5f9da","ios":"levelo://app?vid=873672db-fbe9-4c1e-87d3-647d3de5f9da"},"vehicle_type_id":"4","last_reported":1729357672,"current_range_meters":9200,"station_id":"ce4bhgh2rcd13ifvqfb0","pricing_plan_id":"cebpf4jnsgd1na2vs0mg"},{"bike_id":"319e285c-82b5-439b-a7b4-0550bf15a6bf","system_id":"levelo_inurba_marseille","lat":43.24995,"lon":5.38937,"is_reserved":false,"is_disabled":false,"rental_uris":{"android":"levelo://app?vid=319e285c-82b5-439b-a7b4-0550bf15a6bf","ios":"levelo://app?vid=319e285c-82b5-439b-a7b4-0550bf15a6bf"},"vehicle_type_id":"4","last_reported":1729357672,"current_range_meters":26800,"station_id":"ce4bhgp2rcd13ifvqfd0","pricing_plan_id":"cebpf4jnsgd1na2vs0mg"},{"bike_id":"10e0b177-beea-4857-aa40-2ead1e58acb9","system_id":"levelo_inurba_marseille","lat":43.28153,"lon":5.42649,"is_reserved":false,"is_disabled":false,"rental_uris":{"android":"levelo://app?vid=10e0b177-beea-4857-aa40-2ead1e58acb9","ios":"levelo://app?vid=10e0b177-beea-4857-aa40-2ead1e58acb9"},"vehicle_type_id":"4","last_reported":1729357672,"current_range_meters":38800,"station_id":"ce4bhnh2rcd13ifvqgug","pricing_plan_id":"cebpf4jnsgd1na2vs0mg"},{"bike_id":"ed840fab-d247-474f-bbd6-ccab8167fe34","system_id":"levelo_inurba_marseille","lat":43.2866,"lon":5.36348,"is_reserved":false,"is_disabled":false,"rental_uris":{"android":"levelo://app?vid=ed840fab-d247-474f-bbd6-ccab8167fe34","ios":"levelo://app?vid=ed840fab-d247-474f-bbd6-ccab8167fe34"},"vehicle_type_id":"4","last_reported":1729357672,"current_range_meters":2800,"station_id":"ce4bhah2rcd13ifvqej0","pricing_plan_id":"cebpf4jnsgd1na2vs0mg"},{"bike_id":"58bf20d2-7d9c-4ade-8235-8f801cdc6f75","system_id":"levelo_inurba_marseille","lat":43.26565,"lon":5.39016,"is_reserved":false,"is_disabled":false,"rental_uris":{"android":"levelo://app?vid=58bf20d2-7d9c-4ade-8235-8f801cdc6f75","ios":"levelo://app?vid=58bf20d2-7d9c-4ade-8235-8f801cdc6f75"},"vehicle_type_id":"4","last_reported":1729357672,"current_range_meters":8400,"station_id":"ce4bhe12rcd13ifvqf30","pricing_plan_id":"cebpf4jnsgd1na2vs0mg"},{"bike_id":"5ad45944-f1a9-4659-baa9-60cfd8843656","system_id":"levelo_inurba_marseille","lat":43.231907,"lon":5.35553,"is_reserved":false,"is_disabled":false,"rental_uris":{"android":"levelo://app?vid=5ad45944-f1a9-4659-baa9-60cfd8843656","ios":"levelo://app?vid=5ad45944-f1a9-4659-baa9-60cfd8843656"},"vehicle_type_id":"4","last_reported":1729357672,"current_range_meters":6000,"station_id":"ce4bhu92rcd13ifvqi70","pricing_plan_id":"cebpf4jnsgd1na2vs0mg"},{"bike_id":"4ce89654-66c5-477e-814a-de5b3b6b602c","system_id":"levelo_inurba_marseille","lat":43.3248,"lon":5.36571,"is_reserved":false,"is_disabled":false,"rental_uris":{"android":"levelo://app?vid=4ce89654-66c5-477e-814a-de5b3b6b602c","ios":"levelo://app?vid=4ce89654-66c5-477e-814a-de5b3b6b602c"},"vehicle_type_id":"4","last_reported":1729357672,"current_range_meters":38000,"station_id":"ce4bhs12rcd13ifvqhvg","pricing_plan_id":"cebpf4jnsgd1na2vs0mg"},{"bike_id":"48988bce-5f3d-44ef-9ffd-2b7a7cd9d6eb","system_id":"levelo_inurba_marseille","lat":43.29262,"lon":5.38445,"is_reserved":false,"is_disabled":false,"rental_uris":{"android":"levelo://app?vid=48988bce-5f3d-44ef-9ffd-2b7a7cd9d6eb","ios":"levelo://app?vid=48988bce-5f3d-44ef-9ffd-2b7a7cd9d6eb"},"vehicle_type_id":"4","last_reported":1729357672,"current_range_meters":3600,"station_id":"","pricing_plan_id":"cebpf4jnsgd1na2vs0mg"},{"bike_id":"cfe78fd2-5ebc-40fb-858b-89aa9fc29771","system_id":"levelo_inurba_marseille","lat":43.2941,"lon":5.37823,"is_reserved":false,"is_disabled":false,"rental_uris":{"android":"levelo://app?vid=cfe78fd2-5ebc-40fb-858b-89aa9fc29771","ios":"levelo://app?vid=cfe78fd2-5ebc-40fb-858b-89aa9fc29771"},"vehicle_type_id":"4","last_reported":1729357672,"current_range_meters":18800,"station_id":"","pricing_plan_id":"cebpf4jnsgd1na2vs0mg"},{"bike_id":"3b539b95-4118-4a64-9102-60cfaf6ad6d7","system_id":"levelo_inurba_marseille","lat":43.26191,"lon":5.37452,"is_reserved":false,"is_disabled":false,"rental_uris":{"android":"levelo://app?vid=3b539b95-4118-4a64-9102-60cfaf6ad6d7","ios":"levelo://app?vid=3b539b95-4118-4a64-9102-60cfaf6ad6d7"},"vehicle_type_id":"4","last_reported":1729357672,"current_range_meters":23200,"station_id":"ce4bhgp2rcd13ifvqfc0","pricing_plan_id":"cebpf4jnsgd1na2vs0mg"},{"bike_id":"cc200779-b0ab-472e-8e4c-a492949d5888","system_id":"levelo_inurba_marseille","lat":43.28152,"lon":5.42647,"is_reserved":false,"is_disabled":false,"rental_uris":{"android":"levelo://app?vid=cc200779-b0ab-472e-8e4c-a492949d5888","ios":"levelo://app?vid=cc200779-b0ab-472e-8e4c-a492949d5888"},"vehicle_type_id":"4","last_reported":1729357672,"current_range_meters":14400,"station_id":"ce4bhnh2rcd13ifvqgug","pricing_plan_id":"cebpf4jnsgd1na2vs0mg"},{"bike_id":"8102d064-37b8-4495-981f-398dd49dcc15","system_id":"levelo_inurba_marseille","lat":43.30588,"lon":5.39352,"is_reserved":false,"is_disabled":false,"rental_uris":{"android":"levelo://app?vid=8102d064-37b8-4495-981f-398dd49dcc15","ios":"levelo://app?vid=8102d064-37b8-4495-981f-398dd49dcc15"},"vehicle_type_id":"4","last_reported":1729357672,"current_range_meters":9200,"station_id":"ce4bh0p2rcd13ifvqd80","pricing_plan_id":"cebpf4jnsgd1na2vs0mg"},{"bike_id":"f70d55a2-17fc-4959-b1a6-3539a99b6a87","system_id":"levelo_inurba_marseille","lat":43.26803,"lon":5.40274,"is_reserved":false,"is_disabled":false,"rental_uris":{"android":"levelo://app?vid=f70d55a2-17fc-4959-b1a6-3539a99b6a87","ios":"levelo://app?vid=f70d55a2-17fc-4959-b1a6-3539a99b6a87"},"vehicle_type_id":"4","last_reported":1729357672,"current_range_meters":18000,"station_id":"ce501612rcd8frsf0b60","pricing_plan_id":"cebpf4jnsgd1na2vs0mg"},{"bike_id":"8aa24602-4a9c-4d57-845c-8faf17b4cfae","system_id":"levelo_inurba_marseille","lat":43.26558,"lon":5.37285,"is_reserved":false,"is_disabled":false,"rental_uris":{"android":"levelo://app?vid=8aa24602-4a9c-4d57-845c-8faf17b4cfae","ios":"levelo://app?vid=8aa24602-4a9c-4d57-845c-8faf17b4cfae"},"vehicle_type_id":"4","last_reported":1729357672,"current_range_meters":10000,"station_id":"ce4bhg12rcd13ifvqf70","pricing_plan_id":"cebpf4jnsgd1na2vs0mg"},{"bike_id":"a118048a-6b83-4fbc-96c0-c08c7f9c8cc6","system_id":"levelo_inurba_marseille","lat":43.31169,"lon":5.38738,"is_reserved":false,"is_disabled":false,"rental_uris":{"android":"levelo://app?vid=a118048a-6b83-4fbc-96c0-c08c7f9c8cc6","ios":"levelo://app?vid=a118048a-6b83-4fbc-96c0-c08c7f9c8cc6"},"vehicle_type_id":"4","last_reported":1729357672,"current_range_meters":8000,"station_id":"ce4bgv12rcd13ifvqcp0","pricing_plan_id":"cebpf4jnsgd1na2vs0mg"},{"bike_id":"66ebd054-6292-49a8-899d-d415a5bc1656","system_id":"levelo_inurba_marseille","lat":43.29976,"lon":5.38518,"is_reserved":false,"is_disabled":false,"rental_uris":{"android":"levelo://app?vid=66ebd054-6292-49a8-899d-d415a5bc1656","ios":"levelo://app?vid=66ebd054-6292-49a8-899d-d415a5bc1656"},"vehicle_type_id":"4","last_reported":1729357672,"current_range_meters":38800,"station_id":"ce4bgj92rcd13ifvqbd0","pricing_plan_id":"cebpf4jnsgd1na2vs0mg"},{"bike_id":"04a31866-8258-46a7-a323-e831501edd3c","system_id":"levelo_inurba_marseille","lat":43.31998,"lon":5.3816,"is_reserved":false,"is_disabled":false,"rental_uris":{"android":"levelo://app?vid=04a31866-8258-46a7-a323-e831501edd3c","ios":"levelo://app?vid=04a31866-8258-46a7-a323-e831501edd3c"},"vehicle_type_id":"4","last_reported":1729357672,"current_range_meters":24800,"station_id":"ce4bhr12rcd13ifvqhpg","pricing_plan_id":"cebpf4jnsgd1na2vs0mg"},{"bike_id":"4883619a-dde1-4bbb-b68a-06f15b2f8c77","system_id":"levelo_inurba_marseille","lat":43.28673,"lon":5.36347,"is_reserved":false,"is_disabled":false,"rental_uris":{"android":"levelo://app?vid=4883619a-dde1-4bbb-b68a-06f15b2f8c77","ios":"levelo://app?vid=4883619a-dde1-4bbb-b68a-06f15b2f8c77"},"vehicle_type_id":"4","last_reported":1729357672,"current_range_meters":9600,"station_id":"ce4bhah2rcd13ifvqej0","pricing_plan_id":"cebpf4jnsgd1na2vs0mg"},{"bike_id":"65fad68f-14ac-48aa-ad99-33b2355e572e","system_id":"levelo_inurba_marseille","lat":43.31582,"lon":5.38541,"is_reserved":false,"is_disabled":false,"rental_uris":{"android":"levelo://app?vid=65fad68f-14ac-48aa-ad99-33b2355e572e","ios":"levelo://app?vid=65fad68f-14ac-48aa-ad99-33b2355e572e"},"vehicle_type_id":"4","last_reported":1729357672,"current_range_meters":22800,"station_id":"ce4bgt12rcd13ifvqcd0","pricing_plan_id":"cebpf4jnsgd1na2vs0mg"},{"bike_id":"600615b0-b9ce-4299-8ccc-909dfc6e3f9b","system_id":"levelo_inurba_marseille","lat":43.28845,"lon":5.39323,"is_reserved":false,"is_disabled":false,"rental_uris":{"android":"levelo://app?vid=600615b0-b9ce-4299-8ccc-909dfc6e3f9b","ios":"levelo://app?vid=600615b0-b9ce-4299-8ccc-909dfc6e3f9b"},"vehicle_type_id":"4","last_reported":1729357672,"current_range_meters":4800,"station_id":"ce4bh2p2rcd13ifvqdi0","pricing_plan_id":"cebpf4jnsgd1na2vs0mg"},{"bike_id":"df0764bb-73ac-46d7-903f-a26945b45d7c","system_id":"levelo_inurba_marseille","lat":43.24622,"lon":5.41608,"is_reserved":false,"is_disabled":false,"rental_uris":{"android":"levelo://app?vid=df0764bb-73ac-46d7-903f-a26945b45d7c","ios":"levelo://app?vid=df0764bb-73ac-46d7-903f-a26945b45d7c"},"vehicle_type_id":"4","last_reported":1729357672,"current_range_meters":28000,"station_id":"","pricing_plan_id":"cebpf4jnsgd1na2vs0mg"},{"bike_id":"f7a9d633-efe2-48e4-9162-590c31891937","system_id":"levelo_inurba_marseille","lat":43.2958,"lon":5.36736,"is_reserved":false,"is_disabled":false,"rental_uris":{"android":"levelo://app?vid=f7a9d633-efe2-48e4-9162-590c31891937","ios":"levelo://app?vid=f7a9d633-efe2-48e4-9162-590c31891937"},"vehicle_type_id":"4","last_reported":1729357672,"current_range_meters":37600,"station_id":"ce4bgph2rcd13ifvqc2g","pricing_plan_id":"cebpf4jnsgd1na2vs0mg"},{"bike_id":"e4728503-6a3a-4abf-a1ec-fe639ca1d31b","system_id":"levelo_inurba_marseille","lat":43.28414,"lon":5.37517,"is_reserved":false,"is_disabled":false,"rental_uris":{"android":"levelo://app?vid=e4728503-6a3a-4abf-a1ec-fe639ca1d31b","ios":"levelo://app?vid=e4728503-6a3a-4abf-a1ec-fe639ca1d31b"},"vehicle_type_id":"4","last_reported":1729357672,"current_range_meters":20400,"station_id":"ce4bh412rcd13ifvqds0","pricing_plan_id":"cebpf4jnsgd1na2vs0mg"},{"bike_id":"628c86c7-a5ef-436e-b27a-e913a0ef8c55","system_id":"levelo_inurba_marseille","lat":43.29769,"lon":5.36979,"is_reserved":false,"is_disabled":false,"rental_uris":{"android":"levelo://app?vid=628c86c7-a5ef-436e-b27a-e913a0ef8c55","ios":"levelo://app?vid=628c86c7-a5ef-436e-b27a-e913a0ef8c55"},"vehicle_type_id":"4","last_reported":1729357672,"current_range_meters":34000,"station_id":"ce4bgn12rcd13ifvqbt0","pricing_plan_id":"cebpf4jnsgd1na2vs0mg"},{"bike_id":"554b1fff-c256-451e-8d14-4967b619a32e","system_id":"levelo_inurba_marseille","lat":43.24071,"lon":5.37764,"is_reserved":false,"is_disabled":false,"rental_uris":{"android":"levelo://app?vid=554b1fff-c256-451e-8d14-4967b619a32e","ios":"levelo://app?vid=554b1fff-c256-451e-8d14-4967b619a32e"},"vehicle_type_id":"4","last_reported":1729357672,"current_range_meters":3200,"station_id":"ce4bhnp2rcd13ifvqgvg","pricing_plan_id":"cebpf4jnsgd1na2vs0mg"},{"bike_id":"69107c76-ccea-461d-bfa6-7be0381ddf18","system_id":"levelo_inurba_marseille","lat":43.2649,"lon":5.3955,"is_reserved":false,"is_disabled":false,"rental_uris":{"android":"levelo://app?vid=69107c76-ccea-461d-bfa6-7be0381ddf18","ios":"levelo://app?vid=69107c76-ccea-461d-bfa6-7be0381ddf18"},"vehicle_type_id":"4","last_reported":1729357672,"current_range_meters":29600,"station_id":"ce4bhi12rcd13ifvqfq0","pricing_plan_id":"cebpf4jnsgd1na2vs0mg"},{"bike_id":"fea0272a-c74d-4151-ac19-adc86ce0b4f8","system_id":"levelo_inurba_marseille","lat":43.26552,"lon":5.37291,"is_reserved":false,"is_disabled":false,"rental_uris":{"android":"levelo://app?vid=fea0272a-c74d-4151-ac19-adc86ce0b4f8","ios":"levelo://app?vid=fea0272a-c74d-4151-ac19-adc86ce0b4f8"},"vehicle_type_id":"4","last_reported":1729357672,"current_range_meters":26800,"station_id":"ce4bhg12rcd13ifvqf70","pricing_plan_id":"cebpf4jnsgd1na2vs0mg"},{"bike_id":"b8320adc-657b-45fc-bd6d-34f4b0579f44","system_id":"levelo_inurba_marseille","lat":43.29571,"lon":5.39974,"is_reserved":false,"is_disabled":false,"rental_uris":{"android":"levelo://app?vid=b8320adc-657b-45fc-bd6d-34f4b0579f44","ios":"levelo://app?vid=b8320adc-657b-45fc-bd6d-34f4b0579f44"},"vehicle_type_id":"4","last_reported":1729357672,"current_range_meters":12000,"station_id":"ce4bh312rcd13ifvqdj0","pricing_plan_id":"cebpf4jnsgd1na2vs0mg"},{"bike_id":"6e706dcb-6e41-41b6-a172-73765c66fdaa","system_id":"levelo_inurba_marseille","lat":43.26248,"lon":5.37591,"is_reserved":false,"is_disabled":false,"rental_uris":{"android":"levelo://app?vid=6e706dcb-6e41-41b6-a172-73765c66fdaa","ios":"levelo://app?vid=6e706dcb-6e41-41b6-a172-73765c66fdaa"},"vehicle_type_id":"4","last_reported":1729357672,"current_range_meters":37600,"station_id":"ce4bhhp2rcd13ifvqfm0","pricing_plan_id":"cebpf4jnsgd1na2vs0mg"},{"bike_id":"7772d39f-5e28-445c-af91-069b0cf63793","system_id":"levelo_inurba_marseille","lat":43.33765,"lon":5.37438,"is_reserved":false,"is_disabled":false,"rental_uris":{"android":"levelo://app?vid=7772d39f-5e28-445c-af91-069b0cf63793","ios":"levelo://app?vid=7772d39f-5e28-445c-af91-069b0cf63793"},"vehicle_type_id":"4","last_reported":1729357672,"current_range_meters":8400,"station_id":"","pricing_plan_id":"cebpf4jnsgd1na2vs0mg"},{"bike_id":"857cb7c0-fa0c-4158-a87e-ad1904e60517","system_id":"levelo_inurba_marseille","lat":43.31997,"lon":5.38161,"is_reserved":false,"is_disabled":false,"rental_uris":{"android":"levelo://app?vid=857cb7c0-fa0c-4158-a87e-ad1904e60517","ios":"levelo://app?vid=857cb7c0-fa0c-4158-a87e-ad1904e60517"},"vehicle_type_id":"4","last_reported":1729357672,"current_range_meters":37600,"station_id":"ce4bhr12rcd13ifvqhpg","pricing_plan_id":"cebpf4jnsgd1na2vs0mg"},{"bike_id":"3213665e-989c-4d22-9f5a-31c8522597dd","system_id":"levelo_inurba_marseille","lat":43.296,"lon":5.36142,"is_reserved":false,"is_disabled":false,"rental_uris":{"android":"levelo://app?vid=3213665e-989c-4d22-9f5a-31c8522597dd","ios":"levelo://app?vid=3213665e-989c-4d22-9f5a-31c8522597dd"},"vehicle_type_id":"4","last_reported":1729357672,"current_range_meters":18800,"station_id":"","pricing_plan_id":"cebpf4jnsgd1na2vs0mg"},{"bike_id":"3f9d5455-5f4d-40ae-886e-7b4b18c2fdcf","system_id":"levelo_inurba_marseille","lat":43.281555,"lon":5.426458,"is_reserved":false,"is_disabled":false,"rental_uris":{"android":"levelo://app?vid=3f9d5455-5f4d-40ae-886e-7b4b18c2fdcf","ios":"levelo://app?vid=3f9d5455-5f4d-40ae-886e-7b4b18c2fdcf"},"vehicle_type_id":"4","last_reported":1729357672,"current_range_meters":38800,"station_id":"ce4bhnh2rcd13ifvqgug","pricing_plan_id":"cebpf4jnsgd1na2vs0mg"},{"bike_id":"b023c855-6c3b-43c3-af85-d125d6566458","system_id":"levelo_inurba_marseille","lat":43.29351,"lon":5.37858,"is_reserved":false,"is_disabled":false,"rental_uris":{"android":"levelo://app?vid=b023c855-6c3b-43c3-af85-d125d6566458","ios":"levelo://app?vid=b023c855-6c3b-43c3-af85-d125d6566458"},"vehicle_type_id":"4","last_reported":1729357672,"current_range_meters":22400,"station_id":"ce4bgjh2rcd13ifvqbf0","pricing_plan_id":"cebpf4jnsgd1na2vs0mg"},{"bike_id":"85978b2d-96a1-4496-a15d-3917a97b0613","system_id":"levelo_inurba_marseille","lat":43.31051,"lon":5.40116,"is_reserved":false,"is_disabled":false,"rental_uris":{"android":"levelo://app?vid=85978b2d-96a1-4496-a15d-3917a97b0613","ios":"levelo://app?vid=85978b2d-96a1-4496-a15d-3917a97b0613"},"vehicle_type_id":"4","last_reported":1729357672,"current_range_meters":37600,"station_id":"","pricing_plan_id":"cebpf4jnsgd1na2vs0mg"},{"bike_id":"e78b617d-375d-43c8-adb3-6f4b45c69c54","system_id":"levelo_inurba_marseille","lat":43.28155,"lon":5.42644,"is_reserved":false,"is_disabled":false,"rental_uris":{"android":"levelo://app?vid=e78b617d-375d-43c8-adb3-6f4b45c69c54","ios":"levelo://app?vid=e78b617d-375d-43c8-adb3-6f4b45c69c54"},"vehicle_type_id":"4","last_reported":1729357672,"current_range_meters":14000,"station_id":"ce4bhnh2rcd13ifvqgug","pricing_plan_id":"cebpf4jnsgd1na2vs0mg"},{"bike_id":"62679cc5-0d2d-4ace-abc4-366c100478ff","system_id":"levelo_inurba_marseille","lat":43.31708,"lon":5.43706,"is_reserved":false,"is_disabled":false,"rental_uris":{"android":"levelo://app?vid=62679cc5-0d2d-4ace-abc4-366c100478ff","ios":"levelo://app?vid=62679cc5-0d2d-4ace-abc4-366c100478ff"},"vehicle_type_id":"4","last_reported":1729357672,"current_range_meters":38800,"station_id":"ce4bhp92rcd13ifvqhcg","pricing_plan_id":"cebpf4jnsgd1na2vs0mg"},{"bike_id":"be1a51aa-0690-41d3-a11e-a0f1a49c88e2","system_id":"levelo_inurba_marseille","lat":43.295431,"lon":5.422963,"is_reserved":false,"is_disabled":false,"rental_uris":{"android":"levelo://app?vid=be1a51aa-0690-41d3-a11e-a0f1a49c88e2","ios":"levelo://app?vid=be1a51aa-0690-41d3-a11e-a0f1a49c88e2"},"vehicle_type_id":"4","last_reported":1729357672,"current_range_meters":36800,"station_id":"ce4bhph2rcd13ifvqhdg","pricing_plan_id":"cebpf4jnsgd1na2vs0mg"},{"bike_id":"5b28be2f-cc82-4704-8fab-d09bc8dbc62e","system_id":"levelo_inurba_marseille","lat":43.24858,"lon":5.38857,"is_reserved":false,"is_disabled":false,"rental_uris":{"android":"levelo://app?vid=5b28be2f-cc82-4704-8fab-d09bc8dbc62e","ios":"levelo://app?vid=5b28be2f-cc82-4704-8fab-d09bc8dbc62e"},"vehicle_type_id":"4","last_reported":1729357672,"current_range_meters":18000,"station_id":"","pricing_plan_id":"cebpf4jnsgd1na2vs0mg"},{"bike_id":"696b07c0-5716-46b2-a0c4-3c72d83b2c19","system_id":"levelo_inurba_marseille","lat":43.28856,"lon":5.39298,"is_reserved":false,"is_disabled":false,"rental_uris":{"android":"levelo://app?vid=696b07c0-5716-46b2-a0c4-3c72d83b2c19","ios":"levelo://app?vid=696b07c0-5716-46b2-a0c4-3c72d83b2c19"},"vehicle_type_id":"4","last_reported":1729357672,"current_range_meters":8000,"station_id":"ce4bh2p2rcd13ifvqdi0","pricing_plan_id":"cebpf4jnsgd1na2vs0mg"},{"bike_id":"58d50974-da4e-4c22-9e02-31169c3d6fdd","system_id":"levelo_inurba_marseille","lat":43.32025,"lon":5.40968,"is_reserved":false,"is_disabled":false,"rental_uris":{"android":"levelo://app?vid=58d50974-da4e-4c22-9e02-31169c3d6fdd","ios":"levelo://app?vid=58d50974-da4e-4c22-9e02-31169c3d6fdd"},"vehicle_type_id":"4","last_reported":1729357672,"current_range_meters":20800,"station_id":"","pricing_plan_id":"cebpf4jnsgd1na2vs0mg"},{"bike_id":"b7875357-3e68-4472-a603-c17972c7f876","system_id":"levelo_inurba_marseille","lat":43.29898,"lon":5.43664,"is_reserved":false,"is_disabled":false,"rental_uris":{"android":"levelo://app?vid=b7875357-3e68-4472-a603-c17972c7f876","ios":"levelo://app?vid=b7875357-3e68-4472-a603-c17972c7f876"},"vehicle_type_id":"4","last_reported":1729357672,"current_range_meters":3200,"station_id":"ce4bhpp2rcd13ifvqhfg","pricing_plan_id":"cebpf4jnsgd1na2vs0mg"},{"bike_id":"a50da574-03c5-475b-b6c5-e3885a5b2ef0","system_id":"levelo_inurba_marseille","lat":43.28152,"lon":5.42635,"is_reserved":false,"is_disabled":false,"rental_uris":{"android":"levelo://app?vid=a50da574-03c5-475b-b6c5-e3885a5b2ef0","ios":"levelo://app?vid=a50da574-03c5-475b-b6c5-e3885a5b2ef0"},"vehicle_type_id":"4","last_reported":1729357672,"current_range_meters":22800,"station_id":"ce4bhnh2rcd13ifvqgug","pricing_plan_id":"cebpf4jnsgd1na2vs0mg"},{"bike_id":"fac9a3a2-2dd0-4efd-afd6-73cc4f4edd9a","system_id":"levelo_inurba_marseille","lat":43.24809,"lon":5.37459,"is_reserved":false,"is_disabled":false,"rental_uris":{"android":"levelo://app?vid=fac9a3a2-2dd0-4efd-afd6-73cc4f4edd9a","ios":"levelo://app?vid=fac9a3a2-2dd0-4efd-afd6-73cc4f4edd9a"},"vehicle_type_id":"4","last_reported":1729357672,"current_range_meters":38800,"station_id":"ce4bhgh2rcd13ifvqfb0","pricing_plan_id":"cebpf4jnsgd1na2vs0mg"},{"bike_id":"efd1f95e-413b-415d-b3f1-1d9f8f107a89","system_id":"levelo_inurba_marseille","lat":43.31056,"lon":5.3837,"is_reserved":false,"is_disabled":false,"rental_uris":{"android":"levelo://app?vid=efd1f95e-413b-415d-b3f1-1d9f8f107a89","ios":"levelo://app?vid=efd1f95e-413b-415d-b3f1-1d9f8f107a89"},"vehicle_type_id":"4","last_reported":1729357672,"current_range_meters":34000,"station_id":"ce4bgv92rcd13ifvqcr0","pricing_plan_id":"cebpf4jnsgd1na2vs0mg"},{"bike_id":"dcc619ed-a135-471e-a016-4d0eeb6239cd","system_id":"levelo_inurba_marseille","lat":43.28341,"lon":5.38108,"is_reserved":false,"is_disabled":false,"rental_uris":{"android":"levelo://app?vid=dcc619ed-a135-471e-a016-4d0eeb6239cd","ios":"levelo://app?vid=dcc619ed-a135-471e-a016-4d0eeb6239cd"},"vehicle_type_id":"4","last_reported":1729357672,"current_range_meters":33600,"station_id":"ce4bh412rcd13ifvqdr0","pricing_plan_id":"cebpf4jnsgd1na2vs0mg"},{"bike_id":"4e13d04b-50f7-48e6-a144-86ae27179318","system_id":"levelo_inurba_marseille","lat":43.29033,"lon":5.37546,"is_reserved":false,"is_disabled":false,"rental_uris":{"android":"levelo://app?vid=4e13d04b-50f7-48e6-a144-86ae27179318","ios":"levelo://app?vid=4e13d04b-50f7-48e6-a144-86ae27179318"},"vehicle_type_id":"4","last_reported":1729357672,"current_range_meters":4400,"station_id":"ce4bh692rcd13ifvqe90","pricing_plan_id":"cebpf4jnsgd1na2vs0mg"},{"bike_id":"863eccdb-5099-49fa-bd4d-78e0ccf0c33a","system_id":"levelo_inurba_marseille","lat":43.26491,"lon":5.39552,"is_reserved":false,"is_disabled":false,"rental_uris":{"android":"levelo://app?vid=863eccdb-5099-49fa-bd4d-78e0ccf0c33a","ios":"levelo://app?vid=863eccdb-5099-49fa-bd4d-78e0ccf0c33a"},"vehicle_type_id":"4","last_reported":1729357672,"current_range_meters":38800,"station_id":"ce4bhi12rcd13ifvqfq0","pricing_plan_id":"cebpf4jnsgd1na2vs0mg"},{"bike_id":"1fcab883-31bc-4ecb-a2f9-59282c5e0245","system_id":"levelo_inurba_marseille","lat":43.28474,"lon":5.3841,"is_reserved":false,"is_disabled":false,"rental_uris":{"android":"levelo://app?vid=1fcab883-31bc-4ecb-a2f9-59282c5e0245","ios":"levelo://app?vid=1fcab883-31bc-4ecb-a2f9-59282c5e0245"},"vehicle_type_id":"4","last_reported":1729357672,"current_range_meters":19200,"station_id":"ce4bh512rcd13ifvqe3g","pricing_plan_id":"cebpf4jnsgd1na2vs0mg"},{"bike_id":"a988a285-26c5-41f6-a1f8-a0ead7229cee","system_id":"levelo_inurba_marseille","lat":43.26785,"lon":5.39408,"is_reserved":false,"is_disabled":false,"rental_uris":{"android":"levelo://app?vid=a988a285-26c5-41f6-a1f8-a0ead7229cee","ios":"levelo://app?vid=a988a285-26c5-41f6-a1f8-a0ead7229cee"},"vehicle_type_id":"4","last_reported":1729357672,"current_range_meters":3600,"station_id":"ce4bhh12rcd13ifvqfg0","pricing_plan_id":"cebpf4jnsgd1na2vs0mg"},{"bike_id":"c6b9c23b-465d-4e35-8d08-7df34e28ee5b","system_id":"levelo_inurba_marseille","lat":43.29034,"lon":5.39969,"is_reserved":false,"is_disabled":false,"rental_uris":{"android":"levelo://app?vid=c6b9c23b-465d-4e35-8d08-7df34e28ee5b","ios":"levelo://app?vid=c6b9c23b-465d-4e35-8d08-7df34e28ee5b"},"vehicle_type_id":"4","last_reported":1729357672,"current_range_meters":4400,"station_id":"ce4bh392rcd13ifvqdm0","pricing_plan_id":"cebpf4jnsgd1na2vs0mg"},{"bike_id":"0ca61beb-790c-496b-8efa-f5725b722b3f","system_id":"levelo_inurba_marseille","lat":43.31976,"lon":5.38406,"is_reserved":false,"is_disabled":false,"rental_uris":{"android":"levelo://app?vid=0ca61beb-790c-496b-8efa-f5725b722b3f","ios":"levelo://app?vid=0ca61beb-790c-496b-8efa-f5725b722b3f"},"vehicle_type_id":"4","last_reported":1729357672,"current_range_meters":10800,"station_id":"","pricing_plan_id":"cebpf4jnsgd1na2vs0mg"},{"bike_id":"c34e2acb-3afe-4aa1-8cdb-c481d100b683","system_id":"levelo_inurba_marseille","lat":43.32477,"lon":5.36564,"is_reserved":false,"is_disabled":false,"rental_uris":{"android":"levelo://app?vid=c34e2acb-3afe-4aa1-8cdb-c481d100b683","ios":"levelo://app?vid=c34e2acb-3afe-4aa1-8cdb-c481d100b683"},"vehicle_type_id":"4","last_reported":1729357672,"current_range_meters":22800,"station_id":"ce4bhs12rcd13ifvqhvg","pricing_plan_id":"cebpf4jnsgd1na2vs0mg"},{"bike_id":"653344d8-2cf3-46ef-845c-7a41bd4051bc","system_id":"levelo_inurba_marseille","lat":43.28151,"lon":5.42637,"is_reserved":false,"is_disabled":false,"rental_uris":{"android":"levelo://app?vid=653344d8-2cf3-46ef-845c-7a41bd4051bc","ios":"levelo://app?vid=653344d8-2cf3-46ef-845c-7a41bd4051bc"},"vehicle_type_id":"4","last_reported":1729357672,"current_range_meters":18800,"station_id":"ce4bhnh2rcd13ifvqgug","pricing_plan_id":"cebpf4jnsgd1na2vs0mg"},{"bike_id":"a3f3b6cd-ea81-48a9-8dda-ad2296bb36bb","system_id":"levelo_inurba_marseille","lat":43.28945,"lon":5.36632,"is_reserved":false,"is_disabled":false,"rental_uris":{"android":"levelo://app?vid=a3f3b6cd-ea81-48a9-8dda-ad2296bb36bb","ios":"levelo://app?vid=a3f3b6cd-ea81-48a9-8dda-ad2296bb36bb"},"vehicle_type_id":"4","last_reported":1729357672,"current_range_meters":25600,"station_id":"ce4bhap2rcd13ifvqek0","pricing_plan_id":"cebpf4jnsgd1na2vs0mg"},{"bike_id":"85e86b24-d850-437c-af8b-39c40d10d70d","system_id":"levelo_inurba_marseille","lat":43.31716,"lon":5.43699,"is_reserved":false,"is_disabled":false,"rental_uris":{"android":"levelo://app?vid=85e86b24-d850-437c-af8b-39c40d10d70d","ios":"levelo://app?vid=85e86b24-d850-437c-af8b-39c40d10d70d"},"vehicle_type_id":"4","last_reported":1729357672,"current_range_meters":16800,"station_id":"ce4bhp92rcd13ifvqhcg","pricing_plan_id":"cebpf4jnsgd1na2vs0mg"},{"bike_id":"53a03ff1-98d8-4c4d-aa19-b4a07428eeca","system_id":"levelo_inurba_marseille","lat":43.26551,"lon":5.37291,"is_reserved":false,"is_disabled":false,"rental_uris":{"android":"levelo://app?vid=53a03ff1-98d8-4c4d-aa19-b4a07428eeca","ios":"levelo://app?vid=53a03ff1-98d8-4c4d-aa19-b4a07428eeca"},"vehicle_type_id":"4","last_reported":1729357672,"current_range_meters":14400,"station_id":"ce4bhg12rcd13ifvqf70","pricing_plan_id":"cebpf4jnsgd1na2vs0mg"},{"bike_id":"979c9729-008f-48db-b338-59c5cff0384e","system_id":"levelo_inurba_marseille","lat":43.31336,"lon":5.36733,"is_reserved":false,"is_disabled":false,"rental_uris":{"android":"levelo://app?vid=979c9729-008f-48db-b338-59c5cff0384e","ios":"levelo://app?vid=979c9729-008f-48db-b338-59c5cff0384e"},"vehicle_type_id":"4","last_reported":1729357672,"current_range_meters":26800,"station_id":"ce4bgr92rcd13ifvqc6g","pricing_plan_id":"cebpf4jnsgd1na2vs0mg"},{"bike_id":"9e303ac4-e9b8-42b3-beda-9b565ec420da","system_id":"levelo_inurba_marseille","lat":43.298706,"lon":5.397406,"is_reserved":false,"is_disabled":false,"rental_uris":{"android":"levelo://app?vid=9e303ac4-e9b8-42b3-beda-9b565ec420da","ios":"levelo://app?vid=9e303ac4-e9b8-42b3-beda-9b565ec420da"},"vehicle_type_id":"4","last_reported":1729357672,"current_range_meters":29600,"station_id":"ce4bh0h2rcd13ifvqd50","pricing_plan_id":"cebpf4jnsgd1na2vs0mg"},{"bike_id":"b63b570a-8576-45f0-a046-4043994ac94d","system_id":"levelo_inurba_marseille","lat":43.31486,"lon":5.37314,"is_reserved":false,"is_disabled":false,"rental_uris":{"android":"levelo://app?vid=b63b570a-8576-45f0-a046-4043994ac94d","ios":"levelo://app?vid=b63b570a-8576-45f0-a046-4043994ac94d"},"vehicle_type_id":"4","last_reported":1729357672,"current_range_meters":9200,"station_id":"ce4bgt12rcd13ifvqcd0","pricing_plan_id":"cebpf4jnsgd1na2vs0mg"},{"bike_id":"1ae13e40-cea6-468f-95f7-13d97971ec40","system_id":"levelo_inurba_marseille","lat":43.29773,"lon":5.37101,"is_reserved":false,"is_disabled":false,"rental_uris":{"android":"levelo://app?vid=1ae13e40-cea6-468f-95f7-13d97971ec40","ios":"levelo://app?vid=1ae13e40-cea6-468f-95f7-13d97971ec40"},"vehicle_type_id":"4","last_reported":1729357672,"current_range_meters":6000,"station_id":"ce4bgop2rcd13ifvqc1g","pricing_plan_id":"cebpf4jnsgd1na2vs0mg"},{"bike_id":"7f05e50e-9581-4da2-ac81-07b2ab34ca58","system_id":"levelo_inurba_marseille","lat":43.33296,"lon":5.39435,"is_reserved":false,"is_disabled":false,"rental_uris":{"android":"levelo://app?vid=7f05e50e-9581-4da2-ac81-07b2ab34ca58","ios":"levelo://app?vid=7f05e50e-9581-4da2-ac81-07b2ab34ca58"},"vehicle_type_id":"4","last_reported":1729357672,"current_range_meters":35200,"station_id":"ce4bhr92rcd13ifvqhrg","pricing_plan_id":"cebpf4jnsgd1na2vs0mg"},{"bike_id":"a7aea0df-c7ce-439f-813a-b71c43ca758f","system_id":"levelo_inurba_marseille","lat":43.28027,"lon":5.36948,"is_reserved":false,"is_disabled":false,"rental_uris":{"android":"levelo://app?vid=a7aea0df-c7ce-439f-813a-b71c43ca758f","ios":"levelo://app?vid=a7aea0df-c7ce-439f-813a-b71c43ca758f"},"vehicle_type_id":"4","last_reported":1729357672,"current_range_meters":26000,"station_id":"ce4bha12rcd13ifvqef0","pricing_plan_id":"cebpf4jnsgd1na2vs0mg"},{"bike_id":"8b389ca0-980b-4b7c-9cfa-0ed46d4f0795","system_id":"levelo_inurba_marseille","lat":43.26803,"lon":5.40268,"is_reserved":false,"is_disabled":false,"rental_uris":{"android":"levelo://app?vid=8b389ca0-980b-4b7c-9cfa-0ed46d4f0795","ios":"levelo://app?vid=8b389ca0-980b-4b7c-9cfa-0ed46d4f0795"},"vehicle_type_id":"4","last_reported":1729357672,"current_range_meters":30800,"station_id":"ce501612rcd8frsf0b60","pricing_plan_id":"cebpf4jnsgd1na2vs0mg"},{"bike_id":"0274bb34-d2f5-4048-bae5-f207d6afc2d3","system_id":"levelo_inurba_marseille","lat":43.26568,"lon":5.39016,"is_reserved":false,"is_disabled":false,"rental_uris":{"android":"levelo://app?vid=0274bb34-d2f5-4048-bae5-f207d6afc2d3","ios":"levelo://app?vid=0274bb34-d2f5-4048-bae5-f207d6afc2d3"},"vehicle_type_id":"4","last_reported":1729357672,"current_range_meters":24400,"station_id":"ce4bhe12rcd13ifvqf30","pricing_plan_id":"cebpf4jnsgd1na2vs0mg"},{"bike_id":"9616d6fa-1cbb-4024-be9e-5c8a49d224eb","system_id":"levelo_inurba_marseille","lat":43.26169,"lon":5.39361,"is_reserved":false,"is_disabled":false,"rental_uris":{"android":"levelo://app?vid=9616d6fa-1cbb-4024-be9e-5c8a49d224eb","ios":"levelo://app?vid=9616d6fa-1cbb-4024-be9e-5c8a49d224eb"},"vehicle_type_id":"4","last_reported":1729357672,"current_range_meters":12800,"station_id":"ce4bh192rcd13ifvqdc0","pricing_plan_id":"cebpf4jnsgd1na2vs0mg"},{"bike_id":"8a61b0d3-96ba-49fc-af75-dd8176297036","system_id":"levelo_inurba_marseille","lat":43.23958,"lon":5.36637,"is_reserved":false,"is_disabled":false,"rental_uris":{"android":"levelo://app?vid=8a61b0d3-96ba-49fc-af75-dd8176297036","ios":"levelo://app?vid=8a61b0d3-96ba-49fc-af75-dd8176297036"},"vehicle_type_id":"4","last_reported":1729357672,"current_range_meters":14400,"station_id":"ce4bhi12rcd13ifvqfp0","pricing_plan_id":"cebpf4jnsgd1na2vs0mg"},{"bike_id":"bda92c51-eede-4a1b-8ee1-b4721e0565ad","system_id":"levelo_inurba_marseille","lat":43.31716,"lon":5.43704,"is_reserved":false,"is_disabled":false,"rental_uris":{"android":"levelo://app?vid=bda92c51-eede-4a1b-8ee1-b4721e0565ad","ios":"levelo://app?vid=bda92c51-eede-4a1b-8ee1-b4721e0565ad"},"vehicle_type_id":"4","last_reported":1729357672,"current_range_meters":6400,"station_id":"ce4bhp92rcd13ifvqhcg","pricing_plan_id":"cebpf4jnsgd1na2vs0mg"},{"bike_id":"bedfd9ce-fea9-44d4-b5a7-72e85ecf3717","system_id":"levelo_inurba_marseille","lat":43.29518,"lon":5.38525,"is_reserved":false,"is_disabled":false,"rental_uris":{"android":"levelo://app?vid=bedfd9ce-fea9-44d4-b5a7-72e85ecf3717","ios":"levelo://app?vid=bedfd9ce-fea9-44d4-b5a7-72e85ecf3717"},"vehicle_type_id":"4","last_reported":1729357672,"current_range_meters":14400,"station_id":"ce4bgih2rcd13ifvqba0","pricing_plan_id":"cebpf4jnsgd1na2vs0mg"},{"bike_id":"b655f0e5-9f54-4337-9f8f-e40c329da075","system_id":"levelo_inurba_marseille","lat":43.29312,"lon":5.37534,"is_reserved":false,"is_disabled":false,"rental_uris":{"android":"levelo://app?vid=b655f0e5-9f54-4337-9f8f-e40c329da075","ios":"levelo://app?vid=b655f0e5-9f54-4337-9f8f-e40c329da075"},"vehicle_type_id":"4","last_reported":1729357672,"current_range_meters":6400,"station_id":"","pricing_plan_id":"cebpf4jnsgd1na2vs0mg"},{"bike_id":"b991c73a-6c2f-4672-900c-90f11cf71bb5","system_id":"levelo_inurba_marseille","lat":43.30796,"lon":5.38158,"is_reserved":false,"is_disabled":false,"rental_uris":{"android":"levelo://app?vid=b991c73a-6c2f-4672-900c-90f11cf71bb5","ios":"levelo://app?vid=b991c73a-6c2f-4672-900c-90f11cf71bb5"},"vehicle_type_id":"4","last_reported":1729357672,"current_range_meters":20000,"station_id":"ce4bgt12rcd13ifvqce0","pricing_plan_id":"cebpf4jnsgd1na2vs0mg"},{"bike_id":"9f85ea6d-505d-4085-9eb5-9f4cbf901617","system_id":"levelo_inurba_marseille","lat":43.29577,"lon":5.380649,"is_reserved":false,"is_disabled":false,"rental_uris":{"android":"levelo://app?vid=9f85ea6d-505d-4085-9eb5-9f4cbf901617","ios":"levelo://app?vid=9f85ea6d-505d-4085-9eb5-9f4cbf901617"},"vehicle_type_id":"4","last_reported":1729357672,"current_range_meters":28000,"station_id":"ce4bgl12rcd13ifvqbo0","pricing_plan_id":"cebpf4jnsgd1na2vs0mg"},{"bike_id":"2701fda0-8b47-422d-ab4d-8af5a2075b0c","system_id":"levelo_inurba_marseille","lat":43.23054,"lon":5.35495,"is_reserved":false,"is_disabled":false,"rental_uris":{"android":"levelo://app?vid=2701fda0-8b47-422d-ab4d-8af5a2075b0c","ios":"levelo://app?vid=2701fda0-8b47-422d-ab4d-8af5a2075b0c"},"vehicle_type_id":"4","last_reported":1729357672,"current_range_meters":8800,"station_id":"cpo3342slgdg3j2ifvpg","pricing_plan_id":"cebpf4jnsgd1na2vs0mg"},{"bike_id":"2eac7aaa-0cd5-4ce3-a3a9-31420c783a93","system_id":"levelo_inurba_marseille","lat":43.28463,"lon":5.35888,"is_reserved":false,"is_disabled":false,"rental_uris":{"android":"levelo://app?vid=2eac7aaa-0cd5-4ce3-a3a9-31420c783a93","ios":"levelo://app?vid=2eac7aaa-0cd5-4ce3-a3a9-31420c783a93"},"vehicle_type_id":"4","last_reported":1729357672,"current_range_meters":20000,"station_id":"ce4bhah2rcd13ifvqei0","pricing_plan_id":"cebpf4jnsgd1na2vs0mg"},{"bike_id":"12f83676-3376-418e-bb4e-e7ff13a23fe3","system_id":"levelo_inurba_marseille","lat":43.28416,"lon":5.34992,"is_reserved":false,"is_disabled":false,"rental_uris":{"android":"levelo://app?vid=12f83676-3376-418e-bb4e-e7ff13a23fe3","ios":"levelo://app?vid=12f83676-3376-418e-bb4e-e7ff13a23fe3"},"vehicle_type_id":"4","last_reported":1729357672,"current_range_meters":38800,"station_id":"ce4bhbh2rcd13ifvqepg","pricing_plan_id":"cebpf4jnsgd1na2vs0mg"},{"bike_id":"96c45d21-03ea-46ea-afa5-0c108eeb81d1","system_id":"levelo_inurba_marseille","lat":43.24988,"lon":5.3894,"is_reserved":false,"is_disabled":false,"rental_uris":{"android":"levelo://app?vid=96c45d21-03ea-46ea-afa5-0c108eeb81d1","ios":"levelo://app?vid=96c45d21-03ea-46ea-afa5-0c108eeb81d1"},"vehicle_type_id":"4","last_reported":1729357672,"current_range_meters":3200,"station_id":"ce4bhgp2rcd13ifvqfd0","pricing_plan_id":"cebpf4jnsgd1na2vs0mg"},{"bike_id":"595be9c3-60ed-49b9-8a95-4608eb8f8527","system_id":"levelo_inurba_marseille","lat":43.2231,"lon":5.34611,"is_reserved":false,"is_disabled":false,"rental_uris":{"android":"levelo://app?vid=595be9c3-60ed-49b9-8a95-4608eb8f8527","ios":"levelo://app?vid=595be9c3-60ed-49b9-8a95-4608eb8f8527"},"vehicle_type_id":"4","last_reported":1729357672,"current_range_meters":14800,"station_id":"","pricing_plan_id":"cebpf4jnsgd1na2vs0mg"},{"bike_id":"6943fa1b-4b3e-46b2-98aa-d1dbe306a3fb","system_id":"levelo_inurba_marseille","lat":43.28938,"lon":5.39631,"is_reserved":false,"is_disabled":false,"rental_uris":{"android":"levelo://app?vid=6943fa1b-4b3e-46b2-98aa-d1dbe306a3fb","ios":"levelo://app?vid=6943fa1b-4b3e-46b2-98aa-d1dbe306a3fb"},"vehicle_type_id":"4","last_reported":1729357672,"current_range_meters":24000,"station_id":"ce4bh3h2rcd13ifvqdn0","pricing_plan_id":"cebpf4jnsgd1na2vs0mg"},{"bike_id":"8f87d845-e3af-4e2d-8a8c-c31ed35cda6d","system_id":"levelo_inurba_marseille","lat":43.276746,"lon":5.388909,"is_reserved":false,"is_disabled":false,"rental_uris":{"android":"levelo://app?vid=8f87d845-e3af-4e2d-8a8c-c31ed35cda6d","ios":"levelo://app?vid=8f87d845-e3af-4e2d-8a8c-c31ed35cda6d"},"vehicle_type_id":"4","last_reported":1729357672,"current_range_meters":36800,"station_id":"ce4bhi12rcd13ifvqfo0","pricing_plan_id":"cebpf4jnsgd1na2vs0mg"},{"bike_id":"b5c40a57-fde0-4b3a-8522-4717ef7108e9","system_id":"levelo_inurba_marseille","lat":43.33026,"lon":5.39038,"is_reserved":false,"is_disabled":false,"rental_uris":{"android":"levelo://app?vid=b5c40a57-fde0-4b3a-8522-4717ef7108e9","ios":"levelo://app?vid=b5c40a57-fde0-4b3a-8522-4717ef7108e9"},"vehicle_type_id":"4","last_reported":1729357672,"current_range_meters":9200,"station_id":"ce4bhr92rcd13ifvqhrg","pricing_plan_id":"cebpf4jnsgd1na2vs0mg"},{"bike_id":"3b30aa0d-56cf-49ee-9f2d-906572b38809","system_id":"levelo_inurba_marseille","lat":43.25726,"lon":5.41108,"is_reserved":false,"is_disabled":false,"rental_uris":{"android":"levelo://app?vid=3b30aa0d-56cf-49ee-9f2d-906572b38809","ios":"levelo://app?vid=3b30aa0d-56cf-49ee-9f2d-906572b38809"},"vehicle_type_id":"4","last_reported":1729357672,"current_range_meters":3600,"station_id":"ce4bhkp2rcd13ifvqgd0","pricing_plan_id":"cebpf4jnsgd1na2vs0mg"},{"bike_id":"1402549c-1147-4e2e-91c8-d005e4c5021c","system_id":"levelo_inurba_marseille","lat":43.29539,"lon":5.3855,"is_reserved":false,"is_disabled":false,"rental_uris":{"android":"levelo://app?vid=1402549c-1147-4e2e-91c8-d005e4c5021c","ios":"levelo://app?vid=1402549c-1147-4e2e-91c8-d005e4c5021c"},"vehicle_type_id":"4","last_reported":1729357672,"current_range_meters":38800,"station_id":"ce4bgih2rcd13ifvqba0","pricing_plan_id":"cebpf4jnsgd1na2vs0mg"},{"bike_id":"f079f313-0ae4-41bd-9b32-84ed32c21754","system_id":"levelo_inurba_marseille","lat":43.29783,"lon":5.38121,"is_reserved":false,"is_disabled":false,"rental_uris":{"android":"levelo://app?vid=f079f313-0ae4-41bd-9b32-84ed32c21754","ios":"levelo://app?vid=f079f313-0ae4-41bd-9b32-84ed32c21754"},"vehicle_type_id":"4","last_reported":1729357672,"current_range_meters":38800,"station_id":"ce4bgip2rcd13ifvqbb0","pricing_plan_id":"cebpf4jnsgd1na2vs0mg"},{"bike_id":"adcf7823-e85c-417a-8360-83d2552e59f8","system_id":"levelo_inurba_marseille","lat":43.29569,"lon":5.39978,"is_reserved":false,"is_disabled":false,"rental_uris":{"android":"levelo://app?vid=adcf7823-e85c-417a-8360-83d2552e59f8","ios":"levelo://app?vid=adcf7823-e85c-417a-8360-83d2552e59f8"},"vehicle_type_id":"4","last_reported":1729357672,"current_range_meters":19200,"station_id":"ce4bh312rcd13ifvqdj0","pricing_plan_id":"cebpf4jnsgd1na2vs0mg"},{"bike_id":"a1fd02b7-4831-4a5d-b0f2-d8736f3bfbe3","system_id":"levelo_inurba_marseille","lat":43.29291,"lon":5.37459,"is_reserved":false,"is_disabled":false,"rental_uris":{"android":"levelo://app?vid=a1fd02b7-4831-4a5d-b0f2-d8736f3bfbe3","ios":"levelo://app?vid=a1fd02b7-4831-4a5d-b0f2-d8736f3bfbe3"},"vehicle_type_id":"4","last_reported":1729357672,"current_range_meters":28400,"station_id":"ce4bgi12rcd13ifvqb70","pricing_plan_id":"cebpf4jnsgd1na2vs0mg"},{"bike_id":"656a16f7-6f73-4a52-a862-8a478d7019c0","system_id":"levelo_inurba_marseille","lat":43.28415,"lon":5.35003,"is_reserved":false,"is_disabled":false,"rental_uris":{"android":"levelo://app?vid=656a16f7-6f73-4a52-a862-8a478d7019c0","ios":"levelo://app?vid=656a16f7-6f73-4a52-a862-8a478d7019c0"},"vehicle_type_id":"4","last_reported":1729357672,"current_range_meters":38800,"station_id":"ce4bhbh2rcd13ifvqepg","pricing_plan_id":"cebpf4jnsgd1na2vs0mg"},{"bike_id":"be1f76f2-f997-4df3-a7fe-5026b7609a58","system_id":"levelo_inurba_marseille","lat":43.30949,"lon":5.39039,"is_reserved":false,"is_disabled":false,"rental_uris":{"android":"levelo://app?vid=be1f76f2-f997-4df3-a7fe-5026b7609a58","ios":"levelo://app?vid=be1f76f2-f997-4df3-a7fe-5026b7609a58"},"vehicle_type_id":"4","last_reported":1729357672,"current_range_meters":4000,"station_id":"ce4bgup2rcd13ifvqco0","pricing_plan_id":"cebpf4jnsgd1na2vs0mg"},{"bike_id":"d4af87b5-8c1f-4338-81b3-ded6e7a363d4","system_id":"levelo_inurba_marseille","lat":43.32485,"lon":5.36563,"is_reserved":false,"is_disabled":false,"rental_uris":{"android":"levelo://app?vid=d4af87b5-8c1f-4338-81b3-ded6e7a363d4","ios":"levelo://app?vid=d4af87b5-8c1f-4338-81b3-ded6e7a363d4"},"vehicle_type_id":"4","last_reported":1729357672,"current_range_meters":32800,"station_id":"ce4bhs12rcd13ifvqhvg","pricing_plan_id":"cebpf4jnsgd1na2vs0mg"},{"bike_id":"1f84caf2-f116-4ab9-8264-fe2b1516bbba","system_id":"levelo_inurba_marseille","lat":43.32338,"lon":5.40627,"is_reserved":false,"is_disabled":false,"rental_uris":{"android":"levelo://app?vid=1f84caf2-f116-4ab9-8264-fe2b1516bbba","ios":"levelo://app?vid=1f84caf2-f116-4ab9-8264-fe2b1516bbba"},"vehicle_type_id":"4","last_reported":1729357672,"current_range_meters":4800,"station_id":"ce4bhq92rcd13ifvqhjg","pricing_plan_id":"cebpf4jnsgd1na2vs0mg"},{"bike_id":"02329322-50b5-4e5f-873a-91c73387dd62","system_id":"levelo_inurba_marseille","lat":43.30132,"lon":5.38778,"is_reserved":false,"is_disabled":false,"rental_uris":{"android":"levelo://app?vid=02329322-50b5-4e5f-873a-91c73387dd62","ios":"levelo://app?vid=02329322-50b5-4e5f-873a-91c73387dd62"},"vehicle_type_id":"4","last_reported":1729357672,"current_range_meters":36000,"station_id":"ce4bghh2rcd13ifvqb60","pricing_plan_id":"cebpf4jnsgd1na2vs0mg"},{"bike_id":"636a7083-32bd-48d9-a27a-7a6ebb70df79","system_id":"levelo_inurba_marseille","lat":43.28035,"lon":5.3694,"is_reserved":false,"is_disabled":false,"rental_uris":{"android":"levelo://app?vid=636a7083-32bd-48d9-a27a-7a6ebb70df79","ios":"levelo://app?vid=636a7083-32bd-48d9-a27a-7a6ebb70df79"},"vehicle_type_id":"4","last_reported":1729357672,"current_range_meters":6000,"station_id":"ce4bha12rcd13ifvqef0","pricing_plan_id":"cebpf4jnsgd1na2vs0mg"},{"bike_id":"c9119563-5a43-4cfa-8596-4f328fa40aa4","system_id":"levelo_inurba_marseille","lat":43.2319,"lon":5.35564,"is_reserved":false,"is_disabled":false,"rental_uris":{"android":"levelo://app?vid=c9119563-5a43-4cfa-8596-4f328fa40aa4","ios":"levelo://app?vid=c9119563-5a43-4cfa-8596-4f328fa40aa4"},"vehicle_type_id":"4","last_reported":1729357672,"current_range_meters":10000,"station_id":"ce4bhu92rcd13ifvqi70","pricing_plan_id":"cebpf4jnsgd1na2vs0mg"},{"bike_id":"bfdb596e-d219-402a-acce-2f63b4000804","system_id":"levelo_inurba_marseille","lat":43.24995,"lon":5.38923,"is_reserved":false,"is_disabled":false,"rental_uris":{"android":"levelo://app?vid=bfdb596e-d219-402a-acce-2f63b4000804","ios":"levelo://app?vid=bfdb596e-d219-402a-acce-2f63b4000804"},"vehicle_type_id":"4","last_reported":1729357672,"current_range_meters":11200,"station_id":"ce4bhgp2rcd13ifvqfd0","pricing_plan_id":"cebpf4jnsgd1na2vs0mg"},{"bike_id":"8c81664c-9e25-4ba2-85cf-0435a52055c6","system_id":"levelo_inurba_marseille","lat":43.3108,"lon":5.38351,"is_reserved":false,"is_disabled":false,"rental_uris":{"android":"levelo://app?vid=8c81664c-9e25-4ba2-85cf-0435a52055c6","ios":"levelo://app?vid=8c81664c-9e25-4ba2-85cf-0435a52055c6"},"vehicle_type_id":"4","last_reported":1729357672,"current_range_meters":7200,"station_id":"ce4bgv92rcd13ifvqcr0","pricing_plan_id":"cebpf4jnsgd1na2vs0mg"},{"bike_id":"0a3ec3ef-81d8-42b5-83a1-615dc34b7798","system_id":"levelo_inurba_marseille","lat":43.28681,"lon":5.36109,"is_reserved":false,"is_disabled":false,"rental_uris":{"android":"levelo://app?vid=0a3ec3ef-81d8-42b5-83a1-615dc34b7798","ios":"levelo://app?vid=0a3ec3ef-81d8-42b5-83a1-615dc34b7798"},"vehicle_type_id":"4","last_reported":1729357672,"current_range_meters":26000,"station_id":"cki0cbj6b192h4jlfktg","pricing_plan_id":"cebpf4jnsgd1na2vs0mg"},{"bike_id":"e4a5e830-af0a-48de-940a-e3fff4c09c7e","system_id":"levelo_inurba_marseille","lat":43.28401,"lon":5.37526,"is_reserved":false,"is_disabled":false,"rental_uris":{"android":"levelo://app?vid=e4a5e830-af0a-48de-940a-e3fff4c09c7e","ios":"levelo://app?vid=e4a5e830-af0a-48de-940a-e3fff4c09c7e"},"vehicle_type_id":"4","last_reported":1729357672,"current_range_meters":10000,"station_id":"ce4bh412rcd13ifvqds0","pricing_plan_id":"cebpf4jnsgd1na2vs0mg"},{"bike_id":"d247ee7e-36c9-492e-938e-cb0777b92fbc","system_id":"levelo_inurba_marseille","lat":43.25726,"lon":5.41113,"is_reserved":false,"is_disabled":false,"rental_uris":{"android":"levelo://app?vid=d247ee7e-36c9-492e-938e-cb0777b92fbc","ios":"levelo://app?vid=d247ee7e-36c9-492e-938e-cb0777b92fbc"},"vehicle_type_id":"4","last_reported":1729357672,"current_range_meters":6800,"station_id":"ce4bhkp2rcd13ifvqgd0","pricing_plan_id":"cebpf4jnsgd1na2vs0mg"},{"bike_id":"b4470363-8e23-4f02-a75e-beb39a6eaf32","system_id":"levelo_inurba_marseille","lat":43.23962,"lon":5.36642,"is_reserved":false,"is_disabled":false,"rental_uris":{"android":"levelo://app?vid=b4470363-8e23-4f02-a75e-beb39a6eaf32","ios":"levelo://app?vid=b4470363-8e23-4f02-a75e-beb39a6eaf32"},"vehicle_type_id":"4","last_reported":1729357672,"current_range_meters":3600,"station_id":"ce4bhi12rcd13ifvqfp0","pricing_plan_id":"cebpf4jnsgd1na2vs0mg"},{"bike_id":"89455a80-299d-4a76-8e2f-546ba52f8b85","system_id":"levelo_inurba_marseille","lat":43.24068,"lon":5.37769,"is_reserved":false,"is_disabled":false,"rental_uris":{"android":"levelo://app?vid=89455a80-299d-4a76-8e2f-546ba52f8b85","ios":"levelo://app?vid=89455a80-299d-4a76-8e2f-546ba52f8b85"},"vehicle_type_id":"4","last_reported":1729357672,"current_range_meters":16400,"station_id":"ce4bhnp2rcd13ifvqgvg","pricing_plan_id":"cebpf4jnsgd1na2vs0mg"},{"bike_id":"67053bf7-31fa-49ee-806a-ac429a516d9e","system_id":"levelo_inurba_marseille","lat":43.30935,"lon":5.40137,"is_reserved":false,"is_disabled":false,"rental_uris":{"android":"levelo://app?vid=67053bf7-31fa-49ee-806a-ac429a516d9e","ios":"levelo://app?vid=67053bf7-31fa-49ee-806a-ac429a516d9e"},"vehicle_type_id":"4","last_reported":1729357672,"current_range_meters":3600,"station_id":"ce4bgvp2rcd13ifvqct0","pricing_plan_id":"cebpf4jnsgd1na2vs0mg"},{"bike_id":"ad25790d-754f-4604-aa3e-5d66d52e09b0","system_id":"levelo_inurba_marseille","lat":43.27388,"lon":5.36227,"is_reserved":false,"is_disabled":false,"rental_uris":{"android":"levelo://app?vid=ad25790d-754f-4604-aa3e-5d66d52e09b0","ios":"levelo://app?vid=ad25790d-754f-4604-aa3e-5d66d52e09b0"},"vehicle_type_id":"4","last_reported":1729357672,"current_range_meters":6400,"station_id":"ce4bhbh2rcd13ifvqeo0","pricing_plan_id":"cebpf4jnsgd1na2vs0mg"},{"bike_id":"b5203571-0a36-457a-b8db-c37b159c713c","system_id":"levelo_inurba_marseille","lat":43.257507,"lon":5.376599,"is_reserved":false,"is_disabled":false,"rental_uris":{"android":"levelo://app?vid=b5203571-0a36-457a-b8db-c37b159c713c","ios":"levelo://app?vid=b5203571-0a36-457a-b8db-c37b159c713c"},"vehicle_type_id":"4","last_reported":1729357672,"current_range_meters":14400,"station_id":"ce4bhh12rcd13ifvqff0","pricing_plan_id":"cebpf4jnsgd1na2vs0mg"},{"bike_id":"023fd4ad-0b97-4192-b5e1-73d82911bd9a","system_id":"levelo_inurba_marseille","lat":43.25091,"lon":5.395252,"is_reserved":false,"is_disabled":false,"rental_uris":{"android":"levelo://app?vid=023fd4ad-0b97-4192-b5e1-73d82911bd9a","ios":"levelo://app?vid=023fd4ad-0b97-4192-b5e1-73d82911bd9a"},"vehicle_type_id":"4","last_reported":1729357672,"current_range_meters":30800,"station_id":"ce4bhm12rcd13ifvqgkg","pricing_plan_id":"cebpf4jnsgd1na2vs0mg"},{"bike_id":"964a684b-e7cb-482c-893d-dab03d02f20d","system_id":"levelo_inurba_marseille","lat":43.23963,"lon":5.36641,"is_reserved":false,"is_disabled":false,"rental_uris":{"android":"levelo://app?vid=964a684b-e7cb-482c-893d-dab03d02f20d","ios":"levelo://app?vid=964a684b-e7cb-482c-893d-dab03d02f20d"},"vehicle_type_id":"4","last_reported":1729357672,"current_range_meters":16000,"station_id":"ce4bhi12rcd13ifvqfp0","pricing_plan_id":"cebpf4jnsgd1na2vs0mg"},{"bike_id":"daa80b86-2dba-48be-9222-436d0a671abe","system_id":"levelo_inurba_marseille","lat":43.24665,"lon":5.38167,"is_reserved":false,"is_disabled":false,"rental_uris":{"android":"levelo://app?vid=daa80b86-2dba-48be-9222-436d0a671abe","ios":"levelo://app?vid=daa80b86-2dba-48be-9222-436d0a671abe"},"vehicle_type_id":"4","last_reported":1729357672,"current_range_meters":22000,"station_id":"ce4bhih2rcd13ifvqfr0","pricing_plan_id":"cebpf4jnsgd1na2vs0mg"},{"bike_id":"0cf35f7d-435d-4188-9a25-6fceb3f960ed","system_id":"levelo_inurba_marseille","lat":43.29031,"lon":5.37562,"is_reserved":false,"is_disabled":false,"rental_uris":{"android":"levelo://app?vid=0cf35f7d-435d-4188-9a25-6fceb3f960ed","ios":"levelo://app?vid=0cf35f7d-435d-4188-9a25-6fceb3f960ed"},"vehicle_type_id":"4","last_reported":1729357672,"current_range_meters":2000,"station_id":"ce4bh692rcd13ifvqe90","pricing_plan_id":"cebpf4jnsgd1na2vs0mg"},{"bike_id":"65ec3ff3-f82f-4297-a565-0502df2d633b","system_id":"levelo_inurba_marseille","lat":43.31344,"lon":5.36738,"is_reserved":false,"is_disabled":false,"rental_uris":{"android":"levelo://app?vid=65ec3ff3-f82f-4297-a565-0502df2d633b","ios":"levelo://app?vid=65ec3ff3-f82f-4297-a565-0502df2d633b"},"vehicle_type_id":"4","last_reported":1729357672,"current_range_meters":14000,"station_id":"ce4bgr92rcd13ifvqc6g","pricing_plan_id":"cebpf4jnsgd1na2vs0mg"},{"bike_id":"92989e3e-37c8-4b6d-970e-22e72e334b87","system_id":"levelo_inurba_marseille","lat":43.24068,"lon":5.37765,"is_reserved":false,"is_disabled":false,"rental_uris":{"android":"levelo://app?vid=92989e3e-37c8-4b6d-970e-22e72e334b87","ios":"levelo://app?vid=92989e3e-37c8-4b6d-970e-22e72e334b87"},"vehicle_type_id":"4","last_reported":1729357672,"current_range_meters":10800,"station_id":"ce4bhnp2rcd13ifvqgvg","pricing_plan_id":"cebpf4jnsgd1na2vs0mg"},{"bike_id":"71dc2683-e4f2-4174-9625-fd132a1a2a54","system_id":"levelo_inurba_marseille","lat":43.30628,"lon":5.401,"is_reserved":false,"is_disabled":false,"rental_uris":{"android":"levelo://app?vid=71dc2683-e4f2-4174-9625-fd132a1a2a54","ios":"levelo://app?vid=71dc2683-e4f2-4174-9625-fd132a1a2a54"},"vehicle_type_id":"4","last_reported":1729357672,"current_range_meters":6800,"station_id":"ce4bh112rcd13ifvqda0","pricing_plan_id":"cebpf4jnsgd1na2vs0mg"},{"bike_id":"c61834e5-ab0c-4e12-b32f-eb9d3c1af5fe","system_id":"levelo_inurba_marseille","lat":43.23967,"lon":5.36628,"is_reserved":false,"is_disabled":false,"rental_uris":{"android":"levelo://app?vid=c61834e5-ab0c-4e12-b32f-eb9d3c1af5fe","ios":"levelo://app?vid=c61834e5-ab0c-4e12-b32f-eb9d3c1af5fe"},"vehicle_type_id":"4","last_reported":1729357672,"current_range_meters":20400,"station_id":"ce4bhi12rcd13ifvqfp0","pricing_plan_id":"cebpf4jnsgd1na2vs0mg"},{"bike_id":"a724ff8f-d2c9-42ac-92ab-12da28853c9b","system_id":"levelo_inurba_marseille","lat":43.29362,"lon":5.37845,"is_reserved":false,"is_disabled":false,"rental_uris":{"android":"levelo://app?vid=a724ff8f-d2c9-42ac-92ab-12da28853c9b","ios":"levelo://app?vid=a724ff8f-d2c9-42ac-92ab-12da28853c9b"},"vehicle_type_id":"4","last_reported":1729357672,"current_range_meters":38000,"station_id":"ce4bgjh2rcd13ifvqbf0","pricing_plan_id":"cebpf4jnsgd1na2vs0mg"},{"bike_id":"7cde8083-4c17-4f76-b243-a6d14e889770","system_id":"levelo_inurba_marseille","lat":43.28568,"lon":5.39507,"is_reserved":false,"is_disabled":false,"rental_uris":{"android":"levelo://app?vid=7cde8083-4c17-4f76-b243-a6d14e889770","ios":"levelo://app?vid=7cde8083-4c17-4f76-b243-a6d14e889770"},"vehicle_type_id":"4","last_reported":1729357672,"current_range_meters":8800,"station_id":"ce4bh292rcd13ifvqdg0","pricing_plan_id":"cebpf4jnsgd1na2vs0mg"},{"bike_id":"329136aa-07f5-4f25-9455-64cdd338572b","system_id":"levelo_inurba_marseille","lat":43.28154,"lon":5.42644,"is_reserved":false,"is_disabled":false,"rental_uris":{"android":"levelo://app?vid=329136aa-07f5-4f25-9455-64cdd338572b","ios":"levelo://app?vid=329136aa-07f5-4f25-9455-64cdd338572b"},"vehicle_type_id":"4","last_reported":1729357672,"current_range_meters":38400,"station_id":"ce4bhnh2rcd13ifvqgug","pricing_plan_id":"cebpf4jnsgd1na2vs0mg"},{"bike_id":"1d44fa3b-fcb7-4a53-9b12-e9368f162cc9","system_id":"levelo_inurba_marseille","lat":43.31347,"lon":5.36725,"is_reserved":false,"is_disabled":false,"rental_uris":{"android":"levelo://app?vid=1d44fa3b-fcb7-4a53-9b12-e9368f162cc9","ios":"levelo://app?vid=1d44fa3b-fcb7-4a53-9b12-e9368f162cc9"},"vehicle_type_id":"4","last_reported":1729357672,"current_range_meters":8000,"station_id":"ce4bgr92rcd13ifvqc6g","pricing_plan_id":"cebpf4jnsgd1na2vs0mg"},{"bike_id":"0f78c225-d797-485f-8772-ebf539f86bd2","system_id":"levelo_inurba_marseille","lat":43.24809,"lon":5.37458,"is_reserved":false,"is_disabled":false,"rental_uris":{"android":"levelo://app?vid=0f78c225-d797-485f-8772-ebf539f86bd2","ios":"levelo://app?vid=0f78c225-d797-485f-8772-ebf539f86bd2"},"vehicle_type_id":"4","last_reported":1729357672,"current_range_meters":2800,"station_id":"ce4bhgh2rcd13ifvqfb0","pricing_plan_id":"cebpf4jnsgd1na2vs0mg"},{"bike_id":"74fdfb54-1930-4756-a0b8-9d0566e42c09","system_id":"levelo_inurba_marseille","lat":43.32107,"lon":5.36772,"is_reserved":false,"is_disabled":false,"rental_uris":{"android":"levelo://app?vid=74fdfb54-1930-4756-a0b8-9d0566e42c09","ios":"levelo://app?vid=74fdfb54-1930-4756-a0b8-9d0566e42c09"},"vehicle_type_id":"4","last_reported":1729357672,"current_range_meters":30000,"station_id":"ce4bhrh2rcd13ifvqhug","pricing_plan_id":"cebpf4jnsgd1na2vs0mg"},{"bike_id":"d9e34dc4-68de-490c-ac56-0899d4820568","system_id":"levelo_inurba_marseille","lat":43.28661,"lon":5.36366,"is_reserved":false,"is_disabled":false,"rental_uris":{"android":"levelo://app?vid=d9e34dc4-68de-490c-ac56-0899d4820568","ios":"levelo://app?vid=d9e34dc4-68de-490c-ac56-0899d4820568"},"vehicle_type_id":"4","last_reported":1729357672,"current_range_meters":8400,"station_id":"ce4bhah2rcd13ifvqej0","pricing_plan_id":"cebpf4jnsgd1na2vs0mg"},{"bike_id":"2e0f290d-7f26-490e-a919-0b1092bb3062","system_id":"levelo_inurba_marseille","lat":43.28657,"lon":5.37076,"is_reserved":false,"is_disabled":false,"rental_uris":{"android":"levelo://app?vid=2e0f290d-7f26-490e-a919-0b1092bb3062","ios":"levelo://app?vid=2e0f290d-7f26-490e-a919-0b1092bb3062"},"vehicle_type_id":"4","last_reported":1729357672,"current_range_meters":6400,"station_id":"","pricing_plan_id":"cebpf4jnsgd1na2vs0mg"},{"bike_id":"b0a94a22-d5f7-4549-b1fe-18d08d34f60e","system_id":"levelo_inurba_marseille","lat":43.24991,"lon":5.38935,"is_reserved":false,"is_disabled":false,"rental_uris":{"android":"levelo://app?vid=b0a94a22-d5f7-4549-b1fe-18d08d34f60e","ios":"levelo://app?vid=b0a94a22-d5f7-4549-b1fe-18d08d34f60e"},"vehicle_type_id":"4","last_reported":1729357672,"current_range_meters":12000,"station_id":"ce4bhgp2rcd13ifvqfd0","pricing_plan_id":"cebpf4jnsgd1na2vs0mg"},{"bike_id":"373022c6-0c5e-4ab5-a096-0f5e1d5769b4","system_id":"levelo_inurba_marseille","lat":43.25202,"lon":5.37345,"is_reserved":false,"is_disabled":false,"rental_uris":{"android":"levelo://app?vid=373022c6-0c5e-4ab5-a096-0f5e1d5769b4","ios":"levelo://app?vid=373022c6-0c5e-4ab5-a096-0f5e1d5769b4"},"vehicle_type_id":"4","last_reported":1729357672,"current_range_meters":8000,"station_id":"","pricing_plan_id":"cebpf4jnsgd1na2vs0mg"},{"bike_id":"3d55eae1-505f-4ddd-bf5a-e430a505e9f9","system_id":"levelo_inurba_marseille","lat":43.3135,"lon":5.36725,"is_reserved":false,"is_disabled":false,"rental_uris":{"android":"levelo://app?vid=3d55eae1-505f-4ddd-bf5a-e430a505e9f9","ios":"levelo://app?vid=3d55eae1-505f-4ddd-bf5a-e430a505e9f9"},"vehicle_type_id":"4","last_reported":1729357672,"current_range_meters":38800,"station_id":"ce4bgr92rcd13ifvqc6g","pricing_plan_id":"cebpf4jnsgd1na2vs0mg"},{"bike_id":"996b68ea-a3b8-48c9-9cf2-f66df1d63882","system_id":"levelo_inurba_marseille","lat":43.23193,"lon":5.35548,"is_reserved":false,"is_disabled":false,"rental_uris":{"android":"levelo://app?vid=996b68ea-a3b8-48c9-9cf2-f66df1d63882","ios":"levelo://app?vid=996b68ea-a3b8-48c9-9cf2-f66df1d63882"},"vehicle_type_id":"4","last_reported":1729357672,"current_range_meters":17200,"station_id":"ce4bhu92rcd13ifvqi70","pricing_plan_id":"cebpf4jnsgd1na2vs0mg"},{"bike_id":"b410a588-8c01-4abc-9107-e4106e6264ab","system_id":"levelo_inurba_marseille","lat":43.23965,"lon":5.36636,"is_reserved":false,"is_disabled":false,"rental_uris":{"android":"levelo://app?vid=b410a588-8c01-4abc-9107-e4106e6264ab","ios":"levelo://app?vid=b410a588-8c01-4abc-9107-e4106e6264ab"},"vehicle_type_id":"4","last_reported":1729357672,"current_range_meters":12800,"station_id":"ce4bhi12rcd13ifvqfp0","pricing_plan_id":"cebpf4jnsgd1na2vs0mg"},{"bike_id":"6b36cca6-56a8-4ac6-8536-70f9b023b47c","system_id":"levelo_inurba_marseille","lat":43.26953,"lon":5.38633,"is_reserved":false,"is_disabled":false,"rental_uris":{"android":"levelo://app?vid=6b36cca6-56a8-4ac6-8536-70f9b023b47c","ios":"levelo://app?vid=6b36cca6-56a8-4ac6-8536-70f9b023b47c"},"vehicle_type_id":"4","last_reported":1729357672,"current_range_meters":6400,"station_id":"ce4bhh92rcd13ifvqfh0","pricing_plan_id":"cebpf4jnsgd1na2vs0mg"},{"bike_id":"0d3b1584-5da2-47d8-bef4-99a4e5073fe4","system_id":"levelo_inurba_marseille","lat":43.29779,"lon":5.37105,"is_reserved":false,"is_disabled":false,"rental_uris":{"android":"levelo://app?vid=0d3b1584-5da2-47d8-bef4-99a4e5073fe4","ios":"levelo://app?vid=0d3b1584-5da2-47d8-bef4-99a4e5073fe4"},"vehicle_type_id":"4","last_reported":1729357672,"current_range_meters":4800,"station_id":"ce4bgop2rcd13ifvqc1g","pricing_plan_id":"cebpf4jnsgd1na2vs0mg"},{"bike_id":"20d92efe-6b0a-437c-abb3-2d2af471ec6a","system_id":"levelo_inurba_marseille","lat":43.29418,"lon":5.38623,"is_reserved":false,"is_disabled":false,"rental_uris":{"android":"levelo://app?vid=20d92efe-6b0a-437c-abb3-2d2af471ec6a","ios":"levelo://app?vid=20d92efe-6b0a-437c-abb3-2d2af471ec6a"},"vehicle_type_id":"4","last_reported":1729357672,"current_range_meters":10000,"station_id":"ce4bh2h2rcd13ifvqdh0","pricing_plan_id":"cebpf4jnsgd1na2vs0mg"},{"bike_id":"b915f077-0d1a-43fc-86d7-d54c787b59a2","system_id":"levelo_inurba_marseille","lat":43.24291,"lon":5.43837,"is_reserved":false,"is_disabled":false,"rental_uris":{"android":"levelo://app?vid=b915f077-0d1a-43fc-86d7-d54c787b59a2","ios":"levelo://app?vid=b915f077-0d1a-43fc-86d7-d54c787b59a2"},"vehicle_type_id":"4","last_reported":1729357672,"current_range_meters":21600,"station_id":"","pricing_plan_id":"cebpf4jnsgd1na2vs0mg"},{"bike_id":"474d5c64-4154-4ae7-b02e-9a105d79c6fa","system_id":"levelo_inurba_marseille","lat":43.23963,"lon":5.36632,"is_reserved":false,"is_disabled":false,"rental_uris":{"android":"levelo://app?vid=474d5c64-4154-4ae7-b02e-9a105d79c6fa","ios":"levelo://app?vid=474d5c64-4154-4ae7-b02e-9a105d79c6fa"},"vehicle_type_id":"4","last_reported":1729357672,"current_range_meters":16800,"station_id":"ce4bhi12rcd13ifvqfp0","pricing_plan_id":"cebpf4jnsgd1na2vs0mg"},{"bike_id":"bdff17b7-9cf2-4850-85ea-077ebdd841ac","system_id":"levelo_inurba_marseille","lat":43.25109,"lon":5.40325,"is_reserved":false,"is_disabled":false,"rental_uris":{"android":"levelo://app?vid=bdff17b7-9cf2-4850-85ea-077ebdd841ac","ios":"levelo://app?vid=bdff17b7-9cf2-4850-85ea-077ebdd841ac"},"vehicle_type_id":"4","last_reported":1729357672,"current_range_meters":15200,"station_id":"ce4bhlh2rcd13ifvqgig","pricing_plan_id":"cebpf4jnsgd1na2vs0mg"},{"bike_id":"cf8bfc6c-eae3-443f-b86f-69e936da0d62","system_id":"levelo_inurba_marseille","lat":43.3171,"lon":5.43706,"is_reserved":false,"is_disabled":false,"rental_uris":{"android":"levelo://app?vid=cf8bfc6c-eae3-443f-b86f-69e936da0d62","ios":"levelo://app?vid=cf8bfc6c-eae3-443f-b86f-69e936da0d62"},"vehicle_type_id":"4","last_reported":1729357672,"current_range_meters":34000,"station_id":"ce4bhp92rcd13ifvqhcg","pricing_plan_id":"cebpf4jnsgd1na2vs0mg"},{"bike_id":"640c5a9a-fa7a-4cb2-95d1-5526413d3030","system_id":"levelo_inurba_marseille","lat":43.31897,"lon":5.40744,"is_reserved":false,"is_disabled":false,"rental_uris":{"android":"levelo://app?vid=640c5a9a-fa7a-4cb2-95d1-5526413d3030","ios":"levelo://app?vid=640c5a9a-fa7a-4cb2-95d1-5526413d3030"},"vehicle_type_id":"4","last_reported":1729357672,"current_range_meters":29600,"station_id":"ce4bhq12rcd13ifvqhig","pricing_plan_id":"cebpf4jnsgd1na2vs0mg"},{"bike_id":"605916a0-d9f5-4daf-9740-74753e03acb2","system_id":"levelo_inurba_marseille","lat":43.29421,"lon":5.38622,"is_reserved":false,"is_disabled":false,"rental_uris":{"android":"levelo://app?vid=605916a0-d9f5-4daf-9740-74753e03acb2","ios":"levelo://app?vid=605916a0-d9f5-4daf-9740-74753e03acb2"},"vehicle_type_id":"4","last_reported":1729357672,"current_range_meters":2000,"station_id":"ce4bh2h2rcd13ifvqdh0","pricing_plan_id":"cebpf4jnsgd1na2vs0mg"},{"bike_id":"8ea73b15-b690-4b48-aa56-638f0a372160","system_id":"levelo_inurba_marseille","lat":43.26029,"lon":5.37552,"is_reserved":false,"is_disabled":false,"rental_uris":{"android":"levelo://app?vid=8ea73b15-b690-4b48-aa56-638f0a372160","ios":"levelo://app?vid=8ea73b15-b690-4b48-aa56-638f0a372160"},"vehicle_type_id":"4","last_reported":1729357672,"current_range_meters":9200,"station_id":"ce4bhgh2rcd13ifvqfa0","pricing_plan_id":"cebpf4jnsgd1na2vs0mg"},{"bike_id":"93595e57-a154-4583-9e7f-62f81dac7f47","system_id":"levelo_inurba_marseille","lat":43.24976,"lon":5.40069,"is_reserved":false,"is_disabled":false,"rental_uris":{"android":"levelo://app?vid=93595e57-a154-4583-9e7f-62f81dac7f47","ios":"levelo://app?vid=93595e57-a154-4583-9e7f-62f81dac7f47"},"vehicle_type_id":"4","last_reported":1729357672,"current_range_meters":22800,"station_id":"","pricing_plan_id":"cebpf4jnsgd1na2vs0mg"},{"bike_id":"3e9c5cbb-ad70-4e32-8d84-9f77e3e64c1b","system_id":"levelo_inurba_marseille","lat":43.28159,"lon":5.42649,"is_reserved":false,"is_disabled":false,"rental_uris":{"android":"levelo://app?vid=3e9c5cbb-ad70-4e32-8d84-9f77e3e64c1b","ios":"levelo://app?vid=3e9c5cbb-ad70-4e32-8d84-9f77e3e64c1b"},"vehicle_type_id":"4","last_reported":1729357672,"current_range_meters":10800,"station_id":"ce4bhnh2rcd13ifvqgug","pricing_plan_id":"cebpf4jnsgd1na2vs0mg"},{"bike_id":"696e57f9-f6df-434b-bfcd-08d137894bb7","system_id":"levelo_inurba_marseille","lat":43.23182,"lon":5.39989,"is_reserved":false,"is_disabled":false,"rental_uris":{"android":"levelo://app?vid=696e57f9-f6df-434b-bfcd-08d137894bb7","ios":"levelo://app?vid=696e57f9-f6df-434b-bfcd-08d137894bb7"},"vehicle_type_id":"4","last_reported":1729357672,"current_range_meters":6800,"station_id":"ce4bhn12rcd13ifvqgqg","pricing_plan_id":"cebpf4jnsgd1na2vs0mg"},{"bike_id":"6f1f5af7-c036-4599-acdd-0d68f3771ee1","system_id":"levelo_inurba_marseille","lat":43.29525,"lon":5.38539,"is_reserved":false,"is_disabled":false,"rental_uris":{"android":"levelo://app?vid=6f1f5af7-c036-4599-acdd-0d68f3771ee1","ios":"levelo://app?vid=6f1f5af7-c036-4599-acdd-0d68f3771ee1"},"vehicle_type_id":"4","last_reported":1729357672,"current_range_meters":20000,"station_id":"ce4bgih2rcd13ifvqba0","pricing_plan_id":"cebpf4jnsgd1na2vs0mg"},{"bike_id":"df3da6b2-8575-4720-905e-f439867764ac","system_id":"levelo_inurba_marseille","lat":43.27808,"lon":5.40713,"is_reserved":false,"is_disabled":false,"rental_uris":{"android":"levelo://app?vid=df3da6b2-8575-4720-905e-f439867764ac","ios":"levelo://app?vid=df3da6b2-8575-4720-905e-f439867764ac"},"vehicle_type_id":"4","last_reported":1729357672,"current_range_meters":32800,"station_id":"ce4bhnh2rcd13ifvqgtg","pricing_plan_id":"cebpf4jnsgd1na2vs0mg"},{"bike_id":"675e6776-3ab7-4753-8afc-bda921449617","system_id":"levelo_inurba_marseille","lat":43.31483,"lon":5.37313,"is_reserved":false,"is_disabled":false,"rental_uris":{"android":"levelo://app?vid=675e6776-3ab7-4753-8afc-bda921449617","ios":"levelo://app?vid=675e6776-3ab7-4753-8afc-bda921449617"},"vehicle_type_id":"4","last_reported":1729357672,"current_range_meters":8800,"station_id":"ce4bgt12rcd13ifvqcd0","pricing_plan_id":"cebpf4jnsgd1na2vs0mg"},{"bike_id":"60e1dbec-cd76-4199-b682-57d8c9691bcf","system_id":"levelo_inurba_marseille","lat":43.24997,"lon":5.38939,"is_reserved":false,"is_disabled":false,"rental_uris":{"android":"levelo://app?vid=60e1dbec-cd76-4199-b682-57d8c9691bcf","ios":"levelo://app?vid=60e1dbec-cd76-4199-b682-57d8c9691bcf"},"vehicle_type_id":"4","last_reported":1729357672,"current_range_meters":3600,"station_id":"ce4bhgp2rcd13ifvqfd0","pricing_plan_id":"cebpf4jnsgd1na2vs0mg"},{"bike_id":"deac4754-e99a-439f-8188-0db65f20691e","system_id":"levelo_inurba_marseille","lat":43.2319,"lon":5.35565,"is_reserved":false,"is_disabled":false,"rental_uris":{"android":"levelo://app?vid=deac4754-e99a-439f-8188-0db65f20691e","ios":"levelo://app?vid=deac4754-e99a-439f-8188-0db65f20691e"},"vehicle_type_id":"4","last_reported":1729357672,"current_range_meters":33600,"station_id":"ce4bhu92rcd13ifvqi70","pricing_plan_id":"cebpf4jnsgd1na2vs0mg"},{"bike_id":"48148bb6-1bba-4feb-8313-2d638f94113e","system_id":"levelo_inurba_marseille","lat":43.31226,"lon":5.36858,"is_reserved":false,"is_disabled":false,"rental_uris":{"android":"levelo://app?vid=48148bb6-1bba-4feb-8313-2d638f94113e","ios":"levelo://app?vid=48148bb6-1bba-4feb-8313-2d638f94113e"},"vehicle_type_id":"4","last_reported":1729357672,"current_range_meters":4000,"station_id":"ce4bgl92rcd13ifvqbq0","pricing_plan_id":"cebpf4jnsgd1na2vs0mg"},{"bike_id":"13450dae-1dcc-4de0-9aeb-640b0ab3e69d","system_id":"levelo_inurba_marseille","lat":43.24068,"lon":5.37768,"is_reserved":false,"is_disabled":false,"rental_uris":{"android":"levelo://app?vid=13450dae-1dcc-4de0-9aeb-640b0ab3e69d","ios":"levelo://app?vid=13450dae-1dcc-4de0-9aeb-640b0ab3e69d"},"vehicle_type_id":"4","last_reported":1729357672,"current_range_meters":9200,"station_id":"ce4bhnp2rcd13ifvqgvg","pricing_plan_id":"cebpf4jnsgd1na2vs0mg"},{"bike_id":"00f518e8-e848-4bd8-ba98-67d53eeeb673","system_id":"levelo_inurba_marseille","lat":43.23963,"lon":5.36632,"is_reserved":false,"is_disabled":false,"rental_uris":{"android":"levelo://app?vid=00f518e8-e848-4bd8-ba98-67d53eeeb673","ios":"levelo://app?vid=00f518e8-e848-4bd8-ba98-67d53eeeb673"},"vehicle_type_id":"4","last_reported":1729357672,"current_range_meters":16000,"station_id":"ce4bhi12rcd13ifvqfp0","pricing_plan_id":"cebpf4jnsgd1na2vs0mg"},{"bike_id":"303d2a57-7738-4d72-b1b6-97299959bdb2","system_id":"levelo_inurba_marseille","lat":43.27812,"lon":5.40709,"is_reserved":false,"is_disabled":false,"rental_uris":{"android":"levelo://app?vid=303d2a57-7738-4d72-b1b6-97299959bdb2","ios":"levelo://app?vid=303d2a57-7738-4d72-b1b6-97299959bdb2"},"vehicle_type_id":"4","last_reported":1729357672,"current_range_meters":27600,"station_id":"ce4bhnh2rcd13ifvqgtg","pricing_plan_id":"cebpf4jnsgd1na2vs0mg"},{"bike_id":"457cf944-4310-4c8b-8f1c-42c9eadfa4c2","system_id":"levelo_inurba_marseille","lat":43.28459,"lon":5.35879,"is_reserved":false,"is_disabled":false,"rental_uris":{"android":"levelo://app?vid=457cf944-4310-4c8b-8f1c-42c9eadfa4c2","ios":"levelo://app?vid=457cf944-4310-4c8b-8f1c-42c9eadfa4c2"},"vehicle_type_id":"4","last_reported":1729357672,"current_range_meters":11600,"station_id":"ce4bhah2rcd13ifvqei0","pricing_plan_id":"cebpf4jnsgd1na2vs0mg"},{"bike_id":"8e475fa0-584f-4f87-8f91-178308fe410a","system_id":"levelo_inurba_marseille","lat":43.27621,"lon":5.36107,"is_reserved":false,"is_disabled":false,"rental_uris":{"android":"levelo://app?vid=8e475fa0-584f-4f87-8f91-178308fe410a","ios":"levelo://app?vid=8e475fa0-584f-4f87-8f91-178308fe410a"},"vehicle_type_id":"4","last_reported":1729357672,"current_range_meters":4000,"station_id":"ce4bgj92rcd13ifvqbe0","pricing_plan_id":"cebpf4jnsgd1na2vs0mg"},{"bike_id":"f33bdb76-6b91-4925-8f4e-aefb017dfa02","system_id":"levelo_inurba_marseille","lat":43.29598,"lon":5.38099,"is_reserved":false,"is_disabled":false,"rental_uris":{"android":"levelo://app?vid=f33bdb76-6b91-4925-8f4e-aefb017dfa02","ios":"levelo://app?vid=f33bdb76-6b91-4925-8f4e-aefb017dfa02"},"vehicle_type_id":"4","last_reported":1729357672,"current_range_meters":37600,"station_id":"ce4bgl12rcd13ifvqbo0","pricing_plan_id":"cebpf4jnsgd1na2vs0mg"},{"bike_id":"5cd4d85f-baeb-4b92-855b-9105512ec32a","system_id":"levelo_inurba_marseille","lat":43.24998,"lon":5.38931,"is_reserved":false,"is_disabled":false,"rental_uris":{"android":"levelo://app?vid=5cd4d85f-baeb-4b92-855b-9105512ec32a","ios":"levelo://app?vid=5cd4d85f-baeb-4b92-855b-9105512ec32a"},"vehicle_type_id":"4","last_reported":1729357672,"current_range_meters":14800,"station_id":"ce4bhgp2rcd13ifvqfd0","pricing_plan_id":"cebpf4jnsgd1na2vs0mg"},{"bike_id":"552d5451-06b9-4767-8f52-c000426269ef","system_id":"levelo_inurba_marseille","lat":43.286407,"lon":5.361594,"is_reserved":false,"is_disabled":false,"rental_uris":{"android":"levelo://app?vid=552d5451-06b9-4767-8f52-c000426269ef","ios":"levelo://app?vid=552d5451-06b9-4767-8f52-c000426269ef"},"vehicle_type_id":"4","last_reported":1729357672,"current_range_meters":24400,"station_id":"ce4bhah2rcd13ifvqei0","pricing_plan_id":"cebpf4jnsgd1na2vs0mg"},{"bike_id":"4d066589-d7f7-444d-87bf-eb705d2285d0","system_id":"levelo_inurba_marseille","lat":43.2319,"lon":5.35557,"is_reserved":false,"is_disabled":false,"rental_uris":{"android":"levelo://app?vid=4d066589-d7f7-444d-87bf-eb705d2285d0","ios":"levelo://app?vid=4d066589-d7f7-444d-87bf-eb705d2285d0"},"vehicle_type_id":"4","last_reported":1729357672,"current_range_meters":25600,"station_id":"ce4bhu92rcd13ifvqi70","pricing_plan_id":"cebpf4jnsgd1na2vs0mg"},{"bike_id":"30dae484-02fe-4db0-b6cf-a276d7dbc523","system_id":"levelo_inurba_marseille","lat":43.3022,"lon":5.39466,"is_reserved":false,"is_disabled":false,"rental_uris":{"android":"levelo://app?vid=30dae484-02fe-4db0-b6cf-a276d7dbc523","ios":"levelo://app?vid=30dae484-02fe-4db0-b6cf-a276d7dbc523"},"vehicle_type_id":"4","last_reported":1729357672,"current_range_meters":24000,"station_id":"ce4bh0p2rcd13ifvqd70","pricing_plan_id":"cebpf4jnsgd1na2vs0mg"},{"bike_id":"4b91f4fc-09ad-4172-a3f5-35430ada7017","system_id":"levelo_inurba_marseille","lat":43.32105,"lon":5.36787,"is_reserved":false,"is_disabled":false,"rental_uris":{"android":"levelo://app?vid=4b91f4fc-09ad-4172-a3f5-35430ada7017","ios":"levelo://app?vid=4b91f4fc-09ad-4172-a3f5-35430ada7017"},"vehicle_type_id":"4","last_reported":1729357672,"current_range_meters":35600,"station_id":"ce4bhrh2rcd13ifvqhug","pricing_plan_id":"cebpf4jnsgd1na2vs0mg"},{"bike_id":"a5c0378b-ad31-4b93-95e3-9c79fb8a95a0","system_id":"levelo_inurba_marseille","lat":43.27812,"lon":5.40716,"is_reserved":false,"is_disabled":false,"rental_uris":{"android":"levelo://app?vid=a5c0378b-ad31-4b93-95e3-9c79fb8a95a0","ios":"levelo://app?vid=a5c0378b-ad31-4b93-95e3-9c79fb8a95a0"},"vehicle_type_id":"4","last_reported":1729357672,"current_range_meters":26000,"station_id":"ce4bhnh2rcd13ifvqgtg","pricing_plan_id":"cebpf4jnsgd1na2vs0mg"},{"bike_id":"5c914124-b455-49d7-a5d2-ded2c6fba59d","system_id":"levelo_inurba_marseille","lat":43.22932,"lon":5.35377,"is_reserved":false,"is_disabled":false,"rental_uris":{"android":"levelo://app?vid=5c914124-b455-49d7-a5d2-ded2c6fba59d","ios":"levelo://app?vid=5c914124-b455-49d7-a5d2-ded2c6fba59d"},"vehicle_type_id":"4","last_reported":1729357672,"current_range_meters":4400,"station_id":"cpo3532slgdg3j2ikp40","pricing_plan_id":"cebpf4jnsgd1na2vs0mg"},{"bike_id":"209f2b88-8e1b-4284-a6c6-c079fa3bd283","system_id":"levelo_inurba_marseille","lat":43.27055,"lon":5.40261,"is_reserved":false,"is_disabled":false,"rental_uris":{"android":"levelo://app?vid=209f2b88-8e1b-4284-a6c6-c079fa3bd283","ios":"levelo://app?vid=209f2b88-8e1b-4284-a6c6-c079fa3bd283"},"vehicle_type_id":"4","last_reported":1729357672,"current_range_meters":19200,"station_id":"ce4bhk92rcd13ifvqgc0","pricing_plan_id":"cebpf4jnsgd1na2vs0mg"},{"bike_id":"5fe56e69-a976-4937-bfd7-6e4f620c72da","system_id":"levelo_inurba_marseille","lat":43.2991,"lon":5.37474,"is_reserved":false,"is_disabled":false,"rental_uris":{"android":"levelo://app?vid=5fe56e69-a976-4937-bfd7-6e4f620c72da","ios":"levelo://app?vid=5fe56e69-a976-4937-bfd7-6e4f620c72da"},"vehicle_type_id":"4","last_reported":1729357672,"current_range_meters":28400,"station_id":"ce4bgjh2rcd13ifvqbg0","pricing_plan_id":"cebpf4jnsgd1na2vs0mg"},{"bike_id":"f50638f4-9b4f-4943-84e5-3d0aa7fcd4f4","system_id":"levelo_inurba_marseille","lat":43.31056,"lon":5.40082,"is_reserved":false,"is_disabled":false,"rental_uris":{"android":"levelo://app?vid=f50638f4-9b4f-4943-84e5-3d0aa7fcd4f4","ios":"levelo://app?vid=f50638f4-9b4f-4943-84e5-3d0aa7fcd4f4"},"vehicle_type_id":"4","last_reported":1729357672,"current_range_meters":36000,"station_id":"ce4bh092rcd13ifvqd30","pricing_plan_id":"cebpf4jnsgd1na2vs0mg"},{"bike_id":"f3d71b97-bdf7-4fcb-a29f-bf5e85504747","system_id":"levelo_inurba_marseille","lat":43.30649,"lon":5.40185,"is_reserved":false,"is_disabled":false,"rental_uris":{"android":"levelo://app?vid=f3d71b97-bdf7-4fcb-a29f-bf5e85504747","ios":"levelo://app?vid=f3d71b97-bdf7-4fcb-a29f-bf5e85504747"},"vehicle_type_id":"4","last_reported":1729357672,"current_range_meters":38000,"station_id":"","pricing_plan_id":"cebpf4jnsgd1na2vs0mg"},{"bike_id":"684c6a3e-12ff-450d-afe6-cf96baf9236a","system_id":"levelo_inurba_marseille","lat":43.28416,"lon":5.37529,"is_reserved":false,"is_disabled":false,"rental_uris":{"android":"levelo://app?vid=684c6a3e-12ff-450d-afe6-cf96baf9236a","ios":"levelo://app?vid=684c6a3e-12ff-450d-afe6-cf96baf9236a"},"vehicle_type_id":"4","last_reported":1729357672,"current_range_meters":28000,"station_id":"ce4bh412rcd13ifvqds0","pricing_plan_id":"cebpf4jnsgd1na2vs0mg"},{"bike_id":"54f2f3ae-7944-44b7-9483-2285dd82db52","system_id":"levelo_inurba_marseille","lat":43.29515,"lon":5.3941,"is_reserved":false,"is_disabled":false,"rental_uris":{"android":"levelo://app?vid=54f2f3ae-7944-44b7-9483-2285dd82db52","ios":"levelo://app?vid=54f2f3ae-7944-44b7-9483-2285dd82db52"},"vehicle_type_id":"4","last_reported":1729357672,"current_range_meters":6800,"station_id":"ce4bh292rcd13ifvqdf0","pricing_plan_id":"cebpf4jnsgd1na2vs0mg"},{"bike_id":"c8e246ff-e540-4069-9e12-767596e48162","system_id":"levelo_inurba_marseille","lat":43.25498,"lon":5.37648,"is_reserved":false,"is_disabled":false,"rental_uris":{"android":"levelo://app?vid=c8e246ff-e540-4069-9e12-767596e48162","ios":"levelo://app?vid=c8e246ff-e540-4069-9e12-767596e48162"},"vehicle_type_id":"4","last_reported":1729357672,"current_range_meters":22800,"station_id":"ce4bgph2rcd13ifvqc2g","pricing_plan_id":"cebpf4jnsgd1na2vs0mg"},{"bike_id":"8818ca46-ca97-4a11-8b5e-3dedaf4af154","system_id":"levelo_inurba_marseille","lat":43.29525,"lon":5.39405,"is_reserved":false,"is_disabled":false,"rental_uris":{"android":"levelo://app?vid=8818ca46-ca97-4a11-8b5e-3dedaf4af154","ios":"levelo://app?vid=8818ca46-ca97-4a11-8b5e-3dedaf4af154"},"vehicle_type_id":"4","last_reported":1729357672,"current_range_meters":10800,"station_id":"ce4bh292rcd13ifvqdf0","pricing_plan_id":"cebpf4jnsgd1na2vs0mg"},{"bike_id":"e6664e16-e5d5-4c40-aaa0-4d98e2ade7ce","system_id":"levelo_inurba_marseille","lat":43.24809,"lon":5.37459,"is_reserved":false,"is_disabled":false,"rental_uris":{"android":"levelo://app?vid=e6664e16-e5d5-4c40-aaa0-4d98e2ade7ce","ios":"levelo://app?vid=e6664e16-e5d5-4c40-aaa0-4d98e2ade7ce"},"vehicle_type_id":"4","last_reported":1729357672,"current_range_meters":1600,"station_id":"ce4bhgh2rcd13ifvqfb0","pricing_plan_id":"cebpf4jnsgd1na2vs0mg"},{"bike_id":"b42adfa5-0806-40c7-a769-394ed03c2c85","system_id":"levelo_inurba_marseille","lat":43.28,"lon":5.40016,"is_reserved":false,"is_disabled":false,"rental_uris":{"android":"levelo://app?vid=b42adfa5-0806-40c7-a769-394ed03c2c85","ios":"levelo://app?vid=b42adfa5-0806-40c7-a769-394ed03c2c85"},"vehicle_type_id":"4","last_reported":1729357672,"current_range_meters":2000,"station_id":"ce4bho92rcd13ifvqh4g","pricing_plan_id":"cebpf4jnsgd1na2vs0mg"},{"bike_id":"232b7aed-9f16-4553-aed6-e4e6e0bfb6e0","system_id":"levelo_inurba_marseille","lat":43.30193,"lon":5.36639,"is_reserved":false,"is_disabled":false,"rental_uris":{"android":"levelo://app?vid=232b7aed-9f16-4553-aed6-e4e6e0bfb6e0","ios":"levelo://app?vid=232b7aed-9f16-4553-aed6-e4e6e0bfb6e0"},"vehicle_type_id":"4","last_reported":1729357672,"current_range_meters":38800,"station_id":"ce4bgrh2rcd13ifvqc8g","pricing_plan_id":"cebpf4jnsgd1na2vs0mg"},{"bike_id":"e8eaad05-152b-46c5-9b8a-c3fc958646b4","system_id":"levelo_inurba_marseille","lat":43.31714,"lon":5.43712,"is_reserved":false,"is_disabled":false,"rental_uris":{"android":"levelo://app?vid=e8eaad05-152b-46c5-9b8a-c3fc958646b4","ios":"levelo://app?vid=e8eaad05-152b-46c5-9b8a-c3fc958646b4"},"vehicle_type_id":"4","last_reported":1729357672,"current_range_meters":20800,"station_id":"ce4bhp92rcd13ifvqhcg","pricing_plan_id":"cebpf4jnsgd1na2vs0mg"},{"bike_id":"65e69f9f-d426-4cee-83d2-6764ce5bdc46","system_id":"levelo_inurba_marseille","lat":43.304153,"lon":5.412873,"is_reserved":false,"is_disabled":false,"rental_uris":{"android":"levelo://app?vid=65e69f9f-d426-4cee-83d2-6764ce5bdc46","ios":"levelo://app?vid=65e69f9f-d426-4cee-83d2-6764ce5bdc46"},"vehicle_type_id":"4","last_reported":1729357672,"current_range_meters":12000,"station_id":"ce4bhop2rcd13ifvqh8g","pricing_plan_id":"cebpf4jnsgd1na2vs0mg"},{"bike_id":"2ac09ecd-d7f3-4a0d-876f-2bb653f1a5d1","system_id":"levelo_inurba_marseille","lat":43.23961,"lon":5.36622,"is_reserved":false,"is_disabled":false,"rental_uris":{"android":"levelo://app?vid=2ac09ecd-d7f3-4a0d-876f-2bb653f1a5d1","ios":"levelo://app?vid=2ac09ecd-d7f3-4a0d-876f-2bb653f1a5d1"},"vehicle_type_id":"4","last_reported":1729357672,"current_range_meters":16400,"station_id":"ce4bhi12rcd13ifvqfp0","pricing_plan_id":"cebpf4jnsgd1na2vs0mg"},{"bike_id":"9f72a554-00c6-4cbd-bef2-904497c99204","system_id":"levelo_inurba_marseille","lat":43.23961,"lon":5.36633,"is_reserved":false,"is_disabled":false,"rental_uris":{"android":"levelo://app?vid=9f72a554-00c6-4cbd-bef2-904497c99204","ios":"levelo://app?vid=9f72a554-00c6-4cbd-bef2-904497c99204"},"vehicle_type_id":"4","last_reported":1729357672,"current_range_meters":34800,"station_id":"ce4bhi12rcd13ifvqfp0","pricing_plan_id":"cebpf4jnsgd1na2vs0mg"},{"bike_id":"bfa245f6-c093-4328-bfde-7af20b795c3e","system_id":"levelo_inurba_marseille","lat":43.313443,"lon":5.367287,"is_reserved":false,"is_disabled":false,"rental_uris":{"android":"levelo://app?vid=bfa245f6-c093-4328-bfde-7af20b795c3e","ios":"levelo://app?vid=bfa245f6-c093-4328-bfde-7af20b795c3e"},"vehicle_type_id":"4","last_reported":1729357672,"current_range_meters":36400,"station_id":"ce4bgr92rcd13ifvqc6g","pricing_plan_id":"cebpf4jnsgd1na2vs0mg"},{"bike_id":"37d1bb39-cdcf-4c95-9141-af52559d704f","system_id":"levelo_inurba_marseille","lat":43.31338,"lon":5.39694,"is_reserved":false,"is_disabled":false,"rental_uris":{"android":"levelo://app?vid=37d1bb39-cdcf-4c95-9141-af52559d704f","ios":"levelo://app?vid=37d1bb39-cdcf-4c95-9141-af52559d704f"},"vehicle_type_id":"4","last_reported":1729357672,"current_range_meters":4000,"station_id":"ce4bgvp2rcd13ifvqcu0","pricing_plan_id":"cebpf4jnsgd1na2vs0mg"},{"bike_id":"967180aa-3e7d-453e-80fe-01d68bf8ae51","system_id":"levelo_inurba_marseille","lat":43.27175,"lon":5.41,"is_reserved":false,"is_disabled":false,"rental_uris":{"android":"levelo://app?vid=967180aa-3e7d-453e-80fe-01d68bf8ae51","ios":"levelo://app?vid=967180aa-3e7d-453e-80fe-01d68bf8ae51"},"vehicle_type_id":"4","last_reported":1729357672,"current_range_meters":12000,"station_id":"ce4bhl12rcd13ifvqgf0","pricing_plan_id":"cebpf4jnsgd1na2vs0mg"},{"bike_id":"3877f281-f6cb-43be-b5cf-71cc95d2f84a","system_id":"levelo_inurba_marseille","lat":43.31345,"lon":5.36718,"is_reserved":false,"is_disabled":false,"rental_uris":{"android":"levelo://app?vid=3877f281-f6cb-43be-b5cf-71cc95d2f84a","ios":"levelo://app?vid=3877f281-f6cb-43be-b5cf-71cc95d2f84a"},"vehicle_type_id":"4","last_reported":1729357672,"current_range_meters":33200,"station_id":"ce4bgr92rcd13ifvqc6g","pricing_plan_id":"cebpf4jnsgd1na2vs0mg"},{"bike_id":"d4ebf025-7261-4c59-b566-82593cd1f841","system_id":"levelo_inurba_marseille","lat":43.29537,"lon":5.3855,"is_reserved":false,"is_disabled":false,"rental_uris":{"android":"levelo://app?vid=d4ebf025-7261-4c59-b566-82593cd1f841","ios":"levelo://app?vid=d4ebf025-7261-4c59-b566-82593cd1f841"},"vehicle_type_id":"4","last_reported":1729357672,"current_range_meters":38800,"station_id":"ce4bgih2rcd13ifvqba0","pricing_plan_id":"cebpf4jnsgd1na2vs0mg"},{"bike_id":"2a4e8d32-62b9-4289-ab44-858062e0514f","system_id":"levelo_inurba_marseille","lat":43.30906,"lon":5.36838,"is_reserved":false,"is_disabled":false,"rental_uris":{"android":"levelo://app?vid=2a4e8d32-62b9-4289-ab44-858062e0514f","ios":"levelo://app?vid=2a4e8d32-62b9-4289-ab44-858062e0514f"},"vehicle_type_id":"4","last_reported":1729357672,"current_range_meters":23200,"station_id":"ce4bgn92rcd13ifvqbvg","pricing_plan_id":"cebpf4jnsgd1na2vs0mg"},{"bike_id":"8b03ab8a-fc11-45e8-990a-79309deda2d3","system_id":"levelo_inurba_marseille","lat":43.321075,"lon":5.367625,"is_reserved":false,"is_disabled":false,"rental_uris":{"android":"levelo://app?vid=8b03ab8a-fc11-45e8-990a-79309deda2d3","ios":"levelo://app?vid=8b03ab8a-fc11-45e8-990a-79309deda2d3"},"vehicle_type_id":"4","last_reported":1729357672,"current_range_meters":37600,"station_id":"ce4bhrh2rcd13ifvqhug","pricing_plan_id":"cebpf4jnsgd1na2vs0mg"},{"bike_id":"1384f0c4-aa2c-477c-8370-23eb07bb0f41","system_id":"levelo_inurba_marseille","lat":43.3302,"lon":5.39039,"is_reserved":false,"is_disabled":false,"rental_uris":{"android":"levelo://app?vid=1384f0c4-aa2c-477c-8370-23eb07bb0f41","ios":"levelo://app?vid=1384f0c4-aa2c-477c-8370-23eb07bb0f41"},"vehicle_type_id":"4","last_reported":1729357672,"current_range_meters":20800,"station_id":"ce4bhr92rcd13ifvqhrg","pricing_plan_id":"cebpf4jnsgd1na2vs0mg"},{"bike_id":"09934cae-3dcb-490d-b721-c120cbfedbd8","system_id":"levelo_inurba_marseille","lat":43.26958,"lon":5.38641,"is_reserved":false,"is_disabled":false,"rental_uris":{"android":"levelo://app?vid=09934cae-3dcb-490d-b721-c120cbfedbd8","ios":"levelo://app?vid=09934cae-3dcb-490d-b721-c120cbfedbd8"},"vehicle_type_id":"4","last_reported":1729357672,"current_range_meters":3200,"station_id":"ce4bhh92rcd13ifvqfh0","pricing_plan_id":"cebpf4jnsgd1na2vs0mg"},{"bike_id":"62f08ca0-7a5c-4d98-8e9a-22abb931e67d","system_id":"levelo_inurba_marseille","lat":43.29906,"lon":5.38138,"is_reserved":false,"is_disabled":false,"rental_uris":{"android":"levelo://app?vid=62f08ca0-7a5c-4d98-8e9a-22abb931e67d","ios":"levelo://app?vid=62f08ca0-7a5c-4d98-8e9a-22abb931e67d"},"vehicle_type_id":"4","last_reported":1729357672,"current_range_meters":11200,"station_id":"ce4bgj12rcd13ifvqbc0","pricing_plan_id":"cebpf4jnsgd1na2vs0mg"},{"bike_id":"2defc26f-6583-41ef-9cac-483c1628687d","system_id":"levelo_inurba_marseille","lat":43.29521,"lon":5.39409,"is_reserved":false,"is_disabled":false,"rental_uris":{"android":"levelo://app?vid=2defc26f-6583-41ef-9cac-483c1628687d","ios":"levelo://app?vid=2defc26f-6583-41ef-9cac-483c1628687d"},"vehicle_type_id":"4","last_reported":1729357672,"current_range_meters":22000,"station_id":"ce4bh292rcd13ifvqdf0","pricing_plan_id":"cebpf4jnsgd1na2vs0mg"},{"bike_id":"3d633669-4fd2-492f-a7ae-ab9efc7df6a4","system_id":"levelo_inurba_marseille","lat":43.295715,"lon":5.399691,"is_reserved":false,"is_disabled":false,"rental_uris":{"android":"levelo://app?vid=3d633669-4fd2-492f-a7ae-ab9efc7df6a4","ios":"levelo://app?vid=3d633669-4fd2-492f-a7ae-ab9efc7df6a4"},"vehicle_type_id":"4","last_reported":1729357672,"current_range_meters":36800,"station_id":"ce4bh312rcd13ifvqdj0","pricing_plan_id":"cebpf4jnsgd1na2vs0mg"},{"bike_id":"80e27846-eba0-4690-b4cb-d94abe8711fe","system_id":"levelo_inurba_marseille","lat":43.30591,"lon":5.3936,"is_reserved":false,"is_disabled":false,"rental_uris":{"android":"levelo://app?vid=80e27846-eba0-4690-b4cb-d94abe8711fe","ios":"levelo://app?vid=80e27846-eba0-4690-b4cb-d94abe8711fe"},"vehicle_type_id":"4","last_reported":1729357672,"current_range_meters":36800,"station_id":"ce4bh0p2rcd13ifvqd80","pricing_plan_id":"cebpf4jnsgd1na2vs0mg"},{"bike_id":"a94c613d-d08c-4aad-933a-1d3fb3c64bad","system_id":"levelo_inurba_marseille","lat":43.31169,"lon":5.38721,"is_reserved":false,"is_disabled":false,"rental_uris":{"android":"levelo://app?vid=a94c613d-d08c-4aad-933a-1d3fb3c64bad","ios":"levelo://app?vid=a94c613d-d08c-4aad-933a-1d3fb3c64bad"},"vehicle_type_id":"4","last_reported":1729357672,"current_range_meters":16000,"station_id":"ce4bgv12rcd13ifvqcp0","pricing_plan_id":"cebpf4jnsgd1na2vs0mg"},{"bike_id":"acb50dca-acb0-4245-aa85-ad8798c5214c","system_id":"levelo_inurba_marseille","lat":43.262,"lon":5.37935,"is_reserved":false,"is_disabled":false,"rental_uris":{"android":"levelo://app?vid=acb50dca-acb0-4245-aa85-ad8798c5214c","ios":"levelo://app?vid=acb50dca-acb0-4245-aa85-ad8798c5214c"},"vehicle_type_id":"4","last_reported":1729357672,"current_range_meters":10800,"station_id":"ce4bhjp2rcd13ifvqg90","pricing_plan_id":"cebpf4jnsgd1na2vs0mg"},{"bike_id":"50266e29-3ffd-4405-a4fb-4e0593885135","system_id":"levelo_inurba_marseille","lat":43.33022,"lon":5.39045,"is_reserved":false,"is_disabled":false,"rental_uris":{"android":"levelo://app?vid=50266e29-3ffd-4405-a4fb-4e0593885135","ios":"levelo://app?vid=50266e29-3ffd-4405-a4fb-4e0593885135"},"vehicle_type_id":"4","last_reported":1729357672,"current_range_meters":2800,"station_id":"ce4bhr92rcd13ifvqhrg","pricing_plan_id":"cebpf4jnsgd1na2vs0mg"},{"bike_id":"f06cabb8-40c3-440d-97ad-ed52c898ee9d","system_id":"levelo_inurba_marseille","lat":43.31223,"lon":5.36861,"is_reserved":false,"is_disabled":false,"rental_uris":{"android":"levelo://app?vid=f06cabb8-40c3-440d-97ad-ed52c898ee9d","ios":"levelo://app?vid=f06cabb8-40c3-440d-97ad-ed52c898ee9d"},"vehicle_type_id":"4","last_reported":1729357672,"current_range_meters":3200,"station_id":"ce4bgl92rcd13ifvqbq0","pricing_plan_id":"cebpf4jnsgd1na2vs0mg"},{"bike_id":"36988397-bffd-4afd-be05-e26c4537e996","system_id":"levelo_inurba_marseille","lat":43.248,"lon":5.37457,"is_reserved":false,"is_disabled":false,"rental_uris":{"android":"levelo://app?vid=36988397-bffd-4afd-be05-e26c4537e996","ios":"levelo://app?vid=36988397-bffd-4afd-be05-e26c4537e996"},"vehicle_type_id":"4","last_reported":1729357672,"current_range_meters":8000,"station_id":"ce4bhgh2rcd13ifvqfb0","pricing_plan_id":"cebpf4jnsgd1na2vs0mg"},{"bike_id":"56922a75-f241-4de3-bc4c-76ad00538c87","system_id":"levelo_inurba_marseille","lat":43.27316,"lon":5.39079,"is_reserved":false,"is_disabled":false,"rental_uris":{"android":"levelo://app?vid=56922a75-f241-4de3-bc4c-76ad00538c87","ios":"levelo://app?vid=56922a75-f241-4de3-bc4c-76ad00538c87"},"vehicle_type_id":"4","last_reported":1729357672,"current_range_meters":6400,"station_id":"ce4bhgp2rcd13ifvqfe0","pricing_plan_id":"cebpf4jnsgd1na2vs0mg"},{"bike_id":"eb719a7a-9f91-4b8c-911e-72253a841bb3","system_id":"levelo_inurba_marseille","lat":43.289062,"lon":5.359437,"is_reserved":false,"is_disabled":false,"rental_uris":{"android":"levelo://app?vid=eb719a7a-9f91-4b8c-911e-72253a841bb3","ios":"levelo://app?vid=eb719a7a-9f91-4b8c-911e-72253a841bb3"},"vehicle_type_id":"4","last_reported":1729357672,"current_range_meters":20000,"station_id":"ce4bhb12rcd13ifvqem0","pricing_plan_id":"cebpf4jnsgd1na2vs0mg"},{"bike_id":"73bebc8a-2961-4ca3-b7f6-8bcedb6c0785","system_id":"levelo_inurba_marseille","lat":43.27669,"lon":5.3888,"is_reserved":false,"is_disabled":false,"rental_uris":{"android":"levelo://app?vid=73bebc8a-2961-4ca3-b7f6-8bcedb6c0785","ios":"levelo://app?vid=73bebc8a-2961-4ca3-b7f6-8bcedb6c0785"},"vehicle_type_id":"4","last_reported":1729357672,"current_range_meters":11600,"station_id":"ce4bhi12rcd13ifvqfo0","pricing_plan_id":"cebpf4jnsgd1na2vs0mg"},{"bike_id":"ca8711dd-a6bc-447a-ac44-6e67bd48cc9c","system_id":"levelo_inurba_marseille","lat":43.29529,"lon":5.38549,"is_reserved":false,"is_disabled":false,"rental_uris":{"android":"levelo://app?vid=ca8711dd-a6bc-447a-ac44-6e67bd48cc9c","ios":"levelo://app?vid=ca8711dd-a6bc-447a-ac44-6e67bd48cc9c"},"vehicle_type_id":"4","last_reported":1729357672,"current_range_meters":30000,"station_id":"ce4bgih2rcd13ifvqba0","pricing_plan_id":"cebpf4jnsgd1na2vs0mg"},{"bike_id":"e001c674-6d7c-4cdf-a3e8-67a739bc12b2","system_id":"levelo_inurba_marseille","lat":43.310573,"lon":5.400963,"is_reserved":false,"is_disabled":false,"rental_uris":{"android":"levelo://app?vid=e001c674-6d7c-4cdf-a3e8-67a739bc12b2","ios":"levelo://app?vid=e001c674-6d7c-4cdf-a3e8-67a739bc12b2"},"vehicle_type_id":"4","last_reported":1729357672,"current_range_meters":16800,"station_id":"","pricing_plan_id":"cebpf4jnsgd1na2vs0mg"},{"bike_id":"ec8c3df3-e622-4d87-beb9-9e4b600465b1","system_id":"levelo_inurba_marseille","lat":43.30323,"lon":5.36454,"is_reserved":false,"is_disabled":false,"rental_uris":{"android":"levelo://app?vid=ec8c3df3-e622-4d87-beb9-9e4b600465b1","ios":"levelo://app?vid=ec8c3df3-e622-4d87-beb9-9e4b600465b1"},"vehicle_type_id":"4","last_reported":1729357672,"current_range_meters":9200,"station_id":"ce4bgi92rcd13ifvqb90","pricing_plan_id":"cebpf4jnsgd1na2vs0mg"},{"bike_id":"4f3120d0-4fcb-4298-9a00-3ad5ea1bab09","system_id":"levelo_inurba_marseille","lat":43.24652,"lon":5.38896,"is_reserved":false,"is_disabled":false,"rental_uris":{"android":"levelo://app?vid=4f3120d0-4fcb-4298-9a00-3ad5ea1bab09","ios":"levelo://app?vid=4f3120d0-4fcb-4298-9a00-3ad5ea1bab09"},