{"last_updated":1749841672,"ttl":60,"version":"2.2","data":{"bikes":[{"bike_id":"b31f0139-170f-4194-984f-4386218a1e9d","system_id":"levelo_inurba_marseille","lat":43.33771,"lon":5.37424,"is_reserved":false,"is_disabled":true,"rental_uris":{"android":"levelo://app?vid=b31f0139-170f-4194-984f-4386218a1e9d","ios":"levelo://app?vid=b31f0139-170f-4194-984f-4386218a1e9d"},"vehicle_type_id":"4","last_reported":1749841672,"current_range_meters":0,"station_id":"","pricing_plan_id":"cebpf4jnsgd1na2vs0mg"},{"bike_id":"1acfb620-cad7-48c0-8901-d7a5b74a5b65","system_id":"levelo_inurba_marseille","lat":43.33751,"lon":5.37456,"is_reserved":false,"is_disabled":false,"rental_uris":{"android":"levelo://app?vid=1acfb620-cad7-48c0-8901-d7a5b74a5b65","ios":"levelo://app?vid=1acfb620-cad7-48c0-8901-d7a5b74a5b65"},"vehicle_type_id":"4","last_reported":1749841672,"current_range_meters":2800,"station_id":"","pricing_plan_id":"cebpf4jnsgd1na2vs0mg"},{"bike_id":"a5652db6-c4dd-41f1-afe5-06a93e19d8ff","system_id":"levelo_inurba_marseille","lat":43.24613,"lon":5.39294,"is_reserved":false,"is_disabled":true,"rental_uris":{"android":"levelo://app?vid=a5652db6-c4dd-41f1-afe5-06a93e19d8ff","ios":"levelo://app?vid=a5652db6-c4dd-41f1-afe5-06a93e19d8ff"},"vehicle_type_id":"4","last_reported":1749841672,"current_range_meters":0,"station_id":"","pricing_plan_id":"cebpf4jnsgd1na2vs0mg"},{"bike_id":"bf89d78c-eb96-40d5-beb0-f402ef102cc1","system_id":"levelo_inurba_marseille","lat":43.337444,"lon":5.374475,"is_reserved":false,"is_disabled":true,"rental_uris":{"android":"levelo://app?vid=bf89d78c-eb96-40d5-beb0-f402ef102cc1","ios":"levelo://app?vid=bf89d78c-eb96-40d5-beb0-f402ef102cc1"},"vehicle_type_id":"4","last_reported":1749841672,"current_range_meters":0,"station_id":"","pricing_plan_id":"cebpf4jnsgd1na2vs0mg"},{"bike_id":"5077581b-cebb-46fc-ba69-4fa8272d4810","system_id":"levelo_inurba_marseille","lat":43.21368,"lon":5.35523,"is_reserved":false,"is_disabled":true,"rental_uris":{"android":"levelo://app?vid=5077581b-cebb-46fc-ba69-4fa8272d4810","ios":"levelo://app?vid=5077581b-cebb-46fc-ba69-4fa8272d4810"},"vehicle_type_id":"4","last_reported":1749841672,"current_range_meters":0,"station_id":"","pricing_plan_id":"cebpf4jnsgd1na2vs0mg"},{"bike_id":"ff34c0f3-8c25-4dfe-a1c9-11838519013d","system_id":"levelo_inurba_marseille","lat":43.24366,"lon":5.40125,"is_reserved":false,"is_disabled":true,"rental_uris":{"android":"levelo://app?vid=ff34c0f3-8c25-4dfe-a1c9-11838519013d","ios":"levelo://app?vid=ff34c0f3-8c25-4dfe-a1c9-11838519013d"},"vehicle_type_id":"4","last_reported":1749841672,"current_range_meters":0,"station_id":"","pricing_plan_id":"cebpf4jnsgd1na2vs0mg"},{"bike_id":"7c6a9c32-3bbe-4d4c-8294-1969d0688a87","system_id":"levelo_inurba_marseille","lat":43.28457,"lon":5.42048,"is_reserved":false,"is_disabled":true,"rental_uris":{"android":"levelo://app?vid=7c6a9c32-3bbe-4d4c-8294-1969d0688a87","ios":"levelo://app?vid=7c6a9c32-3bbe-4d4c-8294-1969d0688a87"},"vehicle_type_id":"4","last_reported":1749841672,"current_range_meters":0,"station_id":"","pricing_plan_id":"cebpf4jnsgd1na2vs0mg"},{"bike_id":"66b1cbfb-c132-4ef4-922c-0beab9b5a350","system_id":"levelo_inurba_marseille","lat":43.29701,"lon":5.46057,"is_reserved":false,"is_disabled":true,"rental_uris":{"android":"levelo://app?vid=66b1cbfb-c132-4ef4-922c-0beab9b5a350","ios":"levelo://app?vid=66b1cbfb-c132-4ef4-922c-0beab9b5a350"},"vehicle_type_id":"4","last_reported":1749841672,"current_range_meters":0,"station_id":"","pricing_plan_id":"cebpf4jnsgd1na2vs0mg"},{"bike_id":"492f4bbd-1190-4ef2-b66a-479ffe91b09b","system_id":"levelo_inurba_marseille","lat":43.337444,"lon":5.374475,"is_reserved":false,"is_disabled":true,"rental_uris":{"android":"levelo://app?vid=492f4bbd-1190-4ef2-b66a-479ffe91b09b","ios":"levelo://app?vid=492f4bbd-1190-4ef2-b66a-479ffe91b09b"},"vehicle_type_id":"4","last_reported":1749841672,"current_range_meters":0,"station_id":"","pricing_plan_id":"cebpf4jnsgd1na2vs0mg"},{"bike_id":"a9b6bf99-4070-4437-bb20-72962ae30b90","system_id":"levelo_inurba_marseille","lat":43.27443,"lon":5.36354,"is_reserved":false,"is_disabled":true,"rental_uris":{"android":"levelo://app?vid=a9b6bf99-4070-4437-bb20-72962ae30b90","ios":"levelo://app?vid=a9b6bf99-4070-4437-bb20-72962ae30b90"},"vehicle_type_id":"4","last_reported":1749841672,"current_range_meters":0,"station_id":"","pricing_plan_id":"cebpf4jnsgd1na2vs0mg"},{"bike_id":"1123808b-474c-4811-b67a-6f63f389e58d","system_id":"levelo_inurba_marseille","lat":43.29252,"lon":5.37621,"is_reserved":false,"is_disabled":true,"rental_uris":{"android":"levelo://app?vid=1123808b-474c-4811-b67a-6f63f389e58d","ios":"levelo://app?vid=1123808b-474c-4811-b67a-6f63f389e58d"},"vehicle_type_id":"4","last_reported":1749841672,"current_range_meters":0,"station_id":"ce4bgi12rcd13ifvqb80","pricing_plan_id":"cebpf4jnsgd1na2vs0mg"},{"bike_id":"483bc7a8-8cb9-43ea-82f7-1e8701cae53d","system_id":"levelo_inurba_marseille","lat":43.241648,"lon":5.36394,"is_reserved":false,"is_disabled":true,"rental_uris":{"android":"levelo://app?vid=483bc7a8-8cb9-43ea-82f7-1e8701cae53d","ios":"levelo://app?vid=483bc7a8-8cb9-43ea-82f7-1e8701cae53d"},"vehicle_type_id":"4","last_reported":1749841672,"current_range_meters":0,"station_id":"ce4bh4p2rcd13ifvqe0g","pricing_plan_id":"cebpf4jnsgd1na2vs0mg"},{"bike_id":"b599ac5a-2f89-4066-8b92-4e50f2ece3e8","system_id":"levelo_inurba_marseille","lat":43.28928,"lon":5.3839,"is_reserved":false,"is_disabled":true,"rental_uris":{"android":"levelo://app?vid=b599ac5a-2f89-4066-8b92-4e50f2ece3e8","ios":"levelo://app?vid=b599ac5a-2f89-4066-8b92-4e50f2ece3e8"},"vehicle_type_id":"4","last_reported":1749841672,"current_range_meters":0,"station_id":"ce4bh612rcd13ifvqe6g","pricing_plan_id":"cebpf4jnsgd1na2vs0mg"},{"bike_id":"fa66ef58-f4ef-42df-a235-cadbb3e07d7d","system_id":"levelo_inurba_marseille","lat":43.29256,"lon":5.3845,"is_reserved":false,"is_disabled":true,"rental_uris":{"android":"levelo://app?vid=fa66ef58-f4ef-42df-a235-cadbb3e07d7d","ios":"levelo://app?vid=fa66ef58-f4ef-42df-a235-cadbb3e07d7d"},"vehicle_type_id":"4","last_reported":1749841672,"current_range_meters":0,"station_id":"ce4bh692rcd13ifvqea0","pricing_plan_id":"cebpf4jnsgd1na2vs0mg"},{"bike_id":"e4ea0717-628d-416a-974b-2c8ebd12a827","system_id":"levelo_inurba_marseille","lat":43.28484,"lon":5.38542,"is_reserved":false,"is_disabled":true,"rental_uris":{"android":"levelo://app?vid=e4ea0717-628d-416a-974b-2c8ebd12a827","ios":"levelo://app?vid=e4ea0717-628d-416a-974b-2c8ebd12a827"},"vehicle_type_id":"4","last_reported":1749841672,"current_range_meters":0,"station_id":"ce4bh8p2rcd13ifvqeb0","pricing_plan_id":"cebpf4jnsgd1na2vs0mg"},{"bike_id":"74a96012-b086-4a0e-954c-20f69ddbf41f","system_id":"levelo_inurba_marseille","lat":43.26567,"lon":5.37306,"is_reserved":false,"is_disabled":true,"rental_uris":{"android":"levelo://app?vid=74a96012-b086-4a0e-954c-20f69ddbf41f","ios":"levelo://app?vid=74a96012-b086-4a0e-954c-20f69ddbf41f"},"vehicle_type_id":"4","last_reported":1749841672,"current_range_meters":0,"station_id":"ce4bhg12rcd13ifvqf70","pricing_plan_id":"cebpf4jnsgd1na2vs0mg"},{"bike_id":"d72045eb-f4fe-4353-a46c-3394afca08c7","system_id":"levelo_inurba_marseille","lat":43.266801,"lon":5.382713,"is_reserved":false,"is_disabled":true,"rental_uris":{"android":"levelo://app?vid=d72045eb-f4fe-4353-a46c-3394afca08c7","ios":"levelo://app?vid=d72045eb-f4fe-4353-a46c-3394afca08c7"},"vehicle_type_id":"4","last_reported":1749841672,"current_range_meters":0,"station_id":"ce4bhg92rcd13ifvqf90","pricing_plan_id":"cebpf4jnsgd1na2vs0mg"},{"bike_id":"121035d5-8626-4ae8-abd0-08945d38af09","system_id":"levelo_inurba_marseille","lat":43.26215,"lon":5.37439,"is_reserved":false,"is_disabled":true,"rental_uris":{"android":"levelo://app?vid=121035d5-8626-4ae8-abd0-08945d38af09","ios":"levelo://app?vid=121035d5-8626-4ae8-abd0-08945d38af09"},"vehicle_type_id":"4","last_reported":1749841672,"current_range_meters":0,"station_id":"ce4bhgp2rcd13ifvqfc0","pricing_plan_id":"cebpf4jnsgd1na2vs0mg"},{"bike_id":"ac4bd89b-3a02-425f-8030-c7355be2b603","system_id":"levelo_inurba_marseille","lat":43.26932,"lon":5.38649,"is_reserved":false,"is_disabled":true,"rental_uris":{"android":"levelo://app?vid=ac4bd89b-3a02-425f-8030-c7355be2b603","ios":"levelo://app?vid=ac4bd89b-3a02-425f-8030-c7355be2b603"},"vehicle_type_id":"4","last_reported":1749841672,"current_range_meters":0,"station_id":"ce4bhh92rcd13ifvqfh0","pricing_plan_id":"cebpf4jnsgd1na2vs0mg"},{"bike_id":"6228c6e9-cc57-4252-8a67-20d29e88905c","system_id":"levelo_inurba_marseille","lat":43.275068,"lon":5.384629,"is_reserved":false,"is_disabled":true,"rental_uris":{"android":"levelo://app?vid=6228c6e9-cc57-4252-8a67-20d29e88905c","ios":"levelo://app?vid=6228c6e9-cc57-4252-8a67-20d29e88905c"},"vehicle_type_id":"4","last_reported":1749841672,"current_range_meters":0,"station_id":"ce4bhh92rcd13ifvqfi0","pricing_plan_id":"cebpf4jnsgd1na2vs0mg"},{"bike_id":"6196a16a-294c-4964-9df8-9cb22489a1db","system_id":"levelo_inurba_marseille","lat":43.26498,"lon":5.39537,"is_reserved":false,"is_disabled":true,"rental_uris":{"android":"levelo://app?vid=6196a16a-294c-4964-9df8-9cb22489a1db","ios":"levelo://app?vid=6196a16a-294c-4964-9df8-9cb22489a1db"},"vehicle_type_id":"4","last_reported":1749841672,"current_range_meters":0,"station_id":"ce4bhi12rcd13ifvqfq0","pricing_plan_id":"cebpf4jnsgd1na2vs0mg"},{"bike_id":"e52668b5-ee1d-4bf2-9569-0bf5dba5a96c","system_id":"levelo_inurba_marseille","lat":43.30803,"lon":5.43508,"is_reserved":false,"is_disabled":true,"rental_uris":{"android":"levelo://app?vid=e52668b5-ee1d-4bf2-9569-0bf5dba5a96c","ios":"levelo://app?vid=e52668b5-ee1d-4bf2-9569-0bf5dba5a96c"},"vehicle_type_id":"4","last_reported":1749841672,"current_range_meters":0,"station_id":"ce4bhph2rcd13ifvqheg","pricing_plan_id":"cebpf4jnsgd1na2vs0mg"},{"bike_id":"e49cce53-a348-4350-a387-14f136d9723f","system_id":"levelo_inurba_marseille","lat":43.32336,"lon":5.40622,"is_reserved":false,"is_disabled":true,"rental_uris":{"android":"levelo://app?vid=e49cce53-a348-4350-a387-14f136d9723f","ios":"levelo://app?vid=e49cce53-a348-4350-a387-14f136d9723f"},"vehicle_type_id":"4","last_reported":1749841672,"current_range_meters":0,"station_id":"ce4bhq92rcd13ifvqhjg","pricing_plan_id":"cebpf4jnsgd1na2vs0mg"},{"bike_id":"0777823e-9bf0-4c0d-9989-6cea4d918d54","system_id":"levelo_inurba_marseille","lat":43.28224,"lon":5.38593,"is_reserved":false,"is_disabled":true,"rental_uris":{"android":"levelo://app?vid=0777823e-9bf0-4c0d-9989-6cea4d918d54","ios":"levelo://app?vid=0777823e-9bf0-4c0d-9989-6cea4d918d54"},"vehicle_type_id":"4","last_reported":1749841672,"current_range_meters":400,"station_id":"","pricing_plan_id":"cebpf4jnsgd1na2vs0mg"},{"bike_id":"2464f1a8-37a1-44f6-b9f3-f6e6a54eb780","system_id":"levelo_inurba_marseille","lat":43.26224,"lon":5.37443,"is_reserved":false,"is_disabled":true,"rental_uris":{"android":"levelo://app?vid=2464f1a8-37a1-44f6-b9f3-f6e6a54eb780","ios":"levelo://app?vid=2464f1a8-37a1-44f6-b9f3-f6e6a54eb780"},"vehicle_type_id":"4","last_reported":1749841672,"current_range_meters":400,"station_id":"","pricing_plan_id":"cebpf4jnsgd1na2vs0mg"},{"bike_id":"81a1b0aa-14ef-40d4-941e-d9325605781a","system_id":"levelo_inurba_marseille","lat":43.29541,"lon":5.38551,"is_reserved":false,"is_disabled":true,"rental_uris":{"android":"levelo://app?vid=81a1b0aa-14ef-40d4-941e-d9325605781a","ios":"levelo://app?vid=81a1b0aa-14ef-40d4-941e-d9325605781a"},"vehicle_type_id":"4","last_reported":1749841672,"current_range_meters":400,"station_id":"ce4bgih2rcd13ifvqba0","pricing_plan_id":"cebpf4jnsgd1na2vs0mg"},{"bike_id":"f4ec46e1-96ee-4610-888c-fe5e51a05a05","system_id":"levelo_inurba_marseille","lat":43.26956,"lon":5.38627,"is_reserved":false,"is_disabled":true,"rental_uris":{"android":"levelo://app?vid=f4ec46e1-96ee-4610-888c-fe5e51a05a05","ios":"levelo://app?vid=f4ec46e1-96ee-4610-888c-fe5e51a05a05"},"vehicle_type_id":"4","last_reported":1749841672,"current_range_meters":400,"station_id":"ce4bhh92rcd13ifvqfh0","pricing_plan_id":"cebpf4jnsgd1na2vs0mg"},{"bike_id":"d135f473-5fe5-4925-9d1e-e74e215daeb5","system_id":"levelo_inurba_marseille","lat":43.25122,"lon":5.40318,"is_reserved":false,"is_disabled":true,"rental_uris":{"android":"levelo://app?vid=d135f473-5fe5-4925-9d1e-e74e215daeb5","ios":"levelo://app?vid=d135f473-5fe5-4925-9d1e-e74e215daeb5"},"vehicle_type_id":"4","last_reported":1749841672,"current_range_meters":400,"station_id":"ce4bhlh2rcd13ifvqgig","pricing_plan_id":"cebpf4jnsgd1na2vs0mg"},{"bike_id":"cb85019d-0819-4783-8e8d-eb4d1246f2ed","system_id":"levelo_inurba_marseille","lat":43.32043,"lon":5.41543,"is_reserved":false,"is_disabled":true,"rental_uris":{"android":"levelo://app?vid=cb85019d-0819-4783-8e8d-eb4d1246f2ed","ios":"levelo://app?vid=cb85019d-0819-4783-8e8d-eb4d1246f2ed"},"vehicle_type_id":"4","last_reported":1749841672,"current_range_meters":400,"station_id":"ce4bhq92rcd13ifvqhkg","pricing_plan_id":"cebpf4jnsgd1na2vs0mg"},{"bike_id":"023957c7-3b65-48dc-9627-ba00ce599434","system_id":"levelo_inurba_marseille","lat":43.27372,"lon":5.36256,"is_reserved":false,"is_disabled":true,"rental_uris":{"android":"levelo://app?vid=023957c7-3b65-48dc-9627-ba00ce599434","ios":"levelo://app?vid=023957c7-3b65-48dc-9627-ba00ce599434"},"vehicle_type_id":"4","last_reported":1749841672,"current_range_meters":800,"station_id":"ce4bhbh2rcd13ifvqeo0","pricing_plan_id":"cebpf4jnsgd1na2vs0mg"},{"bike_id":"a02a8cdc-82b4-4e25-a880-5ccfe35b7c62","system_id":"levelo_inurba_marseille","lat":43.27573,"lon":5.38424,"is_reserved":false,"is_disabled":true,"rental_uris":{"android":"levelo://app?vid=a02a8cdc-82b4-4e25-a880-5ccfe35b7c62","ios":"levelo://app?vid=a02a8cdc-82b4-4e25-a880-5ccfe35b7c62"},"vehicle_type_id":"4","last_reported":1749841672,"current_range_meters":800,"station_id":"ce4bhh92rcd13ifvqfi0","pricing_plan_id":"cebpf4jnsgd1na2vs0mg"},{"bike_id":"b4f96a4c-0481-46da-aaaa-51941a5b4cfd","system_id":"levelo_inurba_marseille","lat":43.26335,"lon":5.37828,"is_reserved":false,"is_disabled":true,"rental_uris":{"android":"levelo://app?vid=b4f96a4c-0481-46da-aaaa-51941a5b4cfd","ios":"levelo://app?vid=b4f96a4c-0481-46da-aaaa-51941a5b4cfd"},"vehicle_type_id":"4","last_reported":1749841672,"current_range_meters":800,"station_id":"st_d163nis0mtpqnht9uue0","pricing_plan_id":"cebpf4jnsgd1na2vs0mg"},{"bike_id":"0f3f89a7-bac3-46ab-bf3d-2905e1131a6e","system_id":"levelo_inurba_marseille","lat":43.292313,"lon":5.383379,"is_reserved":false,"is_disabled":true,"rental_uris":{"android":"levelo://app?vid=0f3f89a7-bac3-46ab-bf3d-2905e1131a6e","ios":"levelo://app?vid=0f3f89a7-bac3-46ab-bf3d-2905e1131a6e"},"vehicle_type_id":"4","last_reported":1749841672,"current_range_meters":1200,"station_id":"ce4bh692rcd13ifvqea0","pricing_plan_id":"cebpf4jnsgd1na2vs0mg"},{"bike_id":"c7d5478c-1c6c-405f-9c5a-77c4ee076c64","system_id":"levelo_inurba_marseille","lat":43.30788,"lon":5.43527,"is_reserved":false,"is_disabled":true,"rental_uris":{"android":"levelo://app?vid=c7d5478c-1c6c-405f-9c5a-77c4ee076c64","ios":"levelo://app?vid=c7d5478c-1c6c-405f-9c5a-77c4ee076c64"},"vehicle_type_id":"4","last_reported":1749841672,"current_range_meters":1200,"station_id":"ce4bhph2rcd13ifvqheg","pricing_plan_id":"cebpf4jnsgd1na2vs0mg"},{"bike_id":"9504d926-5cd1-41ff-99d0-808a60c13bff","system_id":"levelo_inurba_marseille","lat":43.26362,"lon":5.3781,"is_reserved":false,"is_disabled":true,"rental_uris":{"android":"levelo://app?vid=9504d926-5cd1-41ff-99d0-808a60c13bff","ios":"levelo://app?vid=9504d926-5cd1-41ff-99d0-808a60c13bff"},"vehicle_type_id":"4","last_reported":1749841672,"current_range_meters":1200,"station_id":"st_d163nis0mtpqnht9uue0","pricing_plan_id":"cebpf4jnsgd1na2vs0mg"},{"bike_id":"8e108a83-e2bf-43e0-9b41-3765b051abd1","system_id":"levelo_inurba_marseille","lat":43.28039,"lon":5.34943,"is_reserved":false,"is_disabled":true,"rental_uris":{"android":"levelo://app?vid=8e108a83-e2bf-43e0-9b41-3765b051abd1","ios":"levelo://app?vid=8e108a83-e2bf-43e0-9b41-3765b051abd1"},"vehicle_type_id":"4","last_reported":1749841672,"current_range_meters":1600,"station_id":"","pricing_plan_id":"cebpf4jnsgd1na2vs0mg"},{"bike_id":"36568027-d5f7-476d-9b36-1d1a25e72073","system_id":"levelo_inurba_marseille","lat":43.29298,"lon":5.37163,"is_reserved":false,"is_disabled":true,"rental_uris":{"android":"levelo://app?vid=36568027-d5f7-476d-9b36-1d1a25e72073","ios":"levelo://app?vid=36568027-d5f7-476d-9b36-1d1a25e72073"},"vehicle_type_id":"4","last_reported":1749841672,"current_range_meters":1600,"station_id":"ce4bgh92rcd13ifvqb40","pricing_plan_id":"cebpf4jnsgd1na2vs0mg"},{"bike_id":"6147da1a-aa53-403b-b42f-a509d5d428d9","system_id":"levelo_inurba_marseille","lat":43.30251,"lon":5.40076,"is_reserved":false,"is_disabled":true,"rental_uris":{"android":"levelo://app?vid=6147da1a-aa53-403b-b42f-a509d5d428d9","ios":"levelo://app?vid=6147da1a-aa53-403b-b42f-a509d5d428d9"},"vehicle_type_id":"4","last_reported":1749841672,"current_range_meters":1600,"station_id":"ce4bgvh2rcd13ifvqcs0","pricing_plan_id":"cebpf4jnsgd1na2vs0mg"},{"bike_id":"4f541fd9-67f2-4efc-b1e8-ed3d6aeb46af","system_id":"levelo_inurba_marseille","lat":43.27211,"lon":5.39182,"is_reserved":false,"is_disabled":true,"rental_uris":{"android":"levelo://app?vid=4f541fd9-67f2-4efc-b1e8-ed3d6aeb46af","ios":"levelo://app?vid=4f541fd9-67f2-4efc-b1e8-ed3d6aeb46af"},"vehicle_type_id":"4","last_reported":1749841672,"current_range_meters":1600,"station_id":"ce4bhhp2rcd13ifvqfm0","pricing_plan_id":"cebpf4jnsgd1na2vs0mg"},{"bike_id":"b570811a-fce5-4d77-ade9-e1146d2163e4","system_id":"levelo_inurba_marseille","lat":43.33021,"lon":5.39048,"is_reserved":false,"is_disabled":true,"rental_uris":{"android":"levelo://app?vid=b570811a-fce5-4d77-ade9-e1146d2163e4","ios":"levelo://app?vid=b570811a-fce5-4d77-ade9-e1146d2163e4"},"vehicle_type_id":"4","last_reported":1749841672,"current_range_meters":1600,"station_id":"ce4bhr92rcd13ifvqhrg","pricing_plan_id":"cebpf4jnsgd1na2vs0mg"},{"bike_id":"5aa47918-1e9c-473c-a381-1906c1a554cb","system_id":"levelo_inurba_marseille","lat":43.26352,"lon":5.37825,"is_reserved":false,"is_disabled":true,"rental_uris":{"android":"levelo://app?vid=5aa47918-1e9c-473c-a381-1906c1a554cb","ios":"levelo://app?vid=5aa47918-1e9c-473c-a381-1906c1a554cb"},"vehicle_type_id":"4","last_reported":1749841672,"current_range_meters":1600,"station_id":"st_d163nis0mtpqnht9uue0","pricing_plan_id":"cebpf4jnsgd1na2vs0mg"},{"bike_id":"5c11ff9f-3894-4137-8e3a-5667bcb7f3b1","system_id":"levelo_inurba_marseille","lat":43.29279,"lon":5.40115,"is_reserved":false,"is_disabled":true,"rental_uris":{"android":"levelo://app?vid=5c11ff9f-3894-4137-8e3a-5667bcb7f3b1","ios":"levelo://app?vid=5c11ff9f-3894-4137-8e3a-5667bcb7f3b1"},"vehicle_type_id":"4","last_reported":1749841672,"current_range_meters":2000,"station_id":"ce4bh312rcd13ifvqdk0","pricing_plan_id":"cebpf4jnsgd1na2vs0mg"},{"bike_id":"6cb0ee75-5a1a-496c-a8f3-909b352a1e19","system_id":"levelo_inurba_marseille","lat":43.27378,"lon":5.36256,"is_reserved":false,"is_disabled":true,"rental_uris":{"android":"levelo://app?vid=6cb0ee75-5a1a-496c-a8f3-909b352a1e19","ios":"levelo://app?vid=6cb0ee75-5a1a-496c-a8f3-909b352a1e19"},"vehicle_type_id":"4","last_reported":1749841672,"current_range_meters":2000,"station_id":"ce4bhbh2rcd13ifvqeo0","pricing_plan_id":"cebpf4jnsgd1na2vs0mg"},{"bike_id":"aefc2b0d-f7ba-43c7-b24a-e109aa58cf12","system_id":"levelo_inurba_marseille","lat":43.27553,"lon":5.38424,"is_reserved":false,"is_disabled":true,"rental_uris":{"android":"levelo://app?vid=aefc2b0d-f7ba-43c7-b24a-e109aa58cf12","ios":"levelo://app?vid=aefc2b0d-f7ba-43c7-b24a-e109aa58cf12"},"vehicle_type_id":"4","last_reported":1749841672,"current_range_meters":2000,"station_id":"ce4bhh92rcd13ifvqfi0","pricing_plan_id":"cebpf4jnsgd1na2vs0mg"},{"bike_id":"468c9466-ef13-4614-935a-eb2e14a13716","system_id":"levelo_inurba_marseille","lat":43.27356,"lon":5.40199,"is_reserved":false,"is_disabled":false,"rental_uris":{"android":"levelo://app?vid=468c9466-ef13-4614-935a-eb2e14a13716","ios":"levelo://app?vid=468c9466-ef13-4614-935a-eb2e14a13716"},"vehicle_type_id":"4","last_reported":1749841672,"current_range_meters":2800,"station_id":"","pricing_plan_id":"cebpf4jnsgd1na2vs0mg"},{"bike_id":"37d6a1f1-3c28-4637-870d-9c87abf38d1d","system_id":"levelo_inurba_marseille","lat":43.30944,"lon":5.39038,"is_reserved":false,"is_disabled":false,"rental_uris":{"android":"levelo://app?vid=37d6a1f1-3c28-4637-870d-9c87abf38d1d","ios":"levelo://app?vid=37d6a1f1-3c28-4637-870d-9c87abf38d1d"},"vehicle_type_id":"4","last_reported":1749841672,"current_range_meters":2800,"station_id":"ce4bgup2rcd13ifvqco0","pricing_plan_id":"cebpf4jnsgd1na2vs0mg"},{"bike_id":"bea5bdbb-8d1d-4ec3-a464-87f39b0392db","system_id":"levelo_inurba_marseille","lat":43.26955,"lon":5.38627,"is_reserved":false,"is_disabled":false,"rental_uris":{"android":"levelo://app?vid=bea5bdbb-8d1d-4ec3-a464-87f39b0392db","ios":"levelo://app?vid=bea5bdbb-8d1d-4ec3-a464-87f39b0392db"},"vehicle_type_id":"4","last_reported":1749841672,"current_range_meters":2800,"station_id":"ce4bhh92rcd13ifvqfh0","pricing_plan_id":"cebpf4jnsgd1na2vs0mg"},{"bike_id":"c43ac935-3449-42a8-a155-d3c4862cb5b9","system_id":"levelo_inurba_marseille","lat":43.26358,"lon":5.37811,"is_reserved":false,"is_disabled":false,"rental_uris":{"android":"levelo://app?vid=c43ac935-3449-42a8-a155-d3c4862cb5b9","ios":"levelo://app?vid=c43ac935-3449-42a8-a155-d3c4862cb5b9"},"vehicle_type_id":"4","last_reported":1749841672,"current_range_meters":2800,"station_id":"st_d163nis0mtpqnht9uue0","pricing_plan_id":"cebpf4jnsgd1na2vs0mg"},{"bike_id":"18054208-2a5e-4b02-b809-9f8ca1fd2463","system_id":"levelo_inurba_marseille","lat":43.26376,"lon":5.37818,"is_reserved":false,"is_disabled":false,"rental_uris":{"android":"levelo://app?vid=18054208-2a5e-4b02-b809-9f8ca1fd2463","ios":"levelo://app?vid=18054208-2a5e-4b02-b809-9f8ca1fd2463"},"vehicle_type_id":"4","last_reported":1749841672,"current_range_meters":2800,"station_id":"st_d163nis0mtpqnht9uue0","pricing_plan_id":"cebpf4jnsgd1na2vs0mg"},{"bike_id":"222a35c8-1a09-4384-a003-78d37655f8bf","system_id":"levelo_inurba_marseille","lat":43.263575,"lon":5.378215,"is_reserved":false,"is_disabled":false,"rental_uris":{"android":"levelo://app?vid=222a35c8-1a09-4384-a003-78d37655f8bf","ios":"levelo://app?vid=222a35c8-1a09-4384-a003-78d37655f8bf"},"vehicle_type_id":"4","last_reported":1749841672,"current_range_meters":3200,"station_id":"st_d163nis0mtpqnht9uue0","pricing_plan_id":"cebpf4jnsgd1na2vs0mg"},{"bike_id":"680f25b5-bdd7-4ea2-8873-44c8e80aad4a","system_id":"levelo_inurba_marseille","lat":43.277457,"lon":5.426007,"is_reserved":false,"is_disabled":false,"rental_uris":{"android":"levelo://app?vid=680f25b5-bdd7-4ea2-8873-44c8e80aad4a","ios":"levelo://app?vid=680f25b5-bdd7-4ea2-8873-44c8e80aad4a"},"vehicle_type_id":"4","last_reported":1749841672,"current_range_meters":3600,"station_id":"","pricing_plan_id":"cebpf4jnsgd1na2vs0mg"},{"bike_id":"26245bbe-e881-4221-82cd-828446eb2d43","system_id":"levelo_inurba_marseille","lat":43.27072,"lon":5.42281,"is_reserved":false,"is_disabled":false,"rental_uris":{"android":"levelo://app?vid=26245bbe-e881-4221-82cd-828446eb2d43","ios":"levelo://app?vid=26245bbe-e881-4221-82cd-828446eb2d43"},"vehicle_type_id":"4","last_reported":1749841672,"current_range_meters":3600,"station_id":"ce4bhk92rcd13ifvqgb0","pricing_plan_id":"cebpf4jnsgd1na2vs0mg"},{"bike_id":"b90ad0ef-5308-4c4b-b289-4fd50da0d832","system_id":"levelo_inurba_marseille","lat":43.28285,"lon":5.35075,"is_reserved":false,"is_disabled":false,"rental_uris":{"android":"levelo://app?vid=b90ad0ef-5308-4c4b-b289-4fd50da0d832","ios":"levelo://app?vid=b90ad0ef-5308-4c4b-b289-4fd50da0d832"},"vehicle_type_id":"4","last_reported":1749841672,"current_range_meters":4000,"station_id":"ce4bhbp2rcd13ifvqerg","pricing_plan_id":"cebpf4jnsgd1na2vs0mg"},{"bike_id":"30d650a4-917e-4583-9705-d2d446de59dd","system_id":"levelo_inurba_marseille","lat":43.26683,"lon":5.38274,"is_reserved":false,"is_disabled":false,"rental_uris":{"android":"levelo://app?vid=30d650a4-917e-4583-9705-d2d446de59dd","ios":"levelo://app?vid=30d650a4-917e-4583-9705-d2d446de59dd"},"vehicle_type_id":"4","last_reported":1749841672,"current_range_meters":4000,"station_id":"ce4bhg92rcd13ifvqf90","pricing_plan_id":"cebpf4jnsgd1na2vs0mg"},{"bike_id":"c4eafd25-7998-40ea-a013-25b3973eee70","system_id":"levelo_inurba_marseille","lat":43.24805,"lon":5.37454,"is_reserved":false,"is_disabled":false,"rental_uris":{"android":"levelo://app?vid=c4eafd25-7998-40ea-a013-25b3973eee70","ios":"levelo://app?vid=c4eafd25-7998-40ea-a013-25b3973eee70"},"vehicle_type_id":"4","last_reported":1749841672,"current_range_meters":4000,"station_id":"ce4bhgh2rcd13ifvqfb0","pricing_plan_id":"cebpf4jnsgd1na2vs0mg"},{"bike_id":"427462f0-ae2c-4491-a473-ed5ba8833525","system_id":"levelo_inurba_marseille","lat":43.26494,"lon":5.39535,"is_reserved":false,"is_disabled":false,"rental_uris":{"android":"levelo://app?vid=427462f0-ae2c-4491-a473-ed5ba8833525","ios":"levelo://app?vid=427462f0-ae2c-4491-a473-ed5ba8833525"},"vehicle_type_id":"4","last_reported":1749841672,"current_range_meters":4400,"station_id":"ce4bhi12rcd13ifvqfq0","pricing_plan_id":"cebpf4jnsgd1na2vs0mg"},{"bike_id":"1a172b29-a8a8-4ec9-860c-b448e4285ea1","system_id":"levelo_inurba_marseille","lat":43.27939,"lon":5.4104,"is_reserved":false,"is_disabled":false,"rental_uris":{"android":"levelo://app?vid=1a172b29-a8a8-4ec9-860c-b448e4285ea1","ios":"levelo://app?vid=1a172b29-a8a8-4ec9-860c-b448e4285ea1"},"vehicle_type_id":"4","last_reported":1749841672,"current_range_meters":4400,"station_id":"ce4bhnp2rcd13ifvqh0g","pricing_plan_id":"cebpf4jnsgd1na2vs0mg"},{"bike_id":"15a0edc8-ae06-4f89-a227-dbf09f05ce53","system_id":"levelo_inurba_marseille","lat":43.299414,"lon":5.385031,"is_reserved":false,"is_disabled":false,"rental_uris":{"android":"levelo://app?vid=15a0edc8-ae06-4f89-a227-dbf09f05ce53","ios":"levelo://app?vid=15a0edc8-ae06-4f89-a227-dbf09f05ce53"},"vehicle_type_id":"4","last_reported":1749841672,"current_range_meters":4800,"station_id":"ce4bh0p2rcd13ifvqd80","pricing_plan_id":"cebpf4jnsgd1na2vs0mg"},{"bike_id":"267c93f9-1a2d-48fc-8538-bb371fe74f39","system_id":"levelo_inurba_marseille","lat":43.29554,"lon":5.42284,"is_reserved":false,"is_disabled":false,"rental_uris":{"android":"levelo://app?vid=267c93f9-1a2d-48fc-8538-bb371fe74f39","ios":"levelo://app?vid=267c93f9-1a2d-48fc-8538-bb371fe74f39"},"vehicle_type_id":"4","last_reported":1749841672,"current_range_meters":4800,"station_id":"ce4bhph2rcd13ifvqhdg","pricing_plan_id":"cebpf4jnsgd1na2vs0mg"},{"bike_id":"61deef65-4f64-4dbf-be90-e11887e295e6","system_id":"levelo_inurba_marseille","lat":43.26804,"lon":5.40268,"is_reserved":false,"is_disabled":false,"rental_uris":{"android":"levelo://app?vid=61deef65-4f64-4dbf-be90-e11887e295e6","ios":"levelo://app?vid=61deef65-4f64-4dbf-be90-e11887e295e6"},"vehicle_type_id":"4","last_reported":1749841672,"current_range_meters":4800,"station_id":"ce501612rcd8frsf0b60","pricing_plan_id":"cebpf4jnsgd1na2vs0mg"},{"bike_id":"fc69ce33-5e2d-4b15-8a90-156dc5c14467","system_id":"levelo_inurba_marseille","lat":43.30885,"lon":5.39634,"is_reserved":false,"is_disabled":false,"rental_uris":{"android":"levelo://app?vid=fc69ce33-5e2d-4b15-8a90-156dc5c14467","ios":"levelo://app?vid=fc69ce33-5e2d-4b15-8a90-156dc5c14467"},"vehicle_type_id":"4","last_reported":1749841672,"current_range_meters":5600,"station_id":"ce4bh012rcd13ifvqcv0","pricing_plan_id":"cebpf4jnsgd1na2vs0mg"},{"bike_id":"bb71a2ca-0fc3-4a8d-97f2-3ab8190d18f8","system_id":"levelo_inurba_marseille","lat":43.31685,"lon":5.40472,"is_reserved":false,"is_disabled":false,"rental_uris":{"android":"levelo://app?vid=bb71a2ca-0fc3-4a8d-97f2-3ab8190d18f8","ios":"levelo://app?vid=bb71a2ca-0fc3-4a8d-97f2-3ab8190d18f8"},"vehicle_type_id":"4","last_reported":1749841672,"current_range_meters":5600,"station_id":"ce4bh012rcd13ifvqd00","pricing_plan_id":"cebpf4jnsgd1na2vs0mg"},{"bike_id":"709c59dd-54dd-444d-8b23-d1c37f763806","system_id":"levelo_inurba_marseille","lat":43.26697,"lon":5.38273,"is_reserved":false,"is_disabled":false,"rental_uris":{"android":"levelo://app?vid=709c59dd-54dd-444d-8b23-d1c37f763806","ios":"levelo://app?vid=709c59dd-54dd-444d-8b23-d1c37f763806"},"vehicle_type_id":"4","last_reported":1749841672,"current_range_meters":5600,"station_id":"ce4bhg92rcd13ifvqf90","pricing_plan_id":"cebpf4jnsgd1na2vs0mg"},{"bike_id":"783bc55b-2062-4be7-8c5d-92cfcefe16fb","system_id":"levelo_inurba_marseille","lat":43.33724,"lon":5.39193,"is_reserved":false,"is_disabled":false,"rental_uris":{"android":"levelo://app?vid=783bc55b-2062-4be7-8c5d-92cfcefe16fb","ios":"levelo://app?vid=783bc55b-2062-4be7-8c5d-92cfcefe16fb"},"vehicle_type_id":"4","last_reported":1749841672,"current_range_meters":5600,"station_id":"ce4bhr92rcd13ifvqhsg","pricing_plan_id":"cebpf4jnsgd1na2vs0mg"},{"bike_id":"c5ae56f6-48ab-459a-9516-af756ee3768b","system_id":"levelo_inurba_marseille","lat":43.26679,"lon":5.38264,"is_reserved":false,"is_disabled":false,"rental_uris":{"android":"levelo://app?vid=c5ae56f6-48ab-459a-9516-af756ee3768b","ios":"levelo://app?vid=c5ae56f6-48ab-459a-9516-af756ee3768b"},"vehicle_type_id":"4","last_reported":1749841672,"current_range_meters":6000,"station_id":"ce4bhg92rcd13ifvqf90","pricing_plan_id":"cebpf4jnsgd1na2vs0mg"},{"bike_id":"08a747ba-9ae3-41d7-985a-dfad07ccc4b9","system_id":"levelo_inurba_marseille","lat":43.24389,"lon":5.37059,"is_reserved":false,"is_disabled":false,"rental_uris":{"android":"levelo://app?vid=08a747ba-9ae3-41d7-985a-dfad07ccc4b9","ios":"levelo://app?vid=08a747ba-9ae3-41d7-985a-dfad07ccc4b9"},"vehicle_type_id":"4","last_reported":1749841672,"current_range_meters":6000,"station_id":"ce4bhhh2rcd13ifvqfk0","pricing_plan_id":"cebpf4jnsgd1na2vs0mg"},{"bike_id":"2d090828-ec62-4204-b833-f7a22665d4e9","system_id":"levelo_inurba_marseille","lat":43.2572,"lon":5.41111,"is_reserved":false,"is_disabled":false,"rental_uris":{"android":"levelo://app?vid=2d090828-ec62-4204-b833-f7a22665d4e9","ios":"levelo://app?vid=2d090828-ec62-4204-b833-f7a22665d4e9"},"vehicle_type_id":"4","last_reported":1749841672,"current_range_meters":6000,"station_id":"ce4bhkp2rcd13ifvqgd0","pricing_plan_id":"cebpf4jnsgd1na2vs0mg"},{"bike_id":"81cd38ad-6155-4499-8e86-b223dbd5d3cb","system_id":"levelo_inurba_marseille","lat":43.21774,"lon":5.34589,"is_reserved":false,"is_disabled":false,"rental_uris":{"android":"levelo://app?vid=81cd38ad-6155-4499-8e86-b223dbd5d3cb","ios":"levelo://app?vid=81cd38ad-6155-4499-8e86-b223dbd5d3cb"},"vehicle_type_id":"4","last_reported":1749841672,"current_range_meters":6000,"station_id":"st_cvj6r9ubvosntc0bgbag","pricing_plan_id":"cebpf4jnsgd1na2vs0mg"},{"bike_id":"a426bcb6-9733-433a-b425-ccc13f254a65","system_id":"levelo_inurba_marseille","lat":43.29579,"lon":5.44211,"is_reserved":false,"is_disabled":false,"rental_uris":{"android":"levelo://app?vid=a426bcb6-9733-433a-b425-ccc13f254a65","ios":"levelo://app?vid=a426bcb6-9733-433a-b425-ccc13f254a65"},"vehicle_type_id":"4","last_reported":1749841672,"current_range_meters":6400,"station_id":"","pricing_plan_id":"cebpf4jnsgd1na2vs0mg"},{"bike_id":"9608e094-8fce-4dcd-b0a9-742e57737a97","system_id":"levelo_inurba_marseille","lat":43.337444,"lon":5.374475,"is_reserved":false,"is_disabled":false,"rental_uris":{"android":"levelo://app?vid=9608e094-8fce-4dcd-b0a9-742e57737a97","ios":"levelo://app?vid=9608e094-8fce-4dcd-b0a9-742e57737a97"},"vehicle_type_id":"4","last_reported":1749841672,"current_range_meters":6400,"station_id":"ce4bh2h2rcd13ifvqdh0","pricing_plan_id":"cebpf4jnsgd1na2vs0mg"},{"bike_id":"17431789-7b96-4f10-b182-c75311e04a86","system_id":"levelo_inurba_marseille","lat":43.27942,"lon":5.41051,"is_reserved":false,"is_disabled":false,"rental_uris":{"android":"levelo://app?vid=17431789-7b96-4f10-b182-c75311e04a86","ios":"levelo://app?vid=17431789-7b96-4f10-b182-c75311e04a86"},"vehicle_type_id":"4","last_reported":1749841672,"current_range_meters":6400,"station_id":"ce4bhnp2rcd13ifvqh0g","pricing_plan_id":"cebpf4jnsgd1na2vs0mg"},{"bike_id":"a2876c79-04cc-44ce-a306-5de3af54a37b","system_id":"levelo_inurba_marseille","lat":43.292667,"lon":5.367561,"is_reserved":false,"is_disabled":false,"rental_uris":{"android":"levelo://app?vid=a2876c79-04cc-44ce-a306-5de3af54a37b","ios":"levelo://app?vid=a2876c79-04cc-44ce-a306-5de3af54a37b"},"vehicle_type_id":"4","last_reported":1749841672,"current_range_meters":6800,"station_id":"","pricing_plan_id":"cebpf4jnsgd1na2vs0mg"},{"bike_id":"850c58a1-6a36-41b9-96c0-532633574745","system_id":"levelo_inurba_marseille","lat":43.261913,"lon":5.374467,"is_reserved":false,"is_disabled":false,"rental_uris":{"android":"levelo://app?vid=850c58a1-6a36-41b9-96c0-532633574745","ios":"levelo://app?vid=850c58a1-6a36-41b9-96c0-532633574745"},"vehicle_type_id":"4","last_reported":1749841672,"current_range_meters":6800,"station_id":"","pricing_plan_id":"cebpf4jnsgd1na2vs0mg"},{"bike_id":"d1438fbf-daef-4bd6-81cd-b74e45f48d11","system_id":"levelo_inurba_marseille","lat":43.30546,"lon":5.36556,"is_reserved":false,"is_disabled":false,"rental_uris":{"android":"levelo://app?vid=d1438fbf-daef-4bd6-81cd-b74e45f48d11","ios":"levelo://app?vid=d1438fbf-daef-4bd6-81cd-b74e45f48d11"},"vehicle_type_id":"4","last_reported":1749841672,"current_range_meters":6800,"station_id":"ce4bgs12rcd13ifvqcag","pricing_plan_id":"cebpf4jnsgd1na2vs0mg"},{"bike_id":"97421c04-2630-4fc1-9da9-b17d88602c5f","system_id":"levelo_inurba_marseille","lat":43.337682,"lon":5.374519,"is_reserved":false,"is_disabled":false,"rental_uris":{"android":"levelo://app?vid=97421c04-2630-4fc1-9da9-b17d88602c5f","ios":"levelo://app?vid=97421c04-2630-4fc1-9da9-b17d88602c5f"},"vehicle_type_id":"4","last_reported":1749841672,"current_range_meters":7200,"station_id":"","pricing_plan_id":"cebpf4jnsgd1na2vs0mg"},{"bike_id":"8d60347d-541c-40fb-90ca-203bf6bd520a","system_id":"levelo_inurba_marseille","lat":43.27129,"lon":5.36422,"is_reserved":false,"is_disabled":false,"rental_uris":{"android":"levelo://app?vid=8d60347d-541c-40fb-90ca-203bf6bd520a","ios":"levelo://app?vid=8d60347d-541c-40fb-90ca-203bf6bd520a"},"vehicle_type_id":"4","last_reported":1749841672,"current_range_meters":7200,"station_id":"","pricing_plan_id":"cebpf4jnsgd1na2vs0mg"},{"bike_id":"d9a49eec-6d8a-4051-ad09-4ce83ffd0dd8","system_id":"levelo_inurba_marseille","lat":43.29264,"lon":5.38438,"is_reserved":false,"is_disabled":false,"rental_uris":{"android":"levelo://app?vid=d9a49eec-6d8a-4051-ad09-4ce83ffd0dd8","ios":"levelo://app?vid=d9a49eec-6d8a-4051-ad09-4ce83ffd0dd8"},"vehicle_type_id":"4","last_reported":1749841672,"current_range_meters":7200,"station_id":"ce4bh692rcd13ifvqea0","pricing_plan_id":"cebpf4jnsgd1na2vs0mg"},{"bike_id":"1268e070-f02d-4537-93df-0bfd5c4daa05","system_id":"levelo_inurba_marseille","lat":43.32661,"lon":5.37621,"is_reserved":false,"is_disabled":false,"rental_uris":{"android":"levelo://app?vid=1268e070-f02d-4537-93df-0bfd5c4daa05","ios":"levelo://app?vid=1268e070-f02d-4537-93df-0bfd5c4daa05"},"vehicle_type_id":"4","last_reported":1749841672,"current_range_meters":8000,"station_id":"","pricing_plan_id":"cebpf4jnsgd1na2vs0mg"},{"bike_id":"20eb3481-5f37-4bfd-b570-0be1fe38b8fa","system_id":"levelo_inurba_marseille","lat":43.30933,"lon":5.39018,"is_reserved":false,"is_disabled":false,"rental_uris":{"android":"levelo://app?vid=20eb3481-5f37-4bfd-b570-0be1fe38b8fa","ios":"levelo://app?vid=20eb3481-5f37-4bfd-b570-0be1fe38b8fa"},"vehicle_type_id":"4","last_reported":1749841672,"current_range_meters":8000,"station_id":"ce4bgup2rcd13ifvqco0","pricing_plan_id":"cebpf4jnsgd1na2vs0mg"},{"bike_id":"0834d7fc-cabd-4af8-b282-85e7844a3425","system_id":"levelo_inurba_marseille","lat":43.28935,"lon":5.36647,"is_reserved":false,"is_disabled":false,"rental_uris":{"android":"levelo://app?vid=0834d7fc-cabd-4af8-b282-85e7844a3425","ios":"levelo://app?vid=0834d7fc-cabd-4af8-b282-85e7844a3425"},"vehicle_type_id":"4","last_reported":1749841672,"current_range_meters":8000,"station_id":"ce4bhap2rcd13ifvqek0","pricing_plan_id":"cebpf4jnsgd1na2vs0mg"},{"bike_id":"b7ae33e4-0d7b-4274-8278-9ad42edff68f","system_id":"levelo_inurba_marseille","lat":43.273758,"lon":5.362571,"is_reserved":false,"is_disabled":false,"rental_uris":{"android":"levelo://app?vid=b7ae33e4-0d7b-4274-8278-9ad42edff68f","ios":"levelo://app?vid=b7ae33e4-0d7b-4274-8278-9ad42edff68f"},"vehicle_type_id":"4","last_reported":1749841672,"current_range_meters":8000,"station_id":"ce4bhbh2rcd13ifvqeo0","pricing_plan_id":"cebpf4jnsgd1na2vs0mg"},{"bike_id":"3307eec0-a8f2-4928-89e6-236735c4d5fc","system_id":"levelo_inurba_marseille","lat":43.24805,"lon":5.37454,"is_reserved":false,"is_disabled":false,"rental_uris":{"android":"levelo://app?vid=3307eec0-a8f2-4928-89e6-236735c4d5fc","ios":"levelo://app?vid=3307eec0-a8f2-4928-89e6-236735c4d5fc"},"vehicle_type_id":"4","last_reported":1749841672,"current_range_meters":8000,"station_id":"ce4bhgh2rcd13ifvqfb0","pricing_plan_id":"cebpf4jnsgd1na2vs0mg"},{"bike_id":"424baf65-f302-469b-bd81-c92697615d94","system_id":"levelo_inurba_marseille","lat":43.25509,"lon":5.37643,"is_reserved":false,"is_disabled":false,"rental_uris":{"android":"levelo://app?vid=424baf65-f302-469b-bd81-c92697615d94","ios":"levelo://app?vid=424baf65-f302-469b-bd81-c92697615d94"},"vehicle_type_id":"4","last_reported":1749841672,"current_range_meters":8000,"station_id":"ce4bhh12rcd13ifvqff0","pricing_plan_id":"cebpf4jnsgd1na2vs0mg"},{"bike_id":"eee36f74-8fb5-4605-be41-1c869d6e7398","system_id":"levelo_inurba_marseille","lat":43.3211,"lon":5.36755,"is_reserved":false,"is_disabled":false,"rental_uris":{"android":"levelo://app?vid=eee36f74-8fb5-4605-be41-1c869d6e7398","ios":"levelo://app?vid=eee36f74-8fb5-4605-be41-1c869d6e7398"},"vehicle_type_id":"4","last_reported":1749841672,"current_range_meters":8000,"station_id":"ce4bhrh2rcd13ifvqhug","pricing_plan_id":"cebpf4jnsgd1na2vs0mg"},{"bike_id":"1ebf9fcc-fb11-44ed-af33-4b064eff228e","system_id":"levelo_inurba_marseille","lat":43.29709,"lon":5.36621,"is_reserved":false,"is_disabled":false,"rental_uris":{"android":"levelo://app?vid=1ebf9fcc-fb11-44ed-af33-4b064eff228e","ios":"levelo://app?vid=1ebf9fcc-fb11-44ed-af33-4b064eff228e"},"vehicle_type_id":"4","last_reported":1749841672,"current_range_meters":8800,"station_id":"ce4bgn12rcd13ifvqbt0","pricing_plan_id":"cebpf4jnsgd1na2vs0mg"},{"bike_id":"f636058f-36fd-4d2a-ac25-5adce33e541e","system_id":"levelo_inurba_marseille","lat":43.31701,"lon":5.4043,"is_reserved":false,"is_disabled":false,"rental_uris":{"android":"levelo://app?vid=f636058f-36fd-4d2a-ac25-5adce33e541e","ios":"levelo://app?vid=f636058f-36fd-4d2a-ac25-5adce33e541e"},"vehicle_type_id":"4","last_reported":1749841672,"current_range_meters":8800,"station_id":"ce4bh012rcd13ifvqd00","pricing_plan_id":"cebpf4jnsgd1na2vs0mg"},{"bike_id":"5f161c12-d095-434d-baba-5be233bba0cf","system_id":"levelo_inurba_marseille","lat":43.26688,"lon":5.38272,"is_reserved":false,"is_disabled":false,"rental_uris":{"android":"levelo://app?vid=5f161c12-d095-434d-baba-5be233bba0cf","ios":"levelo://app?vid=5f161c12-d095-434d-baba-5be233bba0cf"},"vehicle_type_id":"4","last_reported":1749841672,"current_range_meters":8800,"station_id":"ce4bhg92rcd13ifvqf90","pricing_plan_id":"cebpf4jnsgd1na2vs0mg"},{"bike_id":"3a11c5a8-e636-4a8e-97c5-5f95a0b7cfbb","system_id":"levelo_inurba_marseille","lat":43.33763,"lon":5.39213,"is_reserved":false,"is_disabled":false,"rental_uris":{"android":"levelo://app?vid=3a11c5a8-e636-4a8e-97c5-5f95a0b7cfbb","ios":"levelo://app?vid=3a11c5a8-e636-4a8e-97c5-5f95a0b7cfbb"},"vehicle_type_id":"4","last_reported":1749841672,"current_range_meters":9200,"station_id":"","pricing_plan_id":"cebpf4jnsgd1na2vs0mg"},{"bike_id":"0cd1dbd2-20b7-42ff-b4c6-705eedda4be1","system_id":"levelo_inurba_marseille","lat":43.31593,"lon":5.38906,"is_reserved":false,"is_disabled":false,"rental_uris":{"android":"levelo://app?vid=0cd1dbd2-20b7-42ff-b4c6-705eedda4be1","ios":"levelo://app?vid=0cd1dbd2-20b7-42ff-b4c6-705eedda4be1"},"vehicle_type_id":"4","last_reported":1749841672,"current_range_meters":9200,"station_id":"","pricing_plan_id":"cebpf4jnsgd1na2vs0mg"},{"bike_id":"e5ef7447-82af-477b-846f-d44631249354","system_id":"levelo_inurba_marseille","lat":43.3249,"lon":5.38829,"is_reserved":false,"is_disabled":false,"rental_uris":{"android":"levelo://app?vid=e5ef7447-82af-477b-846f-d44631249354","ios":"levelo://app?vid=e5ef7447-82af-477b-846f-d44631249354"},"vehicle_type_id":"4","last_reported":1749841672,"current_range_meters":9200,"station_id":"","pricing_plan_id":"cebpf4jnsgd1na2vs0mg"},{"bike_id":"a34974fa-acde-4859-88bf-1e1e9ecc0fd1","system_id":"levelo_inurba_marseille","lat":43.30538,"lon":5.36549,"is_reserved":false,"is_disabled":false,"rental_uris":{"android":"levelo://app?vid=a34974fa-acde-4859-88bf-1e1e9ecc0fd1","ios":"levelo://app?vid=a34974fa-acde-4859-88bf-1e1e9ecc0fd1"},"vehicle_type_id":"4","last_reported":1749841672,"current_range_meters":9200,"station_id":"ce4bgs12rcd13ifvqcag","pricing_plan_id":"cebpf4jnsgd1na2vs0mg"},{"bike_id":"cf3f0db8-c396-4f55-9185-ee67c0a10d23","system_id":"levelo_inurba_marseille","lat":43.29028,"lon":5.38637,"is_reserved":false,"is_disabled":false,"rental_uris":{"android":"levelo://app?vid=cf3f0db8-c396-4f55-9185-ee67c0a10d23","ios":"levelo://app?vid=cf3f0db8-c396-4f55-9185-ee67c0a10d23"},"vehicle_type_id":"4","last_reported":1749841672,"current_range_meters":9200,"station_id":"ce4bh4p2rcd13ifvqe0g","pricing_plan_id":"cebpf4jnsgd1na2vs0mg"},{"bike_id":"36dd99a7-edec-472c-a288-b2044c68b6b9","system_id":"levelo_inurba_marseille","lat":43.24803,"lon":5.37454,"is_reserved":false,"is_disabled":false,"rental_uris":{"android":"levelo://app?vid=36dd99a7-edec-472c-a288-b2044c68b6b9","ios":"levelo://app?vid=36dd99a7-edec-472c-a288-b2044c68b6b9"},"vehicle_type_id":"4","last_reported":1749841672,"current_range_meters":9200,"station_id":"ce4bhgh2rcd13ifvqfb0","pricing_plan_id":"cebpf4jnsgd1na2vs0mg"},{"bike_id":"2ac662ae-c809-464c-bbda-330ba15daf3a","system_id":"levelo_inurba_marseille","lat":43.27998,"lon":5.41664,"is_reserved":false,"is_disabled":false,"rental_uris":{"android":"levelo://app?vid=2ac662ae-c809-464c-bbda-330ba15daf3a","ios":"levelo://app?vid=2ac662ae-c809-464c-bbda-330ba15daf3a"},"vehicle_type_id":"4","last_reported":1749841672,"current_range_meters":9200,"station_id":"ce4bho12rcd13ifvqh1g","pricing_plan_id":"cebpf4jnsgd1na2vs0mg"},{"bike_id":"8763bc3d-4322-4e15-a4cc-386f60b47c4d","system_id":"levelo_inurba_marseille","lat":43.26353,"lon":5.37822,"is_reserved":false,"is_disabled":false,"rental_uris":{"android":"levelo://app?vid=8763bc3d-4322-4e15-a4cc-386f60b47c4d","ios":"levelo://app?vid=8763bc3d-4322-4e15-a4cc-386f60b47c4d"},"vehicle_type_id":"4","last_reported":1749841672,"current_range_meters":9200,"station_id":"st_d163nis0mtpqnht9uue0","pricing_plan_id":"cebpf4jnsgd1na2vs0mg"},{"bike_id":"c5499c4d-e2ff-4006-a2d7-a6fa9cb952a2","system_id":"levelo_inurba_marseille","lat":43.26386,"lon":5.37738,"is_reserved":false,"is_disabled":false,"rental_uris":{"android":"levelo://app?vid=c5499c4d-e2ff-4006-a2d7-a6fa9cb952a2","ios":"levelo://app?vid=c5499c4d-e2ff-4006-a2d7-a6fa9cb952a2"},"vehicle_type_id":"4","last_reported":1749841672,"current_range_meters":9600,"station_id":"","pricing_plan_id":"cebpf4jnsgd1na2vs0mg"},{"bike_id":"f0fc5e78-c934-42f7-b3ff-cbe0e2405369","system_id":"levelo_inurba_marseille","lat":43.27358,"lon":5.3621,"is_reserved":false,"is_disabled":false,"rental_uris":{"android":"levelo://app?vid=f0fc5e78-c934-42f7-b3ff-cbe0e2405369","ios":"levelo://app?vid=f0fc5e78-c934-42f7-b3ff-cbe0e2405369"},"vehicle_type_id":"4","last_reported":1749841672,"current_range_meters":9600,"station_id":"ce4bhbh2rcd13ifvqeo0","pricing_plan_id":"cebpf4jnsgd1na2vs0mg"},{"bike_id":"ca6751dc-61da-42e1-b1c7-841075d69129","system_id":"levelo_inurba_marseille","lat":43.26373,"lon":5.37807,"is_reserved":false,"is_disabled":false,"rental_uris":{"android":"levelo://app?vid=ca6751dc-61da-42e1-b1c7-841075d69129","ios":"levelo://app?vid=ca6751dc-61da-42e1-b1c7-841075d69129"},"vehicle_type_id":"4","last_reported":1749841672,"current_range_meters":9600,"station_id":"st_d163nis0mtpqnht9uue0","pricing_plan_id":"cebpf4jnsgd1na2vs0mg"},{"bike_id":"44a5f32c-c185-4995-bd6a-48e860f198a8","system_id":"levelo_inurba_marseille","lat":43.31685,"lon":5.40472,"is_reserved":false,"is_disabled":false,"rental_uris":{"android":"levelo://app?vid=44a5f32c-c185-4995-bd6a-48e860f198a8","ios":"levelo://app?vid=44a5f32c-c185-4995-bd6a-48e860f198a8"},"vehicle_type_id":"4","last_reported":1749841672,"current_range_meters":10000,"station_id":"ce4bh012rcd13ifvqd00","pricing_plan_id":"cebpf4jnsgd1na2vs0mg"},{"bike_id":"41902e46-3363-402b-89a9-77321257c96b","system_id":"levelo_inurba_marseille","lat":43.32406,"lon":5.36716,"is_reserved":false,"is_disabled":false,"rental_uris":{"android":"levelo://app?vid=41902e46-3363-402b-89a9-77321257c96b","ios":"levelo://app?vid=41902e46-3363-402b-89a9-77321257c96b"},"vehicle_type_id":"4","last_reported":1749841672,"current_range_meters":10000,"station_id":"ce4bhsh2rcd13ifvqi2g","pricing_plan_id":"cebpf4jnsgd1na2vs0mg"},{"bike_id":"346f3f80-6b15-4406-b905-bb78596f5bac","system_id":"levelo_inurba_marseille","lat":43.32369,"lon":5.36749,"is_reserved":false,"is_disabled":false,"rental_uris":{"android":"levelo://app?vid=346f3f80-6b15-4406-b905-bb78596f5bac","ios":"levelo://app?vid=346f3f80-6b15-4406-b905-bb78596f5bac"},"vehicle_type_id":"4","last_reported":1749841672,"current_range_meters":10000,"station_id":"ce4bhsh2rcd13ifvqi2g","pricing_plan_id":"cebpf4jnsgd1na2vs0mg"},{"bike_id":"70d7ad54-7f62-45f1-8f4e-9f1becfd91b8","system_id":"levelo_inurba_marseille","lat":43.26345,"lon":5.37794,"is_reserved":false,"is_disabled":false,"rental_uris":{"android":"levelo://app?vid=70d7ad54-7f62-45f1-8f4e-9f1becfd91b8","ios":"levelo://app?vid=70d7ad54-7f62-45f1-8f4e-9f1becfd91b8"},"vehicle_type_id":"4","last_reported":1749841672,"current_range_meters":10000,"station_id":"st_d163nis0mtpqnht9uue0","pricing_plan_id":"cebpf4jnsgd1na2vs0mg"},{"bike_id":"f6c6966b-9c64-4466-be32-e995f6c088d2","system_id":"levelo_inurba_marseille","lat":43.2637,"lon":5.37819,"is_reserved":false,"is_disabled":false,"rental_uris":{"android":"levelo://app?vid=f6c6966b-9c64-4466-be32-e995f6c088d2","ios":"levelo://app?vid=f6c6966b-9c64-4466-be32-e995f6c088d2"},"vehicle_type_id":"4","last_reported":1749841672,"current_range_meters":10000,"station_id":"st_d163nis0mtpqnht9uue0","pricing_plan_id":"cebpf4jnsgd1na2vs0mg"},{"bike_id":"878ab1de-49a4-4436-946e-cee61e0922dc","system_id":"levelo_inurba_marseille","lat":43.26384,"lon":5.37815,"is_reserved":false,"is_disabled":false,"rental_uris":{"android":"levelo://app?vid=878ab1de-49a4-4436-946e-cee61e0922dc","ios":"levelo://app?vid=878ab1de-49a4-4436-946e-cee61e0922dc"},"vehicle_type_id":"4","last_reported":1749841672,"current_range_meters":10000,"station_id":"st_d163nis0mtpqnht9uue0","pricing_plan_id":"cebpf4jnsgd1na2vs0mg"},{"bike_id":"95a0f987-e38b-4b32-91db-bb22e84aaf53","system_id":"levelo_inurba_marseille","lat":43.26689,"lon":5.38267,"is_reserved":false,"is_disabled":false,"rental_uris":{"android":"levelo://app?vid=95a0f987-e38b-4b32-91db-bb22e84aaf53","ios":"levelo://app?vid=95a0f987-e38b-4b32-91db-bb22e84aaf53"},"vehicle_type_id":"4","last_reported":1749841672,"current_range_meters":10800,"station_id":"ce4bhg92rcd13ifvqf90","pricing_plan_id":"cebpf4jnsgd1na2vs0mg"},{"bike_id":"c71eced9-b3be-493d-a5f9-a88ea0f7b227","system_id":"levelo_inurba_marseille","lat":43.26047,"lon":5.37527,"is_reserved":false,"is_disabled":false,"rental_uris":{"android":"levelo://app?vid=c71eced9-b3be-493d-a5f9-a88ea0f7b227","ios":"levelo://app?vid=c71eced9-b3be-493d-a5f9-a88ea0f7b227"},"vehicle_type_id":"4","last_reported":1749841672,"current_range_meters":10800,"station_id":"ce4bhgh2rcd13ifvqfa0","pricing_plan_id":"cebpf4jnsgd1na2vs0mg"},{"bike_id":"916790b7-0d20-41ea-9912-fb581d3baed6","system_id":"levelo_inurba_marseille","lat":43.26026,"lon":5.37543,"is_reserved":false,"is_disabled":false,"rental_uris":{"android":"levelo://app?vid=916790b7-0d20-41ea-9912-fb581d3baed6","ios":"levelo://app?vid=916790b7-0d20-41ea-9912-fb581d3baed6"},"vehicle_type_id":"4","last_reported":1749841672,"current_range_meters":10800,"station_id":"ce4bhgh2rcd13ifvqfa0","pricing_plan_id":"cebpf4jnsgd1na2vs0mg"},{"bike_id":"40ba1eff-6643-4d92-a9c2-19eeb757e96e","system_id":"levelo_inurba_marseille","lat":43.26211,"lon":5.37394,"is_reserved":false,"is_disabled":false,"rental_uris":{"android":"levelo://app?vid=40ba1eff-6643-4d92-a9c2-19eeb757e96e","ios":"levelo://app?vid=40ba1eff-6643-4d92-a9c2-19eeb757e96e"},"vehicle_type_id":"4","last_reported":1749841672,"current_range_meters":11200,"station_id":"","pricing_plan_id":"cebpf4jnsgd1na2vs0mg"},{"bike_id":"5003a52f-d68d-4d19-b257-1be60ca82e02","system_id":"levelo_inurba_marseille","lat":43.25532,"lon":5.376,"is_reserved":false,"is_disabled":false,"rental_uris":{"android":"levelo://app?vid=5003a52f-d68d-4d19-b257-1be60ca82e02","ios":"levelo://app?vid=5003a52f-d68d-4d19-b257-1be60ca82e02"},"vehicle_type_id":"4","last_reported":1749841672,"current_range_meters":11600,"station_id":"","pricing_plan_id":"cebpf4jnsgd1na2vs0mg"},{"bike_id":"0f7a5e30-0325-4c61-a231-5915eb5774df","system_id":"levelo_inurba_marseille","lat":43.29787,"lon":5.37096,"is_reserved":false,"is_disabled":false,"rental_uris":{"android":"levelo://app?vid=0f7a5e30-0325-4c61-a231-5915eb5774df","ios":"levelo://app?vid=0f7a5e30-0325-4c61-a231-5915eb5774df"},"vehicle_type_id":"4","last_reported":1749841672,"current_range_meters":11600,"station_id":"ce4bgop2rcd13ifvqc1g","pricing_plan_id":"cebpf4jnsgd1na2vs0mg"},{"bike_id":"b29ec742-716b-4189-bf48-1b1583e6336a","system_id":"levelo_inurba_marseille","lat":43.30943,"lon":5.39056,"is_reserved":false,"is_disabled":false,"rental_uris":{"android":"levelo://app?vid=b29ec742-716b-4189-bf48-1b1583e6336a","ios":"levelo://app?vid=b29ec742-716b-4189-bf48-1b1583e6336a"},"vehicle_type_id":"4","last_reported":1749841672,"current_range_meters":11600,"station_id":"ce4bgup2rcd13ifvqco0","pricing_plan_id":"cebpf4jnsgd1na2vs0mg"},{"bike_id":"70cb21d6-5e0a-4702-bb4e-b661fddf9156","system_id":"levelo_inurba_marseille","lat":43.2668,"lon":5.38275,"is_reserved":false,"is_disabled":false,"rental_uris":{"android":"levelo://app?vid=70cb21d6-5e0a-4702-bb4e-b661fddf9156","ios":"levelo://app?vid=70cb21d6-5e0a-4702-bb4e-b661fddf9156"},"vehicle_type_id":"4","last_reported":1749841672,"current_range_meters":11600,"station_id":"ce4bhg92rcd13ifvqf90","pricing_plan_id":"cebpf4jnsgd1na2vs0mg"},{"bike_id":"28073562-cbcd-4002-a61a-a196f0703519","system_id":"levelo_inurba_marseille","lat":43.26364,"lon":5.37806,"is_reserved":false,"is_disabled":false,"rental_uris":{"android":"levelo://app?vid=28073562-cbcd-4002-a61a-a196f0703519","ios":"levelo://app?vid=28073562-cbcd-4002-a61a-a196f0703519"},"vehicle_type_id":"4","last_reported":1749841672,"current_range_meters":11600,"station_id":"st_d163nis0mtpqnht9uue0","pricing_plan_id":"cebpf4jnsgd1na2vs0mg"},{"bike_id":"6971fd1f-b7ca-4620-980f-6f94f2a7ef95","system_id":"levelo_inurba_marseille","lat":43.263519,"lon":5.378225,"is_reserved":false,"is_disabled":false,"rental_uris":{"android":"levelo://app?vid=6971fd1f-b7ca-4620-980f-6f94f2a7ef95","ios":"levelo://app?vid=6971fd1f-b7ca-4620-980f-6f94f2a7ef95"},"vehicle_type_id":"4","last_reported":1749841672,"current_range_meters":11600,"station_id":"st_d163nis0mtpqnht9uue0","pricing_plan_id":"cebpf4jnsgd1na2vs0mg"},{"bike_id":"0b6d3803-7133-4dbd-960a-bd0fd8f32ef2","system_id":"levelo_inurba_marseille","lat":43.243865,"lon":5.37065,"is_reserved":false,"is_disabled":false,"rental_uris":{"android":"levelo://app?vid=0b6d3803-7133-4dbd-960a-bd0fd8f32ef2","ios":"levelo://app?vid=0b6d3803-7133-4dbd-960a-bd0fd8f32ef2"},"vehicle_type_id":"4","last_reported":1749841672,"current_range_meters":12000,"station_id":"","pricing_plan_id":"cebpf4jnsgd1na2vs0mg"},{"bike_id":"6facbc0d-f1b5-4dc3-86d4-5c1204834925","system_id":"levelo_inurba_marseille","lat":43.28059,"lon":5.3478,"is_reserved":false,"is_disabled":false,"rental_uris":{"android":"levelo://app?vid=6facbc0d-f1b5-4dc3-86d4-5c1204834925","ios":"levelo://app?vid=6facbc0d-f1b5-4dc3-86d4-5c1204834925"},"vehicle_type_id":"4","last_reported":1749841672,"current_range_meters":12000,"station_id":"","pricing_plan_id":"cebpf4jnsgd1na2vs0mg"},{"bike_id":"473a8161-2e72-414d-8c94-a1295a1fa658","system_id":"levelo_inurba_marseille","lat":43.31361,"lon":5.38485,"is_reserved":false,"is_disabled":false,"rental_uris":{"android":"levelo://app?vid=473a8161-2e72-414d-8c94-a1295a1fa658","ios":"levelo://app?vid=473a8161-2e72-414d-8c94-a1295a1fa658"},"vehicle_type_id":"4","last_reported":1749841672,"current_range_meters":12000,"station_id":"ce4bgt92rcd13ifvqcf0","pricing_plan_id":"cebpf4jnsgd1na2vs0mg"},{"bike_id":"90bc0c43-04ba-482b-bd34-f20042476035","system_id":"levelo_inurba_marseille","lat":43.2582,"lon":5.3944,"is_reserved":false,"is_disabled":false,"rental_uris":{"android":"levelo://app?vid=90bc0c43-04ba-482b-bd34-f20042476035","ios":"levelo://app?vid=90bc0c43-04ba-482b-bd34-f20042476035"},"vehicle_type_id":"4","last_reported":1749841672,"current_range_meters":12000,"station_id":"ce4bhip2rcd13ifvqft0","pricing_plan_id":"cebpf4jnsgd1na2vs0mg"},{"bike_id":"326cc913-bdbc-48c2-9a88-414846f09512","system_id":"levelo_inurba_marseille","lat":43.32359,"lon":5.36725,"is_reserved":false,"is_disabled":false,"rental_uris":{"android":"levelo://app?vid=326cc913-bdbc-48c2-9a88-414846f09512","ios":"levelo://app?vid=326cc913-bdbc-48c2-9a88-414846f09512"},"vehicle_type_id":"4","last_reported":1749841672,"current_range_meters":12000,"station_id":"ce4bhsh2rcd13ifvqi2g","pricing_plan_id":"cebpf4jnsgd1na2vs0mg"},{"bike_id":"da12148b-31d7-465f-bcdc-98c34afce0a4","system_id":"levelo_inurba_marseille","lat":43.26366,"lon":5.37818,"is_reserved":false,"is_disabled":false,"rental_uris":{"android":"levelo://app?vid=da12148b-31d7-465f-bcdc-98c34afce0a4","ios":"levelo://app?vid=da12148b-31d7-465f-bcdc-98c34afce0a4"},"vehicle_type_id":"4","last_reported":1749841672,"current_range_meters":12000,"station_id":"st_d163nis0mtpqnht9uue0","pricing_plan_id":"cebpf4jnsgd1na2vs0mg"},{"bike_id":"3d1a1572-49ef-4637-ac12-a500caffc8a4","system_id":"levelo_inurba_marseille","lat":43.26688,"lon":5.38244,"is_reserved":false,"is_disabled":false,"rental_uris":{"android":"levelo://app?vid=3d1a1572-49ef-4637-ac12-a500caffc8a4","ios":"levelo://app?vid=3d1a1572-49ef-4637-ac12-a500caffc8a4"},"vehicle_type_id":"4","last_reported":1749841672,"current_range_meters":12400,"station_id":"ce4bhg92rcd13ifvqf90","pricing_plan_id":"cebpf4jnsgd1na2vs0mg"},{"bike_id":"e97dc0cf-d06a-4315-98e7-fde9e483376d","system_id":"levelo_inurba_marseille","lat":43.2983,"lon":5.3739,"is_reserved":false,"is_disabled":false,"rental_uris":{"android":"levelo://app?vid=e97dc0cf-d06a-4315-98e7-fde9e483376d","ios":"levelo://app?vid=e97dc0cf-d06a-4315-98e7-fde9e483376d"},"vehicle_type_id":"4","last_reported":1749841672,"current_range_meters":12800,"station_id":"","pricing_plan_id":"cebpf4jnsgd1na2vs0mg"},{"bike_id":"876dcdea-c206-4cad-912e-c6d3858d2201","system_id":"levelo_inurba_marseille","lat":43.3055,"lon":5.36549,"is_reserved":false,"is_disabled":false,"rental_uris":{"android":"levelo://app?vid=876dcdea-c206-4cad-912e-c6d3858d2201","ios":"levelo://app?vid=876dcdea-c206-4cad-912e-c6d3858d2201"},"vehicle_type_id":"4","last_reported":1749841672,"current_range_meters":12800,"station_id":"ce4bgs12rcd13ifvqcag","pricing_plan_id":"cebpf4jnsgd1na2vs0mg"},{"bike_id":"5e24c2f9-48f3-4eb4-9e89-12dd23fc648e","system_id":"levelo_inurba_marseille","lat":43.26704,"lon":5.38242,"is_reserved":false,"is_disabled":false,"rental_uris":{"android":"levelo://app?vid=5e24c2f9-48f3-4eb4-9e89-12dd23fc648e","ios":"levelo://app?vid=5e24c2f9-48f3-4eb4-9e89-12dd23fc648e"},"vehicle_type_id":"4","last_reported":1749841672,"current_range_meters":12800,"station_id":"ce4bhg92rcd13ifvqf90","pricing_plan_id":"cebpf4jnsgd1na2vs0mg"},{"bike_id":"b4bee759-786a-403a-b2d1-c26840135473","system_id":"levelo_inurba_marseille","lat":43.2926,"lon":5.38447,"is_reserved":false,"is_disabled":false,"rental_uris":{"android":"levelo://app?vid=b4bee759-786a-403a-b2d1-c26840135473","ios":"levelo://app?vid=b4bee759-786a-403a-b2d1-c26840135473"},"vehicle_type_id":"4","last_reported":1749841672,"current_range_meters":13600,"station_id":"ce4bh692rcd13ifvqea0","pricing_plan_id":"cebpf4jnsgd1na2vs0mg"},{"bike_id":"268e5055-3fde-4474-8409-c2aad28eb730","system_id":"levelo_inurba_marseille","lat":43.27375,"lon":5.36257,"is_reserved":false,"is_disabled":false,"rental_uris":{"android":"levelo://app?vid=268e5055-3fde-4474-8409-c2aad28eb730","ios":"levelo://app?vid=268e5055-3fde-4474-8409-c2aad28eb730"},"vehicle_type_id":"4","last_reported":1749841672,"current_range_meters":13600,"station_id":"ce4bhbh2rcd13ifvqeo0","pricing_plan_id":"cebpf4jnsgd1na2vs0mg"},{"bike_id":"2047b0b1-0703-4cd2-b023-1b3ef44fb0d0","system_id":"levelo_inurba_marseille","lat":43.24541,"lon":5.39516,"is_reserved":false,"is_disabled":false,"rental_uris":{"android":"levelo://app?vid=2047b0b1-0703-4cd2-b023-1b3ef44fb0d0","ios":"levelo://app?vid=2047b0b1-0703-4cd2-b023-1b3ef44fb0d0"},"vehicle_type_id":"4","last_reported":1749841672,"current_range_meters":13600,"station_id":"ce4bhlp2rcd13ifvqgjg","pricing_plan_id":"cebpf4jnsgd1na2vs0mg"},{"bike_id":"f2a9f391-e567-489d-8f36-b4b1a7f91aa4","system_id":"levelo_inurba_marseille","lat":43.26371,"lon":5.37819,"is_reserved":false,"is_disabled":false,"rental_uris":{"android":"levelo://app?vid=f2a9f391-e567-489d-8f36-b4b1a7f91aa4","ios":"levelo://app?vid=f2a9f391-e567-489d-8f36-b4b1a7f91aa4"},"vehicle_type_id":"4","last_reported":1749841672,"current_range_meters":13600,"station_id":"st_d163nis0mtpqnht9uue0","pricing_plan_id":"cebpf4jnsgd1na2vs0mg"},{"bike_id":"3b2851dc-cdc3-4c74-bb7a-6b50ea5674bc","system_id":"levelo_inurba_marseille","lat":43.3019,"lon":5.38032,"is_reserved":false,"is_disabled":false,"rental_uris":{"android":"levelo://app?vid=3b2851dc-cdc3-4c74-bb7a-6b50ea5674bc","ios":"levelo://app?vid=3b2851dc-cdc3-4c74-bb7a-6b50ea5674bc"},"vehicle_type_id":"4","last_reported":1749841672,"current_range_meters":14000,"station_id":"","pricing_plan_id":"cebpf4jnsgd1na2vs0mg"},{"bike_id":"bd1a8601-6e0b-4117-9bcd-d9081d80cacb","system_id":"levelo_inurba_marseille","lat":43.3092,"lon":5.40151,"is_reserved":false,"is_disabled":false,"rental_uris":{"android":"levelo://app?vid=bd1a8601-6e0b-4117-9bcd-d9081d80cacb","ios":"levelo://app?vid=bd1a8601-6e0b-4117-9bcd-d9081d80cacb"},"vehicle_type_id":"4","last_reported":1749841672,"current_range_meters":14000,"station_id":"ce4bgvp2rcd13ifvqct0","pricing_plan_id":"cebpf4jnsgd1na2vs0mg"},{"bike_id":"890877e9-2b2f-4874-b40f-a4f1f4504057","system_id":"levelo_inurba_marseille","lat":43.25592,"lon":5.38227,"is_reserved":false,"is_disabled":false,"rental_uris":{"android":"levelo://app?vid=890877e9-2b2f-4874-b40f-a4f1f4504057","ios":"levelo://app?vid=890877e9-2b2f-4874-b40f-a4f1f4504057"},"vehicle_type_id":"4","last_reported":1749841672,"current_range_meters":14000,"station_id":"ce4bhih2rcd13ifvqfs0","pricing_plan_id":"cebpf4jnsgd1na2vs0mg"},{"bike_id":"956ca2fc-4b38-4801-9b1e-c5c82f54cfe6","system_id":"levelo_inurba_marseille","lat":43.25594,"lon":5.38241,"is_reserved":false,"is_disabled":false,"rental_uris":{"android":"levelo://app?vid=956ca2fc-4b38-4801-9b1e-c5c82f54cfe6","ios":"levelo://app?vid=956ca2fc-4b38-4801-9b1e-c5c82f54cfe6"},"vehicle_type_id":"4","last_reported":1749841672,"current_range_meters":14000,"station_id":"ce4bhih2rcd13ifvqfs0","pricing_plan_id":"cebpf4jnsgd1na2vs0mg"},{"bike_id":"c70af56e-8858-4f1c-befc-b5ba772884f1","system_id":"levelo_inurba_marseille","lat":43.251165,"lon":5.403199,"is_reserved":false,"is_disabled":false,"rental_uris":{"android":"levelo://app?vid=c70af56e-8858-4f1c-befc-b5ba772884f1","ios":"levelo://app?vid=c70af56e-8858-4f1c-befc-b5ba772884f1"},"vehicle_type_id":"4","last_reported":1749841672,"current_range_meters":14000,"station_id":"ce4bhlh2rcd13ifvqgig","pricing_plan_id":"cebpf4jnsgd1na2vs0mg"},{"bike_id":"0afcb599-3d9f-4bc3-a6eb-ed35bcfdac84","system_id":"levelo_inurba_marseille","lat":43.23196,"lon":5.35563,"is_reserved":false,"is_disabled":false,"rental_uris":{"android":"levelo://app?vid=0afcb599-3d9f-4bc3-a6eb-ed35bcfdac84","ios":"levelo://app?vid=0afcb599-3d9f-4bc3-a6eb-ed35bcfdac84"},"vehicle_type_id":"4","last_reported":1749841672,"current_range_meters":14000,"station_id":"ce4bhu92rcd13ifvqi70","pricing_plan_id":"cebpf4jnsgd1na2vs0mg"},{"bike_id":"26e2572d-2d9b-4252-a754-e30587914fc4","system_id":"levelo_inurba_marseille","lat":43.23194,"lon":5.35561,"is_reserved":false,"is_disabled":false,"rental_uris":{"android":"levelo://app?vid=26e2572d-2d9b-4252-a754-e30587914fc4","ios":"levelo://app?vid=26e2572d-2d9b-4252-a754-e30587914fc4"},"vehicle_type_id":"4","last_reported":1749841672,"current_range_meters":14000,"station_id":"ce4bhu92rcd13ifvqi70","pricing_plan_id":"cebpf4jnsgd1na2vs0mg"},{"bike_id":"b2774506-451d-42cb-8998-67808081a95f","system_id":"levelo_inurba_marseille","lat":43.30302,"lon":5.37911,"is_reserved":false,"is_disabled":false,"rental_uris":{"android":"levelo://app?vid=b2774506-451d-42cb-8998-67808081a95f","ios":"levelo://app?vid=b2774506-451d-42cb-8998-67808081a95f"},"vehicle_type_id":"4","last_reported":1749841672,"current_range_meters":14400,"station_id":"","pricing_plan_id":"cebpf4jnsgd1na2vs0mg"},{"bike_id":"afd43904-fb62-4c26-812e-39cc7c94c9f0","system_id":"levelo_inurba_marseille","lat":43.30965,"lon":5.3904,"is_reserved":false,"is_disabled":false,"rental_uris":{"android":"levelo://app?vid=afd43904-fb62-4c26-812e-39cc7c94c9f0","ios":"levelo://app?vid=afd43904-fb62-4c26-812e-39cc7c94c9f0"},"vehicle_type_id":"4","last_reported":1749841672,"current_range_meters":14400,"station_id":"ce4bgup2rcd13ifvqco0","pricing_plan_id":"cebpf4jnsgd1na2vs0mg"},{"bike_id":"4cc28d75-d072-422e-8a61-776850812d19","system_id":"levelo_inurba_marseille","lat":43.26566,"lon":5.37285,"is_reserved":false,"is_disabled":false,"rental_uris":{"android":"levelo://app?vid=4cc28d75-d072-422e-8a61-776850812d19","ios":"levelo://app?vid=4cc28d75-d072-422e-8a61-776850812d19"},"vehicle_type_id":"4","last_reported":1749841672,"current_range_meters":14400,"station_id":"ce4bhg12rcd13ifvqf70","pricing_plan_id":"cebpf4jnsgd1na2vs0mg"},{"bike_id":"7268c621-5cb6-4244-9154-f2b1a685c6fd","system_id":"levelo_inurba_marseille","lat":43.26389,"lon":5.37808,"is_reserved":false,"is_disabled":false,"rental_uris":{"android":"levelo://app?vid=7268c621-5cb6-4244-9154-f2b1a685c6fd","ios":"levelo://app?vid=7268c621-5cb6-4244-9154-f2b1a685c6fd"},"vehicle_type_id":"4","last_reported":1749841672,"current_range_meters":14400,"station_id":"st_d163nis0mtpqnht9uue0","pricing_plan_id":"cebpf4jnsgd1na2vs0mg"},{"bike_id":"753e73bc-6831-4a7a-97f7-e1221d3ed1b4","system_id":"levelo_inurba_marseille","lat":43.26354,"lon":5.37832,"is_reserved":false,"is_disabled":false,"rental_uris":{"android":"levelo://app?vid=753e73bc-6831-4a7a-97f7-e1221d3ed1b4","ios":"levelo://app?vid=753e73bc-6831-4a7a-97f7-e1221d3ed1b4"},"vehicle_type_id":"4","last_reported":1749841672,"current_range_meters":14400,"station_id":"st_d163nis0mtpqnht9uue0","pricing_plan_id":"cebpf4jnsgd1na2vs0mg"},{"bike_id":"7735772a-7d0b-4197-9827-c53faa24efe1","system_id":"levelo_inurba_marseille","lat":43.31698,"lon":5.40475,"is_reserved":false,"is_disabled":false,"rental_uris":{"android":"levelo://app?vid=7735772a-7d0b-4197-9827-c53faa24efe1","ios":"levelo://app?vid=7735772a-7d0b-4197-9827-c53faa24efe1"},"vehicle_type_id":"4","last_reported":1749841672,"current_range_meters":14800,"station_id":"ce4bh012rcd13ifvqd00","pricing_plan_id":"cebpf4jnsgd1na2vs0mg"},{"bike_id":"1ca60ba6-7cc7-4bdc-b1c6-c80d89a8225b","system_id":"levelo_inurba_marseille","lat":43.24651,"lon":5.38891,"is_reserved":false,"is_disabled":false,"rental_uris":{"android":"levelo://app?vid=1ca60ba6-7cc7-4bdc-b1c6-c80d89a8225b","ios":"levelo://app?vid=1ca60ba6-7cc7-4bdc-b1c6-c80d89a8225b"},"vehicle_type_id":"4","last_reported":1749841672,"current_range_meters":14800,"station_id":"ce4bhg12rcd13ifvqf60","pricing_plan_id":"cebpf4jnsgd1na2vs0mg"},{"bike_id":"b6e71304-3dca-4100-858d-83f1e09c14a7","system_id":"levelo_inurba_marseille","lat":43.2552,"lon":5.37641,"is_reserved":false,"is_disabled":false,"rental_uris":{"android":"levelo://app?vid=b6e71304-3dca-4100-858d-83f1e09c14a7","ios":"levelo://app?vid=b6e71304-3dca-4100-858d-83f1e09c14a7"},"vehicle_type_id":"4","last_reported":1749841672,"current_range_meters":14800,"station_id":"ce4bhh12rcd13ifvqff0","pricing_plan_id":"cebpf4jnsgd1na2vs0mg"},{"bike_id":"e2377f74-5460-4188-8a2c-da4f27355bf8","system_id":"levelo_inurba_marseille","lat":43.29521,"lon":5.39047,"is_reserved":false,"is_disabled":false,"rental_uris":{"android":"levelo://app?vid=e2377f74-5460-4188-8a2c-da4f27355bf8","ios":"levelo://app?vid=e2377f74-5460-4188-8a2c-da4f27355bf8"},"vehicle_type_id":"4","last_reported":1749841672,"current_range_meters":15200,"station_id":"ce4bh3p2rcd13ifvqdp0","pricing_plan_id":"cebpf4jnsgd1na2vs0mg"},{"bike_id":"9ac75b6b-3568-4ae1-810d-45bb3713c9e0","system_id":"levelo_inurba_marseille","lat":43.26031,"lon":5.37546,"is_reserved":false,"is_disabled":false,"rental_uris":{"android":"levelo://app?vid=9ac75b6b-3568-4ae1-810d-45bb3713c9e0","ios":"levelo://app?vid=9ac75b6b-3568-4ae1-810d-45bb3713c9e0"},"vehicle_type_id":"4","last_reported":1749841672,"current_range_meters":15200,"station_id":"ce4bhgh2rcd13ifvqfa0","pricing_plan_id":"cebpf4jnsgd1na2vs0mg"},{"bike_id":"4cd6c619-b769-44f8-97cb-d908608b0eae","system_id":"levelo_inurba_marseille","lat":43.25828,"lon":5.39439,"is_reserved":false,"is_disabled":false,"rental_uris":{"android":"levelo://app?vid=4cd6c619-b769-44f8-97cb-d908608b0eae","ios":"levelo://app?vid=4cd6c619-b769-44f8-97cb-d908608b0eae"},"vehicle_type_id":"4","last_reported":1749841672,"current_range_meters":15200,"station_id":"ce4bhip2rcd13ifvqft0","pricing_plan_id":"cebpf4jnsgd1na2vs0mg"},{"bike_id":"48074d0f-356e-49b9-86c2-c4341b8671ec","system_id":"levelo_inurba_marseille","lat":43.263419,"lon":5.378216,"is_reserved":false,"is_disabled":false,"rental_uris":{"android":"levelo://app?vid=48074d0f-356e-49b9-86c2-c4341b8671ec","ios":"levelo://app?vid=48074d0f-356e-49b9-86c2-c4341b8671ec"},"vehicle_type_id":"4","last_reported":1749841672,"current_range_meters":15200,"station_id":"st_d163nis0mtpqnht9uue0","pricing_plan_id":"cebpf4jnsgd1na2vs0mg"},{"bike_id":"3dabda76-5851-41a0-baf4-79d31500626e","system_id":"levelo_inurba_marseille","lat":43.26367,"lon":5.3783,"is_reserved":false,"is_disabled":false,"rental_uris":{"android":"levelo://app?vid=3dabda76-5851-41a0-baf4-79d31500626e","ios":"levelo://app?vid=3dabda76-5851-41a0-baf4-79d31500626e"},"vehicle_type_id":"4","last_reported":1749841672,"current_range_meters":15200,"station_id":"st_d163nis0mtpqnht9uue0","pricing_plan_id":"cebpf4jnsgd1na2vs0mg"},{"bike_id":"ebe59bec-f743-4761-9b95-7d2394f1338d","system_id":"levelo_inurba_marseille","lat":43.26364,"lon":5.37785,"is_reserved":false,"is_disabled":false,"rental_uris":{"android":"levelo://app?vid=ebe59bec-f743-4761-9b95-7d2394f1338d","ios":"levelo://app?vid=ebe59bec-f743-4761-9b95-7d2394f1338d"},"vehicle_type_id":"4","last_reported":1749841672,"current_range_meters":15200,"station_id":"st_d163nis0mtpqnht9uue0","pricing_plan_id":"cebpf4jnsgd1na2vs0mg"},{"bike_id":"728ed0ea-3697-464c-8813-a999217e161f","system_id":"levelo_inurba_marseille","lat":43.2636,"lon":5.37815,"is_reserved":false,"is_disabled":false,"rental_uris":{"android":"levelo://app?vid=728ed0ea-3697-464c-8813-a999217e161f","ios":"levelo://app?vid=728ed0ea-3697-464c-8813-a999217e161f"},"vehicle_type_id":"4","last_reported":1749841672,"current_range_meters":15200,"station_id":"st_d163nis0mtpqnht9uue0","pricing_plan_id":"cebpf4jnsgd1na2vs0mg"},{"bike_id":"2ab31527-f915-4286-b3a0-0beafd2cdd50","system_id":"levelo_inurba_marseille","lat":43.3002,"lon":5.37006,"is_reserved":false,"is_disabled":false,"rental_uris":{"android":"levelo://app?vid=2ab31527-f915-4286-b3a0-0beafd2cdd50","ios":"levelo://app?vid=2ab31527-f915-4286-b3a0-0beafd2cdd50"},"vehicle_type_id":"4","last_reported":1749841672,"current_range_meters":16000,"station_id":"","pricing_plan_id":"cebpf4jnsgd1na2vs0mg"},{"bike_id":"063835a7-337f-4622-8155-e8a608a2acfb","system_id":"levelo_inurba_marseille","lat":43.26687,"lon":5.38274,"is_reserved":false,"is_disabled":false,"rental_uris":{"android":"levelo://app?vid=063835a7-337f-4622-8155-e8a608a2acfb","ios":"levelo://app?vid=063835a7-337f-4622-8155-e8a608a2acfb"},"vehicle_type_id":"4","last_reported":1749841672,"current_range_meters":16000,"station_id":"ce4bhg92rcd13ifvqf90","pricing_plan_id":"cebpf4jnsgd1na2vs0mg"},{"bike_id":"31236f4a-a4c7-430d-ba6c-ef409dcc804b","system_id":"levelo_inurba_marseille","lat":43.2396,"lon":5.36628,"is_reserved":false,"is_disabled":false,"rental_uris":{"android":"levelo://app?vid=31236f4a-a4c7-430d-ba6c-ef409dcc804b","ios":"levelo://app?vid=31236f4a-a4c7-430d-ba6c-ef409dcc804b"},"vehicle_type_id":"4","last_reported":1749841672,"current_range_meters":16000,"station_id":"ce4bhi12rcd13ifvqfp0","pricing_plan_id":"cebpf4jnsgd1na2vs0mg"},{"bike_id":"d649b813-3558-4a93-a901-ce051f370818","system_id":"levelo_inurba_marseille","lat":43.26227,"lon":5.40452,"is_reserved":false,"is_disabled":false,"rental_uris":{"android":"levelo://app?vid=d649b813-3558-4a93-a901-ce051f370818","ios":"levelo://app?vid=d649b813-3558-4a93-a901-ce051f370818"},"vehicle_type_id":"4","last_reported":1749841672,"current_range_meters":16000,"station_id":"ce4bhmh2rcd13ifvqgmg","pricing_plan_id":"cebpf4jnsgd1na2vs0mg"},{"bike_id":"a9edbc5d-23e0-409c-8d5b-ba46e8f4b01d","system_id":"levelo_inurba_marseille","lat":43.28078,"lon":5.39655,"is_reserved":false,"is_disabled":false,"rental_uris":{"android":"levelo://app?vid=a9edbc5d-23e0-409c-8d5b-ba46e8f4b01d","ios":"levelo://app?vid=a9edbc5d-23e0-409c-8d5b-ba46e8f4b01d"},"vehicle_type_id":"4","last_reported":1749841672,"current_range_meters":16000,"station_id":"ce4bho12rcd13ifvqh2g","pricing_plan_id":"cebpf4jnsgd1na2vs0mg"},{"bike_id":"02e2acf6-9a6d-40ff-9e28-6554db625d8f","system_id":"levelo_inurba_marseille","lat":43.32286,"lon":5.38279,"is_reserved":false,"is_disabled":false,"rental_uris":{"android":"levelo://app?vid=02e2acf6-9a6d-40ff-9e28-6554db625d8f","ios":"levelo://app?vid=02e2acf6-9a6d-40ff-9e28-6554db625d8f"},"vehicle_type_id":"4","last_reported":1749841672,"current_range_meters":16000,"station_id":"ce4bhr12rcd13ifvqhqg","pricing_plan_id":"cebpf4jnsgd1na2vs0mg"},{"bike_id":"f3ec16b2-8afd-4ecb-8d58-15a6a90ff603","system_id":"levelo_inurba_marseille","lat":43.3236,"lon":5.36775,"is_reserved":false,"is_disabled":false,"rental_uris":{"android":"levelo://app?vid=f3ec16b2-8afd-4ecb-8d58-15a6a90ff603","ios":"levelo://app?vid=f3ec16b2-8afd-4ecb-8d58-15a6a90ff603"},"vehicle_type_id":"4","last_reported":1749841672,"current_range_meters":16000,"station_id":"ce4bhsh2rcd13ifvqi2g","pricing_plan_id":"cebpf4jnsgd1na2vs0mg"},{"bike_id":"56233741-31ff-40be-a5a3-73497c429920","system_id":"levelo_inurba_marseille","lat":43.26376,"lon":5.37814,"is_reserved":false,"is_disabled":false,"rental_uris":{"android":"levelo://app?vid=56233741-31ff-40be-a5a3-73497c429920","ios":"levelo://app?vid=56233741-31ff-40be-a5a3-73497c429920"},"vehicle_type_id":"4","last_reported":1749841672,"current_range_meters":16000,"station_id":"st_d163nis0mtpqnht9uue0","pricing_plan_id":"cebpf4jnsgd1na2vs0mg"},{"bike_id":"7cbd5fc2-e8cd-4c6f-a325-4cd477a97a22","system_id":"levelo_inurba_marseille","lat":43.26346,"lon":5.37825,"is_reserved":false,"is_disabled":false,"rental_uris":{"android":"levelo://app?vid=7cbd5fc2-e8cd-4c6f-a325-4cd477a97a22","ios":"levelo://app?vid=7cbd5fc2-e8cd-4c6f-a325-4cd477a97a22"},"vehicle_type_id":"4","last_reported":1749841672,"current_range_meters":16000,"station_id":"st_d163nis0mtpqnht9uue0","pricing_plan_id":"cebpf4jnsgd1na2vs0mg"},{"bike_id":"ee4377a1-7bb1-4b28-b45c-f03a13297c21","system_id":"levelo_inurba_marseille","lat":43.2953,"lon":5.39032,"is_reserved":false,"is_disabled":false,"rental_uris":{"android":"levelo://app?vid=ee4377a1-7bb1-4b28-b45c-f03a13297c21","ios":"levelo://app?vid=ee4377a1-7bb1-4b28-b45c-f03a13297c21"},"vehicle_type_id":"4","last_reported":1749841672,"current_range_meters":16400,"station_id":"ce4bh3p2rcd13ifvqdp0","pricing_plan_id":"cebpf4jnsgd1na2vs0mg"},{"bike_id":"03a16a19-5e22-463d-9ef8-545cef0d2f0c","system_id":"levelo_inurba_marseille","lat":43.26668,"lon":5.38265,"is_reserved":false,"is_disabled":false,"rental_uris":{"android":"levelo://app?vid=03a16a19-5e22-463d-9ef8-545cef0d2f0c","ios":"levelo://app?vid=03a16a19-5e22-463d-9ef8-545cef0d2f0c"},"vehicle_type_id":"4","last_reported":1749841672,"current_range_meters":16400,"station_id":"ce4bhg92rcd13ifvqf90","pricing_plan_id":"cebpf4jnsgd1na2vs0mg"},{"bike_id":"7e10885a-9923-4a92-8e7b-f3e864c347fb","system_id":"levelo_inurba_marseille","lat":43.32113,"lon":5.3677,"is_reserved":false,"is_disabled":false,"rental_uris":{"android":"levelo://app?vid=7e10885a-9923-4a92-8e7b-f3e864c347fb","ios":"levelo://app?vid=7e10885a-9923-4a92-8e7b-f3e864c347fb"},"vehicle_type_id":"4","last_reported":1749841672,"current_range_meters":16400,"station_id":"ce4bhrh2rcd13ifvqhug","pricing_plan_id":"cebpf4jnsgd1na2vs0mg"},{"bike_id":"4677959a-9c54-4339-89ba-9681db4eb510","system_id":"levelo_inurba_marseille","lat":43.26381,"lon":5.37796,"is_reserved":false,"is_disabled":false,"rental_uris":{"android":"levelo://app?vid=4677959a-9c54-4339-89ba-9681db4eb510","ios":"levelo://app?vid=4677959a-9c54-4339-89ba-9681db4eb510"},"vehicle_type_id":"4","last_reported":1749841672,"current_range_meters":16400,"station_id":"st_d163nis0mtpqnht9uue0","pricing_plan_id":"cebpf4jnsgd1na2vs0mg"},{"bike_id":"4f1242de-5be0-4238-9798-f6a6bc84c382","system_id":"levelo_inurba_marseille","lat":43.26366,"lon":5.37814,"is_reserved":false,"is_disabled":false,"rental_uris":{"android":"levelo://app?vid=4f1242de-5be0-4238-9798-f6a6bc84c382","ios":"levelo://app?vid=4f1242de-5be0-4238-9798-f6a6bc84c382"},"vehicle_type_id":"4","last_reported":1749841672,"current_range_meters":16400,"station_id":"st_d163nis0mtpqnht9uue0","pricing_plan_id":"cebpf4jnsgd1na2vs0mg"},{"bike_id":"35b32562-4da0-4a35-aa84-7009237165f6","system_id":"levelo_inurba_marseille","lat":43.26355,"lon":5.37818,"is_reserved":false,"is_disabled":false,"rental_uris":{"android":"levelo://app?vid=35b32562-4da0-4a35-aa84-7009237165f6","ios":"levelo://app?vid=35b32562-4da0-4a35-aa84-7009237165f6"},"vehicle_type_id":"4","last_reported":1749841672,"current_range_meters":16400,"station_id":"st_d163nis0mtpqnht9uue0","pricing_plan_id":"cebpf4jnsgd1na2vs0mg"},{"bike_id":"87c270dc-4fcf-4263-8f57-a07ca944f869","system_id":"levelo_inurba_marseille","lat":43.30127,"lon":5.3987,"is_reserved":false,"is_disabled":false,"rental_uris":{"android":"levelo://app?vid=87c270dc-4fcf-4263-8f57-a07ca944f869","ios":"levelo://app?vid=87c270dc-4fcf-4263-8f57-a07ca944f869"},"vehicle_type_id":"4","last_reported":1749841672,"current_range_meters":16800,"station_id":"ce4bh0h2rcd13ifvqd40","pricing_plan_id":"cebpf4jnsgd1na2vs0mg"},{"bike_id":"c6f66d1d-c350-4679-9d72-b39719ef33d8","system_id":"levelo_inurba_marseille","lat":43.28428,"lon":5.375,"is_reserved":false,"is_disabled":false,"rental_uris":{"android":"levelo://app?vid=c6f66d1d-c350-4679-9d72-b39719ef33d8","ios":"levelo://app?vid=c6f66d1d-c350-4679-9d72-b39719ef33d8"},"vehicle_type_id":"4","last_reported":1749841672,"current_range_meters":16800,"station_id":"ce4bh412rcd13ifvqds0","pricing_plan_id":"cebpf4jnsgd1na2vs0mg"},{"bike_id":"a1cc8b28-81f6-4d33-969a-f7cac784b2c4","system_id":"levelo_inurba_marseille","lat":43.26373,"lon":5.37814,"is_reserved":false,"is_disabled":false,"rental_uris":{"android":"levelo://app?vid=a1cc8b28-81f6-4d33-969a-f7cac784b2c4","ios":"levelo://app?vid=a1cc8b28-81f6-4d33-969a-f7cac784b2c4"},"vehicle_type_id":"4","last_reported":1749841672,"current_range_meters":16800,"station_id":"st_d163nis0mtpqnht9uue0","pricing_plan_id":"cebpf4jnsgd1na2vs0mg"},{"bike_id":"3f4f7019-dfcf-483a-a9f1-fe1a0a3dc7b4","system_id":"levelo_inurba_marseille","lat":43.2636,"lon":5.37816,"is_reserved":false,"is_disabled":false,"rental_uris":{"android":"levelo://app?vid=3f4f7019-dfcf-483a-a9f1-fe1a0a3dc7b4","ios":"levelo://app?vid=3f4f7019-dfcf-483a-a9f1-fe1a0a3dc7b4"},"vehicle_type_id":"4","last_reported":1749841672,"current_range_meters":16800,"station_id":"st_d163nis0mtpqnht9uue0","pricing_plan_id":"cebpf4jnsgd1na2vs0mg"},{"bike_id":"f1005b01-8f55-44b4-ab96-3f0c9de76c59","system_id":"levelo_inurba_marseille","lat":43.2638,"lon":5.37813,"is_reserved":false,"is_disabled":false,"rental_uris":{"android":"levelo://app?vid=f1005b01-8f55-44b4-ab96-3f0c9de76c59","ios":"levelo://app?vid=f1005b01-8f55-44b4-ab96-3f0c9de76c59"},"vehicle_type_id":"4","last_reported":1749841672,"current_range_meters":16800,"station_id":"st_d163nis0mtpqnht9uue0","pricing_plan_id":"cebpf4jnsgd1na2vs0mg"},{"bike_id":"a782a6d4-9ce0-4ab5-a561-38cc53edc129","system_id":"levelo_inurba_marseille","lat":43.26348,"lon":5.37836,"is_reserved":false,"is_disabled":false,"rental_uris":{"android":"levelo://app?vid=a782a6d4-9ce0-4ab5-a561-38cc53edc129","ios":"levelo://app?vid=a782a6d4-9ce0-4ab5-a561-38cc53edc129"},"vehicle_type_id":"4","last_reported":1749841672,"current_range_meters":16800,"station_id":"st_d163nis0mtpqnht9uue0","pricing_plan_id":"cebpf4jnsgd1na2vs0mg"},{"bike_id":"29c27d89-c7ed-4bef-821f-0a60c5b57bff","system_id":"levelo_inurba_marseille","lat":43.26424,"lon":5.37787,"is_reserved":false,"is_disabled":false,"rental_uris":{"android":"levelo://app?vid=29c27d89-c7ed-4bef-821f-0a60c5b57bff","ios":"levelo://app?vid=29c27d89-c7ed-4bef-821f-0a60c5b57bff"},"vehicle_type_id":"4","last_reported":1749841672,"current_range_meters":17200,"station_id":"","pricing_plan_id":"cebpf4jnsgd1na2vs0mg"},{"bike_id":"0d7b9036-e13c-4feb-83e2-65fa66321135","system_id":"levelo_inurba_marseille","lat":43.29705,"lon":5.36611,"is_reserved":false,"is_disabled":false,"rental_uris":{"android":"levelo://app?vid=0d7b9036-e13c-4feb-83e2-65fa66321135","ios":"levelo://app?vid=0d7b9036-e13c-4feb-83e2-65fa66321135"},"vehicle_type_id":"4","last_reported":1749841672,"current_range_meters":17200,"station_id":"ce4bgn12rcd13ifvqbt0","pricing_plan_id":"cebpf4jnsgd1na2vs0mg"},{"bike_id":"51e385ee-ffb3-4c76-8b71-9508cd52db80","system_id":"levelo_inurba_marseille","lat":43.3095,"lon":5.39027,"is_reserved":false,"is_disabled":false,"rental_uris":{"android":"levelo://app?vid=51e385ee-ffb3-4c76-8b71-9508cd52db80","ios":"levelo://app?vid=51e385ee-ffb3-4c76-8b71-9508cd52db80"},"vehicle_type_id":"4","last_reported":1749841672,"current_range_meters":17200,"station_id":"ce4bgup2rcd13ifvqco0","pricing_plan_id":"cebpf4jnsgd1na2vs0mg"},{"bike_id":"76c39d56-f800-406f-bb96-c729e4a92366","system_id":"levelo_inurba_marseille","lat":43.29219,"lon":5.36065,"is_reserved":false,"is_disabled":false,"rental_uris":{"android":"levelo://app?vid=76c39d56-f800-406f-bb96-c729e4a92366","ios":"levelo://app?vid=76c39d56-f800-406f-bb96-c729e4a92366"},"vehicle_type_id":"4","last_reported":1749841672,"current_range_meters":17200,"station_id":"ce4bhbh2rcd13ifvqeqg","pricing_plan_id":"cebpf4jnsgd1na2vs0mg"},{"bike_id":"e6c55671-c4dd-410b-a854-7a0d203aebdd","system_id":"levelo_inurba_marseille","lat":43.26683,"lon":5.38279,"is_reserved":false,"is_disabled":false,"rental_uris":{"android":"levelo://app?vid=e6c55671-c4dd-410b-a854-7a0d203aebdd","ios":"levelo://app?vid=e6c55671-c4dd-410b-a854-7a0d203aebdd"},"vehicle_type_id":"4","last_reported":1749841672,"current_range_meters":17200,"station_id":"ce4bhg92rcd13ifvqf90","pricing_plan_id":"cebpf4jnsgd1na2vs0mg"},{"bike_id":"d0e0617d-5016-40ba-b4c5-1a83d3add731","system_id":"levelo_inurba_marseille","lat":43.32365,"lon":5.36763,"is_reserved":false,"is_disabled":false,"rental_uris":{"android":"levelo://app?vid=d0e0617d-5016-40ba-b4c5-1a83d3add731","ios":"levelo://app?vid=d0e0617d-5016-40ba-b4c5-1a83d3add731"},"vehicle_type_id":"4","last_reported":1749841672,"current_range_meters":17200,"station_id":"ce4bhsh2rcd13ifvqi2g","pricing_plan_id":"cebpf4jnsgd1na2vs0mg"},{"bike_id":"15cfeff9-a451-4f65-b207-f4cb3c3aea75","system_id":"levelo_inurba_marseille","lat":43.2604,"lon":5.3754,"is_reserved":false,"is_disabled":false,"rental_uris":{"android":"levelo://app?vid=15cfeff9-a451-4f65-b207-f4cb3c3aea75","ios":"levelo://app?vid=15cfeff9-a451-4f65-b207-f4cb3c3aea75"},"vehicle_type_id":"4","last_reported":1749841672,"current_range_meters":17600,"station_id":"ce4bhgh2rcd13ifvqfa0","pricing_plan_id":"cebpf4jnsgd1na2vs0mg"},{"bike_id":"178f6147-af2d-4495-b2ad-0005e23bce1f","system_id":"levelo_inurba_marseille","lat":43.24385,"lon":5.37081,"is_reserved":false,"is_disabled":false,"rental_uris":{"android":"levelo://app?vid=178f6147-af2d-4495-b2ad-0005e23bce1f","ios":"levelo://app?vid=178f6147-af2d-4495-b2ad-0005e23bce1f"},"vehicle_type_id":"4","last_reported":1749841672,"current_range_meters":17600,"station_id":"ce4bhhh2rcd13ifvqfk0","pricing_plan_id":"cebpf4jnsgd1na2vs0mg"},{"bike_id":"82df3644-ed48-4508-9cb4-298830d5be86","system_id":"levelo_inurba_marseille","lat":43.26926,"lon":5.38916,"is_reserved":false,"is_disabled":false,"rental_uris":{"android":"levelo://app?vid=82df3644-ed48-4508-9cb4-298830d5be86","ios":"levelo://app?vid=82df3644-ed48-4508-9cb4-298830d5be86"},"vehicle_type_id":"4","last_reported":1749841672,"current_range_meters":17600,"station_id":"ce4bhhh2rcd13ifvqfl0","pricing_plan_id":"cebpf4jnsgd1na2vs0mg"},{"bike_id":"90db9dd3-85b8-440a-9660-3fd082ab45db","system_id":"levelo_inurba_marseille","lat":43.320348,"lon":5.415601,"is_reserved":false,"is_disabled":false,"rental_uris":{"android":"levelo://app?vid=90db9dd3-85b8-440a-9660-3fd082ab45db","ios":"levelo://app?vid=90db9dd3-85b8-440a-9660-3fd082ab45db"},"vehicle_type_id":"4","last_reported":1749841672,"current_range_meters":17600,"station_id":"ce4bhq92rcd13ifvqhkg","pricing_plan_id":"cebpf4jnsgd1na2vs0mg"},{"bike_id":"ccb9975b-34a8-47da-b755-e17344ae18d3","system_id":"levelo_inurba_marseille","lat":43.23184,"lon":5.35568,"is_reserved":false,"is_disabled":false,"rental_uris":{"android":"levelo://app?vid=ccb9975b-34a8-47da-b755-e17344ae18d3","ios":"levelo://app?vid=ccb9975b-34a8-47da-b755-e17344ae18d3"},"vehicle_type_id":"4","last_reported":1749841672,"current_range_meters":17600,"station_id":"ce4bhu92rcd13ifvqi70","pricing_plan_id":"cebpf4jnsgd1na2vs0mg"},{"bike_id":"71c8ac06-9e14-4d6d-9d21-09d82ffe112d","system_id":"levelo_inurba_marseille","lat":43.263495,"lon":5.378184,"is_reserved":false,"is_disabled":false,"rental_uris":{"android":"levelo://app?vid=71c8ac06-9e14-4d6d-9d21-09d82ffe112d","ios":"levelo://app?vid=71c8ac06-9e14-4d6d-9d21-09d82ffe112d"},"vehicle_type_id":"4","last_reported":1749841672,"current_range_meters":17600,"station_id":"st_d163nis0mtpqnht9uue0","pricing_plan_id":"cebpf4jnsgd1na2vs0mg"},{"bike_id":"65e007e7-79f9-4d82-936b-ef1255ec5063","system_id":"levelo_inurba_marseille","lat":43.26392,"lon":5.37792,"is_reserved":false,"is_disabled":false,"rental_uris":{"android":"levelo://app?vid=65e007e7-79f9-4d82-936b-ef1255ec5063","ios":"levelo://app?vid=65e007e7-79f9-4d82-936b-ef1255ec5063"},"vehicle_type_id":"4","last_reported":1749841672,"current_range_meters":17600,"station_id":"st_d163nis0mtpqnht9uue0","pricing_plan_id":"cebpf4jnsgd1na2vs0mg"},{"bike_id":"d1d71dc0-adcb-4ecb-aecf-ff7705c15817","system_id":"levelo_inurba_marseille","lat":43.26376,"lon":5.378,"is_reserved":false,"is_disabled":false,"rental_uris":{"android":"levelo://app?vid=d1d71dc0-adcb-4ecb-aecf-ff7705c15817","ios":"levelo://app?vid=d1d71dc0-adcb-4ecb-aecf-ff7705c15817"},"vehicle_type_id":"4","last_reported":1749841672,"current_range_meters":17600,"station_id":"st_d163nis0mtpqnht9uue0","pricing_plan_id":"cebpf4jnsgd1na2vs0mg"},{"bike_id":"027d7d4a-bd12-4465-afe5-6e4f0afa23c1","system_id":"levelo_inurba_marseille","lat":43.26393,"lon":5.37791,"is_reserved":false,"is_disabled":false,"rental_uris":{"android":"levelo://app?vid=027d7d4a-bd12-4465-afe5-6e4f0afa23c1","ios":"levelo://app?vid=027d7d4a-bd12-4465-afe5-6e4f0afa23c1"},"vehicle_type_id":"4","last_reported":1749841672,"current_range_meters":17600,"station_id":"st_d163nis0mtpqnht9uue0","pricing_plan_id":"cebpf4jnsgd1na2vs0mg"},{"bike_id":"eec0b334-c579-4082-97b5-ab3ee69d5c49","system_id":"levelo_inurba_marseille","lat":43.26338,"lon":5.37826,"is_reserved":false,"is_disabled":false,"rental_uris":{"android":"levelo://app?vid=eec0b334-c579-4082-97b5-ab3ee69d5c49","ios":"levelo://app?vid=eec0b334-c579-4082-97b5-ab3ee69d5c49"},"vehicle_type_id":"4","last_reported":1749841672,"current_range_meters":17600,"station_id":"st_d163nis0mtpqnht9uue0","pricing_plan_id":"cebpf4jnsgd1na2vs0mg"},{"bike_id":"452dac50-d163-4c15-9f92-5dbb96ab7a64","system_id":"levelo_inurba_marseille","lat":43.26362,"lon":5.3781,"is_reserved":false,"is_disabled":false,"rental_uris":{"android":"levelo://app?vid=452dac50-d163-4c15-9f92-5dbb96ab7a64","ios":"levelo://app?vid=452dac50-d163-4c15-9f92-5dbb96ab7a64"},"vehicle_type_id":"4","last_reported":1749841672,"current_range_meters":17600,"station_id":"st_d163nis0mtpqnht9uue0","pricing_plan_id":"cebpf4jnsgd1na2vs0mg"},{"bike_id":"f76666c9-ae73-435e-98e1-6815c1e3f0f1","system_id":"levelo_inurba_marseille","lat":43.26374,"lon":5.37801,"is_reserved":false,"is_disabled":false,"rental_uris":{"android":"levelo://app?vid=f76666c9-ae73-435e-98e1-6815c1e3f0f1","ios":"levelo://app?vid=f76666c9-ae73-435e-98e1-6815c1e3f0f1"},"vehicle_type_id":"4","last_reported":1749841672,"current_range_meters":17600,"station_id":"st_d163nis0mtpqnht9uue0","pricing_plan_id":"cebpf4jnsgd1na2vs0mg"},{"bike_id":"f2a3c08d-d79f-4873-8200-9a05f1ee106b","system_id":"levelo_inurba_marseille","lat":43.2905,"lon":5.42178,"is_reserved":false,"is_disabled":false,"rental_uris":{"android":"levelo://app?vid=f2a3c08d-d79f-4873-8200-9a05f1ee106b","ios":"levelo://app?vid=f2a3c08d-d79f-4873-8200-9a05f1ee106b"},"vehicle_type_id":"4","last_reported":1749841672,"current_range_meters":18000,"station_id":"","pricing_plan_id":"cebpf4jnsgd1na2vs0mg"},{"bike_id":"8598b339-1b9d-48e7-9037-fda407af4a61","system_id":"levelo_inurba_marseille","lat":43.26045,"lon":5.3753,"is_reserved":false,"is_disabled":false,"rental_uris":{"android":"levelo://app?vid=8598b339-1b9d-48e7-9037-fda407af4a61","ios":"levelo://app?vid=8598b339-1b9d-48e7-9037-fda407af4a61"},"vehicle_type_id":"4","last_reported":1749841672,"current_range_meters":18000,"station_id":"ce4bhgh2rcd13ifvqfa0","pricing_plan_id":"cebpf4jnsgd1na2vs0mg"},{"bike_id":"76912eeb-824f-4a50-87a5-38684fc95314","system_id":"levelo_inurba_marseille","lat":43.26027,"lon":5.37542,"is_reserved":false,"is_disabled":false,"rental_uris":{"android":"levelo://app?vid=76912eeb-824f-4a50-87a5-38684fc95314","ios":"levelo://app?vid=76912eeb-824f-4a50-87a5-38684fc95314"},"vehicle_type_id":"4","last_reported":1749841672,"current_range_meters":18000,"station_id":"ce4bhgh2rcd13ifvqfa0","pricing_plan_id":"cebpf4jnsgd1na2vs0mg"},{"bike_id":"a3dd4e6b-e1d8-422b-868a-f495974f6227","system_id":"levelo_inurba_marseille","lat":43.31886,"lon":5.40734,"is_reserved":false,"is_disabled":false,"rental_uris":{"android":"levelo://app?vid=a3dd4e6b-e1d8-422b-868a-f495974f6227","ios":"levelo://app?vid=a3dd4e6b-e1d8-422b-868a-f495974f6227"},"vehicle_type_id":"4","last_reported":1749841672,"current_range_meters":18000,"station_id":"ce4bhq12rcd13ifvqhig","pricing_plan_id":"cebpf4jnsgd1na2vs0mg"},{"bike_id":"7f8ef97d-dc2f-455c-ad18-39ae7869f722","system_id":"levelo_inurba_marseille","lat":43.263481,"lon":5.378217,"is_reserved":false,"is_disabled":false,"rental_uris":{"android":"levelo://app?vid=7f8ef97d-dc2f-455c-ad18-39ae7869f722","ios":"levelo://app?vid=7f8ef97d-dc2f-455c-ad18-39ae7869f722"},"vehicle_type_id":"4","last_reported":1749841672,"current_range_meters":18000,"station_id":"st_d163nis0mtpqnht9uue0","pricing_plan_id":"cebpf4jnsgd1na2vs0mg"},{"bike_id":"68a8bc53-21bd-459b-adb2-97bc642a655a","system_id":"levelo_inurba_marseille","lat":43.2635,"lon":5.37814,"is_reserved":false,"is_disabled":false,"rental_uris":{"android":"levelo://app?vid=68a8bc53-21bd-459b-adb2-97bc642a655a","ios":"levelo://app?vid=68a8bc53-21bd-459b-adb2-97bc642a655a"},"vehicle_type_id":"4","last_reported":1749841672,"current_range_meters":18000,"station_id":"st_d163nis0mtpqnht9uue0","pricing_plan_id":"cebpf4jnsgd1na2vs0mg"},{"bike_id":"d21e1f51-67a4-4555-995c-3bc1987df834","system_id":"levelo_inurba_marseille","lat":43.26364,"lon":5.37818,"is_reserved":false,"is_disabled":false,"rental_uris":{"android":"levelo://app?vid=d21e1f51-67a4-4555-995c-3bc1987df834","ios":"levelo://app?vid=d21e1f51-67a4-4555-995c-3bc1987df834"},"vehicle_type_id":"4","last_reported":1749841672,"current_range_meters":18000,"station_id":"st_d163nis0mtpqnht9uue0","pricing_plan_id":"cebpf4jnsgd1na2vs0mg"},{"bike_id":"8f4b1be5-4855-416f-ae4c-d80b35dcdc3b","system_id":"levelo_inurba_marseille","lat":43.301816,"lon":5.366291,"is_reserved":false,"is_disabled":false,"rental_uris":{"android":"levelo://app?vid=8f4b1be5-4855-416f-ae4c-d80b35dcdc3b","ios":"levelo://app?vid=8f4b1be5-4855-416f-ae4c-d80b35dcdc3b"},"vehicle_type_id":"4","last_reported":1749841672,"current_range_meters":18800,"station_id":"ce4bgrh2rcd13ifvqc8g","pricing_plan_id":"cebpf4jnsgd1na2vs0mg"},{"bike_id":"f3beb9c1-eac5-4c7f-bbd8-1b5e203f504e","system_id":"levelo_inurba_marseille","lat":43.30951,"lon":5.39049,"is_reserved":false,"is_disabled":false,"rental_uris":{"android":"levelo://app?vid=f3beb9c1-eac5-4c7f-bbd8-1b5e203f504e","ios":"levelo://app?vid=f3beb9c1-eac5-4c7f-bbd8-1b5e203f504e"},"vehicle_type_id":"4","last_reported":1749841672,"current_range_meters":18800,"station_id":"ce4bgup2rcd13ifvqco0","pricing_plan_id":"cebpf4jnsgd1na2vs0mg"},{"bike_id":"50f9e172-d6a7-48a5-b73c-366ae6dd42cc","system_id":"levelo_inurba_marseille","lat":43.26038,"lon":5.37543,"is_reserved":false,"is_disabled":false,"rental_uris":{"android":"levelo://app?vid=50f9e172-d6a7-48a5-b73c-366ae6dd42cc","ios":"levelo://app?vid=50f9e172-d6a7-48a5-b73c-366ae6dd42cc"},"vehicle_type_id":"4","last_reported":1749841672,"current_range_meters":18800,"station_id":"ce4bhgh2rcd13ifvqfa0","pricing_plan_id":"cebpf4jnsgd1na2vs0mg"},{"bike_id":"5229ce12-5c01-411d-91ef-2027e4467204","system_id":"levelo_inurba_marseille","lat":43.2956,"lon":5.42275,"is_reserved":false,"is_disabled":false,"rental_uris":{"android":"levelo://app?vid=5229ce12-5c01-411d-91ef-2027e4467204","ios":"levelo://app?vid=5229ce12-5c01-411d-91ef-2027e4467204"},"vehicle_type_id":"4","last_reported":1749841672,"current_range_meters":18800,"station_id":"ce4bhph2rcd13ifvqhdg","pricing_plan_id":"cebpf4jnsgd1na2vs0mg"},{"bike_id":"51ffd0ed-d917-4f49-b94c-90e9bee91f60","system_id":"levelo_inurba_marseille","lat":43.28601,"lon":5.37072,"is_reserved":false,"is_disabled":false,"rental_uris":{"android":"levelo://app?vid=51ffd0ed-d917-4f49-b94c-90e9bee91f60","ios":"levelo://app?vid=51ffd0ed-d917-4f49-b94c-90e9bee91f60"},"vehicle_type_id":"4","last_reported":1749841672,"current_range_meters":18800,"station_id":"ce4bht12rcd13ifvqi60","pricing_plan_id":"cebpf4jnsgd1na2vs0mg"},{"bike_id":"c9bd061b-0a26-4829-88fd-b879ca06ace1","system_id":"levelo_inurba_marseille","lat":43.263528,"lon":5.378194,"is_reserved":false,"is_disabled":false,"rental_uris":{"android":"levelo://app?vid=c9bd061b-0a26-4829-88fd-b879ca06ace1","ios":"levelo://app?vid=c9bd061b-0a26-4829-88fd-b879ca06ace1"},"vehicle_type_id":"4","last_reported":1749841672,"current_range_meters":18800,"station_id":"st_d163nis0mtpqnht9uue0","pricing_plan_id":"cebpf4jnsgd1na2vs0mg"},{"bike_id":"39f84ecf-e4ec-4947-8180-4118c5715b27","system_id":"levelo_inurba_marseille","lat":43.31705,"lon":5.40464,"is_reserved":false,"is_disabled":false,"rental_uris":{"android":"levelo://app?vid=39f84ecf-e4ec-4947-8180-4118c5715b27","ios":"levelo://app?vid=39f84ecf-e4ec-4947-8180-4118c5715b27"},"vehicle_type_id":"4","last_reported":1749841672,"current_range_meters":19200,"station_id":"ce4bh012rcd13ifvqd00","pricing_plan_id":"cebpf4jnsgd1na2vs0mg"},{"bike_id":"4958d586-90f1-498c-a70e-23d23d17d49e","system_id":"levelo_inurba_marseille","lat":43.26573,"lon":5.39037,"is_reserved":false,"is_disabled":false,"rental_uris":{"android":"levelo://app?vid=4958d586-90f1-498c-a70e-23d23d17d49e","ios":"levelo://app?vid=4958d586-90f1-498c-a70e-23d23d17d49e"},"vehicle_type_id":"4","last_reported":1749841672,"current_range_meters":19200,"station_id":"ce4bhe12rcd13ifvqf30","pricing_plan_id":"cebpf4jnsgd1na2vs0mg"},{"bike_id":"8a73944e-d213-4b59-94cc-10ab8a923926","system_id":"levelo_inurba_marseille","lat":43.24072,"lon":5.37754,"is_reserved":false,"is_disabled":false,"rental_uris":{"android":"levelo://app?vid=8a73944e-d213-4b59-94cc-10ab8a923926","ios":"levelo://app?vid=8a73944e-d213-4b59-94cc-10ab8a923926"},"vehicle_type_id":"4","last_reported":1749841672,"current_range_meters":19200,"station_id":"ce4bhnp2rcd13ifvqgvg","pricing_plan_id":"cebpf4jnsgd1na2vs0mg"},{"bike_id":"2815c534-7bec-4cb5-97b8-0b394fbc16f9","system_id":"levelo_inurba_marseille","lat":43.32044,"lon":5.41547,"is_reserved":false,"is_disabled":false,"rental_uris":{"android":"levelo://app?vid=2815c534-7bec-4cb5-97b8-0b394fbc16f9","ios":"levelo://app?vid=2815c534-7bec-4cb5-97b8-0b394fbc16f9"},"vehicle_type_id":"4","last_reported":1749841672,"current_range_meters":19200,"station_id":"ce4bhq92rcd13ifvqhkg","pricing_plan_id":"cebpf4jnsgd1na2vs0mg"},{"bike_id":"7cd58f80-1a13-48bf-9b27-0c54daaa78b6","system_id":"levelo_inurba_marseille","lat":43.32353,"lon":5.36755,"is_reserved":false,"is_disabled":false,"rental_uris":{"android":"levelo://app?vid=7cd58f80-1a13-48bf-9b27-0c54daaa78b6","ios":"levelo://app?vid=7cd58f80-1a13-48bf-9b27-0c54daaa78b6"},"vehicle_type_id":"4","last_reported":1749841672,"current_range_meters":19200,"station_id":"ce4bhsh2rcd13ifvqi2g","pricing_plan_id":"cebpf4jnsgd1na2vs0mg"},{"bike_id":"04c61bed-2d5e-4926-b75c-8883de652b03","system_id":"levelo_inurba_marseille","lat":43.26369,"lon":5.37814,"is_reserved":false,"is_disabled":false,"rental_uris":{"android":"levelo://app?vid=04c61bed-2d5e-4926-b75c-8883de652b03","ios":"levelo://app?vid=04c61bed-2d5e-4926-b75c-8883de652b03"},"vehicle_type_id":"4","last_reported":1749841672,"current_range_meters":19200,"station_id":"st_d163nis0mtpqnht9uue0","pricing_plan_id":"cebpf4jnsgd1na2vs0mg"},{"bike_id":"51c43582-eb76-4abb-8243-f4e4b5749f93","system_id":"levelo_inurba_marseille","lat":43.26373,"lon":5.37809,"is_reserved":false,"is_disabled":false,"rental_uris":{"android":"levelo://app?vid=51c43582-eb76-4abb-8243-f4e4b5749f93","ios":"levelo://app?vid=51c43582-eb76-4abb-8243-f4e4b5749f93"},"vehicle_type_id":"4","last_reported":1749841672,"current_range_meters":19200,"station_id":"st_d163nis0mtpqnht9uue0","pricing_plan_id":"cebpf4jnsgd1na2vs0mg"},{"bike_id":"1140e344-cb7d-43aa-a039-5b49037dae04","system_id":"levelo_inurba_marseille","lat":43.26362,"lon":5.37813,"is_reserved":false,"is_disabled":false,"rental_uris":{"android":"levelo://app?vid=1140e344-cb7d-43aa-a039-5b49037dae04","ios":"levelo://app?vid=1140e344-cb7d-43aa-a039-5b49037dae04"},"vehicle_type_id":"4","last_reported":1749841672,"current_range_meters":19200,"station_id":"st_d163nis0mtpqnht9uue0","pricing_plan_id":"cebpf4jnsgd1na2vs0mg"},{"bike_id":"9a4946e3-0925-42c9-9e62-2d5e92304983","system_id":"levelo_inurba_marseille","lat":43.26364,"lon":5.37844,"is_reserved":false,"is_disabled":false,"rental_uris":{"android":"levelo://app?vid=9a4946e3-0925-42c9-9e62-2d5e92304983","ios":"levelo://app?vid=9a4946e3-0925-42c9-9e62-2d5e92304983"},"vehicle_type_id":"4","last_reported":1749841672,"current_range_meters":19200,"station_id":"st_d163nis0mtpqnht9uue0","pricing_plan_id":"cebpf4jnsgd1na2vs0mg"},{"bike_id":"679d881d-2dfe-4ec2-babb-8b09d0832382","system_id":"levelo_inurba_marseille","lat":43.32802,"lon":5.39135,"is_reserved":false,"is_disabled":false,"rental_uris":{"android":"levelo://app?vid=679d881d-2dfe-4ec2-babb-8b09d0832382","ios":"levelo://app?vid=679d881d-2dfe-4ec2-babb-8b09d0832382"},"vehicle_type_id":"4","last_reported":1749841672,"current_range_meters":19600,"station_id":"","pricing_plan_id":"cebpf4jnsgd1na2vs0mg"},{"bike_id":"3d7eb7f0-627f-497d-8a82-80902d04e509","system_id":"levelo_inurba_marseille","lat":43.26689,"lon":5.38254,"is_reserved":false,"is_disabled":false,"rental_uris":{"android":"levelo://app?vid=3d7eb7f0-627f-497d-8a82-80902d04e509","ios":"levelo://app?vid=3d7eb7f0-627f-497d-8a82-80902d04e509"},"vehicle_type_id":"4","last_reported":1749841672,"current_range_meters":19600,"station_id":"ce4bhg92rcd13ifvqf90","pricing_plan_id":"cebpf4jnsgd1na2vs0mg"},{"bike_id":"4cf6b83a-b302-47c5-ade6-b86bbbc02271","system_id":"levelo_inurba_marseille","lat":43.26925,"lon":5.38909,"is_reserved":false,"is_disabled":false,"rental_uris":{"android":"levelo://app?vid=4cf6b83a-b302-47c5-ade6-b86bbbc02271","ios":"levelo://app?vid=4cf6b83a-b302-47c5-ade6-b86bbbc02271"},"vehicle_type_id":"4","last_reported":1749841672,"current_range_meters":19600,"station_id":"ce4bhhh2rcd13ifvqfl0","pricing_plan_id":"cebpf4jnsgd1na2vs0mg"},{"bike_id":"7240a984-bb6d-4c3b-ab8d-aef55ac0bce8","system_id":"levelo_inurba_marseille","lat":43.21198,"lon":5.35054,"is_reserved":false,"is_disabled":false,"rental_uris":{"android":"levelo://app?vid=7240a984-bb6d-4c3b-ab8d-aef55ac0bce8","ios":"levelo://app?vid=7240a984-bb6d-4c3b-ab8d-aef55ac0bce8"},"vehicle_type_id":"4","last_reported":1749841672,"current_range_meters":19600,"station_id":"st_cvj6sg6p6f1abm77japg","pricing_plan_id":"cebpf4jnsgd1na2vs0mg"},{"bike_id":"c82f75f2-635c-40da-9f67-77d82cb74c97","system_id":"levelo_inurba_marseille","lat":43.21203,"lon":5.35058,"is_reserved":false,"is_disabled":false,"rental_uris":{"android":"levelo://app?vid=c82f75f2-635c-40da-9f67-77d82cb74c97","ios":"levelo://app?vid=c82f75f2-635c-40da-9f67-77d82cb74c97"},"vehicle_type_id":"4","last_reported":1749841672,"current_range_meters":19600,"station_id":"st_cvj6sg6p6f1abm77japg","pricing_plan_id":"cebpf4jnsgd1na2vs0mg"},{"bike_id":"b87665d3-834b-4835-b895-064f88298246","system_id":"levelo_inurba_marseille","lat":43.26376,"lon":5.37825,"is_reserved":false,"is_disabled":false,"rental_uris":{"android":"levelo://app?vid=b87665d3-834b-4835-b895-064f88298246","ios":"levelo://app?vid=b87665d3-834b-4835-b895-064f88298246"},"vehicle_type_id":"4","last_reported":1749841672,"current_range_meters":19600,"station_id":"st_d163nis0mtpqnht9uue0","pricing_plan_id":"cebpf4jnsgd1na2vs0mg"},{"bike_id":"04be66be-ee31-48bc-ae19-67ec74356d07","system_id":"levelo_inurba_marseille","lat":43.26353,"lon":5.37817,"is_reserved":false,"is_disabled":false,"rental_uris":{"android":"levelo://app?vid=04be66be-ee31-48bc-ae19-67ec74356d07","ios":"levelo://app?vid=04be66be-ee31-48bc-ae19-67ec74356d07"},"vehicle_type_id":"4","last_reported":1749841672,"current_range_meters":19600,"station_id":"st_d163nis0mtpqnht9uue0","pricing_plan_id":"cebpf4jnsgd1na2vs0mg"},{"bike_id":"cc8bd48e-5f42-4fa8-bdf5-cca36603c3db","system_id":"levelo_inurba_marseille","lat":43.263515,"lon":5.378207,"is_reserved":false,"is_disabled":false,"rental_uris":{"android":"levelo://app?vid=cc8bd48e-5f42-4fa8-bdf5-cca36603c3db","ios":"levelo://app?vid=cc8bd48e-5f42-4fa8-bdf5-cca36603c3db"},"vehicle_type_id":"4","last_reported":1749841672,"current_range_meters":19600,"station_id":"st_d163nis0mtpqnht9uue0","pricing_plan_id":"cebpf4jnsgd1na2vs0mg"},{"bike_id":"d3243c7c-8c2d-40b4-9bb3-1c0635638c6a","system_id":"levelo_inurba_marseille","lat":43.26385,"lon":5.3782,"is_reserved":false,"is_disabled":false,"rental_uris":{"android":"levelo://app?vid=d3243c7c-8c2d-40b4-9bb3-1c0635638c6a","ios":"levelo://app?vid=d3243c7c-8c2d-40b4-9bb3-1c0635638c6a"},"vehicle_type_id":"4","last_reported":1749841672,"current_range_meters":19600,"station_id":"st_d163nis0mtpqnht9uue0","pricing_plan_id":"cebpf4jnsgd1na2vs0mg"},