{"last_updated":1731020918,"ttl":60,"version":"2.2","data":{"bikes":[{"bike_id":"3c1e06e2-dd64-42d3-ab83-15b7af7b314b","system_id":"levelo_inurba_marseille","lat":43.28441,"lon":5.39184,"is_reserved":false,"is_disabled":false,"rental_uris":{"android":"levelo://app?vid=3c1e06e2-dd64-42d3-ab83-15b7af7b314b","ios":"levelo://app?vid=3c1e06e2-dd64-42d3-ab83-15b7af7b314b"},"vehicle_type_id":"4","last_reported":1731020918,"current_range_meters":37600,"station_id":"ce4bhoh2rcd13ifvqh5g","pricing_plan_id":"cebpf4jnsgd1na2vs0mg"},{"bike_id":"a35bc0f5-e1de-4780-9c30-3d5f9603529a","system_id":"levelo_inurba_marseille","lat":43.2396,"lon":5.36643,"is_reserved":false,"is_disabled":false,"rental_uris":{"android":"levelo://app?vid=a35bc0f5-e1de-4780-9c30-3d5f9603529a","ios":"levelo://app?vid=a35bc0f5-e1de-4780-9c30-3d5f9603529a"},"vehicle_type_id":"4","last_reported":1731020918,"current_range_meters":38800,"station_id":"ce4bhi12rcd13ifvqfp0","pricing_plan_id":"cebpf4jnsgd1na2vs0mg"},{"bike_id":"1122c64b-1d2a-4a93-969a-847e142d22a2","system_id":"levelo_inurba_marseille","lat":43.29281,"lon":5.40114,"is_reserved":false,"is_disabled":false,"rental_uris":{"android":"levelo://app?vid=1122c64b-1d2a-4a93-969a-847e142d22a2","ios":"levelo://app?vid=1122c64b-1d2a-4a93-969a-847e142d22a2"},"vehicle_type_id":"4","last_reported":1731020918,"current_range_meters":17600,"station_id":"ce4bh312rcd13ifvqdk0","pricing_plan_id":"cebpf4jnsgd1na2vs0mg"},{"bike_id":"7fd115e1-6635-4759-b24b-0ed36d47da10","system_id":"levelo_inurba_marseille","lat":43.28462,"lon":5.35884,"is_reserved":false,"is_disabled":false,"rental_uris":{"android":"levelo://app?vid=7fd115e1-6635-4759-b24b-0ed36d47da10","ios":"levelo://app?vid=7fd115e1-6635-4759-b24b-0ed36d47da10"},"vehicle_type_id":"4","last_reported":1731020918,"current_range_meters":36400,"station_id":"ce4bhah2rcd13ifvqei0","pricing_plan_id":"cebpf4jnsgd1na2vs0mg"},{"bike_id":"593957d5-ab5b-44bc-8d2d-ab769352af18","system_id":"levelo_inurba_marseille","lat":43.29538,"lon":5.40096,"is_reserved":false,"is_disabled":false,"rental_uris":{"android":"levelo://app?vid=593957d5-ab5b-44bc-8d2d-ab769352af18","ios":"levelo://app?vid=593957d5-ab5b-44bc-8d2d-ab769352af18"},"vehicle_type_id":"4","last_reported":1731020918,"current_range_meters":36000,"station_id":"ce4bh492rcd13ifvqdug","pricing_plan_id":"cebpf4jnsgd1na2vs0mg"},{"bike_id":"7f774ae5-6cb7-4c53-91e0-4e9519e7a5f3","system_id":"levelo_inurba_marseille","lat":43.31723,"lon":5.42401,"is_reserved":false,"is_disabled":false,"rental_uris":{"android":"levelo://app?vid=7f774ae5-6cb7-4c53-91e0-4e9519e7a5f3","ios":"levelo://app?vid=7f774ae5-6cb7-4c53-91e0-4e9519e7a5f3"},"vehicle_type_id":"4","last_reported":1731020918,"current_range_meters":33600,"station_id":"ce4bhp92rcd13ifvqhbg","pricing_plan_id":"cebpf4jnsgd1na2vs0mg"},{"bike_id":"449e3ee6-7701-4300-985f-63238dc07042","system_id":"levelo_inurba_marseille","lat":43.2904,"lon":5.37565,"is_reserved":false,"is_disabled":false,"rental_uris":{"android":"levelo://app?vid=449e3ee6-7701-4300-985f-63238dc07042","ios":"levelo://app?vid=449e3ee6-7701-4300-985f-63238dc07042"},"vehicle_type_id":"4","last_reported":1731020918,"current_range_meters":38800,"station_id":"ce4bh692rcd13ifvqe90","pricing_plan_id":"cebpf4jnsgd1na2vs0mg"},{"bike_id":"5648f010-86c7-4ae4-bbb3-fc2fa2c2ca2d","system_id":"levelo_inurba_marseille","lat":43.302076,"lon":5.394658,"is_reserved":false,"is_disabled":false,"rental_uris":{"android":"levelo://app?vid=5648f010-86c7-4ae4-bbb3-fc2fa2c2ca2d","ios":"levelo://app?vid=5648f010-86c7-4ae4-bbb3-fc2fa2c2ca2d"},"vehicle_type_id":"4","last_reported":1731020918,"current_range_meters":40000,"station_id":"ce4bh0p2rcd13ifvqd70","pricing_plan_id":"cebpf4jnsgd1na2vs0mg"},{"bike_id":"4e2bf624-3094-4a12-982c-9efedbfe7b6e","system_id":"levelo_inurba_marseille","lat":43.31173,"lon":5.38714,"is_reserved":false,"is_disabled":false,"rental_uris":{"android":"levelo://app?vid=4e2bf624-3094-4a12-982c-9efedbfe7b6e","ios":"levelo://app?vid=4e2bf624-3094-4a12-982c-9efedbfe7b6e"},"vehicle_type_id":"4","last_reported":1731020918,"current_range_meters":12000,"station_id":"ce4bgv12rcd13ifvqcp0","pricing_plan_id":"cebpf4jnsgd1na2vs0mg"},{"bike_id":"23e65921-100e-4ead-8eb4-cf14e6ed6f70","system_id":"levelo_inurba_marseille","lat":43.31122,"lon":5.37764,"is_reserved":false,"is_disabled":false,"rental_uris":{"android":"levelo://app?vid=23e65921-100e-4ead-8eb4-cf14e6ed6f70","ios":"levelo://app?vid=23e65921-100e-4ead-8eb4-cf14e6ed6f70"},"vehicle_type_id":"4","last_reported":1731020918,"current_range_meters":28800,"station_id":"ce4bgt92rcd13ifvqcg0","pricing_plan_id":"cebpf4jnsgd1na2vs0mg"},{"bike_id":"ecbfad0b-6da6-4898-8228-d6cbd4cb9d5c","system_id":"levelo_inurba_marseille","lat":43.3154,"lon":5.38022,"is_reserved":false,"is_disabled":false,"rental_uris":{"android":"levelo://app?vid=ecbfad0b-6da6-4898-8228-d6cbd4cb9d5c","ios":"levelo://app?vid=ecbfad0b-6da6-4898-8228-d6cbd4cb9d5c"},"vehicle_type_id":"4","last_reported":1731020918,"current_range_meters":16000,"station_id":"ce4bhsp2rcd13ifvqi50","pricing_plan_id":"cebpf4jnsgd1na2vs0mg"},{"bike_id":"76a68afb-12cf-425f-b12e-0e5fd72d8762","system_id":"levelo_inurba_marseille","lat":43.31181,"lon":5.38717,"is_reserved":false,"is_disabled":false,"rental_uris":{"android":"levelo://app?vid=76a68afb-12cf-425f-b12e-0e5fd72d8762","ios":"levelo://app?vid=76a68afb-12cf-425f-b12e-0e5fd72d8762"},"vehicle_type_id":"4","last_reported":1731020918,"current_range_meters":36400,"station_id":"ce4bgv12rcd13ifvqcp0","pricing_plan_id":"cebpf4jnsgd1na2vs0mg"},{"bike_id":"dfba3f21-f02f-49b3-8c50-4074b4a26109","system_id":"levelo_inurba_marseille","lat":43.31276,"lon":5.40171,"is_reserved":false,"is_disabled":false,"rental_uris":{"android":"levelo://app?vid=dfba3f21-f02f-49b3-8c50-4074b4a26109","ios":"levelo://app?vid=dfba3f21-f02f-49b3-8c50-4074b4a26109"},"vehicle_type_id":"4","last_reported":1731020918,"current_range_meters":38800,"station_id":"ce4bh092rcd13ifvqd30","pricing_plan_id":"cebpf4jnsgd1na2vs0mg"},{"bike_id":"b3057557-d13e-4f6e-be8d-896b28bf85c9","system_id":"levelo_inurba_marseille","lat":43.30201,"lon":5.39455,"is_reserved":false,"is_disabled":false,"rental_uris":{"android":"levelo://app?vid=b3057557-d13e-4f6e-be8d-896b28bf85c9","ios":"levelo://app?vid=b3057557-d13e-4f6e-be8d-896b28bf85c9"},"vehicle_type_id":"4","last_reported":1731020918,"current_range_meters":30000,"station_id":"ce4bh0p2rcd13ifvqd70","pricing_plan_id":"cebpf4jnsgd1na2vs0mg"},{"bike_id":"28c8cd0f-56be-4d87-b407-bac33fd81785","system_id":"levelo_inurba_marseille","lat":43.33031,"lon":5.39031,"is_reserved":false,"is_disabled":false,"rental_uris":{"android":"levelo://app?vid=28c8cd0f-56be-4d87-b407-bac33fd81785","ios":"levelo://app?vid=28c8cd0f-56be-4d87-b407-bac33fd81785"},"vehicle_type_id":"4","last_reported":1731020918,"current_range_meters":17600,"station_id":"ce4bhr92rcd13ifvqhrg","pricing_plan_id":"cebpf4jnsgd1na2vs0mg"},{"bike_id":"73d83c23-c667-4be8-ae0e-3b8c78cb9bc6","system_id":"levelo_inurba_marseille","lat":43.27831,"lon":5.39206,"is_reserved":false,"is_disabled":false,"rental_uris":{"android":"levelo://app?vid=73d83c23-c667-4be8-ae0e-3b8c78cb9bc6","ios":"levelo://app?vid=73d83c23-c667-4be8-ae0e-3b8c78cb9bc6"},"vehicle_type_id":"4","last_reported":1731020918,"current_range_meters":36400,"station_id":"ce4bhjp2rcd13ifvqga0","pricing_plan_id":"cebpf4jnsgd1na2vs0mg"},{"bike_id":"2b818732-b903-4a03-b609-d2bf427fbb19","system_id":"levelo_inurba_marseille","lat":43.30803,"lon":5.38149,"is_reserved":false,"is_disabled":false,"rental_uris":{"android":"levelo://app?vid=2b818732-b903-4a03-b609-d2bf427fbb19","ios":"levelo://app?vid=2b818732-b903-4a03-b609-d2bf427fbb19"},"vehicle_type_id":"4","last_reported":1731020918,"current_range_meters":12400,"station_id":"ce4bgt12rcd13ifvqce0","pricing_plan_id":"cebpf4jnsgd1na2vs0mg"},{"bike_id":"46b542d9-5320-440c-9b7f-612fb146a6a5","system_id":"levelo_inurba_marseille","lat":43.31177,"lon":5.38729,"is_reserved":false,"is_disabled":false,"rental_uris":{"android":"levelo://app?vid=46b542d9-5320-440c-9b7f-612fb146a6a5","ios":"levelo://app?vid=46b542d9-5320-440c-9b7f-612fb146a6a5"},"vehicle_type_id":"4","last_reported":1731020918,"current_range_meters":6800,"station_id":"ce4bgv12rcd13ifvqcp0","pricing_plan_id":"cebpf4jnsgd1na2vs0mg"},{"bike_id":"c2fd6ef5-82c9-4dd3-ab56-0b8b4b149490","system_id":"levelo_inurba_marseille","lat":43.31273,"lon":5.40169,"is_reserved":false,"is_disabled":false,"rental_uris":{"android":"levelo://app?vid=c2fd6ef5-82c9-4dd3-ab56-0b8b4b149490","ios":"levelo://app?vid=c2fd6ef5-82c9-4dd3-ab56-0b8b4b149490"},"vehicle_type_id":"4","last_reported":1731020918,"current_range_meters":38000,"station_id":"ce4bh092rcd13ifvqd30","pricing_plan_id":"cebpf4jnsgd1na2vs0mg"},{"bike_id":"c1751680-5b77-4d64-aaa5-d23c73a15724","system_id":"levelo_inurba_marseille","lat":43.29203,"lon":5.39312,"is_reserved":false,"is_disabled":false,"rental_uris":{"android":"levelo://app?vid=c1751680-5b77-4d64-aaa5-d23c73a15724","ios":"levelo://app?vid=c1751680-5b77-4d64-aaa5-d23c73a15724"},"vehicle_type_id":"4","last_reported":1731020918,"current_range_meters":38800,"station_id":"ce4bh192rcd13ifvqdd0","pricing_plan_id":"cebpf4jnsgd1na2vs0mg"},{"bike_id":"bcf5dad1-721a-4f4e-82b2-15a9cc44926f","system_id":"levelo_inurba_marseille","lat":43.33776,"lon":5.37438,"is_reserved":false,"is_disabled":false,"rental_uris":{"android":"levelo://app?vid=bcf5dad1-721a-4f4e-82b2-15a9cc44926f","ios":"levelo://app?vid=bcf5dad1-721a-4f4e-82b2-15a9cc44926f"},"vehicle_type_id":"4","last_reported":1731020918,"current_range_meters":33600,"station_id":"","pricing_plan_id":"cebpf4jnsgd1na2vs0mg"},{"bike_id":"250fe7c5-be51-4156-94fa-c9fe94886f80","system_id":"levelo_inurba_marseille","lat":43.28859,"lon":5.35867,"is_reserved":false,"is_disabled":false,"rental_uris":{"android":"levelo://app?vid=250fe7c5-be51-4156-94fa-c9fe94886f80","ios":"levelo://app?vid=250fe7c5-be51-4156-94fa-c9fe94886f80"},"vehicle_type_id":"4","last_reported":1731020918,"current_range_meters":38800,"station_id":"ce4bhb12rcd13ifvqem0","pricing_plan_id":"cebpf4jnsgd1na2vs0mg"},{"bike_id":"a5448416-7034-423e-b933-971eb9ab99f2","system_id":"levelo_inurba_marseille","lat":43.29037,"lon":5.39974,"is_reserved":false,"is_disabled":false,"rental_uris":{"android":"levelo://app?vid=a5448416-7034-423e-b933-971eb9ab99f2","ios":"levelo://app?vid=a5448416-7034-423e-b933-971eb9ab99f2"},"vehicle_type_id":"4","last_reported":1731020918,"current_range_meters":39200,"station_id":"ce4bh392rcd13ifvqdm0","pricing_plan_id":"cebpf4jnsgd1na2vs0mg"},{"bike_id":"00cbf6d0-0b9c-4198-9ba9-38e2e5f72e1d","system_id":"levelo_inurba_marseille","lat":43.28085,"lon":5.39654,"is_reserved":false,"is_disabled":false,"rental_uris":{"android":"levelo://app?vid=00cbf6d0-0b9c-4198-9ba9-38e2e5f72e1d","ios":"levelo://app?vid=00cbf6d0-0b9c-4198-9ba9-38e2e5f72e1d"},"vehicle_type_id":"4","last_reported":1731020918,"current_range_meters":38800,"station_id":"ce4bho12rcd13ifvqh2g","pricing_plan_id":"cebpf4jnsgd1na2vs0mg"},{"bike_id":"b7331a71-8ec8-4f40-89ef-d0af4e4975de","system_id":"levelo_inurba_marseille","lat":43.28701,"lon":5.374,"is_reserved":false,"is_disabled":false,"rental_uris":{"android":"levelo://app?vid=b7331a71-8ec8-4f40-89ef-d0af4e4975de","ios":"levelo://app?vid=b7331a71-8ec8-4f40-89ef-d0af4e4975de"},"vehicle_type_id":"4","last_reported":1731020918,"current_range_meters":38800,"station_id":"ce4bh3p2rcd13ifvqdq0","pricing_plan_id":"cebpf4jnsgd1na2vs0mg"},{"bike_id":"4ffd7f0a-b868-4731-b904-af0385132753","system_id":"levelo_inurba_marseille","lat":43.26557,"lon":5.37296,"is_reserved":false,"is_disabled":false,"rental_uris":{"android":"levelo://app?vid=4ffd7f0a-b868-4731-b904-af0385132753","ios":"levelo://app?vid=4ffd7f0a-b868-4731-b904-af0385132753"},"vehicle_type_id":"4","last_reported":1731020918,"current_range_meters":38800,"station_id":"ce4bhg12rcd13ifvqf70","pricing_plan_id":"cebpf4jnsgd1na2vs0mg"},{"bike_id":"6622a163-3b9f-4330-86ce-54423cf94cdf","system_id":"levelo_inurba_marseille","lat":43.28108,"lon":5.37834,"is_reserved":false,"is_disabled":false,"rental_uris":{"android":"levelo://app?vid=6622a163-3b9f-4330-86ce-54423cf94cdf","ios":"levelo://app?vid=6622a163-3b9f-4330-86ce-54423cf94cdf"},"vehicle_type_id":"4","last_reported":1731020918,"current_range_meters":38800,"station_id":"ce4bha12rcd13ifvqee0","pricing_plan_id":"cebpf4jnsgd1na2vs0mg"},{"bike_id":"4f4cb251-4386-488a-80a0-885bf6e81c6d","system_id":"levelo_inurba_marseille","lat":43.27907,"lon":5.38027,"is_reserved":false,"is_disabled":false,"rental_uris":{"android":"levelo://app?vid=4f4cb251-4386-488a-80a0-885bf6e81c6d","ios":"levelo://app?vid=4f4cb251-4386-488a-80a0-885bf6e81c6d"},"vehicle_type_id":"4","last_reported":1731020918,"current_range_meters":38800,"station_id":"ce4bhf92rcd13ifvqf50","pricing_plan_id":"cebpf4jnsgd1na2vs0mg"},{"bike_id":"f00b8b7a-20f1-40a7-8dce-634caae61508","system_id":"levelo_inurba_marseille","lat":43.30355,"lon":5.41881,"is_reserved":false,"is_disabled":false,"rental_uris":{"android":"levelo://app?vid=f00b8b7a-20f1-40a7-8dce-634caae61508","ios":"levelo://app?vid=f00b8b7a-20f1-40a7-8dce-634caae61508"},"vehicle_type_id":"4","last_reported":1731020918,"current_range_meters":29600,"station_id":"ce4bhop2rcd13ifvqh7g","pricing_plan_id":"cebpf4jnsgd1na2vs0mg"},{"bike_id":"6fb32bb1-acec-47e9-a78c-5f0271edfd7f","system_id":"levelo_inurba_marseille","lat":43.2618,"lon":5.37503,"is_reserved":false,"is_disabled":false,"rental_uris":{"android":"levelo://app?vid=6fb32bb1-acec-47e9-a78c-5f0271edfd7f","ios":"levelo://app?vid=6fb32bb1-acec-47e9-a78c-5f0271edfd7f"},"vehicle_type_id":"4","last_reported":1731020918,"current_range_meters":22400,"station_id":"ce4bhgp2rcd13ifvqfc0","pricing_plan_id":"cebpf4jnsgd1na2vs0mg"},{"bike_id":"123f6207-e5f7-4a86-815d-3aa76283c5cb","system_id":"levelo_inurba_marseille","lat":43.28016,"lon":5.44227,"is_reserved":false,"is_disabled":false,"rental_uris":{"android":"levelo://app?vid=123f6207-e5f7-4a86-815d-3aa76283c5cb","ios":"levelo://app?vid=123f6207-e5f7-4a86-815d-3aa76283c5cb"},"vehicle_type_id":"4","last_reported":1731020918,"current_range_meters":10800,"station_id":"","pricing_plan_id":"cebpf4jnsgd1na2vs0mg"},{"bike_id":"e6e17729-cfe6-425c-920e-5c3e9a8c2687","system_id":"levelo_inurba_marseille","lat":43.27996,"lon":5.40003,"is_reserved":false,"is_disabled":false,"rental_uris":{"android":"levelo://app?vid=e6e17729-cfe6-425c-920e-5c3e9a8c2687","ios":"levelo://app?vid=e6e17729-cfe6-425c-920e-5c3e9a8c2687"},"vehicle_type_id":"4","last_reported":1731020918,"current_range_meters":5600,"station_id":"ce4bho92rcd13ifvqh4g","pricing_plan_id":"cebpf4jnsgd1na2vs0mg"},{"bike_id":"c1bfa867-b5f4-4327-83d0-9059a17e6539","system_id":"levelo_inurba_marseille","lat":43.30214,"lon":5.39463,"is_reserved":false,"is_disabled":false,"rental_uris":{"android":"levelo://app?vid=c1bfa867-b5f4-4327-83d0-9059a17e6539","ios":"levelo://app?vid=c1bfa867-b5f4-4327-83d0-9059a17e6539"},"vehicle_type_id":"4","last_reported":1731020918,"current_range_meters":27600,"station_id":"ce4bh0p2rcd13ifvqd70","pricing_plan_id":"cebpf4jnsgd1na2vs0mg"},{"bike_id":"64677cc3-845a-46af-a784-369b534be01f","system_id":"levelo_inurba_marseille","lat":43.23152,"lon":5.43722,"is_reserved":false,"is_disabled":false,"rental_uris":{"android":"levelo://app?vid=64677cc3-845a-46af-a784-369b534be01f","ios":"levelo://app?vid=64677cc3-845a-46af-a784-369b534be01f"},"vehicle_type_id":"4","last_reported":1731020918,"current_range_meters":22400,"station_id":"ce4bhmp2rcd13ifvqgog","pricing_plan_id":"cebpf4jnsgd1na2vs0mg"},{"bike_id":"2249b50d-7f02-4a87-b5cd-9ab1aa9b8244","system_id":"levelo_inurba_marseille","lat":43.29453,"lon":5.39756,"is_reserved":false,"is_disabled":false,"rental_uris":{"android":"levelo://app?vid=2249b50d-7f02-4a87-b5cd-9ab1aa9b8244","ios":"levelo://app?vid=2249b50d-7f02-4a87-b5cd-9ab1aa9b8244"},"vehicle_type_id":"4","last_reported":1731020918,"current_range_meters":38800,"station_id":"ce4bh3h2rcd13ifvqdo0","pricing_plan_id":"cebpf4jnsgd1na2vs0mg"},{"bike_id":"ff3d86de-5c8f-44df-8c76-d883f8fa9ba1","system_id":"levelo_inurba_marseille","lat":43.23188,"lon":5.39989,"is_reserved":false,"is_disabled":false,"rental_uris":{"android":"levelo://app?vid=ff3d86de-5c8f-44df-8c76-d883f8fa9ba1","ios":"levelo://app?vid=ff3d86de-5c8f-44df-8c76-d883f8fa9ba1"},"vehicle_type_id":"4","last_reported":1731020918,"current_range_meters":19200,"station_id":"ce4bhn12rcd13ifvqgqg","pricing_plan_id":"cebpf4jnsgd1na2vs0mg"},{"bike_id":"3232343b-b00a-47b1-9de8-95cc6580cbfa","system_id":"levelo_inurba_marseille","lat":43.2293,"lon":5.35376,"is_reserved":false,"is_disabled":false,"rental_uris":{"android":"levelo://app?vid=3232343b-b00a-47b1-9de8-95cc6580cbfa","ios":"levelo://app?vid=3232343b-b00a-47b1-9de8-95cc6580cbfa"},"vehicle_type_id":"4","last_reported":1731020918,"current_range_meters":28800,"station_id":"cpo3532slgdg3j2ikp40","pricing_plan_id":"cebpf4jnsgd1na2vs0mg"},{"bike_id":"c13a97d0-0530-41f0-a94a-cc0540876f4c","system_id":"levelo_inurba_marseille","lat":43.290314,"lon":5.399697,"is_reserved":false,"is_disabled":false,"rental_uris":{"android":"levelo://app?vid=c13a97d0-0530-41f0-a94a-cc0540876f4c","ios":"levelo://app?vid=c13a97d0-0530-41f0-a94a-cc0540876f4c"},"vehicle_type_id":"4","last_reported":1731020918,"current_range_meters":33600,"station_id":"ce4bh392rcd13ifvqdm0","pricing_plan_id":"cebpf4jnsgd1na2vs0mg"},{"bike_id":"7b132aad-8dfc-4030-888c-c651034537bc","system_id":"levelo_inurba_marseille","lat":43.27975,"lon":5.38742,"is_reserved":false,"is_disabled":false,"rental_uris":{"android":"levelo://app?vid=7b132aad-8dfc-4030-888c-c651034537bc","ios":"levelo://app?vid=7b132aad-8dfc-4030-888c-c651034537bc"},"vehicle_type_id":"4","last_reported":1731020918,"current_range_meters":22800,"station_id":"ce4bhg12rcd13ifvqf80","pricing_plan_id":"cebpf4jnsgd1na2vs0mg"},{"bike_id":"8838674c-71ef-4915-9d5e-517d54e399ba","system_id":"levelo_inurba_marseille","lat":43.31706,"lon":5.3777,"is_reserved":false,"is_disabled":false,"rental_uris":{"android":"levelo://app?vid=8838674c-71ef-4915-9d5e-517d54e399ba","ios":"levelo://app?vid=8838674c-71ef-4915-9d5e-517d54e399ba"},"vehicle_type_id":"4","last_reported":1731020918,"current_range_meters":9600,"station_id":"ce4bgth2rcd13ifvqch0","pricing_plan_id":"cebpf4jnsgd1na2vs0mg"},{"bike_id":"c6ef1e95-503f-4616-9ac4-4e585ccb22ab","system_id":"levelo_inurba_marseille","lat":43.30885,"lon":5.39662,"is_reserved":false,"is_disabled":false,"rental_uris":{"android":"levelo://app?vid=c6ef1e95-503f-4616-9ac4-4e585ccb22ab","ios":"levelo://app?vid=c6ef1e95-503f-4616-9ac4-4e585ccb22ab"},"vehicle_type_id":"4","last_reported":1731020918,"current_range_meters":30400,"station_id":"ce4bh012rcd13ifvqcv0","pricing_plan_id":"cebpf4jnsgd1na2vs0mg"},{"bike_id":"30c122d9-3c8b-4500-b013-ed517a07df34","system_id":"levelo_inurba_marseille","lat":43.27918,"lon":5.39581,"is_reserved":false,"is_disabled":false,"rental_uris":{"android":"levelo://app?vid=30c122d9-3c8b-4500-b013-ed517a07df34","ios":"levelo://app?vid=30c122d9-3c8b-4500-b013-ed517a07df34"},"vehicle_type_id":"4","last_reported":1731020918,"current_range_meters":29600,"station_id":"ce4bhf92rcd13ifvqf40","pricing_plan_id":"cebpf4jnsgd1na2vs0mg"},{"bike_id":"3b87dc3c-78c9-480a-9c82-352398b21c72","system_id":"levelo_inurba_marseille","lat":43.29447,"lon":5.39743,"is_reserved":false,"is_disabled":false,"rental_uris":{"android":"levelo://app?vid=3b87dc3c-78c9-480a-9c82-352398b21c72","ios":"levelo://app?vid=3b87dc3c-78c9-480a-9c82-352398b21c72"},"vehicle_type_id":"4","last_reported":1731020918,"current_range_meters":24400,"station_id":"ce4bh3h2rcd13ifvqdo0","pricing_plan_id":"cebpf4jnsgd1na2vs0mg"},{"bike_id":"d46fc949-017c-4337-a007-b5f9f19a0bfa","system_id":"levelo_inurba_marseille","lat":43.337444,"lon":5.374475,"is_reserved":false,"is_disabled":false,"rental_uris":{"android":"levelo://app?vid=d46fc949-017c-4337-a007-b5f9f19a0bfa","ios":"levelo://app?vid=d46fc949-017c-4337-a007-b5f9f19a0bfa"},"vehicle_type_id":"4","last_reported":1731020918,"current_range_meters":32800,"station_id":"","pricing_plan_id":"cebpf4jnsgd1na2vs0mg"},{"bike_id":"54e2b98b-369a-433b-9ae9-c001e48cdf14","system_id":"levelo_inurba_marseille","lat":43.28466,"lon":5.35899,"is_reserved":false,"is_disabled":false,"rental_uris":{"android":"levelo://app?vid=54e2b98b-369a-433b-9ae9-c001e48cdf14","ios":"levelo://app?vid=54e2b98b-369a-433b-9ae9-c001e48cdf14"},"vehicle_type_id":"4","last_reported":1731020918,"current_range_meters":38800,"station_id":"ce4bhah2rcd13ifvqei0","pricing_plan_id":"cebpf4jnsgd1na2vs0mg"},{"bike_id":"b856fee3-5c8e-425e-8bbb-320e2cda8238","system_id":"levelo_inurba_marseille","lat":43.313266,"lon":5.396902,"is_reserved":false,"is_disabled":false,"rental_uris":{"android":"levelo://app?vid=b856fee3-5c8e-425e-8bbb-320e2cda8238","ios":"levelo://app?vid=b856fee3-5c8e-425e-8bbb-320e2cda8238"},"vehicle_type_id":"4","last_reported":1731020918,"current_range_meters":38800,"station_id":"ce4bgvp2rcd13ifvqcu0","pricing_plan_id":"cebpf4jnsgd1na2vs0mg"},{"bike_id":"055ee07f-9744-4502-8bb1-b6708cfbb0cd","system_id":"levelo_inurba_marseille","lat":43.28724,"lon":5.37947,"is_reserved":false,"is_disabled":false,"rental_uris":{"android":"levelo://app?vid=055ee07f-9744-4502-8bb1-b6708cfbb0cd","ios":"levelo://app?vid=055ee07f-9744-4502-8bb1-b6708cfbb0cd"},"vehicle_type_id":"4","last_reported":1731020918,"current_range_meters":7200,"station_id":"ce4bh9p2rcd13ifvqec0","pricing_plan_id":"cebpf4jnsgd1na2vs0mg"},{"bike_id":"a54e42b6-52eb-481f-8c47-3a35fa6e751c","system_id":"levelo_inurba_marseille","lat":43.24804,"lon":5.37456,"is_reserved":false,"is_disabled":false,"rental_uris":{"android":"levelo://app?vid=a54e42b6-52eb-481f-8c47-3a35fa6e751c","ios":"levelo://app?vid=a54e42b6-52eb-481f-8c47-3a35fa6e751c"},"vehicle_type_id":"4","last_reported":1731020918,"current_range_meters":24000,"station_id":"ce4bhgh2rcd13ifvqfb0","pricing_plan_id":"cebpf4jnsgd1na2vs0mg"},{"bike_id":"d22a5075-cb9d-43bb-84a0-2513ed243a9c","system_id":"levelo_inurba_marseille","lat":43.27812,"lon":5.40707,"is_reserved":false,"is_disabled":false,"rental_uris":{"android":"levelo://app?vid=d22a5075-cb9d-43bb-84a0-2513ed243a9c","ios":"levelo://app?vid=d22a5075-cb9d-43bb-84a0-2513ed243a9c"},"vehicle_type_id":"4","last_reported":1731020918,"current_range_meters":35200,"station_id":"ce4bhnh2rcd13ifvqgtg","pricing_plan_id":"cebpf4jnsgd1na2vs0mg"},{"bike_id":"8c3c94e4-9b16-480e-b141-ec41486459d1","system_id":"levelo_inurba_marseille","lat":43.29281,"lon":5.40115,"is_reserved":false,"is_disabled":false,"rental_uris":{"android":"levelo://app?vid=8c3c94e4-9b16-480e-b141-ec41486459d1","ios":"levelo://app?vid=8c3c94e4-9b16-480e-b141-ec41486459d1"},"vehicle_type_id":"4","last_reported":1731020918,"current_range_meters":14800,"station_id":"ce4bh312rcd13ifvqdk0","pricing_plan_id":"cebpf4jnsgd1na2vs0mg"},{"bike_id":"6657b540-8965-4eef-9e92-31d4bab50b7f","system_id":"levelo_inurba_marseille","lat":43.30954,"lon":5.39035,"is_reserved":false,"is_disabled":false,"rental_uris":{"android":"levelo://app?vid=6657b540-8965-4eef-9e92-31d4bab50b7f","ios":"levelo://app?vid=6657b540-8965-4eef-9e92-31d4bab50b7f"},"vehicle_type_id":"4","last_reported":1731020918,"current_range_meters":21600,"station_id":"ce4bgup2rcd13ifvqco0","pricing_plan_id":"cebpf4jnsgd1na2vs0mg"},{"bike_id":"fb9a4917-24cd-45ae-967d-97aed9b41d4d","system_id":"levelo_inurba_marseille","lat":43.31999,"lon":5.38152,"is_reserved":false,"is_disabled":false,"rental_uris":{"android":"levelo://app?vid=fb9a4917-24cd-45ae-967d-97aed9b41d4d","ios":"levelo://app?vid=fb9a4917-24cd-45ae-967d-97aed9b41d4d"},"vehicle_type_id":"4","last_reported":1731020918,"current_range_meters":28800,"station_id":"ce4bhr12rcd13ifvqhpg","pricing_plan_id":"cebpf4jnsgd1na2vs0mg"},{"bike_id":"b8fdd341-0697-41ca-82c9-e4253415f4e6","system_id":"levelo_inurba_marseille","lat":43.2749,"lon":5.42465,"is_reserved":false,"is_disabled":false,"rental_uris":{"android":"levelo://app?vid=b8fdd341-0697-41ca-82c9-e4253415f4e6","ios":"levelo://app?vid=b8fdd341-0697-41ca-82c9-e4253415f4e6"},"vehicle_type_id":"4","last_reported":1731020918,"current_range_meters":38800,"station_id":"ce4bhn92rcd13ifvqgrg","pricing_plan_id":"cebpf4jnsgd1na2vs0mg"},{"bike_id":"9b96d1a7-1bb0-4837-8ce5-5f6325109a7b","system_id":"levelo_inurba_marseille","lat":43.23189,"lon":5.39988,"is_reserved":false,"is_disabled":false,"rental_uris":{"android":"levelo://app?vid=9b96d1a7-1bb0-4837-8ce5-5f6325109a7b","ios":"levelo://app?vid=9b96d1a7-1bb0-4837-8ce5-5f6325109a7b"},"vehicle_type_id":"4","last_reported":1731020918,"current_range_meters":8800,"station_id":"ce4bhn12rcd13ifvqgqg","pricing_plan_id":"cebpf4jnsgd1na2vs0mg"},{"bike_id":"7148e5a3-e345-4df8-9602-6c428d6f2779","system_id":"levelo_inurba_marseille","lat":43.2667,"lon":5.40289,"is_reserved":false,"is_disabled":false,"rental_uris":{"android":"levelo://app?vid=7148e5a3-e345-4df8-9602-6c428d6f2779","ios":"levelo://app?vid=7148e5a3-e345-4df8-9602-6c428d6f2779"},"vehicle_type_id":"4","last_reported":1731020918,"current_range_meters":14000,"station_id":"","pricing_plan_id":"cebpf4jnsgd1na2vs0mg"},{"bike_id":"20a6ed48-b307-4985-b8a6-aa1cc892c5e7","system_id":"levelo_inurba_marseille","lat":43.32365,"lon":5.38871,"is_reserved":false,"is_disabled":false,"rental_uris":{"android":"levelo://app?vid=20a6ed48-b307-4985-b8a6-aa1cc892c5e7","ios":"levelo://app?vid=20a6ed48-b307-4985-b8a6-aa1cc892c5e7"},"vehicle_type_id":"4","last_reported":1731020918,"current_range_meters":4000,"station_id":"ce4bhqp2rcd13ifvqhog","pricing_plan_id":"cebpf4jnsgd1na2vs0mg"},{"bike_id":"14a66910-2e94-4fbc-860a-5889a2a2ac9a","system_id":"levelo_inurba_marseille","lat":43.27176,"lon":5.40982,"is_reserved":false,"is_disabled":false,"rental_uris":{"android":"levelo://app?vid=14a66910-2e94-4fbc-860a-5889a2a2ac9a","ios":"levelo://app?vid=14a66910-2e94-4fbc-860a-5889a2a2ac9a"},"vehicle_type_id":"4","last_reported":1731020918,"current_range_meters":39200,"station_id":"ce4bhl12rcd13ifvqgf0","pricing_plan_id":"cebpf4jnsgd1na2vs0mg"},{"bike_id":"ffa6a709-cf7b-41fd-acb6-77573eab6973","system_id":"levelo_inurba_marseille","lat":43.324788,"lon":5.365523,"is_reserved":false,"is_disabled":false,"rental_uris":{"android":"levelo://app?vid=ffa6a709-cf7b-41fd-acb6-77573eab6973","ios":"levelo://app?vid=ffa6a709-cf7b-41fd-acb6-77573eab6973"},"vehicle_type_id":"4","last_reported":1731020918,"current_range_meters":17200,"station_id":"ce4bhs12rcd13ifvqhvg","pricing_plan_id":"cebpf4jnsgd1na2vs0mg"},{"bike_id":"160d6bb6-1af2-4552-8b41-ebed1e9ddef6","system_id":"levelo_inurba_marseille","lat":43.28243,"lon":5.40354,"is_reserved":false,"is_disabled":false,"rental_uris":{"android":"levelo://app?vid=160d6bb6-1af2-4552-8b41-ebed1e9ddef6","ios":"levelo://app?vid=160d6bb6-1af2-4552-8b41-ebed1e9ddef6"},"vehicle_type_id":"4","last_reported":1731020918,"current_range_meters":32800,"station_id":"ce4bhnh2rcd13ifvqgug","pricing_plan_id":"cebpf4jnsgd1na2vs0mg"},{"bike_id":"742b0352-9913-48ad-8ecf-14360ed12460","system_id":"levelo_inurba_marseille","lat":43.2407,"lon":5.37766,"is_reserved":false,"is_disabled":false,"rental_uris":{"android":"levelo://app?vid=742b0352-9913-48ad-8ecf-14360ed12460","ios":"levelo://app?vid=742b0352-9913-48ad-8ecf-14360ed12460"},"vehicle_type_id":"4","last_reported":1731020918,"current_range_meters":24400,"station_id":"ce4bhnp2rcd13ifvqgvg","pricing_plan_id":"cebpf4jnsgd1na2vs0mg"},{"bike_id":"a8be57c5-7aae-481b-9d75-71ce988d27a1","system_id":"levelo_inurba_marseille","lat":43.27815,"lon":5.4071,"is_reserved":false,"is_disabled":false,"rental_uris":{"android":"levelo://app?vid=a8be57c5-7aae-481b-9d75-71ce988d27a1","ios":"levelo://app?vid=a8be57c5-7aae-481b-9d75-71ce988d27a1"},"vehicle_type_id":"4","last_reported":1731020918,"current_range_meters":37600,"station_id":"ce4bhnh2rcd13ifvqgtg","pricing_plan_id":"cebpf4jnsgd1na2vs0mg"},{"bike_id":"dc1b2743-31f5-4beb-badc-27599fab1a00","system_id":"levelo_inurba_marseille","lat":43.31075,"lon":5.38354,"is_reserved":false,"is_disabled":false,"rental_uris":{"android":"levelo://app?vid=dc1b2743-31f5-4beb-badc-27599fab1a00","ios":"levelo://app?vid=dc1b2743-31f5-4beb-badc-27599fab1a00"},"vehicle_type_id":"4","last_reported":1731020918,"current_range_meters":26800,"station_id":"ce4bgv92rcd13ifvqcr0","pricing_plan_id":"cebpf4jnsgd1na2vs0mg"},{"bike_id":"42758877-c4e6-4f54-b67e-2527e84c4894","system_id":"levelo_inurba_marseille","lat":43.23182,"lon":5.39983,"is_reserved":false,"is_disabled":false,"rental_uris":{"android":"levelo://app?vid=42758877-c4e6-4f54-b67e-2527e84c4894","ios":"levelo://app?vid=42758877-c4e6-4f54-b67e-2527e84c4894"},"vehicle_type_id":"4","last_reported":1731020918,"current_range_meters":19200,"station_id":"ce4bhn12rcd13ifvqgqg","pricing_plan_id":"cebpf4jnsgd1na2vs0mg"},{"bike_id":"ac7c26a4-7f32-4a35-89cc-58a00220c239","system_id":"levelo_inurba_marseille","lat":43.28442,"lon":5.39183,"is_reserved":false,"is_disabled":false,"rental_uris":{"android":"levelo://app?vid=ac7c26a4-7f32-4a35-89cc-58a00220c239","ios":"levelo://app?vid=ac7c26a4-7f32-4a35-89cc-58a00220c239"},"vehicle_type_id":"4","last_reported":1731020918,"current_range_meters":39200,"station_id":"ce4bhoh2rcd13ifvqh5g","pricing_plan_id":"cebpf4jnsgd1na2vs0mg"},{"bike_id":"ddac5012-7d2f-493c-a878-792c81edb68c","system_id":"levelo_inurba_marseille","lat":43.30653,"lon":5.40092,"is_reserved":false,"is_disabled":false,"rental_uris":{"android":"levelo://app?vid=ddac5012-7d2f-493c-a878-792c81edb68c","ios":"levelo://app?vid=ddac5012-7d2f-493c-a878-792c81edb68c"},"vehicle_type_id":"4","last_reported":1731020918,"current_range_meters":38800,"station_id":"ce4bh112rcd13ifvqda0","pricing_plan_id":"cebpf4jnsgd1na2vs0mg"},{"bike_id":"cfba3e28-f2b9-4547-9ac6-2a3c70b41113","system_id":"levelo_inurba_marseille","lat":43.30322,"lon":5.40444,"is_reserved":false,"is_disabled":false,"rental_uris":{"android":"levelo://app?vid=cfba3e28-f2b9-4547-9ac6-2a3c70b41113","ios":"levelo://app?vid=cfba3e28-f2b9-4547-9ac6-2a3c70b41113"},"vehicle_type_id":"4","last_reported":1731020918,"current_range_meters":2800,"station_id":"ce4bh012rcd13ifvqd10","pricing_plan_id":"cebpf4jnsgd1na2vs0mg"},{"bike_id":"b6a02552-d203-4d73-8082-627bf6022bac","system_id":"levelo_inurba_marseille","lat":43.29281,"lon":5.40133,"is_reserved":false,"is_disabled":false,"rental_uris":{"android":"levelo://app?vid=b6a02552-d203-4d73-8082-627bf6022bac","ios":"levelo://app?vid=b6a02552-d203-4d73-8082-627bf6022bac"},"vehicle_type_id":"4","last_reported":1731020918,"current_range_meters":38400,"station_id":"ce4bh312rcd13ifvqdk0","pricing_plan_id":"cebpf4jnsgd1na2vs0mg"},{"bike_id":"dd355e47-ba86-4fcb-9761-910e28004b73","system_id":"levelo_inurba_marseille","lat":43.300893,"lon":5.390807,"is_reserved":false,"is_disabled":false,"rental_uris":{"android":"levelo://app?vid=dd355e47-ba86-4fcb-9761-910e28004b73","ios":"levelo://app?vid=dd355e47-ba86-4fcb-9761-910e28004b73"},"vehicle_type_id":"4","last_reported":1731020918,"current_range_meters":17600,"station_id":"ce4bgt12rcd13ifvqce0","pricing_plan_id":"cebpf4jnsgd1na2vs0mg"},{"bike_id":"2fe5b9db-22e8-4f37-b52c-dadb7614a3df","system_id":"levelo_inurba_marseille","lat":43.31709,"lon":5.3776,"is_reserved":false,"is_disabled":false,"rental_uris":{"android":"levelo://app?vid=2fe5b9db-22e8-4f37-b52c-dadb7614a3df","ios":"levelo://app?vid=2fe5b9db-22e8-4f37-b52c-dadb7614a3df"},"vehicle_type_id":"4","last_reported":1731020918,"current_range_meters":8800,"station_id":"ce4bgth2rcd13ifvqch0","pricing_plan_id":"cebpf4jnsgd1na2vs0mg"},{"bike_id":"96af24a7-9c6e-4e43-9718-e21c9845789c","system_id":"levelo_inurba_marseille","lat":43.28408,"lon":5.37512,"is_reserved":false,"is_disabled":false,"rental_uris":{"android":"levelo://app?vid=96af24a7-9c6e-4e43-9718-e21c9845789c","ios":"levelo://app?vid=96af24a7-9c6e-4e43-9718-e21c9845789c"},"vehicle_type_id":"4","last_reported":1731020918,"current_range_meters":38800,"station_id":"ce4bh412rcd13ifvqds0","pricing_plan_id":"cebpf4jnsgd1na2vs0mg"},{"bike_id":"f4304c5e-9261-4ad9-a252-0101ff316323","system_id":"levelo_inurba_marseille","lat":43.31283,"lon":5.40181,"is_reserved":false,"is_disabled":false,"rental_uris":{"android":"levelo://app?vid=f4304c5e-9261-4ad9-a252-0101ff316323","ios":"levelo://app?vid=f4304c5e-9261-4ad9-a252-0101ff316323"},"vehicle_type_id":"4","last_reported":1731020918,"current_range_meters":38800,"station_id":"ce4bh092rcd13ifvqd30","pricing_plan_id":"cebpf4jnsgd1na2vs0mg"},{"bike_id":"e921d78d-d0c9-4040-a6b5-1647df6be8ed","system_id":"levelo_inurba_marseille","lat":43.32366,"lon":5.38882,"is_reserved":false,"is_disabled":false,"rental_uris":{"android":"levelo://app?vid=e921d78d-d0c9-4040-a6b5-1647df6be8ed","ios":"levelo://app?vid=e921d78d-d0c9-4040-a6b5-1647df6be8ed"},"vehicle_type_id":"4","last_reported":1731020918,"current_range_meters":26000,"station_id":"ce4bhqp2rcd13ifvqhog","pricing_plan_id":"cebpf4jnsgd1na2vs0mg"},{"bike_id":"6ee84fef-bc76-4b47-88f3-3c4344293f4b","system_id":"levelo_inurba_marseille","lat":43.313251,"lon":5.396948,"is_reserved":false,"is_disabled":false,"rental_uris":{"android":"levelo://app?vid=6ee84fef-bc76-4b47-88f3-3c4344293f4b","ios":"levelo://app?vid=6ee84fef-bc76-4b47-88f3-3c4344293f4b"},"vehicle_type_id":"4","last_reported":1731020918,"current_range_meters":21600,"station_id":"ce4bgvp2rcd13ifvqcu0","pricing_plan_id":"cebpf4jnsgd1na2vs0mg"},{"bike_id":"c54d8938-bd66-4746-8397-6468d0e45158","system_id":"levelo_inurba_marseille","lat":43.30798,"lon":5.43521,"is_reserved":false,"is_disabled":false,"rental_uris":{"android":"levelo://app?vid=c54d8938-bd66-4746-8397-6468d0e45158","ios":"levelo://app?vid=c54d8938-bd66-4746-8397-6468d0e45158"},"vehicle_type_id":"4","last_reported":1731020918,"current_range_meters":38800,"station_id":"ce4bhph2rcd13ifvqheg","pricing_plan_id":"cebpf4jnsgd1na2vs0mg"},{"bike_id":"95ac8b55-d461-4c79-bf07-3deece0b5544","system_id":"levelo_inurba_marseille","lat":43.337444,"lon":5.374475,"is_reserved":false,"is_disabled":false,"rental_uris":{"android":"levelo://app?vid=95ac8b55-d461-4c79-bf07-3deece0b5544","ios":"levelo://app?vid=95ac8b55-d461-4c79-bf07-3deece0b5544"},"vehicle_type_id":"4","last_reported":1731020918,"current_range_meters":35600,"station_id":"","pricing_plan_id":"cebpf4jnsgd1na2vs0mg"},{"bike_id":"0a304a86-fc51-45c0-af63-961aec0242e1","system_id":"levelo_inurba_marseille","lat":43.24671,"lon":5.3816,"is_reserved":false,"is_disabled":false,"rental_uris":{"android":"levelo://app?vid=0a304a86-fc51-45c0-af63-961aec0242e1","ios":"levelo://app?vid=0a304a86-fc51-45c0-af63-961aec0242e1"},"vehicle_type_id":"4","last_reported":1731020918,"current_range_meters":21600,"station_id":"ce4bhih2rcd13ifvqfr0","pricing_plan_id":"cebpf4jnsgd1na2vs0mg"},{"bike_id":"a988717f-43a5-4b62-9c05-0c27b63c2b26","system_id":"levelo_inurba_marseille","lat":43.3136,"lon":5.38497,"is_reserved":false,"is_disabled":false,"rental_uris":{"android":"levelo://app?vid=a988717f-43a5-4b62-9c05-0c27b63c2b26","ios":"levelo://app?vid=a988717f-43a5-4b62-9c05-0c27b63c2b26"},"vehicle_type_id":"4","last_reported":1731020918,"current_range_meters":19600,"station_id":"ce4bgt92rcd13ifvqcf0","pricing_plan_id":"cebpf4jnsgd1na2vs0mg"},{"bike_id":"2558d9d8-30f3-4cb9-ae47-7f44ecff7179","system_id":"levelo_inurba_marseille","lat":43.2928,"lon":5.40127,"is_reserved":false,"is_disabled":false,"rental_uris":{"android":"levelo://app?vid=2558d9d8-30f3-4cb9-ae47-7f44ecff7179","ios":"levelo://app?vid=2558d9d8-30f3-4cb9-ae47-7f44ecff7179"},"vehicle_type_id":"4","last_reported":1731020918,"current_range_meters":28000,"station_id":"ce4bh312rcd13ifvqdk0","pricing_plan_id":"cebpf4jnsgd1na2vs0mg"},{"bike_id":"2e20f2a1-b564-48ea-877a-8fba77b4c953","system_id":"levelo_inurba_marseille","lat":43.22926,"lon":5.35378,"is_reserved":false,"is_disabled":false,"rental_uris":{"android":"levelo://app?vid=2e20f2a1-b564-48ea-877a-8fba77b4c953","ios":"levelo://app?vid=2e20f2a1-b564-48ea-877a-8fba77b4c953"},"vehicle_type_id":"4","last_reported":1731020918,"current_range_meters":34800,"station_id":"cpo3532slgdg3j2ikp40","pricing_plan_id":"cebpf4jnsgd1na2vs0mg"},{"bike_id":"5dae8da9-34fd-43f0-886d-9017bc04ac44","system_id":"levelo_inurba_marseille","lat":43.28346,"lon":5.38115,"is_reserved":false,"is_disabled":false,"rental_uris":{"android":"levelo://app?vid=5dae8da9-34fd-43f0-886d-9017bc04ac44","ios":"levelo://app?vid=5dae8da9-34fd-43f0-886d-9017bc04ac44"},"vehicle_type_id":"4","last_reported":1731020918,"current_range_meters":30400,"station_id":"ce4bh412rcd13ifvqdr0","pricing_plan_id":"cebpf4jnsgd1na2vs0mg"},{"bike_id":"f4a9dd9a-de7e-429c-b4ad-f25ff369cf2c","system_id":"levelo_inurba_marseille","lat":43.29222,"lon":5.38758,"is_reserved":false,"is_disabled":false,"rental_uris":{"android":"levelo://app?vid=f4a9dd9a-de7e-429c-b4ad-f25ff369cf2c","ios":"levelo://app?vid=f4a9dd9a-de7e-429c-b4ad-f25ff369cf2c"},"vehicle_type_id":"4","last_reported":1731020918,"current_range_meters":26000,"station_id":"ce4bh512rcd13ifvqe3g","pricing_plan_id":"cebpf4jnsgd1na2vs0mg"},{"bike_id":"0556d1ba-bdda-4aa5-9874-32ffac365c8e","system_id":"levelo_inurba_marseille","lat":43.29801,"lon":5.40404,"is_reserved":false,"is_disabled":false,"rental_uris":{"android":"levelo://app?vid=0556d1ba-bdda-4aa5-9874-32ffac365c8e","ios":"levelo://app?vid=0556d1ba-bdda-4aa5-9874-32ffac365c8e"},"vehicle_type_id":"4","last_reported":1731020918,"current_range_meters":26000,"station_id":"ce4bh112rcd13ifvqd90","pricing_plan_id":"cebpf4jnsgd1na2vs0mg"},{"bike_id":"80212925-c84c-4a76-b314-f479f8a773e5","system_id":"levelo_inurba_marseille","lat":43.32333,"lon":5.40616,"is_reserved":false,"is_disabled":false,"rental_uris":{"android":"levelo://app?vid=80212925-c84c-4a76-b314-f479f8a773e5","ios":"levelo://app?vid=80212925-c84c-4a76-b314-f479f8a773e5"},"vehicle_type_id":"4","last_reported":1731020918,"current_range_meters":39200,"station_id":"ce4bhq92rcd13ifvqhjg","pricing_plan_id":"cebpf4jnsgd1na2vs0mg"},{"bike_id":"21cd2f46-7e50-4832-8919-1d871df023a1","system_id":"levelo_inurba_marseille","lat":43.28468,"lon":5.3588,"is_reserved":false,"is_disabled":false,"rental_uris":{"android":"levelo://app?vid=21cd2f46-7e50-4832-8919-1d871df023a1","ios":"levelo://app?vid=21cd2f46-7e50-4832-8919-1d871df023a1"},"vehicle_type_id":"4","last_reported":1731020918,"current_range_meters":39200,"station_id":"ce4bhah2rcd13ifvqei0","pricing_plan_id":"cebpf4jnsgd1na2vs0mg"},{"bike_id":"b702c0c9-42b8-4c25-a9e8-032793ae2d4d","system_id":"levelo_inurba_marseille","lat":43.30647,"lon":5.40077,"is_reserved":false,"is_disabled":false,"rental_uris":{"android":"levelo://app?vid=b702c0c9-42b8-4c25-a9e8-032793ae2d4d","ios":"levelo://app?vid=b702c0c9-42b8-4c25-a9e8-032793ae2d4d"},"vehicle_type_id":"4","last_reported":1731020918,"current_range_meters":12000,"station_id":"ce4bh112rcd13ifvqda0","pricing_plan_id":"cebpf4jnsgd1na2vs0mg"},{"bike_id":"34b87db9-292f-4e21-aec4-c1be08bf25e5","system_id":"levelo_inurba_marseille","lat":43.27954,"lon":5.41046,"is_reserved":false,"is_disabled":false,"rental_uris":{"android":"levelo://app?vid=34b87db9-292f-4e21-aec4-c1be08bf25e5","ios":"levelo://app?vid=34b87db9-292f-4e21-aec4-c1be08bf25e5"},"vehicle_type_id":"4","last_reported":1731020918,"current_range_meters":38800,"station_id":"ce4bhnp2rcd13ifvqh0g","pricing_plan_id":"cebpf4jnsgd1na2vs0mg"},{"bike_id":"4bdea980-4310-4f8e-b7ec-43928e5b9660","system_id":"levelo_inurba_marseille","lat":43.29516,"lon":5.39404,"is_reserved":false,"is_disabled":false,"rental_uris":{"android":"levelo://app?vid=4bdea980-4310-4f8e-b7ec-43928e5b9660","ios":"levelo://app?vid=4bdea980-4310-4f8e-b7ec-43928e5b9660"},"vehicle_type_id":"4","last_reported":1731020918,"current_range_meters":38800,"station_id":"ce4bh292rcd13ifvqdf0","pricing_plan_id":"cebpf4jnsgd1na2vs0mg"},{"bike_id":"f139c0b7-52a7-4153-bf41-ccb9fdb0faad","system_id":"levelo_inurba_marseille","lat":43.28732,"lon":5.36083,"is_reserved":false,"is_disabled":false,"rental_uris":{"android":"levelo://app?vid=f139c0b7-52a7-4153-bf41-ccb9fdb0faad","ios":"levelo://app?vid=f139c0b7-52a7-4153-bf41-ccb9fdb0faad"},"vehicle_type_id":"4","last_reported":1731020918,"current_range_meters":38800,"station_id":"cki0cbj6b192h4jlfktg","pricing_plan_id":"cebpf4jnsgd1na2vs0mg"},{"bike_id":"0cfda96f-b7df-4112-9c1d-143c45b1a529","system_id":"levelo_inurba_marseille","lat":43.301,"lon":5.39092,"is_reserved":false,"is_disabled":false,"rental_uris":{"android":"levelo://app?vid=0cfda96f-b7df-4112-9c1d-143c45b1a529","ios":"levelo://app?vid=0cfda96f-b7df-4112-9c1d-143c45b1a529"},"vehicle_type_id":"4","last_reported":1731020918,"current_range_meters":27600,"station_id":"ce4bh192rcd13ifvqdb0","pricing_plan_id":"cebpf4jnsgd1na2vs0mg"},{"bike_id":"c34c5d35-6a72-4073-90cd-56fbb312c7f0","system_id":"levelo_inurba_marseille","lat":43.287,"lon":5.37389,"is_reserved":false,"is_disabled":false,"rental_uris":{"android":"levelo://app?vid=c34c5d35-6a72-4073-90cd-56fbb312c7f0","ios":"levelo://app?vid=c34c5d35-6a72-4073-90cd-56fbb312c7f0"},"vehicle_type_id":"4","last_reported":1731020918,"current_range_meters":22800,"station_id":"ce4bh3p2rcd13ifvqdq0","pricing_plan_id":"cebpf4jnsgd1na2vs0mg"},{"bike_id":"3d65a636-faeb-4cdc-870e-c146404fe702","system_id":"levelo_inurba_marseille","lat":43.2738,"lon":5.36273,"is_reserved":false,"is_disabled":false,"rental_uris":{"android":"levelo://app?vid=3d65a636-faeb-4cdc-870e-c146404fe702","ios":"levelo://app?vid=3d65a636-faeb-4cdc-870e-c146404fe702"},"vehicle_type_id":"4","last_reported":1731020918,"current_range_meters":24800,"station_id":"ce4bhbh2rcd13ifvqeo0","pricing_plan_id":"cebpf4jnsgd1na2vs0mg"},{"bike_id":"03aac47a-870f-474f-98b2-53c038d2acf5","system_id":"levelo_inurba_marseille","lat":43.31763,"lon":5.39014,"is_reserved":false,"is_disabled":false,"rental_uris":{"android":"levelo://app?vid=03aac47a-870f-474f-98b2-53c038d2acf5","ios":"levelo://app?vid=03aac47a-870f-474f-98b2-53c038d2acf5"},"vehicle_type_id":"4","last_reported":1731020918,"current_range_meters":14400,"station_id":"ce4bhqp2rcd13ifvqhng","pricing_plan_id":"cebpf4jnsgd1na2vs0mg"},{"bike_id":"42d7da00-3ba0-4e07-9e84-0c59bc75ac05","system_id":"levelo_inurba_marseille","lat":43.298645,"lon":5.397235,"is_reserved":false,"is_disabled":false,"rental_uris":{"android":"levelo://app?vid=42d7da00-3ba0-4e07-9e84-0c59bc75ac05","ios":"levelo://app?vid=42d7da00-3ba0-4e07-9e84-0c59bc75ac05"},"vehicle_type_id":"4","last_reported":1731020918,"current_range_meters":10000,"station_id":"ce4bh0h2rcd13ifvqd50","pricing_plan_id":"cebpf4jnsgd1na2vs0mg"},{"bike_id":"c2724ba5-affb-4604-aece-17eb1e70aa22","system_id":"levelo_inurba_marseille","lat":43.2511,"lon":5.4033,"is_reserved":false,"is_disabled":false,"rental_uris":{"android":"levelo://app?vid=c2724ba5-affb-4604-aece-17eb1e70aa22","ios":"levelo://app?vid=c2724ba5-affb-4604-aece-17eb1e70aa22"},"vehicle_type_id":"4","last_reported":1731020918,"current_range_meters":36800,"station_id":"ce4bhlh2rcd13ifvqgig","pricing_plan_id":"cebpf4jnsgd1na2vs0mg"},{"bike_id":"746f8df5-cd38-4c92-9c55-a49257706bc6","system_id":"levelo_inurba_marseille","lat":43.31325,"lon":5.39694,"is_reserved":false,"is_disabled":false,"rental_uris":{"android":"levelo://app?vid=746f8df5-cd38-4c92-9c55-a49257706bc6","ios":"levelo://app?vid=746f8df5-cd38-4c92-9c55-a49257706bc6"},"vehicle_type_id":"4","last_reported":1731020918,"current_range_meters":38800,"station_id":"ce4bgvp2rcd13ifvqcu0","pricing_plan_id":"cebpf4jnsgd1na2vs0mg"},{"bike_id":"fe50f747-7601-4d68-a505-ed41ded24de5","system_id":"levelo_inurba_marseille","lat":43.28576,"lon":5.39503,"is_reserved":false,"is_disabled":false,"rental_uris":{"android":"levelo://app?vid=fe50f747-7601-4d68-a505-ed41ded24de5","ios":"levelo://app?vid=fe50f747-7601-4d68-a505-ed41ded24de5"},"vehicle_type_id":"4","last_reported":1731020918,"current_range_meters":34000,"station_id":"ce4bh292rcd13ifvqdg0","pricing_plan_id":"cebpf4jnsgd1na2vs0mg"},{"bike_id":"a74b44b4-87ff-4b7e-a402-b5c8034a02a9","system_id":"levelo_inurba_marseille","lat":43.30803,"lon":5.38158,"is_reserved":false,"is_disabled":false,"rental_uris":{"android":"levelo://app?vid=a74b44b4-87ff-4b7e-a402-b5c8034a02a9","ios":"levelo://app?vid=a74b44b4-87ff-4b7e-a402-b5c8034a02a9"},"vehicle_type_id":"4","last_reported":1731020918,"current_range_meters":23200,"station_id":"ce4bgt12rcd13ifvqce0","pricing_plan_id":"cebpf4jnsgd1na2vs0mg"},{"bike_id":"80d5c89e-745d-46d6-9ab9-4f5ea40b6def","system_id":"levelo_inurba_marseille","lat":43.27177,"lon":5.40992,"is_reserved":false,"is_disabled":false,"rental_uris":{"android":"levelo://app?vid=80d5c89e-745d-46d6-9ab9-4f5ea40b6def","ios":"levelo://app?vid=80d5c89e-745d-46d6-9ab9-4f5ea40b6def"},"vehicle_type_id":"4","last_reported":1731020918,"current_range_meters":12800,"station_id":"ce4bhl12rcd13ifvqgf0","pricing_plan_id":"cebpf4jnsgd1na2vs0mg"},{"bike_id":"ef288286-229d-4b9a-a189-8d61840dcffb","system_id":"levelo_inurba_marseille","lat":43.23192,"lon":5.35549,"is_reserved":false,"is_disabled":false,"rental_uris":{"android":"levelo://app?vid=ef288286-229d-4b9a-a189-8d61840dcffb","ios":"levelo://app?vid=ef288286-229d-4b9a-a189-8d61840dcffb"},"vehicle_type_id":"4","last_reported":1731020918,"current_range_meters":8400,"station_id":"ce4bhu92rcd13ifvqi70","pricing_plan_id":"cebpf4jnsgd1na2vs0mg"},{"bike_id":"1007f078-d100-45fa-9511-d3640dc22471","system_id":"levelo_inurba_marseille","lat":43.30211,"lon":5.3946,"is_reserved":false,"is_disabled":false,"rental_uris":{"android":"levelo://app?vid=1007f078-d100-45fa-9511-d3640dc22471","ios":"levelo://app?vid=1007f078-d100-45fa-9511-d3640dc22471"},"vehicle_type_id":"4","last_reported":1731020918,"current_range_meters":27200,"station_id":"ce4bh0p2rcd13ifvqd70","pricing_plan_id":"cebpf4jnsgd1na2vs0mg"},{"bike_id":"9044ed43-de46-4645-b2ad-5e136647239a","system_id":"levelo_inurba_marseille","lat":43.337444,"lon":5.374475,"is_reserved":false,"is_disabled":false,"rental_uris":{"android":"levelo://app?vid=9044ed43-de46-4645-b2ad-5e136647239a","ios":"levelo://app?vid=9044ed43-de46-4645-b2ad-5e136647239a"},"vehicle_type_id":"4","last_reported":1731020918,"current_range_meters":35200,"station_id":"","pricing_plan_id":"cebpf4jnsgd1na2vs0mg"},{"bike_id":"12b003b7-90d6-4fdd-8299-e3bd69e5ba2a","system_id":"levelo_inurba_marseille","lat":43.3015,"lon":5.37412,"is_reserved":false,"is_disabled":false,"rental_uris":{"android":"levelo://app?vid=12b003b7-90d6-4fdd-8299-e3bd69e5ba2a","ios":"levelo://app?vid=12b003b7-90d6-4fdd-8299-e3bd69e5ba2a"},"vehicle_type_id":"4","last_reported":1731020918,"current_range_meters":38800,"station_id":"ce4bgs92rcd13ifvqcc0","pricing_plan_id":"cebpf4jnsgd1na2vs0mg"},{"bike_id":"cde33d01-4fdf-4588-9993-50576e545d63","system_id":"levelo_inurba_marseille","lat":43.29898,"lon":5.43662,"is_reserved":false,"is_disabled":false,"rental_uris":{"android":"levelo://app?vid=cde33d01-4fdf-4588-9993-50576e545d63","ios":"levelo://app?vid=cde33d01-4fdf-4588-9993-50576e545d63"},"vehicle_type_id":"4","last_reported":1731020918,"current_range_meters":31200,"station_id":"ce4bhpp2rcd13ifvqhfg","pricing_plan_id":"cebpf4jnsgd1na2vs0mg"},{"bike_id":"84d60574-e97d-416a-bb69-40e9fb469182","system_id":"levelo_inurba_marseille","lat":43.22928,"lon":5.35377,"is_reserved":false,"is_disabled":false,"rental_uris":{"android":"levelo://app?vid=84d60574-e97d-416a-bb69-40e9fb469182","ios":"levelo://app?vid=84d60574-e97d-416a-bb69-40e9fb469182"},"vehicle_type_id":"4","last_reported":1731020918,"current_range_meters":38800,"station_id":"cpo3532slgdg3j2ikp40","pricing_plan_id":"cebpf4jnsgd1na2vs0mg"},{"bike_id":"bf432c7d-0437-4199-a41d-28c8036b0386","system_id":"levelo_inurba_marseille","lat":43.25858,"lon":5.39901,"is_reserved":false,"is_disabled":false,"rental_uris":{"android":"levelo://app?vid=bf432c7d-0437-4199-a41d-28c8036b0386","ios":"levelo://app?vid=bf432c7d-0437-4199-a41d-28c8036b0386"},"vehicle_type_id":"4","last_reported":1731020918,"current_range_meters":38800,"station_id":"ce4bhl92rcd13ifvqghg","pricing_plan_id":"cebpf4jnsgd1na2vs0mg"},{"bike_id":"55106918-c43e-4f94-9771-9d01b3b33b93","system_id":"levelo_inurba_marseille","lat":43.25727,"lon":5.41117,"is_reserved":false,"is_disabled":false,"rental_uris":{"android":"levelo://app?vid=55106918-c43e-4f94-9771-9d01b3b33b93","ios":"levelo://app?vid=55106918-c43e-4f94-9771-9d01b3b33b93"},"vehicle_type_id":"4","last_reported":1731020918,"current_range_meters":38800,"station_id":"ce4bhkp2rcd13ifvqgd0","pricing_plan_id":"cebpf4jnsgd1na2vs0mg"},{"bike_id":"8190e161-5630-45e1-90ba-3f2b13675692","system_id":"levelo_inurba_marseille","lat":43.29566,"lon":5.39971,"is_reserved":false,"is_disabled":false,"rental_uris":{"android":"levelo://app?vid=8190e161-5630-45e1-90ba-3f2b13675692","ios":"levelo://app?vid=8190e161-5630-45e1-90ba-3f2b13675692"},"vehicle_type_id":"4","last_reported":1731020918,"current_range_meters":38800,"station_id":"ce4bh312rcd13ifvqdj0","pricing_plan_id":"cebpf4jnsgd1na2vs0mg"},{"bike_id":"b26d11aa-17b7-44a4-94f9-5cee11ed8cac","system_id":"levelo_inurba_marseille","lat":43.29794,"lon":5.39343,"is_reserved":false,"is_disabled":false,"rental_uris":{"android":"levelo://app?vid=b26d11aa-17b7-44a4-94f9-5cee11ed8cac","ios":"levelo://app?vid=b26d11aa-17b7-44a4-94f9-5cee11ed8cac"},"vehicle_type_id":"4","last_reported":1731020918,"current_range_meters":28000,"station_id":"chh1huq6cuj3fo74tm60","pricing_plan_id":"cebpf4jnsgd1na2vs0mg"},{"bike_id":"7213140a-2c29-4022-8d7d-884b254061f4","system_id":"levelo_inurba_marseille","lat":43.31279,"lon":5.40174,"is_reserved":false,"is_disabled":false,"rental_uris":{"android":"levelo://app?vid=7213140a-2c29-4022-8d7d-884b254061f4","ios":"levelo://app?vid=7213140a-2c29-4022-8d7d-884b254061f4"},"vehicle_type_id":"4","last_reported":1731020918,"current_range_meters":38000,"station_id":"ce4bh092rcd13ifvqd30","pricing_plan_id":"cebpf4jnsgd1na2vs0mg"},{"bike_id":"38c9c563-2dc8-4ec3-94f6-fd20caf6397c","system_id":"levelo_inurba_marseille","lat":43.28579,"lon":5.39509,"is_reserved":false,"is_disabled":false,"rental_uris":{"android":"levelo://app?vid=38c9c563-2dc8-4ec3-94f6-fd20caf6397c","ios":"levelo://app?vid=38c9c563-2dc8-4ec3-94f6-fd20caf6397c"},"vehicle_type_id":"4","last_reported":1731020918,"current_range_meters":39200,"station_id":"ce4bh292rcd13ifvqdg0","pricing_plan_id":"cebpf4jnsgd1na2vs0mg"},{"bike_id":"4eecdf01-2312-4036-b477-5b5650016af3","system_id":"levelo_inurba_marseille","lat":43.28352,"lon":5.38104,"is_reserved":false,"is_disabled":false,"rental_uris":{"android":"levelo://app?vid=4eecdf01-2312-4036-b477-5b5650016af3","ios":"levelo://app?vid=4eecdf01-2312-4036-b477-5b5650016af3"},"vehicle_type_id":"4","last_reported":1731020918,"current_range_meters":36400,"station_id":"ce4bh412rcd13ifvqdr0","pricing_plan_id":"cebpf4jnsgd1na2vs0mg"},{"bike_id":"70de144a-0069-4f13-ae37-8c7543eaf7d5","system_id":"levelo_inurba_marseille","lat":43.28573,"lon":5.39499,"is_reserved":false,"is_disabled":false,"rental_uris":{"android":"levelo://app?vid=70de144a-0069-4f13-ae37-8c7543eaf7d5","ios":"levelo://app?vid=70de144a-0069-4f13-ae37-8c7543eaf7d5"},"vehicle_type_id":"4","last_reported":1731020918,"current_range_meters":24000,"station_id":"ce4bh292rcd13ifvqdg0","pricing_plan_id":"cebpf4jnsgd1na2vs0mg"},{"bike_id":"c3c58e67-015d-480b-9891-b775b2911159","system_id":"levelo_inurba_marseille","lat":43.28672,"lon":5.36353,"is_reserved":false,"is_disabled":false,"rental_uris":{"android":"levelo://app?vid=c3c58e67-015d-480b-9891-b775b2911159","ios":"levelo://app?vid=c3c58e67-015d-480b-9891-b775b2911159"},"vehicle_type_id":"4","last_reported":1731020918,"current_range_meters":38800,"station_id":"ce4bhah2rcd13ifvqej0","pricing_plan_id":"cebpf4jnsgd1na2vs0mg"},{"bike_id":"5c61af28-1888-43f7-a2e4-9b3671fa3d52","system_id":"levelo_inurba_marseille","lat":43.28104,"lon":5.37839,"is_reserved":false,"is_disabled":false,"rental_uris":{"android":"levelo://app?vid=5c61af28-1888-43f7-a2e4-9b3671fa3d52","ios":"levelo://app?vid=5c61af28-1888-43f7-a2e4-9b3671fa3d52"},"vehicle_type_id":"4","last_reported":1731020918,"current_range_meters":38400,"station_id":"ce4bha12rcd13ifvqee0","pricing_plan_id":"cebpf4jnsgd1na2vs0mg"},{"bike_id":"e7cd005d-d362-4c36-a955-3c59f122a64d","system_id":"levelo_inurba_marseille","lat":43.28149,"lon":5.42641,"is_reserved":false,"is_disabled":false,"rental_uris":{"android":"levelo://app?vid=e7cd005d-d362-4c36-a955-3c59f122a64d","ios":"levelo://app?vid=e7cd005d-d362-4c36-a955-3c59f122a64d"},"vehicle_type_id":"4","last_reported":1731020918,"current_range_meters":26800,"station_id":"ce4bhnh2rcd13ifvqgug","pricing_plan_id":"cebpf4jnsgd1na2vs0mg"},{"bike_id":"73b5e008-8cdb-4a7d-8781-802838d2c5eb","system_id":"levelo_inurba_marseille","lat":43.31363,"lon":5.38498,"is_reserved":false,"is_disabled":false,"rental_uris":{"android":"levelo://app?vid=73b5e008-8cdb-4a7d-8781-802838d2c5eb","ios":"levelo://app?vid=73b5e008-8cdb-4a7d-8781-802838d2c5eb"},"vehicle_type_id":"4","last_reported":1731020918,"current_range_meters":10000,"station_id":"ce4bgt92rcd13ifvqcf0","pricing_plan_id":"cebpf4jnsgd1na2vs0mg"},{"bike_id":"86df6946-1e8b-4481-962b-4975b4baf575","system_id":"levelo_inurba_marseille","lat":43.27913,"lon":5.39589,"is_reserved":false,"is_disabled":false,"rental_uris":{"android":"levelo://app?vid=86df6946-1e8b-4481-962b-4975b4baf575","ios":"levelo://app?vid=86df6946-1e8b-4481-962b-4975b4baf575"},"vehicle_type_id":"4","last_reported":1731020918,"current_range_meters":24800,"station_id":"ce4bhf92rcd13ifvqf40","pricing_plan_id":"cebpf4jnsgd1na2vs0mg"},{"bike_id":"ca962693-2895-4340-9047-baf52dc420f0","system_id":"levelo_inurba_marseille","lat":43.29807,"lon":5.40412,"is_reserved":false,"is_disabled":false,"rental_uris":{"android":"levelo://app?vid=ca962693-2895-4340-9047-baf52dc420f0","ios":"levelo://app?vid=ca962693-2895-4340-9047-baf52dc420f0"},"vehicle_type_id":"4","last_reported":1731020918,"current_range_meters":38800,"station_id":"ce4bh112rcd13ifvqd90","pricing_plan_id":"cebpf4jnsgd1na2vs0mg"},{"bike_id":"4c241be9-8b83-41c3-a294-004c1832bd02","system_id":"levelo_inurba_marseille","lat":43.28706,"lon":5.39989,"is_reserved":false,"is_disabled":false,"rental_uris":{"android":"levelo://app?vid=4c241be9-8b83-41c3-a294-004c1832bd02","ios":"levelo://app?vid=4c241be9-8b83-41c3-a294-004c1832bd02"},"vehicle_type_id":"4","last_reported":1731020918,"current_range_meters":38400,"station_id":"ce4bho92rcd13ifvqh3g","pricing_plan_id":"cebpf4jnsgd1na2vs0mg"},{"bike_id":"ecde584f-5379-4d17-af3f-ba7114b2c649","system_id":"levelo_inurba_marseille","lat":43.2605,"lon":5.39395,"is_reserved":false,"is_disabled":false,"rental_uris":{"android":"levelo://app?vid=ecde584f-5379-4d17-af3f-ba7114b2c649","ios":"levelo://app?vid=ecde584f-5379-4d17-af3f-ba7114b2c649"},"vehicle_type_id":"4","last_reported":1731020918,"current_range_meters":38800,"station_id":"ce4bhh92rcd13ifvqfj0","pricing_plan_id":"cebpf4jnsgd1na2vs0mg"},{"bike_id":"d9f62232-bf1d-4648-a44d-0d8f902be5a7","system_id":"levelo_inurba_marseille","lat":43.27635,"lon":5.4264,"is_reserved":false,"is_disabled":false,"rental_uris":{"android":"levelo://app?vid=d9f62232-bf1d-4648-a44d-0d8f902be5a7","ios":"levelo://app?vid=d9f62232-bf1d-4648-a44d-0d8f902be5a7"},"vehicle_type_id":"4","last_reported":1731020918,"current_range_meters":8000,"station_id":"","pricing_plan_id":"cebpf4jnsgd1na2vs0mg"},{"bike_id":"5f5fed70-1a16-4a51-9daa-ef868c6df0d0","system_id":"levelo_inurba_marseille","lat":43.239583,"lon":5.366375,"is_reserved":false,"is_disabled":false,"rental_uris":{"android":"levelo://app?vid=5f5fed70-1a16-4a51-9daa-ef868c6df0d0","ios":"levelo://app?vid=5f5fed70-1a16-4a51-9daa-ef868c6df0d0"},"vehicle_type_id":"4","last_reported":1731020918,"current_range_meters":17200,"station_id":"ce4bhi12rcd13ifvqfp0","pricing_plan_id":"cebpf4jnsgd1na2vs0mg"},{"bike_id":"6c04de54-8dbd-4e1b-8912-9143e705093a","system_id":"levelo_inurba_marseille","lat":43.28311,"lon":5.36085,"is_reserved":false,"is_disabled":false,"rental_uris":{"android":"levelo://app?vid=6c04de54-8dbd-4e1b-8912-9143e705093a","ios":"levelo://app?vid=6c04de54-8dbd-4e1b-8912-9143e705093a"},"vehicle_type_id":"4","last_reported":1731020918,"current_range_meters":22000,"station_id":"","pricing_plan_id":"cebpf4jnsgd1na2vs0mg"},{"bike_id":"67678471-8900-40c3-b5bb-806b24feb686","system_id":"levelo_inurba_marseille","lat":43.31327,"lon":5.39688,"is_reserved":false,"is_disabled":false,"rental_uris":{"android":"levelo://app?vid=67678471-8900-40c3-b5bb-806b24feb686","ios":"levelo://app?vid=67678471-8900-40c3-b5bb-806b24feb686"},"vehicle_type_id":"4","last_reported":1731020918,"current_range_meters":26000,"station_id":"ce4bgvp2rcd13ifvqcu0","pricing_plan_id":"cebpf4jnsgd1na2vs0mg"},{"bike_id":"56f25a01-e9b4-4614-888c-cf6de6b16e2a","system_id":"levelo_inurba_marseille","lat":43.31714,"lon":5.37764,"is_reserved":false,"is_disabled":false,"rental_uris":{"android":"levelo://app?vid=56f25a01-e9b4-4614-888c-cf6de6b16e2a","ios":"levelo://app?vid=56f25a01-e9b4-4614-888c-cf6de6b16e2a"},"vehicle_type_id":"4","last_reported":1731020918,"current_range_meters":30800,"station_id":"ce4bgth2rcd13ifvqch0","pricing_plan_id":"cebpf4jnsgd1na2vs0mg"},{"bike_id":"65eea0cd-2ca5-4855-b964-b026702e1d71","system_id":"levelo_inurba_marseille","lat":43.27911,"lon":5.39578,"is_reserved":false,"is_disabled":false,"rental_uris":{"android":"levelo://app?vid=65eea0cd-2ca5-4855-b964-b026702e1d71","ios":"levelo://app?vid=65eea0cd-2ca5-4855-b964-b026702e1d71"},"vehicle_type_id":"4","last_reported":1731020918,"current_range_meters":22000,"station_id":"ce4bhf92rcd13ifvqf40","pricing_plan_id":"cebpf4jnsgd1na2vs0mg"},{"bike_id":"d2dc696d-23ad-44cf-96bd-d2d2b96a9859","system_id":"levelo_inurba_marseille","lat":43.29452,"lon":5.39769,"is_reserved":false,"is_disabled":false,"rental_uris":{"android":"levelo://app?vid=d2dc696d-23ad-44cf-96bd-d2d2b96a9859","ios":"levelo://app?vid=d2dc696d-23ad-44cf-96bd-d2d2b96a9859"},"vehicle_type_id":"4","last_reported":1731020918,"current_range_meters":34000,"station_id":"ce4bh3h2rcd13ifvqdo0","pricing_plan_id":"cebpf4jnsgd1na2vs0mg"},{"bike_id":"c70f3a51-3c77-47f4-afdc-c467e625745f","system_id":"levelo_inurba_marseille","lat":43.28106,"lon":5.38218,"is_reserved":false,"is_disabled":false,"rental_uris":{"android":"levelo://app?vid=c70f3a51-3c77-47f4-afdc-c467e625745f","ios":"levelo://app?vid=c70f3a51-3c77-47f4-afdc-c467e625745f"},"vehicle_type_id":"4","last_reported":1731020918,"current_range_meters":25600,"station_id":"","pricing_plan_id":"cebpf4jnsgd1na2vs0mg"},{"bike_id":"d6fdae69-642e-4d84-a8fd-edeb75ed0ef4","system_id":"levelo_inurba_marseille","lat":43.22925,"lon":5.35377,"is_reserved":false,"is_disabled":false,"rental_uris":{"android":"levelo://app?vid=d6fdae69-642e-4d84-a8fd-edeb75ed0ef4","ios":"levelo://app?vid=d6fdae69-642e-4d84-a8fd-edeb75ed0ef4"},"vehicle_type_id":"4","last_reported":1731020918,"current_range_meters":26000,"station_id":"cpo3532slgdg3j2ikp40","pricing_plan_id":"cebpf4jnsgd1na2vs0mg"},{"bike_id":"750e93d0-01f1-496d-93b1-920137237eef","system_id":"levelo_inurba_marseille","lat":43.31174,"lon":5.38717,"is_reserved":false,"is_disabled":false,"rental_uris":{"android":"levelo://app?vid=750e93d0-01f1-496d-93b1-920137237eef","ios":"levelo://app?vid=750e93d0-01f1-496d-93b1-920137237eef"},"vehicle_type_id":"4","last_reported":1731020918,"current_range_meters":38800,"station_id":"ce4bgv12rcd13ifvqcp0","pricing_plan_id":"cebpf4jnsgd1na2vs0mg"},{"bike_id":"0dbd4524-d4da-4d40-9087-5e2c18e4dea4","system_id":"levelo_inurba_marseille","lat":43.2858,"lon":5.39506,"is_reserved":false,"is_disabled":false,"rental_uris":{"android":"levelo://app?vid=0dbd4524-d4da-4d40-9087-5e2c18e4dea4","ios":"levelo://app?vid=0dbd4524-d4da-4d40-9087-5e2c18e4dea4"},"vehicle_type_id":"4","last_reported":1731020918,"current_range_meters":12000,"station_id":"ce4bh292rcd13ifvqdg0","pricing_plan_id":"cebpf4jnsgd1na2vs0mg"},{"bike_id":"5ce4f4d7-2db3-4c04-8c14-afae7933ede7","system_id":"levelo_inurba_marseille","lat":43.27916,"lon":5.39575,"is_reserved":false,"is_disabled":false,"rental_uris":{"android":"levelo://app?vid=5ce4f4d7-2db3-4c04-8c14-afae7933ede7","ios":"levelo://app?vid=5ce4f4d7-2db3-4c04-8c14-afae7933ede7"},"vehicle_type_id":"4","last_reported":1731020918,"current_range_meters":8000,"station_id":"ce4bhf92rcd13ifvqf40","pricing_plan_id":"cebpf4jnsgd1na2vs0mg"},{"bike_id":"643bca0a-b64b-4b32-85c7-4a59591334b7","system_id":"levelo_inurba_marseille","lat":43.28155,"lon":5.42643,"is_reserved":false,"is_disabled":false,"rental_uris":{"android":"levelo://app?vid=643bca0a-b64b-4b32-85c7-4a59591334b7","ios":"levelo://app?vid=643bca0a-b64b-4b32-85c7-4a59591334b7"},"vehicle_type_id":"4","last_reported":1731020918,"current_range_meters":19600,"station_id":"ce4bhnh2rcd13ifvqgug","pricing_plan_id":"cebpf4jnsgd1na2vs0mg"},{"bike_id":"beed6431-178e-401a-9fa0-1b1a15e0b666","system_id":"levelo_inurba_marseille","lat":43.250543,"lon":5.40306,"is_reserved":false,"is_disabled":false,"rental_uris":{"android":"levelo://app?vid=beed6431-178e-401a-9fa0-1b1a15e0b666","ios":"levelo://app?vid=beed6431-178e-401a-9fa0-1b1a15e0b666"},"vehicle_type_id":"4","last_reported":1731020918,"current_range_meters":38800,"station_id":"","pricing_plan_id":"cebpf4jnsgd1na2vs0mg"},{"bike_id":"f514e9d2-622e-4f9c-8674-304ce0e33a58","system_id":"levelo_inurba_marseille","lat":43.28105,"lon":5.37843,"is_reserved":false,"is_disabled":false,"rental_uris":{"android":"levelo://app?vid=f514e9d2-622e-4f9c-8674-304ce0e33a58","ios":"levelo://app?vid=f514e9d2-622e-4f9c-8674-304ce0e33a58"},"vehicle_type_id":"4","last_reported":1731020918,"current_range_meters":38400,"station_id":"ce4bha12rcd13ifvqee0","pricing_plan_id":"cebpf4jnsgd1na2vs0mg"},{"bike_id":"001b7c42-40a7-47a9-927f-6c03197892aa","system_id":"levelo_inurba_marseille","lat":43.33724,"lon":5.39184,"is_reserved":false,"is_disabled":false,"rental_uris":{"android":"levelo://app?vid=001b7c42-40a7-47a9-927f-6c03197892aa","ios":"levelo://app?vid=001b7c42-40a7-47a9-927f-6c03197892aa"},"vehicle_type_id":"4","last_reported":1731020918,"current_range_meters":39200,"station_id":"ce4bhr92rcd13ifvqhsg","pricing_plan_id":"cebpf4jnsgd1na2vs0mg"},{"bike_id":"3a7eca15-79d9-4b5b-afad-24a4270e5e92","system_id":"levelo_inurba_marseille","lat":43.27884,"lon":5.39608,"is_reserved":false,"is_disabled":false,"rental_uris":{"android":"levelo://app?vid=3a7eca15-79d9-4b5b-afad-24a4270e5e92","ios":"levelo://app?vid=3a7eca15-79d9-4b5b-afad-24a4270e5e92"},"vehicle_type_id":"4","last_reported":1731020918,"current_range_meters":35600,"station_id":"ce4bhf92rcd13ifvqf40","pricing_plan_id":"cebpf4jnsgd1na2vs0mg"},{"bike_id":"80f88f91-d648-453a-88b2-cfa7d57ba25b","system_id":"levelo_inurba_marseille","lat":43.26505,"lon":5.40905,"is_reserved":false,"is_disabled":false,"rental_uris":{"android":"levelo://app?vid=80f88f91-d648-453a-88b2-cfa7d57ba25b","ios":"levelo://app?vid=80f88f91-d648-453a-88b2-cfa7d57ba25b"},"vehicle_type_id":"4","last_reported":1731020918,"current_range_meters":36400,"station_id":"ce4bhn12rcd13ifvqgqg","pricing_plan_id":"cebpf4jnsgd1na2vs0mg"},{"bike_id":"f9b12aa7-d700-457f-93a4-fe584104c38a","system_id":"levelo_inurba_marseille","lat":43.29449,"lon":5.39745,"is_reserved":false,"is_disabled":false,"rental_uris":{"android":"levelo://app?vid=f9b12aa7-d700-457f-93a4-fe584104c38a","ios":"levelo://app?vid=f9b12aa7-d700-457f-93a4-fe584104c38a"},"vehicle_type_id":"4","last_reported":1731020918,"current_range_meters":32800,"station_id":"ce4bh3h2rcd13ifvqdo0","pricing_plan_id":"cebpf4jnsgd1na2vs0mg"},{"bike_id":"6a6b0b60-4365-44c3-a412-98e6224e649e","system_id":"levelo_inurba_marseille","lat":43.28851,"lon":5.35867,"is_reserved":false,"is_disabled":false,"rental_uris":{"android":"levelo://app?vid=6a6b0b60-4365-44c3-a412-98e6224e649e","ios":"levelo://app?vid=6a6b0b60-4365-44c3-a412-98e6224e649e"},"vehicle_type_id":"4","last_reported":1731020918,"current_range_meters":32800,"station_id":"ce4bhb12rcd13ifvqem0","pricing_plan_id":"cebpf4jnsgd1na2vs0mg"},{"bike_id":"9178d598-d5de-4d5c-85ae-0efa9377149a","system_id":"levelo_inurba_marseille","lat":43.23182,"lon":5.39982,"is_reserved":false,"is_disabled":false,"rental_uris":{"android":"levelo://app?vid=9178d598-d5de-4d5c-85ae-0efa9377149a","ios":"levelo://app?vid=9178d598-d5de-4d5c-85ae-0efa9377149a"},"vehicle_type_id":"4","last_reported":1731020918,"current_range_meters":18800,"station_id":"ce4bhn12rcd13ifvqgqg","pricing_plan_id":"cebpf4jnsgd1na2vs0mg"},{"bike_id":"926dd816-8580-4729-b733-8bee2fc71477","system_id":"levelo_inurba_marseille","lat":43.307831,"lon":5.376559,"is_reserved":false,"is_disabled":false,"rental_uris":{"android":"levelo://app?vid=926dd816-8580-4729-b733-8bee2fc71477","ios":"levelo://app?vid=926dd816-8580-4729-b733-8bee2fc71477"},"vehicle_type_id":"4","last_reported":1731020918,"current_range_meters":37600,"station_id":"ce4bgv92rcd13ifvqcq0","pricing_plan_id":"cebpf4jnsgd1na2vs0mg"},{"bike_id":"0f6720d0-0074-4d75-8954-368ef2125385","system_id":"levelo_inurba_marseille","lat":43.31735,"lon":5.3774,"is_reserved":false,"is_disabled":false,"rental_uris":{"android":"levelo://app?vid=0f6720d0-0074-4d75-8954-368ef2125385","ios":"levelo://app?vid=0f6720d0-0074-4d75-8954-368ef2125385"},"vehicle_type_id":"4","last_reported":1731020918,"current_range_meters":34000,"station_id":"ce4bgth2rcd13ifvqch0","pricing_plan_id":"cebpf4jnsgd1na2vs0mg"},{"bike_id":"51565bbe-fdad-49e2-9143-31b45a68b061","system_id":"levelo_inurba_marseille","lat":43.28577,"lon":5.39507,"is_reserved":false,"is_disabled":false,"rental_uris":{"android":"levelo://app?vid=51565bbe-fdad-49e2-9143-31b45a68b061","ios":"levelo://app?vid=51565bbe-fdad-49e2-9143-31b45a68b061"},"vehicle_type_id":"4","last_reported":1731020918,"current_range_meters":26000,"station_id":"ce4bh292rcd13ifvqdg0","pricing_plan_id":"cebpf4jnsgd1na2vs0mg"},{"bike_id":"fdf26527-6c0f-4b2a-b565-d41399ed3242","system_id":"levelo_inurba_marseille","lat":43.31539,"lon":5.38023,"is_reserved":false,"is_disabled":false,"rental_uris":{"android":"levelo://app?vid=fdf26527-6c0f-4b2a-b565-d41399ed3242","ios":"levelo://app?vid=fdf26527-6c0f-4b2a-b565-d41399ed3242"},"vehicle_type_id":"4","last_reported":1731020918,"current_range_meters":38800,"station_id":"ce4bhsp2rcd13ifvqi50","pricing_plan_id":"cebpf4jnsgd1na2vs0mg"},{"bike_id":"c42aff4d-b5e9-4876-9f08-9d38d24dabca","system_id":"levelo_inurba_marseille","lat":43.30303,"lon":5.39227,"is_reserved":false,"is_disabled":false,"rental_uris":{"android":"levelo://app?vid=c42aff4d-b5e9-4876-9f08-9d38d24dabca","ios":"levelo://app?vid=c42aff4d-b5e9-4876-9f08-9d38d24dabca"},"vehicle_type_id":"4","last_reported":1731020918,"current_range_meters":20800,"station_id":"ce4bgkh2rcd13ifvqbk0","pricing_plan_id":"cebpf4jnsgd1na2vs0mg"},{"bike_id":"c9fa3dfe-9d1d-4bbc-b241-f24a78b9758a","system_id":"levelo_inurba_marseille","lat":43.30468,"lon":5.37904,"is_reserved":false,"is_disabled":false,"rental_uris":{"android":"levelo://app?vid=c9fa3dfe-9d1d-4bbc-b241-f24a78b9758a","ios":"levelo://app?vid=c9fa3dfe-9d1d-4bbc-b241-f24a78b9758a"},"vehicle_type_id":"4","last_reported":1731020918,"current_range_meters":20400,"station_id":"ce4bgup2rcd13ifvqcn0","pricing_plan_id":"cebpf4jnsgd1na2vs0mg"},{"bike_id":"c9e13d95-f398-4116-bddd-1e4a516b34dd","system_id":"levelo_inurba_marseille","lat":43.29002,"lon":5.35611,"is_reserved":false,"is_disabled":false,"rental_uris":{"android":"levelo://app?vid=c9e13d95-f398-4116-bddd-1e4a516b34dd","ios":"levelo://app?vid=c9e13d95-f398-4116-bddd-1e4a516b34dd"},"vehicle_type_id":"4","last_reported":1731020918,"current_range_meters":38800,"station_id":"ce4bhb92rcd13ifvqen0","pricing_plan_id":"cebpf4jnsgd1na2vs0mg"},{"bike_id":"0993ae53-b33b-4ec0-8420-6942bdb9eb84","system_id":"levelo_inurba_marseille","lat":43.30799,"lon":5.43532,"is_reserved":false,"is_disabled":false,"rental_uris":{"android":"levelo://app?vid=0993ae53-b33b-4ec0-8420-6942bdb9eb84","ios":"levelo://app?vid=0993ae53-b33b-4ec0-8420-6942bdb9eb84"},"vehicle_type_id":"4","last_reported":1731020918,"current_range_meters":38800,"station_id":"ce4bhph2rcd13ifvqheg","pricing_plan_id":"cebpf4jnsgd1na2vs0mg"},{"bike_id":"16ba3275-aca3-4fa3-b735-a80b507cecee","system_id":"levelo_inurba_marseille","lat":43.31366,"lon":5.38509,"is_reserved":false,"is_disabled":false,"rental_uris":{"android":"levelo://app?vid=16ba3275-aca3-4fa3-b735-a80b507cecee","ios":"levelo://app?vid=16ba3275-aca3-4fa3-b735-a80b507cecee"},"vehicle_type_id":"4","last_reported":1731020918,"current_range_meters":25600,"station_id":"ce4bgt92rcd13ifvqcf0","pricing_plan_id":"cebpf4jnsgd1na2vs0mg"},{"bike_id":"c389d7c8-ab7f-47ef-9e01-a0538c7be377","system_id":"levelo_inurba_marseille","lat":43.30328,"lon":5.40435,"is_reserved":false,"is_disabled":false,"rental_uris":{"android":"levelo://app?vid=c389d7c8-ab7f-47ef-9e01-a0538c7be377","ios":"levelo://app?vid=c389d7c8-ab7f-47ef-9e01-a0538c7be377"},"vehicle_type_id":"4","last_reported":1731020918,"current_range_meters":38800,"station_id":"ce4bh012rcd13ifvqd10","pricing_plan_id":"cebpf4jnsgd1na2vs0mg"},{"bike_id":"2110941d-d88f-4916-98c3-490e78eee70c","system_id":"levelo_inurba_marseille","lat":43.28414,"lon":5.37493,"is_reserved":false,"is_disabled":false,"rental_uris":{"android":"levelo://app?vid=2110941d-d88f-4916-98c3-490e78eee70c","ios":"levelo://app?vid=2110941d-d88f-4916-98c3-490e78eee70c"},"vehicle_type_id":"4","last_reported":1731020918,"current_range_meters":28800,"station_id":"ce4bh412rcd13ifvqds0","pricing_plan_id":"cebpf4jnsgd1na2vs0mg"},{"bike_id":"12630b9d-f0ed-46fb-bfff-e48f21100201","system_id":"levelo_inurba_marseille","lat":43.33024,"lon":5.39038,"is_reserved":false,"is_disabled":false,"rental_uris":{"android":"levelo://app?vid=12630b9d-f0ed-46fb-bfff-e48f21100201","ios":"levelo://app?vid=12630b9d-f0ed-46fb-bfff-e48f21100201"},"vehicle_type_id":"4","last_reported":1731020918,"current_range_meters":38800,"station_id":"ce4bhr92rcd13ifvqhrg","pricing_plan_id":"cebpf4jnsgd1na2vs0mg"},{"bike_id":"4cf99b37-d8c9-402b-a95f-c6baac4f233e","system_id":"levelo_inurba_marseille","lat":43.25115,"lon":5.40317,"is_reserved":false,"is_disabled":false,"rental_uris":{"android":"levelo://app?vid=4cf99b37-d8c9-402b-a95f-c6baac4f233e","ios":"levelo://app?vid=4cf99b37-d8c9-402b-a95f-c6baac4f233e"},"vehicle_type_id":"4","last_reported":1731020918,"current_range_meters":12400,"station_id":"ce4bhlh2rcd13ifvqgig","pricing_plan_id":"cebpf4jnsgd1na2vs0mg"},{"bike_id":"d269ed79-363c-4650-a131-5c80cfb4586c","system_id":"levelo_inurba_marseille","lat":43.23192,"lon":5.35549,"is_reserved":false,"is_disabled":false,"rental_uris":{"android":"levelo://app?vid=d269ed79-363c-4650-a131-5c80cfb4586c","ios":"levelo://app?vid=d269ed79-363c-4650-a131-5c80cfb4586c"},"vehicle_type_id":"4","last_reported":1731020918,"current_range_meters":28400,"station_id":"ce4bhu92rcd13ifvqi70","pricing_plan_id":"cebpf4jnsgd1na2vs0mg"},{"bike_id":"1761dc0b-ecd3-4765-92b1-698695b92709","system_id":"levelo_inurba_marseille","lat":43.29516,"lon":5.3941,"is_reserved":false,"is_disabled":false,"rental_uris":{"android":"levelo://app?vid=1761dc0b-ecd3-4765-92b1-698695b92709","ios":"levelo://app?vid=1761dc0b-ecd3-4765-92b1-698695b92709"},"vehicle_type_id":"4","last_reported":1731020918,"current_range_meters":38800,"station_id":"ce4bh292rcd13ifvqdf0","pricing_plan_id":"cebpf4jnsgd1na2vs0mg"},{"bike_id":"650f5835-bc4e-42c7-b5d8-20d584cdd8af","system_id":"levelo_inurba_marseille","lat":43.324842,"lon":5.365608,"is_reserved":false,"is_disabled":false,"rental_uris":{"android":"levelo://app?vid=650f5835-bc4e-42c7-b5d8-20d584cdd8af","ios":"levelo://app?vid=650f5835-bc4e-42c7-b5d8-20d584cdd8af"},"vehicle_type_id":"4","last_reported":1731020918,"current_range_meters":37600,"station_id":"ce4bhs12rcd13ifvqhvg","pricing_plan_id":"cebpf4jnsgd1na2vs0mg"},{"bike_id":"f2272917-66e4-42ae-84cc-f15f7f5dbf3b","system_id":"levelo_inurba_marseille","lat":43.3117,"lon":5.38717,"is_reserved":false,"is_disabled":false,"rental_uris":{"android":"levelo://app?vid=f2272917-66e4-42ae-84cc-f15f7f5dbf3b","ios":"levelo://app?vid=f2272917-66e4-42ae-84cc-f15f7f5dbf3b"},"vehicle_type_id":"4","last_reported":1731020918,"current_range_meters":33600,"station_id":"ce4bgv12rcd13ifvqcp0","pricing_plan_id":"cebpf4jnsgd1na2vs0mg"},{"bike_id":"a1fe4a3e-258e-43f3-80a4-0a0ef769f4ea","system_id":"levelo_inurba_marseille","lat":43.31373,"lon":5.38499,"is_reserved":false,"is_disabled":false,"rental_uris":{"android":"levelo://app?vid=a1fe4a3e-258e-43f3-80a4-0a0ef769f4ea","ios":"levelo://app?vid=a1fe4a3e-258e-43f3-80a4-0a0ef769f4ea"},"vehicle_type_id":"4","last_reported":1731020918,"current_range_meters":35200,"station_id":"ce4bgt92rcd13ifvqcf0","pricing_plan_id":"cebpf4jnsgd1na2vs0mg"},{"bike_id":"3e4aedac-9619-4a99-ab5c-af45d38c2f4a","system_id":"levelo_inurba_marseille","lat":43.27575,"lon":5.38431,"is_reserved":false,"is_disabled":false,"rental_uris":{"android":"levelo://app?vid=3e4aedac-9619-4a99-ab5c-af45d38c2f4a","ios":"levelo://app?vid=3e4aedac-9619-4a99-ab5c-af45d38c2f4a"},"vehicle_type_id":"4","last_reported":1731020918,"current_range_meters":38000,"station_id":"ce4bhh92rcd13ifvqfi0","pricing_plan_id":"cebpf4jnsgd1na2vs0mg"},{"bike_id":"928945a9-829e-4eae-a34b-7dbc357fb10c","system_id":"levelo_inurba_marseille","lat":43.28943,"lon":5.36397,"is_reserved":false,"is_disabled":false,"rental_uris":{"android":"levelo://app?vid=928945a9-829e-4eae-a34b-7dbc357fb10c","ios":"levelo://app?vid=928945a9-829e-4eae-a34b-7dbc357fb10c"},"vehicle_type_id":"4","last_reported":1731020918,"current_range_meters":28400,"station_id":"ce4bhc92rcd13ifvqetg","pricing_plan_id":"cebpf4jnsgd1na2vs0mg"},{"bike_id":"5696a768-8ebb-41d4-b38e-53f658e9f6ac","system_id":"levelo_inurba_marseille","lat":43.2655,"lon":5.37285,"is_reserved":false,"is_disabled":false,"rental_uris":{"android":"levelo://app?vid=5696a768-8ebb-41d4-b38e-53f658e9f6ac","ios":"levelo://app?vid=5696a768-8ebb-41d4-b38e-53f658e9f6ac"},"vehicle_type_id":"4","last_reported":1731020918,"current_range_meters":38800,"station_id":"ce4bhg12rcd13ifvqf70","pricing_plan_id":"cebpf4jnsgd1na2vs0mg"},{"bike_id":"4aaf6f1e-6fb3-42ca-b792-aa07d9924fbd","system_id":"levelo_inurba_marseille","lat":43.27811,"lon":5.40703,"is_reserved":false,"is_disabled":false,"rental_uris":{"android":"levelo://app?vid=4aaf6f1e-6fb3-42ca-b792-aa07d9924fbd","ios":"levelo://app?vid=4aaf6f1e-6fb3-42ca-b792-aa07d9924fbd"},"vehicle_type_id":"4","last_reported":1731020918,"current_range_meters":27600,"station_id":"ce4bhnh2rcd13ifvqgtg","pricing_plan_id":"cebpf4jnsgd1na2vs0mg"},{"bike_id":"92bbe5af-b5d9-48fc-afb8-3b15fc8d3190","system_id":"levelo_inurba_marseille","lat":43.31718,"lon":5.42401,"is_reserved":false,"is_disabled":false,"rental_uris":{"android":"levelo://app?vid=92bbe5af-b5d9-48fc-afb8-3b15fc8d3190","ios":"levelo://app?vid=92bbe5af-b5d9-48fc-afb8-3b15fc8d3190"},"vehicle_type_id":"4","last_reported":1731020918,"current_range_meters":32000,"station_id":"ce4bhp92rcd13ifvqhbg","pricing_plan_id":"cebpf4jnsgd1na2vs0mg"},{"bike_id":"b89da140-c3b6-426f-a346-4fa42ea03fdf","system_id":"levelo_inurba_marseille","lat":43.28575,"lon":5.39513,"is_reserved":false,"is_disabled":false,"rental_uris":{"android":"levelo://app?vid=b89da140-c3b6-426f-a346-4fa42ea03fdf","ios":"levelo://app?vid=b89da140-c3b6-426f-a346-4fa42ea03fdf"},"vehicle_type_id":"4","last_reported":1731020918,"current_range_meters":39200,"station_id":"ce4bh292rcd13ifvqdg0","pricing_plan_id":"cebpf4jnsgd1na2vs0mg"},{"bike_id":"71fecc78-133c-41a7-9eac-78b344aa188a","system_id":"levelo_inurba_marseille","lat":43.31128,"lon":5.37771,"is_reserved":false,"is_disabled":false,"rental_uris":{"android":"levelo://app?vid=71fecc78-133c-41a7-9eac-78b344aa188a","ios":"levelo://app?vid=71fecc78-133c-41a7-9eac-78b344aa188a"},"vehicle_type_id":"4","last_reported":1731020918,"current_range_meters":36800,"station_id":"ce4bgt92rcd13ifvqcg0","pricing_plan_id":"cebpf4jnsgd1na2vs0mg"},{"bike_id":"db4059ee-174a-4962-90c0-f1ac67f084a4","system_id":"levelo_inurba_marseille","lat":43.2594,"lon":5.40902,"is_reserved":false,"is_disabled":false,"rental_uris":{"android":"levelo://app?vid=db4059ee-174a-4962-90c0-f1ac67f084a4","ios":"levelo://app?vid=db4059ee-174a-4962-90c0-f1ac67f084a4"},"vehicle_type_id":"4","last_reported":1731020918,"current_range_meters":38800,"station_id":"ce4bhm92rcd13ifvqglg","pricing_plan_id":"cebpf4jnsgd1na2vs0mg"},{"bike_id":"71ed2f20-f876-4297-99ba-4e251415358b","system_id":"levelo_inurba_marseille","lat":43.31177,"lon":5.38707,"is_reserved":false,"is_disabled":false,"rental_uris":{"android":"levelo://app?vid=71ed2f20-f876-4297-99ba-4e251415358b","ios":"levelo://app?vid=71ed2f20-f876-4297-99ba-4e251415358b"},"vehicle_type_id":"4","last_reported":1731020918,"current_range_meters":26000,"station_id":"ce4bgv12rcd13ifvqcp0","pricing_plan_id":"cebpf4jnsgd1na2vs0mg"},{"bike_id":"6b793bbd-5954-4f81-bfef-fd4d8b2129e3","system_id":"levelo_inurba_marseille","lat":43.33718,"lon":5.39186,"is_reserved":false,"is_disabled":false,"rental_uris":{"android":"levelo://app?vid=6b793bbd-5954-4f81-bfef-fd4d8b2129e3","ios":"levelo://app?vid=6b793bbd-5954-4f81-bfef-fd4d8b2129e3"},"vehicle_type_id":"4","last_reported":1731020918,"current_range_meters":38800,"station_id":"ce4bhr92rcd13ifvqhsg","pricing_plan_id":"cebpf4jnsgd1na2vs0mg"},{"bike_id":"0366bdb5-16ac-4a75-93d2-d1f7e545a0e7","system_id":"levelo_inurba_marseille","lat":43.24676,"lon":5.38166,"is_reserved":false,"is_disabled":false,"rental_uris":{"android":"levelo://app?vid=0366bdb5-16ac-4a75-93d2-d1f7e545a0e7","ios":"levelo://app?vid=0366bdb5-16ac-4a75-93d2-d1f7e545a0e7"},"vehicle_type_id":"4","last_reported":1731020918,"current_range_meters":18000,"station_id":"ce4bhih2rcd13ifvqfr0","pricing_plan_id":"cebpf4jnsgd1na2vs0mg"},{"bike_id":"6e6e001a-2d4b-4e63-8f57-413c2cf4540c","system_id":"levelo_inurba_marseille","lat":43.27901,"lon":5.39577,"is_reserved":false,"is_disabled":false,"rental_uris":{"android":"levelo://app?vid=6e6e001a-2d4b-4e63-8f57-413c2cf4540c","ios":"levelo://app?vid=6e6e001a-2d4b-4e63-8f57-413c2cf4540c"},"vehicle_type_id":"4","last_reported":1731020918,"current_range_meters":28400,"station_id":"ce4bhf92rcd13ifvqf40","pricing_plan_id":"cebpf4jnsgd1na2vs0mg"},{"bike_id":"b7a957c9-ff90-4c8e-a5b6-aaee11551279","system_id":"levelo_inurba_marseille","lat":43.29277,"lon":5.40124,"is_reserved":false,"is_disabled":false,"rental_uris":{"android":"levelo://app?vid=b7a957c9-ff90-4c8e-a5b6-aaee11551279","ios":"levelo://app?vid=b7a957c9-ff90-4c8e-a5b6-aaee11551279"},"vehicle_type_id":"4","last_reported":1731020918,"current_range_meters":30000,"station_id":"ce4bh312rcd13ifvqdk0","pricing_plan_id":"cebpf4jnsgd1na2vs0mg"},{"bike_id":"224b4f9b-8964-41f7-a92d-d6f79ed1277c","system_id":"levelo_inurba_marseille","lat":43.33604,"lon":5.41035,"is_reserved":false,"is_disabled":false,"rental_uris":{"android":"levelo://app?vid=224b4f9b-8964-41f7-a92d-d6f79ed1277c","ios":"levelo://app?vid=224b4f9b-8964-41f7-a92d-d6f79ed1277c"},"vehicle_type_id":"4","last_reported":1731020918,"current_range_meters":23200,"station_id":"ce4bhqh2rcd13ifvqhmg","pricing_plan_id":"cebpf4jnsgd1na2vs0mg"},{"bike_id":"3203b2c4-7c2f-45b3-8dbc-78cfd2e64879","system_id":"levelo_inurba_marseille","lat":43.26937,"lon":5.40256,"is_reserved":false,"is_disabled":false,"rental_uris":{"android":"levelo://app?vid=3203b2c4-7c2f-45b3-8dbc-78cfd2e64879","ios":"levelo://app?vid=3203b2c4-7c2f-45b3-8dbc-78cfd2e64879"},"vehicle_type_id":"4","last_reported":1731020918,"current_range_meters":11600,"station_id":"cjm6bp8fraef2m0cb0m0","pricing_plan_id":"cebpf4jnsgd1na2vs0mg"},{"bike_id":"72b49cdd-0fcb-488d-b3bf-b71acf18d5ce","system_id":"levelo_inurba_marseille","lat":43.28035,"lon":5.36961,"is_reserved":false,"is_disabled":false,"rental_uris":{"android":"levelo://app?vid=72b49cdd-0fcb-488d-b3bf-b71acf18d5ce","ios":"levelo://app?vid=72b49cdd-0fcb-488d-b3bf-b71acf18d5ce"},"vehicle_type_id":"4","last_reported":1731020918,"current_range_meters":21600,"station_id":"ce4bha12rcd13ifvqef0","pricing_plan_id":"cebpf4jnsgd1na2vs0mg"},{"bike_id":"399025e6-7f35-4342-9d98-3c2224090b18","system_id":"levelo_inurba_marseille","lat":43.28575,"lon":5.39509,"is_reserved":false,"is_disabled":false,"rental_uris":{"android":"levelo://app?vid=399025e6-7f35-4342-9d98-3c2224090b18","ios":"levelo://app?vid=399025e6-7f35-4342-9d98-3c2224090b18"},"vehicle_type_id":"4","last_reported":1731020918,"current_range_meters":39200,"station_id":"ce4bh292rcd13ifvqdg0","pricing_plan_id":"cebpf4jnsgd1na2vs0mg"},{"bike_id":"4f06c335-c884-4bb5-837a-40a292ca5381","system_id":"levelo_inurba_marseille","lat":43.27918,"lon":5.39581,"is_reserved":false,"is_disabled":false,"rental_uris":{"android":"levelo://app?vid=4f06c335-c884-4bb5-837a-40a292ca5381","ios":"levelo://app?vid=4f06c335-c884-4bb5-837a-40a292ca5381"},"vehicle_type_id":"4","last_reported":1731020918,"current_range_meters":29600,"station_id":"ce4bhf92rcd13ifvqf40","pricing_plan_id":"cebpf4jnsgd1na2vs0mg"},{"bike_id":"10028782-2da3-45e3-b38c-76bff638348f","system_id":"levelo_inurba_marseille","lat":43.32,"lon":5.38159,"is_reserved":false,"is_disabled":false,"rental_uris":{"android":"levelo://app?vid=10028782-2da3-45e3-b38c-76bff638348f","ios":"levelo://app?vid=10028782-2da3-45e3-b38c-76bff638348f"},"vehicle_type_id":"4","last_reported":1731020918,"current_range_meters":6400,"station_id":"ce4bhr12rcd13ifvqhpg","pricing_plan_id":"cebpf4jnsgd1na2vs0mg"},{"bike_id":"ffe581ae-ad8f-40c0-bc69-27cae0e9b99e","system_id":"levelo_inurba_marseille","lat":43.2796,"lon":5.38733,"is_reserved":false,"is_disabled":false,"rental_uris":{"android":"levelo://app?vid=ffe581ae-ad8f-40c0-bc69-27cae0e9b99e","ios":"levelo://app?vid=ffe581ae-ad8f-40c0-bc69-27cae0e9b99e"},"vehicle_type_id":"4","last_reported":1731020918,"current_range_meters":33200,"station_id":"ce4bhg12rcd13ifvqf80","pricing_plan_id":"cebpf4jnsgd1na2vs0mg"},{"bike_id":"308add41-ec28-4efc-8ab9-61b38c1ba5d2","system_id":"levelo_inurba_marseille","lat":43.28074,"lon":5.39659,"is_reserved":false,"is_disabled":false,"rental_uris":{"android":"levelo://app?vid=308add41-ec28-4efc-8ab9-61b38c1ba5d2","ios":"levelo://app?vid=308add41-ec28-4efc-8ab9-61b38c1ba5d2"},"vehicle_type_id":"4","last_reported":1731020918,"current_range_meters":6000,"station_id":"ce4bho12rcd13ifvqh2g","pricing_plan_id":"cebpf4jnsgd1na2vs0mg"},{"bike_id":"55832718-3048-4754-b6c7-735f796a1db1","system_id":"levelo_inurba_marseille","lat":43.24801,"lon":5.37451,"is_reserved":false,"is_disabled":false,"rental_uris":{"android":"levelo://app?vid=55832718-3048-4754-b6c7-735f796a1db1","ios":"levelo://app?vid=55832718-3048-4754-b6c7-735f796a1db1"},"vehicle_type_id":"4","last_reported":1731020918,"current_range_meters":37600,"station_id":"ce4bhgh2rcd13ifvqfb0","pricing_plan_id":"cebpf4jnsgd1na2vs0mg"},{"bike_id":"7e02be68-6753-41d9-adcd-443fd738b253","system_id":"levelo_inurba_marseille","lat":43.24672,"lon":5.38159,"is_reserved":false,"is_disabled":false,"rental_uris":{"android":"levelo://app?vid=7e02be68-6753-41d9-adcd-443fd738b253","ios":"levelo://app?vid=7e02be68-6753-41d9-adcd-443fd738b253"},"vehicle_type_id":"4","last_reported":1731020918,"current_range_meters":30400,"station_id":"ce4bhih2rcd13ifvqfr0","pricing_plan_id":"cebpf4jnsgd1na2vs0mg"},{"bike_id":"6f7cb342-b848-4891-9997-c1683d70a93b","system_id":"levelo_inurba_marseille","lat":43.28565,"lon":5.39489,"is_reserved":false,"is_disabled":false,"rental_uris":{"android":"levelo://app?vid=6f7cb342-b848-4891-9997-c1683d70a93b","ios":"levelo://app?vid=6f7cb342-b848-4891-9997-c1683d70a93b"},"vehicle_type_id":"4","last_reported":1731020918,"current_range_meters":38800,"station_id":"ce4bh292rcd13ifvqdg0","pricing_plan_id":"cebpf4jnsgd1na2vs0mg"},{"bike_id":"bdc8e4c9-31ee-4bbb-9adc-6c132582d3e5","system_id":"levelo_inurba_marseille","lat":43.32372,"lon":5.38873,"is_reserved":false,"is_disabled":false,"rental_uris":{"android":"levelo://app?vid=bdc8e4c9-31ee-4bbb-9adc-6c132582d3e5","ios":"levelo://app?vid=bdc8e4c9-31ee-4bbb-9adc-6c132582d3e5"},"vehicle_type_id":"4","last_reported":1731020918,"current_range_meters":20000,"station_id":"ce4bhqp2rcd13ifvqhog","pricing_plan_id":"cebpf4jnsgd1na2vs0mg"},{"bike_id":"86c3e7ef-4c08-4580-8ffb-ccc5e823b050","system_id":"levelo_inurba_marseille","lat":43.2858,"lon":5.39516,"is_reserved":false,"is_disabled":false,"rental_uris":{"android":"levelo://app?vid=86c3e7ef-4c08-4580-8ffb-ccc5e823b050","ios":"levelo://app?vid=86c3e7ef-4c08-4580-8ffb-ccc5e823b050"},"vehicle_type_id":"4","last_reported":1731020918,"current_range_meters":38800,"station_id":"ce4bh292rcd13ifvqdg0","pricing_plan_id":"cebpf4jnsgd1na2vs0mg"},{"bike_id":"dfcf3015-64e1-4c73-9065-23a58d1a316f","system_id":"levelo_inurba_marseille","lat":43.337444,"lon":5.374475,"is_reserved":false,"is_disabled":false,"rental_uris":{"android":"levelo://app?vid=dfcf3015-64e1-4c73-9065-23a58d1a316f","ios":"levelo://app?vid=dfcf3015-64e1-4c73-9065-23a58d1a316f"},"vehicle_type_id":"4","last_reported":1731020918,"current_range_meters":32800,"station_id":"","pricing_plan_id":"cebpf4jnsgd1na2vs0mg"},{"bike_id":"1e803bdd-3770-48c7-9e72-71ce7c6ba7a7","system_id":"levelo_inurba_marseille","lat":43.24664,"lon":5.38157,"is_reserved":false,"is_disabled":false,"rental_uris":{"android":"levelo://app?vid=1e803bdd-3770-48c7-9e72-71ce7c6ba7a7","ios":"levelo://app?vid=1e803bdd-3770-48c7-9e72-71ce7c6ba7a7"},"vehicle_type_id":"4","last_reported":1731020918,"current_range_meters":18800,"station_id":"ce4bhih2rcd13ifvqfr0","pricing_plan_id":"cebpf4jnsgd1na2vs0mg"},{"bike_id":"f965597c-9582-4c92-afac-ab60bb6522ed","system_id":"levelo_inurba_marseille","lat":43.2861,"lon":5.3706,"is_reserved":false,"is_disabled":false,"rental_uris":{"android":"levelo://app?vid=f965597c-9582-4c92-afac-ab60bb6522ed","ios":"levelo://app?vid=f965597c-9582-4c92-afac-ab60bb6522ed"},"vehicle_type_id":"4","last_reported":1731020918,"current_range_meters":19200,"station_id":"ce4bht12rcd13ifvqi60","pricing_plan_id":"cebpf4jnsgd1na2vs0mg"},{"bike_id":"a6901c18-8644-476c-82ab-f2a07fc2d714","system_id":"levelo_inurba_marseille","lat":43.28851,"lon":5.39334,"is_reserved":false,"is_disabled":false,"rental_uris":{"android":"levelo://app?vid=a6901c18-8644-476c-82ab-f2a07fc2d714","ios":"levelo://app?vid=a6901c18-8644-476c-82ab-f2a07fc2d714"},"vehicle_type_id":"4","last_reported":1731020918,"current_range_meters":9600,"station_id":"ce4bh2p2rcd13ifvqdi0","pricing_plan_id":"cebpf4jnsgd1na2vs0mg"},{"bike_id":"c6f4ed42-5134-453e-918b-7f4621073d1a","system_id":"levelo_inurba_marseille","lat":43.29034,"lon":5.3997,"is_reserved":false,"is_disabled":false,"rental_uris":{"android":"levelo://app?vid=c6f4ed42-5134-453e-918b-7f4621073d1a","ios":"levelo://app?vid=c6f4ed42-5134-453e-918b-7f4621073d1a"},"vehicle_type_id":"4","last_reported":1731020918,"current_range_meters":38000,"station_id":"ce4bh392rcd13ifvqdm0","pricing_plan_id":"cebpf4jnsgd1na2vs0mg"},{"bike_id":"09ca8f05-c4db-41dd-8093-221273ee97b7","system_id":"levelo_inurba_marseille","lat":43.30323,"lon":5.40434,"is_reserved":false,"is_disabled":false,"rental_uris":{"android":"levelo://app?vid=09ca8f05-c4db-41dd-8093-221273ee97b7","ios":"levelo://app?vid=09ca8f05-c4db-41dd-8093-221273ee97b7"},"vehicle_type_id":"4","last_reported":1731020918,"current_range_meters":10000,"station_id":"ce4bh012rcd13ifvqd10","pricing_plan_id":"cebpf4jnsgd1na2vs0mg"},{"bike_id":"74fd6152-e3be-45fe-8d9b-0e9706c1b1e2","system_id":"levelo_inurba_marseille","lat":43.30888,"lon":5.39635,"is_reserved":false,"is_disabled":false,"rental_uris":{"android":"levelo://app?vid=74fd6152-e3be-45fe-8d9b-0e9706c1b1e2","ios":"levelo://app?vid=74fd6152-e3be-45fe-8d9b-0e9706c1b1e2"},"vehicle_type_id":"4","last_reported":1731020918,"current_range_meters":5600,"station_id":"ce4bh012rcd13ifvqcv0","pricing_plan_id":"cebpf4jnsgd1na2vs0mg"},{"bike_id":"a6dce926-6dba-4104-9b64-1dea8a999417","system_id":"levelo_inurba_marseille","lat":43.27908,"lon":5.39583,"is_reserved":false,"is_disabled":false,"rental_uris":{"android":"levelo://app?vid=a6dce926-6dba-4104-9b64-1dea8a999417","ios":"levelo://app?vid=a6dce926-6dba-4104-9b64-1dea8a999417"},"vehicle_type_id":"4","last_reported":1731020918,"current_range_meters":32400,"station_id":"ce4bhf92rcd13ifvqf40","pricing_plan_id":"cebpf4jnsgd1na2vs0mg"},{"bike_id":"ca14dd50-5e4b-4f1f-b610-9eb6fc10f03a","system_id":"levelo_inurba_marseille","lat":43.29824,"lon":5.40394,"is_reserved":false,"is_disabled":false,"rental_uris":{"android":"levelo://app?vid=ca14dd50-5e4b-4f1f-b610-9eb6fc10f03a","ios":"levelo://app?vid=ca14dd50-5e4b-4f1f-b610-9eb6fc10f03a"},"vehicle_type_id":"4","last_reported":1731020918,"current_range_meters":21600,"station_id":"ce4bh112rcd13ifvqd90","pricing_plan_id":"cebpf4jnsgd1na2vs0mg"},{"bike_id":"2f261d4a-8eaa-477e-940d-05216842e77f","system_id":"levelo_inurba_marseille","lat":43.28944,"lon":5.39632,"is_reserved":false,"is_disabled":false,"rental_uris":{"android":"levelo://app?vid=2f261d4a-8eaa-477e-940d-05216842e77f","ios":"levelo://app?vid=2f261d4a-8eaa-477e-940d-05216842e77f"},"vehicle_type_id":"4","last_reported":1731020918,"current_range_meters":24000,"station_id":"ce4bh3h2rcd13ifvqdn0","pricing_plan_id":"cebpf4jnsgd1na2vs0mg"},{"bike_id":"e9c8a630-2d73-4117-9bf7-aca5570a0743","system_id":"levelo_inurba_marseille","lat":43.23191,"lon":5.39985,"is_reserved":false,"is_disabled":false,"rental_uris":{"android":"levelo://app?vid=e9c8a630-2d73-4117-9bf7-aca5570a0743","ios":"levelo://app?vid=e9c8a630-2d73-4117-9bf7-aca5570a0743"},"vehicle_type_id":"4","last_reported":1731020918,"current_range_meters":38800,"station_id":"ce4bhn12rcd13ifvqgqg","pricing_plan_id":"cebpf4jnsgd1na2vs0mg"},{"bike_id":"8f3fdaf9-d08a-4931-897a-00d262453a45","system_id":"levelo_inurba_marseille","lat":43.27944,"lon":5.41049,"is_reserved":false,"is_disabled":false,"rental_uris":{"android":"levelo://app?vid=8f3fdaf9-d08a-4931-897a-00d262453a45","ios":"levelo://app?vid=8f3fdaf9-d08a-4931-897a-00d262453a45"},"vehicle_type_id":"4","last_reported":1731020918,"current_range_meters":6800,"station_id":"ce4bhnp2rcd13ifvqh0g","pricing_plan_id":"cebpf4jnsgd1na2vs0mg"},{"bike_id":"d445a659-da5c-4c92-8325-5f34b4633bd1","system_id":"levelo_inurba_marseille","lat":43.24388,"lon":5.3706,"is_reserved":false,"is_disabled":false,"rental_uris":{"android":"levelo://app?vid=d445a659-da5c-4c92-8325-5f34b4633bd1","ios":"levelo://app?vid=d445a659-da5c-4c92-8325-5f34b4633bd1"},"vehicle_type_id":"4","last_reported":1731020918,"current_range_meters":11200,"station_id":"ce4bhhh2rcd13ifvqfk0","pricing_plan_id":"cebpf4jnsgd1na2vs0mg"},{"bike_id":"1d9abeb4-69da-4ca0-93af-039fe0ce5bb5","system_id":"levelo_inurba_marseille","lat":43.28463,"lon":5.35889,"is_reserved":false,"is_disabled":false,"rental_uris":{"android":"levelo://app?vid=1d9abeb4-69da-4ca0-93af-039fe0ce5bb5","ios":"levelo://app?vid=1d9abeb4-69da-4ca0-93af-039fe0ce5bb5"},"vehicle_type_id":"4","last_reported":1731020918,"current_range_meters":8800,"station_id":"ce4bhah2rcd13ifvqei0","pricing_plan_id":"cebpf4jnsgd1na2vs0mg"},{"bike_id":"011dec5d-0802-445b-b910-96ffa8a80ebb","system_id":"levelo_inurba_marseille","lat":43.30886,"lon":5.39633,"is_reserved":false,"is_disabled":false,"rental_uris":{"android":"levelo://app?vid=011dec5d-0802-445b-b910-96ffa8a80ebb","ios":"levelo://app?vid=011dec5d-0802-445b-b910-96ffa8a80ebb"},"vehicle_type_id":"4","last_reported":1731020918,"current_range_meters":38800,"station_id":"ce4bh012rcd13ifvqcv0","pricing_plan_id":"cebpf4jnsgd1na2vs0mg"},{"bike_id":"f2a3fe14-7188-4e31-a13c-7d86cab12d60","system_id":"levelo_inurba_marseille","lat":43.28861,"lon":5.3586,"is_reserved":false,"is_disabled":false,"rental_uris":{"android":"levelo://app?vid=f2a3fe14-7188-4e31-a13c-7d86cab12d60","ios":"levelo://app?vid=f2a3fe14-7188-4e31-a13c-7d86cab12d60"},"vehicle_type_id":"4","last_reported":1731020918,"current_range_meters":37600,"station_id":"ce4bhb12rcd13ifvqem0","pricing_plan_id":"cebpf4jnsgd1na2vs0mg"},{"bike_id":"6ca029db-655d-4d11-9eb8-584d76bc27d6","system_id":"levelo_inurba_marseille","lat":43.3112,"lon":5.37776,"is_reserved":false,"is_disabled":false,"rental_uris":{"android":"levelo://app?vid=6ca029db-655d-4d11-9eb8-584d76bc27d6","ios":"levelo://app?vid=6ca029db-655d-4d11-9eb8-584d76bc27d6"},"vehicle_type_id":"4","last_reported":1731020918,"current_range_meters":10000,"station_id":"ce4bgt92rcd13ifvqcg0","pricing_plan_id":"cebpf4jnsgd1na2vs0mg"},{"bike_id":"88454638-28a0-4e63-81dc-90114f528ab6","system_id":"levelo_inurba_marseille","lat":43.25113,"lon":5.40324,"is_reserved":false,"is_disabled":false,"rental_uris":{"android":"levelo://app?vid=88454638-28a0-4e63-81dc-90114f528ab6","ios":"levelo://app?vid=88454638-28a0-4e63-81dc-90114f528ab6"},"vehicle_type_id":"4","last_reported":1731020918,"current_range_meters":6800,"station_id":"ce4bhlh2rcd13ifvqgig","pricing_plan_id":"cebpf4jnsgd1na2vs0mg"},{"bike_id":"16a2024b-c57f-4080-b7b4-672bc091b699","system_id":"levelo_inurba_marseille","lat":43.28462,"lon":5.35891,"is_reserved":false,"is_disabled":false,"rental_uris":{"android":"levelo://app?vid=16a2024b-c57f-4080-b7b4-672bc091b699","ios":"levelo://app?vid=16a2024b-c57f-4080-b7b4-672bc091b699"},"vehicle_type_id":"4","last_reported":1731020918,"current_range_meters":8000,"station_id":"ce4bhah2rcd13ifvqei0","pricing_plan_id":"cebpf4jnsgd1na2vs0mg"},{"bike_id":"8b2152d2-7dbf-40d3-aa36-c39ed66329f2","system_id":"levelo_inurba_marseille","lat":43.30893,"lon":5.39656,"is_reserved":false,"is_disabled":false,"rental_uris":{"android":"levelo://app?vid=8b2152d2-7dbf-40d3-aa36-c39ed66329f2","ios":"levelo://app?vid=8b2152d2-7dbf-40d3-aa36-c39ed66329f2"},"vehicle_type_id":"4","last_reported":1731020918,"current_range_meters":26000,"station_id":"ce4bh012rcd13ifvqcv0","pricing_plan_id":"cebpf4jnsgd1na2vs0mg"},{"bike_id":"28d61b07-bac3-46d5-900a-bf141ced3879","system_id":"levelo_inurba_marseille","lat":43.287,"lon":5.39989,"is_reserved":false,"is_disabled":false,"rental_uris":{"android":"levelo://app?vid=28d61b07-bac3-46d5-900a-bf141ced3879","ios":"levelo://app?vid=28d61b07-bac3-46d5-900a-bf141ced3879"},"vehicle_type_id":"4","last_reported":1731020918,"current_range_meters":37600,"station_id":"ce4bho92rcd13ifvqh3g","pricing_plan_id":"cebpf4jnsgd1na2vs0mg"},{"bike_id":"1a13e48d-9e87-4b3b-b77f-ae545157d698","system_id":"levelo_inurba_marseille","lat":43.29035,"lon":5.3996,"is_reserved":false,"is_disabled":false,"rental_uris":{"android":"levelo://app?vid=1a13e48d-9e87-4b3b-b77f-ae545157d698","ios":"levelo://app?vid=1a13e48d-9e87-4b3b-b77f-ae545157d698"},"vehicle_type_id":"4","last_reported":1731020918,"current_range_meters":37600,"station_id":"ce4bh392rcd13ifvqdm0","pricing_plan_id":"cebpf4jnsgd1na2vs0mg"},{"bike_id":"875b5b0b-c19d-4dd8-878c-ff683684389c","system_id":"levelo_inurba_marseille","lat":43.27963,"lon":5.39188,"is_reserved":false,"is_disabled":false,"rental_uris":{"android":"levelo://app?vid=875b5b0b-c19d-4dd8-878c-ff683684389c","ios":"levelo://app?vid=875b5b0b-c19d-4dd8-878c-ff683684389c"},"vehicle_type_id":"4","last_reported":1731020918,"current_range_meters":25200,"station_id":"ce4bhf92rcd13ifvqf40","pricing_plan_id":"cebpf4jnsgd1na2vs0mg"},{"bike_id":"18b5e0a7-fd19-46c6-9d21-d51538946f15","system_id":"levelo_inurba_marseille","lat":43.31703,"lon":5.37741,"is_reserved":false,"is_disabled":false,"rental_uris":{"android":"levelo://app?vid=18b5e0a7-fd19-46c6-9d21-d51538946f15","ios":"levelo://app?vid=18b5e0a7-fd19-46c6-9d21-d51538946f15"},"vehicle_type_id":"4","last_reported":1731020918,"current_range_meters":38400,"station_id":"ce4bgth2rcd13ifvqch0","pricing_plan_id":"cebpf4jnsgd1na2vs0mg"},{"bike_id":"0f70bf6b-81b6-4699-bcb0-600baf830e84","system_id":"levelo_inurba_marseille","lat":43.318756,"lon":5.376951,"is_reserved":false,"is_disabled":false,"rental_uris":{"android":"levelo://app?vid=0f70bf6b-81b6-4699-bcb0-600baf830e84","ios":"levelo://app?vid=0f70bf6b-81b6-4699-bcb0-600baf830e84"},"vehicle_type_id":"4","last_reported":1731020918,"current_range_meters":35600,"station_id":"","pricing_plan_id":"cebpf4jnsgd1na2vs0mg"},{"bike_id":"3f397929-847e-45fe-9e17-e97e36e83693","system_id":"levelo_inurba_marseille","lat":43.28842,"lon":5.39347,"is_reserved":false,"is_disabled":false,"rental_uris":{"android":"levelo://app?vid=3f397929-847e-45fe-9e17-e97e36e83693","ios":"levelo://app?vid=3f397929-847e-45fe-9e17-e97e36e83693"},"vehicle_type_id":"4","last_reported":1731020918,"current_range_meters":26000,"station_id":"ce4bh2p2rcd13ifvqdi0","pricing_plan_id":"cebpf4jnsgd1na2vs0mg"},{"bike_id":"c49cf897-bdb9-4a92-b7f6-868887bc937a","system_id":"levelo_inurba_marseille","lat":43.28105,"lon":5.37834,"is_reserved":false,"is_disabled":false,"rental_uris":{"android":"levelo://app?vid=c49cf897-bdb9-4a92-b7f6-868887bc937a","ios":"levelo://app?vid=c49cf897-bdb9-4a92-b7f6-868887bc937a"},"vehicle_type_id":"4","last_reported":1731020918,"current_range_meters":16000,"station_id":"ce4bha12rcd13ifvqee0","pricing_plan_id":"cebpf4jnsgd1na2vs0mg"},{"bike_id":"f115c5b6-f61c-4e4c-ad75-25200ff8f313","system_id":"levelo_inurba_marseille","lat":43.25082,"lon":5.39512,"is_reserved":false,"is_disabled":false,"rental_uris":{"android":"levelo://app?vid=f115c5b6-f61c-4e4c-ad75-25200ff8f313","ios":"levelo://app?vid=f115c5b6-f61c-4e4c-ad75-25200ff8f313"},"vehicle_type_id":"4","last_reported":1731020918,"current_range_meters":14400,"station_id":"ce4bhm12rcd13ifvqgkg","pricing_plan_id":"cebpf4jnsgd1na2vs0mg"},{"bike_id":"88cbc19f-8e29-4e93-b5dd-ad6857a98d81","system_id":"levelo_inurba_marseille","lat":43.23152,"lon":5.43722,"is_reserved":false,"is_disabled":false,"rental_uris":{"android":"levelo://app?vid=88cbc19f-8e29-4e93-b5dd-ad6857a98d81","ios":"levelo://app?vid=88cbc19f-8e29-4e93-b5dd-ad6857a98d81"},"vehicle_type_id":"4","last_reported":1731020918,"current_range_meters":37600,"station_id":"ce4bhmp2rcd13ifvqgog","pricing_plan_id":"cebpf4jnsgd1na2vs0mg"},{"bike_id":"e1275014-b8e7-43e7-aa63-210212370ac7","system_id":"levelo_inurba_marseille","lat":43.2894,"lon":5.39629,"is_reserved":false,"is_disabled":false,"rental_uris":{"android":"levelo://app?vid=e1275014-b8e7-43e7-aa63-210212370ac7","ios":"levelo://app?vid=e1275014-b8e7-43e7-aa63-210212370ac7"},"vehicle_type_id":"4","last_reported":1731020918,"current_range_meters":25200,"station_id":"ce4bh3h2rcd13ifvqdn0","pricing_plan_id":"cebpf4jnsgd1na2vs0mg"},{"bike_id":"354ed884-7d44-4c83-91f4-78abb30e4bc1","system_id":"levelo_inurba_marseille","lat":43.24677,"lon":5.38163,"is_reserved":false,"is_disabled":false,"rental_uris":{"android":"levelo://app?vid=354ed884-7d44-4c83-91f4-78abb30e4bc1","ios":"levelo://app?vid=354ed884-7d44-4c83-91f4-78abb30e4bc1"},"vehicle_type_id":"4","last_reported":1731020918,"current_range_meters":38800,"station_id":"ce4bhih2rcd13ifvqfr0","pricing_plan_id":"cebpf4jnsgd1na2vs0mg"},{"bike_id":"a909496e-d5d5-48ec-b499-2834af48be8e","system_id":"levelo_inurba_marseille","lat":43.30805,"lon":5.38151,"is_reserved":false,"is_disabled":false,"rental_uris":{"android":"levelo://app?vid=a909496e-d5d5-48ec-b499-2834af48be8e","ios":"levelo://app?vid=a909496e-d5d5-48ec-b499-2834af48be8e"},"vehicle_type_id":"4","last_reported":1731020918,"current_range_meters":16000,"station_id":"ce4bgt12rcd13ifvqce0","pricing_plan_id":"cebpf4jnsgd1na2vs0mg"},{"bike_id":"60d825ad-9799-4a32-b548-b1348e5def86","system_id":"levelo_inurba_marseille","lat":43.279361,"lon":5.410576,"is_reserved":false,"is_disabled":false,"rental_uris":{"android":"levelo://app?vid=60d825ad-9799-4a32-b548-b1348e5def86","ios":"levelo://app?vid=60d825ad-9799-4a32-b548-b1348e5def86"},"vehicle_type_id":"4","last_reported":1731020918,"current_range_meters":38800,"station_id":"ce4bh692rcd13ifvqea0","pricing_plan_id":"cebpf4jnsgd1na2vs0mg"},{"bike_id":"2a941a5e-af72-412c-a0c9-ca1913dc4558","system_id":"levelo_inurba_marseille","lat":43.30095,"lon":5.39085,"is_reserved":false,"is_disabled":false,"rental_uris":{"android":"levelo://app?vid=2a941a5e-af72-412c-a0c9-ca1913dc4558","ios":"levelo://app?vid=2a941a5e-af72-412c-a0c9-ca1913dc4558"},"vehicle_type_id":"4","last_reported":1731020918,"current_range_meters":38800,"station_id":"ce4bh192rcd13ifvqdb0","pricing_plan_id":"cebpf4jnsgd1na2vs0mg"},