{"last_updated":1686351983,"ttl":30,"version":"2.2","data":{"bikes":[{"bike_id":"0efaf32b-c4a0-4e99-b1f5-3cd76160914b","system_id":"levelo_inurba_marseille","lat":43.312239,"lon":5.368562,"is_reserved":false,"is_disabled":false,"rental_uris":{"android":"levelo://app?vid=0efaf32b-c4a0-4e99-b1f5-3cd76160914b","ios":"levelo://app?vid=0efaf32b-c4a0-4e99-b1f5-3cd76160914b"},"vehicle_type_id":"4","last_reported":1686351983,"current_range_meters":18400,"station_id":"ce4bgl92rcd13ifvqbq0","pricing_plan_id":"free"},{"bike_id":"5694381e-49b0-4218-bb1f-d24ba301e745","system_id":"levelo_inurba_marseille","lat":43.312239,"lon":5.368562,"is_reserved":false,"is_disabled":false,"rental_uris":{"android":"levelo://app?vid=5694381e-49b0-4218-bb1f-d24ba301e745","ios":"levelo://app?vid=5694381e-49b0-4218-bb1f-d24ba301e745"},"vehicle_type_id":"4","last_reported":1686351983,"current_range_meters":18000,"station_id":"ce4bgl92rcd13ifvqbq0","pricing_plan_id":"free"},{"bike_id":"2f988a8f-c7a5-43fe-b108-318d3ca9681f","system_id":"levelo_inurba_marseille","lat":43.31253,"lon":5.37082,"is_reserved":false,"is_disabled":false,"rental_uris":{"android":"levelo://app?vid=2f988a8f-c7a5-43fe-b108-318d3ca9681f","ios":"levelo://app?vid=2f988a8f-c7a5-43fe-b108-318d3ca9681f"},"vehicle_type_id":"4","last_reported":1686351983,"current_range_meters":18800,"station_id":"","pricing_plan_id":"free"},{"bike_id":"e215e44b-264e-4626-ae88-2d3a12aefe09","system_id":"levelo_inurba_marseille","lat":43.309076,"lon":5.368465,"is_reserved":false,"is_disabled":false,"rental_uris":{"android":"levelo://app?vid=e215e44b-264e-4626-ae88-2d3a12aefe09","ios":"levelo://app?vid=e215e44b-264e-4626-ae88-2d3a12aefe09"},"vehicle_type_id":"4","last_reported":1686351983,"current_range_meters":15600,"station_id":"ce4bgn92rcd13ifvqbvg","pricing_plan_id":"free"},{"bike_id":"6d6eb2b3-f673-443c-a2fb-9ee3a2f19bd4","system_id":"levelo_inurba_marseille","lat":43.31489,"lon":5.37307,"is_reserved":false,"is_disabled":false,"rental_uris":{"android":"levelo://app?vid=6d6eb2b3-f673-443c-a2fb-9ee3a2f19bd4","ios":"levelo://app?vid=6d6eb2b3-f673-443c-a2fb-9ee3a2f19bd4"},"vehicle_type_id":"4","last_reported":1686351983,"current_range_meters":29600,"station_id":"ce4bgt12rcd13ifvqcd0","pricing_plan_id":"free"},{"bike_id":"d5a66d61-60fa-40bb-8972-69e792450668","system_id":"levelo_inurba_marseille","lat":43.308614,"lon":5.372098,"is_reserved":false,"is_disabled":false,"rental_uris":{"android":"levelo://app?vid=d5a66d61-60fa-40bb-8972-69e792450668","ios":"levelo://app?vid=d5a66d61-60fa-40bb-8972-69e792450668"},"vehicle_type_id":"4","last_reported":1686351983,"current_range_meters":17200,"station_id":"ce4bguh2rcd13ifvqckg","pricing_plan_id":"free"},{"bike_id":"c9c73506-79a4-49e1-99a9-aa61df77f001","system_id":"levelo_inurba_marseille","lat":43.308614,"lon":5.372098,"is_reserved":false,"is_disabled":false,"rental_uris":{"android":"levelo://app?vid=c9c73506-79a4-49e1-99a9-aa61df77f001","ios":"levelo://app?vid=c9c73506-79a4-49e1-99a9-aa61df77f001"},"vehicle_type_id":"4","last_reported":1686351983,"current_range_meters":17200,"station_id":"ce4bguh2rcd13ifvqckg","pricing_plan_id":"free"},{"bike_id":"2dbc8303-1e1a-4d08-9dee-6babc9247d38","system_id":"levelo_inurba_marseille","lat":43.30686,"lon":5.36602,"is_reserved":false,"is_disabled":false,"rental_uris":{"android":"levelo://app?vid=2dbc8303-1e1a-4d08-9dee-6babc9247d38","ios":"levelo://app?vid=2dbc8303-1e1a-4d08-9dee-6babc9247d38"},"vehicle_type_id":"4","last_reported":1686351983,"current_range_meters":28000,"station_id":"","pricing_plan_id":"free"},{"bike_id":"726e69fe-0789-44cc-8872-aafade0684ce","system_id":"levelo_inurba_marseille","lat":43.306,"lon":5.36574,"is_reserved":false,"is_disabled":false,"rental_uris":{"android":"levelo://app?vid=726e69fe-0789-44cc-8872-aafade0684ce","ios":"levelo://app?vid=726e69fe-0789-44cc-8872-aafade0684ce"},"vehicle_type_id":"4","last_reported":1686351983,"current_range_meters":12000,"station_id":"","pricing_plan_id":"free"},{"bike_id":"e13287f9-25c2-4ec5-8ab9-d8a96da95b66","system_id":"levelo_inurba_marseille","lat":43.316,"lon":5.37633,"is_reserved":false,"is_disabled":false,"rental_uris":{"android":"levelo://app?vid=e13287f9-25c2-4ec5-8ab9-d8a96da95b66","ios":"levelo://app?vid=e13287f9-25c2-4ec5-8ab9-d8a96da95b66"},"vehicle_type_id":"4","last_reported":1686351983,"current_range_meters":15200,"station_id":"","pricing_plan_id":"free"},{"bike_id":"601b1d41-4dde-448e-bdd8-806988314781","system_id":"levelo_inurba_marseille","lat":43.31449,"lon":5.37709,"is_reserved":false,"is_disabled":false,"rental_uris":{"android":"levelo://app?vid=601b1d41-4dde-448e-bdd8-806988314781","ios":"levelo://app?vid=601b1d41-4dde-448e-bdd8-806988314781"},"vehicle_type_id":"4","last_reported":1686351983,"current_range_meters":19200,"station_id":"","pricing_plan_id":"free"},{"bike_id":"c39eba22-1668-4155-9623-6478dad60f6e","system_id":"levelo_inurba_marseille","lat":43.31695,"lon":5.37721,"is_reserved":false,"is_disabled":false,"rental_uris":{"android":"levelo://app?vid=c39eba22-1668-4155-9623-6478dad60f6e","ios":"levelo://app?vid=c39eba22-1668-4155-9623-6478dad60f6e"},"vehicle_type_id":"4","last_reported":1686351983,"current_range_meters":0,"station_id":"ce4bgth2rcd13ifvqch0","pricing_plan_id":"free"},{"bike_id":"6ca7f4f0-9c0c-44fb-aa3e-979faab6c99c","system_id":"levelo_inurba_marseille","lat":43.30596,"lon":5.37466,"is_reserved":false,"is_disabled":false,"rental_uris":{"android":"levelo://app?vid=6ca7f4f0-9c0c-44fb-aa3e-979faab6c99c","ios":"levelo://app?vid=6ca7f4f0-9c0c-44fb-aa3e-979faab6c99c"},"vehicle_type_id":"4","last_reported":1686351983,"current_range_meters":31200,"station_id":"","pricing_plan_id":"free"},{"bike_id":"4f65b353-1928-43cd-9ff5-8a61b4236bac","system_id":"levelo_inurba_marseille","lat":43.31712,"lon":5.37772,"is_reserved":false,"is_disabled":false,"rental_uris":{"android":"levelo://app?vid=4f65b353-1928-43cd-9ff5-8a61b4236bac","ios":"levelo://app?vid=4f65b353-1928-43cd-9ff5-8a61b4236bac"},"vehicle_type_id":"4","last_reported":1686351983,"current_range_meters":30400,"station_id":"ce4bgth2rcd13ifvqch0","pricing_plan_id":"free"},{"bike_id":"35597274-2a0a-4028-8b7d-5a28fdb16362","system_id":"levelo_inurba_marseille","lat":43.303046,"lon":5.368981,"is_reserved":false,"is_disabled":false,"rental_uris":{"android":"levelo://app?vid=35597274-2a0a-4028-8b7d-5a28fdb16362","ios":"levelo://app?vid=35597274-2a0a-4028-8b7d-5a28fdb16362"},"vehicle_type_id":"4","last_reported":1686351983,"current_range_meters":24800,"station_id":"ce4bgqh2rcd13ifvqc5g","pricing_plan_id":"free"},{"bike_id":"81d8a072-040b-4c7c-9608-2f9db4f3cabf","system_id":"levelo_inurba_marseille","lat":43.31532,"lon":5.38024,"is_reserved":false,"is_disabled":false,"rental_uris":{"android":"levelo://app?vid=81d8a072-040b-4c7c-9608-2f9db4f3cabf","ios":"levelo://app?vid=81d8a072-040b-4c7c-9608-2f9db4f3cabf"},"vehicle_type_id":"4","last_reported":1686351983,"current_range_meters":26800,"station_id":"ce4bhsp2rcd13ifvqi50","pricing_plan_id":"free"},{"bike_id":"bc66f522-c7fa-4459-9f6b-aea72eb208be","system_id":"levelo_inurba_marseille","lat":43.31536,"lon":5.38026,"is_reserved":false,"is_disabled":false,"rental_uris":{"android":"levelo://app?vid=bc66f522-c7fa-4459-9f6b-aea72eb208be","ios":"levelo://app?vid=bc66f522-c7fa-4459-9f6b-aea72eb208be"},"vehicle_type_id":"4","last_reported":1686351983,"current_range_meters":4000,"station_id":"ce4bhsp2rcd13ifvqi50","pricing_plan_id":"free"},{"bike_id":"6d4cfc43-e091-4944-88fb-e84f4ca5607b","system_id":"levelo_inurba_marseille","lat":43.31531,"lon":5.38028,"is_reserved":false,"is_disabled":false,"rental_uris":{"android":"levelo://app?vid=6d4cfc43-e091-4944-88fb-e84f4ca5607b","ios":"levelo://app?vid=6d4cfc43-e091-4944-88fb-e84f4ca5607b"},"vehicle_type_id":"4","last_reported":1686351983,"current_range_meters":5200,"station_id":"ce4bhsp2rcd13ifvqi50","pricing_plan_id":"free"},{"bike_id":"37af9396-cf24-42f8-bf6c-e1f946859bf5","system_id":"levelo_inurba_marseille","lat":43.301939,"lon":5.366286,"is_reserved":false,"is_disabled":false,"rental_uris":{"android":"levelo://app?vid=37af9396-cf24-42f8-bf6c-e1f946859bf5","ios":"levelo://app?vid=37af9396-cf24-42f8-bf6c-e1f946859bf5"},"vehicle_type_id":"4","last_reported":1686351983,"current_range_meters":17600,"station_id":"ce4bgrh2rcd13ifvqc8g","pricing_plan_id":"free"},{"bike_id":"a9da625d-f9eb-4a11-bb49-32993127257f","system_id":"levelo_inurba_marseille","lat":43.3237,"lon":5.36945,"is_reserved":false,"is_disabled":false,"rental_uris":{"android":"levelo://app?vid=a9da625d-f9eb-4a11-bb49-32993127257f","ios":"levelo://app?vid=a9da625d-f9eb-4a11-bb49-32993127257f"},"vehicle_type_id":"4","last_reported":1686351983,"current_range_meters":17200,"station_id":"","pricing_plan_id":"free"},{"bike_id":"55ecfde1-8e71-4972-afe2-831c4bd3b3f2","system_id":"levelo_inurba_marseille","lat":43.31655,"lon":5.38225,"is_reserved":false,"is_disabled":false,"rental_uris":{"android":"levelo://app?vid=55ecfde1-8e71-4972-afe2-831c4bd3b3f2","ios":"levelo://app?vid=55ecfde1-8e71-4972-afe2-831c4bd3b3f2"},"vehicle_type_id":"4","last_reported":1686351983,"current_range_meters":27200,"station_id":"","pricing_plan_id":"free"},{"bike_id":"cded1c2d-5a5c-4e18-91d7-2827bc5d0858","system_id":"levelo_inurba_marseille","lat":43.30138,"lon":5.37423,"is_reserved":false,"is_disabled":false,"rental_uris":{"android":"levelo://app?vid=cded1c2d-5a5c-4e18-91d7-2827bc5d0858","ios":"levelo://app?vid=cded1c2d-5a5c-4e18-91d7-2827bc5d0858"},"vehicle_type_id":"4","last_reported":1686351983,"current_range_meters":31200,"station_id":"ce4bgs92rcd13ifvqcc0","pricing_plan_id":"free"},{"bike_id":"c5541dbf-ec7b-4fa0-8921-c2ce47280417","system_id":"levelo_inurba_marseille","lat":43.313571,"lon":5.384829,"is_reserved":false,"is_disabled":false,"rental_uris":{"android":"levelo://app?vid=c5541dbf-ec7b-4fa0-8921-c2ce47280417","ios":"levelo://app?vid=c5541dbf-ec7b-4fa0-8921-c2ce47280417"},"vehicle_type_id":"4","last_reported":1686351983,"current_range_meters":25200,"station_id":"ce4bgt92rcd13ifvqcf0","pricing_plan_id":"free"},{"bike_id":"4ba2e97a-3036-4619-ba13-94c8d5f5b06e","system_id":"levelo_inurba_marseille","lat":43.313571,"lon":5.384829,"is_reserved":false,"is_disabled":false,"rental_uris":{"android":"levelo://app?vid=4ba2e97a-3036-4619-ba13-94c8d5f5b06e","ios":"levelo://app?vid=4ba2e97a-3036-4619-ba13-94c8d5f5b06e"},"vehicle_type_id":"4","last_reported":1686351983,"current_range_meters":23600,"station_id":"ce4bgt92rcd13ifvqcf0","pricing_plan_id":"free"},{"bike_id":"2abb6ab8-ea7a-4d43-b67d-5f8a73211330","system_id":"levelo_inurba_marseille","lat":43.313571,"lon":5.384829,"is_reserved":false,"is_disabled":false,"rental_uris":{"android":"levelo://app?vid=2abb6ab8-ea7a-4d43-b67d-5f8a73211330","ios":"levelo://app?vid=2abb6ab8-ea7a-4d43-b67d-5f8a73211330"},"vehicle_type_id":"4","last_reported":1686351983,"current_range_meters":28800,"station_id":"ce4bgt92rcd13ifvqcf0","pricing_plan_id":"free"},{"bike_id":"8e2fe516-2914-4828-afb1-4f8ea38bd7bd","system_id":"levelo_inurba_marseille","lat":43.31351,"lon":5.38491,"is_reserved":false,"is_disabled":false,"rental_uris":{"android":"levelo://app?vid=8e2fe516-2914-4828-afb1-4f8ea38bd7bd","ios":"levelo://app?vid=8e2fe516-2914-4828-afb1-4f8ea38bd7bd"},"vehicle_type_id":"4","last_reported":1686351983,"current_range_meters":0,"station_id":"ce4bgt92rcd13ifvqcf0","pricing_plan_id":"free"},{"bike_id":"7c9d6b74-0ef3-4995-ae6e-1704a926690c","system_id":"levelo_inurba_marseille","lat":43.313571,"lon":5.384829,"is_reserved":false,"is_disabled":false,"rental_uris":{"android":"levelo://app?vid=7c9d6b74-0ef3-4995-ae6e-1704a926690c","ios":"levelo://app?vid=7c9d6b74-0ef3-4995-ae6e-1704a926690c"},"vehicle_type_id":"4","last_reported":1686351983,"current_range_meters":8000,"station_id":"ce4bgt92rcd13ifvqcf0","pricing_plan_id":"free"},{"bike_id":"fd970719-e67f-4e70-851f-ebb279493695","system_id":"levelo_inurba_marseille","lat":43.31357,"lon":5.38496,"is_reserved":false,"is_disabled":false,"rental_uris":{"android":"levelo://app?vid=fd970719-e67f-4e70-851f-ebb279493695","ios":"levelo://app?vid=fd970719-e67f-4e70-851f-ebb279493695"},"vehicle_type_id":"4","last_reported":1686351983,"current_range_meters":18800,"station_id":"ce4bgt92rcd13ifvqcf0","pricing_plan_id":"free"},{"bike_id":"b8b4a96b-803d-42c4-88f7-e6665a6f93cc","system_id":"levelo_inurba_marseille","lat":43.31364,"lon":5.38496,"is_reserved":false,"is_disabled":false,"rental_uris":{"android":"levelo://app?vid=b8b4a96b-803d-42c4-88f7-e6665a6f93cc","ios":"levelo://app?vid=b8b4a96b-803d-42c4-88f7-e6665a6f93cc"},"vehicle_type_id":"4","last_reported":1686351983,"current_range_meters":29200,"station_id":"ce4bgt92rcd13ifvqcf0","pricing_plan_id":"free"},{"bike_id":"14c855d4-380f-4a51-bf8e-257d3e7a609a","system_id":"levelo_inurba_marseille","lat":43.299222,"lon":5.365554,"is_reserved":false,"is_disabled":false,"rental_uris":{"android":"levelo://app?vid=14c855d4-380f-4a51-bf8e-257d3e7a609a","ios":"levelo://app?vid=14c855d4-380f-4a51-bf8e-257d3e7a609a"},"vehicle_type_id":"4","last_reported":1686351983,"current_range_meters":0,"station_id":"ce4bgm92rcd13ifvqbr0","pricing_plan_id":"free"},{"bike_id":"0fe8d264-323d-4fe2-9096-42bf3ced84c0","system_id":"levelo_inurba_marseille","lat":43.31179,"lon":5.38709,"is_reserved":false,"is_disabled":false,"rental_uris":{"android":"levelo://app?vid=0fe8d264-323d-4fe2-9096-42bf3ced84c0","ios":"levelo://app?vid=0fe8d264-323d-4fe2-9096-42bf3ced84c0"},"vehicle_type_id":"4","last_reported":1686351983,"current_range_meters":30800,"station_id":"ce4bgv12rcd13ifvqcp0","pricing_plan_id":"free"},{"bike_id":"6f5de887-859f-494e-9b7a-127b57ed869c","system_id":"levelo_inurba_marseille","lat":43.311722,"lon":5.387247,"is_reserved":false,"is_disabled":false,"rental_uris":{"android":"levelo://app?vid=6f5de887-859f-494e-9b7a-127b57ed869c","ios":"levelo://app?vid=6f5de887-859f-494e-9b7a-127b57ed869c"},"vehicle_type_id":"4","last_reported":1686351983,"current_range_meters":12400,"station_id":"ce4bgv12rcd13ifvqcp0","pricing_plan_id":"free"},{"bike_id":"122775d2-10be-4b6c-92d0-5fc86911e62f","system_id":"levelo_inurba_marseille","lat":43.311722,"lon":5.387247,"is_reserved":false,"is_disabled":false,"rental_uris":{"android":"levelo://app?vid=122775d2-10be-4b6c-92d0-5fc86911e62f","ios":"levelo://app?vid=122775d2-10be-4b6c-92d0-5fc86911e62f"},"vehicle_type_id":"4","last_reported":1686351983,"current_range_meters":28400,"station_id":"ce4bgv12rcd13ifvqcp0","pricing_plan_id":"free"},{"bike_id":"d8ba42d4-e069-4bbe-b9c9-74fda24c7985","system_id":"levelo_inurba_marseille","lat":43.311722,"lon":5.387247,"is_reserved":false,"is_disabled":false,"rental_uris":{"android":"levelo://app?vid=d8ba42d4-e069-4bbe-b9c9-74fda24c7985","ios":"levelo://app?vid=d8ba42d4-e069-4bbe-b9c9-74fda24c7985"},"vehicle_type_id":"4","last_reported":1686351983,"current_range_meters":17600,"station_id":"ce4bgv12rcd13ifvqcp0","pricing_plan_id":"free"},{"bike_id":"64e5e2f7-cca4-4123-866b-56fba01585a3","system_id":"levelo_inurba_marseille","lat":43.297725,"lon":5.371103,"is_reserved":false,"is_disabled":false,"rental_uris":{"android":"levelo://app?vid=64e5e2f7-cca4-4123-866b-56fba01585a3","ios":"levelo://app?vid=64e5e2f7-cca4-4123-866b-56fba01585a3"},"vehicle_type_id":"4","last_reported":1686351983,"current_range_meters":25600,"station_id":"","pricing_plan_id":"free"},{"bike_id":"89d82a1a-2479-43a0-958b-4794a33e0052","system_id":"levelo_inurba_marseille","lat":43.328371,"lon":5.366909,"is_reserved":false,"is_disabled":false,"rental_uris":{"android":"levelo://app?vid=89d82a1a-2479-43a0-958b-4794a33e0052","ios":"levelo://app?vid=89d82a1a-2479-43a0-958b-4794a33e0052"},"vehicle_type_id":"4","last_reported":1686351983,"current_range_meters":20400,"station_id":"ce4bhs92rcd13ifvqi0g","pricing_plan_id":"free"},{"bike_id":"0eae116b-d7ce-4ca5-98e5-dbf6d1a9ef7e","system_id":"levelo_inurba_marseille","lat":43.29707,"lon":5.36608,"is_reserved":false,"is_disabled":false,"rental_uris":{"android":"levelo://app?vid=0eae116b-d7ce-4ca5-98e5-dbf6d1a9ef7e","ios":"levelo://app?vid=0eae116b-d7ce-4ca5-98e5-dbf6d1a9ef7e"},"vehicle_type_id":"4","last_reported":1686351983,"current_range_meters":29600,"station_id":"","pricing_plan_id":"free"},{"bike_id":"3586cba6-9390-4993-887b-4a09e7dce816","system_id":"levelo_inurba_marseille","lat":43.29702,"lon":5.36607,"is_reserved":false,"is_disabled":false,"rental_uris":{"android":"levelo://app?vid=3586cba6-9390-4993-887b-4a09e7dce816","ios":"levelo://app?vid=3586cba6-9390-4993-887b-4a09e7dce816"},"vehicle_type_id":"4","last_reported":1686351983,"current_range_meters":9600,"station_id":"","pricing_plan_id":"free"},{"bike_id":"e21ab8b1-2d89-4190-8fb2-a0a321a4f6c5","system_id":"levelo_inurba_marseille","lat":43.29573,"lon":5.367355,"is_reserved":false,"is_disabled":false,"rental_uris":{"android":"levelo://app?vid=e21ab8b1-2d89-4190-8fb2-a0a321a4f6c5","ios":"levelo://app?vid=e21ab8b1-2d89-4190-8fb2-a0a321a4f6c5"},"vehicle_type_id":"4","last_reported":1686351983,"current_range_meters":28000,"station_id":"ce4bgph2rcd13ifvqc2g","pricing_plan_id":"free"},{"bike_id":"68270493-969c-469e-9066-b8def185add6","system_id":"levelo_inurba_marseille","lat":43.309589,"lon":5.390258,"is_reserved":false,"is_disabled":false,"rental_uris":{"android":"levelo://app?vid=68270493-969c-469e-9066-b8def185add6","ios":"levelo://app?vid=68270493-969c-469e-9066-b8def185add6"},"vehicle_type_id":"4","last_reported":1686351983,"current_range_meters":26400,"station_id":"ce4bgup2rcd13ifvqco0","pricing_plan_id":"free"},{"bike_id":"4fa03eff-949b-42c4-b126-eb659508a8e0","system_id":"levelo_inurba_marseille","lat":43.31755,"lon":5.39012,"is_reserved":false,"is_disabled":false,"rental_uris":{"android":"levelo://app?vid=4fa03eff-949b-42c4-b126-eb659508a8e0","ios":"levelo://app?vid=4fa03eff-949b-42c4-b126-eb659508a8e0"},"vehicle_type_id":"4","last_reported":1686351983,"current_range_meters":6000,"station_id":"ce4bhqp2rcd13ifvqhng","pricing_plan_id":"free"},{"bike_id":"6df35179-92f7-43ac-b367-d30c30dcd173","system_id":"levelo_inurba_marseille","lat":43.3176,"lon":5.39017,"is_reserved":false,"is_disabled":false,"rental_uris":{"android":"levelo://app?vid=6df35179-92f7-43ac-b367-d30c30dcd173","ios":"levelo://app?vid=6df35179-92f7-43ac-b367-d30c30dcd173"},"vehicle_type_id":"4","last_reported":1686351983,"current_range_meters":10000,"station_id":"ce4bhqp2rcd13ifvqhng","pricing_plan_id":"free"},{"bike_id":"f622e4b3-4b3e-4504-811f-e9b765082288","system_id":"levelo_inurba_marseille","lat":43.299717,"lon":5.384845,"is_reserved":false,"is_disabled":false,"rental_uris":{"android":"levelo://app?vid=f622e4b3-4b3e-4504-811f-e9b765082288","ios":"levelo://app?vid=f622e4b3-4b3e-4504-811f-e9b765082288"},"vehicle_type_id":"4","last_reported":1686351983,"current_range_meters":21200,"station_id":"ce4bgj92rcd13ifvqbd0","pricing_plan_id":"free"},{"bike_id":"daf482e3-e6b1-4768-bbf8-0d9788a33767","system_id":"levelo_inurba_marseille","lat":43.299717,"lon":5.384845,"is_reserved":false,"is_disabled":false,"rental_uris":{"android":"levelo://app?vid=daf482e3-e6b1-4768-bbf8-0d9788a33767","ios":"levelo://app?vid=daf482e3-e6b1-4768-bbf8-0d9788a33767"},"vehicle_type_id":"4","last_reported":1686351983,"current_range_meters":26400,"station_id":"ce4bgj92rcd13ifvqbd0","pricing_plan_id":"free"},{"bike_id":"e35696ea-e099-4f9b-a80a-48e1d0b0577e","system_id":"levelo_inurba_marseille","lat":43.32367,"lon":5.38882,"is_reserved":false,"is_disabled":false,"rental_uris":{"android":"levelo://app?vid=e35696ea-e099-4f9b-a80a-48e1d0b0577e","ios":"levelo://app?vid=e35696ea-e099-4f9b-a80a-48e1d0b0577e"},"vehicle_type_id":"4","last_reported":1686351983,"current_range_meters":16000,"station_id":"ce4bhqp2rcd13ifvqhog","pricing_plan_id":"free"},{"bike_id":"37e23509-4319-4068-ac13-5d39d2e4cb9e","system_id":"levelo_inurba_marseille","lat":43.32369,"lon":5.38884,"is_reserved":false,"is_disabled":false,"rental_uris":{"android":"levelo://app?vid=37e23509-4319-4068-ac13-5d39d2e4cb9e","ios":"levelo://app?vid=37e23509-4319-4068-ac13-5d39d2e4cb9e"},"vehicle_type_id":"4","last_reported":1686351983,"current_range_meters":10400,"station_id":"ce4bhqp2rcd13ifvqhog","pricing_plan_id":"free"},{"bike_id":"200d884a-e5ae-4d63-8d96-f791af7518ed","system_id":"levelo_inurba_marseille","lat":43.29478,"lon":5.37877,"is_reserved":false,"is_disabled":false,"rental_uris":{"android":"levelo://app?vid=200d884a-e5ae-4d63-8d96-f791af7518ed","ios":"levelo://app?vid=200d884a-e5ae-4d63-8d96-f791af7518ed"},"vehicle_type_id":"4","last_reported":1686351983,"current_range_meters":11600,"station_id":"","pricing_plan_id":"free"},{"bike_id":"434cdf5e-564b-4bf4-a2f7-8aadb97bb310","system_id":"levelo_inurba_marseille","lat":43.293249,"lon":5.371578,"is_reserved":false,"is_disabled":false,"rental_uris":{"android":"levelo://app?vid=434cdf5e-564b-4bf4-a2f7-8aadb97bb310","ios":"levelo://app?vid=434cdf5e-564b-4bf4-a2f7-8aadb97bb310"},"vehicle_type_id":"4","last_reported":1686351983,"current_range_meters":31200,"station_id":"ce4bgh92rcd13ifvqb40","pricing_plan_id":"free"},{"bike_id":"0d236e12-88ea-4942-820e-f565f49975c5","system_id":"levelo_inurba_marseille","lat":43.293249,"lon":5.371578,"is_reserved":false,"is_disabled":false,"rental_uris":{"android":"levelo://app?vid=0d236e12-88ea-4942-820e-f565f49975c5","ios":"levelo://app?vid=0d236e12-88ea-4942-820e-f565f49975c5"},"vehicle_type_id":"4","last_reported":1686351983,"current_range_meters":22000,"station_id":"ce4bgh92rcd13ifvqb40","pricing_plan_id":"free"},{"bike_id":"56d47e3e-4fd5-49ba-b8a2-85b8b18cf55b","system_id":"levelo_inurba_marseille","lat":43.292749,"lon":5.368402,"is_reserved":false,"is_disabled":false,"rental_uris":{"android":"levelo://app?vid=56d47e3e-4fd5-49ba-b8a2-85b8b18cf55b","ios":"levelo://app?vid=56d47e3e-4fd5-49ba-b8a2-85b8b18cf55b"},"vehicle_type_id":"4","last_reported":1686351983,"current_range_meters":28800,"station_id":"ce4bhbp2rcd13ifvqesg","pricing_plan_id":"free"},{"bike_id":"f0a0fa9e-831a-46ff-b84e-6f11cdaae7f1","system_id":"levelo_inurba_marseille","lat":43.293009,"lon":5.374584,"is_reserved":false,"is_disabled":false,"rental_uris":{"android":"levelo://app?vid=f0a0fa9e-831a-46ff-b84e-6f11cdaae7f1","ios":"levelo://app?vid=f0a0fa9e-831a-46ff-b84e-6f11cdaae7f1"},"vehicle_type_id":"4","last_reported":1686351983,"current_range_meters":19200,"station_id":"ce4bgi12rcd13ifvqb70","pricing_plan_id":"free"},{"bike_id":"61e4ccfd-dc98-4837-8123-2dfa5e087f42","system_id":"levelo_inurba_marseille","lat":43.293723,"lon":5.378443,"is_reserved":false,"is_disabled":false,"rental_uris":{"android":"levelo://app?vid=61e4ccfd-dc98-4837-8123-2dfa5e087f42","ios":"levelo://app?vid=61e4ccfd-dc98-4837-8123-2dfa5e087f42"},"vehicle_type_id":"4","last_reported":1686351983,"current_range_meters":6000,"station_id":"","pricing_plan_id":"free"},{"bike_id":"7f779d57-051c-47eb-a8f3-e4e1f1d159df","system_id":"levelo_inurba_marseille","lat":43.30085,"lon":5.390856,"is_reserved":false,"is_disabled":false,"rental_uris":{"android":"levelo://app?vid=7f779d57-051c-47eb-a8f3-e4e1f1d159df","ios":"levelo://app?vid=7f779d57-051c-47eb-a8f3-e4e1f1d159df"},"vehicle_type_id":"4","last_reported":1686351983,"current_range_meters":14000,"station_id":"ce4bh192rcd13ifvqdb0","pricing_plan_id":"free"},{"bike_id":"c7416ac6-9130-422e-a4f4-7a909647bafe","system_id":"levelo_inurba_marseille","lat":43.291994,"lon":5.357886,"is_reserved":false,"is_disabled":false,"rental_uris":{"android":"levelo://app?vid=c7416ac6-9130-422e-a4f4-7a909647bafe","ios":"levelo://app?vid=c7416ac6-9130-422e-a4f4-7a909647bafe"},"vehicle_type_id":"4","last_reported":1686351983,"current_range_meters":8400,"station_id":"ce4bhb12rcd13ifvqel0","pricing_plan_id":"free"},{"bike_id":"e323f9c4-eb79-40fc-a73c-f10f178b0f2c","system_id":"levelo_inurba_marseille","lat":43.309038,"lon":5.396546,"is_reserved":false,"is_disabled":false,"rental_uris":{"android":"levelo://app?vid=e323f9c4-eb79-40fc-a73c-f10f178b0f2c","ios":"levelo://app?vid=e323f9c4-eb79-40fc-a73c-f10f178b0f2c"},"vehicle_type_id":"4","last_reported":1686351983,"current_range_meters":27600,"station_id":"ce4bh012rcd13ifvqcv0","pricing_plan_id":"free"},{"bike_id":"1ef8d55b-ed69-4976-863a-afabdfd50aa6","system_id":"levelo_inurba_marseille","lat":43.313291,"lon":5.396838,"is_reserved":false,"is_disabled":false,"rental_uris":{"android":"levelo://app?vid=1ef8d55b-ed69-4976-863a-afabdfd50aa6","ios":"levelo://app?vid=1ef8d55b-ed69-4976-863a-afabdfd50aa6"},"vehicle_type_id":"4","last_reported":1686351983,"current_range_meters":30800,"station_id":"ce4bgvp2rcd13ifvqcu0","pricing_plan_id":"free"},{"bike_id":"3d5f4c77-2599-45f7-b165-9f9c713cb3c5","system_id":"levelo_inurba_marseille","lat":43.313291,"lon":5.396838,"is_reserved":false,"is_disabled":false,"rental_uris":{"android":"levelo://app?vid=3d5f4c77-2599-45f7-b165-9f9c713cb3c5","ios":"levelo://app?vid=3d5f4c77-2599-45f7-b165-9f9c713cb3c5"},"vehicle_type_id":"4","last_reported":1686351983,"current_range_meters":31200,"station_id":"ce4bgvp2rcd13ifvqcu0","pricing_plan_id":"free"},{"bike_id":"ef392c8a-0d48-4d1b-ab65-7b3b134fb95c","system_id":"levelo_inurba_marseille","lat":43.313291,"lon":5.396838,"is_reserved":false,"is_disabled":false,"rental_uris":{"android":"levelo://app?vid=ef392c8a-0d48-4d1b-ab65-7b3b134fb95c","ios":"levelo://app?vid=ef392c8a-0d48-4d1b-ab65-7b3b134fb95c"},"vehicle_type_id":"4","last_reported":1686351983,"current_range_meters":31200,"station_id":"ce4bgvp2rcd13ifvqcu0","pricing_plan_id":"free"},{"bike_id":"ddc99a48-566c-413a-a7bb-39d642a91da0","system_id":"levelo_inurba_marseille","lat":43.313291,"lon":5.396838,"is_reserved":false,"is_disabled":false,"rental_uris":{"android":"levelo://app?vid=ddc99a48-566c-413a-a7bb-39d642a91da0","ios":"levelo://app?vid=ddc99a48-566c-413a-a7bb-39d642a91da0"},"vehicle_type_id":"4","last_reported":1686351983,"current_range_meters":19200,"station_id":"ce4bgvp2rcd13ifvqcu0","pricing_plan_id":"free"},{"bike_id":"dc6670b4-9cf0-4ce8-8af3-bf197e0e6b0b","system_id":"levelo_inurba_marseille","lat":43.313291,"lon":5.396838,"is_reserved":false,"is_disabled":false,"rental_uris":{"android":"levelo://app?vid=dc6670b4-9cf0-4ce8-8af3-bf197e0e6b0b","ios":"levelo://app?vid=dc6670b4-9cf0-4ce8-8af3-bf197e0e6b0b"},"vehicle_type_id":"4","last_reported":1686351983,"current_range_meters":1200,"station_id":"ce4bgvp2rcd13ifvqcu0","pricing_plan_id":"free"},{"bike_id":"9bccaa9f-4085-45dc-b0ee-a15bcde6beb1","system_id":"levelo_inurba_marseille","lat":43.30881,"lon":5.39652,"is_reserved":false,"is_disabled":false,"rental_uris":{"android":"levelo://app?vid=9bccaa9f-4085-45dc-b0ee-a15bcde6beb1","ios":"levelo://app?vid=9bccaa9f-4085-45dc-b0ee-a15bcde6beb1"},"vehicle_type_id":"4","last_reported":1686351983,"current_range_meters":26800,"station_id":"ce4bh012rcd13ifvqcv0","pricing_plan_id":"free"},{"bike_id":"20a8a54a-a5fd-42db-9949-8be85cebd637","system_id":"levelo_inurba_marseille","lat":43.309038,"lon":5.396546,"is_reserved":false,"is_disabled":false,"rental_uris":{"android":"levelo://app?vid=20a8a54a-a5fd-42db-9949-8be85cebd637","ios":"levelo://app?vid=20a8a54a-a5fd-42db-9949-8be85cebd637"},"vehicle_type_id":"4","last_reported":1686351983,"current_range_meters":8400,"station_id":"ce4bh012rcd13ifvqcv0","pricing_plan_id":"free"},{"bike_id":"123f6c0e-2980-490e-a2f7-49526de4e12e","system_id":"levelo_inurba_marseille","lat":43.290631,"lon":5.359244,"is_reserved":false,"is_disabled":false,"rental_uris":{"android":"levelo://app?vid=123f6c0e-2980-490e-a2f7-49526de4e12e","ios":"levelo://app?vid=123f6c0e-2980-490e-a2f7-49526de4e12e"},"vehicle_type_id":"4","last_reported":1686351983,"current_range_meters":6400,"station_id":"ce4bha92rcd13ifvqeg0","pricing_plan_id":"free"},{"bike_id":"4b3bd8f7-1037-4cae-a422-32030740c04a","system_id":"levelo_inurba_marseille","lat":43.294162,"lon":5.386292,"is_reserved":false,"is_disabled":false,"rental_uris":{"android":"levelo://app?vid=4b3bd8f7-1037-4cae-a422-32030740c04a","ios":"levelo://app?vid=4b3bd8f7-1037-4cae-a422-32030740c04a"},"vehicle_type_id":"4","last_reported":1686351983,"current_range_meters":28400,"station_id":"ce4bh2h2rcd13ifvqdh0","pricing_plan_id":"free"},{"bike_id":"455332fe-ada7-47e1-a3f5-1d2156376291","system_id":"levelo_inurba_marseille","lat":43.289184,"lon":5.366408,"is_reserved":false,"is_disabled":false,"rental_uris":{"android":"levelo://app?vid=455332fe-ada7-47e1-a3f5-1d2156376291","ios":"levelo://app?vid=455332fe-ada7-47e1-a3f5-1d2156376291"},"vehicle_type_id":"4","last_reported":1686351983,"current_range_meters":1200,"station_id":"ce4bhap2rcd13ifvqek0","pricing_plan_id":"free"},{"bike_id":"1ec29c61-e537-42aa-90c8-2f4f677e326e","system_id":"levelo_inurba_marseille","lat":43.29221,"lon":5.3832,"is_reserved":false,"is_disabled":false,"rental_uris":{"android":"levelo://app?vid=1ec29c61-e537-42aa-90c8-2f4f677e326e","ios":"levelo://app?vid=1ec29c61-e537-42aa-90c8-2f4f677e326e"},"vehicle_type_id":"4","last_reported":1686351983,"current_range_meters":14400,"station_id":"ce4bha12rcd13ifvqee0","pricing_plan_id":"free"},{"bike_id":"73588313-13c1-46dd-a755-94c2fa580d1b","system_id":"levelo_inurba_marseille","lat":43.304296,"lon":5.397513,"is_reserved":false,"is_disabled":false,"rental_uris":{"android":"levelo://app?vid=73588313-13c1-46dd-a755-94c2fa580d1b","ios":"levelo://app?vid=73588313-13c1-46dd-a755-94c2fa580d1b"},"vehicle_type_id":"4","last_reported":1686351983,"current_range_meters":31200,"station_id":"ce4bh092rcd13ifvqd20","pricing_plan_id":"free"},{"bike_id":"0694fc88-400a-412c-9abc-a75821705da0","system_id":"levelo_inurba_marseille","lat":43.304296,"lon":5.397513,"is_reserved":false,"is_disabled":false,"rental_uris":{"android":"levelo://app?vid=0694fc88-400a-412c-9abc-a75821705da0","ios":"levelo://app?vid=0694fc88-400a-412c-9abc-a75821705da0"},"vehicle_type_id":"4","last_reported":1686351983,"current_range_meters":10000,"station_id":"ce4bh092rcd13ifvqd20","pricing_plan_id":"free"},{"bike_id":"d2238407-9242-437e-a077-e037dd813e59","system_id":"levelo_inurba_marseille","lat":43.281044,"lon":5.378308,"is_reserved":false,"is_disabled":false,"rental_uris":{"android":"levelo://app?vid=d2238407-9242-437e-a077-e037dd813e59","ios":"levelo://app?vid=d2238407-9242-437e-a077-e037dd813e59"},"vehicle_type_id":"4","last_reported":1686351983,"current_range_meters":3600,"station_id":"ce4bha12rcd13ifvqee0","pricing_plan_id":"free"},{"bike_id":"eebb0572-4916-4105-a791-7d74572be411","system_id":"levelo_inurba_marseille","lat":43.290103,"lon":5.356114,"is_reserved":false,"is_disabled":false,"rental_uris":{"android":"levelo://app?vid=eebb0572-4916-4105-a791-7d74572be411","ios":"levelo://app?vid=eebb0572-4916-4105-a791-7d74572be411"},"vehicle_type_id":"4","last_reported":1686351983,"current_range_meters":7600,"station_id":"ce4bhb92rcd13ifvqen0","pricing_plan_id":"free"},{"bike_id":"bbcca292-01ad-4a2c-be3b-12a2d0b081ca","system_id":"levelo_inurba_marseille","lat":43.289741,"lon":5.378306,"is_reserved":false,"is_disabled":false,"rental_uris":{"android":"levelo://app?vid=bbcca292-01ad-4a2c-be3b-12a2d0b081ca","ios":"levelo://app?vid=bbcca292-01ad-4a2c-be3b-12a2d0b081ca"},"vehicle_type_id":"4","last_reported":1686351983,"current_range_meters":30800,"station_id":"ce4bh9p2rcd13ifvqed0","pricing_plan_id":"free"},{"bike_id":"d8d903bb-23dd-4e80-9ea0-128345195d1a","system_id":"levelo_inurba_marseille","lat":43.29174,"lon":5.38442,"is_reserved":false,"is_disabled":false,"rental_uris":{"android":"levelo://app?vid=d8d903bb-23dd-4e80-9ea0-128345195d1a","ios":"levelo://app?vid=d8d903bb-23dd-4e80-9ea0-128345195d1a"},"vehicle_type_id":"4","last_reported":1686351983,"current_range_meters":26000,"station_id":"","pricing_plan_id":"free"},{"bike_id":"d301ca72-dcaa-4189-9498-b196a70ef7b2","system_id":"levelo_inurba_marseille","lat":43.30429,"lon":5.39966,"is_reserved":false,"is_disabled":false,"rental_uris":{"android":"levelo://app?vid=d301ca72-dcaa-4189-9498-b196a70ef7b2","ios":"levelo://app?vid=d301ca72-dcaa-4189-9498-b196a70ef7b2"},"vehicle_type_id":"4","last_reported":1686351983,"current_range_meters":28800,"station_id":"","pricing_plan_id":"free"},{"bike_id":"265c0905-166c-408b-8d33-95a8e86424e1","system_id":"levelo_inurba_marseille","lat":43.337582,"lon":5.374483,"is_reserved":false,"is_disabled":false,"rental_uris":{"android":"levelo://app?vid=265c0905-166c-408b-8d33-95a8e86424e1","ios":"levelo://app?vid=265c0905-166c-408b-8d33-95a8e86424e1"},"vehicle_type_id":"4","last_reported":1686351983,"current_range_meters":18400,"station_id":"","pricing_plan_id":"free"},{"bike_id":"fb041ec1-b611-46eb-9d8b-3229cfb3396a","system_id":"levelo_inurba_marseille","lat":43.33768,"lon":5.37459,"is_reserved":false,"is_disabled":false,"rental_uris":{"android":"levelo://app?vid=fb041ec1-b611-46eb-9d8b-3229cfb3396a","ios":"levelo://app?vid=fb041ec1-b611-46eb-9d8b-3229cfb3396a"},"vehicle_type_id":"4","last_reported":1686351983,"current_range_meters":25600,"station_id":"","pricing_plan_id":"free"},{"bike_id":"cb1bdc4b-c39d-485b-91af-6029a68a3476","system_id":"levelo_inurba_marseille","lat":43.30397,"lon":5.40035,"is_reserved":false,"is_disabled":false,"rental_uris":{"android":"levelo://app?vid=cb1bdc4b-c39d-485b-91af-6029a68a3476","ios":"levelo://app?vid=cb1bdc4b-c39d-485b-91af-6029a68a3476"},"vehicle_type_id":"4","last_reported":1686351983,"current_range_meters":24000,"station_id":"","pricing_plan_id":"free"},{"bike_id":"a4628f0d-2cef-4fd9-8ee3-558413d05d3d","system_id":"levelo_inurba_marseille","lat":43.28726,"lon":5.37431,"is_reserved":false,"is_disabled":false,"rental_uris":{"android":"levelo://app?vid=a4628f0d-2cef-4fd9-8ee3-558413d05d3d","ios":"levelo://app?vid=a4628f0d-2cef-4fd9-8ee3-558413d05d3d"},"vehicle_type_id":"4","last_reported":1686351983,"current_range_meters":20400,"station_id":"","pricing_plan_id":"free"},{"bike_id":"a4f5fc41-a94e-4c93-8e71-c34b34d10811","system_id":"levelo_inurba_marseille","lat":43.286591,"lon":5.363346,"is_reserved":false,"is_disabled":false,"rental_uris":{"android":"levelo://app?vid=a4f5fc41-a94e-4c93-8e71-c34b34d10811","ios":"levelo://app?vid=a4f5fc41-a94e-4c93-8e71-c34b34d10811"},"vehicle_type_id":"4","last_reported":1686351983,"current_range_meters":31200,"station_id":"ce4bhah2rcd13ifvqej0","pricing_plan_id":"free"},{"bike_id":"15b4e4e2-82d1-4e5a-9310-671e77775b63","system_id":"levelo_inurba_marseille","lat":43.298681,"lon":5.397225,"is_reserved":false,"is_disabled":false,"rental_uris":{"android":"levelo://app?vid=15b4e4e2-82d1-4e5a-9310-671e77775b63","ios":"levelo://app?vid=15b4e4e2-82d1-4e5a-9310-671e77775b63"},"vehicle_type_id":"4","last_reported":1686351983,"current_range_meters":13600,"station_id":"ce4bh0h2rcd13ifvqd50","pricing_plan_id":"free"},{"bike_id":"faa7632c-1beb-4948-bde1-8aa528784da3","system_id":"levelo_inurba_marseille","lat":43.298681,"lon":5.397225,"is_reserved":false,"is_disabled":false,"rental_uris":{"android":"levelo://app?vid=faa7632c-1beb-4948-bde1-8aa528784da3","ios":"levelo://app?vid=faa7632c-1beb-4948-bde1-8aa528784da3"},"vehicle_type_id":"4","last_reported":1686351983,"current_range_meters":29600,"station_id":"ce4bh0h2rcd13ifvqd50","pricing_plan_id":"free"},{"bike_id":"504abf64-2634-4837-afd5-1ca493dd46bc","system_id":"levelo_inurba_marseille","lat":43.29873,"lon":5.39731,"is_reserved":false,"is_disabled":false,"rental_uris":{"android":"levelo://app?vid=504abf64-2634-4837-afd5-1ca493dd46bc","ios":"levelo://app?vid=504abf64-2634-4837-afd5-1ca493dd46bc"},"vehicle_type_id":"4","last_reported":1686351983,"current_range_meters":31200,"station_id":"ce4bh0h2rcd13ifvqd50","pricing_plan_id":"free"},{"bike_id":"f13db57e-335d-4945-b12c-9c5c48135ebe","system_id":"levelo_inurba_marseille","lat":43.298681,"lon":5.397225,"is_reserved":false,"is_disabled":false,"rental_uris":{"android":"levelo://app?vid=f13db57e-335d-4945-b12c-9c5c48135ebe","ios":"levelo://app?vid=f13db57e-335d-4945-b12c-9c5c48135ebe"},"vehicle_type_id":"4","last_reported":1686351983,"current_range_meters":25600,"station_id":"ce4bh0h2rcd13ifvqd50","pricing_plan_id":"free"},{"bike_id":"3a5b8e3b-28f1-41bd-bd2e-708aa1c41f5f","system_id":"levelo_inurba_marseille","lat":43.286593,"lon":5.363346,"is_reserved":false,"is_disabled":false,"rental_uris":{"android":"levelo://app?vid=3a5b8e3b-28f1-41bd-bd2e-708aa1c41f5f","ios":"levelo://app?vid=3a5b8e3b-28f1-41bd-bd2e-708aa1c41f5f"},"vehicle_type_id":"4","last_reported":1686351983,"current_range_meters":6400,"station_id":"ce4bhah2rcd13ifvqej0","pricing_plan_id":"free"},{"bike_id":"322eaf3e-00e9-4419-8921-468a39cc2591","system_id":"levelo_inurba_marseille","lat":43.298681,"lon":5.397225,"is_reserved":false,"is_disabled":false,"rental_uris":{"android":"levelo://app?vid=322eaf3e-00e9-4419-8921-468a39cc2591","ios":"levelo://app?vid=322eaf3e-00e9-4419-8921-468a39cc2591"},"vehicle_type_id":"4","last_reported":1686351983,"current_range_meters":3200,"station_id":"ce4bh0h2rcd13ifvqd50","pricing_plan_id":"free"},{"bike_id":"88ec96b5-c1ed-4d89-a987-81a13626db47","system_id":"levelo_inurba_marseille","lat":43.287,"lon":5.37385,"is_reserved":false,"is_disabled":false,"rental_uris":{"android":"levelo://app?vid=88ec96b5-c1ed-4d89-a987-81a13626db47","ios":"levelo://app?vid=88ec96b5-c1ed-4d89-a987-81a13626db47"},"vehicle_type_id":"4","last_reported":1686351983,"current_range_meters":0,"station_id":"","pricing_plan_id":"free"},{"bike_id":"e428a7b5-b5d2-4c33-b6f2-83f7e9606677","system_id":"levelo_inurba_marseille","lat":43.286591,"lon":5.363346,"is_reserved":false,"is_disabled":false,"rental_uris":{"android":"levelo://app?vid=e428a7b5-b5d2-4c33-b6f2-83f7e9606677","ios":"levelo://app?vid=e428a7b5-b5d2-4c33-b6f2-83f7e9606677"},"vehicle_type_id":"4","last_reported":1686351983,"current_range_meters":5200,"station_id":"ce4bhah2rcd13ifvqej0","pricing_plan_id":"free"},{"bike_id":"440c7d7b-111b-4ad9-80cc-318aa06c3086","system_id":"levelo_inurba_marseille","lat":43.287,"lon":5.37389,"is_reserved":false,"is_disabled":false,"rental_uris":{"android":"levelo://app?vid=440c7d7b-111b-4ad9-80cc-318aa06c3086","ios":"levelo://app?vid=440c7d7b-111b-4ad9-80cc-318aa06c3086"},"vehicle_type_id":"4","last_reported":1686351983,"current_range_meters":5600,"station_id":"","pricing_plan_id":"free"},{"bike_id":"16d86b56-24ec-4c49-ba78-127fee9c942d","system_id":"levelo_inurba_marseille","lat":43.29868,"lon":5.3974,"is_reserved":false,"is_disabled":false,"rental_uris":{"android":"levelo://app?vid=16d86b56-24ec-4c49-ba78-127fee9c942d","ios":"levelo://app?vid=16d86b56-24ec-4c49-ba78-127fee9c942d"},"vehicle_type_id":"4","last_reported":1686351983,"current_range_meters":31200,"station_id":"ce4bh0h2rcd13ifvqd50","pricing_plan_id":"free"},{"bike_id":"7e9b0964-f390-4689-b2f2-198cb546c7ba","system_id":"levelo_inurba_marseille","lat":43.29798,"lon":5.39679,"is_reserved":false,"is_disabled":false,"rental_uris":{"android":"levelo://app?vid=7e9b0964-f390-4689-b2f2-198cb546c7ba","ios":"levelo://app?vid=7e9b0964-f390-4689-b2f2-198cb546c7ba"},"vehicle_type_id":"4","last_reported":1686351983,"current_range_meters":4400,"station_id":"chh1huq6cuj3fo74tm60","pricing_plan_id":"free"},{"bike_id":"b2d736b9-9ba5-4aff-aff7-d944c6facee1","system_id":"levelo_inurba_marseille","lat":43.302759,"lon":5.400793,"is_reserved":false,"is_disabled":false,"rental_uris":{"android":"levelo://app?vid=b2d736b9-9ba5-4aff-aff7-d944c6facee1","ios":"levelo://app?vid=b2d736b9-9ba5-4aff-aff7-d944c6facee1"},"vehicle_type_id":"4","last_reported":1686351983,"current_range_meters":31200,"station_id":"ce4bgvh2rcd13ifvqcs0","pricing_plan_id":"free"},{"bike_id":"e24fb519-89a6-4e01-94f2-732206654fbc","system_id":"levelo_inurba_marseille","lat":43.302759,"lon":5.400793,"is_reserved":false,"is_disabled":false,"rental_uris":{"android":"levelo://app?vid=e24fb519-89a6-4e01-94f2-732206654fbc","ios":"levelo://app?vid=e24fb519-89a6-4e01-94f2-732206654fbc"},"vehicle_type_id":"4","last_reported":1686351983,"current_range_meters":29600,"station_id":"ce4bgvh2rcd13ifvqcs0","pricing_plan_id":"free"},{"bike_id":"ead03989-13a1-4cf7-a096-ab59d9be0d65","system_id":"levelo_inurba_marseille","lat":43.302759,"lon":5.400793,"is_reserved":false,"is_disabled":false,"rental_uris":{"android":"levelo://app?vid=ead03989-13a1-4cf7-a096-ab59d9be0d65","ios":"levelo://app?vid=ead03989-13a1-4cf7-a096-ab59d9be0d65"},"vehicle_type_id":"4","last_reported":1686351983,"current_range_meters":23600,"station_id":"ce4bgvh2rcd13ifvqcs0","pricing_plan_id":"free"},{"bike_id":"44662001-cdb2-4d9b-baff-d72b9eb53acd","system_id":"levelo_inurba_marseille","lat":43.286039,"lon":5.370679,"is_reserved":false,"is_disabled":false,"rental_uris":{"android":"levelo://app?vid=44662001-cdb2-4d9b-baff-d72b9eb53acd","ios":"levelo://app?vid=44662001-cdb2-4d9b-baff-d72b9eb53acd"},"vehicle_type_id":"4","last_reported":1686351983,"current_range_meters":12400,"station_id":"ce4bht12rcd13ifvqi60","pricing_plan_id":"free"},{"bike_id":"26e88200-87a3-4ff9-8ad0-58468e3c2ce9","system_id":"levelo_inurba_marseille","lat":43.28718,"lon":5.37924,"is_reserved":false,"is_disabled":false,"rental_uris":{"android":"levelo://app?vid=26e88200-87a3-4ff9-8ad0-58468e3c2ce9","ios":"levelo://app?vid=26e88200-87a3-4ff9-8ad0-58468e3c2ce9"},"vehicle_type_id":"4","last_reported":1686351983,"current_range_meters":31200,"station_id":"ce4bh9p2rcd13ifvqec0","pricing_plan_id":"free"},{"bike_id":"9ae0be29-7880-4f1e-812a-9bd035877398","system_id":"levelo_inurba_marseille","lat":43.316517,"lon":5.404375,"is_reserved":false,"is_disabled":false,"rental_uris":{"android":"levelo://app?vid=9ae0be29-7880-4f1e-812a-9bd035877398","ios":"levelo://app?vid=9ae0be29-7880-4f1e-812a-9bd035877398"},"vehicle_type_id":"4","last_reported":1686351983,"current_range_meters":2800,"station_id":"ce4bh012rcd13ifvqd00","pricing_plan_id":"free"},{"bike_id":"fffd57f9-83ec-4b85-82a7-8e5c87374d59","system_id":"levelo_inurba_marseille","lat":43.316517,"lon":5.404375,"is_reserved":false,"is_disabled":false,"rental_uris":{"android":"levelo://app?vid=fffd57f9-83ec-4b85-82a7-8e5c87374d59","ios":"levelo://app?vid=fffd57f9-83ec-4b85-82a7-8e5c87374d59"},"vehicle_type_id":"4","last_reported":1686351983,"current_range_meters":6000,"station_id":"ce4bh012rcd13ifvqd00","pricing_plan_id":"free"},{"bike_id":"0223f7f0-1279-46e1-b57e-7dfe932d2f6b","system_id":"levelo_inurba_marseille","lat":43.316517,"lon":5.404375,"is_reserved":false,"is_disabled":false,"rental_uris":{"android":"levelo://app?vid=0223f7f0-1279-46e1-b57e-7dfe932d2f6b","ios":"levelo://app?vid=0223f7f0-1279-46e1-b57e-7dfe932d2f6b"},"vehicle_type_id":"4","last_reported":1686351983,"current_range_meters":24800,"station_id":"ce4bh012rcd13ifvqd00","pricing_plan_id":"free"},{"bike_id":"ca3fbd32-01a6-441d-85cb-a1a16daa4ae5","system_id":"levelo_inurba_marseille","lat":43.31649,"lon":5.40436,"is_reserved":false,"is_disabled":false,"rental_uris":{"android":"levelo://app?vid=ca3fbd32-01a6-441d-85cb-a1a16daa4ae5","ios":"levelo://app?vid=ca3fbd32-01a6-441d-85cb-a1a16daa4ae5"},"vehicle_type_id":"4","last_reported":1686351983,"current_range_meters":18800,"station_id":"ce4bh012rcd13ifvqd00","pricing_plan_id":"free"},{"bike_id":"10857c00-19a8-4460-a91b-c88003b34d92","system_id":"levelo_inurba_marseille","lat":43.316517,"lon":5.404375,"is_reserved":false,"is_disabled":false,"rental_uris":{"android":"levelo://app?vid=10857c00-19a8-4460-a91b-c88003b34d92","ios":"levelo://app?vid=10857c00-19a8-4460-a91b-c88003b34d92"},"vehicle_type_id":"4","last_reported":1686351983,"current_range_meters":31200,"station_id":"ce4bh012rcd13ifvqd00","pricing_plan_id":"free"},{"bike_id":"3a46b28a-e81a-4a18-aa02-e6ef0d0b9162","system_id":"levelo_inurba_marseille","lat":43.291994,"lon":5.392907,"is_reserved":false,"is_disabled":false,"rental_uris":{"android":"levelo://app?vid=3a46b28a-e81a-4a18-aa02-e6ef0d0b9162","ios":"levelo://app?vid=3a46b28a-e81a-4a18-aa02-e6ef0d0b9162"},"vehicle_type_id":"4","last_reported":1686351983,"current_range_meters":2800,"station_id":"ce4bh192rcd13ifvqdd0","pricing_plan_id":"free"},{"bike_id":"a485b2ac-4900-4ba6-9f52-136e2958215c","system_id":"levelo_inurba_marseille","lat":43.291994,"lon":5.392907,"is_reserved":false,"is_disabled":false,"rental_uris":{"android":"levelo://app?vid=a485b2ac-4900-4ba6-9f52-136e2958215c","ios":"levelo://app?vid=a485b2ac-4900-4ba6-9f52-136e2958215c"},"vehicle_type_id":"4","last_reported":1686351983,"current_range_meters":800,"station_id":"ce4bh192rcd13ifvqdd0","pricing_plan_id":"free"},{"bike_id":"8bae025d-eeb4-492e-b1c8-f55deb8b0c45","system_id":"levelo_inurba_marseille","lat":43.284534,"lon":5.358662,"is_reserved":false,"is_disabled":false,"rental_uris":{"android":"levelo://app?vid=8bae025d-eeb4-492e-b1c8-f55deb8b0c45","ios":"levelo://app?vid=8bae025d-eeb4-492e-b1c8-f55deb8b0c45"},"vehicle_type_id":"4","last_reported":1686351983,"current_range_meters":31200,"station_id":"ce4bhah2rcd13ifvqei0","pricing_plan_id":"free"},{"bike_id":"f2a9498c-f4d4-464d-b256-4921ca80a88c","system_id":"levelo_inurba_marseille","lat":43.284534,"lon":5.358662,"is_reserved":false,"is_disabled":false,"rental_uris":{"android":"levelo://app?vid=f2a9498c-f4d4-464d-b256-4921ca80a88c","ios":"levelo://app?vid=f2a9498c-f4d4-464d-b256-4921ca80a88c"},"vehicle_type_id":"4","last_reported":1686351983,"current_range_meters":15600,"station_id":"ce4bhah2rcd13ifvqei0","pricing_plan_id":"free"},{"bike_id":"dc674f98-ead5-497f-8556-14bdb219efdb","system_id":"levelo_inurba_marseille","lat":43.28617,"lon":5.35105,"is_reserved":false,"is_disabled":false,"rental_uris":{"android":"levelo://app?vid=dc674f98-ead5-497f-8556-14bdb219efdb","ios":"levelo://app?vid=dc674f98-ead5-497f-8556-14bdb219efdb"},"vehicle_type_id":"4","last_reported":1686351983,"current_range_meters":0,"station_id":"","pricing_plan_id":"free"},{"bike_id":"f93e5396-f091-438f-917d-da8dbaa37196","system_id":"levelo_inurba_marseille","lat":43.28405,"lon":5.37495,"is_reserved":false,"is_disabled":false,"rental_uris":{"android":"levelo://app?vid=f93e5396-f091-438f-917d-da8dbaa37196","ios":"levelo://app?vid=f93e5396-f091-438f-917d-da8dbaa37196"},"vehicle_type_id":"4","last_reported":1686351983,"current_range_meters":4400,"station_id":"","pricing_plan_id":"free"},{"bike_id":"c683823f-6dcc-436a-8134-9fcf4b4b5218","system_id":"levelo_inurba_marseille","lat":43.295713,"lon":5.399639,"is_reserved":false,"is_disabled":false,"rental_uris":{"android":"levelo://app?vid=c683823f-6dcc-436a-8134-9fcf4b4b5218","ios":"levelo://app?vid=c683823f-6dcc-436a-8134-9fcf4b4b5218"},"vehicle_type_id":"4","last_reported":1686351983,"current_range_meters":0,"station_id":"ce4bh312rcd13ifvqdj0","pricing_plan_id":"free"},{"bike_id":"8b9a62e3-e024-439a-a475-612534eaa676","system_id":"levelo_inurba_marseille","lat":43.295713,"lon":5.399639,"is_reserved":false,"is_disabled":false,"rental_uris":{"android":"levelo://app?vid=8b9a62e3-e024-439a-a475-612534eaa676","ios":"levelo://app?vid=8b9a62e3-e024-439a-a475-612534eaa676"},"vehicle_type_id":"4","last_reported":1686351983,"current_range_meters":25200,"station_id":"ce4bh312rcd13ifvqdj0","pricing_plan_id":"free"},{"bike_id":"a3079b4d-45c0-4654-a084-416319c5cab5","system_id":"levelo_inurba_marseille","lat":43.323464,"lon":5.406297,"is_reserved":false,"is_disabled":false,"rental_uris":{"android":"levelo://app?vid=a3079b4d-45c0-4654-a084-416319c5cab5","ios":"levelo://app?vid=a3079b4d-45c0-4654-a084-416319c5cab5"},"vehicle_type_id":"4","last_reported":1686351983,"current_range_meters":27200,"station_id":"ce4bhq92rcd13ifvqhjg","pricing_plan_id":"free"},{"bike_id":"6bf636eb-4301-4688-82ef-9efd8d93c418","system_id":"levelo_inurba_marseille","lat":43.323464,"lon":5.406297,"is_reserved":false,"is_disabled":false,"rental_uris":{"android":"levelo://app?vid=6bf636eb-4301-4688-82ef-9efd8d93c418","ios":"levelo://app?vid=6bf636eb-4301-4688-82ef-9efd8d93c418"},"vehicle_type_id":"4","last_reported":1686351983,"current_range_meters":31200,"station_id":"ce4bhq92rcd13ifvqhjg","pricing_plan_id":"free"},{"bike_id":"06cff570-236d-434b-b41a-bcb364e7356f","system_id":"levelo_inurba_marseille","lat":43.323464,"lon":5.406297,"is_reserved":false,"is_disabled":false,"rental_uris":{"android":"levelo://app?vid=06cff570-236d-434b-b41a-bcb364e7356f","ios":"levelo://app?vid=06cff570-236d-434b-b41a-bcb364e7356f"},"vehicle_type_id":"4","last_reported":1686351983,"current_range_meters":1200,"station_id":"ce4bhq92rcd13ifvqhjg","pricing_plan_id":"free"},{"bike_id":"4ba20453-31de-4115-ac71-aad53c16ef43","system_id":"levelo_inurba_marseille","lat":43.323464,"lon":5.406297,"is_reserved":false,"is_disabled":false,"rental_uris":{"android":"levelo://app?vid=4ba20453-31de-4115-ac71-aad53c16ef43","ios":"levelo://app?vid=4ba20453-31de-4115-ac71-aad53c16ef43"},"vehicle_type_id":"4","last_reported":1686351983,"current_range_meters":30000,"station_id":"ce4bhq92rcd13ifvqhjg","pricing_plan_id":"free"},{"bike_id":"deb583eb-96fb-4a10-97e9-a4d5ee7da756","system_id":"levelo_inurba_marseille","lat":43.323464,"lon":5.406297,"is_reserved":false,"is_disabled":false,"rental_uris":{"android":"levelo://app?vid=deb583eb-96fb-4a10-97e9-a4d5ee7da756","ios":"levelo://app?vid=deb583eb-96fb-4a10-97e9-a4d5ee7da756"},"vehicle_type_id":"4","last_reported":1686351983,"current_range_meters":14000,"station_id":"ce4bhq92rcd13ifvqhjg","pricing_plan_id":"free"},{"bike_id":"8bd22232-9f9c-467f-855d-2fa5a802960c","system_id":"levelo_inurba_marseille","lat":43.284793,"lon":5.384113,"is_reserved":false,"is_disabled":false,"rental_uris":{"android":"levelo://app?vid=8bd22232-9f9c-467f-855d-2fa5a802960c","ios":"levelo://app?vid=8bd22232-9f9c-467f-855d-2fa5a802960c"},"vehicle_type_id":"4","last_reported":1686351983,"current_range_meters":31200,"station_id":"ce4bh512rcd13ifvqe3g","pricing_plan_id":"free"},{"bike_id":"664960d4-4a99-4775-a29d-ad121a6c6787","system_id":"levelo_inurba_marseille","lat":43.32257,"lon":5.40671,"is_reserved":false,"is_disabled":false,"rental_uris":{"android":"levelo://app?vid=664960d4-4a99-4775-a29d-ad121a6c6787","ios":"levelo://app?vid=664960d4-4a99-4775-a29d-ad121a6c6787"},"vehicle_type_id":"4","last_reported":1686351983,"current_range_meters":30000,"station_id":"","pricing_plan_id":"free"},{"bike_id":"cc95bffc-1cfb-46fd-95e2-68612aeecf38","system_id":"levelo_inurba_marseille","lat":43.32256,"lon":5.40679,"is_reserved":false,"is_disabled":false,"rental_uris":{"android":"levelo://app?vid=cc95bffc-1cfb-46fd-95e2-68612aeecf38","ios":"levelo://app?vid=cc95bffc-1cfb-46fd-95e2-68612aeecf38"},"vehicle_type_id":"4","last_reported":1686351983,"current_range_meters":13600,"station_id":"","pricing_plan_id":"free"},{"bike_id":"070f5a80-e177-4da1-ac2b-b79cf9312683","system_id":"levelo_inurba_marseille","lat":43.288501,"lon":5.393087,"is_reserved":false,"is_disabled":false,"rental_uris":{"android":"levelo://app?vid=070f5a80-e177-4da1-ac2b-b79cf9312683","ios":"levelo://app?vid=070f5a80-e177-4da1-ac2b-b79cf9312683"},"vehicle_type_id":"4","last_reported":1686351983,"current_range_meters":23600,"station_id":"ce4bh2p2rcd13ifvqdi0","pricing_plan_id":"free"},{"bike_id":"ae232d39-b160-410f-a53c-e104a0631f2e","system_id":"levelo_inurba_marseille","lat":43.32406,"lon":5.40679,"is_reserved":false,"is_disabled":false,"rental_uris":{"android":"levelo://app?vid=ae232d39-b160-410f-a53c-e104a0631f2e","ios":"levelo://app?vid=ae232d39-b160-410f-a53c-e104a0631f2e"},"vehicle_type_id":"4","last_reported":1686351983,"current_range_meters":18800,"station_id":"","pricing_plan_id":"free"},{"bike_id":"008827fe-885d-4302-bf85-d9ada8c2a135","system_id":"levelo_inurba_marseille","lat":43.292724,"lon":5.401131,"is_reserved":false,"is_disabled":false,"rental_uris":{"android":"levelo://app?vid=008827fe-885d-4302-bf85-d9ada8c2a135","ios":"levelo://app?vid=008827fe-885d-4302-bf85-d9ada8c2a135"},"vehicle_type_id":"4","last_reported":1686351983,"current_range_meters":19600,"station_id":"ce4bh312rcd13ifvqdk0","pricing_plan_id":"free"},{"bike_id":"ee4e271c-9c95-421e-ab6e-263ed5244526","system_id":"levelo_inurba_marseille","lat":43.283502,"lon":5.386471,"is_reserved":false,"is_disabled":false,"rental_uris":{"android":"levelo://app?vid=ee4e271c-9c95-421e-ab6e-263ed5244526","ios":"levelo://app?vid=ee4e271c-9c95-421e-ab6e-263ed5244526"},"vehicle_type_id":"4","last_reported":1686351983,"current_range_meters":1600,"station_id":"ce4bh492rcd13ifvqdvg","pricing_plan_id":"free"},{"bike_id":"469fcca9-37c2-4640-9739-182567eeea97","system_id":"levelo_inurba_marseille","lat":43.282754,"lon":5.350519,"is_reserved":false,"is_disabled":false,"rental_uris":{"android":"levelo://app?vid=469fcca9-37c2-4640-9739-182567eeea97","ios":"levelo://app?vid=469fcca9-37c2-4640-9739-182567eeea97"},"vehicle_type_id":"4","last_reported":1686351983,"current_range_meters":4800,"station_id":"ce4bhbp2rcd13ifvqerg","pricing_plan_id":"free"},{"bike_id":"64cfc745-df68-41fa-bab6-64262bad109d","system_id":"levelo_inurba_marseille","lat":43.283502,"lon":5.386471,"is_reserved":false,"is_disabled":false,"rental_uris":{"android":"levelo://app?vid=64cfc745-df68-41fa-bab6-64262bad109d","ios":"levelo://app?vid=64cfc745-df68-41fa-bab6-64262bad109d"},"vehicle_type_id":"4","last_reported":1686351983,"current_range_meters":25600,"station_id":"ce4bh492rcd13ifvqdvg","pricing_plan_id":"free"},{"bike_id":"e69f8bd7-8a37-436a-9679-6f6c343134be","system_id":"levelo_inurba_marseille","lat":43.283502,"lon":5.386471,"is_reserved":false,"is_disabled":false,"rental_uris":{"android":"levelo://app?vid=e69f8bd7-8a37-436a-9679-6f6c343134be","ios":"levelo://app?vid=e69f8bd7-8a37-436a-9679-6f6c343134be"},"vehicle_type_id":"4","last_reported":1686351983,"current_range_meters":25200,"station_id":"ce4bh492rcd13ifvqdvg","pricing_plan_id":"free"},{"bike_id":"d8bba6a7-f83c-4cfd-b41f-8a1905ea50c5","system_id":"levelo_inurba_marseille","lat":43.283502,"lon":5.386471,"is_reserved":false,"is_disabled":false,"rental_uris":{"android":"levelo://app?vid=d8bba6a7-f83c-4cfd-b41f-8a1905ea50c5","ios":"levelo://app?vid=d8bba6a7-f83c-4cfd-b41f-8a1905ea50c5"},"vehicle_type_id":"4","last_reported":1686351983,"current_range_meters":28800,"station_id":"ce4bh492rcd13ifvqdvg","pricing_plan_id":"free"},{"bike_id":"cbdca3d5-6ada-40a2-a8af-3c894d9b7133","system_id":"levelo_inurba_marseille","lat":43.283502,"lon":5.386471,"is_reserved":false,"is_disabled":false,"rental_uris":{"android":"levelo://app?vid=cbdca3d5-6ada-40a2-a8af-3c894d9b7133","ios":"levelo://app?vid=cbdca3d5-6ada-40a2-a8af-3c894d9b7133"},"vehicle_type_id":"4","last_reported":1686351983,"current_range_meters":13600,"station_id":"ce4bh492rcd13ifvqdvg","pricing_plan_id":"free"},{"bike_id":"a34b409d-a256-48a0-a3fa-e0de951ce364","system_id":"levelo_inurba_marseille","lat":43.28039,"lon":5.369297,"is_reserved":false,"is_disabled":false,"rental_uris":{"android":"levelo://app?vid=a34b409d-a256-48a0-a3fa-e0de951ce364","ios":"levelo://app?vid=a34b409d-a256-48a0-a3fa-e0de951ce364"},"vehicle_type_id":"4","last_reported":1686351983,"current_range_meters":26000,"station_id":"ce4bha12rcd13ifvqef0","pricing_plan_id":"free"},{"bike_id":"050d28f4-fd7c-4a11-8d57-e9df61852c37","system_id":"levelo_inurba_marseille","lat":43.28039,"lon":5.369297,"is_reserved":false,"is_disabled":false,"rental_uris":{"android":"levelo://app?vid=050d28f4-fd7c-4a11-8d57-e9df61852c37","ios":"levelo://app?vid=050d28f4-fd7c-4a11-8d57-e9df61852c37"},"vehicle_type_id":"4","last_reported":1686351983,"current_range_meters":12400,"station_id":"ce4bha12rcd13ifvqef0","pricing_plan_id":"free"},{"bike_id":"be72ce93-8d35-4ce4-9594-968f188fac1f","system_id":"levelo_inurba_marseille","lat":43.28039,"lon":5.369297,"is_reserved":false,"is_disabled":false,"rental_uris":{"android":"levelo://app?vid=be72ce93-8d35-4ce4-9594-968f188fac1f","ios":"levelo://app?vid=be72ce93-8d35-4ce4-9594-968f188fac1f"},"vehicle_type_id":"4","last_reported":1686351983,"current_range_meters":31200,"station_id":"ce4bha12rcd13ifvqef0","pricing_plan_id":"free"},{"bike_id":"7a283066-2d06-4566-93e0-c0a2b5b4b648","system_id":"levelo_inurba_marseille","lat":43.290412,"lon":5.399633,"is_reserved":false,"is_disabled":false,"rental_uris":{"android":"levelo://app?vid=7a283066-2d06-4566-93e0-c0a2b5b4b648","ios":"levelo://app?vid=7a283066-2d06-4566-93e0-c0a2b5b4b648"},"vehicle_type_id":"4","last_reported":1686351983,"current_range_meters":30000,"station_id":"ce4bh392rcd13ifvqdm0","pricing_plan_id":"free"},{"bike_id":"554c4c37-20c7-40d9-bbe8-d1839e3cacd4","system_id":"levelo_inurba_marseille","lat":43.29041,"lon":5.399634,"is_reserved":false,"is_disabled":false,"rental_uris":{"android":"levelo://app?vid=554c4c37-20c7-40d9-bbe8-d1839e3cacd4","ios":"levelo://app?vid=554c4c37-20c7-40d9-bbe8-d1839e3cacd4"},"vehicle_type_id":"4","last_reported":1686351983,"current_range_meters":7200,"station_id":"ce4bh392rcd13ifvqdm0","pricing_plan_id":"free"},{"bike_id":"a45504c8-c884-439d-afbb-acee3d7c3c76","system_id":"levelo_inurba_marseille","lat":43.29041,"lon":5.399634,"is_reserved":false,"is_disabled":false,"rental_uris":{"android":"levelo://app?vid=a45504c8-c884-439d-afbb-acee3d7c3c76","ios":"levelo://app?vid=a45504c8-c884-439d-afbb-acee3d7c3c76"},"vehicle_type_id":"4","last_reported":1686351983,"current_range_meters":27200,"station_id":"ce4bh392rcd13ifvqdm0","pricing_plan_id":"free"},{"bike_id":"97fd5f2e-f900-4319-a252-cefc44f307c7","system_id":"levelo_inurba_marseille","lat":43.281044,"lon":5.378308,"is_reserved":false,"is_disabled":false,"rental_uris":{"android":"levelo://app?vid=97fd5f2e-f900-4319-a252-cefc44f307c7","ios":"levelo://app?vid=97fd5f2e-f900-4319-a252-cefc44f307c7"},"vehicle_type_id":"4","last_reported":1686351983,"current_range_meters":14400,"station_id":"ce4bha12rcd13ifvqee0","pricing_plan_id":"free"},{"bike_id":"51d2ffd3-1815-49cc-aa08-9e19afd27891","system_id":"levelo_inurba_marseille","lat":43.281044,"lon":5.378308,"is_reserved":false,"is_disabled":false,"rental_uris":{"android":"levelo://app?vid=51d2ffd3-1815-49cc-aa08-9e19afd27891","ios":"levelo://app?vid=51d2ffd3-1815-49cc-aa08-9e19afd27891"},"vehicle_type_id":"4","last_reported":1686351983,"current_range_meters":26000,"station_id":"ce4bha12rcd13ifvqee0","pricing_plan_id":"free"},{"bike_id":"5c2c9a4d-9c86-48ef-a4ca-2c4ec1e930be","system_id":"levelo_inurba_marseille","lat":43.28109,"lon":5.3784,"is_reserved":false,"is_disabled":false,"rental_uris":{"android":"levelo://app?vid=5c2c9a4d-9c86-48ef-a4ca-2c4ec1e930be","ios":"levelo://app?vid=5c2c9a4d-9c86-48ef-a4ca-2c4ec1e930be"},"vehicle_type_id":"4","last_reported":1686351983,"current_range_meters":13600,"station_id":"ce4bha12rcd13ifvqee0","pricing_plan_id":"free"},{"bike_id":"8f68fbab-3d72-47c1-a038-7345a168b5d2","system_id":"levelo_inurba_marseille","lat":43.28107,"lon":5.37841,"is_reserved":false,"is_disabled":false,"rental_uris":{"android":"levelo://app?vid=8f68fbab-3d72-47c1-a038-7345a168b5d2","ios":"levelo://app?vid=8f68fbab-3d72-47c1-a038-7345a168b5d2"},"vehicle_type_id":"4","last_reported":1686351983,"current_range_meters":22400,"station_id":"ce4bha12rcd13ifvqee0","pricing_plan_id":"free"},{"bike_id":"2c59e22a-99d0-4da1-9b1d-edcda8f38d7d","system_id":"levelo_inurba_marseille","lat":43.28104,"lon":5.37827,"is_reserved":false,"is_disabled":false,"rental_uris":{"android":"levelo://app?vid=2c59e22a-99d0-4da1-9b1d-edcda8f38d7d","ios":"levelo://app?vid=2c59e22a-99d0-4da1-9b1d-edcda8f38d7d"},"vehicle_type_id":"4","last_reported":1686351983,"current_range_meters":19200,"station_id":"ce4bha12rcd13ifvqee0","pricing_plan_id":"free"},{"bike_id":"671c90e4-aa4b-486d-8382-e672410747e5","system_id":"levelo_inurba_marseille","lat":43.281044,"lon":5.378308,"is_reserved":false,"is_disabled":false,"rental_uris":{"android":"levelo://app?vid=671c90e4-aa4b-486d-8382-e672410747e5","ios":"levelo://app?vid=671c90e4-aa4b-486d-8382-e672410747e5"},"vehicle_type_id":"4","last_reported":1686351983,"current_range_meters":24000,"station_id":"ce4bha12rcd13ifvqee0","pricing_plan_id":"free"},{"bike_id":"4d3d94ee-944d-4447-be10-db187c22643f","system_id":"levelo_inurba_marseille","lat":43.28101,"lon":5.37832,"is_reserved":false,"is_disabled":false,"rental_uris":{"android":"levelo://app?vid=4d3d94ee-944d-4447-be10-db187c22643f","ios":"levelo://app?vid=4d3d94ee-944d-4447-be10-db187c22643f"},"vehicle_type_id":"4","last_reported":1686351983,"current_range_meters":11200,"station_id":"ce4bha12rcd13ifvqee0","pricing_plan_id":"free"},{"bike_id":"ad40ee90-988f-4087-af5a-6f10cd2efa10","system_id":"levelo_inurba_marseille","lat":43.29627,"lon":5.40591,"is_reserved":false,"is_disabled":false,"rental_uris":{"android":"levelo://app?vid=ad40ee90-988f-4087-af5a-6f10cd2efa10","ios":"levelo://app?vid=ad40ee90-988f-4087-af5a-6f10cd2efa10"},"vehicle_type_id":"4","last_reported":1686351983,"current_range_meters":0,"station_id":"ce4bh0h2rcd13ifvqd60","pricing_plan_id":"free"},{"bike_id":"c024dd44-48fc-451e-ae77-0bbd4d394c24","system_id":"levelo_inurba_marseille","lat":43.281,"lon":5.37833,"is_reserved":false,"is_disabled":false,"rental_uris":{"android":"levelo://app?vid=c024dd44-48fc-451e-ae77-0bbd4d394c24","ios":"levelo://app?vid=c024dd44-48fc-451e-ae77-0bbd4d394c24"},"vehicle_type_id":"4","last_reported":1686351983,"current_range_meters":3200,"station_id":"ce4bha12rcd13ifvqee0","pricing_plan_id":"free"},{"bike_id":"519e2f45-9a5d-47f9-a6bc-52d39641668d","system_id":"levelo_inurba_marseille","lat":43.29041,"lon":5.399634,"is_reserved":false,"is_disabled":false,"rental_uris":{"android":"levelo://app?vid=519e2f45-9a5d-47f9-a6bc-52d39641668d","ios":"levelo://app?vid=519e2f45-9a5d-47f9-a6bc-52d39641668d"},"vehicle_type_id":"4","last_reported":1686351983,"current_range_meters":28000,"station_id":"ce4bh392rcd13ifvqdm0","pricing_plan_id":"free"},{"bike_id":"e7804f51-7043-4768-9582-8fa492aebc90","system_id":"levelo_inurba_marseille","lat":43.296263,"lon":5.40601,"is_reserved":false,"is_disabled":false,"rental_uris":{"android":"levelo://app?vid=e7804f51-7043-4768-9582-8fa492aebc90","ios":"levelo://app?vid=e7804f51-7043-4768-9582-8fa492aebc90"},"vehicle_type_id":"4","last_reported":1686351983,"current_range_meters":19200,"station_id":"ce4bh0h2rcd13ifvqd60","pricing_plan_id":"free"},{"bike_id":"3b760c2e-308d-4401-b2c0-f50769fff8c0","system_id":"levelo_inurba_marseille","lat":43.28101,"lon":5.37845,"is_reserved":false,"is_disabled":false,"rental_uris":{"android":"levelo://app?vid=3b760c2e-308d-4401-b2c0-f50769fff8c0","ios":"levelo://app?vid=3b760c2e-308d-4401-b2c0-f50769fff8c0"},"vehicle_type_id":"4","last_reported":1686351983,"current_range_meters":16000,"station_id":"ce4bha12rcd13ifvqee0","pricing_plan_id":"free"},{"bike_id":"26213ada-8a61-4189-a086-5c352fb4ab8e","system_id":"levelo_inurba_marseille","lat":43.281,"lon":5.37845,"is_reserved":false,"is_disabled":false,"rental_uris":{"android":"levelo://app?vid=26213ada-8a61-4189-a086-5c352fb4ab8e","ios":"levelo://app?vid=26213ada-8a61-4189-a086-5c352fb4ab8e"},"vehicle_type_id":"4","last_reported":1686351983,"current_range_meters":31200,"station_id":"ce4bha12rcd13ifvqee0","pricing_plan_id":"free"},{"bike_id":"94b6d5c9-e9ef-47de-8976-31d47a597d4b","system_id":"levelo_inurba_marseille","lat":43.284462,"lon":5.392121,"is_reserved":false,"is_disabled":false,"rental_uris":{"android":"levelo://app?vid=94b6d5c9-e9ef-47de-8976-31d47a597d4b","ios":"levelo://app?vid=94b6d5c9-e9ef-47de-8976-31d47a597d4b"},"vehicle_type_id":"4","last_reported":1686351983,"current_range_meters":19200,"station_id":"ce4bhoh2rcd13ifvqh5g","pricing_plan_id":"free"},{"bike_id":"dd7cfa31-83ea-48e4-bafc-e76d126e20eb","system_id":"levelo_inurba_marseille","lat":43.284462,"lon":5.392121,"is_reserved":false,"is_disabled":false,"rental_uris":{"android":"levelo://app?vid=dd7cfa31-83ea-48e4-bafc-e76d126e20eb","ios":"levelo://app?vid=dd7cfa31-83ea-48e4-bafc-e76d126e20eb"},"vehicle_type_id":"4","last_reported":1686351983,"current_range_meters":28800,"station_id":"ce4bhoh2rcd13ifvqh5g","pricing_plan_id":"free"},{"bike_id":"11b870e6-5de0-4bba-b0ab-844e545d8a96","system_id":"levelo_inurba_marseille","lat":43.284462,"lon":5.392121,"is_reserved":false,"is_disabled":false,"rental_uris":{"android":"levelo://app?vid=11b870e6-5de0-4bba-b0ab-844e545d8a96","ios":"levelo://app?vid=11b870e6-5de0-4bba-b0ab-844e545d8a96"},"vehicle_type_id":"4","last_reported":1686351983,"current_range_meters":17200,"station_id":"ce4bhoh2rcd13ifvqh5g","pricing_plan_id":"free"},{"bike_id":"523e3d15-4ade-4d6c-acb6-1f0e50afc945","system_id":"levelo_inurba_marseille","lat":43.28568,"lon":5.39485,"is_reserved":false,"is_disabled":false,"rental_uris":{"android":"levelo://app?vid=523e3d15-4ade-4d6c-acb6-1f0e50afc945","ios":"levelo://app?vid=523e3d15-4ade-4d6c-acb6-1f0e50afc945"},"vehicle_type_id":"4","last_reported":1686351983,"current_range_meters":30000,"station_id":"ce4bh292rcd13ifvqdg0","pricing_plan_id":"free"},{"bike_id":"cd21ac34-08b7-48a5-b2a9-182bcacfedac","system_id":"levelo_inurba_marseille","lat":43.326605,"lon":5.409903,"is_reserved":false,"is_disabled":false,"rental_uris":{"android":"levelo://app?vid=cd21ac34-08b7-48a5-b2a9-182bcacfedac","ios":"levelo://app?vid=cd21ac34-08b7-48a5-b2a9-182bcacfedac"},"vehicle_type_id":"4","last_reported":1686351983,"current_range_meters":7200,"station_id":"ce4bhpp2rcd13ifvqhgg","pricing_plan_id":"free"},{"bike_id":"081f01d1-2aa3-4338-af61-a6d1448d2c84","system_id":"levelo_inurba_marseille","lat":43.326605,"lon":5.409903,"is_reserved":false,"is_disabled":false,"rental_uris":{"android":"levelo://app?vid=081f01d1-2aa3-4338-af61-a6d1448d2c84","ios":"levelo://app?vid=081f01d1-2aa3-4338-af61-a6d1448d2c84"},"vehicle_type_id":"4","last_reported":1686351983,"current_range_meters":14800,"station_id":"ce4bhpp2rcd13ifvqhgg","pricing_plan_id":"free"},{"bike_id":"8cd38e49-dca5-4850-8ab5-ab54e401e9f1","system_id":"levelo_inurba_marseille","lat":43.304188,"lon":5.412904,"is_reserved":false,"is_disabled":false,"rental_uris":{"android":"levelo://app?vid=8cd38e49-dca5-4850-8ab5-ab54e401e9f1","ios":"levelo://app?vid=8cd38e49-dca5-4850-8ab5-ab54e401e9f1"},"vehicle_type_id":"4","last_reported":1686351983,"current_range_meters":21200,"station_id":"ce4bhop2rcd13ifvqh8g","pricing_plan_id":"free"},{"bike_id":"b42a7736-30ad-42fc-a4d5-a70fd642d8e8","system_id":"levelo_inurba_marseille","lat":43.304188,"lon":5.412904,"is_reserved":false,"is_disabled":false,"rental_uris":{"android":"levelo://app?vid=b42a7736-30ad-42fc-a4d5-a70fd642d8e8","ios":"levelo://app?vid=b42a7736-30ad-42fc-a4d5-a70fd642d8e8"},"vehicle_type_id":"4","last_reported":1686351983,"current_range_meters":26000,"station_id":"ce4bhop2rcd13ifvqh8g","pricing_plan_id":"free"},{"bike_id":"7fb7c0bb-40bc-4cac-b45a-72d3a70438ee","system_id":"levelo_inurba_marseille","lat":43.27904,"lon":5.37998,"is_reserved":false,"is_disabled":false,"rental_uris":{"android":"levelo://app?vid=7fb7c0bb-40bc-4cac-b45a-72d3a70438ee","ios":"levelo://app?vid=7fb7c0bb-40bc-4cac-b45a-72d3a70438ee"},"vehicle_type_id":"4","last_reported":1686351983,"current_range_meters":9600,"station_id":"","pricing_plan_id":"free"},{"bike_id":"09b8084b-a880-455a-a9c9-34dddd74c76c","system_id":"levelo_inurba_marseille","lat":43.27904,"lon":5.38007,"is_reserved":false,"is_disabled":false,"rental_uris":{"android":"levelo://app?vid=09b8084b-a880-455a-a9c9-34dddd74c76c","ios":"levelo://app?vid=09b8084b-a880-455a-a9c9-34dddd74c76c"},"vehicle_type_id":"4","last_reported":1686351983,"current_range_meters":15600,"station_id":"","pricing_plan_id":"free"},{"bike_id":"e6b46c7c-a23b-4e81-b260-fbf05f0c60c6","system_id":"levelo_inurba_marseille","lat":43.27902,"lon":5.38008,"is_reserved":false,"is_disabled":false,"rental_uris":{"android":"levelo://app?vid=e6b46c7c-a23b-4e81-b260-fbf05f0c60c6","ios":"levelo://app?vid=e6b46c7c-a23b-4e81-b260-fbf05f0c60c6"},"vehicle_type_id":"4","last_reported":1686351983,"current_range_meters":6400,"station_id":"","pricing_plan_id":"free"},{"bike_id":"93053460-46d9-408e-bd56-d9ec13fd2c93","system_id":"levelo_inurba_marseille","lat":43.287154,"lon":5.399979,"is_reserved":false,"is_disabled":false,"rental_uris":{"android":"levelo://app?vid=93053460-46d9-408e-bd56-d9ec13fd2c93","ios":"levelo://app?vid=93053460-46d9-408e-bd56-d9ec13fd2c93"},"vehicle_type_id":"4","last_reported":1686351983,"current_range_meters":31600,"station_id":"ce4bho92rcd13ifvqh3g","pricing_plan_id":"free"},{"bike_id":"d1b2b254-de2b-49cf-b883-fd15e2c12bf5","system_id":"levelo_inurba_marseille","lat":43.287154,"lon":5.399979,"is_reserved":false,"is_disabled":false,"rental_uris":{"android":"levelo://app?vid=d1b2b254-de2b-49cf-b883-fd15e2c12bf5","ios":"levelo://app?vid=d1b2b254-de2b-49cf-b883-fd15e2c12bf5"},"vehicle_type_id":"4","last_reported":1686351983,"current_range_meters":26400,"station_id":"ce4bho92rcd13ifvqh3g","pricing_plan_id":"free"},{"bike_id":"6054167f-1800-45dd-aef0-2910e03d163a","system_id":"levelo_inurba_marseille","lat":43.27899,"lon":5.38012,"is_reserved":false,"is_disabled":false,"rental_uris":{"android":"levelo://app?vid=6054167f-1800-45dd-aef0-2910e03d163a","ios":"levelo://app?vid=6054167f-1800-45dd-aef0-2910e03d163a"},"vehicle_type_id":"4","last_reported":1686351983,"current_range_meters":23200,"station_id":"","pricing_plan_id":"free"},{"bike_id":"2aa7c447-d356-4777-882f-90406aa79863","system_id":"levelo_inurba_marseille","lat":43.27898,"lon":5.38008,"is_reserved":false,"is_disabled":false,"rental_uris":{"android":"levelo://app?vid=2aa7c447-d356-4777-882f-90406aa79863","ios":"levelo://app?vid=2aa7c447-d356-4777-882f-90406aa79863"},"vehicle_type_id":"4","last_reported":1686351983,"current_range_meters":0,"station_id":"","pricing_plan_id":"free"},{"bike_id":"5a176d69-ee15-441e-ad52-f0c70e3ec01e","system_id":"levelo_inurba_marseille","lat":43.27898,"lon":5.38011,"is_reserved":false,"is_disabled":false,"rental_uris":{"android":"levelo://app?vid=5a176d69-ee15-441e-ad52-f0c70e3ec01e","ios":"levelo://app?vid=5a176d69-ee15-441e-ad52-f0c70e3ec01e"},"vehicle_type_id":"4","last_reported":1686351983,"current_range_meters":25200,"station_id":"","pricing_plan_id":"free"},{"bike_id":"bcd52d1a-3400-4c47-9ba6-779235962411","system_id":"levelo_inurba_marseille","lat":43.28723,"lon":5.40007,"is_reserved":false,"is_disabled":false,"rental_uris":{"android":"levelo://app?vid=bcd52d1a-3400-4c47-9ba6-779235962411","ios":"levelo://app?vid=bcd52d1a-3400-4c47-9ba6-779235962411"},"vehicle_type_id":"4","last_reported":1686351983,"current_range_meters":14400,"station_id":"ce4bho92rcd13ifvqh3g","pricing_plan_id":"free"},{"bike_id":"6f146e75-4fab-4f80-a5e4-b77a178ff235","system_id":"levelo_inurba_marseille","lat":43.28705,"lon":5.39983,"is_reserved":false,"is_disabled":false,"rental_uris":{"android":"levelo://app?vid=6f146e75-4fab-4f80-a5e4-b77a178ff235","ios":"levelo://app?vid=6f146e75-4fab-4f80-a5e4-b77a178ff235"},"vehicle_type_id":"4","last_reported":1686351983,"current_range_meters":14400,"station_id":"ce4bho92rcd13ifvqh3g","pricing_plan_id":"free"},{"bike_id":"f986a1e1-1846-4ece-8152-81c518b3948b","system_id":"levelo_inurba_marseille","lat":43.287154,"lon":5.399979,"is_reserved":false,"is_disabled":false,"rental_uris":{"android":"levelo://app?vid=f986a1e1-1846-4ece-8152-81c518b3948b","ios":"levelo://app?vid=f986a1e1-1846-4ece-8152-81c518b3948b"},"vehicle_type_id":"4","last_reported":1686351983,"current_range_meters":26800,"station_id":"ce4bho92rcd13ifvqh3g","pricing_plan_id":"free"},{"bike_id":"dd7cb782-f53f-449e-9bc7-ad5b9fc56cdf","system_id":"levelo_inurba_marseille","lat":43.28695,"lon":5.39976,"is_reserved":false,"is_disabled":false,"rental_uris":{"android":"levelo://app?vid=dd7cb782-f53f-449e-9bc7-ad5b9fc56cdf","ios":"levelo://app?vid=dd7cb782-f53f-449e-9bc7-ad5b9fc56cdf"},"vehicle_type_id":"4","last_reported":1686351983,"current_range_meters":25600,"station_id":"","pricing_plan_id":"free"},{"bike_id":"fe30d14f-a38a-47cf-96cf-5fe5b9f07581","system_id":"levelo_inurba_marseille","lat":43.287154,"lon":5.399979,"is_reserved":false,"is_disabled":false,"rental_uris":{"android":"levelo://app?vid=fe30d14f-a38a-47cf-96cf-5fe5b9f07581","ios":"levelo://app?vid=fe30d14f-a38a-47cf-96cf-5fe5b9f07581"},"vehicle_type_id":"4","last_reported":1686351983,"current_range_meters":17600,"station_id":"ce4bho92rcd13ifvqh3g","pricing_plan_id":"free"},{"bike_id":"a1832732-8de1-4e2e-b0e6-7b0a9d092401","system_id":"levelo_inurba_marseille","lat":43.28693,"lon":5.39976,"is_reserved":false,"is_disabled":false,"rental_uris":{"android":"levelo://app?vid=a1832732-8de1-4e2e-b0e6-7b0a9d092401","ios":"levelo://app?vid=a1832732-8de1-4e2e-b0e6-7b0a9d092401"},"vehicle_type_id":"4","last_reported":1686351983,"current_range_meters":5200,"station_id":"","pricing_plan_id":"free"},{"bike_id":"ab5a92a5-3df5-45fc-9801-09cb2d33395b","system_id":"levelo_inurba_marseille","lat":43.287154,"lon":5.399979,"is_reserved":false,"is_disabled":false,"rental_uris":{"android":"levelo://app?vid=ab5a92a5-3df5-45fc-9801-09cb2d33395b","ios":"levelo://app?vid=ab5a92a5-3df5-45fc-9801-09cb2d33395b"},"vehicle_type_id":"4","last_reported":1686351983,"current_range_meters":31600,"station_id":"ce4bho92rcd13ifvqh3g","pricing_plan_id":"free"},{"bike_id":"960d9150-3e0c-491f-ac0f-6c6c86bea00f","system_id":"levelo_inurba_marseille","lat":43.28399,"lon":5.39502,"is_reserved":false,"is_disabled":false,"rental_uris":{"android":"levelo://app?vid=960d9150-3e0c-491f-ac0f-6c6c86bea00f","ios":"levelo://app?vid=960d9150-3e0c-491f-ac0f-6c6c86bea00f"},"vehicle_type_id":"4","last_reported":1686351983,"current_range_meters":10800,"station_id":"","pricing_plan_id":"free"},{"bike_id":"1578564e-fa70-4d80-b6c4-422fc52e93b7","system_id":"levelo_inurba_marseille","lat":43.279742,"lon":5.38744,"is_reserved":false,"is_disabled":false,"rental_uris":{"android":"levelo://app?vid=1578564e-fa70-4d80-b6c4-422fc52e93b7","ios":"levelo://app?vid=1578564e-fa70-4d80-b6c4-422fc52e93b7"},"vehicle_type_id":"4","last_reported":1686351983,"current_range_meters":31200,"station_id":"ce4bhg12rcd13ifvqf80","pricing_plan_id":"free"},{"bike_id":"cf05ee79-ac6a-4590-ad1c-e78df1eec684","system_id":"levelo_inurba_marseille","lat":43.299577,"lon":5.413277,"is_reserved":false,"is_disabled":false,"rental_uris":{"android":"levelo://app?vid=cf05ee79-ac6a-4590-ad1c-e78df1eec684","ios":"levelo://app?vid=cf05ee79-ac6a-4590-ad1c-e78df1eec684"},"vehicle_type_id":"4","last_reported":1686351983,"current_range_meters":18000,"station_id":"ce4bhp12rcd13ifvqh9g","pricing_plan_id":"free"},{"bike_id":"5f71deda-078b-47f5-8dfd-831033718c8c","system_id":"levelo_inurba_marseille","lat":43.279701,"lon":5.387246,"is_reserved":false,"is_disabled":false,"rental_uris":{"android":"levelo://app?vid=5f71deda-078b-47f5-8dfd-831033718c8c","ios":"levelo://app?vid=5f71deda-078b-47f5-8dfd-831033718c8c"},"vehicle_type_id":"4","last_reported":1686351983,"current_range_meters":31200,"station_id":"ce4bhg12rcd13ifvqf80","pricing_plan_id":"free"},{"bike_id":"4dcd51ef-f9a4-4de4-bfa5-93f45168f457","system_id":"levelo_inurba_marseille","lat":43.279742,"lon":5.38744,"is_reserved":false,"is_disabled":false,"rental_uris":{"android":"levelo://app?vid=4dcd51ef-f9a4-4de4-bfa5-93f45168f457","ios":"levelo://app?vid=4dcd51ef-f9a4-4de4-bfa5-93f45168f457"},"vehicle_type_id":"4","last_reported":1686351983,"current_range_meters":16400,"station_id":"ce4bhg12rcd13ifvqf80","pricing_plan_id":"free"},{"bike_id":"2cee19cd-c831-416e-9694-9ba4acd9e56c","system_id":"levelo_inurba_marseille","lat":43.279742,"lon":5.38744,"is_reserved":false,"is_disabled":false,"rental_uris":{"android":"levelo://app?vid=2cee19cd-c831-416e-9694-9ba4acd9e56c","ios":"levelo://app?vid=2cee19cd-c831-416e-9694-9ba4acd9e56c"},"vehicle_type_id":"4","last_reported":1686351983,"current_range_meters":16400,"station_id":"ce4bhg12rcd13ifvqf80","pricing_plan_id":"free"},{"bike_id":"17c2c7d8-104d-4394-8aa5-839e53a6db2b","system_id":"levelo_inurba_marseille","lat":43.292569,"lon":5.409107,"is_reserved":false,"is_disabled":false,"rental_uris":{"android":"levelo://app?vid=17c2c7d8-104d-4394-8aa5-839e53a6db2b","ios":"levelo://app?vid=17c2c7d8-104d-4394-8aa5-839e53a6db2b"},"vehicle_type_id":"4","last_reported":1686351983,"current_range_meters":22400,"station_id":"ce4bh192rcd13ifvqdc0","pricing_plan_id":"free"},{"bike_id":"d730dc17-00ea-4b76-82e8-4ab8f2f7d07e","system_id":"levelo_inurba_marseille","lat":43.292569,"lon":5.409107,"is_reserved":false,"is_disabled":false,"rental_uris":{"android":"levelo://app?vid=d730dc17-00ea-4b76-82e8-4ab8f2f7d07e","ios":"levelo://app?vid=d730dc17-00ea-4b76-82e8-4ab8f2f7d07e"},"vehicle_type_id":"4","last_reported":1686351983,"current_range_meters":21200,"station_id":"ce4bh192rcd13ifvqdc0","pricing_plan_id":"free"},{"bike_id":"16cf050a-e673-4b5f-a78e-8ab7b344f2a1","system_id":"levelo_inurba_marseille","lat":43.292569,"lon":5.409107,"is_reserved":false,"is_disabled":false,"rental_uris":{"android":"levelo://app?vid=16cf050a-e673-4b5f-a78e-8ab7b344f2a1","ios":"levelo://app?vid=16cf050a-e673-4b5f-a78e-8ab7b344f2a1"},"vehicle_type_id":"4","last_reported":1686351983,"current_range_meters":31200,"station_id":"ce4bh192rcd13ifvqdc0","pricing_plan_id":"free"},{"bike_id":"eef5e013-21c6-4d4a-84a1-509db0805316","system_id":"levelo_inurba_marseille","lat":43.292569,"lon":5.409107,"is_reserved":false,"is_disabled":false,"rental_uris":{"android":"levelo://app?vid=eef5e013-21c6-4d4a-84a1-509db0805316","ios":"levelo://app?vid=eef5e013-21c6-4d4a-84a1-509db0805316"},"vehicle_type_id":"4","last_reported":1686351983,"current_range_meters":1600,"station_id":"ce4bh192rcd13ifvqdc0","pricing_plan_id":"free"},{"bike_id":"f5260b3c-b1b1-43f9-9822-730ee7ce4c11","system_id":"levelo_inurba_marseille","lat":43.292569,"lon":5.409107,"is_reserved":false,"is_disabled":false,"rental_uris":{"android":"levelo://app?vid=f5260b3c-b1b1-43f9-9822-730ee7ce4c11","ios":"levelo://app?vid=f5260b3c-b1b1-43f9-9822-730ee7ce4c11"},"vehicle_type_id":"4","last_reported":1686351983,"current_range_meters":18800,"station_id":"ce4bh192rcd13ifvqdc0","pricing_plan_id":"free"},{"bike_id":"47590da4-775d-4ed4-8649-6f8df3e43a67","system_id":"levelo_inurba_marseille","lat":43.292569,"lon":5.409107,"is_reserved":false,"is_disabled":false,"rental_uris":{"android":"levelo://app?vid=47590da4-775d-4ed4-8649-6f8df3e43a67","ios":"levelo://app?vid=47590da4-775d-4ed4-8649-6f8df3e43a67"},"vehicle_type_id":"4","last_reported":1686351983,"current_range_meters":31200,"station_id":"ce4bh192rcd13ifvqdc0","pricing_plan_id":"free"},{"bike_id":"f247d3a3-45ba-4be5-86c2-7747e58d97f9","system_id":"levelo_inurba_marseille","lat":43.292569,"lon":5.409107,"is_reserved":false,"is_disabled":false,"rental_uris":{"android":"levelo://app?vid=f247d3a3-45ba-4be5-86c2-7747e58d97f9","ios":"levelo://app?vid=f247d3a3-45ba-4be5-86c2-7747e58d97f9"},"vehicle_type_id":"4","last_reported":1686351983,"current_range_meters":31200,"station_id":"ce4bh192rcd13ifvqdc0","pricing_plan_id":"free"},{"bike_id":"068b1619-53ce-46b0-9eae-79f1c632d153","system_id":"levelo_inurba_marseille","lat":43.292569,"lon":5.409107,"is_reserved":false,"is_disabled":false,"rental_uris":{"android":"levelo://app?vid=068b1619-53ce-46b0-9eae-79f1c632d153","ios":"levelo://app?vid=068b1619-53ce-46b0-9eae-79f1c632d153"},"vehicle_type_id":"4","last_reported":1686351983,"current_range_meters":31200,"station_id":"ce4bh192rcd13ifvqdc0","pricing_plan_id":"free"},{"bike_id":"7cf4fa4b-cd28-4ccc-a43d-cf876716833d","system_id":"levelo_inurba_marseille","lat":43.280784,"lon":5.396622,"is_reserved":false,"is_disabled":false,"rental_uris":{"android":"levelo://app?vid=7cf4fa4b-cd28-4ccc-a43d-cf876716833d","ios":"levelo://app?vid=7cf4fa4b-cd28-4ccc-a43d-cf876716833d"},"vehicle_type_id":"4","last_reported":1686351983,"current_range_meters":16800,"station_id":"ce4bho12rcd13ifvqh2g","pricing_plan_id":"free"},{"bike_id":"5bdf8400-acc3-47df-b9f4-bb97f6438c84","system_id":"levelo_inurba_marseille","lat":43.280784,"lon":5.396622,"is_reserved":false,"is_disabled":false,"rental_uris":{"android":"levelo://app?vid=5bdf8400-acc3-47df-b9f4-bb97f6438c84","ios":"levelo://app?vid=5bdf8400-acc3-47df-b9f4-bb97f6438c84"},"vehicle_type_id":"4","last_reported":1686351983,"current_range_meters":17600,"station_id":"ce4bho12rcd13ifvqh2g","pricing_plan_id":"free"},{"bike_id":"27747d3a-368b-4392-aac4-f851efe3ff23","system_id":"levelo_inurba_marseille","lat":43.280784,"lon":5.396622,"is_reserved":false,"is_disabled":false,"rental_uris":{"android":"levelo://app?vid=27747d3a-368b-4392-aac4-f851efe3ff23","ios":"levelo://app?vid=27747d3a-368b-4392-aac4-f851efe3ff23"},"vehicle_type_id":"4","last_reported":1686351983,"current_range_meters":12800,"station_id":"ce4bho12rcd13ifvqh2g","pricing_plan_id":"free"},{"bike_id":"e178d01a-c42b-4581-9edf-4c4485081196","system_id":"levelo_inurba_marseille","lat":43.280784,"lon":5.396622,"is_reserved":false,"is_disabled":false,"rental_uris":{"android":"levelo://app?vid=e178d01a-c42b-4581-9edf-4c4485081196","ios":"levelo://app?vid=e178d01a-c42b-4581-9edf-4c4485081196"},"vehicle_type_id":"4","last_reported":1686351983,"current_range_meters":8000,"station_id":"ce4bho12rcd13ifvqh2g","pricing_plan_id":"free"},{"bike_id":"3f2dedde-0cd6-45c9-8636-d2ab42b4c0ea","system_id":"levelo_inurba_marseille","lat":43.280784,"lon":5.396622,"is_reserved":false,"is_disabled":false,"rental_uris":{"android":"levelo://app?vid=3f2dedde-0cd6-45c9-8636-d2ab42b4c0ea","ios":"levelo://app?vid=3f2dedde-0cd6-45c9-8636-d2ab42b4c0ea"},"vehicle_type_id":"4","last_reported":1686351983,"current_range_meters":0,"station_id":"ce4bho12rcd13ifvqh2g","pricing_plan_id":"free"},{"bike_id":"5edf3261-6bb0-4312-9d7a-0e55b60fe752","system_id":"levelo_inurba_marseille","lat":43.280784,"lon":5.396622,"is_reserved":false,"is_disabled":false,"rental_uris":{"android":"levelo://app?vid=5edf3261-6bb0-4312-9d7a-0e55b60fe752","ios":"levelo://app?vid=5edf3261-6bb0-4312-9d7a-0e55b60fe752"},"vehicle_type_id":"4","last_reported":1686351983,"current_range_meters":27200,"station_id":"ce4bho12rcd13ifvqh2g","pricing_plan_id":"free"},{"bike_id":"c6cc0f7f-7adc-40a8-bd8e-6146e6539458","system_id":"levelo_inurba_marseille","lat":43.280784,"lon":5.396622,"is_reserved":false,"is_disabled":false,"rental_uris":{"android":"levelo://app?vid=c6cc0f7f-7adc-40a8-bd8e-6146e6539458","ios":"levelo://app?vid=c6cc0f7f-7adc-40a8-bd8e-6146e6539458"},"vehicle_type_id":"4","last_reported":1686351983,"current_range_meters":9600,"station_id":"ce4bho12rcd13ifvqh2g","pricing_plan_id":"free"},{"bike_id":"2765d7ce-8954-4c1f-9cba-58f2174ba613","system_id":"levelo_inurba_marseille","lat":43.3035,"lon":5.418706,"is_reserved":false,"is_disabled":false,"rental_uris":{"android":"levelo://app?vid=2765d7ce-8954-4c1f-9cba-58f2174ba613","ios":"levelo://app?vid=2765d7ce-8954-4c1f-9cba-58f2174ba613"},"vehicle_type_id":"4","last_reported":1686351983,"current_range_meters":27200,"station_id":"","pricing_plan_id":"free"},{"bike_id":"128c1765-4831-4fa6-883c-7f9a4d569d6b","system_id":"levelo_inurba_marseille","lat":43.303837,"lon":5.418724,"is_reserved":false,"is_disabled":false,"rental_uris":{"android":"levelo://app?vid=128c1765-4831-4fa6-883c-7f9a4d569d6b","ios":"levelo://app?vid=128c1765-4831-4fa6-883c-7f9a4d569d6b"},"vehicle_type_id":"4","last_reported":1686351983,"current_range_meters":20800,"station_id":"ce4bhop2rcd13ifvqh7g","pricing_plan_id":"free"},{"bike_id":"54a37995-c788-4978-bebf-da5f7574ba74","system_id":"levelo_inurba_marseille","lat":43.336134,"lon":5.410341,"is_reserved":false,"is_disabled":false,"rental_uris":{"android":"levelo://app?vid=54a37995-c788-4978-bebf-da5f7574ba74","ios":"levelo://app?vid=54a37995-c788-4978-bebf-da5f7574ba74"},"vehicle_type_id":"4","last_reported":1686351983,"current_range_meters":11600,"station_id":"ce4bhqh2rcd13ifvqhmg","pricing_plan_id":"free"},{"bike_id":"442b8574-2ecc-4709-8376-1543ccd90953","system_id":"levelo_inurba_marseille","lat":43.273793,"lon":5.362591,"is_reserved":false,"is_disabled":false,"rental_uris":{"android":"levelo://app?vid=442b8574-2ecc-4709-8376-1543ccd90953","ios":"levelo://app?vid=442b8574-2ecc-4709-8376-1543ccd90953"},"vehicle_type_id":"4","last_reported":1686351983,"current_range_meters":20400,"station_id":"","pricing_plan_id":"free"},{"bike_id":"30f31142-3cd6-444a-b5b4-ec6fdb1d4681","system_id":"levelo_inurba_marseille","lat":43.33612,"lon":5.410321,"is_reserved":false,"is_disabled":false,"rental_uris":{"android":"levelo://app?vid=30f31142-3cd6-444a-b5b4-ec6fdb1d4681","ios":"levelo://app?vid=30f31142-3cd6-444a-b5b4-ec6fdb1d4681"},"vehicle_type_id":"4","last_reported":1686351983,"current_range_meters":30400,"station_id":"ce4bhqh2rcd13ifvqhmg","pricing_plan_id":"free"},{"bike_id":"7a11c783-0585-455e-afcf-4fa7fec052f3","system_id":"levelo_inurba_marseille","lat":43.33612,"lon":5.410321,"is_reserved":false,"is_disabled":false,"rental_uris":{"android":"levelo://app?vid=7a11c783-0585-455e-afcf-4fa7fec052f3","ios":"levelo://app?vid=7a11c783-0585-455e-afcf-4fa7fec052f3"},"vehicle_type_id":"4","last_reported":1686351983,"current_range_meters":22000,"station_id":"ce4bhqh2rcd13ifvqhmg","pricing_plan_id":"free"},{"bike_id":"69fcf8dc-04cc-4e21-b2ab-78cbce477a92","system_id":"levelo_inurba_marseille","lat":43.336134,"lon":5.410341,"is_reserved":false,"is_disabled":false,"rental_uris":{"android":"levelo://app?vid=69fcf8dc-04cc-4e21-b2ab-78cbce477a92","ios":"levelo://app?vid=69fcf8dc-04cc-4e21-b2ab-78cbce477a92"},"vehicle_type_id":"4","last_reported":1686351983,"current_range_meters":26800,"station_id":"ce4bhqh2rcd13ifvqhmg","pricing_plan_id":"free"},{"bike_id":"421959a7-f8d8-493b-aa82-056732b33748","system_id":"levelo_inurba_marseille","lat":43.336134,"lon":5.410341,"is_reserved":false,"is_disabled":false,"rental_uris":{"android":"levelo://app?vid=421959a7-f8d8-493b-aa82-056732b33748","ios":"levelo://app?vid=421959a7-f8d8-493b-aa82-056732b33748"},"vehicle_type_id":"4","last_reported":1686351983,"current_range_meters":19200,"station_id":"ce4bhqh2rcd13ifvqhmg","pricing_plan_id":"free"},{"bike_id":"18a69ad2-4aea-400a-9d54-278101644d4b","system_id":"levelo_inurba_marseille","lat":43.336134,"lon":5.410341,"is_reserved":false,"is_disabled":false,"rental_uris":{"android":"levelo://app?vid=18a69ad2-4aea-400a-9d54-278101644d4b","ios":"levelo://app?vid=18a69ad2-4aea-400a-9d54-278101644d4b"},"vehicle_type_id":"4","last_reported":1686351983,"current_range_meters":16400,"station_id":"ce4bhqh2rcd13ifvqhmg","pricing_plan_id":"free"},{"bike_id":"1126057b-9180-4446-a24d-87b67e695e34","system_id":"levelo_inurba_marseille","lat":43.27538,"lon":5.38927,"is_reserved":false,"is_disabled":false,"rental_uris":{"android":"levelo://app?vid=1126057b-9180-4446-a24d-87b67e695e34","ios":"levelo://app?vid=1126057b-9180-4446-a24d-87b67e695e34"},"vehicle_type_id":"4","last_reported":1686351983,"current_range_meters":6400,"station_id":"","pricing_plan_id":"free"},{"bike_id":"39606827-11ad-47dc-8236-73587abc5dca","system_id":"levelo_inurba_marseille","lat":43.317121,"lon":5.423936,"is_reserved":false,"is_disabled":false,"rental_uris":{"android":"levelo://app?vid=39606827-11ad-47dc-8236-73587abc5dca","ios":"levelo://app?vid=39606827-11ad-47dc-8236-73587abc5dca"},"vehicle_type_id":"4","last_reported":1686351983,"current_range_meters":30800,"station_id":"ce4bhp92rcd13ifvqhbg","pricing_plan_id":"free"},{"bike_id":"227a855b-a09a-4601-92b4-17d56339322a","system_id":"levelo_inurba_marseille","lat":43.317121,"lon":5.423936,"is_reserved":false,"is_disabled":false,"rental_uris":{"android":"levelo://app?vid=227a855b-a09a-4601-92b4-17d56339322a","ios":"levelo://app?vid=227a855b-a09a-4601-92b4-17d56339322a"},"vehicle_type_id":"4","last_reported":1686351983,"current_range_meters":31200,"station_id":"ce4bhp92rcd13ifvqhbg","pricing_plan_id":"free"},{"bike_id":"d44a9554-03f5-4cdc-8b6f-018f4ca5ed74","system_id":"levelo_inurba_marseille","lat":43.317121,"lon":5.423936,"is_reserved":false,"is_disabled":false,"rental_uris":{"android":"levelo://app?vid=d44a9554-03f5-4cdc-8b6f-018f4ca5ed74","ios":"levelo://app?vid=d44a9554-03f5-4cdc-8b6f-018f4ca5ed74"},"vehicle_type_id":"4","last_reported":1686351983,"current_range_meters":6400,"station_id":"ce4bhp92rcd13ifvqhbg","pricing_plan_id":"free"},{"bike_id":"b0fc9de0-774f-4ef2-99ce-dfadf150c9ae","system_id":"levelo_inurba_marseille","lat":43.317121,"lon":5.423936,"is_reserved":false,"is_disabled":false,"rental_uris":{"android":"levelo://app?vid=b0fc9de0-774f-4ef2-99ce-dfadf150c9ae","ios":"levelo://app?vid=b0fc9de0-774f-4ef2-99ce-dfadf150c9ae"},"vehicle_type_id":"4","last_reported":1686351983,"current_range_meters":11200,"station_id":"ce4bhp92rcd13ifvqhbg","pricing_plan_id":"free"},{"bike_id":"a5d8dcfc-9200-4ce2-90fc-5dce93a3a58e","system_id":"levelo_inurba_marseille","lat":43.273129,"lon":5.390725,"is_reserved":false,"is_disabled":false,"rental_uris":{"android":"levelo://app?vid=a5d8dcfc-9200-4ce2-90fc-5dce93a3a58e","ios":"levelo://app?vid=a5d8dcfc-9200-4ce2-90fc-5dce93a3a58e"},"vehicle_type_id":"4","last_reported":1686351983,"current_range_meters":1200,"station_id":"ce4bhgp2rcd13ifvqfe0","pricing_plan_id":"free"},{"bike_id":"f96cca47-d10c-4298-baa2-7962625164f6","system_id":"levelo_inurba_marseille","lat":43.295523,"lon":5.422926,"is_reserved":false,"is_disabled":false,"rental_uris":{"android":"levelo://app?vid=f96cca47-d10c-4298-baa2-7962625164f6","ios":"levelo://app?vid=f96cca47-d10c-4298-baa2-7962625164f6"},"vehicle_type_id":"4","last_reported":1686351983,"current_range_meters":24000,"station_id":"ce4bhph2rcd13ifvqhdg","pricing_plan_id":"free"},{"bike_id":"eee76058-de34-4cc1-90de-8eea701e5b87","system_id":"levelo_inurba_marseille","lat":43.295523,"lon":5.422926,"is_reserved":false,"is_disabled":false,"rental_uris":{"android":"levelo://app?vid=eee76058-de34-4cc1-90de-8eea701e5b87","ios":"levelo://app?vid=eee76058-de34-4cc1-90de-8eea701e5b87"},"vehicle_type_id":"4","last_reported":1686351983,"current_range_meters":0,"station_id":"ce4bhph2rcd13ifvqhdg","pricing_plan_id":"free"},{"bike_id":"8d8ca7a1-63d0-471c-8b12-2b91e7218df5","system_id":"levelo_inurba_marseille","lat":43.295523,"lon":5.422926,"is_reserved":false,"is_disabled":false,"rental_uris":{"android":"levelo://app?vid=8d8ca7a1-63d0-471c-8b12-2b91e7218df5","ios":"levelo://app?vid=8d8ca7a1-63d0-471c-8b12-2b91e7218df5"},"vehicle_type_id":"4","last_reported":1686351983,"current_range_meters":10400,"station_id":"ce4bhph2rcd13ifvqhdg","pricing_plan_id":"free"},{"bike_id":"2d5026e8-0002-4fc8-81ca-f9061cae6608","system_id":"levelo_inurba_marseille","lat":43.295523,"lon":5.422926,"is_reserved":false,"is_disabled":false,"rental_uris":{"android":"levelo://app?vid=2d5026e8-0002-4fc8-81ca-f9061cae6608","ios":"levelo://app?vid=2d5026e8-0002-4fc8-81ca-f9061cae6608"},"vehicle_type_id":"4","last_reported":1686351983,"current_range_meters":12000,"station_id":"ce4bhph2rcd13ifvqhdg","pricing_plan_id":"free"},{"bike_id":"bd8ab116-0f02-4300-bb17-d92d315b2c15","system_id":"levelo_inurba_marseille","lat":43.279052,"lon":5.40762,"is_reserved":false,"is_disabled":false,"rental_uris":{"android":"levelo://app?vid=bd8ab116-0f02-4300-bb17-d92d315b2c15","ios":"levelo://app?vid=bd8ab116-0f02-4300-bb17-d92d315b2c15"},"vehicle_type_id":"4","last_reported":1686351983,"current_range_meters":3200,"station_id":"ce4bh112rcd13ifvqda0","pricing_plan_id":"free"},{"bike_id":"0b96e874-94d9-43e9-ad3c-ff3bf5069126","system_id":"levelo_inurba_marseille","lat":43.278128,"lon":5.407195,"is_reserved":false,"is_disabled":false,"rental_uris":{"android":"levelo://app?vid=0b96e874-94d9-43e9-ad3c-ff3bf5069126","ios":"levelo://app?vid=0b96e874-94d9-43e9-ad3c-ff3bf5069126"},"vehicle_type_id":"4","last_reported":1686351983,"current_range_meters":16400,"station_id":"ce4bhnh2rcd13ifvqgtg","pricing_plan_id":"free"},{"bike_id":"0c92b2c3-f86e-4089-b622-824efeef7a33","system_id":"levelo_inurba_marseille","lat":43.278128,"lon":5.407195,"is_reserved":false,"is_disabled":false,"rental_uris":{"android":"levelo://app?vid=0c92b2c3-f86e-4089-b622-824efeef7a33","ios":"levelo://app?vid=0c92b2c3-f86e-4089-b622-824efeef7a33"},"vehicle_type_id":"4","last_reported":1686351983,"current_range_meters":13600,"station_id":"ce4bhnh2rcd13ifvqgtg","pricing_plan_id":"free"},{"bike_id":"9b055b7d-a584-440f-97e4-6bc90eb77b62","system_id":"levelo_inurba_marseille","lat":43.278128,"lon":5.407195,"is_reserved":false,"is_disabled":false,"rental_uris":{"android":"levelo://app?vid=9b055b7d-a584-440f-97e4-6bc90eb77b62","ios":"levelo://app?vid=9b055b7d-a584-440f-97e4-6bc90eb77b62"},"vehicle_type_id":"4","last_reported":1686351983,"current_range_meters":15200,"station_id":"ce4bhnh2rcd13ifvqgtg","pricing_plan_id":"free"},{"bike_id":"51aab9d1-cf9a-4e0c-87cb-f6000c0a1213","system_id":"levelo_inurba_marseille","lat":43.27996,"lon":5.416624,"is_reserved":false,"is_disabled":false,"rental_uris":{"android":"levelo://app?vid=51aab9d1-cf9a-4e0c-87cb-f6000c0a1213","ios":"levelo://app?vid=51aab9d1-cf9a-4e0c-87cb-f6000c0a1213"},"vehicle_type_id":"4","last_reported":1686351983,"current_range_meters":26000,"station_id":"ce4bho12rcd13ifvqh1g","pricing_plan_id":"free"},{"bike_id":"fdd34878-b520-4e90-b2a6-4918c150b517","system_id":"levelo_inurba_marseille","lat":43.27996,"lon":5.416624,"is_reserved":false,"is_disabled":false,"rental_uris":{"android":"levelo://app?vid=fdd34878-b520-4e90-b2a6-4918c150b517","ios":"levelo://app?vid=fdd34878-b520-4e90-b2a6-4918c150b517"},"vehicle_type_id":"4","last_reported":1686351983,"current_range_meters":22400,"station_id":"ce4bho12rcd13ifvqh1g","pricing_plan_id":"free"},{"bike_id":"7610f4ae-57c4-4e26-b806-6304032b810c","system_id":"levelo_inurba_marseille","lat":43.27996,"lon":5.416624,"is_reserved":false,"is_disabled":false,"rental_uris":{"android":"levelo://app?vid=7610f4ae-57c4-4e26-b806-6304032b810c","ios":"levelo://app?vid=7610f4ae-57c4-4e26-b806-6304032b810c"},"vehicle_type_id":"4","last_reported":1686351983,"current_range_meters":3200,"station_id":"ce4bho12rcd13ifvqh1g","pricing_plan_id":"free"},{"bike_id":"d596efa0-2240-413c-a227-3b9772b456cb","system_id":"levelo_inurba_marseille","lat":43.27996,"lon":5.416624,"is_reserved":false,"is_disabled":false,"rental_uris":{"android":"levelo://app?vid=d596efa0-2240-413c-a227-3b9772b456cb","ios":"levelo://app?vid=d596efa0-2240-413c-a227-3b9772b456cb"},"vehicle_type_id":"4","last_reported":1686351983,"current_range_meters":27200,"station_id":"ce4bho12rcd13ifvqh1g","pricing_plan_id":"free"},{"bike_id":"1cdd5798-c7bd-4e0f-b441-a529d31d82ae","system_id":"levelo_inurba_marseille","lat":43.27996,"lon":5.416624,"is_reserved":false,"is_disabled":false,"rental_uris":{"android":"levelo://app?vid=1cdd5798-c7bd-4e0f-b441-a529d31d82ae","ios":"levelo://app?vid=1cdd5798-c7bd-4e0f-b441-a529d31d82ae"},"vehicle_type_id":"4","last_reported":1686351983,"current_range_meters":3600,"station_id":"ce4bho12rcd13ifvqh1g","pricing_plan_id":"free"},{"bike_id":"2642eb03-6ba9-4c48-b771-738c076a2ae1","system_id":"levelo_inurba_marseille","lat":43.267966,"lon":5.393976,"is_reserved":false,"is_disabled":false,"rental_uris":{"android":"levelo://app?vid=2642eb03-6ba9-4c48-b771-738c076a2ae1","ios":"levelo://app?vid=2642eb03-6ba9-4c48-b771-738c076a2ae1"},"vehicle_type_id":"4","last_reported":1686351983,"current_range_meters":16800,"station_id":"ce4bhh12rcd13ifvqfg0","pricing_plan_id":"free"},{"bike_id":"6853ea80-78f9-4825-8105-002e10c67b8f","system_id":"levelo_inurba_marseille","lat":43.33227,"lon":5.42959,"is_reserved":false,"is_disabled":false,"rental_uris":{"android":"levelo://app?vid=6853ea80-78f9-4825-8105-002e10c67b8f","ios":"levelo://app?vid=6853ea80-78f9-4825-8105-002e10c67b8f"},"vehicle_type_id":"4","last_reported":1686351983,"current_range_meters":21600,"station_id":"","pricing_plan_id":"free"},{"bike_id":"1b3e510e-cd9f-41f5-b105-149b42e6018e","system_id":"levelo_inurba_marseille","lat":43.30804,"lon":5.4352,"is_reserved":false,"is_disabled":false,"rental_uris":{"android":"levelo://app?vid=1b3e510e-cd9f-41f5-b105-149b42e6018e","ios":"levelo://app?vid=1b3e510e-cd9f-41f5-b105-149b42e6018e"},"vehicle_type_id":"4","last_reported":1686351983,"current_range_meters":0,"station_id":"","pricing_plan_id":"free"},{"bike_id":"b0f82b0d-4254-4710-af92-1b2e9f397767","system_id":"levelo_inurba_marseille","lat":43.26234,"lon":5.37046,"is_reserved":false,"is_disabled":false,"rental_uris":{"android":"levelo://app?vid=b0f82b0d-4254-4710-af92-1b2e9f397767","ios":"levelo://app?vid=b0f82b0d-4254-4710-af92-1b2e9f397767"},"vehicle_type_id":"4","last_reported":1686351983,"current_range_meters":18800,"station_id":"","pricing_plan_id":"free"},{"bike_id":"a23ec4f2-f099-4cc7-be7a-1c4a3885875b","system_id":"levelo_inurba_marseille","lat":43.261782,"lon":5.374515,"is_reserved":false,"is_disabled":false,"rental_uris":{"android":"levelo://app?vid=a23ec4f2-f099-4cc7-be7a-1c4a3885875b","ios":"levelo://app?vid=a23ec4f2-f099-4cc7-be7a-1c4a3885875b"},"vehicle_type_id":"4","last_reported":1686351983,"current_range_meters":3600,"station_id":"ce4bhgp2rcd13ifvqfc0","pricing_plan_id":"free"},{"bike_id":"8bae052b-3edc-4345-85b1-d116189b7c89","system_id":"levelo_inurba_marseille","lat":43.33319,"lon":5.43147,"is_reserved":false,"is_disabled":false,"rental_uris":{"android":"levelo://app?vid=8bae052b-3edc-4345-85b1-d116189b7c89","ios":"levelo://app?vid=8bae052b-3edc-4345-85b1-d116189b7c89"},"vehicle_type_id":"4","last_reported":1686351983,"current_range_meters":16000,"station_id":"","pricing_plan_id":"free"},{"bike_id":"a4ba3521-c1f6-4db5-9d06-53ff40682113","system_id":"levelo_inurba_marseille","lat":43.27255,"lon":5.41056,"is_reserved":false,"is_disabled":false,"rental_uris":{"android":"levelo://app?vid=a4ba3521-c1f6-4db5-9d06-53ff40682113","ios":"levelo://app?vid=a4ba3521-c1f6-4db5-9d06-53ff40682113"},"vehicle_type_id":"4","last_reported":1686351983,"current_range_meters":30000,"station_id":"","pricing_plan_id":"free"},{"bike_id":"72ea4325-51fa-4fc9-8a9a-5fd030af9342","system_id":"levelo_inurba_marseille","lat":43.317104,"lon":5.436818,"is_reserved":false,"is_disabled":false,"rental_uris":{"android":"levelo://app?vid=72ea4325-51fa-4fc9-8a9a-5fd030af9342","ios":"levelo://app?vid=72ea4325-51fa-4fc9-8a9a-5fd030af9342"},"vehicle_type_id":"4","last_reported":1686351983,"current_range_meters":19200,"station_id":"ce4bhp92rcd13ifvqhcg","pricing_plan_id":"free"},{"bike_id":"59772517-c9a3-455e-a709-278b4fb4589a","system_id":"levelo_inurba_marseille","lat":43.317104,"lon":5.436818,"is_reserved":false,"is_disabled":false,"rental_uris":{"android":"levelo://app?vid=59772517-c9a3-455e-a709-278b4fb4589a","ios":"levelo://app?vid=59772517-c9a3-455e-a709-278b4fb4589a"},"vehicle_type_id":"4","last_reported":1686351983,"current_range_meters":8000,"station_id":"ce4bhp92rcd13ifvqhcg","pricing_plan_id":"free"},{"bike_id":"2c9dcd33-6ced-4cfa-b37a-4f7dffac9d30","system_id":"levelo_inurba_marseille","lat":43.317104,"lon":5.436818,"is_reserved":false,"is_disabled":false,"rental_uris":{"android":"levelo://app?vid=2c9dcd33-6ced-4cfa-b37a-4f7dffac9d30","ios":"levelo://app?vid=2c9dcd33-6ced-4cfa-b37a-4f7dffac9d30"},"vehicle_type_id":"4","last_reported":1686351983,"current_range_meters":31200,"station_id":"ce4bhp92rcd13ifvqhcg","pricing_plan_id":"free"},{"bike_id":"fef418e4-84b8-430a-9bea-d7887e669a99","system_id":"levelo_inurba_marseille","lat":43.26201,"lon":5.37921,"is_reserved":false,"is_disabled":false,"rental_uris":{"android":"levelo://app?vid=fef418e4-84b8-430a-9bea-d7887e669a99","ios":"levelo://app?vid=fef418e4-84b8-430a-9bea-d7887e669a99"},"vehicle_type_id":"4","last_reported":1686351983,"current_range_meters":25600,"station_id":"ce4bhjp2rcd13ifvqg90","pricing_plan_id":"free"},{"bike_id":"f8213659-adcf-42c8-bfdc-84a666e89539","system_id":"levelo_inurba_marseille","lat":43.271388,"lon":5.409269,"is_reserved":false,"is_disabled":false,"rental_uris":{"android":"levelo://app?vid=f8213659-adcf-42c8-bfdc-84a666e89539","ios":"levelo://app?vid=f8213659-adcf-42c8-bfdc-84a666e89539"},"vehicle_type_id":"4","last_reported":1686351983,"current_range_meters":29600,"station_id":"ce4bhl12rcd13ifvqgf0","pricing_plan_id":"free"},{"bike_id":"49793b15-e900-4226-985b-f1c4d984b428","system_id":"levelo_inurba_marseille","lat":43.267959,"lon":5.402687,"is_reserved":false,"is_disabled":false,"rental_uris":{"android":"levelo://app?vid=49793b15-e900-4226-985b-f1c4d984b428","ios":"levelo://app?vid=49793b15-e900-4226-985b-f1c4d984b428"},"vehicle_type_id":"4","last_reported":1686351983,"current_range_meters":28400,"station_id":"ce501612rcd8frsf0b60","pricing_plan_id":"free"},