{"last_updated":1749679839,"ttl":60,"version":"2.2","data":{"bikes":[{"bike_id":"b31f0139-170f-4194-984f-4386218a1e9d","system_id":"levelo_inurba_marseille","lat":43.33771,"lon":5.37424,"is_reserved":false,"is_disabled":true,"rental_uris":{"android":"levelo://app?vid=b31f0139-170f-4194-984f-4386218a1e9d","ios":"levelo://app?vid=b31f0139-170f-4194-984f-4386218a1e9d"},"vehicle_type_id":"4","last_reported":1749679839,"current_range_meters":0,"station_id":"","pricing_plan_id":"cebpf4jnsgd1na2vs0mg"},{"bike_id":"1acfb620-cad7-48c0-8901-d7a5b74a5b65","system_id":"levelo_inurba_marseille","lat":43.33751,"lon":5.37456,"is_reserved":false,"is_disabled":false,"rental_uris":{"android":"levelo://app?vid=1acfb620-cad7-48c0-8901-d7a5b74a5b65","ios":"levelo://app?vid=1acfb620-cad7-48c0-8901-d7a5b74a5b65"},"vehicle_type_id":"4","last_reported":1749679839,"current_range_meters":11200,"station_id":"","pricing_plan_id":"cebpf4jnsgd1na2vs0mg"},{"bike_id":"2add4495-ac90-463d-867d-acf170a6a28d","system_id":"levelo_inurba_marseille","lat":43.337499,"lon":5.374469,"is_reserved":false,"is_disabled":true,"rental_uris":{"android":"levelo://app?vid=2add4495-ac90-463d-867d-acf170a6a28d","ios":"levelo://app?vid=2add4495-ac90-463d-867d-acf170a6a28d"},"vehicle_type_id":"4","last_reported":1749679839,"current_range_meters":0,"station_id":"","pricing_plan_id":"cebpf4jnsgd1na2vs0mg"},{"bike_id":"bf89d78c-eb96-40d5-beb0-f402ef102cc1","system_id":"levelo_inurba_marseille","lat":43.337444,"lon":5.374475,"is_reserved":false,"is_disabled":true,"rental_uris":{"android":"levelo://app?vid=bf89d78c-eb96-40d5-beb0-f402ef102cc1","ios":"levelo://app?vid=bf89d78c-eb96-40d5-beb0-f402ef102cc1"},"vehicle_type_id":"4","last_reported":1749679839,"current_range_meters":0,"station_id":"","pricing_plan_id":"cebpf4jnsgd1na2vs0mg"},{"bike_id":"39d96496-529e-4438-ac0b-4445af6bf0f5","system_id":"levelo_inurba_marseille","lat":43.29599,"lon":5.36386,"is_reserved":false,"is_disabled":true,"rental_uris":{"android":"levelo://app?vid=39d96496-529e-4438-ac0b-4445af6bf0f5","ios":"levelo://app?vid=39d96496-529e-4438-ac0b-4445af6bf0f5"},"vehicle_type_id":"4","last_reported":1749679839,"current_range_meters":0,"station_id":"","pricing_plan_id":"cebpf4jnsgd1na2vs0mg"},{"bike_id":"78a3b051-1d76-41f7-a264-df07ffa40f1e","system_id":"levelo_inurba_marseille","lat":43.25327,"lon":5.39364,"is_reserved":false,"is_disabled":true,"rental_uris":{"android":"levelo://app?vid=78a3b051-1d76-41f7-a264-df07ffa40f1e","ios":"levelo://app?vid=78a3b051-1d76-41f7-a264-df07ffa40f1e"},"vehicle_type_id":"4","last_reported":1749679839,"current_range_meters":0,"station_id":"","pricing_plan_id":"cebpf4jnsgd1na2vs0mg"},{"bike_id":"9e55e93e-42c5-4c2c-9154-2d3c316cb5d9","system_id":"levelo_inurba_marseille","lat":43.31857,"lon":5.39426,"is_reserved":false,"is_disabled":true,"rental_uris":{"android":"levelo://app?vid=9e55e93e-42c5-4c2c-9154-2d3c316cb5d9","ios":"levelo://app?vid=9e55e93e-42c5-4c2c-9154-2d3c316cb5d9"},"vehicle_type_id":"4","last_reported":1749679839,"current_range_meters":0,"station_id":"","pricing_plan_id":"cebpf4jnsgd1na2vs0mg"},{"bike_id":"492f4bbd-1190-4ef2-b66a-479ffe91b09b","system_id":"levelo_inurba_marseille","lat":43.337444,"lon":5.374475,"is_reserved":false,"is_disabled":true,"rental_uris":{"android":"levelo://app?vid=492f4bbd-1190-4ef2-b66a-479ffe91b09b","ios":"levelo://app?vid=492f4bbd-1190-4ef2-b66a-479ffe91b09b"},"vehicle_type_id":"4","last_reported":1749679839,"current_range_meters":0,"station_id":"","pricing_plan_id":"cebpf4jnsgd1na2vs0mg"},{"bike_id":"18b10c9c-8544-4482-a321-4e0313593a88","system_id":"levelo_inurba_marseille","lat":43.30138,"lon":5.3878,"is_reserved":false,"is_disabled":true,"rental_uris":{"android":"levelo://app?vid=18b10c9c-8544-4482-a321-4e0313593a88","ios":"levelo://app?vid=18b10c9c-8544-4482-a321-4e0313593a88"},"vehicle_type_id":"4","last_reported":1749679839,"current_range_meters":0,"station_id":"ce4bghh2rcd13ifvqb60","pricing_plan_id":"cebpf4jnsgd1na2vs0mg"},{"bike_id":"7118695c-d302-458f-a26f-8a9a50ce1091","system_id":"levelo_inurba_marseille","lat":43.30606,"lon":5.37224,"is_reserved":false,"is_disabled":true,"rental_uris":{"android":"levelo://app?vid=7118695c-d302-458f-a26f-8a9a50ce1091","ios":"levelo://app?vid=7118695c-d302-458f-a26f-8a9a50ce1091"},"vehicle_type_id":"4","last_reported":1749679839,"current_range_meters":0,"station_id":"ce4bgqh2rcd13ifvqc4g","pricing_plan_id":"cebpf4jnsgd1na2vs0mg"},{"bike_id":"4f80c0c0-6cc0-4694-90b3-0d616fd1daa4","system_id":"levelo_inurba_marseille","lat":43.29189,"lon":5.39306,"is_reserved":false,"is_disabled":true,"rental_uris":{"android":"levelo://app?vid=4f80c0c0-6cc0-4694-90b3-0d616fd1daa4","ios":"levelo://app?vid=4f80c0c0-6cc0-4694-90b3-0d616fd1daa4"},"vehicle_type_id":"4","last_reported":1749679839,"current_range_meters":0,"station_id":"ce4bh192rcd13ifvqdd0","pricing_plan_id":"cebpf4jnsgd1na2vs0mg"},{"bike_id":"40fe276f-a65f-4317-b503-98953578a53d","system_id":"levelo_inurba_marseille","lat":43.27915,"lon":5.39584,"is_reserved":false,"is_disabled":true,"rental_uris":{"android":"levelo://app?vid=40fe276f-a65f-4317-b503-98953578a53d","ios":"levelo://app?vid=40fe276f-a65f-4317-b503-98953578a53d"},"vehicle_type_id":"4","last_reported":1749679839,"current_range_meters":0,"station_id":"ce4bhf92rcd13ifvqf40","pricing_plan_id":"cebpf4jnsgd1na2vs0mg"},{"bike_id":"ca6df3d9-d4af-470a-82cd-b5e969e09c9b","system_id":"levelo_inurba_marseille","lat":43.21758,"lon":5.34602,"is_reserved":false,"is_disabled":true,"rental_uris":{"android":"levelo://app?vid=ca6df3d9-d4af-470a-82cd-b5e969e09c9b","ios":"levelo://app?vid=ca6df3d9-d4af-470a-82cd-b5e969e09c9b"},"vehicle_type_id":"4","last_reported":1749679839,"current_range_meters":0,"station_id":"st_cvj6r9ubvosntc0bgbag","pricing_plan_id":"cebpf4jnsgd1na2vs0mg"},{"bike_id":"ffee6f69-a666-4994-9832-d96519641d9f","system_id":"levelo_inurba_marseille","lat":43.31116,"lon":5.37769,"is_reserved":false,"is_disabled":true,"rental_uris":{"android":"levelo://app?vid=ffee6f69-a666-4994-9832-d96519641d9f","ios":"levelo://app?vid=ffee6f69-a666-4994-9832-d96519641d9f"},"vehicle_type_id":"4","last_reported":1749679839,"current_range_meters":400,"station_id":"ce4bgt92rcd13ifvqcg0","pricing_plan_id":"cebpf4jnsgd1na2vs0mg"},{"bike_id":"c2561d4e-bceb-43f5-a6da-dc243f85d7ee","system_id":"levelo_inurba_marseille","lat":43.25113,"lon":5.40323,"is_reserved":false,"is_disabled":true,"rental_uris":{"android":"levelo://app?vid=c2561d4e-bceb-43f5-a6da-dc243f85d7ee","ios":"levelo://app?vid=c2561d4e-bceb-43f5-a6da-dc243f85d7ee"},"vehicle_type_id":"4","last_reported":1749679839,"current_range_meters":400,"station_id":"ce4bhlh2rcd13ifvqgig","pricing_plan_id":"cebpf4jnsgd1na2vs0mg"},{"bike_id":"e5f236f0-049c-4a6a-8fbd-016b8ae3837a","system_id":"levelo_inurba_marseille","lat":43.30797,"lon":5.43526,"is_reserved":false,"is_disabled":true,"rental_uris":{"android":"levelo://app?vid=e5f236f0-049c-4a6a-8fbd-016b8ae3837a","ios":"levelo://app?vid=e5f236f0-049c-4a6a-8fbd-016b8ae3837a"},"vehicle_type_id":"4","last_reported":1749679839,"current_range_meters":800,"station_id":"ce4bhph2rcd13ifvqheg","pricing_plan_id":"cebpf4jnsgd1na2vs0mg"},{"bike_id":"ce526313-e4c7-47eb-856f-183916936663","system_id":"levelo_inurba_marseille","lat":43.26191,"lon":5.3956,"is_reserved":false,"is_disabled":true,"rental_uris":{"android":"levelo://app?vid=ce526313-e4c7-47eb-856f-183916936663","ios":"levelo://app?vid=ce526313-e4c7-47eb-856f-183916936663"},"vehicle_type_id":"4","last_reported":1749679839,"current_range_meters":1200,"station_id":"","pricing_plan_id":"cebpf4jnsgd1na2vs0mg"},{"bike_id":"81141f11-7432-4822-acd3-a20dc324f175","system_id":"levelo_inurba_marseille","lat":43.298981,"lon":5.388574,"is_reserved":false,"is_disabled":true,"rental_uris":{"android":"levelo://app?vid=81141f11-7432-4822-acd3-a20dc324f175","ios":"levelo://app?vid=81141f11-7432-4822-acd3-a20dc324f175"},"vehicle_type_id":"4","last_reported":1749679839,"current_range_meters":1200,"station_id":"ce4bh392rcd13ifvqdl0","pricing_plan_id":"cebpf4jnsgd1na2vs0mg"},{"bike_id":"57bd1213-c4d9-4021-b83e-ff3b1f9a33f8","system_id":"levelo_inurba_marseille","lat":43.23192,"lon":5.35554,"is_reserved":false,"is_disabled":true,"rental_uris":{"android":"levelo://app?vid=57bd1213-c4d9-4021-b83e-ff3b1f9a33f8","ios":"levelo://app?vid=57bd1213-c4d9-4021-b83e-ff3b1f9a33f8"},"vehicle_type_id":"4","last_reported":1749679839,"current_range_meters":1200,"station_id":"ce4bhu92rcd13ifvqi70","pricing_plan_id":"cebpf4jnsgd1na2vs0mg"},{"bike_id":"15642284-38bf-46a3-8429-b976f7e075a1","system_id":"levelo_inurba_marseille","lat":43.27935,"lon":5.38285,"is_reserved":false,"is_disabled":true,"rental_uris":{"android":"levelo://app?vid=15642284-38bf-46a3-8429-b976f7e075a1","ios":"levelo://app?vid=15642284-38bf-46a3-8429-b976f7e075a1"},"vehicle_type_id":"4","last_reported":1749679839,"current_range_meters":1600,"station_id":"","pricing_plan_id":"cebpf4jnsgd1na2vs0mg"},{"bike_id":"78778bea-ee8d-4617-9940-e8d532761b1d","system_id":"levelo_inurba_marseille","lat":43.32428,"lon":5.42662,"is_reserved":false,"is_disabled":true,"rental_uris":{"android":"levelo://app?vid=78778bea-ee8d-4617-9940-e8d532761b1d","ios":"levelo://app?vid=78778bea-ee8d-4617-9940-e8d532761b1d"},"vehicle_type_id":"4","last_reported":1749679839,"current_range_meters":2000,"station_id":"","pricing_plan_id":"cebpf4jnsgd1na2vs0mg"},{"bike_id":"71a6ad24-4e18-4bd8-917d-5666aa0c4d76","system_id":"levelo_inurba_marseille","lat":43.33768,"lon":5.37487,"is_reserved":false,"is_disabled":false,"rental_uris":{"android":"levelo://app?vid=71a6ad24-4e18-4bd8-917d-5666aa0c4d76","ios":"levelo://app?vid=71a6ad24-4e18-4bd8-917d-5666aa0c4d76"},"vehicle_type_id":"4","last_reported":1749679839,"current_range_meters":2800,"station_id":"","pricing_plan_id":"cebpf4jnsgd1na2vs0mg"},{"bike_id":"d5f5f6de-68ba-4a80-a30e-6d039908154b","system_id":"levelo_inurba_marseille","lat":43.29967,"lon":5.38504,"is_reserved":false,"is_disabled":false,"rental_uris":{"android":"levelo://app?vid=d5f5f6de-68ba-4a80-a30e-6d039908154b","ios":"levelo://app?vid=d5f5f6de-68ba-4a80-a30e-6d039908154b"},"vehicle_type_id":"4","last_reported":1749679839,"current_range_meters":2800,"station_id":"ce4bgj92rcd13ifvqbd0","pricing_plan_id":"cebpf4jnsgd1na2vs0mg"},{"bike_id":"634c47a9-e506-4aa1-b498-a5c199a57650","system_id":"levelo_inurba_marseille","lat":43.30208,"lon":5.39466,"is_reserved":false,"is_disabled":false,"rental_uris":{"android":"levelo://app?vid=634c47a9-e506-4aa1-b498-a5c199a57650","ios":"levelo://app?vid=634c47a9-e506-4aa1-b498-a5c199a57650"},"vehicle_type_id":"4","last_reported":1749679839,"current_range_meters":2800,"station_id":"ce4bh0p2rcd13ifvqd70","pricing_plan_id":"cebpf4jnsgd1na2vs0mg"},{"bike_id":"c2ab996a-1def-4aca-b7ae-2aae2de7717f","system_id":"levelo_inurba_marseille","lat":43.287087,"lon":5.373713,"is_reserved":false,"is_disabled":false,"rental_uris":{"android":"levelo://app?vid=c2ab996a-1def-4aca-b7ae-2aae2de7717f","ios":"levelo://app?vid=c2ab996a-1def-4aca-b7ae-2aae2de7717f"},"vehicle_type_id":"4","last_reported":1749679839,"current_range_meters":3200,"station_id":"ce4bh3p2rcd13ifvqdq0","pricing_plan_id":"cebpf4jnsgd1na2vs0mg"},{"bike_id":"6d89e756-4bde-4817-81bb-1bea3c2df02d","system_id":"levelo_inurba_marseille","lat":43.3056,"lon":5.36923,"is_reserved":false,"is_disabled":false,"rental_uris":{"android":"levelo://app?vid=6d89e756-4bde-4817-81bb-1bea3c2df02d","ios":"levelo://app?vid=6d89e756-4bde-4817-81bb-1bea3c2df02d"},"vehicle_type_id":"4","last_reported":1749679839,"current_range_meters":3600,"station_id":"","pricing_plan_id":"cebpf4jnsgd1na2vs0mg"},{"bike_id":"37fe0c8d-87af-4346-9990-a25dd5a4d462","system_id":"levelo_inurba_marseille","lat":43.31553,"lon":5.3894,"is_reserved":false,"is_disabled":false,"rental_uris":{"android":"levelo://app?vid=37fe0c8d-87af-4346-9990-a25dd5a4d462","ios":"levelo://app?vid=37fe0c8d-87af-4346-9990-a25dd5a4d462"},"vehicle_type_id":"4","last_reported":1749679839,"current_range_meters":3600,"station_id":"","pricing_plan_id":"cebpf4jnsgd1na2vs0mg"},{"bike_id":"bb53fc53-0a43-4824-ac52-45d997f19f41","system_id":"levelo_inurba_marseille","lat":43.29266,"lon":5.40941,"is_reserved":false,"is_disabled":false,"rental_uris":{"android":"levelo://app?vid=bb53fc53-0a43-4824-ac52-45d997f19f41","ios":"levelo://app?vid=bb53fc53-0a43-4824-ac52-45d997f19f41"},"vehicle_type_id":"4","last_reported":1749679839,"current_range_meters":3600,"station_id":"ce4bh192rcd13ifvqdc0","pricing_plan_id":"cebpf4jnsgd1na2vs0mg"},{"bike_id":"a1fafd36-480d-4571-9e11-41b3cceb2572","system_id":"levelo_inurba_marseille","lat":43.25101,"lon":5.40328,"is_reserved":false,"is_disabled":false,"rental_uris":{"android":"levelo://app?vid=a1fafd36-480d-4571-9e11-41b3cceb2572","ios":"levelo://app?vid=a1fafd36-480d-4571-9e11-41b3cceb2572"},"vehicle_type_id":"4","last_reported":1749679839,"current_range_meters":3600,"station_id":"ce4bhlh2rcd13ifvqgig","pricing_plan_id":"cebpf4jnsgd1na2vs0mg"},{"bike_id":"3cf42530-d41c-4a91-9f99-0f6700f5551d","system_id":"levelo_inurba_marseille","lat":43.27475,"lon":5.41525,"is_reserved":false,"is_disabled":false,"rental_uris":{"android":"levelo://app?vid=3cf42530-d41c-4a91-9f99-0f6700f5551d","ios":"levelo://app?vid=3cf42530-d41c-4a91-9f99-0f6700f5551d"},"vehicle_type_id":"4","last_reported":1749679839,"current_range_meters":4000,"station_id":"","pricing_plan_id":"cebpf4jnsgd1na2vs0mg"},{"bike_id":"f54c3c1e-7c0d-42aa-904d-30d7dcd09ad2","system_id":"levelo_inurba_marseille","lat":43.28411,"lon":5.37539,"is_reserved":false,"is_disabled":false,"rental_uris":{"android":"levelo://app?vid=f54c3c1e-7c0d-42aa-904d-30d7dcd09ad2","ios":"levelo://app?vid=f54c3c1e-7c0d-42aa-904d-30d7dcd09ad2"},"vehicle_type_id":"4","last_reported":1749679839,"current_range_meters":4000,"station_id":"ce4bh412rcd13ifvqds0","pricing_plan_id":"cebpf4jnsgd1na2vs0mg"},{"bike_id":"d7b37b2e-3f5d-40fd-b35c-a47583b6615f","system_id":"levelo_inurba_marseille","lat":43.28669,"lon":5.38678,"is_reserved":false,"is_disabled":false,"rental_uris":{"android":"levelo://app?vid=d7b37b2e-3f5d-40fd-b35c-a47583b6615f","ios":"levelo://app?vid=d7b37b2e-3f5d-40fd-b35c-a47583b6615f"},"vehicle_type_id":"4","last_reported":1749679839,"current_range_meters":4000,"station_id":"ce4bh492rcd13ifvqdug","pricing_plan_id":"cebpf4jnsgd1na2vs0mg"},{"bike_id":"d3dbd46d-364e-4cad-89a5-cab8db77c526","system_id":"levelo_inurba_marseille","lat":43.3053,"lon":5.38424,"is_reserved":false,"is_disabled":false,"rental_uris":{"android":"levelo://app?vid=d3dbd46d-364e-4cad-89a5-cab8db77c526","ios":"levelo://app?vid=d3dbd46d-364e-4cad-89a5-cab8db77c526"},"vehicle_type_id":"4","last_reported":1749679839,"current_range_meters":4400,"station_id":"ce4bgg92rcd13ifvqb30","pricing_plan_id":"cebpf4jnsgd1na2vs0mg"},{"bike_id":"a9334c0d-cdfc-464f-8eab-e98192ed3454","system_id":"levelo_inurba_marseille","lat":43.29244,"lon":5.39965,"is_reserved":false,"is_disabled":false,"rental_uris":{"android":"levelo://app?vid=a9334c0d-cdfc-464f-8eab-e98192ed3454","ios":"levelo://app?vid=a9334c0d-cdfc-464f-8eab-e98192ed3454"},"vehicle_type_id":"4","last_reported":1749679839,"current_range_meters":4800,"station_id":"","pricing_plan_id":"cebpf4jnsgd1na2vs0mg"},{"bike_id":"68a1df66-b677-42f2-adf3-01db2ae7b9ca","system_id":"levelo_inurba_marseille","lat":43.28698,"lon":5.37392,"is_reserved":false,"is_disabled":false,"rental_uris":{"android":"levelo://app?vid=68a1df66-b677-42f2-adf3-01db2ae7b9ca","ios":"levelo://app?vid=68a1df66-b677-42f2-adf3-01db2ae7b9ca"},"vehicle_type_id":"4","last_reported":1749679839,"current_range_meters":4800,"station_id":"ce4bh3p2rcd13ifvqdq0","pricing_plan_id":"cebpf4jnsgd1na2vs0mg"},{"bike_id":"f1830a0e-8ca8-418d-b85b-5ad32886e069","system_id":"levelo_inurba_marseille","lat":43.30238,"lon":5.40086,"is_reserved":false,"is_disabled":false,"rental_uris":{"android":"levelo://app?vid=f1830a0e-8ca8-418d-b85b-5ad32886e069","ios":"levelo://app?vid=f1830a0e-8ca8-418d-b85b-5ad32886e069"},"vehicle_type_id":"4","last_reported":1749679839,"current_range_meters":5600,"station_id":"ce4bgvh2rcd13ifvqcs0","pricing_plan_id":"cebpf4jnsgd1na2vs0mg"},{"bike_id":"0c6bf2e3-ba75-40ca-ae41-ac0cd7fe427a","system_id":"levelo_inurba_marseille","lat":43.30431,"lon":5.39749,"is_reserved":false,"is_disabled":false,"rental_uris":{"android":"levelo://app?vid=0c6bf2e3-ba75-40ca-ae41-ac0cd7fe427a","ios":"levelo://app?vid=0c6bf2e3-ba75-40ca-ae41-ac0cd7fe427a"},"vehicle_type_id":"4","last_reported":1749679839,"current_range_meters":5600,"station_id":"ce4bh092rcd13ifvqd20","pricing_plan_id":"cebpf4jnsgd1na2vs0mg"},{"bike_id":"5e7f392f-f07f-4401-a654-ce21d48c9137","system_id":"levelo_inurba_marseille","lat":43.3012,"lon":5.39887,"is_reserved":false,"is_disabled":false,"rental_uris":{"android":"levelo://app?vid=5e7f392f-f07f-4401-a654-ce21d48c9137","ios":"levelo://app?vid=5e7f392f-f07f-4401-a654-ce21d48c9137"},"vehicle_type_id":"4","last_reported":1749679839,"current_range_meters":6400,"station_id":"ce4bh0h2rcd13ifvqd40","pricing_plan_id":"cebpf4jnsgd1na2vs0mg"},{"bike_id":"2c78be73-fea8-4756-8263-a3055000d1fd","system_id":"levelo_inurba_marseille","lat":43.28854,"lon":5.39311,"is_reserved":false,"is_disabled":false,"rental_uris":{"android":"levelo://app?vid=2c78be73-fea8-4756-8263-a3055000d1fd","ios":"levelo://app?vid=2c78be73-fea8-4756-8263-a3055000d1fd"},"vehicle_type_id":"4","last_reported":1749679839,"current_range_meters":6400,"station_id":"ce4bh2p2rcd13ifvqdi0","pricing_plan_id":"cebpf4jnsgd1na2vs0mg"},{"bike_id":"c79612c8-b245-4c95-9d3b-769370e42cf8","system_id":"levelo_inurba_marseille","lat":43.25105,"lon":5.4033,"is_reserved":false,"is_disabled":false,"rental_uris":{"android":"levelo://app?vid=c79612c8-b245-4c95-9d3b-769370e42cf8","ios":"levelo://app?vid=c79612c8-b245-4c95-9d3b-769370e42cf8"},"vehicle_type_id":"4","last_reported":1749679839,"current_range_meters":6400,"station_id":"ce4bhlh2rcd13ifvqgig","pricing_plan_id":"cebpf4jnsgd1na2vs0mg"},{"bike_id":"37baeda4-dfe2-42e8-8283-572d2cff2916","system_id":"levelo_inurba_marseille","lat":43.2992,"lon":5.37467,"is_reserved":false,"is_disabled":false,"rental_uris":{"android":"levelo://app?vid=37baeda4-dfe2-42e8-8283-572d2cff2916","ios":"levelo://app?vid=37baeda4-dfe2-42e8-8283-572d2cff2916"},"vehicle_type_id":"4","last_reported":1749679839,"current_range_meters":6800,"station_id":"ce4bgjh2rcd13ifvqbg0","pricing_plan_id":"cebpf4jnsgd1na2vs0mg"},{"bike_id":"5077581b-cebb-46fc-ba69-4fa8272d4810","system_id":"levelo_inurba_marseille","lat":43.21377,"lon":5.35509,"is_reserved":false,"is_disabled":false,"rental_uris":{"android":"levelo://app?vid=5077581b-cebb-46fc-ba69-4fa8272d4810","ios":"levelo://app?vid=5077581b-cebb-46fc-ba69-4fa8272d4810"},"vehicle_type_id":"4","last_reported":1749679839,"current_range_meters":7200,"station_id":"","pricing_plan_id":"cebpf4jnsgd1na2vs0mg"},{"bike_id":"7c6c6adc-a3da-49a6-8136-247da3b5ec06","system_id":"levelo_inurba_marseille","lat":43.2446,"lon":5.40059,"is_reserved":false,"is_disabled":false,"rental_uris":{"android":"levelo://app?vid=7c6c6adc-a3da-49a6-8136-247da3b5ec06","ios":"levelo://app?vid=7c6c6adc-a3da-49a6-8136-247da3b5ec06"},"vehicle_type_id":"4","last_reported":1749679839,"current_range_meters":7200,"station_id":"","pricing_plan_id":"cebpf4jnsgd1na2vs0mg"},{"bike_id":"782d4651-d9ab-4e1f-af94-ed0c9df5ca30","system_id":"levelo_inurba_marseille","lat":43.284261,"lon":5.349648,"is_reserved":false,"is_disabled":false,"rental_uris":{"android":"levelo://app?vid=782d4651-d9ab-4e1f-af94-ed0c9df5ca30","ios":"levelo://app?vid=782d4651-d9ab-4e1f-af94-ed0c9df5ca30"},"vehicle_type_id":"4","last_reported":1749679839,"current_range_meters":7200,"station_id":"ce4bhbh2rcd13ifvqepg","pricing_plan_id":"cebpf4jnsgd1na2vs0mg"},{"bike_id":"a6f9b91c-4f75-4039-a66b-74a6a0ac1d88","system_id":"levelo_inurba_marseille","lat":43.31704,"lon":5.40466,"is_reserved":false,"is_disabled":false,"rental_uris":{"android":"levelo://app?vid=a6f9b91c-4f75-4039-a66b-74a6a0ac1d88","ios":"levelo://app?vid=a6f9b91c-4f75-4039-a66b-74a6a0ac1d88"},"vehicle_type_id":"4","last_reported":1749679839,"current_range_meters":8000,"station_id":"ce4bh012rcd13ifvqd00","pricing_plan_id":"cebpf4jnsgd1na2vs0mg"},{"bike_id":"3eff697c-1d9f-469b-8718-b793cbbdee8a","system_id":"levelo_inurba_marseille","lat":43.23151,"lon":5.43717,"is_reserved":false,"is_disabled":false,"rental_uris":{"android":"levelo://app?vid=3eff697c-1d9f-469b-8718-b793cbbdee8a","ios":"levelo://app?vid=3eff697c-1d9f-469b-8718-b793cbbdee8a"},"vehicle_type_id":"4","last_reported":1749679839,"current_range_meters":8000,"station_id":"ce4bhmp2rcd13ifvqgog","pricing_plan_id":"cebpf4jnsgd1na2vs0mg"},{"bike_id":"01c4eab2-7f5c-4883-b69c-950919bd224e","system_id":"levelo_inurba_marseille","lat":43.24026,"lon":5.37801,"is_reserved":false,"is_disabled":false,"rental_uris":{"android":"levelo://app?vid=01c4eab2-7f5c-4883-b69c-950919bd224e","ios":"levelo://app?vid=01c4eab2-7f5c-4883-b69c-950919bd224e"},"vehicle_type_id":"4","last_reported":1749679839,"current_range_meters":8000,"station_id":"ce4bhnp2rcd13ifvqgvg","pricing_plan_id":"cebpf4jnsgd1na2vs0mg"},{"bike_id":"0e92a489-6bfe-4488-b5ee-b5b5c177afe9","system_id":"levelo_inurba_marseille","lat":43.29065,"lon":5.37855,"is_reserved":false,"is_disabled":false,"rental_uris":{"android":"levelo://app?vid=0e92a489-6bfe-4488-b5ee-b5b5c177afe9","ios":"levelo://app?vid=0e92a489-6bfe-4488-b5ee-b5b5c177afe9"},"vehicle_type_id":"4","last_reported":1749679839,"current_range_meters":8400,"station_id":"","pricing_plan_id":"cebpf4jnsgd1na2vs0mg"},{"bike_id":"66314ca9-30a7-4c0a-8507-6f89f4c9b4e1","system_id":"levelo_inurba_marseille","lat":43.26215,"lon":5.37137,"is_reserved":false,"is_disabled":false,"rental_uris":{"android":"levelo://app?vid=66314ca9-30a7-4c0a-8507-6f89f4c9b4e1","ios":"levelo://app?vid=66314ca9-30a7-4c0a-8507-6f89f4c9b4e1"},"vehicle_type_id":"4","last_reported":1749679839,"current_range_meters":8400,"station_id":"","pricing_plan_id":"cebpf4jnsgd1na2vs0mg"},{"bike_id":"1e20f032-0f6a-40b2-ad29-e4d2225496fa","system_id":"levelo_inurba_marseille","lat":43.30298,"lon":5.37061,"is_reserved":false,"is_disabled":false,"rental_uris":{"android":"levelo://app?vid=1e20f032-0f6a-40b2-ad29-e4d2225496fa","ios":"levelo://app?vid=1e20f032-0f6a-40b2-ad29-e4d2225496fa"},"vehicle_type_id":"4","last_reported":1749679839,"current_range_meters":8400,"station_id":"","pricing_plan_id":"cebpf4jnsgd1na2vs0mg"},{"bike_id":"9235fdda-e78b-42cf-8b49-87d0d052ae15","system_id":"levelo_inurba_marseille","lat":43.30435,"lon":5.3889,"is_reserved":false,"is_disabled":false,"rental_uris":{"android":"levelo://app?vid=9235fdda-e78b-42cf-8b49-87d0d052ae15","ios":"levelo://app?vid=9235fdda-e78b-42cf-8b49-87d0d052ae15"},"vehicle_type_id":"4","last_reported":1749679839,"current_range_meters":8400,"station_id":"ce4bgk12rcd13ifvqbi0","pricing_plan_id":"cebpf4jnsgd1na2vs0mg"},{"bike_id":"8f178310-5913-4216-8a39-47e081dd0895","system_id":"levelo_inurba_marseille","lat":43.2904,"lon":5.39959,"is_reserved":false,"is_disabled":false,"rental_uris":{"android":"levelo://app?vid=8f178310-5913-4216-8a39-47e081dd0895","ios":"levelo://app?vid=8f178310-5913-4216-8a39-47e081dd0895"},"vehicle_type_id":"4","last_reported":1749679839,"current_range_meters":8400,"station_id":"ce4bh392rcd13ifvqdm0","pricing_plan_id":"cebpf4jnsgd1na2vs0mg"},{"bike_id":"f958f488-37a4-44c6-9c1e-b7bcbbb7ef8f","system_id":"levelo_inurba_marseille","lat":43.2843,"lon":5.39185,"is_reserved":false,"is_disabled":false,"rental_uris":{"android":"levelo://app?vid=f958f488-37a4-44c6-9c1e-b7bcbbb7ef8f","ios":"levelo://app?vid=f958f488-37a4-44c6-9c1e-b7bcbbb7ef8f"},"vehicle_type_id":"4","last_reported":1749679839,"current_range_meters":8400,"station_id":"ce4bhoh2rcd13ifvqh5g","pricing_plan_id":"cebpf4jnsgd1na2vs0mg"},{"bike_id":"5eeb5836-58df-41a0-8512-b32d00e8fba2","system_id":"levelo_inurba_marseille","lat":43.28443,"lon":5.39196,"is_reserved":false,"is_disabled":false,"rental_uris":{"android":"levelo://app?vid=5eeb5836-58df-41a0-8512-b32d00e8fba2","ios":"levelo://app?vid=5eeb5836-58df-41a0-8512-b32d00e8fba2"},"vehicle_type_id":"4","last_reported":1749679839,"current_range_meters":8400,"station_id":"ce4bhoh2rcd13ifvqh5g","pricing_plan_id":"cebpf4jnsgd1na2vs0mg"},{"bike_id":"5300f9cd-ef99-474a-9a35-ba94d94c2887","system_id":"levelo_inurba_marseille","lat":43.3373,"lon":5.39189,"is_reserved":false,"is_disabled":false,"rental_uris":{"android":"levelo://app?vid=5300f9cd-ef99-474a-9a35-ba94d94c2887","ios":"levelo://app?vid=5300f9cd-ef99-474a-9a35-ba94d94c2887"},"vehicle_type_id":"4","last_reported":1749679839,"current_range_meters":8400,"station_id":"ce4bhr92rcd13ifvqhsg","pricing_plan_id":"cebpf4jnsgd1na2vs0mg"},{"bike_id":"71aefb48-e35b-4e7d-a2e6-abba5f4232e1","system_id":"levelo_inurba_marseille","lat":43.3248,"lon":5.36573,"is_reserved":false,"is_disabled":false,"rental_uris":{"android":"levelo://app?vid=71aefb48-e35b-4e7d-a2e6-abba5f4232e1","ios":"levelo://app?vid=71aefb48-e35b-4e7d-a2e6-abba5f4232e1"},"vehicle_type_id":"4","last_reported":1749679839,"current_range_meters":8400,"station_id":"ce4bhs12rcd13ifvqhvg","pricing_plan_id":"cebpf4jnsgd1na2vs0mg"},{"bike_id":"9681232b-c563-424e-aeda-e974bc6caa95","system_id":"levelo_inurba_marseille","lat":43.3053,"lon":5.38427,"is_reserved":false,"is_disabled":false,"rental_uris":{"android":"levelo://app?vid=9681232b-c563-424e-aeda-e974bc6caa95","ios":"levelo://app?vid=9681232b-c563-424e-aeda-e974bc6caa95"},"vehicle_type_id":"4","last_reported":1749679839,"current_range_meters":8800,"station_id":"ce4bgg92rcd13ifvqb30","pricing_plan_id":"cebpf4jnsgd1na2vs0mg"},{"bike_id":"252f8803-28b2-410c-a4f4-05cb22a0a2e8","system_id":"levelo_inurba_marseille","lat":43.30153,"lon":5.38792,"is_reserved":false,"is_disabled":false,"rental_uris":{"android":"levelo://app?vid=252f8803-28b2-410c-a4f4-05cb22a0a2e8","ios":"levelo://app?vid=252f8803-28b2-410c-a4f4-05cb22a0a2e8"},"vehicle_type_id":"4","last_reported":1749679839,"current_range_meters":8800,"station_id":"ce4bghh2rcd13ifvqb60","pricing_plan_id":"cebpf4jnsgd1na2vs0mg"},{"bike_id":"83b78d39-1a6f-43e7-90e1-1aecf63635f6","system_id":"levelo_inurba_marseille","lat":43.29259,"lon":5.4091,"is_reserved":false,"is_disabled":false,"rental_uris":{"android":"levelo://app?vid=83b78d39-1a6f-43e7-90e1-1aecf63635f6","ios":"levelo://app?vid=83b78d39-1a6f-43e7-90e1-1aecf63635f6"},"vehicle_type_id":"4","last_reported":1749679839,"current_range_meters":8800,"station_id":"ce4bh192rcd13ifvqdc0","pricing_plan_id":"cebpf4jnsgd1na2vs0mg"},{"bike_id":"23cf6711-e648-4cbf-a110-1531931fbe48","system_id":"levelo_inurba_marseille","lat":43.28073,"lon":5.39664,"is_reserved":false,"is_disabled":false,"rental_uris":{"android":"levelo://app?vid=23cf6711-e648-4cbf-a110-1531931fbe48","ios":"levelo://app?vid=23cf6711-e648-4cbf-a110-1531931fbe48"},"vehicle_type_id":"4","last_reported":1749679839,"current_range_meters":8800,"station_id":"ce4bho12rcd13ifvqh2g","pricing_plan_id":"cebpf4jnsgd1na2vs0mg"},{"bike_id":"bbf37f29-43ba-4888-abc8-83989b509a7e","system_id":"levelo_inurba_marseille","lat":43.30922,"lon":5.40143,"is_reserved":false,"is_disabled":false,"rental_uris":{"android":"levelo://app?vid=bbf37f29-43ba-4888-abc8-83989b509a7e","ios":"levelo://app?vid=bbf37f29-43ba-4888-abc8-83989b509a7e"},"vehicle_type_id":"4","last_reported":1749679839,"current_range_meters":9200,"station_id":"ce4bgvp2rcd13ifvqct0","pricing_plan_id":"cebpf4jnsgd1na2vs0mg"},{"bike_id":"be98af63-958a-4cd3-bc8a-c3480ee7b2fd","system_id":"levelo_inurba_marseille","lat":43.30322,"lon":5.40446,"is_reserved":false,"is_disabled":false,"rental_uris":{"android":"levelo://app?vid=be98af63-958a-4cd3-bc8a-c3480ee7b2fd","ios":"levelo://app?vid=be98af63-958a-4cd3-bc8a-c3480ee7b2fd"},"vehicle_type_id":"4","last_reported":1749679839,"current_range_meters":9200,"station_id":"ce4bh012rcd13ifvqd10","pricing_plan_id":"cebpf4jnsgd1na2vs0mg"},{"bike_id":"d4530d43-7cad-4ed0-8415-9ffe61a30e46","system_id":"levelo_inurba_marseille","lat":43.251135,"lon":5.403257,"is_reserved":false,"is_disabled":false,"rental_uris":{"android":"levelo://app?vid=d4530d43-7cad-4ed0-8415-9ffe61a30e46","ios":"levelo://app?vid=d4530d43-7cad-4ed0-8415-9ffe61a30e46"},"vehicle_type_id":"4","last_reported":1749679839,"current_range_meters":9200,"station_id":"ce4bhlh2rcd13ifvqgig","pricing_plan_id":"cebpf4jnsgd1na2vs0mg"},{"bike_id":"8bc03b7b-e01e-442c-8cf1-a0129e9a8963","system_id":"levelo_inurba_marseille","lat":43.31681,"lon":5.40423,"is_reserved":false,"is_disabled":false,"rental_uris":{"android":"levelo://app?vid=8bc03b7b-e01e-442c-8cf1-a0129e9a8963","ios":"levelo://app?vid=8bc03b7b-e01e-442c-8cf1-a0129e9a8963"},"vehicle_type_id":"4","last_reported":1749679839,"current_range_meters":9600,"station_id":"ce4bh012rcd13ifvqd00","pricing_plan_id":"cebpf4jnsgd1na2vs0mg"},{"bike_id":"85274a9d-a0fb-46c5-a828-b8a66650baa9","system_id":"levelo_inurba_marseille","lat":43.28403,"lon":5.37519,"is_reserved":false,"is_disabled":false,"rental_uris":{"android":"levelo://app?vid=85274a9d-a0fb-46c5-a828-b8a66650baa9","ios":"levelo://app?vid=85274a9d-a0fb-46c5-a828-b8a66650baa9"},"vehicle_type_id":"4","last_reported":1749679839,"current_range_meters":9600,"station_id":"ce4bh412rcd13ifvqds0","pricing_plan_id":"cebpf4jnsgd1na2vs0mg"},{"bike_id":"240e080f-e9db-4b3b-948c-1adca53e5281","system_id":"levelo_inurba_marseille","lat":43.29604,"lon":5.37719,"is_reserved":false,"is_disabled":false,"rental_uris":{"android":"levelo://app?vid=240e080f-e9db-4b3b-948c-1adca53e5281","ios":"levelo://app?vid=240e080f-e9db-4b3b-948c-1adca53e5281"},"vehicle_type_id":"4","last_reported":1749679839,"current_range_meters":9600,"station_id":"ce4bhb92rcd13ifvqen0","pricing_plan_id":"cebpf4jnsgd1na2vs0mg"},{"bike_id":"c5370431-6f50-4de5-ab93-de29bc51fd11","system_id":"levelo_inurba_marseille","lat":43.28751,"lon":5.36182,"is_reserved":false,"is_disabled":false,"rental_uris":{"android":"levelo://app?vid=c5370431-6f50-4de5-ab93-de29bc51fd11","ios":"levelo://app?vid=c5370431-6f50-4de5-ab93-de29bc51fd11"},"vehicle_type_id":"4","last_reported":1749679839,"current_range_meters":10000,"station_id":"","pricing_plan_id":"cebpf4jnsgd1na2vs0mg"},{"bike_id":"256ebf1f-d481-4438-8cf8-86d29cd0022f","system_id":"levelo_inurba_marseille","lat":43.30136,"lon":5.39858,"is_reserved":false,"is_disabled":false,"rental_uris":{"android":"levelo://app?vid=256ebf1f-d481-4438-8cf8-86d29cd0022f","ios":"levelo://app?vid=256ebf1f-d481-4438-8cf8-86d29cd0022f"},"vehicle_type_id":"4","last_reported":1749679839,"current_range_meters":10000,"station_id":"ce4bh0h2rcd13ifvqd40","pricing_plan_id":"cebpf4jnsgd1na2vs0mg"},{"bike_id":"84f5a926-1dd6-4535-b647-2764ce0ca103","system_id":"levelo_inurba_marseille","lat":43.32089,"lon":5.36751,"is_reserved":false,"is_disabled":false,"rental_uris":{"android":"levelo://app?vid=84f5a926-1dd6-4535-b647-2764ce0ca103","ios":"levelo://app?vid=84f5a926-1dd6-4535-b647-2764ce0ca103"},"vehicle_type_id":"4","last_reported":1749679839,"current_range_meters":10000,"station_id":"ce4bhrh2rcd13ifvqhug","pricing_plan_id":"cebpf4jnsgd1na2vs0mg"},{"bike_id":"b855a191-a54e-4984-b819-b239ef10385f","system_id":"levelo_inurba_marseille","lat":43.29799,"lon":5.40405,"is_reserved":false,"is_disabled":false,"rental_uris":{"android":"levelo://app?vid=b855a191-a54e-4984-b819-b239ef10385f","ios":"levelo://app?vid=b855a191-a54e-4984-b819-b239ef10385f"},"vehicle_type_id":"4","last_reported":1749679839,"current_range_meters":10800,"station_id":"ce4bh112rcd13ifvqd90","pricing_plan_id":"cebpf4jnsgd1na2vs0mg"},{"bike_id":"e99645b8-da36-4aa9-a97e-c7d901ad5dfd","system_id":"levelo_inurba_marseille","lat":43.28421,"lon":5.37526,"is_reserved":false,"is_disabled":false,"rental_uris":{"android":"levelo://app?vid=e99645b8-da36-4aa9-a97e-c7d901ad5dfd","ios":"levelo://app?vid=e99645b8-da36-4aa9-a97e-c7d901ad5dfd"},"vehicle_type_id":"4","last_reported":1749679839,"current_range_meters":10800,"station_id":"ce4bh412rcd13ifvqds0","pricing_plan_id":"cebpf4jnsgd1na2vs0mg"},{"bike_id":"a696992b-f357-4179-afb8-816d0883fcb7","system_id":"levelo_inurba_marseille","lat":43.283633,"lon":5.386323,"is_reserved":false,"is_disabled":false,"rental_uris":{"android":"levelo://app?vid=a696992b-f357-4179-afb8-816d0883fcb7","ios":"levelo://app?vid=a696992b-f357-4179-afb8-816d0883fcb7"},"vehicle_type_id":"4","last_reported":1749679839,"current_range_meters":10800,"station_id":"ce4bh492rcd13ifvqdvg","pricing_plan_id":"cebpf4jnsgd1na2vs0mg"},{"bike_id":"50fe938f-a580-48ba-9868-a6c9a5734c0f","system_id":"levelo_inurba_marseille","lat":43.28998,"lon":5.38627,"is_reserved":false,"is_disabled":false,"rental_uris":{"android":"levelo://app?vid=50fe938f-a580-48ba-9868-a6c9a5734c0f","ios":"levelo://app?vid=50fe938f-a580-48ba-9868-a6c9a5734c0f"},"vehicle_type_id":"4","last_reported":1749679839,"current_range_meters":10800,"station_id":"ce4bh4p2rcd13ifvqe0g","pricing_plan_id":"cebpf4jnsgd1na2vs0mg"},{"bike_id":"0d66d503-b03a-4e89-9a90-8954e7588d53","system_id":"levelo_inurba_marseille","lat":43.26679,"lon":5.3827,"is_reserved":false,"is_disabled":false,"rental_uris":{"android":"levelo://app?vid=0d66d503-b03a-4e89-9a90-8954e7588d53","ios":"levelo://app?vid=0d66d503-b03a-4e89-9a90-8954e7588d53"},"vehicle_type_id":"4","last_reported":1749679839,"current_range_meters":10800,"station_id":"ce4bhg92rcd13ifvqf90","pricing_plan_id":"cebpf4jnsgd1na2vs0mg"},{"bike_id":"a39f92c4-deca-48d2-ae24-a0c643434135","system_id":"levelo_inurba_marseille","lat":43.27584,"lon":5.38409,"is_reserved":false,"is_disabled":false,"rental_uris":{"android":"levelo://app?vid=a39f92c4-deca-48d2-ae24-a0c643434135","ios":"levelo://app?vid=a39f92c4-deca-48d2-ae24-a0c643434135"},"vehicle_type_id":"4","last_reported":1749679839,"current_range_meters":10800,"station_id":"ce4bhh92rcd13ifvqfi0","pricing_plan_id":"cebpf4jnsgd1na2vs0mg"},{"bike_id":"8105426e-eb6c-4b79-bfaa-254c1b037d55","system_id":"levelo_inurba_marseille","lat":43.32338,"lon":5.3675,"is_reserved":false,"is_disabled":false,"rental_uris":{"android":"levelo://app?vid=8105426e-eb6c-4b79-bfaa-254c1b037d55","ios":"levelo://app?vid=8105426e-eb6c-4b79-bfaa-254c1b037d55"},"vehicle_type_id":"4","last_reported":1749679839,"current_range_meters":10800,"station_id":"ce4bhsh2rcd13ifvqi2g","pricing_plan_id":"cebpf4jnsgd1na2vs0mg"},{"bike_id":"5c8a3317-fec4-4c46-9157-500d9d52bb79","system_id":"levelo_inurba_marseille","lat":43.3093,"lon":5.40152,"is_reserved":false,"is_disabled":false,"rental_uris":{"android":"levelo://app?vid=5c8a3317-fec4-4c46-9157-500d9d52bb79","ios":"levelo://app?vid=5c8a3317-fec4-4c46-9157-500d9d52bb79"},"vehicle_type_id":"4","last_reported":1749679839,"current_range_meters":11200,"station_id":"ce4bgvp2rcd13ifvqct0","pricing_plan_id":"cebpf4jnsgd1na2vs0mg"},{"bike_id":"88c5b498-dc7d-415e-be03-96caa23bce10","system_id":"levelo_inurba_marseille","lat":43.30129,"lon":5.39868,"is_reserved":false,"is_disabled":false,"rental_uris":{"android":"levelo://app?vid=88c5b498-dc7d-415e-be03-96caa23bce10","ios":"levelo://app?vid=88c5b498-dc7d-415e-be03-96caa23bce10"},"vehicle_type_id":"4","last_reported":1749679839,"current_range_meters":11200,"station_id":"ce4bh0h2rcd13ifvqd40","pricing_plan_id":"cebpf4jnsgd1na2vs0mg"},{"bike_id":"8d216b9a-d410-4bf4-9521-036cb9beb09b","system_id":"levelo_inurba_marseille","lat":43.29605,"lon":5.4062,"is_reserved":false,"is_disabled":false,"rental_uris":{"android":"levelo://app?vid=8d216b9a-d410-4bf4-9521-036cb9beb09b","ios":"levelo://app?vid=8d216b9a-d410-4bf4-9521-036cb9beb09b"},"vehicle_type_id":"4","last_reported":1749679839,"current_range_meters":11200,"station_id":"ce4bh0h2rcd13ifvqd60","pricing_plan_id":"cebpf4jnsgd1na2vs0mg"},{"bike_id":"542372c9-4912-4a31-b6fd-eccbdce7e9eb","system_id":"levelo_inurba_marseille","lat":43.2506,"lon":5.39511,"is_reserved":false,"is_disabled":false,"rental_uris":{"android":"levelo://app?vid=542372c9-4912-4a31-b6fd-eccbdce7e9eb","ios":"levelo://app?vid=542372c9-4912-4a31-b6fd-eccbdce7e9eb"},"vehicle_type_id":"4","last_reported":1749679839,"current_range_meters":11200,"station_id":"ce4bhm12rcd13ifvqgkg","pricing_plan_id":"cebpf4jnsgd1na2vs0mg"},{"bike_id":"9db61b1f-6850-4a48-ada1-1a90e194bada","system_id":"levelo_inurba_marseille","lat":43.29881,"lon":5.39741,"is_reserved":false,"is_disabled":false,"rental_uris":{"android":"levelo://app?vid=9db61b1f-6850-4a48-ada1-1a90e194bada","ios":"levelo://app?vid=9db61b1f-6850-4a48-ada1-1a90e194bada"},"vehicle_type_id":"4","last_reported":1749679839,"current_range_meters":11600,"station_id":"ce4bh0h2rcd13ifvqd50","pricing_plan_id":"cebpf4jnsgd1na2vs0mg"},{"bike_id":"45eccbe8-b4f7-45f0-b835-275801f905cb","system_id":"levelo_inurba_marseille","lat":43.28367,"lon":5.38635,"is_reserved":false,"is_disabled":false,"rental_uris":{"android":"levelo://app?vid=45eccbe8-b4f7-45f0-b835-275801f905cb","ios":"levelo://app?vid=45eccbe8-b4f7-45f0-b835-275801f905cb"},"vehicle_type_id":"4","last_reported":1749679839,"current_range_meters":11600,"station_id":"ce4bh492rcd13ifvqdvg","pricing_plan_id":"cebpf4jnsgd1na2vs0mg"},{"bike_id":"c6edfdc3-cd6e-441f-a718-33721acd308d","system_id":"levelo_inurba_marseille","lat":43.32328,"lon":5.40636,"is_reserved":false,"is_disabled":false,"rental_uris":{"android":"levelo://app?vid=c6edfdc3-cd6e-441f-a718-33721acd308d","ios":"levelo://app?vid=c6edfdc3-cd6e-441f-a718-33721acd308d"},"vehicle_type_id":"4","last_reported":1749679839,"current_range_meters":11600,"station_id":"ce4bhq92rcd13ifvqhjg","pricing_plan_id":"cebpf4jnsgd1na2vs0mg"},{"bike_id":"308cbf69-b866-4a48-b377-e4f7d5e7c70b","system_id":"levelo_inurba_marseille","lat":43.32914,"lon":5.39015,"is_reserved":false,"is_disabled":false,"rental_uris":{"android":"levelo://app?vid=308cbf69-b866-4a48-b377-e4f7d5e7c70b","ios":"levelo://app?vid=308cbf69-b866-4a48-b377-e4f7d5e7c70b"},"vehicle_type_id":"4","last_reported":1749679839,"current_range_meters":12000,"station_id":"","pricing_plan_id":"cebpf4jnsgd1na2vs0mg"},{"bike_id":"0b8a9b22-d71a-4693-a7af-fc236ccd140f","system_id":"levelo_inurba_marseille","lat":43.30526,"lon":5.38417,"is_reserved":false,"is_disabled":false,"rental_uris":{"android":"levelo://app?vid=0b8a9b22-d71a-4693-a7af-fc236ccd140f","ios":"levelo://app?vid=0b8a9b22-d71a-4693-a7af-fc236ccd140f"},"vehicle_type_id":"4","last_reported":1749679839,"current_range_meters":12000,"station_id":"ce4bgg92rcd13ifvqb30","pricing_plan_id":"cebpf4jnsgd1na2vs0mg"},{"bike_id":"97598ccc-c74c-4725-bfc9-64d836df6f83","system_id":"levelo_inurba_marseille","lat":43.2656,"lon":5.39017,"is_reserved":false,"is_disabled":false,"rental_uris":{"android":"levelo://app?vid=97598ccc-c74c-4725-bfc9-64d836df6f83","ios":"levelo://app?vid=97598ccc-c74c-4725-bfc9-64d836df6f83"},"vehicle_type_id":"4","last_reported":1749679839,"current_range_meters":12000,"station_id":"ce4bhe12rcd13ifvqf30","pricing_plan_id":"cebpf4jnsgd1na2vs0mg"},{"bike_id":"8811265e-b1b0-4dbe-b89f-1bb870308ed9","system_id":"levelo_inurba_marseille","lat":43.30423,"lon":5.41284,"is_reserved":false,"is_disabled":false,"rental_uris":{"android":"levelo://app?vid=8811265e-b1b0-4dbe-b89f-1bb870308ed9","ios":"levelo://app?vid=8811265e-b1b0-4dbe-b89f-1bb870308ed9"},"vehicle_type_id":"4","last_reported":1749679839,"current_range_meters":12000,"station_id":"ce4bhop2rcd13ifvqh8g","pricing_plan_id":"cebpf4jnsgd1na2vs0mg"},{"bike_id":"3b288e0d-f860-434b-ab76-2fa310b25a17","system_id":"levelo_inurba_marseille","lat":43.26794,"lon":5.40258,"is_reserved":false,"is_disabled":false,"rental_uris":{"android":"levelo://app?vid=3b288e0d-f860-434b-ab76-2fa310b25a17","ios":"levelo://app?vid=3b288e0d-f860-434b-ab76-2fa310b25a17"},"vehicle_type_id":"4","last_reported":1749679839,"current_range_meters":12000,"station_id":"ce501612rcd8frsf0b60","pricing_plan_id":"cebpf4jnsgd1na2vs0mg"},{"bike_id":"640c2017-86dc-487c-a9f4-f3964a220af0","system_id":"levelo_inurba_marseille","lat":43.2409,"lon":5.37679,"is_reserved":false,"is_disabled":false,"rental_uris":{"android":"levelo://app?vid=640c2017-86dc-487c-a9f4-f3964a220af0","ios":"levelo://app?vid=640c2017-86dc-487c-a9f4-f3964a220af0"},"vehicle_type_id":"4","last_reported":1749679839,"current_range_meters":12400,"station_id":"","pricing_plan_id":"cebpf4jnsgd1na2vs0mg"},{"bike_id":"91252cb4-db98-4cff-ba49-0337a6eacf8f","system_id":"levelo_inurba_marseille","lat":43.31982,"lon":5.38793,"is_reserved":false,"is_disabled":false,"rental_uris":{"android":"levelo://app?vid=91252cb4-db98-4cff-ba49-0337a6eacf8f","ios":"levelo://app?vid=91252cb4-db98-4cff-ba49-0337a6eacf8f"},"vehicle_type_id":"4","last_reported":1749679839,"current_range_meters":12400,"station_id":"","pricing_plan_id":"cebpf4jnsgd1na2vs0mg"},{"bike_id":"d309806f-aac7-41fd-82cb-2bce8a158392","system_id":"levelo_inurba_marseille","lat":43.29575,"lon":5.3674,"is_reserved":false,"is_disabled":false,"rental_uris":{"android":"levelo://app?vid=d309806f-aac7-41fd-82cb-2bce8a158392","ios":"levelo://app?vid=d309806f-aac7-41fd-82cb-2bce8a158392"},"vehicle_type_id":"4","last_reported":1749679839,"current_range_meters":12400,"station_id":"ce4bgph2rcd13ifvqc2g","pricing_plan_id":"cebpf4jnsgd1na2vs0mg"},{"bike_id":"29c2b8b4-e70b-495b-884b-ff4efa476ea4","system_id":"levelo_inurba_marseille","lat":43.30425,"lon":5.39745,"is_reserved":false,"is_disabled":false,"rental_uris":{"android":"levelo://app?vid=29c2b8b4-e70b-495b-884b-ff4efa476ea4","ios":"levelo://app?vid=29c2b8b4-e70b-495b-884b-ff4efa476ea4"},"vehicle_type_id":"4","last_reported":1749679839,"current_range_meters":12400,"station_id":"ce4bh092rcd13ifvqd20","pricing_plan_id":"cebpf4jnsgd1na2vs0mg"},{"bike_id":"c3a82885-2b55-459d-82d6-8e2407740dab","system_id":"levelo_inurba_marseille","lat":43.2481,"lon":5.37455,"is_reserved":false,"is_disabled":false,"rental_uris":{"android":"levelo://app?vid=c3a82885-2b55-459d-82d6-8e2407740dab","ios":"levelo://app?vid=c3a82885-2b55-459d-82d6-8e2407740dab"},"vehicle_type_id":"4","last_reported":1749679839,"current_range_meters":12400,"station_id":"ce4bhgh2rcd13ifvqfb0","pricing_plan_id":"cebpf4jnsgd1na2vs0mg"},{"bike_id":"95226295-390a-455e-8146-aad5f5245ed7","system_id":"levelo_inurba_marseille","lat":43.24047,"lon":5.37772,"is_reserved":false,"is_disabled":false,"rental_uris":{"android":"levelo://app?vid=95226295-390a-455e-8146-aad5f5245ed7","ios":"levelo://app?vid=95226295-390a-455e-8146-aad5f5245ed7"},"vehicle_type_id":"4","last_reported":1749679839,"current_range_meters":12400,"station_id":"ce4bhnp2rcd13ifvqgvg","pricing_plan_id":"cebpf4jnsgd1na2vs0mg"},{"bike_id":"e5ff82fd-cc37-4e1f-aade-050998fb0f61","system_id":"levelo_inurba_marseille","lat":43.26269,"lon":5.371,"is_reserved":false,"is_disabled":false,"rental_uris":{"android":"levelo://app?vid=e5ff82fd-cc37-4e1f-aade-050998fb0f61","ios":"levelo://app?vid=e5ff82fd-cc37-4e1f-aade-050998fb0f61"},"vehicle_type_id":"4","last_reported":1749679839,"current_range_meters":12800,"station_id":"","pricing_plan_id":"cebpf4jnsgd1na2vs0mg"},{"bike_id":"cafff114-e1e2-4b5f-9486-fde9f41cc12e","system_id":"levelo_inurba_marseille","lat":43.29595,"lon":5.38109,"is_reserved":false,"is_disabled":false,"rental_uris":{"android":"levelo://app?vid=cafff114-e1e2-4b5f-9486-fde9f41cc12e","ios":"levelo://app?vid=cafff114-e1e2-4b5f-9486-fde9f41cc12e"},"vehicle_type_id":"4","last_reported":1749679839,"current_range_meters":12800,"station_id":"ce4bgl12rcd13ifvqbo0","pricing_plan_id":"cebpf4jnsgd1na2vs0mg"},{"bike_id":"3d7919ac-dc76-4b66-a621-58a6535441da","system_id":"levelo_inurba_marseille","lat":43.30868,"lon":5.39642,"is_reserved":false,"is_disabled":false,"rental_uris":{"android":"levelo://app?vid=3d7919ac-dc76-4b66-a621-58a6535441da","ios":"levelo://app?vid=3d7919ac-dc76-4b66-a621-58a6535441da"},"vehicle_type_id":"4","last_reported":1749679839,"current_range_meters":12800,"station_id":"ce4bh012rcd13ifvqcv0","pricing_plan_id":"cebpf4jnsgd1na2vs0mg"},{"bike_id":"6b849b35-ce32-41a7-92b1-1a776a9081c6","system_id":"levelo_inurba_marseille","lat":43.30205,"lon":5.39467,"is_reserved":false,"is_disabled":false,"rental_uris":{"android":"levelo://app?vid=6b849b35-ce32-41a7-92b1-1a776a9081c6","ios":"levelo://app?vid=6b849b35-ce32-41a7-92b1-1a776a9081c6"},"vehicle_type_id":"4","last_reported":1749679839,"current_range_meters":12800,"station_id":"ce4bh0p2rcd13ifvqd70","pricing_plan_id":"cebpf4jnsgd1na2vs0mg"},{"bike_id":"0ae4f5e6-b319-4c3b-901c-6610ac77ab83","system_id":"levelo_inurba_marseille","lat":43.28429,"lon":5.37521,"is_reserved":false,"is_disabled":false,"rental_uris":{"android":"levelo://app?vid=0ae4f5e6-b319-4c3b-901c-6610ac77ab83","ios":"levelo://app?vid=0ae4f5e6-b319-4c3b-901c-6610ac77ab83"},"vehicle_type_id":"4","last_reported":1749679839,"current_range_meters":12800,"station_id":"ce4bh412rcd13ifvqds0","pricing_plan_id":"cebpf4jnsgd1na2vs0mg"},{"bike_id":"c3261b61-b189-4dd9-abd1-3510ab665569","system_id":"levelo_inurba_marseille","lat":43.31717,"lon":5.42395,"is_reserved":false,"is_disabled":false,"rental_uris":{"android":"levelo://app?vid=c3261b61-b189-4dd9-abd1-3510ab665569","ios":"levelo://app?vid=c3261b61-b189-4dd9-abd1-3510ab665569"},"vehicle_type_id":"4","last_reported":1749679839,"current_range_meters":12800,"station_id":"ce4bhp92rcd13ifvqhbg","pricing_plan_id":"cebpf4jnsgd1na2vs0mg"},{"bike_id":"a2421370-e442-436f-a98a-844d44299694","system_id":"levelo_inurba_marseille","lat":43.32376,"lon":5.36768,"is_reserved":false,"is_disabled":false,"rental_uris":{"android":"levelo://app?vid=a2421370-e442-436f-a98a-844d44299694","ios":"levelo://app?vid=a2421370-e442-436f-a98a-844d44299694"},"vehicle_type_id":"4","last_reported":1749679839,"current_range_meters":12800,"station_id":"ce4bhsh2rcd13ifvqi2g","pricing_plan_id":"cebpf4jnsgd1na2vs0mg"},{"bike_id":"64fb63da-c8a1-4b07-bc53-c1f4246d8cbd","system_id":"levelo_inurba_marseille","lat":43.29527,"lon":5.38546,"is_reserved":false,"is_disabled":false,"rental_uris":{"android":"levelo://app?vid=64fb63da-c8a1-4b07-bc53-c1f4246d8cbd","ios":"levelo://app?vid=64fb63da-c8a1-4b07-bc53-c1f4246d8cbd"},"vehicle_type_id":"4","last_reported":1749679839,"current_range_meters":13600,"station_id":"ce4bgih2rcd13ifvqba0","pricing_plan_id":"cebpf4jnsgd1na2vs0mg"},{"bike_id":"20127c5d-4874-4161-8bab-51d1c92e1849","system_id":"levelo_inurba_marseille","lat":43.284698,"lon":5.385418,"is_reserved":false,"is_disabled":false,"rental_uris":{"android":"levelo://app?vid=20127c5d-4874-4161-8bab-51d1c92e1849","ios":"levelo://app?vid=20127c5d-4874-4161-8bab-51d1c92e1849"},"vehicle_type_id":"4","last_reported":1749679839,"current_range_meters":13600,"station_id":"ce4bh492rcd13ifvqdvg","pricing_plan_id":"cebpf4jnsgd1na2vs0mg"},{"bike_id":"363f5577-43ff-4826-877e-71480d24717f","system_id":"levelo_inurba_marseille","lat":43.27832,"lon":5.39197,"is_reserved":false,"is_disabled":false,"rental_uris":{"android":"levelo://app?vid=363f5577-43ff-4826-877e-71480d24717f","ios":"levelo://app?vid=363f5577-43ff-4826-877e-71480d24717f"},"vehicle_type_id":"4","last_reported":1749679839,"current_range_meters":13600,"station_id":"ce4bhjp2rcd13ifvqga0","pricing_plan_id":"cebpf4jnsgd1na2vs0mg"},{"bike_id":"6dfd5595-654e-42ee-8e58-2a5c3df13ff8","system_id":"levelo_inurba_marseille","lat":43.309332,"lon":5.372546,"is_reserved":false,"is_disabled":false,"rental_uris":{"android":"levelo://app?vid=6dfd5595-654e-42ee-8e58-2a5c3df13ff8","ios":"levelo://app?vid=6dfd5595-654e-42ee-8e58-2a5c3df13ff8"},"vehicle_type_id":"4","last_reported":1749679839,"current_range_meters":14000,"station_id":"","pricing_plan_id":"cebpf4jnsgd1na2vs0mg"},{"bike_id":"d3923928-08ee-4a69-9831-4457692e6558","system_id":"levelo_inurba_marseille","lat":43.31113,"lon":5.37772,"is_reserved":false,"is_disabled":false,"rental_uris":{"android":"levelo://app?vid=d3923928-08ee-4a69-9831-4457692e6558","ios":"levelo://app?vid=d3923928-08ee-4a69-9831-4457692e6558"},"vehicle_type_id":"4","last_reported":1749679839,"current_range_meters":14000,"station_id":"ce4bgt92rcd13ifvqcg0","pricing_plan_id":"cebpf4jnsgd1na2vs0mg"},{"bike_id":"7e487999-e9de-4fcc-9894-153ae154d28c","system_id":"levelo_inurba_marseille","lat":43.3116,"lon":5.3872,"is_reserved":false,"is_disabled":false,"rental_uris":{"android":"levelo://app?vid=7e487999-e9de-4fcc-9894-153ae154d28c","ios":"levelo://app?vid=7e487999-e9de-4fcc-9894-153ae154d28c"},"vehicle_type_id":"4","last_reported":1749679839,"current_range_meters":14000,"station_id":"ce4bgv12rcd13ifvqcp0","pricing_plan_id":"cebpf4jnsgd1na2vs0mg"},{"bike_id":"d14ca4c0-1ff5-4140-8553-a4d927f06a40","system_id":"levelo_inurba_marseille","lat":43.3093,"lon":5.40142,"is_reserved":false,"is_disabled":false,"rental_uris":{"android":"levelo://app?vid=d14ca4c0-1ff5-4140-8553-a4d927f06a40","ios":"levelo://app?vid=d14ca4c0-1ff5-4140-8553-a4d927f06a40"},"vehicle_type_id":"4","last_reported":1749679839,"current_range_meters":14000,"station_id":"ce4bgvp2rcd13ifvqct0","pricing_plan_id":"cebpf4jnsgd1na2vs0mg"},{"bike_id":"2be63284-cb38-46a6-a6ba-195c9f10f7e7","system_id":"levelo_inurba_marseille","lat":43.28367,"lon":5.38634,"is_reserved":false,"is_disabled":false,"rental_uris":{"android":"levelo://app?vid=2be63284-cb38-46a6-a6ba-195c9f10f7e7","ios":"levelo://app?vid=2be63284-cb38-46a6-a6ba-195c9f10f7e7"},"vehicle_type_id":"4","last_reported":1749679839,"current_range_meters":14000,"station_id":"ce4bh492rcd13ifvqdvg","pricing_plan_id":"cebpf4jnsgd1na2vs0mg"},{"bike_id":"ad166b06-df9f-4f4b-a5c2-8316b6c42dca","system_id":"levelo_inurba_marseille","lat":43.287178,"lon":5.379255,"is_reserved":false,"is_disabled":false,"rental_uris":{"android":"levelo://app?vid=ad166b06-df9f-4f4b-a5c2-8316b6c42dca","ios":"levelo://app?vid=ad166b06-df9f-4f4b-a5c2-8316b6c42dca"},"vehicle_type_id":"4","last_reported":1749679839,"current_range_meters":14000,"station_id":"ce4bh9p2rcd13ifvqec0","pricing_plan_id":"cebpf4jnsgd1na2vs0mg"},{"bike_id":"afb8a5bf-d075-4663-974b-912abfce6349","system_id":"levelo_inurba_marseille","lat":43.30437,"lon":5.38888,"is_reserved":false,"is_disabled":false,"rental_uris":{"android":"levelo://app?vid=afb8a5bf-d075-4663-974b-912abfce6349","ios":"levelo://app?vid=afb8a5bf-d075-4663-974b-912abfce6349"},"vehicle_type_id":"4","last_reported":1749679839,"current_range_meters":14400,"station_id":"ce4bgk12rcd13ifvqbi0","pricing_plan_id":"cebpf4jnsgd1na2vs0mg"},{"bike_id":"c9bf68a9-3353-43a2-8402-1ef0d18dd3cb","system_id":"levelo_inurba_marseille","lat":43.30653,"lon":5.40072,"is_reserved":false,"is_disabled":false,"rental_uris":{"android":"levelo://app?vid=c9bf68a9-3353-43a2-8402-1ef0d18dd3cb","ios":"levelo://app?vid=c9bf68a9-3353-43a2-8402-1ef0d18dd3cb"},"vehicle_type_id":"4","last_reported":1749679839,"current_range_meters":14400,"station_id":"ce4bh112rcd13ifvqda0","pricing_plan_id":"cebpf4jnsgd1na2vs0mg"},{"bike_id":"352eeac2-f340-4bf0-82cc-bf2e8b05ac32","system_id":"levelo_inurba_marseille","lat":43.28569,"lon":5.395023,"is_reserved":false,"is_disabled":false,"rental_uris":{"android":"levelo://app?vid=352eeac2-f340-4bf0-82cc-bf2e8b05ac32","ios":"levelo://app?vid=352eeac2-f340-4bf0-82cc-bf2e8b05ac32"},"vehicle_type_id":"4","last_reported":1749679839,"current_range_meters":14400,"station_id":"ce4bh292rcd13ifvqdg0","pricing_plan_id":"cebpf4jnsgd1na2vs0mg"},{"bike_id":"31200291-47bf-431e-91e3-79950d99df32","system_id":"levelo_inurba_marseille","lat":43.2893,"lon":5.39629,"is_reserved":false,"is_disabled":false,"rental_uris":{"android":"levelo://app?vid=31200291-47bf-431e-91e3-79950d99df32","ios":"levelo://app?vid=31200291-47bf-431e-91e3-79950d99df32"},"vehicle_type_id":"4","last_reported":1749679839,"current_range_meters":14400,"station_id":"ce4bh3h2rcd13ifvqdn0","pricing_plan_id":"cebpf4jnsgd1na2vs0mg"},{"bike_id":"9c4a0444-28e0-484a-b039-866323a5e05e","system_id":"levelo_inurba_marseille","lat":43.29042,"lon":5.37566,"is_reserved":false,"is_disabled":false,"rental_uris":{"android":"levelo://app?vid=9c4a0444-28e0-484a-b039-866323a5e05e","ios":"levelo://app?vid=9c4a0444-28e0-484a-b039-866323a5e05e"},"vehicle_type_id":"4","last_reported":1749679839,"current_range_meters":14400,"station_id":"ce4bh692rcd13ifvqe90","pricing_plan_id":"cebpf4jnsgd1na2vs0mg"},{"bike_id":"b4066818-921b-4ded-a2e2-5e7e671ad7aa","system_id":"levelo_inurba_marseille","lat":43.25083,"lon":5.3951,"is_reserved":false,"is_disabled":false,"rental_uris":{"android":"levelo://app?vid=b4066818-921b-4ded-a2e2-5e7e671ad7aa","ios":"levelo://app?vid=b4066818-921b-4ded-a2e2-5e7e671ad7aa"},"vehicle_type_id":"4","last_reported":1749679839,"current_range_meters":14400,"station_id":"ce4bhm12rcd13ifvqgkg","pricing_plan_id":"cebpf4jnsgd1na2vs0mg"},{"bike_id":"3cecdb27-f374-4cfb-a4ab-7ad608d45b43","system_id":"levelo_inurba_marseille","lat":43.30593,"lon":5.37211,"is_reserved":false,"is_disabled":false,"rental_uris":{"android":"levelo://app?vid=3cecdb27-f374-4cfb-a4ab-7ad608d45b43","ios":"levelo://app?vid=3cecdb27-f374-4cfb-a4ab-7ad608d45b43"},"vehicle_type_id":"4","last_reported":1749679839,"current_range_meters":14800,"station_id":"ce4bgqh2rcd13ifvqc4g","pricing_plan_id":"cebpf4jnsgd1na2vs0mg"},{"bike_id":"4479432c-b1b3-42cb-8b74-13d45fd3d4f6","system_id":"levelo_inurba_marseille","lat":43.30306,"lon":5.36883,"is_reserved":false,"is_disabled":false,"rental_uris":{"android":"levelo://app?vid=4479432c-b1b3-42cb-8b74-13d45fd3d4f6","ios":"levelo://app?vid=4479432c-b1b3-42cb-8b74-13d45fd3d4f6"},"vehicle_type_id":"4","last_reported":1749679839,"current_range_meters":14800,"station_id":"ce4bgqh2rcd13ifvqc5g","pricing_plan_id":"cebpf4jnsgd1na2vs0mg"},{"bike_id":"82ce6e41-06cf-4ba0-a0bc-05b205f01b0b","system_id":"levelo_inurba_marseille","lat":43.295191,"lon":5.394115,"is_reserved":false,"is_disabled":false,"rental_uris":{"android":"levelo://app?vid=82ce6e41-06cf-4ba0-a0bc-05b205f01b0b","ios":"levelo://app?vid=82ce6e41-06cf-4ba0-a0bc-05b205f01b0b"},"vehicle_type_id":"4","last_reported":1749679839,"current_range_meters":14800,"station_id":"ce4bh292rcd13ifvqdf0","pricing_plan_id":"cebpf4jnsgd1na2vs0mg"},{"bike_id":"38b695fe-e2ae-4bf4-b703-4b01241940c9","system_id":"levelo_inurba_marseille","lat":43.25115,"lon":5.40325,"is_reserved":false,"is_disabled":false,"rental_uris":{"android":"levelo://app?vid=38b695fe-e2ae-4bf4-b703-4b01241940c9","ios":"levelo://app?vid=38b695fe-e2ae-4bf4-b703-4b01241940c9"},"vehicle_type_id":"4","last_reported":1749679839,"current_range_meters":14800,"station_id":"ce4bhlh2rcd13ifvqgig","pricing_plan_id":"cebpf4jnsgd1na2vs0mg"},{"bike_id":"048f2f2b-8e86-4fe8-80fa-0a30dafb1ed2","system_id":"levelo_inurba_marseille","lat":43.298596,"lon":5.362928,"is_reserved":false,"is_disabled":false,"rental_uris":{"android":"levelo://app?vid=048f2f2b-8e86-4fe8-80fa-0a30dafb1ed2","ios":"levelo://app?vid=048f2f2b-8e86-4fe8-80fa-0a30dafb1ed2"},"vehicle_type_id":"4","last_reported":1749679839,"current_range_meters":15200,"station_id":"","pricing_plan_id":"cebpf4jnsgd1na2vs0mg"},{"bike_id":"a63a44e1-3691-4845-8be6-9085725b266d","system_id":"levelo_inurba_marseille","lat":43.31311,"lon":5.37546,"is_reserved":false,"is_disabled":false,"rental_uris":{"android":"levelo://app?vid=a63a44e1-3691-4845-8be6-9085725b266d","ios":"levelo://app?vid=a63a44e1-3691-4845-8be6-9085725b266d"},"vehicle_type_id":"4","last_reported":1749679839,"current_range_meters":15200,"station_id":"","pricing_plan_id":"cebpf4jnsgd1na2vs0mg"},{"bike_id":"bd58138a-6dba-486f-9249-0e6d4bdf3d51","system_id":"levelo_inurba_marseille","lat":43.29216,"lon":5.38063,"is_reserved":false,"is_disabled":false,"rental_uris":{"android":"levelo://app?vid=bd58138a-6dba-486f-9249-0e6d4bdf3d51","ios":"levelo://app?vid=bd58138a-6dba-486f-9249-0e6d4bdf3d51"},"vehicle_type_id":"4","last_reported":1749679839,"current_range_meters":15200,"station_id":"","pricing_plan_id":"cebpf4jnsgd1na2vs0mg"},{"bike_id":"c8acc72b-5ece-4e56-907d-33af210c0702","system_id":"levelo_inurba_marseille","lat":43.26208,"lon":5.37039,"is_reserved":false,"is_disabled":false,"rental_uris":{"android":"levelo://app?vid=c8acc72b-5ece-4e56-907d-33af210c0702","ios":"levelo://app?vid=c8acc72b-5ece-4e56-907d-33af210c0702"},"vehicle_type_id":"4","last_reported":1749679839,"current_range_meters":15200,"station_id":"","pricing_plan_id":"cebpf4jnsgd1na2vs0mg"},{"bike_id":"0ab81f65-c952-45b8-99b1-40c4f3385c2b","system_id":"levelo_inurba_marseille","lat":43.31113,"lon":5.37779,"is_reserved":false,"is_disabled":false,"rental_uris":{"android":"levelo://app?vid=0ab81f65-c952-45b8-99b1-40c4f3385c2b","ios":"levelo://app?vid=0ab81f65-c952-45b8-99b1-40c4f3385c2b"},"vehicle_type_id":"4","last_reported":1749679839,"current_range_meters":15200,"station_id":"ce4bgt92rcd13ifvqcg0","pricing_plan_id":"cebpf4jnsgd1na2vs0mg"},{"bike_id":"f59870a9-58ba-4502-93ba-1f1160ebd789","system_id":"levelo_inurba_marseille","lat":43.31065,"lon":5.38339,"is_reserved":false,"is_disabled":false,"rental_uris":{"android":"levelo://app?vid=f59870a9-58ba-4502-93ba-1f1160ebd789","ios":"levelo://app?vid=f59870a9-58ba-4502-93ba-1f1160ebd789"},"vehicle_type_id":"4","last_reported":1749679839,"current_range_meters":15200,"station_id":"ce4bgv92rcd13ifvqcr0","pricing_plan_id":"cebpf4jnsgd1na2vs0mg"},{"bike_id":"c1f50d61-672b-4319-8e90-1ccaf3dfe250","system_id":"levelo_inurba_marseille","lat":43.31372,"lon":5.39672,"is_reserved":false,"is_disabled":false,"rental_uris":{"android":"levelo://app?vid=c1f50d61-672b-4319-8e90-1ccaf3dfe250","ios":"levelo://app?vid=c1f50d61-672b-4319-8e90-1ccaf3dfe250"},"vehicle_type_id":"4","last_reported":1749679839,"current_range_meters":15200,"station_id":"ce4bgvp2rcd13ifvqcu0","pricing_plan_id":"cebpf4jnsgd1na2vs0mg"},{"bike_id":"165ecccf-321b-45ee-abfd-553d9801aac0","system_id":"levelo_inurba_marseille","lat":43.29052,"lon":5.35595,"is_reserved":false,"is_disabled":false,"rental_uris":{"android":"levelo://app?vid=165ecccf-321b-45ee-abfd-553d9801aac0","ios":"levelo://app?vid=165ecccf-321b-45ee-abfd-553d9801aac0"},"vehicle_type_id":"4","last_reported":1749679839,"current_range_meters":15200,"station_id":"ce4bhb92rcd13ifvqen0","pricing_plan_id":"cebpf4jnsgd1na2vs0mg"},{"bike_id":"9638801f-645e-4a0f-ab0c-a2818e13e548","system_id":"levelo_inurba_marseille","lat":43.28099,"lon":5.37896,"is_reserved":false,"is_disabled":false,"rental_uris":{"android":"levelo://app?vid=9638801f-645e-4a0f-ab0c-a2818e13e548","ios":"levelo://app?vid=9638801f-645e-4a0f-ab0c-a2818e13e548"},"vehicle_type_id":"4","last_reported":1749679839,"current_range_meters":16000,"station_id":"","pricing_plan_id":"cebpf4jnsgd1na2vs0mg"},{"bike_id":"51c9c3d1-050f-47d1-8726-c1814cd19d79","system_id":"levelo_inurba_marseille","lat":43.31246,"lon":5.38921,"is_reserved":false,"is_disabled":false,"rental_uris":{"android":"levelo://app?vid=51c9c3d1-050f-47d1-8726-c1814cd19d79","ios":"levelo://app?vid=51c9c3d1-050f-47d1-8726-c1814cd19d79"},"vehicle_type_id":"4","last_reported":1749679839,"current_range_meters":16000,"station_id":"","pricing_plan_id":"cebpf4jnsgd1na2vs0mg"},{"bike_id":"6dc9f382-50fa-4d1f-b08c-12f3bb4a7055","system_id":"levelo_inurba_marseille","lat":43.30435,"lon":5.38889,"is_reserved":false,"is_disabled":false,"rental_uris":{"android":"levelo://app?vid=6dc9f382-50fa-4d1f-b08c-12f3bb4a7055","ios":"levelo://app?vid=6dc9f382-50fa-4d1f-b08c-12f3bb4a7055"},"vehicle_type_id":"4","last_reported":1749679839,"current_range_meters":16000,"station_id":"ce4bgk12rcd13ifvqbi0","pricing_plan_id":"cebpf4jnsgd1na2vs0mg"},{"bike_id":"467b65a4-5a46-49bd-b43b-f1752a867cb8","system_id":"levelo_inurba_marseille","lat":43.29713,"lon":5.36617,"is_reserved":false,"is_disabled":false,"rental_uris":{"android":"levelo://app?vid=467b65a4-5a46-49bd-b43b-f1752a867cb8","ios":"levelo://app?vid=467b65a4-5a46-49bd-b43b-f1752a867cb8"},"vehicle_type_id":"4","last_reported":1749679839,"current_range_meters":16000,"station_id":"ce4bgn12rcd13ifvqbt0","pricing_plan_id":"cebpf4jnsgd1na2vs0mg"},{"bike_id":"f9408c59-41fb-4165-bfb6-1758a26a1825","system_id":"levelo_inurba_marseille","lat":43.29756,"lon":5.3711,"is_reserved":false,"is_disabled":false,"rental_uris":{"android":"levelo://app?vid=f9408c59-41fb-4165-bfb6-1758a26a1825","ios":"levelo://app?vid=f9408c59-41fb-4165-bfb6-1758a26a1825"},"vehicle_type_id":"4","last_reported":1749679839,"current_range_meters":16000,"station_id":"ce4bgop2rcd13ifvqc1g","pricing_plan_id":"cebpf4jnsgd1na2vs0mg"},{"bike_id":"a09eab35-3951-48ed-8ba6-4778e465b83a","system_id":"levelo_inurba_marseille","lat":43.30126,"lon":5.39875,"is_reserved":false,"is_disabled":false,"rental_uris":{"android":"levelo://app?vid=a09eab35-3951-48ed-8ba6-4778e465b83a","ios":"levelo://app?vid=a09eab35-3951-48ed-8ba6-4778e465b83a"},"vehicle_type_id":"4","last_reported":1749679839,"current_range_meters":16000,"station_id":"ce4bh0h2rcd13ifvqd40","pricing_plan_id":"cebpf4jnsgd1na2vs0mg"},{"bike_id":"00e80b5b-9ba8-4d44-93ae-7aabaf6dc5c7","system_id":"levelo_inurba_marseille","lat":43.24801,"lon":5.37457,"is_reserved":false,"is_disabled":false,"rental_uris":{"android":"levelo://app?vid=00e80b5b-9ba8-4d44-93ae-7aabaf6dc5c7","ios":"levelo://app?vid=00e80b5b-9ba8-4d44-93ae-7aabaf6dc5c7"},"vehicle_type_id":"4","last_reported":1749679839,"current_range_meters":16000,"station_id":"ce4bhgh2rcd13ifvqfb0","pricing_plan_id":"cebpf4jnsgd1na2vs0mg"},{"bike_id":"743245d4-5457-49b9-9efc-d95c90d69b8e","system_id":"levelo_inurba_marseille","lat":43.314873,"lon":5.373081,"is_reserved":false,"is_disabled":false,"rental_uris":{"android":"levelo://app?vid=743245d4-5457-49b9-9efc-d95c90d69b8e","ios":"levelo://app?vid=743245d4-5457-49b9-9efc-d95c90d69b8e"},"vehicle_type_id":"4","last_reported":1749679839,"current_range_meters":16000,"station_id":"ce4bhip2rcd13ifvqft0","pricing_plan_id":"cebpf4jnsgd1na2vs0mg"},{"bike_id":"500320f2-e4bb-4906-a414-ca67470055ab","system_id":"levelo_inurba_marseille","lat":43.25635,"lon":5.38612,"is_reserved":false,"is_disabled":false,"rental_uris":{"android":"levelo://app?vid=500320f2-e4bb-4906-a414-ca67470055ab","ios":"levelo://app?vid=500320f2-e4bb-4906-a414-ca67470055ab"},"vehicle_type_id":"4","last_reported":1749679839,"current_range_meters":16400,"station_id":"","pricing_plan_id":"cebpf4jnsgd1na2vs0mg"},{"bike_id":"501fe5cc-ec9f-4031-8e12-9c9a87dfd25d","system_id":"levelo_inurba_marseille","lat":43.31776,"lon":5.40619,"is_reserved":false,"is_disabled":false,"rental_uris":{"android":"levelo://app?vid=501fe5cc-ec9f-4031-8e12-9c9a87dfd25d","ios":"levelo://app?vid=501fe5cc-ec9f-4031-8e12-9c9a87dfd25d"},"vehicle_type_id":"4","last_reported":1749679839,"current_range_meters":16400,"station_id":"","pricing_plan_id":"cebpf4jnsgd1na2vs0mg"},{"bike_id":"ef4b3f6f-96f1-4234-a50d-b4c9dd787743","system_id":"levelo_inurba_marseille","lat":43.30887,"lon":5.39617,"is_reserved":false,"is_disabled":false,"rental_uris":{"android":"levelo://app?vid=ef4b3f6f-96f1-4234-a50d-b4c9dd787743","ios":"levelo://app?vid=ef4b3f6f-96f1-4234-a50d-b4c9dd787743"},"vehicle_type_id":"4","last_reported":1749679839,"current_range_meters":16400,"station_id":"ce4bh012rcd13ifvqcv0","pricing_plan_id":"cebpf4jnsgd1na2vs0mg"},{"bike_id":"020d0ec9-e8cc-4fc2-be42-2947e6f108eb","system_id":"levelo_inurba_marseille","lat":43.2857,"lon":5.39481,"is_reserved":false,"is_disabled":false,"rental_uris":{"android":"levelo://app?vid=020d0ec9-e8cc-4fc2-be42-2947e6f108eb","ios":"levelo://app?vid=020d0ec9-e8cc-4fc2-be42-2947e6f108eb"},"vehicle_type_id":"4","last_reported":1749679839,"current_range_meters":16400,"station_id":"ce4bh292rcd13ifvqdg0","pricing_plan_id":"cebpf4jnsgd1na2vs0mg"},{"bike_id":"5c530aba-f703-400e-86fd-e8c778778888","system_id":"levelo_inurba_marseille","lat":43.28689,"lon":5.38662,"is_reserved":false,"is_disabled":false,"rental_uris":{"android":"levelo://app?vid=5c530aba-f703-400e-86fd-e8c778778888","ios":"levelo://app?vid=5c530aba-f703-400e-86fd-e8c778778888"},"vehicle_type_id":"4","last_reported":1749679839,"current_range_meters":16400,"station_id":"ce4bh492rcd13ifvqdug","pricing_plan_id":"cebpf4jnsgd1na2vs0mg"},{"bike_id":"2ca1969c-8f7c-43af-b3c2-63d41c5528de","system_id":"levelo_inurba_marseille","lat":43.24388,"lon":5.37069,"is_reserved":false,"is_disabled":false,"rental_uris":{"android":"levelo://app?vid=2ca1969c-8f7c-43af-b3c2-63d41c5528de","ios":"levelo://app?vid=2ca1969c-8f7c-43af-b3c2-63d41c5528de"},"vehicle_type_id":"4","last_reported":1749679839,"current_range_meters":16400,"station_id":"ce4bhhh2rcd13ifvqfk0","pricing_plan_id":"cebpf4jnsgd1na2vs0mg"},{"bike_id":"d665cf93-d005-4a69-ade5-22d2ab25dd5a","system_id":"levelo_inurba_marseille","lat":43.25113,"lon":5.40315,"is_reserved":false,"is_disabled":false,"rental_uris":{"android":"levelo://app?vid=d665cf93-d005-4a69-ade5-22d2ab25dd5a","ios":"levelo://app?vid=d665cf93-d005-4a69-ade5-22d2ab25dd5a"},"vehicle_type_id":"4","last_reported":1749679839,"current_range_meters":16400,"station_id":"ce4bhlh2rcd13ifvqgig","pricing_plan_id":"cebpf4jnsgd1na2vs0mg"},{"bike_id":"a1ff6074-f159-4eaf-9b2e-24e3a3db1dc0","system_id":"levelo_inurba_marseille","lat":43.24069,"lon":5.37746,"is_reserved":false,"is_disabled":false,"rental_uris":{"android":"levelo://app?vid=a1ff6074-f159-4eaf-9b2e-24e3a3db1dc0","ios":"levelo://app?vid=a1ff6074-f159-4eaf-9b2e-24e3a3db1dc0"},"vehicle_type_id":"4","last_reported":1749679839,"current_range_meters":16400,"station_id":"ce4bhnp2rcd13ifvqgvg","pricing_plan_id":"cebpf4jnsgd1na2vs0mg"},{"bike_id":"e0249f4b-8d8b-4dc7-a224-9ea697947c37","system_id":"levelo_inurba_marseille","lat":43.317134,"lon":5.424078,"is_reserved":false,"is_disabled":false,"rental_uris":{"android":"levelo://app?vid=e0249f4b-8d8b-4dc7-a224-9ea697947c37","ios":"levelo://app?vid=e0249f4b-8d8b-4dc7-a224-9ea697947c37"},"vehicle_type_id":"4","last_reported":1749679839,"current_range_meters":16400,"station_id":"ce4bhp92rcd13ifvqhbg","pricing_plan_id":"cebpf4jnsgd1na2vs0mg"},{"bike_id":"ce81f804-a274-484f-a641-28706f036e77","system_id":"levelo_inurba_marseille","lat":43.31883,"lon":5.40788,"is_reserved":false,"is_disabled":false,"rental_uris":{"android":"levelo://app?vid=ce81f804-a274-484f-a641-28706f036e77","ios":"levelo://app?vid=ce81f804-a274-484f-a641-28706f036e77"},"vehicle_type_id":"4","last_reported":1749679839,"current_range_meters":16400,"station_id":"ce4bhq12rcd13ifvqhig","pricing_plan_id":"cebpf4jnsgd1na2vs0mg"},{"bike_id":"c0bd4251-d527-48a7-9378-e4e80c1c274f","system_id":"levelo_inurba_marseille","lat":43.31817,"lon":5.37367,"is_reserved":false,"is_disabled":false,"rental_uris":{"android":"levelo://app?vid=c0bd4251-d527-48a7-9378-e4e80c1c274f","ios":"levelo://app?vid=c0bd4251-d527-48a7-9378-e4e80c1c274f"},"vehicle_type_id":"4","last_reported":1749679839,"current_range_meters":16800,"station_id":"","pricing_plan_id":"cebpf4jnsgd1na2vs0mg"},{"bike_id":"6fa832c6-ab61-40e4-801a-74d55b5f371f","system_id":"levelo_inurba_marseille","lat":43.30214,"lon":5.39474,"is_reserved":false,"is_disabled":false,"rental_uris":{"android":"levelo://app?vid=6fa832c6-ab61-40e4-801a-74d55b5f371f","ios":"levelo://app?vid=6fa832c6-ab61-40e4-801a-74d55b5f371f"},"vehicle_type_id":"4","last_reported":1749679839,"current_range_meters":16800,"station_id":"ce4bh0p2rcd13ifvqd70","pricing_plan_id":"cebpf4jnsgd1na2vs0mg"},{"bike_id":"68fa96a7-070b-42f3-acba-d0723f1474f3","system_id":"levelo_inurba_marseille","lat":43.29864,"lon":5.39741,"is_reserved":false,"is_disabled":false,"rental_uris":{"android":"levelo://app?vid=68fa96a7-070b-42f3-acba-d0723f1474f3","ios":"levelo://app?vid=68fa96a7-070b-42f3-acba-d0723f1474f3"},"vehicle_type_id":"4","last_reported":1749679839,"current_range_meters":17200,"station_id":"ce4bh0h2rcd13ifvqd50","pricing_plan_id":"cebpf4jnsgd1na2vs0mg"},{"bike_id":"e63beba0-ce9e-47e7-99a9-ab56ebac07fe","system_id":"levelo_inurba_marseille","lat":43.27812,"lon":5.40714,"is_reserved":false,"is_disabled":false,"rental_uris":{"android":"levelo://app?vid=e63beba0-ce9e-47e7-99a9-ab56ebac07fe","ios":"levelo://app?vid=e63beba0-ce9e-47e7-99a9-ab56ebac07fe"},"vehicle_type_id":"4","last_reported":1749679839,"current_range_meters":17200,"station_id":"ce4bhnh2rcd13ifvqgtg","pricing_plan_id":"cebpf4jnsgd1na2vs0mg"},{"bike_id":"cd0aaed2-0bcb-4c70-9ae5-22bb3661cc02","system_id":"levelo_inurba_marseille","lat":43.28446,"lon":5.39176,"is_reserved":false,"is_disabled":false,"rental_uris":{"android":"levelo://app?vid=cd0aaed2-0bcb-4c70-9ae5-22bb3661cc02","ios":"levelo://app?vid=cd0aaed2-0bcb-4c70-9ae5-22bb3661cc02"},"vehicle_type_id":"4","last_reported":1749679839,"current_range_meters":17200,"station_id":"ce4bhoh2rcd13ifvqh5g","pricing_plan_id":"cebpf4jnsgd1na2vs0mg"},{"bike_id":"7d7170dd-d55e-43db-a9c2-1ed74c433fd7","system_id":"levelo_inurba_marseille","lat":43.309986,"lon":5.420031,"is_reserved":false,"is_disabled":false,"rental_uris":{"android":"levelo://app?vid=7d7170dd-d55e-43db-a9c2-1ed74c433fd7","ios":"levelo://app?vid=7d7170dd-d55e-43db-a9c2-1ed74c433fd7"},"vehicle_type_id":"4","last_reported":1749679839,"current_range_meters":17600,"station_id":"","pricing_plan_id":"cebpf4jnsgd1na2vs0mg"},{"bike_id":"f9983561-ae6a-47ab-b8d0-d4bab0ffcca8","system_id":"levelo_inurba_marseille","lat":43.30784,"lon":5.37647,"is_reserved":false,"is_disabled":false,"rental_uris":{"android":"levelo://app?vid=f9983561-ae6a-47ab-b8d0-d4bab0ffcca8","ios":"levelo://app?vid=f9983561-ae6a-47ab-b8d0-d4bab0ffcca8"},"vehicle_type_id":"4","last_reported":1749679839,"current_range_meters":17600,"station_id":"ce4bgv92rcd13ifvqcq0","pricing_plan_id":"cebpf4jnsgd1na2vs0mg"},{"bike_id":"afd7c744-c063-415e-abc8-82568e138369","system_id":"levelo_inurba_marseille","lat":43.29025,"lon":5.3864,"is_reserved":false,"is_disabled":false,"rental_uris":{"android":"levelo://app?vid=afd7c744-c063-415e-abc8-82568e138369","ios":"levelo://app?vid=afd7c744-c063-415e-abc8-82568e138369"},"vehicle_type_id":"4","last_reported":1749679839,"current_range_meters":17600,"station_id":"ce4bh4p2rcd13ifvqe0g","pricing_plan_id":"cebpf4jnsgd1na2vs0mg"},{"bike_id":"6dc3aff0-fee0-40cc-bebc-cd861cce4f06","system_id":"levelo_inurba_marseille","lat":43.32347,"lon":5.40638,"is_reserved":false,"is_disabled":false,"rental_uris":{"android":"levelo://app?vid=6dc3aff0-fee0-40cc-bebc-cd861cce4f06","ios":"levelo://app?vid=6dc3aff0-fee0-40cc-bebc-cd861cce4f06"},"vehicle_type_id":"4","last_reported":1749679839,"current_range_meters":17600,"station_id":"ce4bhq92rcd13ifvqhjg","pricing_plan_id":"cebpf4jnsgd1na2vs0mg"},{"bike_id":"45cb9171-bb7e-418e-bf45-5916b7d21e5e","system_id":"levelo_inurba_marseille","lat":43.32164,"lon":5.36676,"is_reserved":false,"is_disabled":false,"rental_uris":{"android":"levelo://app?vid=45cb9171-bb7e-418e-bf45-5916b7d21e5e","ios":"levelo://app?vid=45cb9171-bb7e-418e-bf45-5916b7d21e5e"},"vehicle_type_id":"4","last_reported":1749679839,"current_range_meters":17600,"station_id":"ce4bhrh2rcd13ifvqhug","pricing_plan_id":"cebpf4jnsgd1na2vs0mg"},{"bike_id":"04658abe-5e35-48bd-9c19-17843a60f13c","system_id":"levelo_inurba_marseille","lat":43.29782,"lon":5.39349,"is_reserved":false,"is_disabled":false,"rental_uris":{"android":"levelo://app?vid=04658abe-5e35-48bd-9c19-17843a60f13c","ios":"levelo://app?vid=04658abe-5e35-48bd-9c19-17843a60f13c"},"vehicle_type_id":"4","last_reported":1749679839,"current_range_meters":17600,"station_id":"chh1huq6cuj3fo74tm60","pricing_plan_id":"cebpf4jnsgd1na2vs0mg"},{"bike_id":"7003b93c-725d-412e-9127-fbade718cbc3","system_id":"levelo_inurba_marseille","lat":43.21175,"lon":5.35073,"is_reserved":false,"is_disabled":false,"rental_uris":{"android":"levelo://app?vid=7003b93c-725d-412e-9127-fbade718cbc3","ios":"levelo://app?vid=7003b93c-725d-412e-9127-fbade718cbc3"},"vehicle_type_id":"4","last_reported":1749679839,"current_range_meters":17600,"station_id":"st_cvj6sg6p6f1abm77japg","pricing_plan_id":"cebpf4jnsgd1na2vs0mg"},{"bike_id":"e5ef7447-82af-477b-846f-d44631249354","system_id":"levelo_inurba_marseille","lat":43.32508,"lon":5.38822,"is_reserved":false,"is_disabled":false,"rental_uris":{"android":"levelo://app?vid=e5ef7447-82af-477b-846f-d44631249354","ios":"levelo://app?vid=e5ef7447-82af-477b-846f-d44631249354"},"vehicle_type_id":"4","last_reported":1749679839,"current_range_meters":18000,"station_id":"","pricing_plan_id":"cebpf4jnsgd1na2vs0mg"},{"bike_id":"a15aa3ab-66bc-492a-800c-d77f3fa188cb","system_id":"levelo_inurba_marseille","lat":43.27617,"lon":5.36109,"is_reserved":false,"is_disabled":false,"rental_uris":{"android":"levelo://app?vid=a15aa3ab-66bc-492a-800c-d77f3fa188cb","ios":"levelo://app?vid=a15aa3ab-66bc-492a-800c-d77f3fa188cb"},"vehicle_type_id":"4","last_reported":1749679839,"current_range_meters":18000,"station_id":"ce4bgj92rcd13ifvqbe0","pricing_plan_id":"cebpf4jnsgd1na2vs0mg"},{"bike_id":"aa13d5ce-8bd4-4601-b2a8-4bc642b8dee1","system_id":"levelo_inurba_marseille","lat":43.30954,"lon":5.39028,"is_reserved":false,"is_disabled":false,"rental_uris":{"android":"levelo://app?vid=aa13d5ce-8bd4-4601-b2a8-4bc642b8dee1","ios":"levelo://app?vid=aa13d5ce-8bd4-4601-b2a8-4bc642b8dee1"},"vehicle_type_id":"4","last_reported":1749679839,"current_range_meters":18000,"station_id":"ce4bgup2rcd13ifvqco0","pricing_plan_id":"cebpf4jnsgd1na2vs0mg"},{"bike_id":"f85b2c50-4d2b-4d55-957c-2751e1f8c7c4","system_id":"levelo_inurba_marseille","lat":43.31327,"lon":5.39725,"is_reserved":false,"is_disabled":false,"rental_uris":{"android":"levelo://app?vid=f85b2c50-4d2b-4d55-957c-2751e1f8c7c4","ios":"levelo://app?vid=f85b2c50-4d2b-4d55-957c-2751e1f8c7c4"},"vehicle_type_id":"4","last_reported":1749679839,"current_range_meters":18000,"station_id":"ce4bgvp2rcd13ifvqcu0","pricing_plan_id":"cebpf4jnsgd1na2vs0mg"},{"bike_id":"d152427f-44a0-40b6-8807-dee7fdb74a77","system_id":"levelo_inurba_marseille","lat":43.30128,"lon":5.39896,"is_reserved":false,"is_disabled":false,"rental_uris":{"android":"levelo://app?vid=d152427f-44a0-40b6-8807-dee7fdb74a77","ios":"levelo://app?vid=d152427f-44a0-40b6-8807-dee7fdb74a77"},"vehicle_type_id":"4","last_reported":1749679839,"current_range_meters":18000,"station_id":"ce4bh0h2rcd13ifvqd40","pricing_plan_id":"cebpf4jnsgd1na2vs0mg"},{"bike_id":"539f11ca-157c-45bf-b844-883f1c2efebd","system_id":"levelo_inurba_marseille","lat":43.30135,"lon":5.39881,"is_reserved":false,"is_disabled":false,"rental_uris":{"android":"levelo://app?vid=539f11ca-157c-45bf-b844-883f1c2efebd","ios":"levelo://app?vid=539f11ca-157c-45bf-b844-883f1c2efebd"},"vehicle_type_id":"4","last_reported":1749679839,"current_range_meters":18000,"station_id":"ce4bh0h2rcd13ifvqd40","pricing_plan_id":"cebpf4jnsgd1na2vs0mg"},{"bike_id":"63c841b4-dd43-4cf7-88f9-e65452a9fc1e","system_id":"levelo_inurba_marseille","lat":43.28415,"lon":5.37536,"is_reserved":false,"is_disabled":false,"rental_uris":{"android":"levelo://app?vid=63c841b4-dd43-4cf7-88f9-e65452a9fc1e","ios":"levelo://app?vid=63c841b4-dd43-4cf7-88f9-e65452a9fc1e"},"vehicle_type_id":"4","last_reported":1749679839,"current_range_meters":18000,"station_id":"ce4bh412rcd13ifvqds0","pricing_plan_id":"cebpf4jnsgd1na2vs0mg"},{"bike_id":"ed53a5a1-21c3-4274-bf4a-9581f017f746","system_id":"levelo_inurba_marseille","lat":43.29102,"lon":5.38148,"is_reserved":false,"is_disabled":false,"rental_uris":{"android":"levelo://app?vid=ed53a5a1-21c3-4274-bf4a-9581f017f746","ios":"levelo://app?vid=ed53a5a1-21c3-4274-bf4a-9581f017f746"},"vehicle_type_id":"4","last_reported":1749679839,"current_range_meters":18000,"station_id":"ce4bh512rcd13ifvqe2g","pricing_plan_id":"cebpf4jnsgd1na2vs0mg"},{"bike_id":"0b657f3a-f03c-41cb-ac04-c6d366f32629","system_id":"levelo_inurba_marseille","lat":43.2898,"lon":5.37834,"is_reserved":false,"is_disabled":false,"rental_uris":{"android":"levelo://app?vid=0b657f3a-f03c-41cb-ac04-c6d366f32629","ios":"levelo://app?vid=0b657f3a-f03c-41cb-ac04-c6d366f32629"},"vehicle_type_id":"4","last_reported":1749679839,"current_range_meters":18000,"station_id":"ce4bh9p2rcd13ifvqed0","pricing_plan_id":"cebpf4jnsgd1na2vs0mg"},{"bike_id":"03203f85-37b9-4eb8-9ab2-e8084ef7e1a4","system_id":"levelo_inurba_marseille","lat":43.2917,"lon":5.37169,"is_reserved":false,"is_disabled":false,"rental_uris":{"android":"levelo://app?vid=03203f85-37b9-4eb8-9ab2-e8084ef7e1a4","ios":"levelo://app?vid=03203f85-37b9-4eb8-9ab2-e8084ef7e1a4"},"vehicle_type_id":"4","last_reported":1749679839,"current_range_meters":18000,"station_id":"ce4bha92rcd13ifvqeh0","pricing_plan_id":"cebpf4jnsgd1na2vs0mg"},{"bike_id":"b49560cb-77a4-45c6-8293-d64552d7c846","system_id":"levelo_inurba_marseille","lat":43.24647,"lon":5.38893,"is_reserved":false,"is_disabled":false,"rental_uris":{"android":"levelo://app?vid=b49560cb-77a4-45c6-8293-d64552d7c846","ios":"levelo://app?vid=b49560cb-77a4-45c6-8293-d64552d7c846"},"vehicle_type_id":"4","last_reported":1749679839,"current_range_meters":18000,"station_id":"ce4bhg12rcd13ifvqf60","pricing_plan_id":"cebpf4jnsgd1na2vs0mg"},{"bike_id":"77cdd126-f0bc-4d70-9f6a-8c7d78de7186","system_id":"levelo_inurba_marseille","lat":43.23966,"lon":5.36634,"is_reserved":false,"is_disabled":false,"rental_uris":{"android":"levelo://app?vid=77cdd126-f0bc-4d70-9f6a-8c7d78de7186","ios":"levelo://app?vid=77cdd126-f0bc-4d70-9f6a-8c7d78de7186"},"vehicle_type_id":"4","last_reported":1749679839,"current_range_meters":18000,"station_id":"ce4bhi12rcd13ifvqfp0","pricing_plan_id":"cebpf4jnsgd1na2vs0mg"},{"bike_id":"d58c7574-3e8e-4827-9fd4-868c5d18663a","system_id":"levelo_inurba_marseille","lat":43.270731,"lon":5.42279,"is_reserved":false,"is_disabled":false,"rental_uris":{"android":"levelo://app?vid=d58c7574-3e8e-4827-9fd4-868c5d18663a","ios":"levelo://app?vid=d58c7574-3e8e-4827-9fd4-868c5d18663a"},"vehicle_type_id":"4","last_reported":1749679839,"current_range_meters":18000,"station_id":"ce4bhk92rcd13ifvqgb0","pricing_plan_id":"cebpf4jnsgd1na2vs0mg"},{"bike_id":"d908b527-03f5-4349-83a0-09814ef08a7f","system_id":"levelo_inurba_marseille","lat":43.23148,"lon":5.43724,"is_reserved":false,"is_disabled":false,"rental_uris":{"android":"levelo://app?vid=d908b527-03f5-4349-83a0-09814ef08a7f","ios":"levelo://app?vid=d908b527-03f5-4349-83a0-09814ef08a7f"},"vehicle_type_id":"4","last_reported":1749679839,"current_range_meters":18000,"station_id":"ce4bhmp2rcd13ifvqgog","pricing_plan_id":"cebpf4jnsgd1na2vs0mg"},{"bike_id":"a2d9eb1d-3dc6-4e09-ad1a-6be02ed0ca28","system_id":"levelo_inurba_marseille","lat":43.278057,"lon":5.406954,"is_reserved":false,"is_disabled":false,"rental_uris":{"android":"levelo://app?vid=a2d9eb1d-3dc6-4e09-ad1a-6be02ed0ca28","ios":"levelo://app?vid=a2d9eb1d-3dc6-4e09-ad1a-6be02ed0ca28"},"vehicle_type_id":"4","last_reported":1749679839,"current_range_meters":18000,"station_id":"ce4bhnh2rcd13ifvqgtg","pricing_plan_id":"cebpf4jnsgd1na2vs0mg"},{"bike_id":"6e464720-93b0-4699-80fe-881649eb71cd","system_id":"levelo_inurba_marseille","lat":43.23229,"lon":5.35582,"is_reserved":false,"is_disabled":false,"rental_uris":{"android":"levelo://app?vid=6e464720-93b0-4699-80fe-881649eb71cd","ios":"levelo://app?vid=6e464720-93b0-4699-80fe-881649eb71cd"},"vehicle_type_id":"4","last_reported":1749679839,"current_range_meters":18000,"station_id":"ce4bhu92rcd13ifvqi70","pricing_plan_id":"cebpf4jnsgd1na2vs0mg"},{"bike_id":"d24133ff-b3b7-4bc8-975b-6c012903b7dd","system_id":"levelo_inurba_marseille","lat":43.31186,"lon":5.36922,"is_reserved":false,"is_disabled":false,"rental_uris":{"android":"levelo://app?vid=d24133ff-b3b7-4bc8-975b-6c012903b7dd","ios":"levelo://app?vid=d24133ff-b3b7-4bc8-975b-6c012903b7dd"},"vehicle_type_id":"4","last_reported":1749679839,"current_range_meters":18800,"station_id":"","pricing_plan_id":"cebpf4jnsgd1na2vs0mg"},{"bike_id":"1268e070-f02d-4537-93df-0bfd5c4daa05","system_id":"levelo_inurba_marseille","lat":43.32696,"lon":5.37672,"is_reserved":false,"is_disabled":false,"rental_uris":{"android":"levelo://app?vid=1268e070-f02d-4537-93df-0bfd5c4daa05","ios":"levelo://app?vid=1268e070-f02d-4537-93df-0bfd5c4daa05"},"vehicle_type_id":"4","last_reported":1749679839,"current_range_meters":18800,"station_id":"","pricing_plan_id":"cebpf4jnsgd1na2vs0mg"},{"bike_id":"1989215c-378c-442b-a262-e4741c2e9de7","system_id":"levelo_inurba_marseille","lat":43.302339,"lon":5.403679,"is_reserved":false,"is_disabled":false,"rental_uris":{"android":"levelo://app?vid=1989215c-378c-442b-a262-e4741c2e9de7","ios":"levelo://app?vid=1989215c-378c-442b-a262-e4741c2e9de7"},"vehicle_type_id":"4","last_reported":1749679839,"current_range_meters":18800,"station_id":"","pricing_plan_id":"cebpf4jnsgd1na2vs0mg"},{"bike_id":"a93e8923-8038-44e9-ad9d-107cb2b6f89f","system_id":"levelo_inurba_marseille","lat":43.31323,"lon":5.39688,"is_reserved":false,"is_disabled":false,"rental_uris":{"android":"levelo://app?vid=a93e8923-8038-44e9-ad9d-107cb2b6f89f","ios":"levelo://app?vid=a93e8923-8038-44e9-ad9d-107cb2b6f89f"},"vehicle_type_id":"4","last_reported":1749679839,"current_range_meters":18800,"station_id":"ce4bgvp2rcd13ifvqcu0","pricing_plan_id":"cebpf4jnsgd1na2vs0mg"},{"bike_id":"a9ac56c8-9ea0-4087-bd60-93e32a572465","system_id":"levelo_inurba_marseille","lat":43.30122,"lon":5.39866,"is_reserved":false,"is_disabled":false,"rental_uris":{"android":"levelo://app?vid=a9ac56c8-9ea0-4087-bd60-93e32a572465","ios":"levelo://app?vid=a9ac56c8-9ea0-4087-bd60-93e32a572465"},"vehicle_type_id":"4","last_reported":1749679839,"current_range_meters":18800,"station_id":"ce4bh0h2rcd13ifvqd40","pricing_plan_id":"cebpf4jnsgd1na2vs0mg"},{"bike_id":"493dd0d1-8380-4d7b-9951-b9b6ff5ec966","system_id":"levelo_inurba_marseille","lat":43.28101,"lon":5.37836,"is_reserved":false,"is_disabled":false,"rental_uris":{"android":"levelo://app?vid=493dd0d1-8380-4d7b-9951-b9b6ff5ec966","ios":"levelo://app?vid=493dd0d1-8380-4d7b-9951-b9b6ff5ec966"},"vehicle_type_id":"4","last_reported":1749679839,"current_range_meters":18800,"station_id":"ce4bha12rcd13ifvqee0","pricing_plan_id":"cebpf4jnsgd1na2vs0mg"},{"bike_id":"bc825332-6518-41f9-9026-19b416d1d0ee","system_id":"levelo_inurba_marseille","lat":43.28028,"lon":5.36946,"is_reserved":false,"is_disabled":false,"rental_uris":{"android":"levelo://app?vid=bc825332-6518-41f9-9026-19b416d1d0ee","ios":"levelo://app?vid=bc825332-6518-41f9-9026-19b416d1d0ee"},"vehicle_type_id":"4","last_reported":1749679839,"current_range_meters":18800,"station_id":"ce4bha12rcd13ifvqef0","pricing_plan_id":"cebpf4jnsgd1na2vs0mg"},{"bike_id":"7aadb33f-87aa-40f3-86ca-34d2886e1622","system_id":"levelo_inurba_marseille","lat":43.28235,"lon":5.35069,"is_reserved":false,"is_disabled":false,"rental_uris":{"android":"levelo://app?vid=7aadb33f-87aa-40f3-86ca-34d2886e1622","ios":"levelo://app?vid=7aadb33f-87aa-40f3-86ca-34d2886e1622"},"vehicle_type_id":"4","last_reported":1749679839,"current_range_meters":18800,"station_id":"ce4bhbp2rcd13ifvqerg","pricing_plan_id":"cebpf4jnsgd1na2vs0mg"},{"bike_id":"9871dc12-477e-4af8-a4ca-d525f8106469","system_id":"levelo_inurba_marseille","lat":43.24053,"lon":5.37772,"is_reserved":false,"is_disabled":false,"rental_uris":{"android":"levelo://app?vid=9871dc12-477e-4af8-a4ca-d525f8106469","ios":"levelo://app?vid=9871dc12-477e-4af8-a4ca-d525f8106469"},"vehicle_type_id":"4","last_reported":1749679839,"current_range_meters":18800,"station_id":"ce4bhnp2rcd13ifvqgvg","pricing_plan_id":"cebpf4jnsgd1na2vs0mg"},{"bike_id":"70f62699-63a4-484f-8a39-434a239bfbda","system_id":"levelo_inurba_marseille","lat":43.28707,"lon":5.39996,"is_reserved":false,"is_disabled":false,"rental_uris":{"android":"levelo://app?vid=70f62699-63a4-484f-8a39-434a239bfbda","ios":"levelo://app?vid=70f62699-63a4-484f-8a39-434a239bfbda"},"vehicle_type_id":"4","last_reported":1749679839,"current_range_meters":18800,"station_id":"ce4bho92rcd13ifvqh3g","pricing_plan_id":"cebpf4jnsgd1na2vs0mg"},{"bike_id":"1e963f0b-0dce-4a38-9406-2a1b1c6196c3","system_id":"levelo_inurba_marseille","lat":43.3361,"lon":5.41036,"is_reserved":false,"is_disabled":false,"rental_uris":{"android":"levelo://app?vid=1e963f0b-0dce-4a38-9406-2a1b1c6196c3","ios":"levelo://app?vid=1e963f0b-0dce-4a38-9406-2a1b1c6196c3"},"vehicle_type_id":"4","last_reported":1749679839,"current_range_meters":18800,"station_id":"ce4bhqh2rcd13ifvqhmg","pricing_plan_id":"cebpf4jnsgd1na2vs0mg"},{"bike_id":"c81ce172-8397-4e94-b7fc-6ca6c456c4c8","system_id":"levelo_inurba_marseille","lat":43.296022,"lon":5.380908,"is_reserved":false,"is_disabled":false,"rental_uris":{"android":"levelo://app?vid=c81ce172-8397-4e94-b7fc-6ca6c456c4c8","ios":"levelo://app?vid=c81ce172-8397-4e94-b7fc-6ca6c456c4c8"},"vehicle_type_id":"4","last_reported":1749679839,"current_range_meters":19200,"station_id":"ce4bgl12rcd13ifvqbo0","pricing_plan_id":"cebpf4jnsgd1na2vs0mg"},{"bike_id":"3460e0fc-7e7e-4b91-a0da-8ad163c14ab4","system_id":"levelo_inurba_marseille","lat":43.30324,"lon":5.40434,"is_reserved":false,"is_disabled":false,"rental_uris":{"android":"levelo://app?vid=3460e0fc-7e7e-4b91-a0da-8ad163c14ab4","ios":"levelo://app?vid=3460e0fc-7e7e-4b91-a0da-8ad163c14ab4"},"vehicle_type_id":"4","last_reported":1749679839,"current_range_meters":19200,"station_id":"ce4bh012rcd13ifvqd10","pricing_plan_id":"cebpf4jnsgd1na2vs0mg"},{"bike_id":"c186f42c-3678-4966-aad5-bd6bc36d9b3c","system_id":"levelo_inurba_marseille","lat":43.29515,"lon":5.394,"is_reserved":false,"is_disabled":false,"rental_uris":{"android":"levelo://app?vid=c186f42c-3678-4966-aad5-bd6bc36d9b3c","ios":"levelo://app?vid=c186f42c-3678-4966-aad5-bd6bc36d9b3c"},"vehicle_type_id":"4","last_reported":1749679839,"current_range_meters":19200,"station_id":"ce4bh292rcd13ifvqdf0","pricing_plan_id":"cebpf4jnsgd1na2vs0mg"},{"bike_id":"10d685d8-b11c-42dc-91ae-a20021b01a2a","system_id":"levelo_inurba_marseille","lat":43.29018,"lon":5.38627,"is_reserved":false,"is_disabled":false,"rental_uris":{"android":"levelo://app?vid=10d685d8-b11c-42dc-91ae-a20021b01a2a","ios":"levelo://app?vid=10d685d8-b11c-42dc-91ae-a20021b01a2a"},"vehicle_type_id":"4","last_reported":1749679839,"current_range_meters":19200,"station_id":"ce4bh4p2rcd13ifvqe0g","pricing_plan_id":"cebpf4jnsgd1na2vs0mg"},{"bike_id":"622fb8b6-0abf-4787-9418-d15270a460fa","system_id":"levelo_inurba_marseille","lat":43.27834,"lon":5.39203,"is_reserved":false,"is_disabled":false,"rental_uris":{"android":"levelo://app?vid=622fb8b6-0abf-4787-9418-d15270a460fa","ios":"levelo://app?vid=622fb8b6-0abf-4787-9418-d15270a460fa"},"vehicle_type_id":"4","last_reported":1749679839,"current_range_meters":19200,"station_id":"ce4bhjp2rcd13ifvqga0","pricing_plan_id":"cebpf4jnsgd1na2vs0mg"},{"bike_id":"4b029f1f-832a-4266-822d-2f0be0f047da","system_id":"levelo_inurba_marseille","lat":43.25081,"lon":5.39513,"is_reserved":false,"is_disabled":false,"rental_uris":{"android":"levelo://app?vid=4b029f1f-832a-4266-822d-2f0be0f047da","ios":"levelo://app?vid=4b029f1f-832a-4266-822d-2f0be0f047da"},"vehicle_type_id":"4","last_reported":1749679839,"current_range_meters":19200,"station_id":"ce4bhm12rcd13ifvqgkg","pricing_plan_id":"cebpf4jnsgd1na2vs0mg"},{"bike_id":"98e277c9-7fd5-4eba-9b6c-b0df896d9b57","system_id":"levelo_inurba_marseille","lat":43.26225,"lon":5.40457,"is_reserved":false,"is_disabled":false,"rental_uris":{"android":"levelo://app?vid=98e277c9-7fd5-4eba-9b6c-b0df896d9b57","ios":"levelo://app?vid=98e277c9-7fd5-4eba-9b6c-b0df896d9b57"},"vehicle_type_id":"4","last_reported":1749679839,"current_range_meters":19200,"station_id":"ce4bhmh2rcd13ifvqgmg","pricing_plan_id":"cebpf4jnsgd1na2vs0mg"},{"bike_id":"fda8c9a5-12ba-444a-b338-669d2a7622ec","system_id":"levelo_inurba_marseille","lat":43.24077,"lon":5.37755,"is_reserved":false,"is_disabled":false,"rental_uris":{"android":"levelo://app?vid=fda8c9a5-12ba-444a-b338-669d2a7622ec","ios":"levelo://app?vid=fda8c9a5-12ba-444a-b338-669d2a7622ec"},"vehicle_type_id":"4","last_reported":1749679839,"current_range_meters":19200,"station_id":"ce4bhnp2rcd13ifvqgvg","pricing_plan_id":"cebpf4jnsgd1na2vs0mg"},{"bike_id":"4ccaa2ba-a346-480c-be21-84244adbd1d7","system_id":"levelo_inurba_marseille","lat":43.28708,"lon":5.39983,"is_reserved":false,"is_disabled":false,"rental_uris":{"android":"levelo://app?vid=4ccaa2ba-a346-480c-be21-84244adbd1d7","ios":"levelo://app?vid=4ccaa2ba-a346-480c-be21-84244adbd1d7"},"vehicle_type_id":"4","last_reported":1749679839,"current_range_meters":19200,"station_id":"ce4bho92rcd13ifvqh3g","pricing_plan_id":"cebpf4jnsgd1na2vs0mg"},{"bike_id":"35733ac5-1a87-435f-bdd3-fb5ec7a34be5","system_id":"levelo_inurba_marseille","lat":43.29554,"lon":5.42279,"is_reserved":false,"is_disabled":false,"rental_uris":{"android":"levelo://app?vid=35733ac5-1a87-435f-bdd3-fb5ec7a34be5","ios":"levelo://app?vid=35733ac5-1a87-435f-bdd3-fb5ec7a34be5"},"vehicle_type_id":"4","last_reported":1749679839,"current_range_meters":19200,"station_id":"ce4bhph2rcd13ifvqhdg","pricing_plan_id":"cebpf4jnsgd1na2vs0mg"},{"bike_id":"346f3f80-6b15-4406-b905-bb78596f5bac","system_id":"levelo_inurba_marseille","lat":43.32343,"lon":5.3674,"is_reserved":false,"is_disabled":false,"rental_uris":{"android":"levelo://app?vid=346f3f80-6b15-4406-b905-bb78596f5bac","ios":"levelo://app?vid=346f3f80-6b15-4406-b905-bb78596f5bac"},"vehicle_type_id":"4","last_reported":1749679839,"current_range_meters":19200,"station_id":"ce4bhsh2rcd13ifvqi2g","pricing_plan_id":"cebpf4jnsgd1na2vs0mg"},{"bike_id":"592dbed5-138e-47e5-8362-0eaa307ebc76","system_id":"levelo_inurba_marseille","lat":43.26796,"lon":5.40255,"is_reserved":false,"is_disabled":false,"rental_uris":{"android":"levelo://app?vid=592dbed5-138e-47e5-8362-0eaa307ebc76","ios":"levelo://app?vid=592dbed5-138e-47e5-8362-0eaa307ebc76"},"vehicle_type_id":"4","last_reported":1749679839,"current_range_meters":19200,"station_id":"ce501612rcd8frsf0b60","pricing_plan_id":"cebpf4jnsgd1na2vs0mg"},{"bike_id":"e6210a02-7cdf-4294-a0f3-702a30e538de","system_id":"levelo_inurba_marseille","lat":43.303,"lon":5.39211,"is_reserved":false,"is_disabled":false,"rental_uris":{"android":"levelo://app?vid=e6210a02-7cdf-4294-a0f3-702a30e538de","ios":"levelo://app?vid=e6210a02-7cdf-4294-a0f3-702a30e538de"},"vehicle_type_id":"4","last_reported":1749679839,"current_range_meters":19600,"station_id":"ce4bgkh2rcd13ifvqbk0","pricing_plan_id":"cebpf4jnsgd1na2vs0mg"},{"bike_id":"76567d45-9b29-4262-9050-2a792d15e6c5","system_id":"levelo_inurba_marseille","lat":43.30802,"lon":5.38157,"is_reserved":false,"is_disabled":false,"rental_uris":{"android":"levelo://app?vid=76567d45-9b29-4262-9050-2a792d15e6c5","ios":"levelo://app?vid=76567d45-9b29-4262-9050-2a792d15e6c5"},"vehicle_type_id":"4","last_reported":1749679839,"current_range_meters":19600,"station_id":"ce4bgt12rcd13ifvqce0","pricing_plan_id":"cebpf4jnsgd1na2vs0mg"},{"bike_id":"327c3204-0acc-4766-ba0a-475a1dec9be8","system_id":"levelo_inurba_marseille","lat":43.30888,"lon":5.372,"is_reserved":false,"is_disabled":false,"rental_uris":{"android":"levelo://app?vid=327c3204-0acc-4766-ba0a-475a1dec9be8","ios":"levelo://app?vid=327c3204-0acc-4766-ba0a-475a1dec9be8"},"vehicle_type_id":"4","last_reported":1749679839,"current_range_meters":19600,"station_id":"ce4bguh2rcd13ifvqckg","pricing_plan_id":"cebpf4jnsgd1na2vs0mg"},{"bike_id":"2fa540f0-1603-4922-a05b-55a5a600892f","system_id":"levelo_inurba_marseille","lat":43.31328,"lon":5.39716,"is_reserved":false,"is_disabled":false,"rental_uris":{"android":"levelo://app?vid=2fa540f0-1603-4922-a05b-55a5a600892f","ios":"levelo://app?vid=2fa540f0-1603-4922-a05b-55a5a600892f"},"vehicle_type_id":"4","last_reported":1749679839,"current_range_meters":19600,"station_id":"ce4bgvp2rcd13ifvqcu0","pricing_plan_id":"cebpf4jnsgd1na2vs0mg"},{"bike_id":"bcd89233-1e1c-4a78-9e22-65ee0974cb7c","system_id":"levelo_inurba_marseille","lat":43.25119,"lon":5.40313,"is_reserved":false,"is_disabled":false,"rental_uris":{"android":"levelo://app?vid=bcd89233-1e1c-4a78-9e22-65ee0974cb7c","ios":"levelo://app?vid=bcd89233-1e1c-4a78-9e22-65ee0974cb7c"},"vehicle_type_id":"4","last_reported":1749679839,"current_range_meters":19600,"station_id":"ce4bhlh2rcd13ifvqgig","pricing_plan_id":"cebpf4jnsgd1na2vs0mg"},{"bike_id":"41902e46-3363-402b-89a9-77321257c96b","system_id":"levelo_inurba_marseille","lat":43.323513,"lon":5.36754,"is_reserved":false,"is_disabled":false,"rental_uris":{"android":"levelo://app?vid=41902e46-3363-402b-89a9-77321257c96b","ios":"levelo://app?vid=41902e46-3363-402b-89a9-77321257c96b"},"vehicle_type_id":"4","last_reported":1749679839,"current_range_meters":19600,"station_id":"ce4bhsh2rcd13ifvqi2g","pricing_plan_id":"cebpf4jnsgd1na2vs0mg"},{"bike_id":"abd0d78f-a5d4-4339-93f7-6b3fc51d77c5","system_id":"levelo_inurba_marseille","lat":43.36367,"lon":5.35084,"is_reserved":false,"is_disabled":false,"rental_uris":{"android":"levelo://app?vid=abd0d78f-a5d4-4339-93f7-6b3fc51d77c5","ios":"levelo://app?vid=abd0d78f-a5d4-4339-93f7-6b3fc51d77c5"},"vehicle_type_id":"4","last_reported":1749679839,"current_range_meters":20000,"station_id":"","pricing_plan_id":"cebpf4jnsgd1na2vs0mg"},{"bike_id":"70995e7c-6d3e-430b-ba55-78b62858b66d","system_id":"levelo_inurba_marseille","lat":43.282806,"lon":5.361366,"is_reserved":false,"is_disabled":false,"rental_uris":{"android":"levelo://app?vid=70995e7c-6d3e-430b-ba55-78b62858b66d","ios":"levelo://app?vid=70995e7c-6d3e-430b-ba55-78b62858b66d"},"vehicle_type_id":"4","last_reported":1749679839,"current_range_meters":20000,"station_id":"","pricing_plan_id":"cebpf4jnsgd1na2vs0mg"},{"bike_id":"5f226394-5329-4140-a8ee-49a649afcb06","system_id":"levelo_inurba_marseille","lat":43.30137,"lon":5.38782,"is_reserved":false,"is_disabled":false,"rental_uris":{"android":"levelo://app?vid=5f226394-5329-4140-a8ee-49a649afcb06","ios":"levelo://app?vid=5f226394-5329-4140-a8ee-49a649afcb06"},"vehicle_type_id":"4","last_reported":1749679839,"current_range_meters":20000,"station_id":"ce4bghh2rcd13ifvqb60","pricing_plan_id":"cebpf4jnsgd1na2vs0mg"},{"bike_id":"1c7ebc83-1a0e-425d-8736-d3f3f00f592f","system_id":"levelo_inurba_marseille","lat":43.31118,"lon":5.37775,"is_reserved":false,"is_disabled":false,"rental_uris":{"android":"levelo://app?vid=1c7ebc83-1a0e-425d-8736-d3f3f00f592f","ios":"levelo://app?vid=1c7ebc83-1a0e-425d-8736-d3f3f00f592f"},"vehicle_type_id":"4","last_reported":1749679839,"current_range_meters":20000,"station_id":"ce4bgt92rcd13ifvqcg0","pricing_plan_id":"cebpf4jnsgd1na2vs0mg"},{"bike_id":"fca58039-ffd9-4a0f-b273-9d399fb35cb1","system_id":"levelo_inurba_marseille","lat":43.28571,"lon":5.39501,"is_reserved":false,"is_disabled":false,"rental_uris":{"android":"levelo://app?vid=fca58039-ffd9-4a0f-b273-9d399fb35cb1","ios":"levelo://app?vid=fca58039-ffd9-4a0f-b273-9d399fb35cb1"},"vehicle_type_id":"4","last_reported":1749679839,"current_range_meters":20000,"station_id":"ce4bh292rcd13ifvqdg0","pricing_plan_id":"cebpf4jnsgd1na2vs0mg"},{"bike_id":"0723efbb-ec20-4f94-90cb-c3f9fbe12f85","system_id":"levelo_inurba_marseille","lat":43.262,"lon":5.37929,"is_reserved":false,"is_disabled":false,"rental_uris":{"android":"levelo://app?vid=0723efbb-ec20-4f94-90cb-c3f9fbe12f85","ios":"levelo://app?vid=0723efbb-ec20-4f94-90cb-c3f9fbe12f85"},"vehicle_type_id":"4","last_reported":1749679839,"current_range_meters":20000,"station_id":"ce4bhjp2rcd13ifvqg90","pricing_plan_id":"cebpf4jnsgd1na2vs0mg"},{"bike_id":"ee81016d-ad9f-48d1-bb91-adbd39af694c","system_id":"levelo_inurba_marseille","lat":43.25101,"lon":5.40324,"is_reserved":false,"is_disabled":false,"rental_uris":{"android":"levelo://app?vid=ee81016d-ad9f-48d1-bb91-adbd39af694c","ios":"levelo://app?vid=ee81016d-ad9f-48d1-bb91-adbd39af694c"},"vehicle_type_id":"4","last_reported":1749679839,"current_range_meters":20000,"station_id":"ce4bhlh2rcd13ifvqgig","pricing_plan_id":"cebpf4jnsgd1na2vs0mg"},{"bike_id":"4e339489-98c6-4b43-ba77-2282421f1773","system_id":"levelo_inurba_marseille","lat":43.278281,"lon":5.408845,"is_reserved":false,"is_disabled":false,"rental_uris":{"android":"levelo://app?vid=4e339489-98c6-4b43-ba77-2282421f1773","ios":"levelo://app?vid=4e339489-98c6-4b43-ba77-2282421f1773"},"vehicle_type_id":"4","last_reported":1749679839,"current_range_meters":20000,"station_id":"ce4bhnh2rcd13ifvqgtg","pricing_plan_id":"cebpf4jnsgd1na2vs0mg"},{"bike_id":"07996148-05a2-4174-ba1b-1b7bdfa0b1be","system_id":"levelo_inurba_marseille","lat":43.3248,"lon":5.36568,"is_reserved":false,"is_disabled":false,"rental_uris":{"android":"levelo://app?vid=07996148-05a2-4174-ba1b-1b7bdfa0b1be","ios":"levelo://app?vid=07996148-05a2-4174-ba1b-1b7bdfa0b1be"},"vehicle_type_id":"4","last_reported":1749679839,"current_range_meters":20000,"station_id":"ce4bhs12rcd13ifvqhvg","pricing_plan_id":"cebpf4jnsgd1na2vs0mg"},{"bike_id":"ce493e26-1eea-41a3-a28a-ab83d76720e0","system_id":"levelo_inurba_marseille","lat":43.3053,"lon":5.38448,"is_reserved":false,"is_disabled":false,"rental_uris":{"android":"levelo://app?vid=ce493e26-1eea-41a3-a28a-ab83d76720e0","ios":"levelo://app?vid=ce493e26-1eea-41a3-a28a-ab83d76720e0"},"vehicle_type_id":"4","last_reported":1749679839,"current_range_meters":20400,"station_id":"ce4bgg92rcd13ifvqb30","pricing_plan_id":"cebpf4jnsgd1na2vs0mg"},{"bike_id":"0cb25d4e-b3b0-4d94-ac29-deadffa9d47b","system_id":"levelo_inurba_marseille","lat":43.29536,"lon":5.39043,"is_reserved":false,"is_disabled":false,"rental_uris":{"android":"levelo://app?vid=0cb25d4e-b3b0-4d94-ac29-deadffa9d47b","ios":"levelo://app?vid=0cb25d4e-b3b0-4d94-ac29-deadffa9d47b"},"vehicle_type_id":"4","last_reported":1749679839,"current_range_meters":20400,"station_id":"ce4bh3p2rcd13ifvqdp0","pricing_plan_id":"cebpf4jnsgd1na2vs0mg"},{"bike_id":"19b3bfa4-0564-4f71-9cf5-4b3fa965529e","system_id":"levelo_inurba_marseille","lat":43.2833,"lon":5.38088,"is_reserved":false,"is_disabled":false,"rental_uris":{"android":"levelo://app?vid=19b3bfa4-0564-4f71-9cf5-4b3fa965529e","ios":"levelo://app?vid=19b3bfa4-0564-4f71-9cf5-4b3fa965529e"},"vehicle_type_id":"4","last_reported":1749679839,"current_range_meters":20400,"station_id":"ce4bh412rcd13ifvqdr0","pricing_plan_id":"cebpf4jnsgd1na2vs0mg"},{"bike_id":"3bf9cf49-4e56-42a5-9e86-edbb0b7623c0","system_id":"levelo_inurba_marseille","lat":43.24651,"lon":5.38893,"is_reserved":false,"is_disabled":false,"rental_uris":{"android":"levelo://app?vid=3bf9cf49-4e56-42a5-9e86-edbb0b7623c0","ios":"levelo://app?vid=3bf9cf49-4e56-42a5-9e86-edbb0b7623c0"},"vehicle_type_id":"4","last_reported":1749679839,"current_range_meters":20400,"station_id":"ce4bhg12rcd13ifvqf60","pricing_plan_id":"cebpf4jnsgd1na2vs0mg"},{"bike_id":"202002a4-57dd-434d-9fcd-ae2c65c4afae","system_id":"levelo_inurba_marseille","lat":43.2794,"lon":5.41052,"is_reserved":false,"is_disabled":false,"rental_uris":{"android":"levelo://app?vid=202002a4-57dd-434d-9fcd-ae2c65c4afae","ios":"levelo://app?vid=202002a4-57dd-434d-9fcd-ae2c65c4afae"},"vehicle_type_id":"4","last_reported":1749679839,"current_range_meters":20400,"station_id":"ce4bhnp2rcd13ifvqh0g","pricing_plan_id":"cebpf4jnsgd1na2vs0mg"},{"bike_id":"556aaa96-518a-4411-890c-1f446c89f6e9","system_id":"levelo_inurba_marseille","lat":43.29791,"lon":5.39348,"is_reserved":false,"is_disabled":false,"rental_uris":{"android":"levelo://app?vid=556aaa96-518a-4411-890c-1f446c89f6e9","ios":"levelo://app?vid=556aaa96-518a-4411-890c-1f446c89f6e9"},"vehicle_type_id":"4","last_reported":1749679839,"current_range_meters":20400,"station_id":"chh1huq6cuj3fo74tm60","pricing_plan_id":"cebpf4jnsgd1na2vs0mg"},{"bike_id":"713f94e3-c67e-4836-bdd5-cfe7bb1b1281","system_id":"levelo_inurba_marseille","lat":43.22496,"lon":5.34792,"is_reserved":false,"is_disabled":false,"rental_uris":{"android":"levelo://app?vid=713f94e3-c67e-4836-bdd5-cfe7bb1b1281","ios":"levelo://app?vid=713f94e3-c67e-4836-bdd5-cfe7bb1b1281"},"vehicle_type_id":"4","last_reported":1749679839,"current_range_meters":20800,"station_id":"","pricing_plan_id":"cebpf4jnsgd1na2vs0mg"},{"bike_id":"72c4173c-3fe7-4070-a880-588808b7e554","system_id":"levelo_inurba_marseille","lat":43.27834,"lon":5.35444,"is_reserved":false,"is_disabled":false,"rental_uris":{"android":"levelo://app?vid=72c4173c-3fe7-4070-a880-588808b7e554","ios":"levelo://app?vid=72c4173c-3fe7-4070-a880-588808b7e554"},"vehicle_type_id":"4","last_reported":1749679839,"current_range_meters":20800,"station_id":"","pricing_plan_id":"cebpf4jnsgd1na2vs0mg"},{"bike_id":"6facbc0d-f1b5-4dc3-86d4-5c1204834925","system_id":"levelo_inurba_marseille","lat":43.28065,"lon":5.3481,"is_reserved":false,"is_disabled":false,"rental_uris":{"android":"levelo://app?vid=6facbc0d-f1b5-4dc3-86d4-5c1204834925","ios":"levelo://app?vid=6facbc0d-f1b5-4dc3-86d4-5c1204834925"},