{"last_updated":1753258610,"ttl":60,"version":"2.2","data":{"bikes":[{"bike_id":"b4dc4c32-4c64-4908-8212-fafcd101b903","system_id":"levelo_inurba_marseille","lat":43.25581,"lon":5.38232,"is_reserved":false,"is_disabled":false,"rental_uris":{"android":"levelo://app?vid=b4dc4c32-4c64-4908-8212-fafcd101b903","ios":"levelo://app?vid=b4dc4c32-4c64-4908-8212-fafcd101b903"},"vehicle_type_id":"4","last_reported":1753258610,"current_range_meters":2800,"station_id":"ce4bhih2rcd13ifvqfs0","pricing_plan_id":"cebpf4jnsgd1na2vs0mg"},{"bike_id":"90291150-07f2-44bc-b086-42d11f0a4e6b","system_id":"levelo_inurba_marseille","lat":43.24802,"lon":5.37443,"is_reserved":false,"is_disabled":false,"rental_uris":{"android":"levelo://app?vid=90291150-07f2-44bc-b086-42d11f0a4e6b","ios":"levelo://app?vid=90291150-07f2-44bc-b086-42d11f0a4e6b"},"vehicle_type_id":"4","last_reported":1753258610,"current_range_meters":2800,"station_id":"ce4bhgh2rcd13ifvqfb0","pricing_plan_id":"cebpf4jnsgd1na2vs0mg"},{"bike_id":"88282109-afe5-4285-8ab8-2e2400ae19e6","system_id":"levelo_inurba_marseille","lat":43.29514,"lon":5.3818,"is_reserved":false,"is_disabled":false,"rental_uris":{"android":"levelo://app?vid=88282109-afe5-4285-8ab8-2e2400ae19e6","ios":"levelo://app?vid=88282109-afe5-4285-8ab8-2e2400ae19e6"},"vehicle_type_id":"4","last_reported":1753258610,"current_range_meters":3200,"station_id":"","pricing_plan_id":"cebpf4jnsgd1na2vs0mg"},{"bike_id":"93b10926-98d6-476d-97fe-f620baf657e2","system_id":"levelo_inurba_marseille","lat":43.2795,"lon":5.41036,"is_reserved":false,"is_disabled":false,"rental_uris":{"android":"levelo://app?vid=93b10926-98d6-476d-97fe-f620baf657e2","ios":"levelo://app?vid=93b10926-98d6-476d-97fe-f620baf657e2"},"vehicle_type_id":"4","last_reported":1753258610,"current_range_meters":3200,"station_id":"ce4bhnp2rcd13ifvqh0g","pricing_plan_id":"cebpf4jnsgd1na2vs0mg"},{"bike_id":"374764e9-1483-4c39-a939-2017d46b717a","system_id":"levelo_inurba_marseille","lat":43.280405,"lon":5.350064,"is_reserved":false,"is_disabled":false,"rental_uris":{"android":"levelo://app?vid=374764e9-1483-4c39-a939-2017d46b717a","ios":"levelo://app?vid=374764e9-1483-4c39-a939-2017d46b717a"},"vehicle_type_id":"4","last_reported":1753258610,"current_range_meters":3600,"station_id":"","pricing_plan_id":"cebpf4jnsgd1na2vs0mg"},{"bike_id":"d52e3040-fe3b-46d3-a3a6-7d344241db96","system_id":"levelo_inurba_marseille","lat":43.30605,"lon":5.37215,"is_reserved":false,"is_disabled":false,"rental_uris":{"android":"levelo://app?vid=d52e3040-fe3b-46d3-a3a6-7d344241db96","ios":"levelo://app?vid=d52e3040-fe3b-46d3-a3a6-7d344241db96"},"vehicle_type_id":"4","last_reported":1753258610,"current_range_meters":3600,"station_id":"ce4bgqh2rcd13ifvqc4g","pricing_plan_id":"cebpf4jnsgd1na2vs0mg"},{"bike_id":"0f69e67c-2f40-4806-9a1c-0b483e2d5ccd","system_id":"levelo_inurba_marseille","lat":43.23197,"lon":5.35548,"is_reserved":false,"is_disabled":false,"rental_uris":{"android":"levelo://app?vid=0f69e67c-2f40-4806-9a1c-0b483e2d5ccd","ios":"levelo://app?vid=0f69e67c-2f40-4806-9a1c-0b483e2d5ccd"},"vehicle_type_id":"4","last_reported":1753258610,"current_range_meters":4400,"station_id":"ce4bhu92rcd13ifvqi70","pricing_plan_id":"cebpf4jnsgd1na2vs0mg"},{"bike_id":"42413a25-16d1-4419-b44a-45580e0c6ac6","system_id":"levelo_inurba_marseille","lat":43.33763,"lon":5.37482,"is_reserved":false,"is_disabled":false,"rental_uris":{"android":"levelo://app?vid=42413a25-16d1-4419-b44a-45580e0c6ac6","ios":"levelo://app?vid=42413a25-16d1-4419-b44a-45580e0c6ac6"},"vehicle_type_id":"4","last_reported":1753258610,"current_range_meters":4800,"station_id":"","pricing_plan_id":"cebpf4jnsgd1na2vs0mg"},{"bike_id":"3808bbbc-bf71-4de1-97ee-2481d526b56a","system_id":"levelo_inurba_marseille","lat":43.27064,"lon":5.42262,"is_reserved":false,"is_disabled":true,"rental_uris":{"android":"levelo://app?vid=3808bbbc-bf71-4de1-97ee-2481d526b56a","ios":"levelo://app?vid=3808bbbc-bf71-4de1-97ee-2481d526b56a"},"vehicle_type_id":"4","last_reported":1753258610,"current_range_meters":5600,"station_id":"ce4bhk92rcd13ifvqgb0","pricing_plan_id":"cebpf4jnsgd1na2vs0mg"},{"bike_id":"291026d9-5e70-4457-9891-0439b760e53a","system_id":"levelo_inurba_marseille","lat":43.26235,"lon":5.37444,"is_reserved":false,"is_disabled":false,"rental_uris":{"android":"levelo://app?vid=291026d9-5e70-4457-9891-0439b760e53a","ios":"levelo://app?vid=291026d9-5e70-4457-9891-0439b760e53a"},"vehicle_type_id":"4","last_reported":1753258610,"current_range_meters":5600,"station_id":"ce4bhgp2rcd13ifvqfc0","pricing_plan_id":"cebpf4jnsgd1na2vs0mg"},{"bike_id":"2b451820-cdbc-4155-a854-0b75d719dc0e","system_id":"levelo_inurba_marseille","lat":43.31689,"lon":5.40474,"is_reserved":false,"is_disabled":false,"rental_uris":{"android":"levelo://app?vid=2b451820-cdbc-4155-a854-0b75d719dc0e","ios":"levelo://app?vid=2b451820-cdbc-4155-a854-0b75d719dc0e"},"vehicle_type_id":"4","last_reported":1753258610,"current_range_meters":5600,"station_id":"ce4bh012rcd13ifvqd00","pricing_plan_id":"cebpf4jnsgd1na2vs0mg"},{"bike_id":"2ad9d163-9da4-42d8-bf6e-567f9b73cfad","system_id":"levelo_inurba_marseille","lat":43.32334,"lon":5.36712,"is_reserved":false,"is_disabled":false,"rental_uris":{"android":"levelo://app?vid=2ad9d163-9da4-42d8-bf6e-567f9b73cfad","ios":"levelo://app?vid=2ad9d163-9da4-42d8-bf6e-567f9b73cfad"},"vehicle_type_id":"4","last_reported":1753258610,"current_range_meters":6000,"station_id":"ce4bhsh2rcd13ifvqi2g","pricing_plan_id":"cebpf4jnsgd1na2vs0mg"},{"bike_id":"f81d648c-1981-4daf-be99-4792234208b2","system_id":"levelo_inurba_marseille","lat":43.262645,"lon":5.371692,"is_reserved":false,"is_disabled":false,"rental_uris":{"android":"levelo://app?vid=f81d648c-1981-4daf-be99-4792234208b2","ios":"levelo://app?vid=f81d648c-1981-4daf-be99-4792234208b2"},"vehicle_type_id":"4","last_reported":1753258610,"current_range_meters":6000,"station_id":"","pricing_plan_id":"cebpf4jnsgd1na2vs0mg"},{"bike_id":"0fafd977-991f-4719-9ea0-c37956655dad","system_id":"levelo_inurba_marseille","lat":43.3111,"lon":5.377494,"is_reserved":false,"is_disabled":false,"rental_uris":{"android":"levelo://app?vid=0fafd977-991f-4719-9ea0-c37956655dad","ios":"levelo://app?vid=0fafd977-991f-4719-9ea0-c37956655dad"},"vehicle_type_id":"4","last_reported":1753258610,"current_range_meters":6400,"station_id":"ce4bgt92rcd13ifvqcg0","pricing_plan_id":"cebpf4jnsgd1na2vs0mg"},{"bike_id":"515f69d9-f535-4da6-8d06-003815e35c40","system_id":"levelo_inurba_marseille","lat":43.295775,"lon":5.375179,"is_reserved":false,"is_disabled":false,"rental_uris":{"android":"levelo://app?vid=515f69d9-f535-4da6-8d06-003815e35c40","ios":"levelo://app?vid=515f69d9-f535-4da6-8d06-003815e35c40"},"vehicle_type_id":"4","last_reported":1753258610,"current_range_meters":6400,"station_id":"ce4bgh92rcd13ifvqb50","pricing_plan_id":"cebpf4jnsgd1na2vs0mg"},{"bike_id":"bc8e8184-a6af-4eda-9557-7e503f0c793c","system_id":"levelo_inurba_marseille","lat":43.24171,"lon":5.39706,"is_reserved":false,"is_disabled":true,"rental_uris":{"android":"levelo://app?vid=bc8e8184-a6af-4eda-9557-7e503f0c793c","ios":"levelo://app?vid=bc8e8184-a6af-4eda-9557-7e503f0c793c"},"vehicle_type_id":"4","last_reported":1753258610,"current_range_meters":6400,"station_id":"ce4bhn12rcd13ifvqgpg","pricing_plan_id":"cebpf4jnsgd1na2vs0mg"},{"bike_id":"64507030-c9df-4d6f-9cfb-3f98a21eb09f","system_id":"levelo_inurba_marseille","lat":43.280342,"lon":5.369383,"is_reserved":false,"is_disabled":false,"rental_uris":{"android":"levelo://app?vid=64507030-c9df-4d6f-9cfb-3f98a21eb09f","ios":"levelo://app?vid=64507030-c9df-4d6f-9cfb-3f98a21eb09f"},"vehicle_type_id":"4","last_reported":1753258610,"current_range_meters":6800,"station_id":"ce4bha12rcd13ifvqef0","pricing_plan_id":"cebpf4jnsgd1na2vs0mg"},{"bike_id":"e4761578-ae86-4dfa-b146-0428e5d8cca7","system_id":"levelo_inurba_marseille","lat":43.24177,"lon":5.3641,"is_reserved":false,"is_disabled":false,"rental_uris":{"android":"levelo://app?vid=e4761578-ae86-4dfa-b146-0428e5d8cca7","ios":"levelo://app?vid=e4761578-ae86-4dfa-b146-0428e5d8cca7"},"vehicle_type_id":"4","last_reported":1753258610,"current_range_meters":6800,"station_id":"cpo36qri1sfpv3e86is0","pricing_plan_id":"cebpf4jnsgd1na2vs0mg"},{"bike_id":"5b4bf88c-9a9f-473b-b251-6494870ce15b","system_id":"levelo_inurba_marseille","lat":43.27069,"lon":5.42279,"is_reserved":false,"is_disabled":false,"rental_uris":{"android":"levelo://app?vid=5b4bf88c-9a9f-473b-b251-6494870ce15b","ios":"levelo://app?vid=5b4bf88c-9a9f-473b-b251-6494870ce15b"},"vehicle_type_id":"4","last_reported":1753258610,"current_range_meters":6800,"station_id":"ce4bhk92rcd13ifvqgb0","pricing_plan_id":"cebpf4jnsgd1na2vs0mg"},{"bike_id":"bbeb59ee-7469-4891-af32-15a7fdc6bd8a","system_id":"levelo_inurba_marseille","lat":43.290405,"lon":5.39966,"is_reserved":false,"is_disabled":false,"rental_uris":{"android":"levelo://app?vid=bbeb59ee-7469-4891-af32-15a7fdc6bd8a","ios":"levelo://app?vid=bbeb59ee-7469-4891-af32-15a7fdc6bd8a"},"vehicle_type_id":"4","last_reported":1753258610,"current_range_meters":6800,"station_id":"ce4bh392rcd13ifvqdm0","pricing_plan_id":"cebpf4jnsgd1na2vs0mg"},{"bike_id":"51102329-c7ca-45fd-8362-598a7c7fd5fd","system_id":"levelo_inurba_marseille","lat":43.313808,"lon":5.367116,"is_reserved":false,"is_disabled":false,"rental_uris":{"android":"levelo://app?vid=51102329-c7ca-45fd-8362-598a7c7fd5fd","ios":"levelo://app?vid=51102329-c7ca-45fd-8362-598a7c7fd5fd"},"vehicle_type_id":"4","last_reported":1753258610,"current_range_meters":7200,"station_id":"ce4bgr92rcd13ifvqc6g","pricing_plan_id":"cebpf4jnsgd1na2vs0mg"},{"bike_id":"d10de997-bbcb-4803-822f-9e6da8fb6ea5","system_id":"levelo_inurba_marseille","lat":43.31379,"lon":5.36701,"is_reserved":false,"is_disabled":false,"rental_uris":{"android":"levelo://app?vid=d10de997-bbcb-4803-822f-9e6da8fb6ea5","ios":"levelo://app?vid=d10de997-bbcb-4803-822f-9e6da8fb6ea5"},"vehicle_type_id":"4","last_reported":1753258610,"current_range_meters":7200,"station_id":"ce4bgr92rcd13ifvqc6g","pricing_plan_id":"cebpf4jnsgd1na2vs0mg"},{"bike_id":"de206df0-0759-47f2-aed3-1fac9b7f427a","system_id":"levelo_inurba_marseille","lat":43.28105,"lon":5.37837,"is_reserved":false,"is_disabled":false,"rental_uris":{"android":"levelo://app?vid=de206df0-0759-47f2-aed3-1fac9b7f427a","ios":"levelo://app?vid=de206df0-0759-47f2-aed3-1fac9b7f427a"},"vehicle_type_id":"4","last_reported":1753258610,"current_range_meters":6800,"station_id":"ce4bha12rcd13ifvqee0","pricing_plan_id":"cebpf4jnsgd1na2vs0mg"},{"bike_id":"578a1290-cb58-4490-88af-e004e436d0da","system_id":"levelo_inurba_marseille","lat":43.3148,"lon":5.37307,"is_reserved":false,"is_disabled":false,"rental_uris":{"android":"levelo://app?vid=578a1290-cb58-4490-88af-e004e436d0da","ios":"levelo://app?vid=578a1290-cb58-4490-88af-e004e436d0da"},"vehicle_type_id":"4","last_reported":1753258610,"current_range_meters":8000,"station_id":"ce4bgt12rcd13ifvqcd0","pricing_plan_id":"cebpf4jnsgd1na2vs0mg"},{"bike_id":"f3ad7f3f-05ef-4976-a8bd-7743271afd02","system_id":"levelo_inurba_marseille","lat":43.231513,"lon":5.437245,"is_reserved":false,"is_disabled":false,"rental_uris":{"android":"levelo://app?vid=f3ad7f3f-05ef-4976-a8bd-7743271afd02","ios":"levelo://app?vid=f3ad7f3f-05ef-4976-a8bd-7743271afd02"},"vehicle_type_id":"4","last_reported":1753258610,"current_range_meters":8400,"station_id":"ce4bhmp2rcd13ifvqgog","pricing_plan_id":"cebpf4jnsgd1na2vs0mg"},{"bike_id":"9ae7d50c-a3ea-4136-8080-315c191e000a","system_id":"levelo_inurba_marseille","lat":43.28768,"lon":5.38404,"is_reserved":false,"is_disabled":false,"rental_uris":{"android":"levelo://app?vid=9ae7d50c-a3ea-4136-8080-315c191e000a","ios":"levelo://app?vid=9ae7d50c-a3ea-4136-8080-315c191e000a"},"vehicle_type_id":"4","last_reported":1753258610,"current_range_meters":8800,"station_id":"","pricing_plan_id":"cebpf4jnsgd1na2vs0mg"},{"bike_id":"0f78d90b-d3e6-4c57-ae4b-8c63e5d0cdd1","system_id":"levelo_inurba_marseille","lat":43.24194,"lon":5.39736,"is_reserved":false,"is_disabled":false,"rental_uris":{"android":"levelo://app?vid=0f78d90b-d3e6-4c57-ae4b-8c63e5d0cdd1","ios":"levelo://app?vid=0f78d90b-d3e6-4c57-ae4b-8c63e5d0cdd1"},"vehicle_type_id":"4","last_reported":1753258610,"current_range_meters":8800,"station_id":"ce4bhn12rcd13ifvqgpg","pricing_plan_id":"cebpf4jnsgd1na2vs0mg"},{"bike_id":"510e1d6f-5725-4768-b8fc-942d80656133","system_id":"levelo_inurba_marseille","lat":43.26584,"lon":5.37306,"is_reserved":false,"is_disabled":false,"rental_uris":{"android":"levelo://app?vid=510e1d6f-5725-4768-b8fc-942d80656133","ios":"levelo://app?vid=510e1d6f-5725-4768-b8fc-942d80656133"},"vehicle_type_id":"4","last_reported":1753258610,"current_range_meters":8800,"station_id":"ce4bhg12rcd13ifvqf70","pricing_plan_id":"cebpf4jnsgd1na2vs0mg"},{"bike_id":"39989909-7718-4af8-bdfd-00fda01c5aa2","system_id":"levelo_inurba_marseille","lat":43.29277,"lon":5.36839,"is_reserved":false,"is_disabled":false,"rental_uris":{"android":"levelo://app?vid=39989909-7718-4af8-bdfd-00fda01c5aa2","ios":"levelo://app?vid=39989909-7718-4af8-bdfd-00fda01c5aa2"},"vehicle_type_id":"4","last_reported":1753258610,"current_range_meters":9200,"station_id":"ce4bhbp2rcd13ifvqesg","pricing_plan_id":"cebpf4jnsgd1na2vs0mg"},{"bike_id":"4263f32b-49be-41b5-b20b-7f70214bf96f","system_id":"levelo_inurba_marseille","lat":43.24177,"lon":5.39662,"is_reserved":false,"is_disabled":false,"rental_uris":{"android":"levelo://app?vid=4263f32b-49be-41b5-b20b-7f70214bf96f","ios":"levelo://app?vid=4263f32b-49be-41b5-b20b-7f70214bf96f"},"vehicle_type_id":"4","last_reported":1753258610,"current_range_meters":9200,"station_id":"","pricing_plan_id":"cebpf4jnsgd1na2vs0mg"},{"bike_id":"6cdeed83-9f5b-4e08-a6e7-55d6bf188998","system_id":"levelo_inurba_marseille","lat":43.25495,"lon":5.37647,"is_reserved":false,"is_disabled":false,"rental_uris":{"android":"levelo://app?vid=6cdeed83-9f5b-4e08-a6e7-55d6bf188998","ios":"levelo://app?vid=6cdeed83-9f5b-4e08-a6e7-55d6bf188998"},"vehicle_type_id":"4","last_reported":1753258610,"current_range_meters":9600,"station_id":"ce4bhh12rcd13ifvqff0","pricing_plan_id":"cebpf4jnsgd1na2vs0mg"},{"bike_id":"f7d24d79-fb73-44fe-a579-eccbe39a5e1e","system_id":"levelo_inurba_marseille","lat":43.241688,"lon":5.364026,"is_reserved":false,"is_disabled":false,"rental_uris":{"android":"levelo://app?vid=f7d24d79-fb73-44fe-a579-eccbe39a5e1e","ios":"levelo://app?vid=f7d24d79-fb73-44fe-a579-eccbe39a5e1e"},"vehicle_type_id":"4","last_reported":1753258610,"current_range_meters":9600,"station_id":"cpo36qri1sfpv3e86is0","pricing_plan_id":"cebpf4jnsgd1na2vs0mg"},{"bike_id":"f9b7c720-056f-404d-ab47-f0e0f5dd1430","system_id":"levelo_inurba_marseille","lat":43.29586,"lon":5.3674,"is_reserved":false,"is_disabled":false,"rental_uris":{"android":"levelo://app?vid=f9b7c720-056f-404d-ab47-f0e0f5dd1430","ios":"levelo://app?vid=f9b7c720-056f-404d-ab47-f0e0f5dd1430"},"vehicle_type_id":"4","last_reported":1753258610,"current_range_meters":9600,"station_id":"ce4bgph2rcd13ifvqc2g","pricing_plan_id":"cebpf4jnsgd1na2vs0mg"},{"bike_id":"8a8c67ff-0285-441e-afaf-3eac3565f663","system_id":"levelo_inurba_marseille","lat":43.32365,"lon":5.36761,"is_reserved":false,"is_disabled":false,"rental_uris":{"android":"levelo://app?vid=8a8c67ff-0285-441e-afaf-3eac3565f663","ios":"levelo://app?vid=8a8c67ff-0285-441e-afaf-3eac3565f663"},"vehicle_type_id":"4","last_reported":1753258610,"current_range_meters":9600,"station_id":"ce4bhsh2rcd13ifvqi2g","pricing_plan_id":"cebpf4jnsgd1na2vs0mg"},{"bike_id":"7cd6f57f-050a-49ae-b455-cc918ad9f337","system_id":"levelo_inurba_marseille","lat":43.313623,"lon":5.367135,"is_reserved":false,"is_disabled":false,"rental_uris":{"android":"levelo://app?vid=7cd6f57f-050a-49ae-b455-cc918ad9f337","ios":"levelo://app?vid=7cd6f57f-050a-49ae-b455-cc918ad9f337"},"vehicle_type_id":"4","last_reported":1753258610,"current_range_meters":9600,"station_id":"ce4bgr92rcd13ifvqc6g","pricing_plan_id":"cebpf4jnsgd1na2vs0mg"},{"bike_id":"81f48beb-cba8-4a10-929a-d7834448108c","system_id":"levelo_inurba_marseille","lat":43.33256,"lon":5.39876,"is_reserved":false,"is_disabled":false,"rental_uris":{"android":"levelo://app?vid=81f48beb-cba8-4a10-929a-d7834448108c","ios":"levelo://app?vid=81f48beb-cba8-4a10-929a-d7834448108c"},"vehicle_type_id":"4","last_reported":1753258610,"current_range_meters":9600,"station_id":"","pricing_plan_id":"cebpf4jnsgd1na2vs0mg"},{"bike_id":"a5f1f0d6-c678-45f4-9b29-96eaa29a3e36","system_id":"levelo_inurba_marseille","lat":43.25136,"lon":5.37335,"is_reserved":false,"is_disabled":false,"rental_uris":{"android":"levelo://app?vid=a5f1f0d6-c678-45f4-9b29-96eaa29a3e36","ios":"levelo://app?vid=a5f1f0d6-c678-45f4-9b29-96eaa29a3e36"},"vehicle_type_id":"4","last_reported":1753258610,"current_range_meters":9600,"station_id":"","pricing_plan_id":"cebpf4jnsgd1na2vs0mg"},{"bike_id":"827ec16a-6f65-4886-a23b-dcd2e7b53c71","system_id":"levelo_inurba_marseille","lat":43.29264,"lon":5.38441,"is_reserved":false,"is_disabled":false,"rental_uris":{"android":"levelo://app?vid=827ec16a-6f65-4886-a23b-dcd2e7b53c71","ios":"levelo://app?vid=827ec16a-6f65-4886-a23b-dcd2e7b53c71"},"vehicle_type_id":"4","last_reported":1753258610,"current_range_meters":10000,"station_id":"ce4bh692rcd13ifvqea0","pricing_plan_id":"cebpf4jnsgd1na2vs0mg"},{"bike_id":"52289c8f-2dc9-4c80-8d92-272e145c2039","system_id":"levelo_inurba_marseille","lat":43.21758,"lon":5.34569,"is_reserved":false,"is_disabled":false,"rental_uris":{"android":"levelo://app?vid=52289c8f-2dc9-4c80-8d92-272e145c2039","ios":"levelo://app?vid=52289c8f-2dc9-4c80-8d92-272e145c2039"},"vehicle_type_id":"4","last_reported":1753258610,"current_range_meters":10000,"station_id":"st_cvj6r9ubvosntc0bgbag","pricing_plan_id":"cebpf4jnsgd1na2vs0mg"},{"bike_id":"331d957c-8364-49e8-ac7c-ace81aa0cfd4","system_id":"levelo_inurba_marseille","lat":43.323767,"lon":5.388666,"is_reserved":false,"is_disabled":false,"rental_uris":{"android":"levelo://app?vid=331d957c-8364-49e8-ac7c-ace81aa0cfd4","ios":"levelo://app?vid=331d957c-8364-49e8-ac7c-ace81aa0cfd4"},"vehicle_type_id":"4","last_reported":1753258610,"current_range_meters":10000,"station_id":"ce4bhqp2rcd13ifvqhog","pricing_plan_id":"cebpf4jnsgd1na2vs0mg"},{"bike_id":"94e99ba3-798c-4913-8db5-9403b67416c1","system_id":"levelo_inurba_marseille","lat":43.31702,"lon":5.37758,"is_reserved":false,"is_disabled":false,"rental_uris":{"android":"levelo://app?vid=94e99ba3-798c-4913-8db5-9403b67416c1","ios":"levelo://app?vid=94e99ba3-798c-4913-8db5-9403b67416c1"},"vehicle_type_id":"4","last_reported":1753258610,"current_range_meters":10000,"station_id":"ce4bhr12rcd13ifvqhqg","pricing_plan_id":"cebpf4jnsgd1na2vs0mg"},{"bike_id":"7dbbb529-7a14-4c15-91b2-36294d397550","system_id":"levelo_inurba_marseille","lat":43.23195,"lon":5.35541,"is_reserved":false,"is_disabled":false,"rental_uris":{"android":"levelo://app?vid=7dbbb529-7a14-4c15-91b2-36294d397550","ios":"levelo://app?vid=7dbbb529-7a14-4c15-91b2-36294d397550"},"vehicle_type_id":"4","last_reported":1753258610,"current_range_meters":10000,"station_id":"ce4bhu92rcd13ifvqi70","pricing_plan_id":"cebpf4jnsgd1na2vs0mg"},{"bike_id":"cd5138c7-5e5f-4332-9e08-fb60bf8c26c1","system_id":"levelo_inurba_marseille","lat":43.29042,"lon":5.39991,"is_reserved":false,"is_disabled":false,"rental_uris":{"android":"levelo://app?vid=cd5138c7-5e5f-4332-9e08-fb60bf8c26c1","ios":"levelo://app?vid=cd5138c7-5e5f-4332-9e08-fb60bf8c26c1"},"vehicle_type_id":"4","last_reported":1753258610,"current_range_meters":10800,"station_id":"ce4bh392rcd13ifvqdm0","pricing_plan_id":"cebpf4jnsgd1na2vs0mg"},{"bike_id":"14dce4ef-3cdb-4379-9358-4a1fbdce8f93","system_id":"levelo_inurba_marseille","lat":43.287234,"lon":5.352074,"is_reserved":false,"is_disabled":false,"rental_uris":{"android":"levelo://app?vid=14dce4ef-3cdb-4379-9358-4a1fbdce8f93","ios":"levelo://app?vid=14dce4ef-3cdb-4379-9358-4a1fbdce8f93"},"vehicle_type_id":"4","last_reported":1753258610,"current_range_meters":10800,"station_id":"","pricing_plan_id":"cebpf4jnsgd1na2vs0mg"},{"bike_id":"3cef1158-540c-4055-a46b-73e02d1c17f7","system_id":"levelo_inurba_marseille","lat":43.31376,"lon":5.37443,"is_reserved":false,"is_disabled":false,"rental_uris":{"android":"levelo://app?vid=3cef1158-540c-4055-a46b-73e02d1c17f7","ios":"levelo://app?vid=3cef1158-540c-4055-a46b-73e02d1c17f7"},"vehicle_type_id":"4","last_reported":1753258610,"current_range_meters":10800,"station_id":"","pricing_plan_id":"cebpf4jnsgd1na2vs0mg"},{"bike_id":"fcc50560-1ae4-4bac-9e1c-f3150027f874","system_id":"levelo_inurba_marseille","lat":43.28471,"lon":5.38526,"is_reserved":false,"is_disabled":true,"rental_uris":{"android":"levelo://app?vid=fcc50560-1ae4-4bac-9e1c-f3150027f874","ios":"levelo://app?vid=fcc50560-1ae4-4bac-9e1c-f3150027f874"},"vehicle_type_id":"4","last_reported":1753258610,"current_range_meters":10800,"station_id":"ce4bh8p2rcd13ifvqeb0","pricing_plan_id":"cebpf4jnsgd1na2vs0mg"},{"bike_id":"bd638ca3-4382-4199-805e-77ccea6ab161","system_id":"levelo_inurba_marseille","lat":43.30548,"lon":5.36529,"is_reserved":false,"is_disabled":false,"rental_uris":{"android":"levelo://app?vid=bd638ca3-4382-4199-805e-77ccea6ab161","ios":"levelo://app?vid=bd638ca3-4382-4199-805e-77ccea6ab161"},"vehicle_type_id":"4","last_reported":1753258610,"current_range_meters":10800,"station_id":"ce4bgs12rcd13ifvqcag","pricing_plan_id":"cebpf4jnsgd1na2vs0mg"},{"bike_id":"d41d42b1-93af-4ce3-ae83-0f4493afb370","system_id":"levelo_inurba_marseille","lat":43.28706,"lon":5.37385,"is_reserved":false,"is_disabled":false,"rental_uris":{"android":"levelo://app?vid=d41d42b1-93af-4ce3-ae83-0f4493afb370","ios":"levelo://app?vid=d41d42b1-93af-4ce3-ae83-0f4493afb370"},"vehicle_type_id":"4","last_reported":1753258610,"current_range_meters":10800,"station_id":"ce4bh3p2rcd13ifvqdq0","pricing_plan_id":"cebpf4jnsgd1na2vs0mg"},{"bike_id":"fd4c22dc-14e4-41ef-b4ab-1e3070a8a020","system_id":"levelo_inurba_marseille","lat":43.24171,"lon":5.39711,"is_reserved":false,"is_disabled":false,"rental_uris":{"android":"levelo://app?vid=fd4c22dc-14e4-41ef-b4ab-1e3070a8a020","ios":"levelo://app?vid=fd4c22dc-14e4-41ef-b4ab-1e3070a8a020"},"vehicle_type_id":"4","last_reported":1753258610,"current_range_meters":10800,"station_id":"ce4bhn12rcd13ifvqgpg","pricing_plan_id":"cebpf4jnsgd1na2vs0mg"},{"bike_id":"05d42747-d0a7-485b-804a-c208d042127e","system_id":"levelo_inurba_marseille","lat":43.24173,"lon":5.36398,"is_reserved":false,"is_disabled":false,"rental_uris":{"android":"levelo://app?vid=05d42747-d0a7-485b-804a-c208d042127e","ios":"levelo://app?vid=05d42747-d0a7-485b-804a-c208d042127e"},"vehicle_type_id":"4","last_reported":1753258610,"current_range_meters":10800,"station_id":"cpo36qri1sfpv3e86is0","pricing_plan_id":"cebpf4jnsgd1na2vs0mg"},{"bike_id":"29c741f5-4cb9-45d9-a398-c95e390d8223","system_id":"levelo_inurba_marseille","lat":43.27807,"lon":5.40708,"is_reserved":false,"is_disabled":false,"rental_uris":{"android":"levelo://app?vid=29c741f5-4cb9-45d9-a398-c95e390d8223","ios":"levelo://app?vid=29c741f5-4cb9-45d9-a398-c95e390d8223"},"vehicle_type_id":"4","last_reported":1753258610,"current_range_meters":10800,"station_id":"ce4bhnh2rcd13ifvqgtg","pricing_plan_id":"cebpf4jnsgd1na2vs0mg"},{"bike_id":"aa5097b6-6968-4aec-b711-e7780938924b","system_id":"levelo_inurba_marseille","lat":43.32974,"lon":5.35887,"is_reserved":false,"is_disabled":false,"rental_uris":{"android":"levelo://app?vid=aa5097b6-6968-4aec-b711-e7780938924b","ios":"levelo://app?vid=aa5097b6-6968-4aec-b711-e7780938924b"},"vehicle_type_id":"4","last_reported":1753258610,"current_range_meters":10800,"station_id":"","pricing_plan_id":"cebpf4jnsgd1na2vs0mg"},{"bike_id":"c00dc881-3a8b-4003-9314-db3514d110d1","system_id":"levelo_inurba_marseille","lat":43.2418,"lon":5.3639,"is_reserved":false,"is_disabled":false,"rental_uris":{"android":"levelo://app?vid=c00dc881-3a8b-4003-9314-db3514d110d1","ios":"levelo://app?vid=c00dc881-3a8b-4003-9314-db3514d110d1"},"vehicle_type_id":"4","last_reported":1753258610,"current_range_meters":11200,"station_id":"cpo36qri1sfpv3e86is0","pricing_plan_id":"cebpf4jnsgd1na2vs0mg"},{"bike_id":"4166ed15-8567-453b-8247-8930255bd8d3","system_id":"levelo_inurba_marseille","lat":43.28665,"lon":5.38657,"is_reserved":false,"is_disabled":false,"rental_uris":{"android":"levelo://app?vid=4166ed15-8567-453b-8247-8930255bd8d3","ios":"levelo://app?vid=4166ed15-8567-453b-8247-8930255bd8d3"},"vehicle_type_id":"4","last_reported":1753258610,"current_range_meters":11200,"station_id":"ce4bh492rcd13ifvqdug","pricing_plan_id":"cebpf4jnsgd1na2vs0mg"},{"bike_id":"47861ee3-c2fb-4a23-bd66-32fcd0b0ef8f","system_id":"levelo_inurba_marseille","lat":43.30476,"lon":5.379,"is_reserved":false,"is_disabled":false,"rental_uris":{"android":"levelo://app?vid=47861ee3-c2fb-4a23-bd66-32fcd0b0ef8f","ios":"levelo://app?vid=47861ee3-c2fb-4a23-bd66-32fcd0b0ef8f"},"vehicle_type_id":"4","last_reported":1753258610,"current_range_meters":11200,"station_id":"ce4bgup2rcd13ifvqcn0","pricing_plan_id":"cebpf4jnsgd1na2vs0mg"},{"bike_id":"3c21b9e1-b296-4844-a6d5-b8d19c7f36c9","system_id":"levelo_inurba_marseille","lat":43.29173,"lon":5.38427,"is_reserved":false,"is_disabled":false,"rental_uris":{"android":"levelo://app?vid=3c21b9e1-b296-4844-a6d5-b8d19c7f36c9","ios":"levelo://app?vid=3c21b9e1-b296-4844-a6d5-b8d19c7f36c9"},"vehicle_type_id":"4","last_reported":1753258610,"current_range_meters":11200,"station_id":"","pricing_plan_id":"cebpf4jnsgd1na2vs0mg"},{"bike_id":"07e7ec69-2e3a-4f54-b2ae-191ac00bd485","system_id":"levelo_inurba_marseille","lat":43.29843,"lon":5.3626,"is_reserved":false,"is_disabled":false,"rental_uris":{"android":"levelo://app?vid=07e7ec69-2e3a-4f54-b2ae-191ac00bd485","ios":"levelo://app?vid=07e7ec69-2e3a-4f54-b2ae-191ac00bd485"},"vehicle_type_id":"4","last_reported":1753258610,"current_range_meters":11600,"station_id":"ce4bgpp2rcd13ifvqc3g","pricing_plan_id":"cebpf4jnsgd1na2vs0mg"},{"bike_id":"d06ab90f-a874-448a-a474-627fdbbed94d","system_id":"levelo_inurba_marseille","lat":43.24179,"lon":5.39722,"is_reserved":false,"is_disabled":false,"rental_uris":{"android":"levelo://app?vid=d06ab90f-a874-448a-a474-627fdbbed94d","ios":"levelo://app?vid=d06ab90f-a874-448a-a474-627fdbbed94d"},"vehicle_type_id":"4","last_reported":1753258610,"current_range_meters":11600,"station_id":"ce4bhn12rcd13ifvqgpg","pricing_plan_id":"cebpf4jnsgd1na2vs0mg"},{"bike_id":"c9dbd36b-479c-4a5c-b200-3aa7673340d9","system_id":"levelo_inurba_marseille","lat":43.241448,"lon":5.363743,"is_reserved":false,"is_disabled":false,"rental_uris":{"android":"levelo://app?vid=c9dbd36b-479c-4a5c-b200-3aa7673340d9","ios":"levelo://app?vid=c9dbd36b-479c-4a5c-b200-3aa7673340d9"},"vehicle_type_id":"4","last_reported":1753258610,"current_range_meters":11600,"station_id":"","pricing_plan_id":"cebpf4jnsgd1na2vs0mg"},{"bike_id":"b8157e49-d09e-4d5e-90fd-5d667c09b9a5","system_id":"levelo_inurba_marseille","lat":43.29058,"lon":5.3717,"is_reserved":false,"is_disabled":false,"rental_uris":{"android":"levelo://app?vid=b8157e49-d09e-4d5e-90fd-5d667c09b9a5","ios":"levelo://app?vid=b8157e49-d09e-4d5e-90fd-5d667c09b9a5"},"vehicle_type_id":"4","last_reported":1753258610,"current_range_meters":11600,"station_id":"ce4bgh92rcd13ifvqb40","pricing_plan_id":"cebpf4jnsgd1na2vs0mg"},{"bike_id":"b46ecdc7-efe8-42fd-b0b4-03592ced25f0","system_id":"levelo_inurba_marseille","lat":43.29297,"lon":5.37451,"is_reserved":false,"is_disabled":false,"rental_uris":{"android":"levelo://app?vid=b46ecdc7-efe8-42fd-b0b4-03592ced25f0","ios":"levelo://app?vid=b46ecdc7-efe8-42fd-b0b4-03592ced25f0"},"vehicle_type_id":"4","last_reported":1753258610,"current_range_meters":11600,"station_id":"ce4bgi12rcd13ifvqb70","pricing_plan_id":"cebpf4jnsgd1na2vs0mg"},{"bike_id":"fe50cf1d-fc61-4e48-98f2-ea42037cc2b3","system_id":"levelo_inurba_marseille","lat":43.229256,"lon":5.353749,"is_reserved":false,"is_disabled":false,"rental_uris":{"android":"levelo://app?vid=fe50cf1d-fc61-4e48-98f2-ea42037cc2b3","ios":"levelo://app?vid=fe50cf1d-fc61-4e48-98f2-ea42037cc2b3"},"vehicle_type_id":"4","last_reported":1753258610,"current_range_meters":11600,"station_id":"cpo3532slgdg3j2ikp40","pricing_plan_id":"cebpf4jnsgd1na2vs0mg"},{"bike_id":"e44893bb-5cdf-4921-b4e8-39ee578180a1","system_id":"levelo_inurba_marseille","lat":43.24095,"lon":5.37754,"is_reserved":false,"is_disabled":false,"rental_uris":{"android":"levelo://app?vid=e44893bb-5cdf-4921-b4e8-39ee578180a1","ios":"levelo://app?vid=e44893bb-5cdf-4921-b4e8-39ee578180a1"},"vehicle_type_id":"4","last_reported":1753258610,"current_range_meters":11600,"station_id":"ce4bhnp2rcd13ifvqgvg","pricing_plan_id":"cebpf4jnsgd1na2vs0mg"},{"bike_id":"c4ee3487-c16b-44ca-8298-494c3d643291","system_id":"levelo_inurba_marseille","lat":43.248074,"lon":5.3746,"is_reserved":false,"is_disabled":false,"rental_uris":{"android":"levelo://app?vid=c4ee3487-c16b-44ca-8298-494c3d643291","ios":"levelo://app?vid=c4ee3487-c16b-44ca-8298-494c3d643291"},"vehicle_type_id":"4","last_reported":1753258610,"current_range_meters":12000,"station_id":"ce4bhk92rcd13ifvqgb0","pricing_plan_id":"cebpf4jnsgd1na2vs0mg"},{"bike_id":"5af687f2-59d3-407a-94af-c7c8907f567b","system_id":"levelo_inurba_marseille","lat":43.26056,"lon":5.39335,"is_reserved":false,"is_disabled":false,"rental_uris":{"android":"levelo://app?vid=5af687f2-59d3-407a-94af-c7c8907f567b","ios":"levelo://app?vid=5af687f2-59d3-407a-94af-c7c8907f567b"},"vehicle_type_id":"4","last_reported":1753258610,"current_range_meters":12000,"station_id":"ce4bhh92rcd13ifvqfj0","pricing_plan_id":"cebpf4jnsgd1na2vs0mg"},{"bike_id":"c035a6d5-e58f-4061-a0d4-454485ad131f","system_id":"levelo_inurba_marseille","lat":43.27318,"lon":5.39093,"is_reserved":false,"is_disabled":false,"rental_uris":{"android":"levelo://app?vid=c035a6d5-e58f-4061-a0d4-454485ad131f","ios":"levelo://app?vid=c035a6d5-e58f-4061-a0d4-454485ad131f"},"vehicle_type_id":"4","last_reported":1753258610,"current_range_meters":12000,"station_id":"ce4bhgp2rcd13ifvqfe0","pricing_plan_id":"cebpf4jnsgd1na2vs0mg"},{"bike_id":"d3eea4a0-76ba-4059-ba6b-c1ecd6270925","system_id":"levelo_inurba_marseille","lat":43.21235,"lon":5.35046,"is_reserved":false,"is_disabled":false,"rental_uris":{"android":"levelo://app?vid=d3eea4a0-76ba-4059-ba6b-c1ecd6270925","ios":"levelo://app?vid=d3eea4a0-76ba-4059-ba6b-c1ecd6270925"},"vehicle_type_id":"4","last_reported":1753258610,"current_range_meters":12400,"station_id":"","pricing_plan_id":"cebpf4jnsgd1na2vs0mg"},{"bike_id":"05970a07-fdcf-4afc-a5d3-cebe37e8443f","system_id":"levelo_inurba_marseille","lat":43.29275,"lon":5.37437,"is_reserved":false,"is_disabled":false,"rental_uris":{"android":"levelo://app?vid=05970a07-fdcf-4afc-a5d3-cebe37e8443f","ios":"levelo://app?vid=05970a07-fdcf-4afc-a5d3-cebe37e8443f"},"vehicle_type_id":"4","last_reported":1753258610,"current_range_meters":12400,"station_id":"ce4bgi12rcd13ifvqb70","pricing_plan_id":"cebpf4jnsgd1na2vs0mg"},{"bike_id":"0d131cfc-93fa-42ee-83ea-ff336f7a7af5","system_id":"levelo_inurba_marseille","lat":43.273771,"lon":5.36256,"is_reserved":false,"is_disabled":false,"rental_uris":{"android":"levelo://app?vid=0d131cfc-93fa-42ee-83ea-ff336f7a7af5","ios":"levelo://app?vid=0d131cfc-93fa-42ee-83ea-ff336f7a7af5"},"vehicle_type_id":"4","last_reported":1753258610,"current_range_meters":12000,"station_id":"ce4bhbh2rcd13ifvqeo0","pricing_plan_id":"cebpf4jnsgd1na2vs0mg"},{"bike_id":"1e6792f6-e23b-4a70-9f0d-cfc180638578","system_id":"levelo_inurba_marseille","lat":43.27413,"lon":5.39416,"is_reserved":false,"is_disabled":false,"rental_uris":{"android":"levelo://app?vid=1e6792f6-e23b-4a70-9f0d-cfc180638578","ios":"levelo://app?vid=1e6792f6-e23b-4a70-9f0d-cfc180638578"},"vehicle_type_id":"4","last_reported":1753258610,"current_range_meters":12400,"station_id":"ce4bhgp2rcd13ifvqfe0","pricing_plan_id":"cebpf4jnsgd1na2vs0mg"},{"bike_id":"0ea7a10a-9a1f-48d6-ba0c-cd300cee1999","system_id":"levelo_inurba_marseille","lat":43.27057,"lon":5.4227,"is_reserved":false,"is_disabled":false,"rental_uris":{"android":"levelo://app?vid=0ea7a10a-9a1f-48d6-ba0c-cd300cee1999","ios":"levelo://app?vid=0ea7a10a-9a1f-48d6-ba0c-cd300cee1999"},"vehicle_type_id":"4","last_reported":1753258610,"current_range_meters":12400,"station_id":"ce4bhk92rcd13ifvqgb0","pricing_plan_id":"cebpf4jnsgd1na2vs0mg"},{"bike_id":"f42c8125-cff1-474a-9d32-740c86ce5497","system_id":"levelo_inurba_marseille","lat":43.29306,"lon":5.37171,"is_reserved":false,"is_disabled":false,"rental_uris":{"android":"levelo://app?vid=f42c8125-cff1-474a-9d32-740c86ce5497","ios":"levelo://app?vid=f42c8125-cff1-474a-9d32-740c86ce5497"},"vehicle_type_id":"4","last_reported":1753258610,"current_range_meters":12800,"station_id":"ce4bgh92rcd13ifvqb40","pricing_plan_id":"cebpf4jnsgd1na2vs0mg"},{"bike_id":"69c5dba0-7886-486a-be58-5f7a61008b6d","system_id":"levelo_inurba_marseille","lat":43.30555,"lon":5.38919,"is_reserved":false,"is_disabled":false,"rental_uris":{"android":"levelo://app?vid=69c5dba0-7886-486a-be58-5f7a61008b6d","ios":"levelo://app?vid=69c5dba0-7886-486a-be58-5f7a61008b6d"},"vehicle_type_id":"4","last_reported":1753258610,"current_range_meters":12800,"station_id":"","pricing_plan_id":"cebpf4jnsgd1na2vs0mg"},{"bike_id":"4355f60b-bb67-4c5e-a729-7d6782d7e997","system_id":"levelo_inurba_marseille","lat":43.27945,"lon":5.41031,"is_reserved":false,"is_disabled":false,"rental_uris":{"android":"levelo://app?vid=4355f60b-bb67-4c5e-a729-7d6782d7e997","ios":"levelo://app?vid=4355f60b-bb67-4c5e-a729-7d6782d7e997"},"vehicle_type_id":"4","last_reported":1753258610,"current_range_meters":12800,"station_id":"ce4bhnp2rcd13ifvqh0g","pricing_plan_id":"cebpf4jnsgd1na2vs0mg"},{"bike_id":"79d8793a-8b06-4e58-8302-800b5d3a8256","system_id":"levelo_inurba_marseille","lat":43.241703,"lon":5.397071,"is_reserved":false,"is_disabled":false,"rental_uris":{"android":"levelo://app?vid=79d8793a-8b06-4e58-8302-800b5d3a8256","ios":"levelo://app?vid=79d8793a-8b06-4e58-8302-800b5d3a8256"},"vehicle_type_id":"4","last_reported":1753258610,"current_range_meters":12800,"station_id":"ce4bhn12rcd13ifvqgpg","pricing_plan_id":"cebpf4jnsgd1na2vs0mg"},{"bike_id":"7f63f9a0-7ea4-40f1-844d-1425837a99f2","system_id":"levelo_inurba_marseille","lat":43.29652,"lon":5.38022,"is_reserved":false,"is_disabled":false,"rental_uris":{"android":"levelo://app?vid=7f63f9a0-7ea4-40f1-844d-1425837a99f2","ios":"levelo://app?vid=7f63f9a0-7ea4-40f1-844d-1425837a99f2"},"vehicle_type_id":"4","last_reported":1753258610,"current_range_meters":13600,"station_id":"","pricing_plan_id":"cebpf4jnsgd1na2vs0mg"},{"bike_id":"9a143ed1-a3c7-421c-a22c-84e79d27e230","system_id":"levelo_inurba_marseille","lat":43.28415,"lon":5.34982,"is_reserved":false,"is_disabled":true,"rental_uris":{"android":"levelo://app?vid=9a143ed1-a3c7-421c-a22c-84e79d27e230","ios":"levelo://app?vid=9a143ed1-a3c7-421c-a22c-84e79d27e230"},"vehicle_type_id":"4","last_reported":1753258610,"current_range_meters":13600,"station_id":"ce4bhbh2rcd13ifvqepg","pricing_plan_id":"cebpf4jnsgd1na2vs0mg"},{"bike_id":"b692ffec-bbac-4f9b-bd1a-8933518c8001","system_id":"levelo_inurba_marseille","lat":43.242273,"lon":5.3971,"is_reserved":false,"is_disabled":false,"rental_uris":{"android":"levelo://app?vid=b692ffec-bbac-4f9b-bd1a-8933518c8001","ios":"levelo://app?vid=b692ffec-bbac-4f9b-bd1a-8933518c8001"},"vehicle_type_id":"4","last_reported":1753258610,"current_range_meters":13600,"station_id":"","pricing_plan_id":"cebpf4jnsgd1na2vs0mg"},{"bike_id":"2474ea6b-360b-4966-8546-322af4cc5978","system_id":"levelo_inurba_marseille","lat":43.29062,"lon":5.40133,"is_reserved":false,"is_disabled":false,"rental_uris":{"android":"levelo://app?vid=2474ea6b-360b-4966-8546-322af4cc5978","ios":"levelo://app?vid=2474ea6b-360b-4966-8546-322af4cc5978"},"vehicle_type_id":"4","last_reported":1753258610,"current_range_meters":13600,"station_id":"","pricing_plan_id":"cebpf4jnsgd1na2vs0mg"},{"bike_id":"bc05a9ef-b5b2-4f1e-957e-9eb1252f3b3e","system_id":"levelo_inurba_marseille","lat":43.21748,"lon":5.34596,"is_reserved":false,"is_disabled":false,"rental_uris":{"android":"levelo://app?vid=bc05a9ef-b5b2-4f1e-957e-9eb1252f3b3e","ios":"levelo://app?vid=bc05a9ef-b5b2-4f1e-957e-9eb1252f3b3e"},"vehicle_type_id":"4","last_reported":1753258610,"current_range_meters":13600,"station_id":"st_cvj6r9ubvosntc0bgbag","pricing_plan_id":"cebpf4jnsgd1na2vs0mg"},{"bike_id":"e4ed7ce2-a223-4e8e-968a-d024369c857c","system_id":"levelo_inurba_marseille","lat":43.2499,"lon":5.38939,"is_reserved":false,"is_disabled":false,"rental_uris":{"android":"levelo://app?vid=e4ed7ce2-a223-4e8e-968a-d024369c857c","ios":"levelo://app?vid=e4ed7ce2-a223-4e8e-968a-d024369c857c"},"vehicle_type_id":"4","last_reported":1753258610,"current_range_meters":14000,"station_id":"ce4bhgp2rcd13ifvqfd0","pricing_plan_id":"cebpf4jnsgd1na2vs0mg"},{"bike_id":"fb81ee79-6688-4d05-be53-1ac881d0c7b8","system_id":"levelo_inurba_marseille","lat":43.23191,"lon":5.35542,"is_reserved":false,"is_disabled":false,"rental_uris":{"android":"levelo://app?vid=fb81ee79-6688-4d05-be53-1ac881d0c7b8","ios":"levelo://app?vid=fb81ee79-6688-4d05-be53-1ac881d0c7b8"},"vehicle_type_id":"4","last_reported":1753258610,"current_range_meters":14000,"station_id":"ce4bhu92rcd13ifvqi70","pricing_plan_id":"cebpf4jnsgd1na2vs0mg"},{"bike_id":"fe07410f-2ac3-4d42-a644-c798c7a25a84","system_id":"levelo_inurba_marseille","lat":43.26571,"lon":5.372879,"is_reserved":false,"is_disabled":false,"rental_uris":{"android":"levelo://app?vid=fe07410f-2ac3-4d42-a644-c798c7a25a84","ios":"levelo://app?vid=fe07410f-2ac3-4d42-a644-c798c7a25a84"},"vehicle_type_id":"4","last_reported":1753258610,"current_range_meters":14000,"station_id":"","pricing_plan_id":"cebpf4jnsgd1na2vs0mg"},{"bike_id":"bfd7e908-297b-4fb3-954a-c8cd06553c6a","system_id":"levelo_inurba_marseille","lat":43.30917,"lon":5.36846,"is_reserved":false,"is_disabled":false,"rental_uris":{"android":"levelo://app?vid=bfd7e908-297b-4fb3-954a-c8cd06553c6a","ios":"levelo://app?vid=bfd7e908-297b-4fb3-954a-c8cd06553c6a"},"vehicle_type_id":"4","last_reported":1753258610,"current_range_meters":14000,"station_id":"ce4bgn92rcd13ifvqbvg","pricing_plan_id":"cebpf4jnsgd1na2vs0mg"},{"bike_id":"4470b598-c9b0-4641-a688-8bc80cf9a969","system_id":"levelo_inurba_marseille","lat":43.29039,"lon":5.39985,"is_reserved":false,"is_disabled":false,"rental_uris":{"android":"levelo://app?vid=4470b598-c9b0-4641-a688-8bc80cf9a969","ios":"levelo://app?vid=4470b598-c9b0-4641-a688-8bc80cf9a969"},"vehicle_type_id":"4","last_reported":1753258610,"current_range_meters":14000,"station_id":"ce4bh392rcd13ifvqdm0","pricing_plan_id":"cebpf4jnsgd1na2vs0mg"},{"bike_id":"6169a10b-2dfd-4ea5-bb49-12c99389ba26","system_id":"levelo_inurba_marseille","lat":43.28295,"lon":5.35065,"is_reserved":false,"is_disabled":false,"rental_uris":{"android":"levelo://app?vid=6169a10b-2dfd-4ea5-bb49-12c99389ba26","ios":"levelo://app?vid=6169a10b-2dfd-4ea5-bb49-12c99389ba26"},"vehicle_type_id":"4","last_reported":1753258610,"current_range_meters":14000,"station_id":"ce4bhbp2rcd13ifvqerg","pricing_plan_id":"cebpf4jnsgd1na2vs0mg"},{"bike_id":"cc926983-7496-48df-9677-b8723ddc96b9","system_id":"levelo_inurba_marseille","lat":43.22932,"lon":5.35357,"is_reserved":false,"is_disabled":false,"rental_uris":{"android":"levelo://app?vid=cc926983-7496-48df-9677-b8723ddc96b9","ios":"levelo://app?vid=cc926983-7496-48df-9677-b8723ddc96b9"},"vehicle_type_id":"4","last_reported":1753258610,"current_range_meters":14400,"station_id":"cpo3532slgdg3j2ikp40","pricing_plan_id":"cebpf4jnsgd1na2vs0mg"},{"bike_id":"db4f7d16-4447-4752-b9fa-314b60a317e8","system_id":"levelo_inurba_marseille","lat":43.2989,"lon":5.37909,"is_reserved":false,"is_disabled":false,"rental_uris":{"android":"levelo://app?vid=db4f7d16-4447-4752-b9fa-314b60a317e8","ios":"levelo://app?vid=db4f7d16-4447-4752-b9fa-314b60a317e8"},"vehicle_type_id":"4","last_reported":1753258610,"current_range_meters":14400,"station_id":"","pricing_plan_id":"cebpf4jnsgd1na2vs0mg"},{"bike_id":"6a102a90-f6e0-499a-a8df-486cf33a7ee2","system_id":"levelo_inurba_marseille","lat":43.211897,"lon":5.350813,"is_reserved":false,"is_disabled":false,"rental_uris":{"android":"levelo://app?vid=6a102a90-f6e0-499a-a8df-486cf33a7ee2","ios":"levelo://app?vid=6a102a90-f6e0-499a-a8df-486cf33a7ee2"},"vehicle_type_id":"4","last_reported":1753258610,"current_range_meters":14400,"station_id":"st_cvj6sg6p6f1abm77japg","pricing_plan_id":"cebpf4jnsgd1na2vs0mg"},{"bike_id":"7efcf337-4140-49e9-92b0-3f0aa143c851","system_id":"levelo_inurba_marseille","lat":43.29842,"lon":5.36258,"is_reserved":false,"is_disabled":false,"rental_uris":{"android":"levelo://app?vid=7efcf337-4140-49e9-92b0-3f0aa143c851","ios":"levelo://app?vid=7efcf337-4140-49e9-92b0-3f0aa143c851"},"vehicle_type_id":"4","last_reported":1753258610,"current_range_meters":14400,"station_id":"ce4bgpp2rcd13ifvqc3g","pricing_plan_id":"cebpf4jnsgd1na2vs0mg"},{"bike_id":"f125108c-22fe-4b76-9925-4aee895a65f3","system_id":"levelo_inurba_marseille","lat":43.24392,"lon":5.37062,"is_reserved":false,"is_disabled":false,"rental_uris":{"android":"levelo://app?vid=f125108c-22fe-4b76-9925-4aee895a65f3","ios":"levelo://app?vid=f125108c-22fe-4b76-9925-4aee895a65f3"},"vehicle_type_id":"4","last_reported":1753258610,"current_range_meters":14000,"station_id":"ce4bhhh2rcd13ifvqfk0","pricing_plan_id":"cebpf4jnsgd1na2vs0mg"},{"bike_id":"4f07190e-caac-415f-b780-172edb0f66b7","system_id":"levelo_inurba_marseille","lat":43.31243,"lon":5.36855,"is_reserved":false,"is_disabled":false,"rental_uris":{"android":"levelo://app?vid=4f07190e-caac-415f-b780-172edb0f66b7","ios":"levelo://app?vid=4f07190e-caac-415f-b780-172edb0f66b7"},"vehicle_type_id":"4","last_reported":1753258610,"current_range_meters":14400,"station_id":"ce4bgl92rcd13ifvqbq0","pricing_plan_id":"cebpf4jnsgd1na2vs0mg"},{"bike_id":"c600cae1-e212-401a-bab8-04cbd6755ae4","system_id":"levelo_inurba_marseille","lat":43.24651,"lon":5.3889,"is_reserved":false,"is_disabled":false,"rental_uris":{"android":"levelo://app?vid=c600cae1-e212-401a-bab8-04cbd6755ae4","ios":"levelo://app?vid=c600cae1-e212-401a-bab8-04cbd6755ae4"},"vehicle_type_id":"4","last_reported":1753258610,"current_range_meters":14000,"station_id":"ce4bhg12rcd13ifvqf60","pricing_plan_id":"cebpf4jnsgd1na2vs0mg"},{"bike_id":"bbc2b271-396f-4875-9f1d-0fcc163d87b6","system_id":"levelo_inurba_marseille","lat":43.290543,"lon":5.399,"is_reserved":false,"is_disabled":false,"rental_uris":{"android":"levelo://app?vid=bbc2b271-396f-4875-9f1d-0fcc163d87b6","ios":"levelo://app?vid=bbc2b271-396f-4875-9f1d-0fcc163d87b6"},"vehicle_type_id":"4","last_reported":1753258610,"current_range_meters":14800,"station_id":"","pricing_plan_id":"cebpf4jnsgd1na2vs0mg"},{"bike_id":"5b47a81d-ead0-4c4b-8864-c63aeb4bcd3d","system_id":"levelo_inurba_marseille","lat":43.21183,"lon":5.35072,"is_reserved":false,"is_disabled":false,"rental_uris":{"android":"levelo://app?vid=5b47a81d-ead0-4c4b-8864-c63aeb4bcd3d","ios":"levelo://app?vid=5b47a81d-ead0-4c4b-8864-c63aeb4bcd3d"},"vehicle_type_id":"4","last_reported":1753258610,"current_range_meters":14800,"station_id":"st_cvj6sg6p6f1abm77japg","pricing_plan_id":"cebpf4jnsgd1na2vs0mg"},{"bike_id":"9efa7bde-0592-422c-89a7-e5af48b14013","system_id":"levelo_inurba_marseille","lat":43.304047,"lon":5.387319,"is_reserved":false,"is_disabled":false,"rental_uris":{"android":"levelo://app?vid=9efa7bde-0592-422c-89a7-e5af48b14013","ios":"levelo://app?vid=9efa7bde-0592-422c-89a7-e5af48b14013"},"vehicle_type_id":"4","last_reported":1753258610,"current_range_meters":14800,"station_id":"","pricing_plan_id":"cebpf4jnsgd1na2vs0mg"},{"bike_id":"ea731c2a-e1c3-44a2-becb-45da31f72b6f","system_id":"levelo_inurba_marseille","lat":43.3135,"lon":5.3673,"is_reserved":false,"is_disabled":false,"rental_uris":{"android":"levelo://app?vid=ea731c2a-e1c3-44a2-becb-45da31f72b6f","ios":"levelo://app?vid=ea731c2a-e1c3-44a2-becb-45da31f72b6f"},"vehicle_type_id":"4","last_reported":1753258610,"current_range_meters":15200,"station_id":"ce4bgr92rcd13ifvqc6g","pricing_plan_id":"cebpf4jnsgd1na2vs0mg"},{"bike_id":"bd4053fb-a507-47f8-b050-a61dab05872e","system_id":"levelo_inurba_marseille","lat":43.25583,"lon":5.38232,"is_reserved":false,"is_disabled":false,"rental_uris":{"android":"levelo://app?vid=bd4053fb-a507-47f8-b050-a61dab05872e","ios":"levelo://app?vid=bd4053fb-a507-47f8-b050-a61dab05872e"},"vehicle_type_id":"4","last_reported":1753258610,"current_range_meters":15200,"station_id":"ce4bhih2rcd13ifvqfs0","pricing_plan_id":"cebpf4jnsgd1na2vs0mg"},{"bike_id":"1936bddf-a776-4f15-b688-5654cc21c9d9","system_id":"levelo_inurba_marseille","lat":43.303,"lon":5.36906,"is_reserved":false,"is_disabled":false,"rental_uris":{"android":"levelo://app?vid=1936bddf-a776-4f15-b688-5654cc21c9d9","ios":"levelo://app?vid=1936bddf-a776-4f15-b688-5654cc21c9d9"},"vehicle_type_id":"4","last_reported":1753258610,"current_range_meters":15200,"station_id":"ce4bgqh2rcd13ifvqc5g","pricing_plan_id":"cebpf4jnsgd1na2vs0mg"},{"bike_id":"9b5baf63-d843-4090-808c-7461a839e99a","system_id":"levelo_inurba_marseille","lat":43.23192,"lon":5.35549,"is_reserved":false,"is_disabled":false,"rental_uris":{"android":"levelo://app?vid=9b5baf63-d843-4090-808c-7461a839e99a","ios":"levelo://app?vid=9b5baf63-d843-4090-808c-7461a839e99a"},"vehicle_type_id":"4","last_reported":1753258610,"current_range_meters":15200,"station_id":"ce4bhu92rcd13ifvqi70","pricing_plan_id":"cebpf4jnsgd1na2vs0mg"},{"bike_id":"4ab27091-1662-4811-87b9-a886b076324d","system_id":"levelo_inurba_marseille","lat":43.32481,"lon":5.36555,"is_reserved":false,"is_disabled":false,"rental_uris":{"android":"levelo://app?vid=4ab27091-1662-4811-87b9-a886b076324d","ios":"levelo://app?vid=4ab27091-1662-4811-87b9-a886b076324d"},"vehicle_type_id":"4","last_reported":1753258610,"current_range_meters":16000,"station_id":"ce4bhs12rcd13ifvqhvg","pricing_plan_id":"cebpf4jnsgd1na2vs0mg"},{"bike_id":"e3a9e6d1-788b-4774-babe-289560a0bee7","system_id":"levelo_inurba_marseille","lat":43.29977,"lon":5.37444,"is_reserved":false,"is_disabled":false,"rental_uris":{"android":"levelo://app?vid=e3a9e6d1-788b-4774-babe-289560a0bee7","ios":"levelo://app?vid=e3a9e6d1-788b-4774-babe-289560a0bee7"},"vehicle_type_id":"4","last_reported":1753258610,"current_range_meters":16000,"station_id":"","pricing_plan_id":"cebpf4jnsgd1na2vs0mg"},{"bike_id":"d509b331-e799-4503-90e7-40b1e687c26f","system_id":"levelo_inurba_marseille","lat":43.286108,"lon":5.370559,"is_reserved":false,"is_disabled":true,"rental_uris":{"android":"levelo://app?vid=d509b331-e799-4503-90e7-40b1e687c26f","ios":"levelo://app?vid=d509b331-e799-4503-90e7-40b1e687c26f"},"vehicle_type_id":"4","last_reported":1753258610,"current_range_meters":16000,"station_id":"ce4bht12rcd13ifvqi60","pricing_plan_id":"cebpf4jnsgd1na2vs0mg"},{"bike_id":"fedc9b46-f587-4e6b-b1ec-5adbe36a6c96","system_id":"levelo_inurba_marseille","lat":43.25938,"lon":5.4092,"is_reserved":false,"is_disabled":false,"rental_uris":{"android":"levelo://app?vid=fedc9b46-f587-4e6b-b1ec-5adbe36a6c96","ios":"levelo://app?vid=fedc9b46-f587-4e6b-b1ec-5adbe36a6c96"},"vehicle_type_id":"4","last_reported":1753258610,"current_range_meters":16000,"station_id":"ce4bhm92rcd13ifvqglg","pricing_plan_id":"cebpf4jnsgd1na2vs0mg"},{"bike_id":"7ebf7731-b057-460e-b22c-36adebc9b1cc","system_id":"levelo_inurba_marseille","lat":43.2418,"lon":5.39726,"is_reserved":false,"is_disabled":false,"rental_uris":{"android":"levelo://app?vid=7ebf7731-b057-460e-b22c-36adebc9b1cc","ios":"levelo://app?vid=7ebf7731-b057-460e-b22c-36adebc9b1cc"},"vehicle_type_id":"4","last_reported":1753258610,"current_range_meters":16000,"station_id":"ce4bhn12rcd13ifvqgpg","pricing_plan_id":"cebpf4jnsgd1na2vs0mg"},{"bike_id":"b147d87d-ad6b-4ee0-89e1-f2e85a2edd30","system_id":"levelo_inurba_marseille","lat":43.321082,"lon":5.367778,"is_reserved":false,"is_disabled":false,"rental_uris":{"android":"levelo://app?vid=b147d87d-ad6b-4ee0-89e1-f2e85a2edd30","ios":"levelo://app?vid=b147d87d-ad6b-4ee0-89e1-f2e85a2edd30"},"vehicle_type_id":"4","last_reported":1753258610,"current_range_meters":16000,"station_id":"ce4bhrh2rcd13ifvqhug","pricing_plan_id":"cebpf4jnsgd1na2vs0mg"},{"bike_id":"cef7c436-6927-42e9-aa9f-de28d427e1f2","system_id":"levelo_inurba_marseille","lat":43.250042,"lon":5.389464,"is_reserved":false,"is_disabled":false,"rental_uris":{"android":"levelo://app?vid=cef7c436-6927-42e9-aa9f-de28d427e1f2","ios":"levelo://app?vid=cef7c436-6927-42e9-aa9f-de28d427e1f2"},"vehicle_type_id":"4","last_reported":1753258610,"current_range_meters":16400,"station_id":"ce4bhgp2rcd13ifvqfd0","pricing_plan_id":"cebpf4jnsgd1na2vs0mg"},{"bike_id":"0e0b6a7f-76ca-44f7-ad2d-85251ada62fd","system_id":"levelo_inurba_marseille","lat":43.29627,"lon":5.37738,"is_reserved":false,"is_disabled":false,"rental_uris":{"android":"levelo://app?vid=0e0b6a7f-76ca-44f7-ad2d-85251ada62fd","ios":"levelo://app?vid=0e0b6a7f-76ca-44f7-ad2d-85251ada62fd"},"vehicle_type_id":"4","last_reported":1753258610,"current_range_meters":16000,"station_id":"ce4bgi92rcd13ifvqb90","pricing_plan_id":"cebpf4jnsgd1na2vs0mg"},{"bike_id":"add9499e-5500-47a8-81a2-1576bf87a6d6","system_id":"levelo_inurba_marseille","lat":43.266782,"lon":5.382698,"is_reserved":false,"is_disabled":false,"rental_uris":{"android":"levelo://app?vid=add9499e-5500-47a8-81a2-1576bf87a6d6","ios":"levelo://app?vid=add9499e-5500-47a8-81a2-1576bf87a6d6"},"vehicle_type_id":"4","last_reported":1753258610,"current_range_meters":16400,"station_id":"ce4bhg92rcd13ifvqf90","pricing_plan_id":"cebpf4jnsgd1na2vs0mg"},{"bike_id":"87efb87e-9c1b-48bc-9816-65bf93d44e2c","system_id":"levelo_inurba_marseille","lat":43.276176,"lon":5.361005,"is_reserved":false,"is_disabled":false,"rental_uris":{"android":"levelo://app?vid=87efb87e-9c1b-48bc-9816-65bf93d44e2c","ios":"levelo://app?vid=87efb87e-9c1b-48bc-9816-65bf93d44e2c"},"vehicle_type_id":"4","last_reported":1753258610,"current_range_meters":16400,"station_id":"","pricing_plan_id":"cebpf4jnsgd1na2vs0mg"},{"bike_id":"541e3f7a-640b-4d8c-977d-949ca2a087ab","system_id":"levelo_inurba_marseille","lat":43.30796,"lon":5.379577,"is_reserved":false,"is_disabled":true,"rental_uris":{"android":"levelo://app?vid=541e3f7a-640b-4d8c-977d-949ca2a087ab","ios":"levelo://app?vid=541e3f7a-640b-4d8c-977d-949ca2a087ab"},"vehicle_type_id":"4","last_reported":1753258610,"current_range_meters":16400,"station_id":"ce4bgt12rcd13ifvqce0","pricing_plan_id":"cebpf4jnsgd1na2vs0mg"},{"bike_id":"f9c9ff83-8548-4acb-a33b-495af4adeef4","system_id":"levelo_inurba_marseille","lat":43.3231,"lon":5.36708,"is_reserved":false,"is_disabled":false,"rental_uris":{"android":"levelo://app?vid=f9c9ff83-8548-4acb-a33b-495af4adeef4","ios":"levelo://app?vid=f9c9ff83-8548-4acb-a33b-495af4adeef4"},"vehicle_type_id":"4","last_reported":1753258610,"current_range_meters":16800,"station_id":"","pricing_plan_id":"cebpf4jnsgd1na2vs0mg"},{"bike_id":"b5ce8d93-17c0-45a5-b2b1-eefce45c2d79","system_id":"levelo_inurba_marseille","lat":43.318127,"lon":5.435134,"is_reserved":false,"is_disabled":false,"rental_uris":{"android":"levelo://app?vid=b5ce8d93-17c0-45a5-b2b1-eefce45c2d79","ios":"levelo://app?vid=b5ce8d93-17c0-45a5-b2b1-eefce45c2d79"},"vehicle_type_id":"4","last_reported":1753258610,"current_range_meters":16800,"station_id":"","pricing_plan_id":"cebpf4jnsgd1na2vs0mg"},{"bike_id":"a0de01aa-cd68-4a4d-8bab-65fa167b8610","system_id":"levelo_inurba_marseille","lat":43.231897,"lon":5.355594,"is_reserved":false,"is_disabled":false,"rental_uris":{"android":"levelo://app?vid=a0de01aa-cd68-4a4d-8bab-65fa167b8610","ios":"levelo://app?vid=a0de01aa-cd68-4a4d-8bab-65fa167b8610"},"vehicle_type_id":"4","last_reported":1753258610,"current_range_meters":16800,"station_id":"ce4bhu92rcd13ifvqi70","pricing_plan_id":"cebpf4jnsgd1na2vs0mg"},{"bike_id":"15764a2d-4dc5-45e2-a0da-be3a32d790d4","system_id":"levelo_inurba_marseille","lat":43.32342,"lon":5.40623,"is_reserved":false,"is_disabled":false,"rental_uris":{"android":"levelo://app?vid=15764a2d-4dc5-45e2-a0da-be3a32d790d4","ios":"levelo://app?vid=15764a2d-4dc5-45e2-a0da-be3a32d790d4"},"vehicle_type_id":"4","last_reported":1753258610,"current_range_meters":16800,"station_id":"","pricing_plan_id":"cebpf4jnsgd1na2vs0mg"},{"bike_id":"e8404a02-06ac-4381-bbb2-1247e5f5c9f1","system_id":"levelo_inurba_marseille","lat":43.25952,"lon":5.40889,"is_reserved":false,"is_disabled":false,"rental_uris":{"android":"levelo://app?vid=e8404a02-06ac-4381-bbb2-1247e5f5c9f1","ios":"levelo://app?vid=e8404a02-06ac-4381-bbb2-1247e5f5c9f1"},"vehicle_type_id":"4","last_reported":1753258610,"current_range_meters":16800,"station_id":"ce4bhm92rcd13ifvqglg","pricing_plan_id":"cebpf4jnsgd1na2vs0mg"},{"bike_id":"5f140933-6e5c-4c26-91e1-3b7250b0978a","system_id":"levelo_inurba_marseille","lat":43.30946,"lon":5.390437,"is_reserved":false,"is_disabled":false,"rental_uris":{"android":"levelo://app?vid=5f140933-6e5c-4c26-91e1-3b7250b0978a","ios":"levelo://app?vid=5f140933-6e5c-4c26-91e1-3b7250b0978a"},"vehicle_type_id":"4","last_reported":1753258610,"current_range_meters":16800,"station_id":"ce4bgup2rcd13ifvqco0","pricing_plan_id":"cebpf4jnsgd1na2vs0mg"},{"bike_id":"9ce312f1-cb07-4159-91d6-c11a68a5ee71","system_id":"levelo_inurba_marseille","lat":43.211906,"lon":5.350754,"is_reserved":false,"is_disabled":false,"rental_uris":{"android":"levelo://app?vid=9ce312f1-cb07-4159-91d6-c11a68a5ee71","ios":"levelo://app?vid=9ce312f1-cb07-4159-91d6-c11a68a5ee71"},"vehicle_type_id":"4","last_reported":1753258610,"current_range_meters":16800,"station_id":"st_cvj6sg6p6f1abm77japg","pricing_plan_id":"cebpf4jnsgd1na2vs0mg"},{"bike_id":"ed189939-8cb6-4782-929d-f2f7add8d8c9","system_id":"levelo_inurba_marseille","lat":43.31074,"lon":5.38353,"is_reserved":false,"is_disabled":false,"rental_uris":{"android":"levelo://app?vid=ed189939-8cb6-4782-929d-f2f7add8d8c9","ios":"levelo://app?vid=ed189939-8cb6-4782-929d-f2f7add8d8c9"},"vehicle_type_id":"4","last_reported":1753258610,"current_range_meters":17200,"station_id":"ce4bgv92rcd13ifvqcr0","pricing_plan_id":"cebpf4jnsgd1na2vs0mg"},{"bike_id":"f3217e35-0bb5-43ab-beb0-dd5e233a7114","system_id":"levelo_inurba_marseille","lat":43.25578,"lon":5.38241,"is_reserved":false,"is_disabled":false,"rental_uris":{"android":"levelo://app?vid=f3217e35-0bb5-43ab-beb0-dd5e233a7114","ios":"levelo://app?vid=f3217e35-0bb5-43ab-beb0-dd5e233a7114"},"vehicle_type_id":"4","last_reported":1753258610,"current_range_meters":17200,"station_id":"ce4bhih2rcd13ifvqfs0","pricing_plan_id":"cebpf4jnsgd1na2vs0mg"},{"bike_id":"82ac67a4-f160-4183-8787-791e1e658c64","system_id":"levelo_inurba_marseille","lat":43.29257,"lon":5.37613,"is_reserved":false,"is_disabled":false,"rental_uris":{"android":"levelo://app?vid=82ac67a4-f160-4183-8787-791e1e658c64","ios":"levelo://app?vid=82ac67a4-f160-4183-8787-791e1e658c64"},"vehicle_type_id":"4","last_reported":1753258610,"current_range_meters":17200,"station_id":"ce4bgi12rcd13ifvqb80","pricing_plan_id":"cebpf4jnsgd1na2vs0mg"},{"bike_id":"a30c148c-f24d-4612-ae4a-81b167aeb00f","system_id":"levelo_inurba_marseille","lat":43.24388,"lon":5.37045,"is_reserved":false,"is_disabled":false,"rental_uris":{"android":"levelo://app?vid=a30c148c-f24d-4612-ae4a-81b167aeb00f","ios":"levelo://app?vid=a30c148c-f24d-4612-ae4a-81b167aeb00f"},"vehicle_type_id":"4","last_reported":1753258610,"current_range_meters":16800,"station_id":"ce4bhhh2rcd13ifvqfk0","pricing_plan_id":"cebpf4jnsgd1na2vs0mg"},{"bike_id":"9e7bef7c-53f8-4848-95ce-ebad9a02dd2f","system_id":"levelo_inurba_marseille","lat":43.258661,"lon":5.398899,"is_reserved":false,"is_disabled":false,"rental_uris":{"android":"levelo://app?vid=9e7bef7c-53f8-4848-95ce-ebad9a02dd2f","ios":"levelo://app?vid=9e7bef7c-53f8-4848-95ce-ebad9a02dd2f"},"vehicle_type_id":"4","last_reported":1753258610,"current_range_meters":17200,"station_id":"ce4bhl92rcd13ifvqghg","pricing_plan_id":"cebpf4jnsgd1na2vs0mg"},{"bike_id":"4e246878-039b-4d7e-be6f-d1046356176e","system_id":"levelo_inurba_marseille","lat":43.29712,"lon":5.37691,"is_reserved":false,"is_disabled":false,"rental_uris":{"android":"levelo://app?vid=4e246878-039b-4d7e-be6f-d1046356176e","ios":"levelo://app?vid=4e246878-039b-4d7e-be6f-d1046356176e"},"vehicle_type_id":"4","last_reported":1753258610,"current_range_meters":16800,"station_id":"ce4bgkh2rcd13ifvqbl0","pricing_plan_id":"cebpf4jnsgd1na2vs0mg"},{"bike_id":"76b566b5-fc49-4933-a5d3-9292fa74c81d","system_id":"levelo_inurba_marseille","lat":43.28278,"lon":5.35063,"is_reserved":false,"is_disabled":false,"rental_uris":{"android":"levelo://app?vid=76b566b5-fc49-4933-a5d3-9292fa74c81d","ios":"levelo://app?vid=76b566b5-fc49-4933-a5d3-9292fa74c81d"},"vehicle_type_id":"4","last_reported":1753258610,"current_range_meters":17600,"station_id":"ce4bhbp2rcd13ifvqerg","pricing_plan_id":"cebpf4jnsgd1na2vs0mg"},{"bike_id":"540bf034-f01c-40e5-a779-10bbd6856c25","system_id":"levelo_inurba_marseille","lat":43.24188,"lon":5.39706,"is_reserved":false,"is_disabled":false,"rental_uris":{"android":"levelo://app?vid=540bf034-f01c-40e5-a779-10bbd6856c25","ios":"levelo://app?vid=540bf034-f01c-40e5-a779-10bbd6856c25"},"vehicle_type_id":"4","last_reported":1753258610,"current_range_meters":17600,"station_id":"ce4bhn12rcd13ifvqgpg","pricing_plan_id":"cebpf4jnsgd1na2vs0mg"},{"bike_id":"ad88a7b3-e0b1-4e08-ab7d-28d2c2d92c18","system_id":"levelo_inurba_marseille","lat":43.30549,"lon":5.36683,"is_reserved":false,"is_disabled":false,"rental_uris":{"android":"levelo://app?vid=ad88a7b3-e0b1-4e08-ab7d-28d2c2d92c18","ios":"levelo://app?vid=ad88a7b3-e0b1-4e08-ab7d-28d2c2d92c18"},"vehicle_type_id":"4","last_reported":1753258610,"current_range_meters":17600,"station_id":"ce4bgrp2rcd13ifvqc9g","pricing_plan_id":"cebpf4jnsgd1na2vs0mg"},{"bike_id":"4149a3b2-7e10-4f18-9c7c-288341f765dd","system_id":"levelo_inurba_marseille","lat":43.29622,"lon":5.37735,"is_reserved":false,"is_disabled":false,"rental_uris":{"android":"levelo://app?vid=4149a3b2-7e10-4f18-9c7c-288341f765dd","ios":"levelo://app?vid=4149a3b2-7e10-4f18-9c7c-288341f765dd"},"vehicle_type_id":"4","last_reported":1753258610,"current_range_meters":17600,"station_id":"ce4bgi92rcd13ifvqb90","pricing_plan_id":"cebpf4jnsgd1na2vs0mg"},{"bike_id":"04926843-c76c-4f21-bca7-bfe0356e48f3","system_id":"levelo_inurba_marseille","lat":43.29165,"lon":5.37162,"is_reserved":false,"is_disabled":false,"rental_uris":{"android":"levelo://app?vid=04926843-c76c-4f21-bca7-bfe0356e48f3","ios":"levelo://app?vid=04926843-c76c-4f21-bca7-bfe0356e48f3"},"vehicle_type_id":"4","last_reported":1753258610,"current_range_meters":17600,"station_id":"ce4bha92rcd13ifvqeh0","pricing_plan_id":"cebpf4jnsgd1na2vs0mg"},{"bike_id":"db9540b5-00b2-48e9-a553-5345efc8490f","system_id":"levelo_inurba_marseille","lat":43.25726,"lon":5.41104,"is_reserved":false,"is_disabled":false,"rental_uris":{"android":"levelo://app?vid=db9540b5-00b2-48e9-a553-5345efc8490f","ios":"levelo://app?vid=db9540b5-00b2-48e9-a553-5345efc8490f"},"vehicle_type_id":"4","last_reported":1753258610,"current_range_meters":17200,"station_id":"ce4bhkp2rcd13ifvqgd0","pricing_plan_id":"cebpf4jnsgd1na2vs0mg"},{"bike_id":"373be89f-732d-4aa5-a45c-0e7059c0af0b","system_id":"levelo_inurba_marseille","lat":43.297862,"lon":5.370997,"is_reserved":false,"is_disabled":false,"rental_uris":{"android":"levelo://app?vid=373be89f-732d-4aa5-a45c-0e7059c0af0b","ios":"levelo://app?vid=373be89f-732d-4aa5-a45c-0e7059c0af0b"},"vehicle_type_id":"4","last_reported":1753258610,"current_range_meters":17600,"station_id":"ce4bgop2rcd13ifvqc1g","pricing_plan_id":"cebpf4jnsgd1na2vs0mg"},{"bike_id":"bef9de9b-8181-4e34-abd3-b52922ba8dcd","system_id":"levelo_inurba_marseille","lat":43.290321,"lon":5.399674,"is_reserved":false,"is_disabled":false,"rental_uris":{"android":"levelo://app?vid=bef9de9b-8181-4e34-abd3-b52922ba8dcd","ios":"levelo://app?vid=bef9de9b-8181-4e34-abd3-b52922ba8dcd"},"vehicle_type_id":"4","last_reported":1753258610,"current_range_meters":17600,"station_id":"ce4bh392rcd13ifvqdm0","pricing_plan_id":"cebpf4jnsgd1na2vs0mg"},{"bike_id":"c69d4821-b6ee-43a7-a25d-5299c84379db","system_id":"levelo_inurba_marseille","lat":43.24181,"lon":5.39724,"is_reserved":false,"is_disabled":false,"rental_uris":{"android":"levelo://app?vid=c69d4821-b6ee-43a7-a25d-5299c84379db","ios":"levelo://app?vid=c69d4821-b6ee-43a7-a25d-5299c84379db"},"vehicle_type_id":"4","last_reported":1753258610,"current_range_meters":18000,"station_id":"ce4bhn12rcd13ifvqgpg","pricing_plan_id":"cebpf4jnsgd1na2vs0mg"},{"bike_id":"1d012236-37bb-41f4-8ff6-7e0b5c5ab6a6","system_id":"levelo_inurba_marseille","lat":43.305437,"lon":5.366961,"is_reserved":false,"is_disabled":false,"rental_uris":{"android":"levelo://app?vid=1d012236-37bb-41f4-8ff6-7e0b5c5ab6a6","ios":"levelo://app?vid=1d012236-37bb-41f4-8ff6-7e0b5c5ab6a6"},"vehicle_type_id":"4","last_reported":1753258610,"current_range_meters":18000,"station_id":"ce4bgrp2rcd13ifvqc9g","pricing_plan_id":"cebpf4jnsgd1na2vs0mg"},{"bike_id":"5ac85406-65d0-4336-aa89-4b04b2e6689e","system_id":"levelo_inurba_marseille","lat":43.332706,"lon":5.420083,"is_reserved":false,"is_disabled":false,"rental_uris":{"android":"levelo://app?vid=5ac85406-65d0-4336-aa89-4b04b2e6689e","ios":"levelo://app?vid=5ac85406-65d0-4336-aa89-4b04b2e6689e"},"vehicle_type_id":"4","last_reported":1753258610,"current_range_meters":18000,"station_id":"","pricing_plan_id":"cebpf4jnsgd1na2vs0mg"},{"bike_id":"7a8cb97c-0034-46dc-a245-57a51b419f4c","system_id":"levelo_inurba_marseille","lat":43.30542,"lon":5.36694,"is_reserved":false,"is_disabled":false,"rental_uris":{"android":"levelo://app?vid=7a8cb97c-0034-46dc-a245-57a51b419f4c","ios":"levelo://app?vid=7a8cb97c-0034-46dc-a245-57a51b419f4c"},"vehicle_type_id":"4","last_reported":1753258610,"current_range_meters":18000,"station_id":"ce4bgrp2rcd13ifvqc9g","pricing_plan_id":"cebpf4jnsgd1na2vs0mg"},{"bike_id":"85847860-b992-4dd9-88ec-01041b95926d","system_id":"levelo_inurba_marseille","lat":43.29038,"lon":5.39977,"is_reserved":false,"is_disabled":false,"rental_uris":{"android":"levelo://app?vid=85847860-b992-4dd9-88ec-01041b95926d","ios":"levelo://app?vid=85847860-b992-4dd9-88ec-01041b95926d"},"vehicle_type_id":"4","last_reported":1753258610,"current_range_meters":18000,"station_id":"ce4bh392rcd13ifvqdm0","pricing_plan_id":"cebpf4jnsgd1na2vs0mg"},{"bike_id":"59aef8ab-0509-4105-bf43-fc4eaf6c313d","system_id":"levelo_inurba_marseille","lat":43.29279,"lon":5.40119,"is_reserved":false,"is_disabled":false,"rental_uris":{"android":"levelo://app?vid=59aef8ab-0509-4105-bf43-fc4eaf6c313d","ios":"levelo://app?vid=59aef8ab-0509-4105-bf43-fc4eaf6c313d"},"vehicle_type_id":"4","last_reported":1753258610,"current_range_meters":18000,"station_id":"ce4bh312rcd13ifvqdk0","pricing_plan_id":"cebpf4jnsgd1na2vs0mg"},{"bike_id":"3cd09fc8-9554-4236-8496-0931a7be09d1","system_id":"levelo_inurba_marseille","lat":43.211988,"lon":5.350709,"is_reserved":false,"is_disabled":false,"rental_uris":{"android":"levelo://app?vid=3cd09fc8-9554-4236-8496-0931a7be09d1","ios":"levelo://app?vid=3cd09fc8-9554-4236-8496-0931a7be09d1"},"vehicle_type_id":"4","last_reported":1753258610,"current_range_meters":18000,"station_id":"st_cvj6sg6p6f1abm77japg","pricing_plan_id":"cebpf4jnsgd1na2vs0mg"},{"bike_id":"5c27375e-cd54-49a3-9325-c65e26eca2f9","system_id":"levelo_inurba_marseille","lat":43.29033,"lon":5.37555,"is_reserved":false,"is_disabled":false,"rental_uris":{"android":"levelo://app?vid=5c27375e-cd54-49a3-9325-c65e26eca2f9","ios":"levelo://app?vid=5c27375e-cd54-49a3-9325-c65e26eca2f9"},"vehicle_type_id":"4","last_reported":1753258610,"current_range_meters":18000,"station_id":"ce4bh692rcd13ifvqe90","pricing_plan_id":"cebpf4jnsgd1na2vs0mg"},{"bike_id":"99145286-903e-4392-876d-cccb7746f888","system_id":"levelo_inurba_marseille","lat":43.313635,"lon":5.36702,"is_reserved":false,"is_disabled":false,"rental_uris":{"android":"levelo://app?vid=99145286-903e-4392-876d-cccb7746f888","ios":"levelo://app?vid=99145286-903e-4392-876d-cccb7746f888"},"vehicle_type_id":"4","last_reported":1753258610,"current_range_meters":18000,"station_id":"ce4bgr92rcd13ifvqc6g","pricing_plan_id":"cebpf4jnsgd1na2vs0mg"},{"bike_id":"f493a3a9-7f6b-470e-bce7-7019418af039","system_id":"levelo_inurba_marseille","lat":43.27897,"lon":5.37991,"is_reserved":false,"is_disabled":false,"rental_uris":{"android":"levelo://app?vid=f493a3a9-7f6b-470e-bce7-7019418af039","ios":"levelo://app?vid=f493a3a9-7f6b-470e-bce7-7019418af039"},"vehicle_type_id":"4","last_reported":1753258610,"current_range_meters":18000,"station_id":"ce4bhf92rcd13ifvqf50","pricing_plan_id":"cebpf4jnsgd1na2vs0mg"},{"bike_id":"02e21f1f-2973-461c-b579-e3c69785aa09","system_id":"levelo_inurba_marseille","lat":43.30537,"lon":5.36694,"is_reserved":false,"is_disabled":false,"rental_uris":{"android":"levelo://app?vid=02e21f1f-2973-461c-b579-e3c69785aa09","ios":"levelo://app?vid=02e21f1f-2973-461c-b579-e3c69785aa09"},"vehicle_type_id":"4","last_reported":1753258610,"current_range_meters":18000,"station_id":"ce4bgrp2rcd13ifvqc9g","pricing_plan_id":"cebpf4jnsgd1na2vs0mg"},{"bike_id":"0a7e2862-d8ec-4c77-89d9-cfcdd51f8d75","system_id":"levelo_inurba_marseille","lat":43.31498,"lon":5.37309,"is_reserved":false,"is_disabled":false,"rental_uris":{"android":"levelo://app?vid=0a7e2862-d8ec-4c77-89d9-cfcdd51f8d75","ios":"levelo://app?vid=0a7e2862-d8ec-4c77-89d9-cfcdd51f8d75"},"vehicle_type_id":"4","last_reported":1753258610,"current_range_meters":18000,"station_id":"ce4bgt12rcd13ifvqcd0","pricing_plan_id":"cebpf4jnsgd1na2vs0mg"},{"bike_id":"7e27761b-b202-4d0d-b238-d59e21c27e4e","system_id":"levelo_inurba_marseille","lat":43.30904,"lon":5.36845,"is_reserved":false,"is_disabled":false,"rental_uris":{"android":"levelo://app?vid=7e27761b-b202-4d0d-b238-d59e21c27e4e","ios":"levelo://app?vid=7e27761b-b202-4d0d-b238-d59e21c27e4e"},"vehicle_type_id":"4","last_reported":1753258610,"current_range_meters":18000,"station_id":"ce4bgn92rcd13ifvqbvg","pricing_plan_id":"cebpf4jnsgd1na2vs0mg"},{"bike_id":"4b7b5be6-0a5b-41a1-8516-a13df95ad868","system_id":"levelo_inurba_marseille","lat":43.33768,"lon":5.37467,"is_reserved":false,"is_disabled":false,"rental_uris":{"android":"levelo://app?vid=4b7b5be6-0a5b-41a1-8516-a13df95ad868","ios":"levelo://app?vid=4b7b5be6-0a5b-41a1-8516-a13df95ad868"},"vehicle_type_id":"4","last_reported":1753258610,"current_range_meters":18800,"station_id":"","pricing_plan_id":"cebpf4jnsgd1na2vs0mg"},{"bike_id":"64135585-4d0e-4628-ba93-734f6a1bd1b8","system_id":"levelo_inurba_marseille","lat":43.24181,"lon":5.39721,"is_reserved":false,"is_disabled":false,"rental_uris":{"android":"levelo://app?vid=64135585-4d0e-4628-ba93-734f6a1bd1b8","ios":"levelo://app?vid=64135585-4d0e-4628-ba93-734f6a1bd1b8"},"vehicle_type_id":"4","last_reported":1753258610,"current_range_meters":18800,"station_id":"ce4bhn12rcd13ifvqgpg","pricing_plan_id":"cebpf4jnsgd1na2vs0mg"},{"bike_id":"14168552-349d-439d-960a-cfdd0a062c30","system_id":"levelo_inurba_marseille","lat":43.31484,"lon":5.37288,"is_reserved":false,"is_disabled":false,"rental_uris":{"android":"levelo://app?vid=14168552-349d-439d-960a-cfdd0a062c30","ios":"levelo://app?vid=14168552-349d-439d-960a-cfdd0a062c30"},"vehicle_type_id":"4","last_reported":1753258610,"current_range_meters":18800,"station_id":"ce4bgt12rcd13ifvqcd0","pricing_plan_id":"cebpf4jnsgd1na2vs0mg"},{"bike_id":"77ed7c3b-20eb-461b-95fb-dd3b2f1d192f","system_id":"levelo_inurba_marseille","lat":43.29291,"lon":5.3746,"is_reserved":false,"is_disabled":false,"rental_uris":{"android":"levelo://app?vid=77ed7c3b-20eb-461b-95fb-dd3b2f1d192f","ios":"levelo://app?vid=77ed7c3b-20eb-461b-95fb-dd3b2f1d192f"},"vehicle_type_id":"4","last_reported":1753258610,"current_range_meters":18000,"station_id":"ce4bgi12rcd13ifvqb70","pricing_plan_id":"cebpf4jnsgd1na2vs0mg"},{"bike_id":"6e8e7a5d-4023-441c-a1eb-817fc507f786","system_id":"levelo_inurba_marseille","lat":43.30939,"lon":5.40136,"is_reserved":false,"is_disabled":false,"rental_uris":{"android":"levelo://app?vid=6e8e7a5d-4023-441c-a1eb-817fc507f786","ios":"levelo://app?vid=6e8e7a5d-4023-441c-a1eb-817fc507f786"},"vehicle_type_id":"4","last_reported":1753258610,"current_range_meters":18800,"station_id":"ce4bgvp2rcd13ifvqct0","pricing_plan_id":"cebpf4jnsgd1na2vs0mg"},{"bike_id":"c056311f-78c9-4e18-8685-91c659ddb125","system_id":"levelo_inurba_marseille","lat":43.316139,"lon":5.389716,"is_reserved":false,"is_disabled":false,"rental_uris":{"android":"levelo://app?vid=c056311f-78c9-4e18-8685-91c659ddb125","ios":"levelo://app?vid=c056311f-78c9-4e18-8685-91c659ddb125"},"vehicle_type_id":"4","last_reported":1753258610,"current_range_meters":18800,"station_id":"","pricing_plan_id":"cebpf4jnsgd1na2vs0mg"},{"bike_id":"ae131367-d818-44a0-9e1d-4aa65dcdb16a","system_id":"levelo_inurba_marseille","lat":43.27508,"lon":5.39655,"is_reserved":false,"is_disabled":false,"rental_uris":{"android":"levelo://app?vid=ae131367-d818-44a0-9e1d-4aa65dcdb16a","ios":"levelo://app?vid=ae131367-d818-44a0-9e1d-4aa65dcdb16a"},"vehicle_type_id":"4","last_reported":1753258610,"current_range_meters":18800,"station_id":"","pricing_plan_id":"cebpf4jnsgd1na2vs0mg"},{"bike_id":"eabf8af7-0ba6-4ed7-9dc1-8770e1d0db11","system_id":"levelo_inurba_marseille","lat":43.305287,"lon":5.367015,"is_reserved":false,"is_disabled":false,"rental_uris":{"android":"levelo://app?vid=eabf8af7-0ba6-4ed7-9dc1-8770e1d0db11","ios":"levelo://app?vid=eabf8af7-0ba6-4ed7-9dc1-8770e1d0db11"},"vehicle_type_id":"4","last_reported":1753258610,"current_range_meters":18800,"station_id":"ce4bgrp2rcd13ifvqc9g","pricing_plan_id":"cebpf4jnsgd1na2vs0mg"},{"bike_id":"089b038a-b59f-4294-87b9-05d0c9263440","system_id":"levelo_inurba_marseille","lat":43.29262,"lon":5.37609,"is_reserved":false,"is_disabled":false,"rental_uris":{"android":"levelo://app?vid=089b038a-b59f-4294-87b9-05d0c9263440","ios":"levelo://app?vid=089b038a-b59f-4294-87b9-05d0c9263440"},"vehicle_type_id":"4","last_reported":1753258610,"current_range_meters":18800,"station_id":"ce4bgi12rcd13ifvqb80","pricing_plan_id":"cebpf4jnsgd1na2vs0mg"},{"bike_id":"bc0bf34e-7dd4-4a64-b29e-55c3332ed35e","system_id":"levelo_inurba_marseille","lat":43.31713,"lon":5.37783,"is_reserved":false,"is_disabled":false,"rental_uris":{"android":"levelo://app?vid=bc0bf34e-7dd4-4a64-b29e-55c3332ed35e","ios":"levelo://app?vid=bc0bf34e-7dd4-4a64-b29e-55c3332ed35e"},"vehicle_type_id":"4","last_reported":1753258610,"current_range_meters":18800,"station_id":"ce4bgth2rcd13ifvqch0","pricing_plan_id":"cebpf4jnsgd1na2vs0mg"},{"bike_id":"6bb1f31c-9335-4f39-9585-31374a4775f9","system_id":"levelo_inurba_marseille","lat":43.325583,"lon":5.379059,"is_reserved":false,"is_disabled":false,"rental_uris":{"android":"levelo://app?vid=6bb1f31c-9335-4f39-9585-31374a4775f9","ios":"levelo://app?vid=6bb1f31c-9335-4f39-9585-31374a4775f9"},"vehicle_type_id":"4","last_reported":1753258610,"current_range_meters":18800,"station_id":"","pricing_plan_id":"cebpf4jnsgd1na2vs0mg"},{"bike_id":"f5b17375-bc8d-4769-a175-f59af270f718","system_id":"levelo_inurba_marseille","lat":43.30949,"lon":5.39038,"is_reserved":false,"is_disabled":false,"rental_uris":{"android":"levelo://app?vid=f5b17375-bc8d-4769-a175-f59af270f718","ios":"levelo://app?vid=f5b17375-bc8d-4769-a175-f59af270f718"},"vehicle_type_id":"4","last_reported":1753258610,"current_range_meters":18800,"station_id":"ce4bgup2rcd13ifvqco0","pricing_plan_id":"cebpf4jnsgd1na2vs0mg"},{"bike_id":"fbed0589-65b6-4a23-b23e-a05869c0aa5a","system_id":"levelo_inurba_marseille","lat":43.2904,"lon":5.39988,"is_reserved":false,"is_disabled":false,"rental_uris":{"android":"levelo://app?vid=fbed0589-65b6-4a23-b23e-a05869c0aa5a","ios":"levelo://app?vid=fbed0589-65b6-4a23-b23e-a05869c0aa5a"},"vehicle_type_id":"4","last_reported":1753258610,"current_range_meters":18800,"station_id":"ce4bh392rcd13ifvqdm0","pricing_plan_id":"cebpf4jnsgd1na2vs0mg"},{"bike_id":"8ae20bdf-bf90-461a-986c-b66f491b84cd","system_id":"levelo_inurba_marseille","lat":43.30371,"lon":5.42484,"is_reserved":false,"is_disabled":false,"rental_uris":{"android":"levelo://app?vid=8ae20bdf-bf90-461a-986c-b66f491b84cd","ios":"levelo://app?vid=8ae20bdf-bf90-461a-986c-b66f491b84cd"},"vehicle_type_id":"4","last_reported":1753258610,"current_range_meters":18800,"station_id":"ce4bhoh2rcd13ifvqh6g","pricing_plan_id":"cebpf4jnsgd1na2vs0mg"},{"bike_id":"6021a504-979b-4f91-af66-2471777713cc","system_id":"levelo_inurba_marseille","lat":43.24166,"lon":5.36388,"is_reserved":false,"is_disabled":false,"rental_uris":{"android":"levelo://app?vid=6021a504-979b-4f91-af66-2471777713cc","ios":"levelo://app?vid=6021a504-979b-4f91-af66-2471777713cc"},"vehicle_type_id":"4","last_reported":1753258610,"current_range_meters":18800,"station_id":"cpo36qri1sfpv3e86is0","pricing_plan_id":"cebpf4jnsgd1na2vs0mg"},{"bike_id":"082e0405-ad1e-4a8d-8dd4-fcc80c6889bc","system_id":"levelo_inurba_marseille","lat":43.24162,"lon":5.39694,"is_reserved":false,"is_disabled":false,"rental_uris":{"android":"levelo://app?vid=082e0405-ad1e-4a8d-8dd4-fcc80c6889bc","ios":"levelo://app?vid=082e0405-ad1e-4a8d-8dd4-fcc80c6889bc"},"vehicle_type_id":"4","last_reported":1753258610,"current_range_meters":18800,"station_id":"ce4bhn12rcd13ifvqgpg","pricing_plan_id":"cebpf4jnsgd1na2vs0mg"},{"bike_id":"094156a8-5ba9-450e-aa08-9a7a1724f461","system_id":"levelo_inurba_marseille","lat":43.31114,"lon":5.37755,"is_reserved":false,"is_disabled":false,"rental_uris":{"android":"levelo://app?vid=094156a8-5ba9-450e-aa08-9a7a1724f461","ios":"levelo://app?vid=094156a8-5ba9-450e-aa08-9a7a1724f461"},"vehicle_type_id":"4","last_reported":1753258610,"current_range_meters":19200,"station_id":"ce4bgt92rcd13ifvqcg0","pricing_plan_id":"cebpf4jnsgd1na2vs0mg"},{"bike_id":"39de655c-bda1-4ca0-aae3-ec1f163d3a19","system_id":"levelo_inurba_marseille","lat":43.31481,"lon":5.3731,"is_reserved":false,"is_disabled":false,"rental_uris":{"android":"levelo://app?vid=39de655c-bda1-4ca0-aae3-ec1f163d3a19","ios":"levelo://app?vid=39de655c-bda1-4ca0-aae3-ec1f163d3a19"},"vehicle_type_id":"4","last_reported":1753258610,"current_range_meters":19200,"station_id":"ce4bgt12rcd13ifvqcd0","pricing_plan_id":"cebpf4jnsgd1na2vs0mg"},{"bike_id":"65b83cf6-e1fd-46dd-a05c-15dae51d0249","system_id":"levelo_inurba_marseille","lat":43.30951,"lon":5.39027,"is_reserved":false,"is_disabled":false,"rental_uris":{"android":"levelo://app?vid=65b83cf6-e1fd-46dd-a05c-15dae51d0249","ios":"levelo://app?vid=65b83cf6-e1fd-46dd-a05c-15dae51d0249"},"vehicle_type_id":"4","last_reported":1753258610,"current_range_meters":19200,"station_id":"ce4bgup2rcd13ifvqco0","pricing_plan_id":"cebpf4jnsgd1na2vs0mg"},{"bike_id":"2db10eb2-d00b-429c-b0ae-d1387a8d4f92","system_id":"levelo_inurba_marseille","lat":43.284279,"lon":5.349796,"is_reserved":false,"is_disabled":true,"rental_uris":{"android":"levelo://app?vid=2db10eb2-d00b-429c-b0ae-d1387a8d4f92","ios":"levelo://app?vid=2db10eb2-d00b-429c-b0ae-d1387a8d4f92"},"vehicle_type_id":"4","last_reported":1753258610,"current_range_meters":19200,"station_id":"ce4bhbh2rcd13ifvqepg","pricing_plan_id":"cebpf4jnsgd1na2vs0mg"},{"bike_id":"70737bad-8214-4681-8a7d-fa98042cf105","system_id":"levelo_inurba_marseille","lat":43.29065,"lon":5.40042,"is_reserved":false,"is_disabled":false,"rental_uris":{"android":"levelo://app?vid=70737bad-8214-4681-8a7d-fa98042cf105","ios":"levelo://app?vid=70737bad-8214-4681-8a7d-fa98042cf105"},"vehicle_type_id":"4","last_reported":1753258610,"current_range_meters":19200,"station_id":"","pricing_plan_id":"cebpf4jnsgd1na2vs0mg"},{"bike_id":"5b66529e-eddd-4037-99d4-f752f419d69b","system_id":"levelo_inurba_marseille","lat":43.30529,"lon":5.36537,"is_reserved":false,"is_disabled":false,"rental_uris":{"android":"levelo://app?vid=5b66529e-eddd-4037-99d4-f752f419d69b","ios":"levelo://app?vid=5b66529e-eddd-4037-99d4-f752f419d69b"},"vehicle_type_id":"4","last_reported":1753258610,"current_range_meters":19200,"station_id":"ce4bgs12rcd13ifvqcag","pricing_plan_id":"cebpf4jnsgd1na2vs0mg"},{"bike_id":"88ba686c-e916-48b4-a187-3089cccb5922","system_id":"levelo_inurba_marseille","lat":43.314873,"lon":5.37285,"is_reserved":false,"is_disabled":false,"rental_uris":{"android":"levelo://app?vid=88ba686c-e916-48b4-a187-3089cccb5922","ios":"levelo://app?vid=88ba686c-e916-48b4-a187-3089cccb5922"},"vehicle_type_id":"4","last_reported":1753258610,"current_range_meters":19200,"station_id":"ce4bgt12rcd13ifvqcd0","pricing_plan_id":"cebpf4jnsgd1na2vs0mg"},{"bike_id":"18b86593-4f21-41ed-81b3-f3a5b378dc91","system_id":"levelo_inurba_marseille","lat":43.312339,"lon":5.381309,"is_reserved":false,"is_disabled":false,"rental_uris":{"android":"levelo://app?vid=18b86593-4f21-41ed-81b3-f3a5b378dc91","ios":"levelo://app?vid=18b86593-4f21-41ed-81b3-f3a5b378dc91"},"vehicle_type_id":"4","last_reported":1753258610,"current_range_meters":19200,"station_id":"","pricing_plan_id":"cebpf4jnsgd1na2vs0mg"},{"bike_id":"b7dad234-e0b1-49ef-a753-683227550af8","system_id":"levelo_inurba_marseille","lat":43.30913,"lon":5.36848,"is_reserved":false,"is_disabled":false,"rental_uris":{"android":"levelo://app?vid=b7dad234-e0b1-49ef-a753-683227550af8","ios":"levelo://app?vid=b7dad234-e0b1-49ef-a753-683227550af8"},"vehicle_type_id":"4","last_reported":1753258610,"current_range_meters":19200,"station_id":"ce4bgn92rcd13ifvqbvg","pricing_plan_id":"cebpf4jnsgd1na2vs0mg"},{"bike_id":"1ad257b5-7f83-42c1-867f-92635ff1abbf","system_id":"levelo_inurba_marseille","lat":43.229367,"lon":5.353784,"is_reserved":false,"is_disabled":false,"rental_uris":{"android":"levelo://app?vid=1ad257b5-7f83-42c1-867f-92635ff1abbf","ios":"levelo://app?vid=1ad257b5-7f83-42c1-867f-92635ff1abbf"},"vehicle_type_id":"4","last_reported":1753258610,"current_range_meters":19200,"station_id":"cpo3532slgdg3j2ikp40","pricing_plan_id":"cebpf4jnsgd1na2vs0mg"},{"bike_id":"9fa0f6a0-6f14-43c0-9ada-2d061d637090","system_id":"levelo_inurba_marseille","lat":43.24386,"lon":5.37058,"is_reserved":false,"is_disabled":false,"rental_uris":{"android":"levelo://app?vid=9fa0f6a0-6f14-43c0-9ada-2d061d637090","ios":"levelo://app?vid=9fa0f6a0-6f14-43c0-9ada-2d061d637090"},"vehicle_type_id":"4","last_reported":1753258610,"current_range_meters":19200,"station_id":"ce4bhhh2rcd13ifvqfk0","pricing_plan_id":"cebpf4jnsgd1na2vs0mg"},{"bike_id":"92fe78eb-6d43-404c-945b-d6e71c40003a","system_id":"levelo_inurba_marseille","lat":43.28704,"lon":5.37389,"is_reserved":false,"is_disabled":false,"rental_uris":{"android":"levelo://app?vid=92fe78eb-6d43-404c-945b-d6e71c40003a","ios":"levelo://app?vid=92fe78eb-6d43-404c-945b-d6e71c40003a"},"vehicle_type_id":"4","last_reported":1753258610,"current_range_meters":19200,"station_id":"ce4bh3p2rcd13ifvqdq0","pricing_plan_id":"cebpf4jnsgd1na2vs0mg"},{"bike_id":"0063384d-b427-49db-b8ac-b40219c5e899","system_id":"levelo_inurba_marseille","lat":43.29575,"lon":5.37509,"is_reserved":false,"is_disabled":false,"rental_uris":{"android":"levelo://app?vid=0063384d-b427-49db-b8ac-b40219c5e899","ios":"levelo://app?vid=0063384d-b427-49db-b8ac-b40219c5e899"},"vehicle_type_id":"4","last_reported":1753258610,"current_range_meters":19600,"station_id":"ce4bgh92rcd13ifvqb50","pricing_plan_id":"cebpf4jnsgd1na2vs0mg"},{"bike_id":"6f5dd37b-cfc6-4a37-9873-3d4298ee40cc","system_id":"levelo_inurba_marseille","lat":43.28267,"lon":5.3505,"is_reserved":false,"is_disabled":false,"rental_uris":{"android":"levelo://app?vid=6f5dd37b-cfc6-4a37-9873-3d4298ee40cc","ios":"levelo://app?vid=6f5dd37b-cfc6-4a37-9873-3d4298ee40cc"},"vehicle_type_id":"4","last_reported":1753258610,"current_range_meters":19600,"station_id":"ce4bhbp2rcd13ifvqerg","pricing_plan_id":"cebpf4jnsgd1na2vs0mg"},{"bike_id":"d30f66f5-9995-4a0a-832b-41fe2c74d0c0","system_id":"levelo_inurba_marseille","lat":43.22502,"lon":5.34781,"is_reserved":false,"is_disabled":false,"rental_uris":{"android":"levelo://app?vid=d30f66f5-9995-4a0a-832b-41fe2c74d0c0","ios":"levelo://app?vid=d30f66f5-9995-4a0a-832b-41fe2c74d0c0"},"vehicle_type_id":"4","last_reported":1753258610,"current_range_meters":19600,"station_id":"","pricing_plan_id":"cebpf4jnsgd1na2vs0mg"},{"bike_id":"5ae6ae12-29db-4b9f-b7a7-07b74f66bd7c","system_id":"levelo_inurba_marseille","lat":43.31253,"lon":5.36831,"is_reserved":false,"is_disabled":false,"rental_uris":{"android":"levelo://app?vid=5ae6ae12-29db-4b9f-b7a7-07b74f66bd7c","ios":"levelo://app?vid=5ae6ae12-29db-4b9f-b7a7-07b74f66bd7c"},"vehicle_type_id":"4","last_reported":1753258610,"current_range_meters":19600,"station_id":"ce4bgl92rcd13ifvqbq0","pricing_plan_id":"cebpf4jnsgd1na2vs0mg"},{"bike_id":"61cb5b9a-9cee-4d3f-8bba-365148ee2e42","system_id":"levelo_inurba_marseille","lat":43.2587,"lon":5.39884,"is_reserved":false,"is_disabled":false,"rental_uris":{"android":"levelo://app?vid=61cb5b9a-9cee-4d3f-8bba-365148ee2e42","ios":"levelo://app?vid=61cb5b9a-9cee-4d3f-8bba-365148ee2e42"},"vehicle_type_id":"4","last_reported":1753258610,"current_range_meters":19600,"station_id":"ce4bhl92rcd13ifvqghg","pricing_plan_id":"cebpf4jnsgd1na2vs0mg"},{"bike_id":"750d370d-abb4-47b3-b4f7-7ef76b03801f","system_id":"levelo_inurba_marseille","lat":43.29688,"lon":5.37931,"is_reserved":false,"is_disabled":false,"rental_uris":{"android":"levelo://app?vid=750d370d-abb4-47b3-b4f7-7ef76b03801f","ios":"levelo://app?vid=750d370d-abb4-47b3-b4f7-7ef76b03801f"},"vehicle_type_id":"4","last_reported":1753258610,"current_range_meters":19600,"station_id":"","pricing_plan_id":"cebpf4jnsgd1na2vs0mg"},{"bike_id":"3830d90c-525d-4441-bcf8-ce88a92c5a4d","system_id":"levelo_inurba_marseille","lat":43.260959,"lon":5.406082,"is_reserved":false,"is_disabled":false,"rental_uris":{"android":"levelo://app?vid=3830d90c-525d-4441-bcf8-ce88a92c5a4d","ios":"levelo://app?vid=3830d90c-525d-4441-bcf8-ce88a92c5a4d"},"vehicle_type_id":"4","last_reported":1753258610,"current_range_meters":19600,"station_id":"ce4bhmh2rcd13ifvqgmg","pricing_plan_id":"cebpf4jnsgd1na2vs0mg"},{"bike_id":"20586eb9-d076-4483-9da1-32bd7f971b1a","system_id":"levelo_inurba_marseille","lat":43.25929,"lon":5.40883,"is_reserved":false,"is_disabled":false,"rental_uris":{"android":"levelo://app?vid=20586eb9-d076-4483-9da1-32bd7f971b1a","ios":"levelo://app?vid=20586eb9-d076-4483-9da1-32bd7f971b1a"},"vehicle_type_id":"4","last_reported":1753258610,"current_range_meters":19600,"station_id":"ce4bhm92rcd13ifvqglg","pricing_plan_id":"cebpf4jnsgd1na2vs0mg"},{"bike_id":"dcf364c9-c131-48bb-ad27-be19d2cce662","system_id":"levelo_inurba_marseille","lat":43.30528,"lon":5.36694,"is_reserved":false,"is_disabled":false,"rental_uris":{"android":"levelo://app?vid=dcf364c9-c131-48bb-ad27-be19d2cce662","ios":"levelo://app?vid=dcf364c9-c131-48bb-ad27-be19d2cce662"},"vehicle_type_id":"4","last_reported":1753258610,"current_range_meters":19600,"station_id":"ce4bgrp2rcd13ifvqc9g","pricing_plan_id":"cebpf4jnsgd1na2vs0mg"},{"bike_id":"03ea2c59-f6fb-4561-9c17-65a435ddc8c4","system_id":"levelo_inurba_marseille","lat":43.30948,"lon":5.39051,"is_reserved":false,"is_disabled":false,"rental_uris":{"android":"levelo://app?vid=03ea2c59-f6fb-4561-9c17-65a435ddc8c4","ios":"levelo://app?vid=03ea2c59-f6fb-4561-9c17-65a435ddc8c4"},"vehicle_type_id":"4","last_reported":1753258610,"current_range_meters":19600,"station_id":"ce4bgup2rcd13ifvqco0","pricing_plan_id":"cebpf4jnsgd1na2vs0mg"},{"bike_id":"a3a311b4-31d7-4ed3-a5ac-f3d9a357eca4","system_id":"levelo_inurba_marseille","lat":43.26679,"lon":5.38264,"is_reserved":false,"is_disabled":false,"rental_uris":{"android":"levelo://app?vid=a3a311b4-31d7-4ed3-a5ac-f3d9a357eca4","ios":"levelo://app?vid=a3a311b4-31d7-4ed3-a5ac-f3d9a357eca4"},"vehicle_type_id":"4","last_reported":1753258610,"current_range_meters":19600,"station_id":"ce4bhg92rcd13ifvqf90","pricing_plan_id":"cebpf4jnsgd1na2vs0mg"},{"bike_id":"c677aaa6-17a8-40d0-9850-a602dd2f8807","system_id":"levelo_inurba_marseille","lat":43.300399,"lon":5.374404,"is_reserved":false,"is_disabled":false,"rental_uris":{"android":"levelo://app?vid=c677aaa6-17a8-40d0-9850-a602dd2f8807","ios":"levelo://app?vid=c677aaa6-17a8-40d0-9850-a602dd2f8807"},"vehicle_type_id":"4","last_reported":1753258610,"current_range_meters":19600,"station_id":"","pricing_plan_id":"cebpf4jnsgd1na2vs0mg"},{"bike_id":"76c65f84-3b49-4269-890c-8259fe6ade74","system_id":"levelo_inurba_marseille","lat":43.323581,"lon":5.367418,"is_reserved":false,"is_disabled":false,"rental_uris":{"android":"levelo://app?vid=76c65f84-3b49-4269-890c-8259fe6ade74","ios":"levelo://app?vid=76c65f84-3b49-4269-890c-8259fe6ade74"},"vehicle_type_id":"4","last_reported":1753258610,"current_range_meters":19600,"station_id":"ce4bhsh2rcd13ifvqi2g","pricing_plan_id":"cebpf4jnsgd1na2vs0mg"},{"bike_id":"1d7843fc-1d30-4f8e-9862-1e38feda68cc","system_id":"levelo_inurba_marseille","lat":43.27374,"lon":5.36253,"is_reserved":false,"is_disabled":false,"rental_uris":{"android":"levelo://app?vid=1d7843fc-1d30-4f8e-9862-1e38feda68cc","ios":"levelo://app?vid=1d7843fc-1d30-4f8e-9862-1e38feda68cc"},"vehicle_type_id":"4","last_reported":1753258610,"current_range_meters":19600,"station_id":"ce4bhbh2rcd13ifvqeo0","pricing_plan_id":"cebpf4jnsgd1na2vs0mg"},{"bike_id":"c85692e8-4597-42dc-a7f6-0589347a5f9b","system_id":"levelo_inurba_marseille","lat":43.30544,"lon":5.36691,"is_reserved":false,"is_disabled":false,"rental_uris":{"android":"levelo://app?vid=c85692e8-4597-42dc-a7f6-0589347a5f9b","ios":"levelo://app?vid=c85692e8-4597-42dc-a7f6-0589347a5f9b"},"vehicle_type_id":"4","last_reported":1753258610,"current_range_meters":20000,"station_id":"ce4bgrp2rcd13ifvqc9g","pricing_plan_id":"cebpf4jnsgd1na2vs0mg"},{"bike_id":"a091473d-ed79-446c-ab9e-5f70e518953d","system_id":"levelo_inurba_marseille","lat":43.30472,"lon":5.37901,"is_reserved":false,"is_disabled":false,"rental_uris":{"android":"levelo://app?vid=a091473d-ed79-446c-ab9e-5f70e518953d","ios":"levelo://app?vid=a091473d-ed79-446c-ab9e-5f70e518953d"},"vehicle_type_id":"4","last_reported":1753258610,"current_range_meters":19600,"station_id":"ce4bgup2rcd13ifvqcn0","pricing_plan_id":"cebpf4jnsgd1na2vs0mg"},{"bike_id":"cebbc3b6-4cc7-4dfc-95eb-2a61f47c2a68","system_id":"levelo_inurba_marseille","lat":43.32345,"lon":5.36741,"is_reserved":false,"is_disabled":false,"rental_uris":{"android":"levelo://app?vid=cebbc3b6-4cc7-4dfc-95eb-2a61f47c2a68","ios":"levelo://app?vid=cebbc3b6-4cc7-4dfc-95eb-2a61f47c2a68"},"vehicle_type_id":"4","last_reported":1753258610,"current_range_meters":20000,"station_id":"ce4bhsh2rcd13ifvqi2g","pricing_plan_id":"cebpf4jnsgd1na2vs0mg"},{"bike_id":"42a29b45-35d3-4fa1-a15a-aa36567215f4","system_id":"levelo_inurba_marseille","lat":43.30549,"lon":5.3668,"is_reserved":false,"is_disabled":false,"rental_uris":{"android":"levelo://app?vid=42a29b45-35d3-4fa1-a15a-aa36567215f4","ios":"levelo://app?vid=42a29b45-35d3-4fa1-a15a-aa36567215f4"},"vehicle_type_id":"4","last_reported":1753258610,"current_range_meters":20000,"station_id":"ce4bgrp2rcd13ifvqc9g","pricing_plan_id":"cebpf4jnsgd1na2vs0mg"},{"bike_id":"1575ae10-d836-4d6e-b102-7f31afc0a7cf","system_id":"levelo_inurba_marseille","lat":43.234418,"lon":5.412527,"is_reserved":false,"is_disabled":false,"rental_uris":{"android":"levelo://app?vid=1575ae10-d836-4d6e-b102-7f31afc0a7cf","ios":"levelo://app?vid=1575ae10-d836-4d6e-b102-7f31afc0a7cf"},"vehicle_type_id":"4","last_reported":1753258610,"current_range_meters":20000,"station_id":"","pricing_plan_id":"cebpf4jnsgd1na2vs0mg"},{"bike_id":"8006020a-6cfe-4131-82ca-a6c8f07671d2","system_id":"levelo_inurba_marseille","lat":43.31179,"lon":5.37711,"is_reserved":false,"is_disabled":false,"rental_uris":{"android":"levelo://app?vid=8006020a-6cfe-4131-82ca-a6c8f07671d2","ios":"levelo://app?vid=8006020a-6cfe-4131-82ca-a6c8f07671d2"},"vehicle_type_id":"4","last_reported":1753258610,"current_range_meters":20000,"station_id":"","pricing_plan_id":"cebpf4jnsgd1na2vs0mg"},{"bike_id":"f7f07796-c7c9-4a74-80e9-fb85744448b8","system_id":"levelo_inurba_marseille","lat":43.229306,"lon":5.353643,"is_reserved":false,"is_disabled":false,"rental_uris":{"android":"levelo://app?vid=f7f07796-c7c9-4a74-80e9-fb85744448b8","ios":"levelo://app?vid=f7f07796-c7c9-4a74-80e9-fb85744448b8"},"vehicle_type_id":"4","last_reported":1753258610,"current_range_meters":20000,"station_id":"cpo3532slgdg3j2ikp40","pricing_plan_id":"cebpf4jnsgd1na2vs0mg"},{"bike_id":"ce4183da-2eb7-4c12-b402-472732752451","system_id":"levelo_inurba_marseille","lat":43.26494,"lon":5.39537,"is_reserved":false,"is_disabled":false,"rental_uris":{"android":"levelo://app?vid=ce4183da-2eb7-4c12-b402-472732752451","ios":"levelo://app?vid=ce4183da-2eb7-4c12-b402-472732752451"},"vehicle_type_id":"4","last_reported":1753258610,"current_range_meters":20000,"station_id":"ce4bhi12rcd13ifvqfq0","pricing_plan_id":"cebpf4jnsgd1na2vs0mg"},{"bike_id":"35a86048-76dd-4de0-afb2-7da8772fad44","system_id":"levelo_inurba_marseille","lat":43.21527,"lon":5.34732,"is_reserved":false,"is_disabled":false,"rental_uris":{"android":"levelo://app?vid=35a86048-76dd-4de0-afb2-7da8772fad44","ios":"levelo://app?vid=35a86048-76dd-4de0-afb2-7da8772fad44"},"vehicle_type_id":"4","last_reported":1753258610,"current_range_meters":20000,"station_id":"","pricing_plan_id":"cebpf4jnsgd1na2vs0mg"},{"bike_id":"154842fb-66cb-4d03-b336-ad8705751d21","system_id":"levelo_inurba_marseille","lat":43.279442,"lon":5.410436,"is_reserved":false,"is_disabled":false,"rental_uris":{"android":"levelo://app?vid=154842fb-66cb-4d03-b336-ad8705751d21","ios":"levelo://app?vid=154842fb-66cb-4d03-b336-ad8705751d21"},"vehicle_type_id":"4","last_reported":1753258610,"current_range_meters":20000,"station_id":"ce4bhnp2rcd13ifvqh0g","pricing_plan_id":"cebpf4jnsgd1na2vs0mg"},{"bike_id":"bde416eb-72de-4fbb-93e6-dfe2b917e790","system_id":"levelo_inurba_marseille","lat":43.29033,"lon":5.39966,"is_reserved":false,"is_disabled":false,"rental_uris":{"android":"levelo://app?vid=bde416eb-72de-4fbb-93e6-dfe2b917e790","ios":"levelo://app?vid=bde416eb-72de-4fbb-93e6-dfe2b917e790"},"vehicle_type_id":"4","last_reported":1753258610,"current_range_meters":20000,"station_id":"ce4bh392rcd13ifvqdm0","pricing_plan_id":"cebpf4jnsgd1na2vs0mg"},{"bike_id":"e246d1c9-8a7e-4c9d-983b-668f75fd83e7","system_id":"levelo_inurba_marseille","lat":43.265559,"lon":5.372808,"is_reserved":false,"is_disabled":false,"rental_uris":{"android":"levelo://app?vid=e246d1c9-8a7e-4c9d-983b-668f75fd83e7","ios":"levelo://app?vid=e246d1c9-8a7e-4c9d-983b-668f75fd83e7"},"vehicle_type_id":"4","last_reported":1753258610,"current_range_meters":20000,"station_id":"ce4bhg12rcd13ifvqf70","pricing_plan_id":"cebpf4jnsgd1na2vs0mg"},{"bike_id":"d66c6ced-bb33-4138-a0e1-4804c9518dd0","system_id":"levelo_inurba_marseille","lat":43.28617,"lon":5.35102,"is_reserved":false,"is_disabled":false,"rental_uris":{"android":"levelo://app?vid=d66c6ced-bb33-4138-a0e1-4804c9518dd0","ios":"levelo://app?vid=d66c6ced-bb33-4138-a0e1-4804c9518dd0"},"vehicle_type_id":"4","last_reported":1753258610,"current_range_meters":20400,"station_id":"ce4bhch2rcd13ifvqeug","pricing_plan_id":"cebpf4jnsgd1na2vs0mg"},{"bike_id":"e16ca76f-d344-469c-97a6-da17aef07752","system_id":"levelo_inurba_marseille","lat":43.30922,"lon":5.36848,"is_reserved":false,"is_disabled":false,"rental_uris":{"android":"levelo://app?vid=e16ca76f-d344-469c-97a6-da17aef07752","ios":"levelo://app?vid=e16ca76f-d344-469c-97a6-da17aef07752"},"vehicle_type_id":"4","last_reported":1753258610,"current_range_meters":20400,"station_id":"ce4bgn92rcd13ifvqbvg","pricing_plan_id":"cebpf4jnsgd1na2vs0mg"},{"bike_id":"4e9b388e-d665-46d2-bda6-c27ea05258da","system_id":"levelo_inurba_marseille","lat":43.29033,"lon":5.39982,"is_reserved":false,"is_disabled":false,"rental_uris":{"android":"levelo://app?vid=4e9b388e-d665-46d2-bda6-c27ea05258da","ios":"levelo://app?vid=4e9b388e-d665-46d2-bda6-c27ea05258da"},"vehicle_type_id":"4","last_reported":1753258610,"current_range_meters":20400,"station_id":"ce4bh392rcd13ifvqdm0","pricing_plan_id":"cebpf4jnsgd1na2vs0mg"},{"bike_id":"5d2a4027-c4e2-4789-b8d3-60410bc4c347","system_id":"levelo_inurba_marseille","lat":43.25017,"lon":5.38901,"is_reserved":false,"is_disabled":false,"rental_uris":{"android":"levelo://app?vid=5d2a4027-c4e2-4789-b8d3-60410bc4c347","ios":"levelo://app?vid=5d2a4027-c4e2-4789-b8d3-60410bc4c347"},"vehicle_type_id":"4","last_reported":1753258610,"current_range_meters":20400,"station_id":"ce4bhgp2rcd13ifvqfd0","pricing_plan_id":"cebpf4jnsgd1na2vs0mg"},{"bike_id":"0ab84abf-a0e6-4e1d-b407-030e9176d6a6","system_id":"levelo_inurba_marseille","lat":43.29045,"lon":5.39966,"is_reserved":false,"is_disabled":false,"rental_uris":{"android":"levelo://app?vid=0ab84abf-a0e6-4e1d-b407-030e9176d6a6","ios":"levelo://app?vid=0ab84abf-a0e6-4e1d-b407-030e9176d6a6"},"vehicle_type_id":"4","last_reported":1753258610,"current_range_meters":20400,"station_id":"ce4bh392rcd13ifvqdm0","pricing_plan_id":"cebpf4jnsgd1na2vs0mg"},{"bike_id":"40a40cb1-26ab-492a-bde4-7af9508ca2b5","system_id":"levelo_inurba_marseille","lat":43.29034,"lon":5.39966,"is_reserved":false,"is_disabled":false,"rental_uris":{"android":"levelo://app?vid=40a40cb1-26ab-492a-bde4-7af9508ca2b5","ios":"levelo://app?vid=40a40cb1-26ab-492a-bde4-7af9508ca2b5"},"vehicle_type_id":"4","last_reported":1753258610,"current_range_meters":20800,"station_id":"ce4bh392rcd13ifvqdm0","pricing_plan_id":"cebpf4jnsgd1na2vs0mg"},{"bike_id":"e523051c-5030-44aa-b68b-2c0edf03f717","system_id":"levelo_inurba_marseille","lat":43.24382,"lon":5.37057,"is_reserved":false,"is_disabled":false,"rental_uris":{"android":"levelo://app?vid=e523051c-5030-44aa-b68b-2c0edf03f717","ios":"levelo://app?vid=e523051c-5030-44aa-b68b-2c0edf03f717"},"vehicle_type_id":"4","last_reported":1753258610,"current_range_meters":20800,"station_id":"ce4bhhh2rcd13ifvqfk0","pricing_plan_id":"cebpf4jnsgd1na2vs0mg"},{"bike_id":"eaea15aa-98ae-4f78-b37a-80e2e4524837","system_id":"levelo_inurba_marseille","lat":43.297916,"lon":5.381026,"is_reserved":false,"is_disabled":false,"rental_uris":{"android":"levelo://app?vid=eaea15aa-98ae-4f78-b37a-80e2e4524837","ios":"levelo://app?vid=eaea15aa-98ae-4f78-b37a-80e2e4524837"},"vehicle_type_id":"4","last_reported":1753258610,"current_range_meters":20800,"station_id":"","pricing_plan_id":"cebpf4jnsgd1na2vs0mg"},{"bike_id":"22f6ff88-0966-4102-99b2-726eec6b5c94","system_id":"levelo_inurba_marseille","lat":43.292134,"lon":5.359374,"is_reserved":false,"is_disabled":false,"rental_uris":{"android":"levelo://app?vid=22f6ff88-0966-4102-99b2-726eec6b5c94","ios":"levelo://app?vid=22f6ff88-0966-4102-99b2-726eec6b5c94"},"vehicle_type_id":"4","last_reported":1753258610,"current_range_meters":20800,"station_id":"ce4bhb92rcd13ifvqen0","pricing_plan_id":"cebpf4jnsgd1na2vs0mg"},{"bike_id":"11dcafa4-5a01-4693-b3ac-71bab6b96b8c","system_id":"levelo_inurba_marseille","lat":43.292969,"lon":5.374334,"is_reserved":false,"is_disabled":false,"rental_uris":{"android":"levelo://app?vid=11dcafa4-5a01-4693-b3ac-71bab6b96b8c","ios":"levelo://app?vid=11dcafa4-5a01-4693-b3ac-71bab6b96b8c"},"vehicle_type_id":"4","last_reported":1753258610,"current_range_meters":21600,"station_id":"cpo3532slgdg3j2ikp40","pricing_plan_id":"cebpf4jnsgd1na2vs0mg"},{"bike_id":"395fcc95-9e25-41c4-a4f7-c969641286d4","system_id":"levelo_inurba_marseille","lat":43.30496,"lon":5.37893,"is_reserved":false,"is_disabled":false,"rental_uris":{"android":"levelo://app?vid=395fcc95-9e25-41c4-a4f7-c969641286d4","ios":"levelo://app?vid=395fcc95-9e25-41c4-a4f7-c969641286d4"},"vehicle_type_id":"4","last_reported":1753258610,"current_range_meters":21600,"station_id":"ce4bgup2rcd13ifvqcn0","pricing_plan_id":"cebpf4jnsgd1na2vs0mg"},{"bike_id":"5d33ce35-7844-4f74-8b07-342f25232617","system_id":"levelo_inurba_marseille","lat":43.273723,"lon":5.362634,"is_reserved":false,"is_disabled":false,"rental_uris":{"android":"levelo://app?vid=5d33ce35-7844-4f74-8b07-342f25232617","ios":"levelo://app?vid=5d33ce35-7844-4f74-8b07-342f25232617"},"vehicle_type_id":"4","last_reported":1753258610,"current_range_meters":21600,"station_id":"ce4bhbh2rcd13ifvqeo0","pricing_plan_id":"cebpf4jnsgd1na2vs0mg"},{"bike_id":"a23358b8-822c-4058-9e04-77660322b4dc","system_id":"levelo_inurba_marseille","lat":43.3091,"lon":5.36856,"is_reserved":false,"is_disabled":false,"rental_uris":{"android":"levelo://app?vid=a23358b8-822c-4058-9e04-77660322b4dc","ios":"levelo://app?vid=a23358b8-822c-4058-9e04-77660322b4dc"},"vehicle_type_id":"4","last_reported":1753258610,"current_range_meters":20800,"station_id":"ce4bgn92rcd13ifvqbvg","pricing_plan_id":"cebpf4jnsgd1na2vs0mg"},{"bike_id":"390a64dd-3ae1-4b48-a1b3-6a74b2a41003","system_id":"levelo_inurba_marseille","lat":43.24072,"lon":5.37759,"is_reserved":false,"is_disabled":false,"rental_uris":{"android":"levelo://app?vid=390a64dd-3ae1-4b48-a1b3-6a74b2a41003","ios":"levelo://app?vid=390a64dd-3ae1-4b48-a1b3-6a74b2a41003"},"vehicle_type_id":"4","last_reported":1753258610,"current_range_meters":21600,"station_id":"ce4bhnp2rcd13ifvqgvg","pricing_plan_id":"cebpf4jnsgd1na2vs0mg"},{"bike_id":"9c0cbecc-738a-474d-904a-521d810e3e71","system_id":"levelo_inurba_marseille","lat":43.29065,"lon":5.37164,"is_reserved":false,"is_disabled":false,"rental_uris":{"android":"levelo://app?vid=9c0cbecc-738a-474d-904a-521d810e3e71","ios":"levelo://app?vid=9c0cbecc-738a-474d-904a-521d810e3e71"},"vehicle_type_id":"4","last_reported":1753258610,"current_range_meters":21600,"station_id":"ce4bh5p2rcd13ifvqe4g","pricing_plan_id":"cebpf4jnsgd1na2vs0mg"},{"bike_id":"8b172d1a-435b-4e12-a76e-f86935d5e452","system_id":"levelo_inurba_marseille","lat":43.2731,"lon":5.39079,"is_reserved":false,"is_disabled":false,"rental_uris":{"android":"levelo://app?vid=8b172d1a-435b-4e12-a76e-f86935d5e452","ios":"levelo://app?vid=8b172d1a-435b-4e12-a76e-f86935d5e452"},"vehicle_type_id":"4","last_reported":1753258610,"current_range_meters":21600,"station_id":"","pricing_plan_id":"cebpf4jnsgd1na2vs0mg"},{"bike_id":"9b5a90eb-0eca-49c7-87be-bd1c7f5e16db","system_id":"levelo_inurba_marseille","lat":43.24999,"lon":5.38927,"is_reserved":false,"is_disabled":false,"rental_uris":{"android":"levelo://app?vid=9b5a90eb-0eca-49c7-87be-bd1c7f5e16db","ios":"levelo://app?vid=9b5a90eb-0eca-49c7-87be-bd1c7f5e16db"},"vehicle_type_id":"4","last_reported":1753258610,"current_range_meters":21600,"station_id":"ce4bhgp2rcd13ifvqfd0","pricing_plan_id":"cebpf4jnsgd1na2vs0mg"},{"bike_id":"15d367de-17b0-4dc7-a6ae-9f74942a498e","system_id":"levelo_inurba_marseille","lat":43.305934,"lon":5.372231,"is_reserved":false,"is_disabled":false,"rental_uris":{"android":"levelo://app?vid=15d367de-17b0-4dc7-a6ae-9f74942a498e","ios":"levelo://app?vid=15d367de-17b0-4dc7-a6ae-9f74942a498e"},"vehicle_type_id":"4","last_reported":1753258610,"current_range_meters":21600,"station_id":"ce4bgqh2rcd13ifvqc4g","pricing_plan_id":"cebpf4jnsgd1na2vs0mg"},{"bike_id":"535f8a58-7ebb-42f5-a1da-9b5e6f0cee07","system_id":"levelo_inurba_marseille","lat":43.31357,"lon":5.36704,"is_reserved":false,"is_disabled":false,"rental_uris":{"android":"levelo://app?vid=535f8a58-7ebb-42f5-a1da-9b5e6f0cee07","ios":"levelo://app?vid=535f8a58-7ebb-42f5-a1da-9b5e6f0cee07"},"vehicle_type_id":"4","last_reported":1753258610,"current_range_meters":21600,"station_id":"ce4bgr92rcd13ifvqc6g","pricing_plan_id":"cebpf4jnsgd1na2vs0mg"},{"bike_id":"5f60ee9e-33b6-4c35-b667-5510ded709e5","system_id":"levelo_inurba_marseille","lat":43.29792,"lon":5.37097,"is_reserved":false,"is_disabled":false,"rental_uris":{"android":"levelo://app?vid=5f60ee9e-33b6-4c35-b667-5510ded709e5","ios":"levelo://app?vid=5f60ee9e-33b6-4c35-b667-5510ded709e5"},"vehicle_type_id":"4","last_reported":1753258610,"current_range_meters":22000,"station_id":"ce4bgop2rcd13ifvqc1g","pricing_plan_id":"cebpf4jnsgd1na2vs0mg"},{"bike_id":"e6466f58-760e-4b08-b04a-d64488fd5003","system_id":"levelo_inurba_marseille","lat":43.28476,"lon":5.35888,"is_reserved":false,"is_disabled":true,"rental_uris":{"android":"levelo://app?vid=e6466f58-760e-4b08-b04a-d64488fd5003","ios":"levelo://app?vid=e6466f58-760e-4b08-b04a-d64488fd5003"},"vehicle_type_id":"4","last_reported":1753258610,"current_range_meters":22000,"station_id":"ce4bhah2rcd13ifvqei0","pricing_plan_id":"cebpf4jnsgd1na2vs0mg"},