{"last_updated":1727453443,"ttl":60,"version":"2.2","data":{"bikes":[{"bike_id":"9a9e21c0-ffea-4ae2-9609-b7a55683ec09","system_id":"levelo_inurba_marseille","lat":43.31325,"lon":5.3969,"is_reserved":false,"is_disabled":false,"rental_uris":{"android":"levelo://app?vid=9a9e21c0-ffea-4ae2-9609-b7a55683ec09","ios":"levelo://app?vid=9a9e21c0-ffea-4ae2-9609-b7a55683ec09"},"vehicle_type_id":"4","last_reported":1727453443,"current_range_meters":22800,"station_id":"ce4bgvp2rcd13ifvqcu0","pricing_plan_id":"cebpf4jnsgd1na2vs0mg"},{"bike_id":"d78c1f98-f5fd-4bef-ae66-0cc3e8ee40f8","system_id":"levelo_inurba_marseille","lat":43.26034,"lon":5.37538,"is_reserved":false,"is_disabled":false,"rental_uris":{"android":"levelo://app?vid=d78c1f98-f5fd-4bef-ae66-0cc3e8ee40f8","ios":"levelo://app?vid=d78c1f98-f5fd-4bef-ae66-0cc3e8ee40f8"},"vehicle_type_id":"4","last_reported":1727453443,"current_range_meters":14800,"station_id":"ce4bhgh2rcd13ifvqfa0","pricing_plan_id":"cebpf4jnsgd1na2vs0mg"},{"bike_id":"02c7031f-4fd9-4ad9-b4a5-ac164b83f20b","system_id":"levelo_inurba_marseille","lat":43.2971,"lon":5.36614,"is_reserved":false,"is_disabled":false,"rental_uris":{"android":"levelo://app?vid=02c7031f-4fd9-4ad9-b4a5-ac164b83f20b","ios":"levelo://app?vid=02c7031f-4fd9-4ad9-b4a5-ac164b83f20b"},"vehicle_type_id":"4","last_reported":1727453443,"current_range_meters":38400,"station_id":"ce4bgn12rcd13ifvqbt0","pricing_plan_id":"cebpf4jnsgd1na2vs0mg"},{"bike_id":"e2725286-65aa-4289-83d2-7ecb5ad3e30a","system_id":"levelo_inurba_marseille","lat":43.25575,"lon":5.3823,"is_reserved":false,"is_disabled":false,"rental_uris":{"android":"levelo://app?vid=e2725286-65aa-4289-83d2-7ecb5ad3e30a","ios":"levelo://app?vid=e2725286-65aa-4289-83d2-7ecb5ad3e30a"},"vehicle_type_id":"4","last_reported":1727453443,"current_range_meters":26000,"station_id":"ce4bhih2rcd13ifvqfs0","pricing_plan_id":"cebpf4jnsgd1na2vs0mg"},{"bike_id":"5c5b77c8-0ff2-4367-98c6-c0ba5e171538","system_id":"levelo_inurba_marseille","lat":43.29564,"lon":5.39993,"is_reserved":false,"is_disabled":false,"rental_uris":{"android":"levelo://app?vid=5c5b77c8-0ff2-4367-98c6-c0ba5e171538","ios":"levelo://app?vid=5c5b77c8-0ff2-4367-98c6-c0ba5e171538"},"vehicle_type_id":"4","last_reported":1727453443,"current_range_meters":2000,"station_id":"ce4bh312rcd13ifvqdj0","pricing_plan_id":"cebpf4jnsgd1na2vs0mg"},{"bike_id":"88c96776-6e23-4af1-827b-eccfb462378e","system_id":"levelo_inurba_marseille","lat":43.22929,"lon":5.35377,"is_reserved":false,"is_disabled":false,"rental_uris":{"android":"levelo://app?vid=88c96776-6e23-4af1-827b-eccfb462378e","ios":"levelo://app?vid=88c96776-6e23-4af1-827b-eccfb462378e"},"vehicle_type_id":"4","last_reported":1727453443,"current_range_meters":34800,"station_id":"cpo3532slgdg3j2ikp40","pricing_plan_id":"cebpf4jnsgd1na2vs0mg"},{"bike_id":"130443b6-4b72-4efa-9e75-a0ca29994201","system_id":"levelo_inurba_marseille","lat":43.29575,"lon":5.36746,"is_reserved":false,"is_disabled":false,"rental_uris":{"android":"levelo://app?vid=130443b6-4b72-4efa-9e75-a0ca29994201","ios":"levelo://app?vid=130443b6-4b72-4efa-9e75-a0ca29994201"},"vehicle_type_id":"4","last_reported":1727453443,"current_range_meters":21600,"station_id":"ce4bgph2rcd13ifvqc2g","pricing_plan_id":"cebpf4jnsgd1na2vs0mg"},{"bike_id":"27f233d0-fed4-4e3d-9293-e2df57f7c131","system_id":"levelo_inurba_marseille","lat":43.30596,"lon":5.39352,"is_reserved":false,"is_disabled":false,"rental_uris":{"android":"levelo://app?vid=27f233d0-fed4-4e3d-9293-e2df57f7c131","ios":"levelo://app?vid=27f233d0-fed4-4e3d-9293-e2df57f7c131"},"vehicle_type_id":"4","last_reported":1727453443,"current_range_meters":38800,"station_id":"ce4bh0p2rcd13ifvqd80","pricing_plan_id":"cebpf4jnsgd1na2vs0mg"},{"bike_id":"4d472db1-cbfc-4567-9658-076fbfefcf49","system_id":"levelo_inurba_marseille","lat":43.22925,"lon":5.3538,"is_reserved":false,"is_disabled":false,"rental_uris":{"android":"levelo://app?vid=4d472db1-cbfc-4567-9658-076fbfefcf49","ios":"levelo://app?vid=4d472db1-cbfc-4567-9658-076fbfefcf49"},"vehicle_type_id":"4","last_reported":1727453443,"current_range_meters":39200,"station_id":"cpo3532slgdg3j2ikp40","pricing_plan_id":"cebpf4jnsgd1na2vs0mg"},{"bike_id":"948a2b2e-fb68-42e4-9975-ed0b73370397","system_id":"levelo_inurba_marseille","lat":43.30155,"lon":5.39291,"is_reserved":false,"is_disabled":false,"rental_uris":{"android":"levelo://app?vid=948a2b2e-fb68-42e4-9975-ed0b73370397","ios":"levelo://app?vid=948a2b2e-fb68-42e4-9975-ed0b73370397"},"vehicle_type_id":"4","last_reported":1727453443,"current_range_meters":8400,"station_id":"","pricing_plan_id":"cebpf4jnsgd1na2vs0mg"},{"bike_id":"a59da56a-ca33-4b20-90bb-9e45754ef314","system_id":"levelo_inurba_marseille","lat":43.31761,"lon":5.39015,"is_reserved":false,"is_disabled":false,"rental_uris":{"android":"levelo://app?vid=a59da56a-ca33-4b20-90bb-9e45754ef314","ios":"levelo://app?vid=a59da56a-ca33-4b20-90bb-9e45754ef314"},"vehicle_type_id":"4","last_reported":1727453443,"current_range_meters":39200,"station_id":"ce4bhqp2rcd13ifvqhng","pricing_plan_id":"cebpf4jnsgd1na2vs0mg"},{"bike_id":"ed3b06db-5db7-49b6-81bb-cf23f4c1c922","system_id":"levelo_inurba_marseille","lat":43.29778,"lon":5.37117,"is_reserved":false,"is_disabled":false,"rental_uris":{"android":"levelo://app?vid=ed3b06db-5db7-49b6-81bb-cf23f4c1c922","ios":"levelo://app?vid=ed3b06db-5db7-49b6-81bb-cf23f4c1c922"},"vehicle_type_id":"4","last_reported":1727453443,"current_range_meters":10800,"station_id":"ce4bgop2rcd13ifvqc1g","pricing_plan_id":"cebpf4jnsgd1na2vs0mg"},{"bike_id":"d7ac9729-ff2f-4e8c-9d67-851b3058dece","system_id":"levelo_inurba_marseille","lat":43.290049,"lon":5.356184,"is_reserved":false,"is_disabled":false,"rental_uris":{"android":"levelo://app?vid=d7ac9729-ff2f-4e8c-9d67-851b3058dece","ios":"levelo://app?vid=d7ac9729-ff2f-4e8c-9d67-851b3058dece"},"vehicle_type_id":"4","last_reported":1727453443,"current_range_meters":25600,"station_id":"ce4bhb92rcd13ifvqen0","pricing_plan_id":"cebpf4jnsgd1na2vs0mg"},{"bike_id":"6fb9ec3d-8b8e-4a98-8da3-3b66ce25da6a","system_id":"levelo_inurba_marseille","lat":43.31525,"lon":5.38042,"is_reserved":false,"is_disabled":false,"rental_uris":{"android":"levelo://app?vid=6fb9ec3d-8b8e-4a98-8da3-3b66ce25da6a","ios":"levelo://app?vid=6fb9ec3d-8b8e-4a98-8da3-3b66ce25da6a"},"vehicle_type_id":"4","last_reported":1727453443,"current_range_meters":3200,"station_id":"ce4bhsp2rcd13ifvqi50","pricing_plan_id":"cebpf4jnsgd1na2vs0mg"},{"bike_id":"80fe4a40-a502-4db0-b980-a485af7c8744","system_id":"levelo_inurba_marseille","lat":43.33752,"lon":5.37361,"is_reserved":false,"is_disabled":false,"rental_uris":{"android":"levelo://app?vid=80fe4a40-a502-4db0-b980-a485af7c8744","ios":"levelo://app?vid=80fe4a40-a502-4db0-b980-a485af7c8744"},"vehicle_type_id":"4","last_reported":1727453443,"current_range_meters":26000,"station_id":"","pricing_plan_id":"cebpf4jnsgd1na2vs0mg"},{"bike_id":"2341a864-10e5-496c-9956-764f85ba42e8","system_id":"levelo_inurba_marseille","lat":43.28938,"lon":5.39637,"is_reserved":false,"is_disabled":false,"rental_uris":{"android":"levelo://app?vid=2341a864-10e5-496c-9956-764f85ba42e8","ios":"levelo://app?vid=2341a864-10e5-496c-9956-764f85ba42e8"},"vehicle_type_id":"4","last_reported":1727453443,"current_range_meters":7200,"station_id":"ce4bh3h2rcd13ifvqdn0","pricing_plan_id":"cebpf4jnsgd1na2vs0mg"},{"bike_id":"1bf8da71-e5b8-4e36-91b3-59de3c5b3d29","system_id":"levelo_inurba_marseille","lat":43.28476,"lon":5.359097,"is_reserved":false,"is_disabled":false,"rental_uris":{"android":"levelo://app?vid=1bf8da71-e5b8-4e36-91b3-59de3c5b3d29","ios":"levelo://app?vid=1bf8da71-e5b8-4e36-91b3-59de3c5b3d29"},"vehicle_type_id":"4","last_reported":1727453443,"current_range_meters":3600,"station_id":"ce4bhah2rcd13ifvqei0","pricing_plan_id":"cebpf4jnsgd1na2vs0mg"},{"bike_id":"41ca8c63-8060-43b8-8c7a-ae41055d5075","system_id":"levelo_inurba_marseille","lat":43.241673,"lon":5.363948,"is_reserved":false,"is_disabled":false,"rental_uris":{"android":"levelo://app?vid=41ca8c63-8060-43b8-8c7a-ae41055d5075","ios":"levelo://app?vid=41ca8c63-8060-43b8-8c7a-ae41055d5075"},"vehicle_type_id":"4","last_reported":1727453443,"current_range_meters":21600,"station_id":"cpo36qri1sfpv3e86is0","pricing_plan_id":"cebpf4jnsgd1na2vs0mg"},{"bike_id":"f21983c5-3265-446d-b37f-836bdc7b0f78","system_id":"levelo_inurba_marseille","lat":43.337444,"lon":5.374475,"is_reserved":false,"is_disabled":false,"rental_uris":{"android":"levelo://app?vid=f21983c5-3265-446d-b37f-836bdc7b0f78","ios":"levelo://app?vid=f21983c5-3265-446d-b37f-836bdc7b0f78"},"vehicle_type_id":"4","last_reported":1727453443,"current_range_meters":16000,"station_id":"","pricing_plan_id":"cebpf4jnsgd1na2vs0mg"},{"bike_id":"5f3d64c1-59e7-40d8-b935-d548fadc5220","system_id":"levelo_inurba_marseille","lat":43.2306,"lon":5.35495,"is_reserved":false,"is_disabled":false,"rental_uris":{"android":"levelo://app?vid=5f3d64c1-59e7-40d8-b935-d548fadc5220","ios":"levelo://app?vid=5f3d64c1-59e7-40d8-b935-d548fadc5220"},"vehicle_type_id":"4","last_reported":1727453443,"current_range_meters":36400,"station_id":"cpo3342slgdg3j2ifvpg","pricing_plan_id":"cebpf4jnsgd1na2vs0mg"},{"bike_id":"c4fa27f1-53d9-4415-b85d-209636472f13","system_id":"levelo_inurba_marseille","lat":43.32,"lon":5.38165,"is_reserved":false,"is_disabled":false,"rental_uris":{"android":"levelo://app?vid=c4fa27f1-53d9-4415-b85d-209636472f13","ios":"levelo://app?vid=c4fa27f1-53d9-4415-b85d-209636472f13"},"vehicle_type_id":"4","last_reported":1727453443,"current_range_meters":28800,"station_id":"ce4bhr12rcd13ifvqhpg","pricing_plan_id":"cebpf4jnsgd1na2vs0mg"},{"bike_id":"4fba6e72-f557-48a5-97ab-0a5a35554da0","system_id":"levelo_inurba_marseille","lat":43.29063,"lon":5.37175,"is_reserved":false,"is_disabled":false,"rental_uris":{"android":"levelo://app?vid=4fba6e72-f557-48a5-97ab-0a5a35554da0","ios":"levelo://app?vid=4fba6e72-f557-48a5-97ab-0a5a35554da0"},"vehicle_type_id":"4","last_reported":1727453443,"current_range_meters":14800,"station_id":"ce4bh5p2rcd13ifvqe4g","pricing_plan_id":"cebpf4jnsgd1na2vs0mg"},{"bike_id":"23c2cb2e-f7f4-4d80-a69d-6d3b6bff5358","system_id":"levelo_inurba_marseille","lat":43.23174,"lon":5.39986,"is_reserved":false,"is_disabled":false,"rental_uris":{"android":"levelo://app?vid=23c2cb2e-f7f4-4d80-a69d-6d3b6bff5358","ios":"levelo://app?vid=23c2cb2e-f7f4-4d80-a69d-6d3b6bff5358"},"vehicle_type_id":"4","last_reported":1727453443,"current_range_meters":22000,"station_id":"ce4bhn12rcd13ifvqgqg","pricing_plan_id":"cebpf4jnsgd1na2vs0mg"},{"bike_id":"dd68e904-91c8-4717-ba0d-42ee92aa9c3f","system_id":"levelo_inurba_marseille","lat":43.30948,"lon":5.39029,"is_reserved":false,"is_disabled":false,"rental_uris":{"android":"levelo://app?vid=dd68e904-91c8-4717-ba0d-42ee92aa9c3f","ios":"levelo://app?vid=dd68e904-91c8-4717-ba0d-42ee92aa9c3f"},"vehicle_type_id":"4","last_reported":1727453443,"current_range_meters":8400,"station_id":"ce4bgup2rcd13ifvqco0","pricing_plan_id":"cebpf4jnsgd1na2vs0mg"},{"bike_id":"108266d0-7c8a-4d8f-80ff-a01a8f1bbe05","system_id":"levelo_inurba_marseille","lat":43.29416,"lon":5.38624,"is_reserved":false,"is_disabled":false,"rental_uris":{"android":"levelo://app?vid=108266d0-7c8a-4d8f-80ff-a01a8f1bbe05","ios":"levelo://app?vid=108266d0-7c8a-4d8f-80ff-a01a8f1bbe05"},"vehicle_type_id":"4","last_reported":1727453443,"current_range_meters":7200,"station_id":"ce4bh2h2rcd13ifvqdh0","pricing_plan_id":"cebpf4jnsgd1na2vs0mg"},{"bike_id":"046f7bb1-abfe-47d1-b356-c8f7f8f1e876","system_id":"levelo_inurba_marseille","lat":43.29889,"lon":5.38902,"is_reserved":false,"is_disabled":false,"rental_uris":{"android":"levelo://app?vid=046f7bb1-abfe-47d1-b356-c8f7f8f1e876","ios":"levelo://app?vid=046f7bb1-abfe-47d1-b356-c8f7f8f1e876"},"vehicle_type_id":"4","last_reported":1727453443,"current_range_meters":38400,"station_id":"ce4bh392rcd13ifvqdl0","pricing_plan_id":"cebpf4jnsgd1na2vs0mg"},{"bike_id":"5664535b-962c-46ee-a611-3920eb32e5e6","system_id":"levelo_inurba_marseille","lat":43.27996,"lon":5.41668,"is_reserved":false,"is_disabled":false,"rental_uris":{"android":"levelo://app?vid=5664535b-962c-46ee-a611-3920eb32e5e6","ios":"levelo://app?vid=5664535b-962c-46ee-a611-3920eb32e5e6"},"vehicle_type_id":"4","last_reported":1727453443,"current_range_meters":6800,"station_id":"ce4bho12rcd13ifvqh1g","pricing_plan_id":"cebpf4jnsgd1na2vs0mg"},{"bike_id":"ba87e62c-daf5-4f58-952b-6d0517bd4360","system_id":"levelo_inurba_marseille","lat":43.27811,"lon":5.40715,"is_reserved":false,"is_disabled":false,"rental_uris":{"android":"levelo://app?vid=ba87e62c-daf5-4f58-952b-6d0517bd4360","ios":"levelo://app?vid=ba87e62c-daf5-4f58-952b-6d0517bd4360"},"vehicle_type_id":"4","last_reported":1727453443,"current_range_meters":16000,"station_id":"ce4bhnh2rcd13ifvqgtg","pricing_plan_id":"cebpf4jnsgd1na2vs0mg"},{"bike_id":"39bbfe39-5f6e-4f3e-b663-a392197f962d","system_id":"levelo_inurba_marseille","lat":43.2847,"lon":5.38423,"is_reserved":false,"is_disabled":false,"rental_uris":{"android":"levelo://app?vid=39bbfe39-5f6e-4f3e-b663-a392197f962d","ios":"levelo://app?vid=39bbfe39-5f6e-4f3e-b663-a392197f962d"},"vehicle_type_id":"4","last_reported":1727453443,"current_range_meters":2800,"station_id":"ce4bh512rcd13ifvqe3g","pricing_plan_id":"cebpf4jnsgd1na2vs0mg"},{"bike_id":"e3534fa4-31ef-4fdb-9e81-55150872960d","system_id":"levelo_inurba_marseille","lat":43.30126,"lon":5.39849,"is_reserved":false,"is_disabled":false,"rental_uris":{"android":"levelo://app?vid=e3534fa4-31ef-4fdb-9e81-55150872960d","ios":"levelo://app?vid=e3534fa4-31ef-4fdb-9e81-55150872960d"},"vehicle_type_id":"4","last_reported":1727453443,"current_range_meters":9200,"station_id":"ce4bh0h2rcd13ifvqd40","pricing_plan_id":"cebpf4jnsgd1na2vs0mg"},{"bike_id":"d34527ad-b6d7-4cb7-ba81-f4885cf62386","system_id":"levelo_inurba_marseille","lat":43.30215,"lon":5.3946,"is_reserved":false,"is_disabled":false,"rental_uris":{"android":"levelo://app?vid=d34527ad-b6d7-4cb7-ba81-f4885cf62386","ios":"levelo://app?vid=d34527ad-b6d7-4cb7-ba81-f4885cf62386"},"vehicle_type_id":"4","last_reported":1727453443,"current_range_meters":2000,"station_id":"ce4bh0p2rcd13ifvqd70","pricing_plan_id":"cebpf4jnsgd1na2vs0mg"},{"bike_id":"ead8efe3-1b36-4815-aca1-24c6bb4f85a8","system_id":"levelo_inurba_marseille","lat":43.29633,"lon":5.40593,"is_reserved":false,"is_disabled":false,"rental_uris":{"android":"levelo://app?vid=ead8efe3-1b36-4815-aca1-24c6bb4f85a8","ios":"levelo://app?vid=ead8efe3-1b36-4815-aca1-24c6bb4f85a8"},"vehicle_type_id":"4","last_reported":1727453443,"current_range_meters":3200,"station_id":"ce4bh0h2rcd13ifvqd60","pricing_plan_id":"cebpf4jnsgd1na2vs0mg"},{"bike_id":"dc74da9c-f0ec-48af-800a-5b92fb95dd65","system_id":"levelo_inurba_marseille","lat":43.23178,"lon":5.3998,"is_reserved":false,"is_disabled":false,"rental_uris":{"android":"levelo://app?vid=dc74da9c-f0ec-48af-800a-5b92fb95dd65","ios":"levelo://app?vid=dc74da9c-f0ec-48af-800a-5b92fb95dd65"},"vehicle_type_id":"4","last_reported":1727453443,"current_range_meters":19200,"station_id":"ce4bhn12rcd13ifvqgqg","pricing_plan_id":"cebpf4jnsgd1na2vs0mg"},{"bike_id":"2877fefa-ed24-46ef-b7cd-1160f8979a69","system_id":"levelo_inurba_marseille","lat":43.26549,"lon":5.3729,"is_reserved":false,"is_disabled":false,"rental_uris":{"android":"levelo://app?vid=2877fefa-ed24-46ef-b7cd-1160f8979a69","ios":"levelo://app?vid=2877fefa-ed24-46ef-b7cd-1160f8979a69"},"vehicle_type_id":"4","last_reported":1727453443,"current_range_meters":37600,"station_id":"ce4bhg12rcd13ifvqf70","pricing_plan_id":"cebpf4jnsgd1na2vs0mg"},{"bike_id":"e5ac7df0-8142-4095-8c29-26c92640cd4c","system_id":"levelo_inurba_marseille","lat":43.315,"lon":5.37296,"is_reserved":false,"is_disabled":false,"rental_uris":{"android":"levelo://app?vid=e5ac7df0-8142-4095-8c29-26c92640cd4c","ios":"levelo://app?vid=e5ac7df0-8142-4095-8c29-26c92640cd4c"},"vehicle_type_id":"4","last_reported":1727453443,"current_range_meters":38800,"station_id":"ce4bgt12rcd13ifvqcd0","pricing_plan_id":"cebpf4jnsgd1na2vs0mg"},{"bike_id":"fa01b212-243d-40e8-928f-5067327db9d1","system_id":"levelo_inurba_marseille","lat":43.296265,"lon":5.377299,"is_reserved":false,"is_disabled":false,"rental_uris":{"android":"levelo://app?vid=fa01b212-243d-40e8-928f-5067327db9d1","ios":"levelo://app?vid=fa01b212-243d-40e8-928f-5067327db9d1"},"vehicle_type_id":"4","last_reported":1727453443,"current_range_meters":33200,"station_id":"ce4bgi92rcd13ifvqb90","pricing_plan_id":"cebpf4jnsgd1na2vs0mg"},{"bike_id":"dc81ca1f-62ec-486e-92ea-5c6be2144907","system_id":"levelo_inurba_marseille","lat":43.32369,"lon":5.38884,"is_reserved":false,"is_disabled":false,"rental_uris":{"android":"levelo://app?vid=dc81ca1f-62ec-486e-92ea-5c6be2144907","ios":"levelo://app?vid=dc81ca1f-62ec-486e-92ea-5c6be2144907"},"vehicle_type_id":"4","last_reported":1727453443,"current_range_meters":18000,"station_id":"ce4bhqp2rcd13ifvqhog","pricing_plan_id":"cebpf4jnsgd1na2vs0mg"},{"bike_id":"83f570d6-31e7-4d0f-9acb-eaab2e05a601","system_id":"levelo_inurba_marseille","lat":43.255063,"lon":5.376474,"is_reserved":false,"is_disabled":false,"rental_uris":{"android":"levelo://app?vid=83f570d6-31e7-4d0f-9acb-eaab2e05a601","ios":"levelo://app?vid=83f570d6-31e7-4d0f-9acb-eaab2e05a601"},"vehicle_type_id":"4","last_reported":1727453443,"current_range_meters":16400,"station_id":"ce4bgjh2rcd13ifvqbf0","pricing_plan_id":"cebpf4jnsgd1na2vs0mg"},{"bike_id":"385c656e-eb0c-4de0-a2e1-45d53d3b525b","system_id":"levelo_inurba_marseille","lat":43.28714,"lon":5.4,"is_reserved":false,"is_disabled":false,"rental_uris":{"android":"levelo://app?vid=385c656e-eb0c-4de0-a2e1-45d53d3b525b","ios":"levelo://app?vid=385c656e-eb0c-4de0-a2e1-45d53d3b525b"},"vehicle_type_id":"4","last_reported":1727453443,"current_range_meters":21600,"station_id":"ce4bho92rcd13ifvqh3g","pricing_plan_id":"cebpf4jnsgd1na2vs0mg"},{"bike_id":"26035ea4-b754-402a-b535-79b9df485e19","system_id":"levelo_inurba_marseille","lat":43.29364,"lon":5.3784,"is_reserved":false,"is_disabled":false,"rental_uris":{"android":"levelo://app?vid=26035ea4-b754-402a-b535-79b9df485e19","ios":"levelo://app?vid=26035ea4-b754-402a-b535-79b9df485e19"},"vehicle_type_id":"4","last_reported":1727453443,"current_range_meters":25600,"station_id":"ce4bgjh2rcd13ifvqbf0","pricing_plan_id":"cebpf4jnsgd1na2vs0mg"},{"bike_id":"2fd6a052-0093-4211-bca0-1e913a271c01","system_id":"levelo_inurba_marseille","lat":43.31328,"lon":5.39692,"is_reserved":false,"is_disabled":false,"rental_uris":{"android":"levelo://app?vid=2fd6a052-0093-4211-bca0-1e913a271c01","ios":"levelo://app?vid=2fd6a052-0093-4211-bca0-1e913a271c01"},"vehicle_type_id":"4","last_reported":1727453443,"current_range_meters":19600,"station_id":"ce4bgvp2rcd13ifvqcu0","pricing_plan_id":"cebpf4jnsgd1na2vs0mg"},{"bike_id":"d1bdffd0-db72-47ad-a26b-7d2fd19579b7","system_id":"levelo_inurba_marseille","lat":43.32658,"lon":5.40991,"is_reserved":false,"is_disabled":false,"rental_uris":{"android":"levelo://app?vid=d1bdffd0-db72-47ad-a26b-7d2fd19579b7","ios":"levelo://app?vid=d1bdffd0-db72-47ad-a26b-7d2fd19579b7"},"vehicle_type_id":"4","last_reported":1727453443,"current_range_meters":16000,"station_id":"ce4bhpp2rcd13ifvqhgg","pricing_plan_id":"cebpf4jnsgd1na2vs0mg"},{"bike_id":"76f74893-a610-4cda-9826-432304d210e0","system_id":"levelo_inurba_marseille","lat":43.29708,"lon":5.37701,"is_reserved":false,"is_disabled":false,"rental_uris":{"android":"levelo://app?vid=76f74893-a610-4cda-9826-432304d210e0","ios":"levelo://app?vid=76f74893-a610-4cda-9826-432304d210e0"},"vehicle_type_id":"4","last_reported":1727453443,"current_range_meters":38800,"station_id":"ce4bgkh2rcd13ifvqbl0","pricing_plan_id":"cebpf4jnsgd1na2vs0mg"},{"bike_id":"eaff5abd-d4ea-46e6-86b8-478167451cb7","system_id":"levelo_inurba_marseille","lat":43.33739,"lon":5.37468,"is_reserved":false,"is_disabled":false,"rental_uris":{"android":"levelo://app?vid=eaff5abd-d4ea-46e6-86b8-478167451cb7","ios":"levelo://app?vid=eaff5abd-d4ea-46e6-86b8-478167451cb7"},"vehicle_type_id":"4","last_reported":1727453443,"current_range_meters":28800,"station_id":"","pricing_plan_id":"cebpf4jnsgd1na2vs0mg"},{"bike_id":"10f008b1-de63-4c85-84a1-4883c7841129","system_id":"levelo_inurba_marseille","lat":43.25821,"lon":5.3944,"is_reserved":false,"is_disabled":false,"rental_uris":{"android":"levelo://app?vid=10f008b1-de63-4c85-84a1-4883c7841129","ios":"levelo://app?vid=10f008b1-de63-4c85-84a1-4883c7841129"},"vehicle_type_id":"4","last_reported":1727453443,"current_range_meters":26000,"station_id":"ce4bhip2rcd13ifvqft0","pricing_plan_id":"cebpf4jnsgd1na2vs0mg"},{"bike_id":"365ab31b-9253-4024-a0ce-63ac11fd8ed7","system_id":"levelo_inurba_marseille","lat":43.31715,"lon":5.42407,"is_reserved":false,"is_disabled":false,"rental_uris":{"android":"levelo://app?vid=365ab31b-9253-4024-a0ce-63ac11fd8ed7","ios":"levelo://app?vid=365ab31b-9253-4024-a0ce-63ac11fd8ed7"},"vehicle_type_id":"4","last_reported":1727453443,"current_range_meters":11600,"station_id":"ce4bhp92rcd13ifvqhbg","pricing_plan_id":"cebpf4jnsgd1na2vs0mg"},{"bike_id":"fc064cfb-9f24-41ce-8a54-650c7416d559","system_id":"levelo_inurba_marseille","lat":43.2998,"lon":5.38486,"is_reserved":false,"is_disabled":false,"rental_uris":{"android":"levelo://app?vid=fc064cfb-9f24-41ce-8a54-650c7416d559","ios":"levelo://app?vid=fc064cfb-9f24-41ce-8a54-650c7416d559"},"vehicle_type_id":"4","last_reported":1727453443,"current_range_meters":34000,"station_id":"ce4bgj92rcd13ifvqbd0","pricing_plan_id":"cebpf4jnsgd1na2vs0mg"},{"bike_id":"6ad5d48d-47b7-4159-b50b-9c3cafcaa195","system_id":"levelo_inurba_marseille","lat":43.24391,"lon":5.37064,"is_reserved":false,"is_disabled":false,"rental_uris":{"android":"levelo://app?vid=6ad5d48d-47b7-4159-b50b-9c3cafcaa195","ios":"levelo://app?vid=6ad5d48d-47b7-4159-b50b-9c3cafcaa195"},"vehicle_type_id":"4","last_reported":1727453443,"current_range_meters":39200,"station_id":"ce4bhhh2rcd13ifvqfk0","pricing_plan_id":"cebpf4jnsgd1na2vs0mg"},{"bike_id":"9b454b02-bf5d-4b39-9942-54f63f5bad5e","system_id":"levelo_inurba_marseille","lat":43.28862,"lon":5.39323,"is_reserved":false,"is_disabled":false,"rental_uris":{"android":"levelo://app?vid=9b454b02-bf5d-4b39-9942-54f63f5bad5e","ios":"levelo://app?vid=9b454b02-bf5d-4b39-9942-54f63f5bad5e"},"vehicle_type_id":"4","last_reported":1727453443,"current_range_meters":20000,"station_id":"ce4bh2p2rcd13ifvqdi0","pricing_plan_id":"cebpf4jnsgd1na2vs0mg"},{"bike_id":"0a8516f2-610f-45fb-8fd2-58e52955a25c","system_id":"levelo_inurba_marseille","lat":43.27839,"lon":5.39207,"is_reserved":false,"is_disabled":false,"rental_uris":{"android":"levelo://app?vid=0a8516f2-610f-45fb-8fd2-58e52955a25c","ios":"levelo://app?vid=0a8516f2-610f-45fb-8fd2-58e52955a25c"},"vehicle_type_id":"4","last_reported":1727453443,"current_range_meters":22800,"station_id":"ce4bhjp2rcd13ifvqga0","pricing_plan_id":"cebpf4jnsgd1na2vs0mg"},{"bike_id":"663f8524-07ce-4272-b073-49b8d42886ab","system_id":"levelo_inurba_marseille","lat":43.29611,"lon":5.37723,"is_reserved":false,"is_disabled":false,"rental_uris":{"android":"levelo://app?vid=663f8524-07ce-4272-b073-49b8d42886ab","ios":"levelo://app?vid=663f8524-07ce-4272-b073-49b8d42886ab"},"vehicle_type_id":"4","last_reported":1727453443,"current_range_meters":38800,"station_id":"ce4bgi92rcd13ifvqb90","pricing_plan_id":"cebpf4jnsgd1na2vs0mg"},{"bike_id":"f15a33f9-f490-481f-a3a9-3da0d04d193e","system_id":"levelo_inurba_marseille","lat":43.29308,"lon":5.37177,"is_reserved":false,"is_disabled":false,"rental_uris":{"android":"levelo://app?vid=f15a33f9-f490-481f-a3a9-3da0d04d193e","ios":"levelo://app?vid=f15a33f9-f490-481f-a3a9-3da0d04d193e"},"vehicle_type_id":"4","last_reported":1727453443,"current_range_meters":37600,"station_id":"ce4bgh92rcd13ifvqb40","pricing_plan_id":"cebpf4jnsgd1na2vs0mg"},{"bike_id":"c4877723-af9f-42dc-9bcd-907d4422c2d1","system_id":"levelo_inurba_marseille","lat":43.29872,"lon":5.39725,"is_reserved":false,"is_disabled":false,"rental_uris":{"android":"levelo://app?vid=c4877723-af9f-42dc-9bcd-907d4422c2d1","ios":"levelo://app?vid=c4877723-af9f-42dc-9bcd-907d4422c2d1"},"vehicle_type_id":"4","last_reported":1727453443,"current_range_meters":3200,"station_id":"ce4bh0h2rcd13ifvqd50","pricing_plan_id":"cebpf4jnsgd1na2vs0mg"},{"bike_id":"ce532c85-3e81-4b49-9199-919d7bda82e9","system_id":"levelo_inurba_marseille","lat":43.26028,"lon":5.37547,"is_reserved":false,"is_disabled":false,"rental_uris":{"android":"levelo://app?vid=ce532c85-3e81-4b49-9199-919d7bda82e9","ios":"levelo://app?vid=ce532c85-3e81-4b49-9199-919d7bda82e9"},"vehicle_type_id":"4","last_reported":1727453443,"current_range_meters":26800,"station_id":"ce4bhgh2rcd13ifvqfa0","pricing_plan_id":"cebpf4jnsgd1na2vs0mg"},{"bike_id":"5e20d158-bea3-40bd-8897-92a540cd5ccc","system_id":"levelo_inurba_marseille","lat":43.23195,"lon":5.35546,"is_reserved":false,"is_disabled":false,"rental_uris":{"android":"levelo://app?vid=5e20d158-bea3-40bd-8897-92a540cd5ccc","ios":"levelo://app?vid=5e20d158-bea3-40bd-8897-92a540cd5ccc"},"vehicle_type_id":"4","last_reported":1727453443,"current_range_meters":28400,"station_id":"ce4bhu92rcd13ifvqi70","pricing_plan_id":"cebpf4jnsgd1na2vs0mg"},{"bike_id":"40f876c2-0ea1-4fd6-9a43-261de586a225","system_id":"levelo_inurba_marseille","lat":43.29623,"lon":5.37153,"is_reserved":false,"is_disabled":false,"rental_uris":{"android":"levelo://app?vid=40f876c2-0ea1-4fd6-9a43-261de586a225","ios":"levelo://app?vid=40f876c2-0ea1-4fd6-9a43-261de586a225"},"vehicle_type_id":"4","last_reported":1727453443,"current_range_meters":27200,"station_id":"ce4bgnh2rcd13ifvqc0g","pricing_plan_id":"cebpf4jnsgd1na2vs0mg"},{"bike_id":"6a5eb81d-33be-4400-b298-f120c39bd5b0","system_id":"levelo_inurba_marseille","lat":43.31998,"lon":5.3815,"is_reserved":false,"is_disabled":false,"rental_uris":{"android":"levelo://app?vid=6a5eb81d-33be-4400-b298-f120c39bd5b0","ios":"levelo://app?vid=6a5eb81d-33be-4400-b298-f120c39bd5b0"},"vehicle_type_id":"4","last_reported":1727453443,"current_range_meters":38800,"station_id":"ce4bhr12rcd13ifvqhpg","pricing_plan_id":"cebpf4jnsgd1na2vs0mg"},{"bike_id":"c72aa29e-d966-47c5-9f39-1358afec4675","system_id":"levelo_inurba_marseille","lat":43.23179,"lon":5.39988,"is_reserved":false,"is_disabled":false,"rental_uris":{"android":"levelo://app?vid=c72aa29e-d966-47c5-9f39-1358afec4675","ios":"levelo://app?vid=c72aa29e-d966-47c5-9f39-1358afec4675"},"vehicle_type_id":"4","last_reported":1727453443,"current_range_meters":9600,"station_id":"ce4bhn12rcd13ifvqgqg","pricing_plan_id":"cebpf4jnsgd1na2vs0mg"},{"bike_id":"202d0f96-9b89-45a2-b019-3507273a30d5","system_id":"levelo_inurba_marseille","lat":43.23183,"lon":5.3999,"is_reserved":false,"is_disabled":false,"rental_uris":{"android":"levelo://app?vid=202d0f96-9b89-45a2-b019-3507273a30d5","ios":"levelo://app?vid=202d0f96-9b89-45a2-b019-3507273a30d5"},"vehicle_type_id":"4","last_reported":1727453443,"current_range_meters":6000,"station_id":"ce4bhn12rcd13ifvqgqg","pricing_plan_id":"cebpf4jnsgd1na2vs0mg"},{"bike_id":"e67cc076-20a7-4556-854f-730a09305631","system_id":"levelo_inurba_marseille","lat":43.2762,"lon":5.36107,"is_reserved":false,"is_disabled":false,"rental_uris":{"android":"levelo://app?vid=e67cc076-20a7-4556-854f-730a09305631","ios":"levelo://app?vid=e67cc076-20a7-4556-854f-730a09305631"},"vehicle_type_id":"4","last_reported":1727453443,"current_range_meters":15200,"station_id":"ce4bgj92rcd13ifvqbe0","pricing_plan_id":"cebpf4jnsgd1na2vs0mg"},{"bike_id":"cb76cde4-cd73-400a-85fc-a3dc0b876736","system_id":"levelo_inurba_marseille","lat":43.30127,"lon":5.39862,"is_reserved":false,"is_disabled":false,"rental_uris":{"android":"levelo://app?vid=cb76cde4-cd73-400a-85fc-a3dc0b876736","ios":"levelo://app?vid=cb76cde4-cd73-400a-85fc-a3dc0b876736"},"vehicle_type_id":"4","last_reported":1727453443,"current_range_meters":5600,"station_id":"ce4bh0h2rcd13ifvqd40","pricing_plan_id":"cebpf4jnsgd1na2vs0mg"},{"bike_id":"8a76886d-6d58-4350-8e63-a2593591b6c9","system_id":"levelo_inurba_marseille","lat":43.23154,"lon":5.43724,"is_reserved":false,"is_disabled":false,"rental_uris":{"android":"levelo://app?vid=8a76886d-6d58-4350-8e63-a2593591b6c9","ios":"levelo://app?vid=8a76886d-6d58-4350-8e63-a2593591b6c9"},"vehicle_type_id":"4","last_reported":1727453443,"current_range_meters":12000,"station_id":"ce4bhmp2rcd13ifvqgog","pricing_plan_id":"cebpf4jnsgd1na2vs0mg"},{"bike_id":"d5067ebd-39ad-4821-b519-54e36c57fbce","system_id":"levelo_inurba_marseille","lat":43.29859,"lon":5.39733,"is_reserved":false,"is_disabled":false,"rental_uris":{"android":"levelo://app?vid=d5067ebd-39ad-4821-b519-54e36c57fbce","ios":"levelo://app?vid=d5067ebd-39ad-4821-b519-54e36c57fbce"},"vehicle_type_id":"4","last_reported":1727453443,"current_range_meters":38000,"station_id":"ce4bh0h2rcd13ifvqd50","pricing_plan_id":"cebpf4jnsgd1na2vs0mg"},{"bike_id":"1ba3bb73-58c3-466a-b718-878a0f0fdea3","system_id":"levelo_inurba_marseille","lat":43.2989,"lon":5.38885,"is_reserved":false,"is_disabled":false,"rental_uris":{"android":"levelo://app?vid=1ba3bb73-58c3-466a-b718-878a0f0fdea3","ios":"levelo://app?vid=1ba3bb73-58c3-466a-b718-878a0f0fdea3"},"vehicle_type_id":"4","last_reported":1727453443,"current_range_meters":10800,"station_id":"ce4bh392rcd13ifvqdl0","pricing_plan_id":"cebpf4jnsgd1na2vs0mg"},{"bike_id":"000f5c0b-520a-4c34-bab1-17fcab09c2c9","system_id":"levelo_inurba_marseille","lat":43.31359,"lon":5.38502,"is_reserved":false,"is_disabled":false,"rental_uris":{"android":"levelo://app?vid=000f5c0b-520a-4c34-bab1-17fcab09c2c9","ios":"levelo://app?vid=000f5c0b-520a-4c34-bab1-17fcab09c2c9"},"vehicle_type_id":"4","last_reported":1727453443,"current_range_meters":24000,"station_id":"ce4bgt92rcd13ifvqcf0","pricing_plan_id":"cebpf4jnsgd1na2vs0mg"},{"bike_id":"2a0d1acf-c3be-4bf9-823a-101e9d83e939","system_id":"levelo_inurba_marseille","lat":43.2293,"lon":5.35382,"is_reserved":false,"is_disabled":false,"rental_uris":{"android":"levelo://app?vid=2a0d1acf-c3be-4bf9-823a-101e9d83e939","ios":"levelo://app?vid=2a0d1acf-c3be-4bf9-823a-101e9d83e939"},"vehicle_type_id":"4","last_reported":1727453443,"current_range_meters":9200,"station_id":"cpo3532slgdg3j2ikp40","pricing_plan_id":"cebpf4jnsgd1na2vs0mg"},{"bike_id":"06e9f455-6b2c-4a1b-972f-8591f9ca604b","system_id":"levelo_inurba_marseille","lat":43.29534,"lon":5.38546,"is_reserved":false,"is_disabled":false,"rental_uris":{"android":"levelo://app?vid=06e9f455-6b2c-4a1b-972f-8591f9ca604b","ios":"levelo://app?vid=06e9f455-6b2c-4a1b-972f-8591f9ca604b"},"vehicle_type_id":"4","last_reported":1727453443,"current_range_meters":8400,"station_id":"ce4bgih2rcd13ifvqba0","pricing_plan_id":"cebpf4jnsgd1na2vs0mg"},{"bike_id":"f5a45a8c-f86f-435f-b908-ac2712dceef5","system_id":"levelo_inurba_marseille","lat":43.30243,"lon":5.40063,"is_reserved":false,"is_disabled":false,"rental_uris":{"android":"levelo://app?vid=f5a45a8c-f86f-435f-b908-ac2712dceef5","ios":"levelo://app?vid=f5a45a8c-f86f-435f-b908-ac2712dceef5"},"vehicle_type_id":"4","last_reported":1727453443,"current_range_meters":16400,"station_id":"ce4bgvh2rcd13ifvqcs0","pricing_plan_id":"cebpf4jnsgd1na2vs0mg"},{"bike_id":"2007af92-5f32-4fa9-ab69-08ff47e88d19","system_id":"levelo_inurba_marseille","lat":43.29419,"lon":5.38622,"is_reserved":false,"is_disabled":false,"rental_uris":{"android":"levelo://app?vid=2007af92-5f32-4fa9-ab69-08ff47e88d19","ios":"levelo://app?vid=2007af92-5f32-4fa9-ab69-08ff47e88d19"},"vehicle_type_id":"4","last_reported":1727453443,"current_range_meters":8000,"station_id":"ce4bh2h2rcd13ifvqdh0","pricing_plan_id":"cebpf4jnsgd1na2vs0mg"},{"bike_id":"0a9bffd9-d4b5-41cd-a195-ddd88127abea","system_id":"levelo_inurba_marseille","lat":43.29616,"lon":5.37708,"is_reserved":false,"is_disabled":false,"rental_uris":{"android":"levelo://app?vid=0a9bffd9-d4b5-41cd-a195-ddd88127abea","ios":"levelo://app?vid=0a9bffd9-d4b5-41cd-a195-ddd88127abea"},"vehicle_type_id":"4","last_reported":1727453443,"current_range_meters":4800,"station_id":"ce4bgi92rcd13ifvqb90","pricing_plan_id":"cebpf4jnsgd1na2vs0mg"},{"bike_id":"512d9249-2839-45fc-bd18-3101e35eae72","system_id":"levelo_inurba_marseille","lat":43.29418,"lon":5.3863,"is_reserved":false,"is_disabled":false,"rental_uris":{"android":"levelo://app?vid=512d9249-2839-45fc-bd18-3101e35eae72","ios":"levelo://app?vid=512d9249-2839-45fc-bd18-3101e35eae72"},"vehicle_type_id":"4","last_reported":1727453443,"current_range_meters":36800,"station_id":"ce4bh2h2rcd13ifvqdh0","pricing_plan_id":"cebpf4jnsgd1na2vs0mg"},{"bike_id":"219be6ec-bd0c-4fd8-a1fa-e2e2cc5d00c7","system_id":"levelo_inurba_marseille","lat":43.31722,"lon":5.42405,"is_reserved":false,"is_disabled":false,"rental_uris":{"android":"levelo://app?vid=219be6ec-bd0c-4fd8-a1fa-e2e2cc5d00c7","ios":"levelo://app?vid=219be6ec-bd0c-4fd8-a1fa-e2e2cc5d00c7"},"vehicle_type_id":"4","last_reported":1727453443,"current_range_meters":15200,"station_id":"ce4bhp92rcd13ifvqhbg","pricing_plan_id":"cebpf4jnsgd1na2vs0mg"},{"bike_id":"b243e913-bb13-4398-8014-1d7f23a89e3e","system_id":"levelo_inurba_marseille","lat":43.28934,"lon":5.36643,"is_reserved":false,"is_disabled":false,"rental_uris":{"android":"levelo://app?vid=b243e913-bb13-4398-8014-1d7f23a89e3e","ios":"levelo://app?vid=b243e913-bb13-4398-8014-1d7f23a89e3e"},"vehicle_type_id":"4","last_reported":1727453443,"current_range_meters":2800,"station_id":"ce4bhap2rcd13ifvqek0","pricing_plan_id":"cebpf4jnsgd1na2vs0mg"},{"bike_id":"129c47fb-ef86-4a6a-a61d-de1ad6f86e99","system_id":"levelo_inurba_marseille","lat":43.25085,"lon":5.39512,"is_reserved":false,"is_disabled":false,"rental_uris":{"android":"levelo://app?vid=129c47fb-ef86-4a6a-a61d-de1ad6f86e99","ios":"levelo://app?vid=129c47fb-ef86-4a6a-a61d-de1ad6f86e99"},"vehicle_type_id":"4","last_reported":1727453443,"current_range_meters":25200,"station_id":"ce4bhm12rcd13ifvqgkg","pricing_plan_id":"cebpf4jnsgd1na2vs0mg"},{"bike_id":"738e7e6c-8c54-4726-b743-05a0b0cf6bde","system_id":"levelo_inurba_marseille","lat":43.28384,"lon":5.37301,"is_reserved":false,"is_disabled":false,"rental_uris":{"android":"levelo://app?vid=738e7e6c-8c54-4726-b743-05a0b0cf6bde","ios":"levelo://app?vid=738e7e6c-8c54-4726-b743-05a0b0cf6bde"},"vehicle_type_id":"4","last_reported":1727453443,"current_range_meters":20800,"station_id":"","pricing_plan_id":"cebpf4jnsgd1na2vs0mg"},{"bike_id":"1fa6a0b5-a9ff-422c-adfa-7eeb6895d3a5","system_id":"levelo_inurba_marseille","lat":43.26194,"lon":5.3745,"is_reserved":false,"is_disabled":false,"rental_uris":{"android":"levelo://app?vid=1fa6a0b5-a9ff-422c-adfa-7eeb6895d3a5","ios":"levelo://app?vid=1fa6a0b5-a9ff-422c-adfa-7eeb6895d3a5"},"vehicle_type_id":"4","last_reported":1727453443,"current_range_meters":24400,"station_id":"ce4bhgp2rcd13ifvqfc0","pricing_plan_id":"cebpf4jnsgd1na2vs0mg"},{"bike_id":"cce4d3c6-c428-42c5-93c8-4419c7858e7c","system_id":"levelo_inurba_marseille","lat":43.291779,"lon":5.413984,"is_reserved":false,"is_disabled":false,"rental_uris":{"android":"levelo://app?vid=cce4d3c6-c428-42c5-93c8-4419c7858e7c","ios":"levelo://app?vid=cce4d3c6-c428-42c5-93c8-4419c7858e7c"},"vehicle_type_id":"4","last_reported":1727453443,"current_range_meters":18000,"station_id":"","pricing_plan_id":"cebpf4jnsgd1na2vs0mg"},{"bike_id":"be8aa292-1ca6-4507-8759-7881e4df6e16","system_id":"levelo_inurba_marseille","lat":43.24809,"lon":5.37462,"is_reserved":false,"is_disabled":false,"rental_uris":{"android":"levelo://app?vid=be8aa292-1ca6-4507-8759-7881e4df6e16","ios":"levelo://app?vid=be8aa292-1ca6-4507-8759-7881e4df6e16"},"vehicle_type_id":"4","last_reported":1727453443,"current_range_meters":27200,"station_id":"ce4bhgh2rcd13ifvqfb0","pricing_plan_id":"cebpf4jnsgd1na2vs0mg"},{"bike_id":"974455f0-94b4-4e42-be30-202037be5b85","system_id":"levelo_inurba_marseille","lat":43.231903,"lon":5.355534,"is_reserved":false,"is_disabled":false,"rental_uris":{"android":"levelo://app?vid=974455f0-94b4-4e42-be30-202037be5b85","ios":"levelo://app?vid=974455f0-94b4-4e42-be30-202037be5b85"},"vehicle_type_id":"4","last_reported":1727453443,"current_range_meters":14400,"station_id":"ce4bhu92rcd13ifvqi70","pricing_plan_id":"cebpf4jnsgd1na2vs0mg"},{"bike_id":"7df4defa-e90a-4820-ac06-9981801322d4","system_id":"levelo_inurba_marseille","lat":43.31083,"lon":5.40132,"is_reserved":false,"is_disabled":false,"rental_uris":{"android":"levelo://app?vid=7df4defa-e90a-4820-ac06-9981801322d4","ios":"levelo://app?vid=7df4defa-e90a-4820-ac06-9981801322d4"},"vehicle_type_id":"4","last_reported":1727453443,"current_range_meters":12400,"station_id":"","pricing_plan_id":"cebpf4jnsgd1na2vs0mg"},{"bike_id":"8898d200-8a1f-4ddc-860a-95fa77040bfc","system_id":"levelo_inurba_marseille","lat":43.29426,"lon":5.38623,"is_reserved":false,"is_disabled":false,"rental_uris":{"android":"levelo://app?vid=8898d200-8a1f-4ddc-860a-95fa77040bfc","ios":"levelo://app?vid=8898d200-8a1f-4ddc-860a-95fa77040bfc"},"vehicle_type_id":"4","last_reported":1727453443,"current_range_meters":37600,"station_id":"ce4bh2h2rcd13ifvqdh0","pricing_plan_id":"cebpf4jnsgd1na2vs0mg"},{"bike_id":"a93ed487-121d-4ead-9d6e-de68e81f444f","system_id":"levelo_inurba_marseille","lat":43.3199,"lon":5.38149,"is_reserved":false,"is_disabled":false,"rental_uris":{"android":"levelo://app?vid=a93ed487-121d-4ead-9d6e-de68e81f444f","ios":"levelo://app?vid=a93ed487-121d-4ead-9d6e-de68e81f444f"},"vehicle_type_id":"4","last_reported":1727453443,"current_range_meters":26800,"station_id":"ce4bhr12rcd13ifvqhpg","pricing_plan_id":"cebpf4jnsgd1na2vs0mg"},{"bike_id":"c9656059-b28e-4b64-b742-b3daf1e4b552","system_id":"levelo_inurba_marseille","lat":43.28982,"lon":5.37589,"is_reserved":false,"is_disabled":false,"rental_uris":{"android":"levelo://app?vid=c9656059-b28e-4b64-b742-b3daf1e4b552","ios":"levelo://app?vid=c9656059-b28e-4b64-b742-b3daf1e4b552"},"vehicle_type_id":"4","last_reported":1727453443,"current_range_meters":32800,"station_id":"","pricing_plan_id":"cebpf4jnsgd1na2vs0mg"},{"bike_id":"a28381ad-1d23-4619-a9ac-fe599482aabe","system_id":"levelo_inurba_marseille","lat":43.31712,"lon":5.37752,"is_reserved":false,"is_disabled":false,"rental_uris":{"android":"levelo://app?vid=a28381ad-1d23-4619-a9ac-fe599482aabe","ios":"levelo://app?vid=a28381ad-1d23-4619-a9ac-fe599482aabe"},"vehicle_type_id":"4","last_reported":1727453443,"current_range_meters":8400,"station_id":"ce4bgth2rcd13ifvqch0","pricing_plan_id":"cebpf4jnsgd1na2vs0mg"},{"bike_id":"a673ebd9-214a-47f7-a0f1-dd0c448a5181","system_id":"levelo_inurba_marseille","lat":43.29884,"lon":5.389,"is_reserved":false,"is_disabled":false,"rental_uris":{"android":"levelo://app?vid=a673ebd9-214a-47f7-a0f1-dd0c448a5181","ios":"levelo://app?vid=a673ebd9-214a-47f7-a0f1-dd0c448a5181"},"vehicle_type_id":"4","last_reported":1727453443,"current_range_meters":9600,"station_id":"ce4bh392rcd13ifvqdl0","pricing_plan_id":"cebpf4jnsgd1na2vs0mg"},{"bike_id":"39f747af-97b6-4f38-9bbb-6831a763280c","system_id":"levelo_inurba_marseille","lat":43.2586,"lon":5.39901,"is_reserved":false,"is_disabled":false,"rental_uris":{"android":"levelo://app?vid=39f747af-97b6-4f38-9bbb-6831a763280c","ios":"levelo://app?vid=39f747af-97b6-4f38-9bbb-6831a763280c"},"vehicle_type_id":"4","last_reported":1727453443,"current_range_meters":8800,"station_id":"ce4bhl92rcd13ifvqghg","pricing_plan_id":"cebpf4jnsgd1na2vs0mg"},{"bike_id":"ad2c2077-9277-44fa-a779-5fb583586905","system_id":"levelo_inurba_marseille","lat":43.29256,"lon":5.38441,"is_reserved":false,"is_disabled":false,"rental_uris":{"android":"levelo://app?vid=ad2c2077-9277-44fa-a779-5fb583586905","ios":"levelo://app?vid=ad2c2077-9277-44fa-a779-5fb583586905"},"vehicle_type_id":"4","last_reported":1727453443,"current_range_meters":27200,"station_id":"ce4bh692rcd13ifvqea0","pricing_plan_id":"cebpf4jnsgd1na2vs0mg"},{"bike_id":"ac100ba5-83bb-48ac-9aa8-1fe0167784bb","system_id":"levelo_inurba_marseille","lat":43.279759,"lon":5.387395,"is_reserved":false,"is_disabled":false,"rental_uris":{"android":"levelo://app?vid=ac100ba5-83bb-48ac-9aa8-1fe0167784bb","ios":"levelo://app?vid=ac100ba5-83bb-48ac-9aa8-1fe0167784bb"},"vehicle_type_id":"4","last_reported":1727453443,"current_range_meters":9600,"station_id":"ce4bhg12rcd13ifvqf80","pricing_plan_id":"cebpf4jnsgd1na2vs0mg"},{"bike_id":"99528ca6-2c3d-4bc2-90d1-b0b1e8962a52","system_id":"levelo_inurba_marseille","lat":43.26195,"lon":5.37448,"is_reserved":false,"is_disabled":false,"rental_uris":{"android":"levelo://app?vid=99528ca6-2c3d-4bc2-90d1-b0b1e8962a52","ios":"levelo://app?vid=99528ca6-2c3d-4bc2-90d1-b0b1e8962a52"},"vehicle_type_id":"4","last_reported":1727453443,"current_range_meters":36000,"station_id":"ce4bhgp2rcd13ifvqfc0","pricing_plan_id":"cebpf4jnsgd1na2vs0mg"},{"bike_id":"a23c2a20-d0c6-4af4-9881-33c485205dd9","system_id":"levelo_inurba_marseille","lat":43.32105,"lon":5.36769,"is_reserved":false,"is_disabled":false,"rental_uris":{"android":"levelo://app?vid=a23c2a20-d0c6-4af4-9881-33c485205dd9","ios":"levelo://app?vid=a23c2a20-d0c6-4af4-9881-33c485205dd9"},"vehicle_type_id":"4","last_reported":1727453443,"current_range_meters":27600,"station_id":"ce4bhrh2rcd13ifvqhug","pricing_plan_id":"cebpf4jnsgd1na2vs0mg"},{"bike_id":"ea6674fe-ffb4-4208-9d69-2e5483685236","system_id":"levelo_inurba_marseille","lat":43.2621,"lon":5.37441,"is_reserved":false,"is_disabled":false,"rental_uris":{"android":"levelo://app?vid=ea6674fe-ffb4-4208-9d69-2e5483685236","ios":"levelo://app?vid=ea6674fe-ffb4-4208-9d69-2e5483685236"},"vehicle_type_id":"4","last_reported":1727453443,"current_range_meters":28800,"station_id":"ce4bhgp2rcd13ifvqfc0","pricing_plan_id":"cebpf4jnsgd1na2vs0mg"},{"bike_id":"84e91030-21f6-4737-b5c1-37d05d2a9806","system_id":"levelo_inurba_marseille","lat":43.30863,"lon":5.3685,"is_reserved":false,"is_disabled":false,"rental_uris":{"android":"levelo://app?vid=84e91030-21f6-4737-b5c1-37d05d2a9806","ios":"levelo://app?vid=84e91030-21f6-4737-b5c1-37d05d2a9806"},"vehicle_type_id":"4","last_reported":1727453443,"current_range_meters":16000,"station_id":"ce4bgn92rcd13ifvqbvg","pricing_plan_id":"cebpf4jnsgd1na2vs0mg"},{"bike_id":"bce6a1b2-4354-4d79-bdbd-b1dd00ec190c","system_id":"levelo_inurba_marseille","lat":43.293,"lon":5.37248,"is_reserved":false,"is_disabled":false,"rental_uris":{"android":"levelo://app?vid=bce6a1b2-4354-4d79-bdbd-b1dd00ec190c","ios":"levelo://app?vid=bce6a1b2-4354-4d79-bdbd-b1dd00ec190c"},"vehicle_type_id":"4","last_reported":1727453443,"current_range_meters":11600,"station_id":"","pricing_plan_id":"cebpf4jnsgd1na2vs0mg"},{"bike_id":"5347bf09-3218-4aa5-8721-6a898da808a7","system_id":"levelo_inurba_marseille","lat":43.30945,"lon":5.39028,"is_reserved":false,"is_disabled":false,"rental_uris":{"android":"levelo://app?vid=5347bf09-3218-4aa5-8721-6a898da808a7","ios":"levelo://app?vid=5347bf09-3218-4aa5-8721-6a898da808a7"},"vehicle_type_id":"4","last_reported":1727453443,"current_range_meters":6800,"station_id":"ce4bgup2rcd13ifvqco0","pricing_plan_id":"cebpf4jnsgd1na2vs0mg"},{"bike_id":"64511bca-5629-4266-951c-cd2f5dbe5a46","system_id":"levelo_inurba_marseille","lat":43.22934,"lon":5.35378,"is_reserved":false,"is_disabled":false,"rental_uris":{"android":"levelo://app?vid=64511bca-5629-4266-951c-cd2f5dbe5a46","ios":"levelo://app?vid=64511bca-5629-4266-951c-cd2f5dbe5a46"},"vehicle_type_id":"4","last_reported":1727453443,"current_range_meters":38000,"station_id":"cpo3532slgdg3j2ikp40","pricing_plan_id":"cebpf4jnsgd1na2vs0mg"},{"bike_id":"117df4ae-5686-4620-8cc8-bca3b75c1ccb","system_id":"levelo_inurba_marseille","lat":43.27983,"lon":5.38745,"is_reserved":false,"is_disabled":false,"rental_uris":{"android":"levelo://app?vid=117df4ae-5686-4620-8cc8-bca3b75c1ccb","ios":"levelo://app?vid=117df4ae-5686-4620-8cc8-bca3b75c1ccb"},"vehicle_type_id":"4","last_reported":1727453443,"current_range_meters":5600,"station_id":"ce4bhg12rcd13ifvqf80","pricing_plan_id":"cebpf4jnsgd1na2vs0mg"},{"bike_id":"f373be3c-15de-45b2-b704-18ce7cf29101","system_id":"levelo_inurba_marseille","lat":43.29424,"lon":5.38629,"is_reserved":false,"is_disabled":false,"rental_uris":{"android":"levelo://app?vid=f373be3c-15de-45b2-b704-18ce7cf29101","ios":"levelo://app?vid=f373be3c-15de-45b2-b704-18ce7cf29101"},"vehicle_type_id":"4","last_reported":1727453443,"current_range_meters":24000,"station_id":"ce4bh2h2rcd13ifvqdh0","pricing_plan_id":"cebpf4jnsgd1na2vs0mg"},{"bike_id":"ce88aab5-0091-4784-bf42-23c72889f0ae","system_id":"levelo_inurba_marseille","lat":43.25494,"lon":5.3765,"is_reserved":false,"is_disabled":false,"rental_uris":{"android":"levelo://app?vid=ce88aab5-0091-4784-bf42-23c72889f0ae","ios":"levelo://app?vid=ce88aab5-0091-4784-bf42-23c72889f0ae"},"vehicle_type_id":"4","last_reported":1727453443,"current_range_meters":11200,"station_id":"ce4bhh12rcd13ifvqff0","pricing_plan_id":"cebpf4jnsgd1na2vs0mg"},{"bike_id":"6720d6fc-b9ed-49b4-a3d3-889890bd6058","system_id":"levelo_inurba_marseille","lat":43.2952,"lon":5.37443,"is_reserved":false,"is_disabled":false,"rental_uris":{"android":"levelo://app?vid=6720d6fc-b9ed-49b4-a3d3-889890bd6058","ios":"levelo://app?vid=6720d6fc-b9ed-49b4-a3d3-889890bd6058"},"vehicle_type_id":"4","last_reported":1727453443,"current_range_meters":33200,"station_id":"ce4bh692rcd13ifvqea0","pricing_plan_id":"cebpf4jnsgd1na2vs0mg"},{"bike_id":"43c0c15c-7c74-4c12-b23e-4393ebb911d0","system_id":"levelo_inurba_marseille","lat":43.32297,"lon":5.38263,"is_reserved":false,"is_disabled":false,"rental_uris":{"android":"levelo://app?vid=43c0c15c-7c74-4c12-b23e-4393ebb911d0","ios":"levelo://app?vid=43c0c15c-7c74-4c12-b23e-4393ebb911d0"},"vehicle_type_id":"4","last_reported":1727453443,"current_range_meters":38000,"station_id":"ce4bhr12rcd13ifvqhqg","pricing_plan_id":"cebpf4jnsgd1na2vs0mg"},{"bike_id":"f635b32e-b6d6-4a74-9ea1-c8e96772c80a","system_id":"levelo_inurba_marseille","lat":43.28368,"lon":5.40041,"is_reserved":false,"is_disabled":false,"rental_uris":{"android":"levelo://app?vid=f635b32e-b6d6-4a74-9ea1-c8e96772c80a","ios":"levelo://app?vid=f635b32e-b6d6-4a74-9ea1-c8e96772c80a"},"vehicle_type_id":"4","last_reported":1727453443,"current_range_meters":24800,"station_id":"ce4bh512rcd13ifvqe3g","pricing_plan_id":"cebpf4jnsgd1na2vs0mg"},{"bike_id":"5bd1c754-2bfc-4f4f-bb0c-81ef0fbd23f9","system_id":"levelo_inurba_marseille","lat":43.24178,"lon":5.3973,"is_reserved":false,"is_disabled":false,"rental_uris":{"android":"levelo://app?vid=5bd1c754-2bfc-4f4f-bb0c-81ef0fbd23f9","ios":"levelo://app?vid=5bd1c754-2bfc-4f4f-bb0c-81ef0fbd23f9"},"vehicle_type_id":"4","last_reported":1727453443,"current_range_meters":6000,"station_id":"ce4bhn12rcd13ifvqgpg","pricing_plan_id":"cebpf4jnsgd1na2vs0mg"},{"bike_id":"d5b74c70-a66b-4f2c-810d-2594b9a0ef51","system_id":"levelo_inurba_marseille","lat":43.29895,"lon":5.43662,"is_reserved":false,"is_disabled":false,"rental_uris":{"android":"levelo://app?vid=d5b74c70-a66b-4f2c-810d-2594b9a0ef51","ios":"levelo://app?vid=d5b74c70-a66b-4f2c-810d-2594b9a0ef51"},"vehicle_type_id":"4","last_reported":1727453443,"current_range_meters":39200,"station_id":"ce4bhpp2rcd13ifvqhfg","pricing_plan_id":"cebpf4jnsgd1na2vs0mg"},{"bike_id":"77b1eef7-5034-4931-a64e-d7f949108dc0","system_id":"levelo_inurba_marseille","lat":43.25092,"lon":5.39518,"is_reserved":false,"is_disabled":false,"rental_uris":{"android":"levelo://app?vid=77b1eef7-5034-4931-a64e-d7f949108dc0","ios":"levelo://app?vid=77b1eef7-5034-4931-a64e-d7f949108dc0"},"vehicle_type_id":"4","last_reported":1727453443,"current_range_meters":3200,"station_id":"ce4bhm12rcd13ifvqgkg","pricing_plan_id":"cebpf4jnsgd1na2vs0mg"},{"bike_id":"4e1d0a27-a13f-41af-ab4b-fd1772299e8f","system_id":"levelo_inurba_marseille","lat":43.25583,"lon":5.3823,"is_reserved":false,"is_disabled":false,"rental_uris":{"android":"levelo://app?vid=4e1d0a27-a13f-41af-ab4b-fd1772299e8f","ios":"levelo://app?vid=4e1d0a27-a13f-41af-ab4b-fd1772299e8f"},"vehicle_type_id":"4","last_reported":1727453443,"current_range_meters":25600,"station_id":"ce4bhih2rcd13ifvqfs0","pricing_plan_id":"cebpf4jnsgd1na2vs0mg"},{"bike_id":"b579715c-20e2-4755-8fdf-8d2fd1b7b809","system_id":"levelo_inurba_marseille","lat":43.337444,"lon":5.374475,"is_reserved":false,"is_disabled":false,"rental_uris":{"android":"levelo://app?vid=b579715c-20e2-4755-8fdf-8d2fd1b7b809","ios":"levelo://app?vid=b579715c-20e2-4755-8fdf-8d2fd1b7b809"},"vehicle_type_id":"4","last_reported":1727453443,"current_range_meters":34800,"station_id":"","pricing_plan_id":"cebpf4jnsgd1na2vs0mg"},{"bike_id":"7d56de46-351c-4d42-aa14-562e88205e86","system_id":"levelo_inurba_marseille","lat":43.31224,"lon":5.36866,"is_reserved":false,"is_disabled":false,"rental_uris":{"android":"levelo://app?vid=7d56de46-351c-4d42-aa14-562e88205e86","ios":"levelo://app?vid=7d56de46-351c-4d42-aa14-562e88205e86"},"vehicle_type_id":"4","last_reported":1727453443,"current_range_meters":30800,"station_id":"ce4bgl92rcd13ifvqbq0","pricing_plan_id":"cebpf4jnsgd1na2vs0mg"},{"bike_id":"85e43031-7dc5-457c-86e6-dbb497aa6d82","system_id":"levelo_inurba_marseille","lat":43.27964,"lon":5.38747,"is_reserved":false,"is_disabled":false,"rental_uris":{"android":"levelo://app?vid=85e43031-7dc5-457c-86e6-dbb497aa6d82","ios":"levelo://app?vid=85e43031-7dc5-457c-86e6-dbb497aa6d82"},"vehicle_type_id":"4","last_reported":1727453443,"current_range_meters":18000,"station_id":"ce4bhg12rcd13ifvqf80","pricing_plan_id":"cebpf4jnsgd1na2vs0mg"},{"bike_id":"98b2e2bc-5f5b-4dbf-96dd-d790dbfe4ad2","system_id":"levelo_inurba_marseille","lat":43.25093,"lon":5.39524,"is_reserved":false,"is_disabled":false,"rental_uris":{"android":"levelo://app?vid=98b2e2bc-5f5b-4dbf-96dd-d790dbfe4ad2","ios":"levelo://app?vid=98b2e2bc-5f5b-4dbf-96dd-d790dbfe4ad2"},"vehicle_type_id":"4","last_reported":1727453443,"current_range_meters":10800,"station_id":"ce4bhm12rcd13ifvqgkg","pricing_plan_id":"cebpf4jnsgd1na2vs0mg"},{"bike_id":"3ac5debd-9224-4e45-9737-7ab4069e0553","system_id":"levelo_inurba_marseille","lat":43.29579,"lon":5.36744,"is_reserved":false,"is_disabled":false,"rental_uris":{"android":"levelo://app?vid=3ac5debd-9224-4e45-9737-7ab4069e0553","ios":"levelo://app?vid=3ac5debd-9224-4e45-9737-7ab4069e0553"},"vehicle_type_id":"4","last_reported":1727453443,"current_range_meters":10800,"station_id":"ce4bgph2rcd13ifvqc2g","pricing_plan_id":"cebpf4jnsgd1na2vs0mg"},{"bike_id":"a8ad96dc-e0f4-4a3f-9725-4f83b8c05346","system_id":"levelo_inurba_marseille","lat":43.23188,"lon":5.3998,"is_reserved":false,"is_disabled":false,"rental_uris":{"android":"levelo://app?vid=a8ad96dc-e0f4-4a3f-9725-4f83b8c05346","ios":"levelo://app?vid=a8ad96dc-e0f4-4a3f-9725-4f83b8c05346"},"vehicle_type_id":"4","last_reported":1727453443,"current_range_meters":39200,"station_id":"ce4bhn12rcd13ifvqgqg","pricing_plan_id":"cebpf4jnsgd1na2vs0mg"},{"bike_id":"fd6e197d-3ea4-491e-be63-35531aa72442","system_id":"levelo_inurba_marseille","lat":43.30581,"lon":5.37087,"is_reserved":false,"is_disabled":false,"rental_uris":{"android":"levelo://app?vid=fd6e197d-3ea4-491e-be63-35531aa72442","ios":"levelo://app?vid=fd6e197d-3ea4-491e-be63-35531aa72442"},"vehicle_type_id":"4","last_reported":1727453443,"current_range_meters":9600,"station_id":"","pricing_plan_id":"cebpf4jnsgd1na2vs0mg"},{"bike_id":"cb922de1-28b4-4c69-ba4c-ec3dbcdd5e4e","system_id":"levelo_inurba_marseille","lat":43.26553,"lon":5.3728,"is_reserved":false,"is_disabled":false,"rental_uris":{"android":"levelo://app?vid=cb922de1-28b4-4c69-ba4c-ec3dbcdd5e4e","ios":"levelo://app?vid=cb922de1-28b4-4c69-ba4c-ec3dbcdd5e4e"},"vehicle_type_id":"4","last_reported":1727453443,"current_range_meters":38400,"station_id":"ce4bhg12rcd13ifvqf70","pricing_plan_id":"cebpf4jnsgd1na2vs0mg"},{"bike_id":"7f7d3c7a-a184-4aa0-a1a4-50fbd2ffeb46","system_id":"levelo_inurba_marseille","lat":43.29897,"lon":5.4367,"is_reserved":false,"is_disabled":false,"rental_uris":{"android":"levelo://app?vid=7f7d3c7a-a184-4aa0-a1a4-50fbd2ffeb46","ios":"levelo://app?vid=7f7d3c7a-a184-4aa0-a1a4-50fbd2ffeb46"},"vehicle_type_id":"4","last_reported":1727453443,"current_range_meters":6400,"station_id":"ce4bhpp2rcd13ifvqhfg","pricing_plan_id":"cebpf4jnsgd1na2vs0mg"},{"bike_id":"f46a05dd-03d6-4c9a-b521-653fd6faadf2","system_id":"levelo_inurba_marseille","lat":43.27621,"lon":5.36107,"is_reserved":false,"is_disabled":false,"rental_uris":{"android":"levelo://app?vid=f46a05dd-03d6-4c9a-b521-653fd6faadf2","ios":"levelo://app?vid=f46a05dd-03d6-4c9a-b521-653fd6faadf2"},"vehicle_type_id":"4","last_reported":1727453443,"current_range_meters":20000,"station_id":"ce4bgj92rcd13ifvqbe0","pricing_plan_id":"cebpf4jnsgd1na2vs0mg"},{"bike_id":"c40f2b99-ce97-4b03-933a-e2ed32b4fcfc","system_id":"levelo_inurba_marseille","lat":43.31365,"lon":5.38492,"is_reserved":false,"is_disabled":false,"rental_uris":{"android":"levelo://app?vid=c40f2b99-ce97-4b03-933a-e2ed32b4fcfc","ios":"levelo://app?vid=c40f2b99-ce97-4b03-933a-e2ed32b4fcfc"},"vehicle_type_id":"4","last_reported":1727453443,"current_range_meters":36800,"station_id":"ce4bgt92rcd13ifvqcf0","pricing_plan_id":"cebpf4jnsgd1na2vs0mg"},{"bike_id":"3e2e89f1-762d-4f4d-85c3-61c5ede0bd01","system_id":"levelo_inurba_marseille","lat":43.2972,"lon":5.36621,"is_reserved":false,"is_disabled":false,"rental_uris":{"android":"levelo://app?vid=3e2e89f1-762d-4f4d-85c3-61c5ede0bd01","ios":"levelo://app?vid=3e2e89f1-762d-4f4d-85c3-61c5ede0bd01"},"vehicle_type_id":"4","last_reported":1727453443,"current_range_meters":35600,"station_id":"ce4bgn12rcd13ifvqbt0","pricing_plan_id":"cebpf4jnsgd1na2vs0mg"},{"bike_id":"39a21b09-2fdc-4dc7-8c16-e12e191b2068","system_id":"levelo_inurba_marseille","lat":43.31087,"lon":5.42431,"is_reserved":false,"is_disabled":false,"rental_uris":{"android":"levelo://app?vid=39a21b09-2fdc-4dc7-8c16-e12e191b2068","ios":"levelo://app?vid=39a21b09-2fdc-4dc7-8c16-e12e191b2068"},"vehicle_type_id":"4","last_reported":1727453443,"current_range_meters":30400,"station_id":"ce4bhp92rcd13ifvqhag","pricing_plan_id":"cebpf4jnsgd1na2vs0mg"},{"bike_id":"409287e8-bfe3-48fc-bd6a-5f9764ad9e27","system_id":"levelo_inurba_marseille","lat":43.2937,"lon":5.37803,"is_reserved":false,"is_disabled":false,"rental_uris":{"android":"levelo://app?vid=409287e8-bfe3-48fc-bd6a-5f9764ad9e27","ios":"levelo://app?vid=409287e8-bfe3-48fc-bd6a-5f9764ad9e27"},"vehicle_type_id":"4","last_reported":1727453443,"current_range_meters":13600,"station_id":"ce4bgjh2rcd13ifvqbf0","pricing_plan_id":"cebpf4jnsgd1na2vs0mg"},{"bike_id":"e6944f33-199d-4236-8ad7-241285668cf5","system_id":"levelo_inurba_marseille","lat":43.31353,"lon":5.38492,"is_reserved":false,"is_disabled":false,"rental_uris":{"android":"levelo://app?vid=e6944f33-199d-4236-8ad7-241285668cf5","ios":"levelo://app?vid=e6944f33-199d-4236-8ad7-241285668cf5"},"vehicle_type_id":"4","last_reported":1727453443,"current_range_meters":28000,"station_id":"ce4bgt92rcd13ifvqcf0","pricing_plan_id":"cebpf4jnsgd1na2vs0mg"},{"bike_id":"7bf6871c-a92b-4596-9011-8f1d8c229d8e","system_id":"levelo_inurba_marseille","lat":43.25847,"lon":5.38868,"is_reserved":false,"is_disabled":false,"rental_uris":{"android":"levelo://app?vid=7bf6871c-a92b-4596-9011-8f1d8c229d8e","ios":"levelo://app?vid=7bf6871c-a92b-4596-9011-8f1d8c229d8e"},"vehicle_type_id":"4","last_reported":1727453443,"current_range_meters":36000,"station_id":"","pricing_plan_id":"cebpf4jnsgd1na2vs0mg"},{"bike_id":"d8fcee21-c2f0-438c-9286-42693613cc72","system_id":"levelo_inurba_marseille","lat":43.29045,"lon":5.35925,"is_reserved":false,"is_disabled":false,"rental_uris":{"android":"levelo://app?vid=d8fcee21-c2f0-438c-9286-42693613cc72","ios":"levelo://app?vid=d8fcee21-c2f0-438c-9286-42693613cc72"},"vehicle_type_id":"4","last_reported":1727453443,"current_range_meters":36800,"station_id":"ce4bha92rcd13ifvqeg0","pricing_plan_id":"cebpf4jnsgd1na2vs0mg"},{"bike_id":"63eba010-c74f-4342-9a7d-449ea52e115b","system_id":"levelo_inurba_marseille","lat":43.291962,"lon":5.358325,"is_reserved":false,"is_disabled":false,"rental_uris":{"android":"levelo://app?vid=63eba010-c74f-4342-9a7d-449ea52e115b","ios":"levelo://app?vid=63eba010-c74f-4342-9a7d-449ea52e115b"},"vehicle_type_id":"4","last_reported":1727453443,"current_range_meters":6400,"station_id":"ce4bhb12rcd13ifvqel0","pricing_plan_id":"cebpf4jnsgd1na2vs0mg"},{"bike_id":"4ebbc4df-b6c5-40b1-9b77-0a6f9fe7579f","system_id":"levelo_inurba_marseille","lat":43.23064,"lon":5.35487,"is_reserved":false,"is_disabled":false,"rental_uris":{"android":"levelo://app?vid=4ebbc4df-b6c5-40b1-9b77-0a6f9fe7579f","ios":"levelo://app?vid=4ebbc4df-b6c5-40b1-9b77-0a6f9fe7579f"},"vehicle_type_id":"4","last_reported":1727453443,"current_range_meters":36000,"station_id":"cpo3342slgdg3j2ifvpg","pricing_plan_id":"cebpf4jnsgd1na2vs0mg"},{"bike_id":"5a465e66-07e8-46ce-8a66-62e2ca72743b","system_id":"levelo_inurba_marseille","lat":43.29842,"lon":5.3627,"is_reserved":false,"is_disabled":false,"rental_uris":{"android":"levelo://app?vid=5a465e66-07e8-46ce-8a66-62e2ca72743b","ios":"levelo://app?vid=5a465e66-07e8-46ce-8a66-62e2ca72743b"},"vehicle_type_id":"4","last_reported":1727453443,"current_range_meters":28800,"station_id":"ce4bgpp2rcd13ifvqc3g","pricing_plan_id":"cebpf4jnsgd1na2vs0mg"},{"bike_id":"0577f385-3c50-4e30-beb8-47d51be391e7","system_id":"levelo_inurba_marseille","lat":43.28355,"lon":5.38623,"is_reserved":false,"is_disabled":false,"rental_uris":{"android":"levelo://app?vid=0577f385-3c50-4e30-beb8-47d51be391e7","ios":"levelo://app?vid=0577f385-3c50-4e30-beb8-47d51be391e7"},"vehicle_type_id":"4","last_reported":1727453443,"current_range_meters":3600,"station_id":"ce4bh492rcd13ifvqdvg","pricing_plan_id":"cebpf4jnsgd1na2vs0mg"},{"bike_id":"a4d8cc32-a575-4154-9414-c80f2b60d8d1","system_id":"levelo_inurba_marseille","lat":43.29438,"lon":5.39742,"is_reserved":false,"is_disabled":false,"rental_uris":{"android":"levelo://app?vid=a4d8cc32-a575-4154-9414-c80f2b60d8d1","ios":"levelo://app?vid=a4d8cc32-a575-4154-9414-c80f2b60d8d1"},"vehicle_type_id":"4","last_reported":1727453443,"current_range_meters":39200,"station_id":"ce4bh3h2rcd13ifvqdo0","pricing_plan_id":"cebpf4jnsgd1na2vs0mg"},{"bike_id":"2ac4cf5a-6114-4817-a132-b832f53bede0","system_id":"levelo_inurba_marseille","lat":43.24179,"lon":5.3974,"is_reserved":false,"is_disabled":false,"rental_uris":{"android":"levelo://app?vid=2ac4cf5a-6114-4817-a132-b832f53bede0","ios":"levelo://app?vid=2ac4cf5a-6114-4817-a132-b832f53bede0"},"vehicle_type_id":"4","last_reported":1727453443,"current_range_meters":3200,"station_id":"ce4bhn12rcd13ifvqgpg","pricing_plan_id":"cebpf4jnsgd1na2vs0mg"},{"bike_id":"5a1515c2-c4a0-426e-bcdd-5d88297e214e","system_id":"levelo_inurba_marseille","lat":43.29899,"lon":5.43667,"is_reserved":false,"is_disabled":false,"rental_uris":{"android":"levelo://app?vid=5a1515c2-c4a0-426e-bcdd-5d88297e214e","ios":"levelo://app?vid=5a1515c2-c4a0-426e-bcdd-5d88297e214e"},"vehicle_type_id":"4","last_reported":1727453443,"current_range_meters":17200,"station_id":"ce4bhpp2rcd13ifvqhfg","pricing_plan_id":"cebpf4jnsgd1na2vs0mg"},{"bike_id":"cb07f0fe-09ef-4da3-b729-def49a7fb7f8","system_id":"levelo_inurba_marseille","lat":43.23179,"lon":5.39981,"is_reserved":false,"is_disabled":false,"rental_uris":{"android":"levelo://app?vid=cb07f0fe-09ef-4da3-b729-def49a7fb7f8","ios":"levelo://app?vid=cb07f0fe-09ef-4da3-b729-def49a7fb7f8"},"vehicle_type_id":"4","last_reported":1727453443,"current_range_meters":35200,"station_id":"ce4bhn12rcd13ifvqgqg","pricing_plan_id":"cebpf4jnsgd1na2vs0mg"},{"bike_id":"a809ed06-162d-4b03-888b-019b73cde138","system_id":"levelo_inurba_marseille","lat":43.29301,"lon":5.37168,"is_reserved":false,"is_disabled":false,"rental_uris":{"android":"levelo://app?vid=a809ed06-162d-4b03-888b-019b73cde138","ios":"levelo://app?vid=a809ed06-162d-4b03-888b-019b73cde138"},"vehicle_type_id":"4","last_reported":1727453443,"current_range_meters":22800,"station_id":"ce4bgh92rcd13ifvqb40","pricing_plan_id":"cebpf4jnsgd1na2vs0mg"},{"bike_id":"a6f0de56-b758-4ba0-9466-a0a8c9032562","system_id":"levelo_inurba_marseille","lat":43.27559,"lon":5.3844,"is_reserved":false,"is_disabled":false,"rental_uris":{"android":"levelo://app?vid=a6f0de56-b758-4ba0-9466-a0a8c9032562","ios":"levelo://app?vid=a6f0de56-b758-4ba0-9466-a0a8c9032562"},"vehicle_type_id":"4","last_reported":1727453443,"current_range_meters":24000,"station_id":"ce4bhh92rcd13ifvqfi0","pricing_plan_id":"cebpf4jnsgd1na2vs0mg"},{"bike_id":"bf00f0fc-3809-4ce9-95ad-fe0b4999cac6","system_id":"levelo_inurba_marseille","lat":43.31757,"lon":5.39013,"is_reserved":false,"is_disabled":false,"rental_uris":{"android":"levelo://app?vid=bf00f0fc-3809-4ce9-95ad-fe0b4999cac6","ios":"levelo://app?vid=bf00f0fc-3809-4ce9-95ad-fe0b4999cac6"},"vehicle_type_id":"4","last_reported":1727453443,"current_range_meters":9600,"station_id":"ce4bhqp2rcd13ifvqhng","pricing_plan_id":"cebpf4jnsgd1na2vs0mg"},{"bike_id":"52bfc623-bea1-4972-a899-bd4f1779b478","system_id":"levelo_inurba_marseille","lat":43.29525,"lon":5.39033,"is_reserved":false,"is_disabled":false,"rental_uris":{"android":"levelo://app?vid=52bfc623-bea1-4972-a899-bd4f1779b478","ios":"levelo://app?vid=52bfc623-bea1-4972-a899-bd4f1779b478"},"vehicle_type_id":"4","last_reported":1727453443,"current_range_meters":8000,"station_id":"ce4bh3p2rcd13ifvqdp0","pricing_plan_id":"cebpf4jnsgd1na2vs0mg"},{"bike_id":"deab055e-d79d-4c85-bc6c-038a345305e9","system_id":"levelo_inurba_marseille","lat":43.22932,"lon":5.35388,"is_reserved":false,"is_disabled":false,"rental_uris":{"android":"levelo://app?vid=deab055e-d79d-4c85-bc6c-038a345305e9","ios":"levelo://app?vid=deab055e-d79d-4c85-bc6c-038a345305e9"},"vehicle_type_id":"4","last_reported":1727453443,"current_range_meters":38800,"station_id":"cpo3532slgdg3j2ikp40","pricing_plan_id":"cebpf4jnsgd1na2vs0mg"},{"bike_id":"dba19531-050c-4d6e-a6a7-4799037221b3","system_id":"levelo_inurba_marseille","lat":43.28934,"lon":5.36391,"is_reserved":false,"is_disabled":false,"rental_uris":{"android":"levelo://app?vid=dba19531-050c-4d6e-a6a7-4799037221b3","ios":"levelo://app?vid=dba19531-050c-4d6e-a6a7-4799037221b3"},"vehicle_type_id":"4","last_reported":1727453443,"current_range_meters":39200,"station_id":"ce4bhc92rcd13ifvqetg","pricing_plan_id":"cebpf4jnsgd1na2vs0mg"},{"bike_id":"b2f281f4-cce6-49a9-961e-7359c2662fa4","system_id":"levelo_inurba_marseille","lat":43.286169,"lon":5.35093,"is_reserved":false,"is_disabled":false,"rental_uris":{"android":"levelo://app?vid=b2f281f4-cce6-49a9-961e-7359c2662fa4","ios":"levelo://app?vid=b2f281f4-cce6-49a9-961e-7359c2662fa4"},"vehicle_type_id":"4","last_reported":1727453443,"current_range_meters":37600,"station_id":"ce4bhch2rcd13ifvqeug","pricing_plan_id":"cebpf4jnsgd1na2vs0mg"},{"bike_id":"03b0c0e4-8b27-40b6-bb2f-9cc1077d3db5","system_id":"levelo_inurba_marseille","lat":43.3021,"lon":5.39462,"is_reserved":false,"is_disabled":false,"rental_uris":{"android":"levelo://app?vid=03b0c0e4-8b27-40b6-bb2f-9cc1077d3db5","ios":"levelo://app?vid=03b0c0e4-8b27-40b6-bb2f-9cc1077d3db5"},"vehicle_type_id":"4","last_reported":1727453443,"current_range_meters":8800,"station_id":"ce4bh0p2rcd13ifvqd70","pricing_plan_id":"cebpf4jnsgd1na2vs0mg"},{"bike_id":"9788ab7b-0084-42a7-9975-cb9c69332931","system_id":"levelo_inurba_marseille","lat":43.26036,"lon":5.37546,"is_reserved":false,"is_disabled":false,"rental_uris":{"android":"levelo://app?vid=9788ab7b-0084-42a7-9975-cb9c69332931","ios":"levelo://app?vid=9788ab7b-0084-42a7-9975-cb9c69332931"},"vehicle_type_id":"4","last_reported":1727453443,"current_range_meters":8800,"station_id":"ce4bhgh2rcd13ifvqfa0","pricing_plan_id":"cebpf4jnsgd1na2vs0mg"},{"bike_id":"02f82c22-332a-478b-907e-7b4cbeea0659","system_id":"levelo_inurba_marseille","lat":43.30189,"lon":5.36622,"is_reserved":false,"is_disabled":false,"rental_uris":{"android":"levelo://app?vid=02f82c22-332a-478b-907e-7b4cbeea0659","ios":"levelo://app?vid=02f82c22-332a-478b-907e-7b4cbeea0659"},"vehicle_type_id":"4","last_reported":1727453443,"current_range_meters":22800,"station_id":"ce4bgrh2rcd13ifvqc8g","pricing_plan_id":"cebpf4jnsgd1na2vs0mg"},{"bike_id":"6f9bfdeb-8902-4d0f-80ef-dc417a73d20b","system_id":"levelo_inurba_marseille","lat":43.27812,"lon":5.40705,"is_reserved":false,"is_disabled":false,"rental_uris":{"android":"levelo://app?vid=6f9bfdeb-8902-4d0f-80ef-dc417a73d20b","ios":"levelo://app?vid=6f9bfdeb-8902-4d0f-80ef-dc417a73d20b"},"vehicle_type_id":"4","last_reported":1727453443,"current_range_meters":25200,"station_id":"ce4bhnh2rcd13ifvqgtg","pricing_plan_id":"cebpf4jnsgd1na2vs0mg"},{"bike_id":"5a1314d1-d2b6-4452-82db-d72854c016cd","system_id":"levelo_inurba_marseille","lat":43.31759,"lon":5.39016,"is_reserved":false,"is_disabled":false,"rental_uris":{"android":"levelo://app?vid=5a1314d1-d2b6-4452-82db-d72854c016cd","ios":"levelo://app?vid=5a1314d1-d2b6-4452-82db-d72854c016cd"},"vehicle_type_id":"4","last_reported":1727453443,"current_range_meters":27200,"station_id":"ce4bhqp2rcd13ifvqhng","pricing_plan_id":"cebpf4jnsgd1na2vs0mg"},{"bike_id":"6aab1025-a10b-4b55-941b-729e84400414","system_id":"levelo_inurba_marseille","lat":43.29216,"lon":5.3605,"is_reserved":false,"is_disabled":false,"rental_uris":{"android":"levelo://app?vid=6aab1025-a10b-4b55-941b-729e84400414","ios":"levelo://app?vid=6aab1025-a10b-4b55-941b-729e84400414"},"vehicle_type_id":"4","last_reported":1727453443,"current_range_meters":38400,"station_id":"ce4bhbh2rcd13ifvqeqg","pricing_plan_id":"cebpf4jnsgd1na2vs0mg"},{"bike_id":"d5e4fae8-a1d0-4ac7-94fa-ba7bafcaacac","system_id":"levelo_inurba_marseille","lat":43.28726,"lon":5.36105,"is_reserved":false,"is_disabled":false,"rental_uris":{"android":"levelo://app?vid=d5e4fae8-a1d0-4ac7-94fa-ba7bafcaacac","ios":"levelo://app?vid=d5e4fae8-a1d0-4ac7-94fa-ba7bafcaacac"},"vehicle_type_id":"4","last_reported":1727453443,"current_range_meters":2000,"station_id":"cki0cbj6b192h4jlfktg","pricing_plan_id":"cebpf4jnsgd1na2vs0mg"},{"bike_id":"ff27033d-c436-4351-a1a5-4c98afae705e","system_id":"levelo_inurba_marseille","lat":43.29229,"lon":5.37889,"is_reserved":false,"is_disabled":false,"rental_uris":{"android":"levelo://app?vid=ff27033d-c436-4351-a1a5-4c98afae705e","ios":"levelo://app?vid=ff27033d-c436-4351-a1a5-4c98afae705e"},"vehicle_type_id":"4","last_reported":1727453443,"current_range_meters":16400,"station_id":"","pricing_plan_id":"cebpf4jnsgd1na2vs0mg"},{"bike_id":"b5d7dce2-dfdd-4e8c-b306-d2027a9da59b","system_id":"levelo_inurba_marseille","lat":43.29899,"lon":5.43675,"is_reserved":false,"is_disabled":false,"rental_uris":{"android":"levelo://app?vid=b5d7dce2-dfdd-4e8c-b306-d2027a9da59b","ios":"levelo://app?vid=b5d7dce2-dfdd-4e8c-b306-d2027a9da59b"},"vehicle_type_id":"4","last_reported":1727453443,"current_range_meters":35600,"station_id":"ce4bhpp2rcd13ifvqhfg","pricing_plan_id":"cebpf4jnsgd1na2vs0mg"},{"bike_id":"3c512548-aa93-49f2-93bd-dd975dd5121b","system_id":"levelo_inurba_marseille","lat":43.30878,"lon":5.38077,"is_reserved":false,"is_disabled":false,"rental_uris":{"android":"levelo://app?vid=3c512548-aa93-49f2-93bd-dd975dd5121b","ios":"levelo://app?vid=3c512548-aa93-49f2-93bd-dd975dd5121b"},"vehicle_type_id":"4","last_reported":1727453443,"current_range_meters":2800,"station_id":"ce4bgt12rcd13ifvqce0","pricing_plan_id":"cebpf4jnsgd1na2vs0mg"},{"bike_id":"6014f5b7-ffb7-43a1-8c22-17bd4d5e94b5","system_id":"levelo_inurba_marseille","lat":43.28469,"lon":5.35894,"is_reserved":false,"is_disabled":false,"rental_uris":{"android":"levelo://app?vid=6014f5b7-ffb7-43a1-8c22-17bd4d5e94b5","ios":"levelo://app?vid=6014f5b7-ffb7-43a1-8c22-17bd4d5e94b5"},"vehicle_type_id":"4","last_reported":1727453443,"current_range_meters":3200,"station_id":"ce4bhah2rcd13ifvqei0","pricing_plan_id":"cebpf4jnsgd1na2vs0mg"},{"bike_id":"bad220ff-85c5-4ca3-82da-7fd2e148a687","system_id":"levelo_inurba_marseille","lat":43.29438,"lon":5.3975,"is_reserved":false,"is_disabled":false,"rental_uris":{"android":"levelo://app?vid=bad220ff-85c5-4ca3-82da-7fd2e148a687","ios":"levelo://app?vid=bad220ff-85c5-4ca3-82da-7fd2e148a687"},"vehicle_type_id":"4","last_reported":1727453443,"current_range_meters":8800,"station_id":"ce4bh3h2rcd13ifvqdo0","pricing_plan_id":"cebpf4jnsgd1na2vs0mg"},{"bike_id":"c48fb40f-13be-4ae6-9130-ce556eeb5aa8","system_id":"levelo_inurba_marseille","lat":43.32111,"lon":5.3678,"is_reserved":false,"is_disabled":false,"rental_uris":{"android":"levelo://app?vid=c48fb40f-13be-4ae6-9130-ce556eeb5aa8","ios":"levelo://app?vid=c48fb40f-13be-4ae6-9130-ce556eeb5aa8"},"vehicle_type_id":"4","last_reported":1727453443,"current_range_meters":34000,"station_id":"ce4bhrh2rcd13ifvqhug","pricing_plan_id":"cebpf4jnsgd1na2vs0mg"},{"bike_id":"92ed948a-9f9a-4968-accc-b2fe3b391b37","system_id":"levelo_inurba_marseille","lat":43.32662,"lon":5.40988,"is_reserved":false,"is_disabled":false,"rental_uris":{"android":"levelo://app?vid=92ed948a-9f9a-4968-accc-b2fe3b391b37","ios":"levelo://app?vid=92ed948a-9f9a-4968-accc-b2fe3b391b37"},"vehicle_type_id":"4","last_reported":1727453443,"current_range_meters":12000,"station_id":"ce4bhpp2rcd13ifvqhgg","pricing_plan_id":"cebpf4jnsgd1na2vs0mg"},{"bike_id":"0ec4d074-35b9-48dd-9b90-3d3a72982ca2","system_id":"levelo_inurba_marseille","lat":43.26033,"lon":5.38205,"is_reserved":false,"is_disabled":false,"rental_uris":{"android":"levelo://app?vid=0ec4d074-35b9-48dd-9b90-3d3a72982ca2","ios":"levelo://app?vid=0ec4d074-35b9-48dd-9b90-3d3a72982ca2"},"vehicle_type_id":"4","last_reported":1727453443,"current_range_meters":31200,"station_id":"","pricing_plan_id":"cebpf4jnsgd1na2vs0mg"},{"bike_id":"c4cd3b2b-1da4-4dd4-a3d8-aee2528fa6c3","system_id":"levelo_inurba_marseille","lat":43.30128,"lon":5.3985,"is_reserved":false,"is_disabled":false,"rental_uris":{"android":"levelo://app?vid=c4cd3b2b-1da4-4dd4-a3d8-aee2528fa6c3","ios":"levelo://app?vid=c4cd3b2b-1da4-4dd4-a3d8-aee2528fa6c3"},"vehicle_type_id":"4","last_reported":1727453443,"current_range_meters":23200,"station_id":"ce4bh0h2rcd13ifvqd40","pricing_plan_id":"cebpf4jnsgd1na2vs0mg"},{"bike_id":"c137139c-d0a9-4a7b-a7fc-8b1e94fee2d8","system_id":"levelo_inurba_marseille","lat":43.30142,"lon":5.37428,"is_reserved":false,"is_disabled":false,"rental_uris":{"android":"levelo://app?vid=c137139c-d0a9-4a7b-a7fc-8b1e94fee2d8","ios":"levelo://app?vid=c137139c-d0a9-4a7b-a7fc-8b1e94fee2d8"},"vehicle_type_id":"4","last_reported":1727453443,"current_range_meters":6400,"station_id":"ce4bgs92rcd13ifvqcc0","pricing_plan_id":"cebpf4jnsgd1na2vs0mg"},{"bike_id":"fe053bea-9127-42f3-8163-84b402aa8d6b","system_id":"levelo_inurba_marseille","lat":43.259918,"lon":5.375681,"is_reserved":false,"is_disabled":false,"rental_uris":{"android":"levelo://app?vid=fe053bea-9127-42f3-8163-84b402aa8d6b","ios":"levelo://app?vid=fe053bea-9127-42f3-8163-84b402aa8d6b"},"vehicle_type_id":"4","last_reported":1727453443,"current_range_meters":7200,"station_id":"ce4bhgh2rcd13ifvqfa0","pricing_plan_id":"cebpf4jnsgd1na2vs0mg"},{"bike_id":"659c9977-a309-49b9-a337-d31b616c4605","system_id":"levelo_inurba_marseille","lat":43.31756,"lon":5.39023,"is_reserved":false,"is_disabled":false,"rental_uris":{"android":"levelo://app?vid=659c9977-a309-49b9-a337-d31b616c4605","ios":"levelo://app?vid=659c9977-a309-49b9-a337-d31b616c4605"},"vehicle_type_id":"4","last_reported":1727453443,"current_range_meters":16000,"station_id":"ce4bhqp2rcd13ifvqhng","pricing_plan_id":"cebpf4jnsgd1na2vs0mg"},{"bike_id":"1c198670-cf1b-40e2-9373-24a1d628b4c8","system_id":"levelo_inurba_marseille","lat":43.24073,"lon":5.37762,"is_reserved":false,"is_disabled":false,"rental_uris":{"android":"levelo://app?vid=1c198670-cf1b-40e2-9373-24a1d628b4c8","ios":"levelo://app?vid=1c198670-cf1b-40e2-9373-24a1d628b4c8"},"vehicle_type_id":"4","last_reported":1727453443,"current_range_meters":12400,"station_id":"ce4bhnp2rcd13ifvqgvg","pricing_plan_id":"cebpf4jnsgd1na2vs0mg"},{"bike_id":"788da390-2cce-4b31-9cc8-6caa2833eb9b","system_id":"levelo_inurba_marseille","lat":43.28853,"lon":5.39306,"is_reserved":false,"is_disabled":false,"rental_uris":{"android":"levelo://app?vid=788da390-2cce-4b31-9cc8-6caa2833eb9b","ios":"levelo://app?vid=788da390-2cce-4b31-9cc8-6caa2833eb9b"},"vehicle_type_id":"4","last_reported":1727453443,"current_range_meters":13600,"station_id":"ce4bh2p2rcd13ifvqdi0","pricing_plan_id":"cebpf4jnsgd1na2vs0mg"},{"bike_id":"cadaf48d-4e48-489d-bf90-96de494e3868","system_id":"levelo_inurba_marseille","lat":43.29583,"lon":5.36746,"is_reserved":false,"is_disabled":false,"rental_uris":{"android":"levelo://app?vid=cadaf48d-4e48-489d-bf90-96de494e3868","ios":"levelo://app?vid=cadaf48d-4e48-489d-bf90-96de494e3868"},"vehicle_type_id":"4","last_reported":1727453443,"current_range_meters":12400,"station_id":"ce4bgph2rcd13ifvqc2g","pricing_plan_id":"cebpf4jnsgd1na2vs0mg"},{"bike_id":"0f92c318-940a-4a8a-a449-54493298c2ec","system_id":"levelo_inurba_marseille","lat":43.29579,"lon":5.36739,"is_reserved":false,"is_disabled":false,"rental_uris":{"android":"levelo://app?vid=0f92c318-940a-4a8a-a449-54493298c2ec","ios":"levelo://app?vid=0f92c318-940a-4a8a-a449-54493298c2ec"},"vehicle_type_id":"4","last_reported":1727453443,"current_range_meters":4800,"station_id":"ce4bgph2rcd13ifvqc2g","pricing_plan_id":"cebpf4jnsgd1na2vs0mg"},{"bike_id":"901f8914-87ae-4a3d-8f4a-a46dd5c06f69","system_id":"levelo_inurba_marseille","lat":43.26029,"lon":5.3755,"is_reserved":false,"is_disabled":false,"rental_uris":{"android":"levelo://app?vid=901f8914-87ae-4a3d-8f4a-a46dd5c06f69","ios":"levelo://app?vid=901f8914-87ae-4a3d-8f4a-a46dd5c06f69"},"vehicle_type_id":"4","last_reported":1727453443,"current_range_meters":4800,"station_id":"ce4bhgh2rcd13ifvqfa0","pricing_plan_id":"cebpf4jnsgd1na2vs0mg"},{"bike_id":"613129f8-2639-4f91-a258-3f64bf011efa","system_id":"levelo_inurba_marseille","lat":43.23175,"lon":5.39985,"is_reserved":false,"is_disabled":false,"rental_uris":{"android":"levelo://app?vid=613129f8-2639-4f91-a258-3f64bf011efa","ios":"levelo://app?vid=613129f8-2639-4f91-a258-3f64bf011efa"},"vehicle_type_id":"4","last_reported":1727453443,"current_range_meters":20800,"station_id":"ce4bhn12rcd13ifvqgqg","pricing_plan_id":"cebpf4jnsgd1na2vs0mg"},{"bike_id":"b3800d7e-67da-4426-8ceb-d86e2fdb8e61","system_id":"levelo_inurba_marseille","lat":43.2935,"lon":5.37834,"is_reserved":false,"is_disabled":false,"rental_uris":{"android":"levelo://app?vid=b3800d7e-67da-4426-8ceb-d86e2fdb8e61","ios":"levelo://app?vid=b3800d7e-67da-4426-8ceb-d86e2fdb8e61"},"vehicle_type_id":"4","last_reported":1727453443,"current_range_meters":20800,"station_id":"ce4bgjh2rcd13ifvqbf0","pricing_plan_id":"cebpf4jnsgd1na2vs0mg"},{"bike_id":"613f396e-a66e-4657-a2b5-63b4640fc783","system_id":"levelo_inurba_marseille","lat":43.30422,"lon":5.39749,"is_reserved":false,"is_disabled":false,"rental_uris":{"android":"levelo://app?vid=613f396e-a66e-4657-a2b5-63b4640fc783","ios":"levelo://app?vid=613f396e-a66e-4657-a2b5-63b4640fc783"},"vehicle_type_id":"4","last_reported":1727453443,"current_range_meters":3200,"station_id":"ce4bh092rcd13ifvqd20","pricing_plan_id":"cebpf4jnsgd1na2vs0mg"},{"bike_id":"99829d8b-94eb-42ff-bec3-617843850ced","system_id":"levelo_inurba_marseille","lat":43.3112,"lon":5.3777,"is_reserved":false,"is_disabled":false,"rental_uris":{"android":"levelo://app?vid=99829d8b-94eb-42ff-bec3-617843850ced","ios":"levelo://app?vid=99829d8b-94eb-42ff-bec3-617843850ced"},"vehicle_type_id":"4","last_reported":1727453443,"current_range_meters":4000,"station_id":"ce4bgt92rcd13ifvqcg0","pricing_plan_id":"cebpf4jnsgd1na2vs0mg"},{"bike_id":"ad2169ff-206e-4704-90f0-988c04031d99","system_id":"levelo_inurba_marseille","lat":43.27941,"lon":5.41054,"is_reserved":false,"is_disabled":false,"rental_uris":{"android":"levelo://app?vid=ad2169ff-206e-4704-90f0-988c04031d99","ios":"levelo://app?vid=ad2169ff-206e-4704-90f0-988c04031d99"},"vehicle_type_id":"4","last_reported":1727453443,"current_range_meters":3200,"station_id":"ce4bhnp2rcd13ifvqh0g","pricing_plan_id":"cebpf4jnsgd1na2vs0mg"},{"bike_id":"768f632e-81c8-4a7e-b065-72cd6fe581cf","system_id":"levelo_inurba_marseille","lat":43.32021,"lon":5.41564,"is_reserved":false,"is_disabled":false,"rental_uris":{"android":"levelo://app?vid=768f632e-81c8-4a7e-b065-72cd6fe581cf","ios":"levelo://app?vid=768f632e-81c8-4a7e-b065-72cd6fe581cf"},"vehicle_type_id":"4","last_reported":1727453443,"current_range_meters":19200,"station_id":"ce4bhq92rcd13ifvqhkg","pricing_plan_id":"cebpf4jnsgd1na2vs0mg"},{"bike_id":"9b7aa9b0-9ff5-4191-936c-602db4c129ee","system_id":"levelo_inurba_marseille","lat":43.24648,"lon":5.39553,"is_reserved":false,"is_disabled":false,"rental_uris":{"android":"levelo://app?vid=9b7aa9b0-9ff5-4191-936c-602db4c129ee","ios":"levelo://app?vid=9b7aa9b0-9ff5-4191-936c-602db4c129ee"},"vehicle_type_id":"4","last_reported":1727453443,"current_range_meters":27200,"station_id":"ce4bhg12rcd13ifvqf60","pricing_plan_id":"cebpf4jnsgd1na2vs0mg"},{"bike_id":"1b6d530c-960a-4dab-8b39-ef63551bf8e3","system_id":"levelo_inurba_marseille","lat":43.31168,"lon":5.38725,"is_reserved":false,"is_disabled":false,"rental_uris":{"android":"levelo://app?vid=1b6d530c-960a-4dab-8b39-ef63551bf8e3","ios":"levelo://app?vid=1b6d530c-960a-4dab-8b39-ef63551bf8e3"},"vehicle_type_id":"4","last_reported":1727453443,"current_range_meters":16000,"station_id":"ce4bgv12rcd13ifvqcp0","pricing_plan_id":"cebpf4jnsgd1na2vs0mg"},{"bike_id":"849f9201-c2b0-4ad8-9a21-4a1f62920789","system_id":"levelo_inurba_marseille","lat":43.319762,"lon":5.381506,"is_reserved":false,"is_disabled":false,"rental_uris":{"android":"levelo://app?vid=849f9201-c2b0-4ad8-9a21-4a1f62920789","ios":"levelo://app?vid=849f9201-c2b0-4ad8-9a21-4a1f62920789"},"vehicle_type_id":"4","last_reported":1727453443,"current_range_meters":30800,"station_id":"ce4bhr12rcd13ifvqhpg","pricing_plan_id":"cebpf4jnsgd1na2vs0mg"},{"bike_id":"b3db2968-df51-455d-9950-4d080b497aa9","system_id":"levelo_inurba_marseille","lat":43.31761,"lon":5.39014,"is_reserved":false,"is_disabled":false,"rental_uris":{"android":"levelo://app?vid=b3db2968-df51-455d-9950-4d080b497aa9","ios":"levelo://app?vid=b3db2968-df51-455d-9950-4d080b497aa9"},"vehicle_type_id":"4","last_reported":1727453443,"current_range_meters":28400,"station_id":"ce4bhqp2rcd13ifvqhng","pricing_plan_id":"cebpf4jnsgd1na2vs0mg"},{"bike_id":"71768305-0bd3-43dd-9bed-03daa218add4","system_id":"levelo_inurba_marseille","lat":43.25941,"lon":5.40909,"is_reserved":false,"is_disabled":false,"rental_uris":{"android":"levelo://app?vid=71768305-0bd3-43dd-9bed-03daa218add4","ios":"levelo://app?vid=71768305-0bd3-43dd-9bed-03daa218add4"},"vehicle_type_id":"4","last_reported":1727453443,"current_range_meters":10000,"station_id":"ce4bhm92rcd13ifvqglg","pricing_plan_id":"cebpf4jnsgd1na2vs0mg"},{"bike_id":"e79a588d-cd22-40d5-ab1d-1bd2d4240c3e","system_id":"levelo_inurba_marseille","lat":43.28983,"lon":5.37838,"is_reserved":false,"is_disabled":false,"rental_uris":{"android":"levelo://app?vid=e79a588d-cd22-40d5-ab1d-1bd2d4240c3e","ios":"levelo://app?vid=e79a588d-cd22-40d5-ab1d-1bd2d4240c3e"},"vehicle_type_id":"4","last_reported":1727453443,"current_range_meters":32400,"station_id":"ce4bh9p2rcd13ifvqed0","pricing_plan_id":"cebpf4jnsgd1na2vs0mg"},{"bike_id":"9e24cd59-6b0f-4cff-9639-94ed50ea97d7","system_id":"levelo_inurba_marseille","lat":43.276978,"lon":5.366022,"is_reserved":false,"is_disabled":false,"rental_uris":{"android":"levelo://app?vid=9e24cd59-6b0f-4cff-9639-94ed50ea97d7","ios":"levelo://app?vid=9e24cd59-6b0f-4cff-9639-94ed50ea97d7"},"vehicle_type_id":"4","last_reported":1727453443,"current_range_meters":14400,"station_id":"ce4bha12rcd13ifvqef0","pricing_plan_id":"cebpf4jnsgd1na2vs0mg"},{"bike_id":"7b9f8371-1b86-4eec-ba02-e0a8bc3f0345","system_id":"levelo_inurba_marseille","lat":43.27111,"lon":5.40616,"is_reserved":false,"is_disabled":false,"rental_uris":{"android":"levelo://app?vid=7b9f8371-1b86-4eec-ba02-e0a8bc3f0345","ios":"levelo://app?vid=7b9f8371-1b86-4eec-ba02-e0a8bc3f0345"},"vehicle_type_id":"4","last_reported":1727453443,"current_range_meters":36000,"station_id":"","pricing_plan_id":"cebpf4jnsgd1na2vs0mg"},{"bike_id":"38c780c2-0082-4313-9ea5-528359ce5aff","system_id":"levelo_inurba_marseille","lat":43.26945,"lon":5.38632,"is_reserved":false,"is_disabled":false,"rental_uris":{"android":"levelo://app?vid=38c780c2-0082-4313-9ea5-528359ce5aff","ios":"levelo://app?vid=38c780c2-0082-4313-9ea5-528359ce5aff"},"vehicle_type_id":"4","last_reported":1727453443,"current_range_meters":37600,"station_id":"ce4bhh92rcd13ifvqfh0","pricing_plan_id":"cebpf4jnsgd1na2vs0mg"},{"bike_id":"7fb8c155-89a5-41f6-bca2-6260118864a0","system_id":"levelo_inurba_marseille","lat":43.24171,"lon":5.364,"is_reserved":false,"is_disabled":false,"rental_uris":{"android":"levelo://app?vid=7fb8c155-89a5-41f6-bca2-6260118864a0","ios":"levelo://app?vid=7fb8c155-89a5-41f6-bca2-6260118864a0"},"vehicle_type_id":"4","last_reported":1727453443,"current_range_meters":17200,"station_id":"cpo36qri1sfpv3e86is0","pricing_plan_id":"cebpf4jnsgd1na2vs0mg"},{"bike_id":"3d86f045-6816-466a-8e56-e64e366ae674","system_id":"levelo_inurba_marseille","lat":43.25728,"lon":5.41112,"is_reserved":false,"is_disabled":false,"rental_uris":{"android":"levelo://app?vid=3d86f045-6816-466a-8e56-e64e366ae674","ios":"levelo://app?vid=3d86f045-6816-466a-8e56-e64e366ae674"},"vehicle_type_id":"4","last_reported":1727453443,"current_range_meters":8800,"station_id":"ce4bhkp2rcd13ifvqgd0","pricing_plan_id":"cebpf4jnsgd1na2vs0mg"},{"bike_id":"a47b4a90-7fbc-41bc-8c24-b23190b61d22","system_id":"levelo_inurba_marseille","lat":43.29863,"lon":5.39731,"is_reserved":false,"is_disabled":false,"rental_uris":{"android":"levelo://app?vid=a47b4a90-7fbc-41bc-8c24-b23190b61d22","ios":"levelo://app?vid=a47b4a90-7fbc-41bc-8c24-b23190b61d22"},"vehicle_type_id":"4","last_reported":1727453443,"current_range_meters":38800,"station_id":"ce4bh0h2rcd13ifvqd50","pricing_plan_id":"cebpf4jnsgd1na2vs0mg"},{"bike_id":"5e6ae0fa-e82e-4924-ba08-83c9a2b4a699","system_id":"levelo_inurba_marseille","lat":43.25889,"lon":5.38579,"is_reserved":false,"is_disabled":false,"rental_uris":{"android":"levelo://app?vid=5e6ae0fa-e82e-4924-ba08-83c9a2b4a699","ios":"levelo://app?vid=5e6ae0fa-e82e-4924-ba08-83c9a2b4a699"},"vehicle_type_id":"4","last_reported":1727453443,"current_range_meters":31200,"station_id":"","pricing_plan_id":"cebpf4jnsgd1na2vs0mg"},{"bike_id":"9ad2ae84-c0ac-4ffd-b780-4aaf964a1d0c","system_id":"levelo_inurba_marseille","lat":43.29272,"lon":5.38443,"is_reserved":false,"is_disabled":false,"rental_uris":{"android":"levelo://app?vid=9ad2ae84-c0ac-4ffd-b780-4aaf964a1d0c","ios":"levelo://app?vid=9ad2ae84-c0ac-4ffd-b780-4aaf964a1d0c"},"vehicle_type_id":"4","last_reported":1727453443,"current_range_meters":5600,"station_id":"ce4bh692rcd13ifvqea0","pricing_plan_id":"cebpf4jnsgd1na2vs0mg"},{"bike_id":"8c14d19d-1241-4222-a9c0-07d474d9a633","system_id":"levelo_inurba_marseille","lat":43.27186,"lon":5.41004,"is_reserved":false,"is_disabled":false,"rental_uris":{"android":"levelo://app?vid=8c14d19d-1241-4222-a9c0-07d474d9a633","ios":"levelo://app?vid=8c14d19d-1241-4222-a9c0-07d474d9a633"},"vehicle_type_id":"4","last_reported":1727453443,"current_range_meters":24400,"station_id":"ce4bhl12rcd13ifvqgf0","pricing_plan_id":"cebpf4jnsgd1na2vs0mg"},{"bike_id":"14d05a4c-fb49-4625-9b80-2778ee501cb3","system_id":"levelo_inurba_marseille","lat":43.2979,"lon":5.38089,"is_reserved":false,"is_disabled":false,"rental_uris":{"android":"levelo://app?vid=14d05a4c-fb49-4625-9b80-2778ee501cb3","ios":"levelo://app?vid=14d05a4c-fb49-4625-9b80-2778ee501cb3"},"vehicle_type_id":"4","last_reported":1727453443,"current_range_meters":16400,"station_id":"ce4bgip2rcd13ifvqbb0","pricing_plan_id":"cebpf4jnsgd1na2vs0mg"},{"bike_id":"f62f77e8-3698-4d38-9a11-0855f6646451","system_id":"levelo_inurba_marseille","lat":43.31328,"lon":5.39694,"is_reserved":false,"is_disabled":false,"rental_uris":{"android":"levelo://app?vid=f62f77e8-3698-4d38-9a11-0855f6646451","ios":"levelo://app?vid=f62f77e8-3698-4d38-9a11-0855f6646451"},"vehicle_type_id":"4","last_reported":1727453443,"current_range_meters":16800,"station_id":"ce4bgvp2rcd13ifvqcu0","pricing_plan_id":"cebpf4jnsgd1na2vs0mg"},{"bike_id":"27eff856-06b2-4c05-bc94-3b830d8eae4a","system_id":"levelo_inurba_marseille","lat":43.23176,"lon":5.4,"is_reserved":false,"is_disabled":false,"rental_uris":{"android":"levelo://app?vid=27eff856-06b2-4c05-bc94-3b830d8eae4a","ios":"levelo://app?vid=27eff856-06b2-4c05-bc94-3b830d8eae4a"},"vehicle_type_id":"4","last_reported":1727453443,"current_range_meters":34000,"station_id":"ce4bhn12rcd13ifvqgqg","pricing_plan_id":"cebpf4jnsgd1na2vs0mg"},{"bike_id":"d24ad383-9e14-4047-b800-7de323bafb8d","system_id":"levelo_inurba_marseille","lat":43.27177,"lon":5.40988,"is_reserved":false,"is_disabled":false,"rental_uris":{"android":"levelo://app?vid=d24ad383-9e14-4047-b800-7de323bafb8d","ios":"levelo://app?vid=d24ad383-9e14-4047-b800-7de323bafb8d"},"vehicle_type_id":"4","last_reported":1727453443,"current_range_meters":3200,"station_id":"ce4bhl12rcd13ifvqgf0","pricing_plan_id":"cebpf4jnsgd1na2vs0mg"},{"bike_id":"3a6caf03-18d6-4fd6-bf42-26729de8b262","system_id":"levelo_inurba_marseille","lat":43.26196,"lon":5.37449,"is_reserved":false,"is_disabled":false,"rental_uris":{"android":"levelo://app?vid=3a6caf03-18d6-4fd6-bf42-26729de8b262","ios":"levelo://app?vid=3a6caf03-18d6-4fd6-bf42-26729de8b262"},"vehicle_type_id":"4","last_reported":1727453443,"current_range_meters":24800,"station_id":"ce4bhgp2rcd13ifvqfc0","pricing_plan_id":"cebpf4jnsgd1na2vs0mg"},{"bike_id":"6712691c-e382-47f4-8a3d-049250c1cc66","system_id":"levelo_inurba_marseille","lat":43.3015,"lon":5.37428,"is_reserved":false,"is_disabled":false,"rental_uris":{"android":"levelo://app?vid=6712691c-e382-47f4-8a3d-049250c1cc66","ios":"levelo://app?vid=6712691c-e382-47f4-8a3d-049250c1cc66"},"vehicle_type_id":"4","last_reported":1727453443,"current_range_meters":9600,"station_id":"ce4bgs92rcd13ifvqcc0","pricing_plan_id":"cebpf4jnsgd1na2vs0mg"},{"bike_id":"5c8aff85-2797-4cd9-bc1d-400fbbcb8c93","system_id":"levelo_inurba_marseille","lat":43.311707,"lon":5.387145,"is_reserved":false,"is_disabled":false,"rental_uris":{"android":"levelo://app?vid=5c8aff85-2797-4cd9-bc1d-400fbbcb8c93","ios":"levelo://app?vid=5c8aff85-2797-4cd9-bc1d-400fbbcb8c93"},"vehicle_type_id":"4","last_reported":1727453443,"current_range_meters":6800,"station_id":"ce4bgv12rcd13ifvqcp0","pricing_plan_id":"cebpf4jnsgd1na2vs0mg"},{"bike_id":"bd714e02-2482-44d9-a05e-a0c64bea53c2","system_id":"levelo_inurba_marseille","lat":43.27984,"lon":5.41661,"is_reserved":false,"is_disabled":false,"rental_uris":{"android":"levelo://app?vid=bd714e02-2482-44d9-a05e-a0c64bea53c2","ios":"levelo://app?vid=bd714e02-2482-44d9-a05e-a0c64bea53c2"},"vehicle_type_id":"4","last_reported":1727453443,"current_range_meters":32400,"station_id":"ce4bho12rcd13ifvqh1g","pricing_plan_id":"cebpf4jnsgd1na2vs0mg"},{"bike_id":"0f946a99-8c97-4c7d-97ad-a39ab63d6d21","system_id":"levelo_inurba_marseille","lat":43.28758,"lon":5.40051,"is_reserved":false,"is_disabled":false,"rental_uris":{"android":"levelo://app?vid=0f946a99-8c97-4c7d-97ad-a39ab63d6d21","ios":"levelo://app?vid=0f946a99-8c97-4c7d-97ad-a39ab63d6d21"},"vehicle_type_id":"4","last_reported":1727453443,"current_range_meters":21600,"station_id":"ce4bhpp2rcd13ifvqhfg","pricing_plan_id":"cebpf4jnsgd1na2vs0mg"},{"bike_id":"f402bee5-7020-48e2-b0ab-2678a6003210","system_id":"levelo_inurba_marseille","lat":43.3211,"lon":5.3678,"is_reserved":false,"is_disabled":false,"rental_uris":{"android":"levelo://app?vid=f402bee5-7020-48e2-b0ab-2678a6003210","ios":"levelo://app?vid=f402bee5-7020-48e2-b0ab-2678a6003210"},"vehicle_type_id":"4","last_reported":1727453443,"current_range_meters":34000,"station_id":"ce4bhrh2rcd13ifvqhug","pricing_plan_id":"cebpf4jnsgd1na2vs0mg"},{"bike_id":"68f1dc98-1396-4e9b-a25a-8cce5ee191eb","system_id":"levelo_inurba_marseille","lat":43.25581,"lon":5.38237,"is_reserved":false,"is_disabled":false,"rental_uris":{"android":"levelo://app?vid=68f1dc98-1396-4e9b-a25a-8cce5ee191eb","ios":"levelo://app?vid=68f1dc98-1396-4e9b-a25a-8cce5ee191eb"},"vehicle_type_id":"4","last_reported":1727453443,"current_range_meters":16400,"station_id":"ce4bhih2rcd13ifvqfs0","pricing_plan_id":"cebpf4jnsgd1na2vs0mg"},{"bike_id":"3bf5321e-b22a-4c40-ac9d-ae901839ea1f","system_id":"levelo_inurba_marseille","lat":43.27416,"lon":5.39417,"is_reserved":false,"is_disabled":false,"rental_uris":{"android":"levelo://app?vid=3bf5321e-b22a-4c40-ac9d-ae901839ea1f","ios":"levelo://app?vid=3bf5321e-b22a-4c40-ac9d-ae901839ea1f"},"vehicle_type_id":"4","last_reported":1727453443,"current_range_meters":26800,"station_id":"ce4bhdp2rcd13ifvqf20","pricing_plan_id":"cebpf4jnsgd1na2vs0mg"},{"bike_id":"ebc3c12a-e18b-4f9d-8657-8e561724a8e4","system_id":"levelo_inurba_marseille","lat":43.25576,"lon":5.38232,"is_reserved":false,"is_disabled":false,"rental_uris":{"android":"levelo://app?vid=ebc3c12a-e18b-4f9d-8657-8e561724a8e4","ios":"levelo://app?vid=ebc3c12a-e18b-4f9d-8657-8e561724a8e4"},"vehicle_type_id":"4","last_reported":1727453443,"current_range_meters":6000,"station_id":"ce4bhih2rcd13ifvqfs0","pricing_plan_id":"cebpf4jnsgd1na2vs0mg"},{"bike_id":"0c1fc052-42ef-470d-9a0f-e93d12169c5d","system_id":"levelo_inurba_marseille","lat":43.25581,"lon":5.38243,"is_reserved":false,"is_disabled":false,"rental_uris":{"android":"levelo://app?vid=0c1fc052-42ef-470d-9a0f-e93d12169c5d","ios":"levelo://app?vid=0c1fc052-42ef-470d-9a0f-e93d12169c5d"},"vehicle_type_id":"4","last_reported":1727453443,"current_range_meters":24000,"station_id":"ce4bhih2rcd13ifvqfs0","pricing_plan_id":"cebpf4jnsgd1na2vs0mg"},{"bike_id":"6f1e9527-ebd5-4ebe-90c1-f299d2bf37be","system_id":"levelo_inurba_marseille","lat":43.23067,"lon":5.35488,"is_reserved":false,"is_disabled":false,"rental_uris":{"android":"levelo://app?vid=6f1e9527-ebd5-4ebe-90c1-f299d2bf37be","ios":"levelo://app?vid=6f1e9527-ebd5-4ebe-90c1-f299d2bf37be"},"vehicle_type_id":"4","last_reported":1727453443,"current_range_meters":30800,"station_id":"cpo3342slgdg3j2ifvpg","pricing_plan_id":"cebpf4jnsgd1na2vs0mg"},{"bike_id":"6b5c9dd8-0501-461c-a3b6-922a95d08479","system_id":"levelo_inurba_marseille","lat":43.22932,"lon":5.35383,"is_reserved":false,"is_disabled":false,"rental_uris":{"android":"levelo://app?vid=6b5c9dd8-0501-461c-a3b6-922a95d08479","ios":"levelo://app?vid=6b5c9dd8-0501-461c-a3b6-922a95d08479"},"vehicle_type_id":"4","last_reported":1727453443,"current_range_meters":12800,"station_id":"cpo3532slgdg3j2ikp40","pricing_plan_id":"cebpf4jnsgd1na2vs0mg"},{"bike_id":"45f77aad-152c-452d-8d7f-166c06d43b4b","system_id":"levelo_inurba_marseille","lat":43.3229,"lon":5.3828,"is_reserved":false,"is_disabled":false,"rental_uris":{"android":"levelo://app?vid=45f77aad-152c-452d-8d7f-166c06d43b4b","ios":"levelo://app?vid=45f77aad-152c-452d-8d7f-166c06d43b4b"},"vehicle_type_id":"4","last_reported":1727453443,"current_range_meters":6000,"station_id":"ce4bhr12rcd13ifvqhqg","pricing_plan_id":"cebpf4jnsgd1na2vs0mg"},{"bike_id":"fdea911c-4247-474a-9853-0ddd9f45ca4d","system_id":"levelo_inurba_marseille","lat":43.31122,"lon":5.38334,"is_reserved":false,"is_disabled":false,"rental_uris":{"android":"levelo://app?vid=fdea911c-4247-474a-9853-0ddd9f45ca4d","ios":"levelo://app?vid=fdea911c-4247-474a-9853-0ddd9f45ca4d"},"vehicle_type_id":"4","last_reported":1727453443,"current_range_meters":32000,"station_id":"","pricing_plan_id":"cebpf4jnsgd1na2vs0mg"},{"bike_id":"117a5e26-5172-46ed-8736-3bb580e512b6","system_id":"levelo_inurba_marseille","lat":43.24648,"lon":5.38888,"is_reserved":false,"is_disabled":false,"rental_uris":{"android":"levelo://app?vid=117a5e26-5172-46ed-8736-3bb580e512b6","ios":"levelo://app?vid=117a5e26-5172-46ed-8736-3bb580e512b6"},"vehicle_type_id":"4","last_reported":1727453443,"current_range_meters":21600,"station_id":"ce4bhlp2rcd13ifvqgjg","pricing_plan_id":"cebpf4jnsgd1na2vs0mg"},{"bike_id":"e2267798-290e-411b-a5f7-360537e49d96","system_id":"levelo_inurba_marseille","lat":43.24177,"lon":5.39731,"is_reserved":false,"is_disabled":false,"rental_uris":{"android":"levelo://app?vid=e2267798-290e-411b-a5f7-360537e49d96","ios":"levelo://app?vid=e2267798-290e-411b-a5f7-360537e49d96"},"vehicle_type_id":"4","last_reported":1727453443,"current_range_meters":31200,"station_id":"ce4bhn12rcd13ifvqgpg","pricing_plan_id":"cebpf4jnsgd1na2vs0mg"},{"bike_id":"42f39155-0777-4589-ab1c-a89573a2fc6b","system_id":"levelo_inurba_marseille","lat":43.28667,"lon":5.38684,"is_reserved":false,"is_disabled":false,"rental_uris":{"android":"levelo://app?vid=42f39155-0777-4589-ab1c-a89573a2fc6b","ios":"levelo://app?vid=42f39155-0777-4589-ab1c-a89573a2fc6b"},"vehicle_type_id":"4","last_reported":1727453443,"current_range_meters":3200,"station_id":"ce4bh492rcd13ifvqdug","pricing_plan_id":"cebpf4jnsgd1na2vs0mg"},{"bike_id":"1c2609fd-eb4c-49c3-b670-98a05e5f4bf9","system_id":"levelo_inurba_marseille","lat":43.29897,"lon":5.43672,"is_reserved":false,"is_disabled":false,"rental_uris":{"android":"levelo://app?vid=1c2609fd-eb4c-49c3-b670-98a05e5f4bf9","ios":"levelo://app?vid=1c2609fd-eb4c-49c3-b670-98a05e5f4bf9"},"vehicle_type_id":"4","last_reported":1727453443,"current_range_meters":16000,"station_id":"ce4bhpp2rcd13ifvqhfg","pricing_plan_id":"cebpf4jnsgd1na2vs0mg"},{"bike_id":"67f22ca7-62d5-46f9-ad5b-79390bb51569","system_id":"levelo_inurba_marseille","lat":43.27941,"lon":5.41049,"is_reserved":false,"is_disabled":false,"rental_uris":{"android":"levelo://app?vid=67f22ca7-62d5-46f9-ad5b-79390bb51569","ios":"levelo://app?vid=67f22ca7-62d5-46f9-ad5b-79390bb51569"},"vehicle_type_id":"4","last_reported":1727453443,"current_range_meters":22400,"station_id":"ce4bhnp2rcd13ifvqh0g","pricing_plan_id":"cebpf4jnsgd1na2vs0mg"},{"bike_id":"252b69db-0b59-46de-97e2-245e73f6ba3e","system_id":"levelo_inurba_marseille","lat":43.2407,"lon":5.37764,"is_reserved":false,"is_disabled":false,"rental_uris":{"android":"levelo://app?vid=252b69db-0b59-46de-97e2-245e73f6ba3e","ios":"levelo://app?vid=252b69db-0b59-46de-97e2-245e73f6ba3e"},"vehicle_type_id":"4","last_reported":1727453443,"current_range_meters":17200,"station_id":"ce4bhnp2rcd13ifvqgvg","pricing_plan_id":"cebpf4jnsgd1na2vs0mg"},{"bike_id":"3a9cf7aa-62ec-4667-aa6e-be90f7f4506b","system_id":"levelo_inurba_marseille","lat":43.28937,"lon":5.36633,"is_reserved":false,"is_disabled":false,"rental_uris":{"android":"levelo://app?vid=3a9cf7aa-62ec-4667-aa6e-be90f7f4506b","ios":"levelo://app?vid=3a9cf7aa-62ec-4667-aa6e-be90f7f4506b"},"vehicle_type_id":"4","last_reported":1727453443,"current_range_meters":8000,"station_id":"ce4bhap2rcd13ifvqek0","pricing_plan_id":"cebpf4jnsgd1na2vs0mg"},{"bike_id":"58112f94-48d5-432b-b7c9-55a1a37e1924","system_id":"levelo_inurba_marseille","lat":43.33021,"lon":5.39041,"is_reserved":false,"is_disabled":false,"rental_uris":{"android":"levelo://app?vid=58112f94-48d5-432b-b7c9-55a1a37e1924","ios":"levelo://app?vid=58112f94-48d5-432b-b7c9-55a1a37e1924"},"vehicle_type_id":"4","last_reported":1727453443,"current_range_meters":6400,"station_id":"ce4bhr92rcd13ifvqhrg","pricing_plan_id":"cebpf4jnsgd1na2vs0mg"},{"bike_id":"b33fa669-ba00-4113-811d-ec752f7fabe0","system_id":"levelo_inurba_marseille","lat":43.31116,"lon":5.37776,"is_reserved":false,"is_disabled":false,"rental_uris":{"android":"levelo://app?vid=b33fa669-ba00-4113-811d-ec752f7fabe0","ios":"levelo://app?vid=b33fa669-ba00-4113-811d-ec752f7fabe0"},"vehicle_type_id":"4","last_reported":1727453443,"current_range_meters":38800,"station_id":"ce4bgt92rcd13ifvqcg0","pricing_plan_id":"cebpf4jnsgd1na2vs0mg"},{"bike_id":"d03db949-e8e1-444b-8447-6bbd9bab414e","system_id":"levelo_inurba_marseille","lat":43.30105,"lon":5.39137,"is_reserved":false,"is_disabled":false,"rental_uris":{"android":"levelo://app?vid=d03db949-e8e1-444b-8447-6bbd9bab414e","ios":"levelo://app?vid=d03db949-e8e1-444b-8447-6bbd9bab414e"},"vehicle_type_id":"4","last_reported":1727453443,"current_range_meters":29600,"station_id":"ce4bh392rcd13ifvqdl0","pricing_plan_id":"cebpf4jnsgd1na2vs0mg"},{"bike_id":"271ab3a3-d523-4154-a9a5-a52c8ab61488","system_id":"levelo_inurba_marseille","lat":43.23192,"lon":5.35556,"is_reserved":false,"is_disabled":false,"rental_uris":{"android":"levelo://app?vid=271ab3a3-d523-4154-a9a5-a52c8ab61488","ios":"levelo://app?vid=271ab3a3-d523-4154-a9a5-a52c8ab61488"},"vehicle_type_id":"4","last_reported":1727453443,"current_range_meters":14800,"station_id":"ce4bhu92rcd13ifvqi70","pricing_plan_id":"cebpf4jnsgd1na2vs0mg"},{"bike_id":"221fdcb4-34b0-4867-8292-e78b2761f063","system_id":"levelo_inurba_marseille","lat":43.28674,"lon":5.38661,"is_reserved":false,"is_disabled":false,"rental_uris":{"android":"levelo://app?vid=221fdcb4-34b0-4867-8292-e78b2761f063","ios":"levelo://app?vid=221fdcb4-34b0-4867-8292-e78b2761f063"},"vehicle_type_id":"4","last_reported":1727453443,"current_range_meters":18800,"station_id":"ce4bh492rcd13ifvqdug","pricing_plan_id":"cebpf4jnsgd1na2vs0mg"},{"bike_id":"484328ad-5ad2-4fa5-a8b5-ace2a2255631","system_id":"levelo_inurba_marseille","lat":43.284065,"lon":5.375042,"is_reserved":false,"is_disabled":false,"rental_uris":{"android":"levelo://app?vid=484328ad-5ad2-4fa5-a8b5-ace2a2255631","ios":"levelo://app?vid=484328ad-5ad2-4fa5-a8b5-ace2a2255631"},"vehicle_type_id":"4","last_reported":1727453443,"current_range_meters":8800,"station_id":"ce4bh412rcd13ifvqds0","pricing_plan_id":"cebpf4jnsgd1na2vs0mg"},{"bike_id":"dd12c3b9-8469-4eb1-96eb-8cbabd53f85e","system_id":"levelo_inurba_marseille","lat":43.2318,"lon":5.39992,"is_reserved":false,"is_disabled":false,"rental_uris":{"android":"levelo://app?vid=dd12c3b9-8469-4eb1-96eb-8cbabd53f85e","ios":"levelo://app?vid=dd12c3b9-8469-4eb1-96eb-8cbabd53f85e"},"vehicle_type_id":"4","last_reported":1727453443,"current_range_meters":3600,"station_id":"ce4bhn12rcd13ifvqgqg","pricing_plan_id":"cebpf4jnsgd1na2vs0mg"},{"bike_id":"664a13eb-c165-49c1-8fd3-bdfb83e16301","system_id":"levelo_inurba_marseille","lat":43.29259,"lon":5.409073,"is_reserved":false,"is_disabled":false,"rental_uris":{"android":"levelo://app?vid=664a13eb-c165-49c1-8fd3-bdfb83e16301","ios":"levelo://app?vid=664a13eb-c165-49c1-8fd3-bdfb83e16301"},"vehicle_type_id":"4","last_reported":1727453443,"current_range_meters":7200,"station_id":"ce4bh192rcd13ifvqdc0","pricing_plan_id":"cebpf4jnsgd1na2vs0mg"},{"bike_id":"f6bab52c-6781-4cbd-a1b2-b27ed2a367ae","system_id":"levelo_inurba_marseille","lat":43.26941,"lon":5.40255,"is_reserved":false,"is_disabled":false,"rental_uris":{"android":"levelo://app?vid=f6bab52c-6781-4cbd-a1b2-b27ed2a367ae","ios":"levelo://app?vid=f6bab52c-6781-4cbd-a1b2-b27ed2a367ae"},"vehicle_type_id":"4","last_reported":1727453443,"current_range_meters":24400,"station_id":"cjm6bp8fraef2m0cb0m0","pricing_plan_id":"cebpf4jnsgd1na2vs0mg"},{"bike_id":"1f691079-42d4-4bc2-98f8-3dc5119b4a33","system_id":"levelo_inurba_marseille","lat":43.27613,"lon":5.36108,"is_reserved":false,"is_disabled":false,"rental_uris":{"android":"levelo://app?vid=1f691079-42d4-4bc2-98f8-3dc5119b4a33","ios":"levelo://app?vid=1f691079-42d4-4bc2-98f8-3dc5119b4a33"},"vehicle_type_id":"4","last_reported":1727453443,"current_range_meters":38800,"station_id":"ce4bgj92rcd13ifvqbe0","pricing_plan_id":"cebpf4jnsgd1na2vs0mg"},{"bike_id":"7e34c13f-9cd3-48f3-a5b9-026c9356a32d","system_id":"levelo_inurba_marseille","lat":43.28648,"lon":5.38341,"is_reserved":false,"is_disabled":false,"rental_uris":{"android":"levelo://app?vid=7e34c13f-9cd3-48f3-a5b9-026c9356a32d","ios":"levelo://app?vid=7e34c13f-9cd3-48f3-a5b9-026c9356a32d"},"vehicle_type_id":"4","last_reported":1727453443,"current_range_meters":18800,"station_id":"","pricing_plan_id":"cebpf4jnsgd1na2vs0mg"},{"bike_id":"fd34649a-e12d-4cf5-b266-37245543b6f3","system_id":"levelo_inurba_marseille","lat":43.22927,"lon":5.35374,"is_reserved":false,"is_disabled":false,"rental_uris":{"android":"levelo://app?vid=fd34649a-e12d-4cf5-b266-37245543b6f3","ios":"levelo://app?vid=fd34649a-e12d-4cf5-b266-37245543b6f3"},"vehicle_type_id":"4","last_reported":1727453443,"current_range_meters":39200,"station_id":"cpo3532slgdg3j2ikp40","pricing_plan_id":"cebpf4jnsgd1na2vs0mg"},{"bike_id":"9da372bf-a7f9-4e90-bf37-2778f2252498","system_id":"levelo_inurba_marseille","lat":43.301239,"lon":5.398559,"is_reserved":false,"is_disabled":false,"rental_uris":{"android":"levelo://app?vid=9da372bf-a7f9-4e90-bf37-2778f2252498","ios":"levelo://app?vid=9da372bf-a7f9-4e90-bf37-2778f2252498"},