{"last_updated":1706051217,"ttl":30,"version":"2.2","data":{"bikes":[{"bike_id":"c2ed9c0d-b07c-45ec-bdf2-16d882e57614","system_id":"levelo_inurba_marseille","lat":43.313391,"lon":5.36706,"is_reserved":false,"is_disabled":false,"rental_uris":{"android":"levelo://app?vid=c2ed9c0d-b07c-45ec-bdf2-16d882e57614","ios":"levelo://app?vid=c2ed9c0d-b07c-45ec-bdf2-16d882e57614"},"vehicle_type_id":"4","last_reported":1706051217,"current_range_meters":28000,"station_id":"ce4bgr92rcd13ifvqc6g","pricing_plan_id":"free"},{"bike_id":"38f91f47-3939-4a72-8f7a-4c5adc5fa5a9","system_id":"levelo_inurba_marseille","lat":43.31241,"lon":5.368588,"is_reserved":false,"is_disabled":false,"rental_uris":{"android":"levelo://app?vid=38f91f47-3939-4a72-8f7a-4c5adc5fa5a9","ios":"levelo://app?vid=38f91f47-3939-4a72-8f7a-4c5adc5fa5a9"},"vehicle_type_id":"4","last_reported":1706051217,"current_range_meters":3200,"station_id":"ce4bgl92rcd13ifvqbq0","pricing_plan_id":"free"},{"bike_id":"1544c2d8-3c0b-4190-95f9-0305ffe63a97","system_id":"levelo_inurba_marseille","lat":43.312239,"lon":5.368562,"is_reserved":false,"is_disabled":false,"rental_uris":{"android":"levelo://app?vid=1544c2d8-3c0b-4190-95f9-0305ffe63a97","ios":"levelo://app?vid=1544c2d8-3c0b-4190-95f9-0305ffe63a97"},"vehicle_type_id":"4","last_reported":1706051217,"current_range_meters":24000,"station_id":"ce4bgl92rcd13ifvqbq0","pricing_plan_id":"free"},{"bike_id":"4cd97704-7337-45a9-b998-0cb069fff06c","system_id":"levelo_inurba_marseille","lat":43.30906,"lon":5.36842,"is_reserved":false,"is_disabled":false,"rental_uris":{"android":"levelo://app?vid=4cd97704-7337-45a9-b998-0cb069fff06c","ios":"levelo://app?vid=4cd97704-7337-45a9-b998-0cb069fff06c"},"vehicle_type_id":"4","last_reported":1706051217,"current_range_meters":0,"station_id":"ce4bgn92rcd13ifvqbvg","pricing_plan_id":"free"},{"bike_id":"2af1c4e9-4c99-4338-9671-caf52ebded67","system_id":"levelo_inurba_marseille","lat":43.30905,"lon":5.36848,"is_reserved":false,"is_disabled":false,"rental_uris":{"android":"levelo://app?vid=2af1c4e9-4c99-4338-9671-caf52ebded67","ios":"levelo://app?vid=2af1c4e9-4c99-4338-9671-caf52ebded67"},"vehicle_type_id":"4","last_reported":1706051217,"current_range_meters":0,"station_id":"ce4bgn92rcd13ifvqbvg","pricing_plan_id":"free"},{"bike_id":"612f99a6-a13b-4113-bb75-d90bb602d869","system_id":"levelo_inurba_marseille","lat":43.314811,"lon":5.373103,"is_reserved":false,"is_disabled":false,"rental_uris":{"android":"levelo://app?vid=612f99a6-a13b-4113-bb75-d90bb602d869","ios":"levelo://app?vid=612f99a6-a13b-4113-bb75-d90bb602d869"},"vehicle_type_id":"4","last_reported":1706051217,"current_range_meters":30000,"station_id":"ce4bgt12rcd13ifvqcd0","pricing_plan_id":"free"},{"bike_id":"64562e0a-5f49-43a5-a5cc-3fd5254b9389","system_id":"levelo_inurba_marseille","lat":43.314811,"lon":5.373104,"is_reserved":false,"is_disabled":false,"rental_uris":{"android":"levelo://app?vid=64562e0a-5f49-43a5-a5cc-3fd5254b9389","ios":"levelo://app?vid=64562e0a-5f49-43a5-a5cc-3fd5254b9389"},"vehicle_type_id":"4","last_reported":1706051217,"current_range_meters":22000,"station_id":"ce4bgt12rcd13ifvqcd0","pricing_plan_id":"free"},{"bike_id":"7b4d5413-e7d4-4b48-989b-a054ecccca13","system_id":"levelo_inurba_marseille","lat":43.314811,"lon":5.373103,"is_reserved":false,"is_disabled":false,"rental_uris":{"android":"levelo://app?vid=7b4d5413-e7d4-4b48-989b-a054ecccca13","ios":"levelo://app?vid=7b4d5413-e7d4-4b48-989b-a054ecccca13"},"vehicle_type_id":"4","last_reported":1706051217,"current_range_meters":22400,"station_id":"ce4bgt12rcd13ifvqcd0","pricing_plan_id":"free"},{"bike_id":"a24dce91-04bf-44d7-b70d-d13bddd04e14","system_id":"levelo_inurba_marseille","lat":43.314811,"lon":5.373103,"is_reserved":false,"is_disabled":false,"rental_uris":{"android":"levelo://app?vid=a24dce91-04bf-44d7-b70d-d13bddd04e14","ios":"levelo://app?vid=a24dce91-04bf-44d7-b70d-d13bddd04e14"},"vehicle_type_id":"4","last_reported":1706051217,"current_range_meters":14800,"station_id":"ce4bgt12rcd13ifvqcd0","pricing_plan_id":"free"},{"bike_id":"1c19c9d2-040e-4c15-892e-63ba3d6c6dfc","system_id":"levelo_inurba_marseille","lat":43.314811,"lon":5.373104,"is_reserved":false,"is_disabled":false,"rental_uris":{"android":"levelo://app?vid=1c19c9d2-040e-4c15-892e-63ba3d6c6dfc","ios":"levelo://app?vid=1c19c9d2-040e-4c15-892e-63ba3d6c6dfc"},"vehicle_type_id":"4","last_reported":1706051217,"current_range_meters":18800,"station_id":"ce4bgt12rcd13ifvqcd0","pricing_plan_id":"free"},{"bike_id":"fa5224e1-0230-4ef1-9d1a-40547341a035","system_id":"levelo_inurba_marseille","lat":43.314811,"lon":5.373103,"is_reserved":false,"is_disabled":false,"rental_uris":{"android":"levelo://app?vid=fa5224e1-0230-4ef1-9d1a-40547341a035","ios":"levelo://app?vid=fa5224e1-0230-4ef1-9d1a-40547341a035"},"vehicle_type_id":"4","last_reported":1706051217,"current_range_meters":16000,"station_id":"ce4bgt12rcd13ifvqcd0","pricing_plan_id":"free"},{"bike_id":"7432051f-519f-42e0-85e6-7b1b3d5afd1d","system_id":"levelo_inurba_marseille","lat":43.309039,"lon":5.371797,"is_reserved":false,"is_disabled":false,"rental_uris":{"android":"levelo://app?vid=7432051f-519f-42e0-85e6-7b1b3d5afd1d","ios":"levelo://app?vid=7432051f-519f-42e0-85e6-7b1b3d5afd1d"},"vehicle_type_id":"4","last_reported":1706051217,"current_range_meters":14400,"station_id":"ce4bguh2rcd13ifvqckg","pricing_plan_id":"free"},{"bike_id":"dcce3576-8529-408e-995f-8bdf33d84392","system_id":"levelo_inurba_marseille","lat":43.309039,"lon":5.371797,"is_reserved":false,"is_disabled":false,"rental_uris":{"android":"levelo://app?vid=dcce3576-8529-408e-995f-8bdf33d84392","ios":"levelo://app?vid=dcce3576-8529-408e-995f-8bdf33d84392"},"vehicle_type_id":"4","last_reported":1706051217,"current_range_meters":18000,"station_id":"ce4bguh2rcd13ifvqckg","pricing_plan_id":"free"},{"bike_id":"b3f31939-f1e0-438c-934f-33a51364fb9c","system_id":"levelo_inurba_marseille","lat":43.309039,"lon":5.371797,"is_reserved":false,"is_disabled":false,"rental_uris":{"android":"levelo://app?vid=b3f31939-f1e0-438c-934f-33a51364fb9c","ios":"levelo://app?vid=b3f31939-f1e0-438c-934f-33a51364fb9c"},"vehicle_type_id":"4","last_reported":1706051217,"current_range_meters":18400,"station_id":"ce4bguh2rcd13ifvqckg","pricing_plan_id":"free"},{"bike_id":"98f9c9b8-2f63-4f19-a479-508be9d9e3da","system_id":"levelo_inurba_marseille","lat":43.309039,"lon":5.371797,"is_reserved":false,"is_disabled":false,"rental_uris":{"android":"levelo://app?vid=98f9c9b8-2f63-4f19-a479-508be9d9e3da","ios":"levelo://app?vid=98f9c9b8-2f63-4f19-a479-508be9d9e3da"},"vehicle_type_id":"4","last_reported":1706051217,"current_range_meters":13600,"station_id":"ce4bguh2rcd13ifvqckg","pricing_plan_id":"free"},{"bike_id":"9862ef35-81b2-4f4b-aaaa-bcb85e107bbf","system_id":"levelo_inurba_marseille","lat":43.309039,"lon":5.371797,"is_reserved":false,"is_disabled":false,"rental_uris":{"android":"levelo://app?vid=9862ef35-81b2-4f4b-aaaa-bcb85e107bbf","ios":"levelo://app?vid=9862ef35-81b2-4f4b-aaaa-bcb85e107bbf"},"vehicle_type_id":"4","last_reported":1706051217,"current_range_meters":15200,"station_id":"ce4bguh2rcd13ifvqckg","pricing_plan_id":"free"},{"bike_id":"5a7e5407-1aea-4cab-82e3-d8be5338198f","system_id":"levelo_inurba_marseille","lat":43.306168,"lon":5.366502,"is_reserved":false,"is_disabled":false,"rental_uris":{"android":"levelo://app?vid=5a7e5407-1aea-4cab-82e3-d8be5338198f","ios":"levelo://app?vid=5a7e5407-1aea-4cab-82e3-d8be5338198f"},"vehicle_type_id":"4","last_reported":1706051217,"current_range_meters":0,"station_id":"","pricing_plan_id":"free"},{"bike_id":"25ba0fa4-cb25-4d0c-8c59-a19548b5e36d","system_id":"levelo_inurba_marseille","lat":43.30548,"lon":5.36559,"is_reserved":false,"is_disabled":false,"rental_uris":{"android":"levelo://app?vid=25ba0fa4-cb25-4d0c-8c59-a19548b5e36d","ios":"levelo://app?vid=25ba0fa4-cb25-4d0c-8c59-a19548b5e36d"},"vehicle_type_id":"4","last_reported":1706051217,"current_range_meters":24000,"station_id":"ce4bgs12rcd13ifvqcag","pricing_plan_id":"free"},{"bike_id":"a2f0e19d-db99-49b6-8f3a-3995358a274b","system_id":"levelo_inurba_marseille","lat":43.305989,"lon":5.37225,"is_reserved":false,"is_disabled":false,"rental_uris":{"android":"levelo://app?vid=a2f0e19d-db99-49b6-8f3a-3995358a274b","ios":"levelo://app?vid=a2f0e19d-db99-49b6-8f3a-3995358a274b"},"vehicle_type_id":"4","last_reported":1706051217,"current_range_meters":24800,"station_id":"ce4bgqh2rcd13ifvqc4g","pricing_plan_id":"free"},{"bike_id":"466169db-c9c1-48c3-b821-5892cf72aacf","system_id":"levelo_inurba_marseille","lat":43.305989,"lon":5.37225,"is_reserved":false,"is_disabled":false,"rental_uris":{"android":"levelo://app?vid=466169db-c9c1-48c3-b821-5892cf72aacf","ios":"levelo://app?vid=466169db-c9c1-48c3-b821-5892cf72aacf"},"vehicle_type_id":"4","last_reported":1706051217,"current_range_meters":21200,"station_id":"ce4bgqh2rcd13ifvqc4g","pricing_plan_id":"free"},{"bike_id":"b067c5f0-0de0-4133-a43c-f97c069e0990","system_id":"levelo_inurba_marseille","lat":43.305989,"lon":5.37225,"is_reserved":false,"is_disabled":false,"rental_uris":{"android":"levelo://app?vid=b067c5f0-0de0-4133-a43c-f97c069e0990","ios":"levelo://app?vid=b067c5f0-0de0-4133-a43c-f97c069e0990"},"vehicle_type_id":"4","last_reported":1706051217,"current_range_meters":19200,"station_id":"ce4bgqh2rcd13ifvqc4g","pricing_plan_id":"free"},{"bike_id":"04df9b81-480a-429b-98d9-7b6e39d920ff","system_id":"levelo_inurba_marseille","lat":43.311125,"lon":5.377624,"is_reserved":false,"is_disabled":false,"rental_uris":{"android":"levelo://app?vid=04df9b81-480a-429b-98d9-7b6e39d920ff","ios":"levelo://app?vid=04df9b81-480a-429b-98d9-7b6e39d920ff"},"vehicle_type_id":"4","last_reported":1706051217,"current_range_meters":4800,"station_id":"ce4bgt92rcd13ifvqcg0","pricing_plan_id":"free"},{"bike_id":"0e68058c-f03d-4065-8a3c-9f60c339bc9a","system_id":"levelo_inurba_marseille","lat":43.305989,"lon":5.37225,"is_reserved":false,"is_disabled":false,"rental_uris":{"android":"levelo://app?vid=0e68058c-f03d-4065-8a3c-9f60c339bc9a","ios":"levelo://app?vid=0e68058c-f03d-4065-8a3c-9f60c339bc9a"},"vehicle_type_id":"4","last_reported":1706051217,"current_range_meters":17200,"station_id":"ce4bgqh2rcd13ifvqc4g","pricing_plan_id":"free"},{"bike_id":"cf37a971-2ffd-4fdb-ab26-c43b1a4acc13","system_id":"levelo_inurba_marseille","lat":43.311131,"lon":5.377651,"is_reserved":false,"is_disabled":false,"rental_uris":{"android":"levelo://app?vid=cf37a971-2ffd-4fdb-ab26-c43b1a4acc13","ios":"levelo://app?vid=cf37a971-2ffd-4fdb-ab26-c43b1a4acc13"},"vehicle_type_id":"4","last_reported":1706051217,"current_range_meters":18400,"station_id":"ce4bgt92rcd13ifvqcg0","pricing_plan_id":"free"},{"bike_id":"c508de5d-6751-4c08-9006-72549e20f78c","system_id":"levelo_inurba_marseille","lat":43.311131,"lon":5.377651,"is_reserved":false,"is_disabled":false,"rental_uris":{"android":"levelo://app?vid=c508de5d-6751-4c08-9006-72549e20f78c","ios":"levelo://app?vid=c508de5d-6751-4c08-9006-72549e20f78c"},"vehicle_type_id":"4","last_reported":1706051217,"current_range_meters":21600,"station_id":"ce4bgt92rcd13ifvqcg0","pricing_plan_id":"free"},{"bike_id":"bf950a90-09ef-4abf-9df7-b53d07ee22dd","system_id":"levelo_inurba_marseille","lat":43.311125,"lon":5.377624,"is_reserved":false,"is_disabled":false,"rental_uris":{"android":"levelo://app?vid=bf950a90-09ef-4abf-9df7-b53d07ee22dd","ios":"levelo://app?vid=bf950a90-09ef-4abf-9df7-b53d07ee22dd"},"vehicle_type_id":"4","last_reported":1706051217,"current_range_meters":28400,"station_id":"ce4bgt92rcd13ifvqcg0","pricing_plan_id":"free"},{"bike_id":"fc0878a1-ab9d-44e6-9dad-1c71d18e5fc0","system_id":"levelo_inurba_marseille","lat":43.311125,"lon":5.377624,"is_reserved":false,"is_disabled":false,"rental_uris":{"android":"levelo://app?vid=fc0878a1-ab9d-44e6-9dad-1c71d18e5fc0","ios":"levelo://app?vid=fc0878a1-ab9d-44e6-9dad-1c71d18e5fc0"},"vehicle_type_id":"4","last_reported":1706051217,"current_range_meters":6000,"station_id":"ce4bgt92rcd13ifvqcg0","pricing_plan_id":"free"},{"bike_id":"317ae99e-ca40-438d-8b95-f8190ff977a3","system_id":"levelo_inurba_marseille","lat":43.311125,"lon":5.377624,"is_reserved":false,"is_disabled":false,"rental_uris":{"android":"levelo://app?vid=317ae99e-ca40-438d-8b95-f8190ff977a3","ios":"levelo://app?vid=317ae99e-ca40-438d-8b95-f8190ff977a3"},"vehicle_type_id":"4","last_reported":1706051217,"current_range_meters":17200,"station_id":"ce4bgt92rcd13ifvqcg0","pricing_plan_id":"free"},{"bike_id":"67f1a4a4-753c-4a01-9cdf-87d78e924b91","system_id":"levelo_inurba_marseille","lat":43.3113,"lon":5.37767,"is_reserved":false,"is_disabled":false,"rental_uris":{"android":"levelo://app?vid=67f1a4a4-753c-4a01-9cdf-87d78e924b91","ios":"levelo://app?vid=67f1a4a4-753c-4a01-9cdf-87d78e924b91"},"vehicle_type_id":"4","last_reported":1706051217,"current_range_meters":16400,"station_id":"ce4bgt92rcd13ifvqcg0","pricing_plan_id":"free"},{"bike_id":"d7854f2c-e25b-4567-9ca1-100b79dde627","system_id":"levelo_inurba_marseille","lat":43.31711,"lon":5.37679,"is_reserved":false,"is_disabled":false,"rental_uris":{"android":"levelo://app?vid=d7854f2c-e25b-4567-9ca1-100b79dde627","ios":"levelo://app?vid=d7854f2c-e25b-4567-9ca1-100b79dde627"},"vehicle_type_id":"4","last_reported":1706051217,"current_range_meters":12800,"station_id":"ce4bgth2rcd13ifvqch0","pricing_plan_id":"free"},{"bike_id":"9672df50-5f66-40e2-ab89-79df1e1d4087","system_id":"levelo_inurba_marseille","lat":43.307945,"lon":5.376487,"is_reserved":false,"is_disabled":false,"rental_uris":{"android":"levelo://app?vid=9672df50-5f66-40e2-ab89-79df1e1d4087","ios":"levelo://app?vid=9672df50-5f66-40e2-ab89-79df1e1d4087"},"vehicle_type_id":"4","last_reported":1706051217,"current_range_meters":11200,"station_id":"ce4bgv92rcd13ifvqcq0","pricing_plan_id":"free"},{"bike_id":"f1bfe619-bdfb-4c9b-b8be-1bbc2ba5fa5d","system_id":"levelo_inurba_marseille","lat":43.307945,"lon":5.376487,"is_reserved":false,"is_disabled":false,"rental_uris":{"android":"levelo://app?vid=f1bfe619-bdfb-4c9b-b8be-1bbc2ba5fa5d","ios":"levelo://app?vid=f1bfe619-bdfb-4c9b-b8be-1bbc2ba5fa5d"},"vehicle_type_id":"4","last_reported":1706051217,"current_range_meters":21200,"station_id":"ce4bgv92rcd13ifvqcq0","pricing_plan_id":"free"},{"bike_id":"41bb9c7a-d3ab-458d-9898-bf266a307c33","system_id":"levelo_inurba_marseille","lat":43.307945,"lon":5.376487,"is_reserved":false,"is_disabled":false,"rental_uris":{"android":"levelo://app?vid=41bb9c7a-d3ab-458d-9898-bf266a307c33","ios":"levelo://app?vid=41bb9c7a-d3ab-458d-9898-bf266a307c33"},"vehicle_type_id":"4","last_reported":1706051217,"current_range_meters":16800,"station_id":"ce4bgv92rcd13ifvqcq0","pricing_plan_id":"free"},{"bike_id":"c00ff8ea-cdbf-46f4-9a5c-b2abe4228fde","system_id":"levelo_inurba_marseille","lat":43.307945,"lon":5.376487,"is_reserved":false,"is_disabled":false,"rental_uris":{"android":"levelo://app?vid=c00ff8ea-cdbf-46f4-9a5c-b2abe4228fde","ios":"levelo://app?vid=c00ff8ea-cdbf-46f4-9a5c-b2abe4228fde"},"vehicle_type_id":"4","last_reported":1706051217,"current_range_meters":29200,"station_id":"ce4bgv92rcd13ifvqcq0","pricing_plan_id":"free"},{"bike_id":"fe3ea01a-611d-45bb-ade9-61ab37619286","system_id":"levelo_inurba_marseille","lat":43.307945,"lon":5.376487,"is_reserved":false,"is_disabled":false,"rental_uris":{"android":"levelo://app?vid=fe3ea01a-611d-45bb-ade9-61ab37619286","ios":"levelo://app?vid=fe3ea01a-611d-45bb-ade9-61ab37619286"},"vehicle_type_id":"4","last_reported":1706051217,"current_range_meters":27600,"station_id":"ce4bgv92rcd13ifvqcq0","pricing_plan_id":"free"},{"bike_id":"9f4d5025-1860-4080-86ac-1f941a4b3aaa","system_id":"levelo_inurba_marseille","lat":43.307945,"lon":5.376487,"is_reserved":false,"is_disabled":false,"rental_uris":{"android":"levelo://app?vid=9f4d5025-1860-4080-86ac-1f941a4b3aaa","ios":"levelo://app?vid=9f4d5025-1860-4080-86ac-1f941a4b3aaa"},"vehicle_type_id":"4","last_reported":1706051217,"current_range_meters":16000,"station_id":"ce4bgv92rcd13ifvqcq0","pricing_plan_id":"free"},{"bike_id":"cf3f0c35-a456-4355-9f4a-e5cc66bc3e7d","system_id":"levelo_inurba_marseille","lat":43.307945,"lon":5.376487,"is_reserved":false,"is_disabled":false,"rental_uris":{"android":"levelo://app?vid=cf3f0c35-a456-4355-9f4a-e5cc66bc3e7d","ios":"levelo://app?vid=cf3f0c35-a456-4355-9f4a-e5cc66bc3e7d"},"vehicle_type_id":"4","last_reported":1706051217,"current_range_meters":30400,"station_id":"ce4bgv92rcd13ifvqcq0","pricing_plan_id":"free"},{"bike_id":"a111c29d-23e6-41dd-980a-8196109059a9","system_id":"levelo_inurba_marseille","lat":43.307945,"lon":5.376487,"is_reserved":false,"is_disabled":false,"rental_uris":{"android":"levelo://app?vid=a111c29d-23e6-41dd-980a-8196109059a9","ios":"levelo://app?vid=a111c29d-23e6-41dd-980a-8196109059a9"},"vehicle_type_id":"4","last_reported":1706051217,"current_range_meters":31600,"station_id":"ce4bgv92rcd13ifvqcq0","pricing_plan_id":"free"},{"bike_id":"0e9e0a61-dbc2-4321-94eb-4d63435b7054","system_id":"levelo_inurba_marseille","lat":43.31534,"lon":5.38023,"is_reserved":false,"is_disabled":false,"rental_uris":{"android":"levelo://app?vid=0e9e0a61-dbc2-4321-94eb-4d63435b7054","ios":"levelo://app?vid=0e9e0a61-dbc2-4321-94eb-4d63435b7054"},"vehicle_type_id":"4","last_reported":1706051217,"current_range_meters":8400,"station_id":"ce4bhsp2rcd13ifvqi50","pricing_plan_id":"free"},{"bike_id":"4ab61cc9-1949-4ab5-bcf1-8f07c54632b5","system_id":"levelo_inurba_marseille","lat":43.31063,"lon":5.38055,"is_reserved":false,"is_disabled":false,"rental_uris":{"android":"levelo://app?vid=4ab61cc9-1949-4ab5-bcf1-8f07c54632b5","ios":"levelo://app?vid=4ab61cc9-1949-4ab5-bcf1-8f07c54632b5"},"vehicle_type_id":"4","last_reported":1706051217,"current_range_meters":19600,"station_id":"","pricing_plan_id":"free"},{"bike_id":"fd52f797-a1a1-4a6f-b61a-51f1fecf89e4","system_id":"levelo_inurba_marseille","lat":43.308012,"lon":5.381511,"is_reserved":false,"is_disabled":false,"rental_uris":{"android":"levelo://app?vid=fd52f797-a1a1-4a6f-b61a-51f1fecf89e4","ios":"levelo://app?vid=fd52f797-a1a1-4a6f-b61a-51f1fecf89e4"},"vehicle_type_id":"4","last_reported":1706051217,"current_range_meters":12000,"station_id":"ce4bgt12rcd13ifvqce0","pricing_plan_id":"free"},{"bike_id":"57f4a1d0-30b8-4140-8cb7-a30c09f393d9","system_id":"levelo_inurba_marseille","lat":43.308012,"lon":5.381511,"is_reserved":false,"is_disabled":false,"rental_uris":{"android":"levelo://app?vid=57f4a1d0-30b8-4140-8cb7-a30c09f393d9","ios":"levelo://app?vid=57f4a1d0-30b8-4140-8cb7-a30c09f393d9"},"vehicle_type_id":"4","last_reported":1706051217,"current_range_meters":31600,"station_id":"ce4bgt12rcd13ifvqce0","pricing_plan_id":"free"},{"bike_id":"12267a5d-6f78-4fad-951e-d5ff1bddef17","system_id":"levelo_inurba_marseille","lat":43.308012,"lon":5.381511,"is_reserved":false,"is_disabled":false,"rental_uris":{"android":"levelo://app?vid=12267a5d-6f78-4fad-951e-d5ff1bddef17","ios":"levelo://app?vid=12267a5d-6f78-4fad-951e-d5ff1bddef17"},"vehicle_type_id":"4","last_reported":1706051217,"current_range_meters":14400,"station_id":"ce4bgt12rcd13ifvqce0","pricing_plan_id":"free"},{"bike_id":"f0b091a3-ae1b-494d-860f-210572240e8c","system_id":"levelo_inurba_marseille","lat":43.308012,"lon":5.381511,"is_reserved":false,"is_disabled":false,"rental_uris":{"android":"levelo://app?vid=f0b091a3-ae1b-494d-860f-210572240e8c","ios":"levelo://app?vid=f0b091a3-ae1b-494d-860f-210572240e8c"},"vehicle_type_id":"4","last_reported":1706051217,"current_range_meters":21600,"station_id":"ce4bgt12rcd13ifvqce0","pricing_plan_id":"free"},{"bike_id":"e8864f13-cb02-44c6-88ab-ba5f258fe84f","system_id":"levelo_inurba_marseille","lat":43.324771,"lon":5.36557,"is_reserved":false,"is_disabled":false,"rental_uris":{"android":"levelo://app?vid=e8864f13-cb02-44c6-88ab-ba5f258fe84f","ios":"levelo://app?vid=e8864f13-cb02-44c6-88ab-ba5f258fe84f"},"vehicle_type_id":"4","last_reported":1706051217,"current_range_meters":20800,"station_id":"ce4bhs12rcd13ifvqhvg","pricing_plan_id":"free"},{"bike_id":"5eb89afe-c51f-4ff8-8e66-71558e6cd7e3","system_id":"levelo_inurba_marseille","lat":43.324771,"lon":5.36557,"is_reserved":false,"is_disabled":false,"rental_uris":{"android":"levelo://app?vid=5eb89afe-c51f-4ff8-8e66-71558e6cd7e3","ios":"levelo://app?vid=5eb89afe-c51f-4ff8-8e66-71558e6cd7e3"},"vehicle_type_id":"4","last_reported":1706051217,"current_range_meters":7600,"station_id":"ce4bhs12rcd13ifvqhvg","pricing_plan_id":"free"},{"bike_id":"5879fc82-b842-44d8-b287-0832acde32d3","system_id":"levelo_inurba_marseille","lat":43.301429,"lon":5.37413,"is_reserved":false,"is_disabled":false,"rental_uris":{"android":"levelo://app?vid=5879fc82-b842-44d8-b287-0832acde32d3","ios":"levelo://app?vid=5879fc82-b842-44d8-b287-0832acde32d3"},"vehicle_type_id":"4","last_reported":1706051217,"current_range_meters":15600,"station_id":"ce4bgs92rcd13ifvqcc0","pricing_plan_id":"free"},{"bike_id":"26473e6c-6aa5-4477-be16-b83b681d1fa5","system_id":"levelo_inurba_marseille","lat":43.319935,"lon":5.381699,"is_reserved":false,"is_disabled":false,"rental_uris":{"android":"levelo://app?vid=26473e6c-6aa5-4477-be16-b83b681d1fa5","ios":"levelo://app?vid=26473e6c-6aa5-4477-be16-b83b681d1fa5"},"vehicle_type_id":"4","last_reported":1706051217,"current_range_meters":17200,"station_id":"ce4bhr12rcd13ifvqhpg","pricing_plan_id":"free"},{"bike_id":"3ce3e68d-0313-40cb-afa9-858c717ce4c9","system_id":"levelo_inurba_marseille","lat":43.319935,"lon":5.381699,"is_reserved":false,"is_disabled":false,"rental_uris":{"android":"levelo://app?vid=3ce3e68d-0313-40cb-afa9-858c717ce4c9","ios":"levelo://app?vid=3ce3e68d-0313-40cb-afa9-858c717ce4c9"},"vehicle_type_id":"4","last_reported":1706051217,"current_range_meters":21600,"station_id":"ce4bhr12rcd13ifvqhpg","pricing_plan_id":"free"},{"bike_id":"db5640b8-520d-4779-8ec1-4a4bc253b2f8","system_id":"levelo_inurba_marseille","lat":43.319935,"lon":5.381699,"is_reserved":false,"is_disabled":false,"rental_uris":{"android":"levelo://app?vid=db5640b8-520d-4779-8ec1-4a4bc253b2f8","ios":"levelo://app?vid=db5640b8-520d-4779-8ec1-4a4bc253b2f8"},"vehicle_type_id":"4","last_reported":1706051217,"current_range_meters":9200,"station_id":"ce4bhr12rcd13ifvqhpg","pricing_plan_id":"free"},{"bike_id":"88483b5e-a393-4bfe-9800-1971f45b7e52","system_id":"levelo_inurba_marseille","lat":43.319935,"lon":5.381699,"is_reserved":false,"is_disabled":false,"rental_uris":{"android":"levelo://app?vid=88483b5e-a393-4bfe-9800-1971f45b7e52","ios":"levelo://app?vid=88483b5e-a393-4bfe-9800-1971f45b7e52"},"vehicle_type_id":"4","last_reported":1706051217,"current_range_meters":19200,"station_id":"ce4bhr12rcd13ifvqhpg","pricing_plan_id":"free"},{"bike_id":"00646b3f-5cf3-4e84-bfb8-47e4dcf2da8c","system_id":"levelo_inurba_marseille","lat":43.319935,"lon":5.381699,"is_reserved":false,"is_disabled":false,"rental_uris":{"android":"levelo://app?vid=00646b3f-5cf3-4e84-bfb8-47e4dcf2da8c","ios":"levelo://app?vid=00646b3f-5cf3-4e84-bfb8-47e4dcf2da8c"},"vehicle_type_id":"4","last_reported":1706051217,"current_range_meters":3200,"station_id":"ce4bhr12rcd13ifvqhpg","pricing_plan_id":"free"},{"bike_id":"dc49a2bc-c54f-43f8-bdaf-bfb9096d0275","system_id":"levelo_inurba_marseille","lat":43.319935,"lon":5.381699,"is_reserved":false,"is_disabled":false,"rental_uris":{"android":"levelo://app?vid=dc49a2bc-c54f-43f8-bdaf-bfb9096d0275","ios":"levelo://app?vid=dc49a2bc-c54f-43f8-bdaf-bfb9096d0275"},"vehicle_type_id":"4","last_reported":1706051217,"current_range_meters":5600,"station_id":"ce4bhr12rcd13ifvqhpg","pricing_plan_id":"free"},{"bike_id":"fd388e30-6c90-4fbf-abdf-dd15ef425659","system_id":"levelo_inurba_marseille","lat":43.319967,"lon":5.381565,"is_reserved":false,"is_disabled":false,"rental_uris":{"android":"levelo://app?vid=fd388e30-6c90-4fbf-abdf-dd15ef425659","ios":"levelo://app?vid=fd388e30-6c90-4fbf-abdf-dd15ef425659"},"vehicle_type_id":"4","last_reported":1706051217,"current_range_meters":20400,"station_id":"ce4bhr12rcd13ifvqhpg","pricing_plan_id":"free"},{"bike_id":"4c2d4969-44b3-4b99-ac08-166dc554d101","system_id":"levelo_inurba_marseille","lat":43.319935,"lon":5.381699,"is_reserved":false,"is_disabled":false,"rental_uris":{"android":"levelo://app?vid=4c2d4969-44b3-4b99-ac08-166dc554d101","ios":"levelo://app?vid=4c2d4969-44b3-4b99-ac08-166dc554d101"},"vehicle_type_id":"4","last_reported":1706051217,"current_range_meters":2400,"station_id":"ce4bhr12rcd13ifvqhpg","pricing_plan_id":"free"},{"bike_id":"efc906f1-6d07-435f-9e36-8719175d637b","system_id":"levelo_inurba_marseille","lat":43.319935,"lon":5.381699,"is_reserved":false,"is_disabled":false,"rental_uris":{"android":"levelo://app?vid=efc906f1-6d07-435f-9e36-8719175d637b","ios":"levelo://app?vid=efc906f1-6d07-435f-9e36-8719175d637b"},"vehicle_type_id":"4","last_reported":1706051217,"current_range_meters":0,"station_id":"ce4bhr12rcd13ifvqhpg","pricing_plan_id":"free"},{"bike_id":"cc49fb07-820d-4047-984c-6077647af278","system_id":"levelo_inurba_marseille","lat":43.319935,"lon":5.381699,"is_reserved":false,"is_disabled":false,"rental_uris":{"android":"levelo://app?vid=cc49fb07-820d-4047-984c-6077647af278","ios":"levelo://app?vid=cc49fb07-820d-4047-984c-6077647af278"},"vehicle_type_id":"4","last_reported":1706051217,"current_range_meters":21200,"station_id":"ce4bhr12rcd13ifvqhpg","pricing_plan_id":"free"},{"bike_id":"dd60e452-a69f-4c17-8197-33ae922aeec7","system_id":"levelo_inurba_marseille","lat":43.31999,"lon":5.38165,"is_reserved":false,"is_disabled":false,"rental_uris":{"android":"levelo://app?vid=dd60e452-a69f-4c17-8197-33ae922aeec7","ios":"levelo://app?vid=dd60e452-a69f-4c17-8197-33ae922aeec7"},"vehicle_type_id":"4","last_reported":1706051217,"current_range_meters":25200,"station_id":"ce4bhr12rcd13ifvqhpg","pricing_plan_id":"free"},{"bike_id":"e579ea5e-ceed-4233-b248-81538b797eca","system_id":"levelo_inurba_marseille","lat":43.313571,"lon":5.384829,"is_reserved":false,"is_disabled":false,"rental_uris":{"android":"levelo://app?vid=e579ea5e-ceed-4233-b248-81538b797eca","ios":"levelo://app?vid=e579ea5e-ceed-4233-b248-81538b797eca"},"vehicle_type_id":"4","last_reported":1706051217,"current_range_meters":18800,"station_id":"ce4bgt92rcd13ifvqcf0","pricing_plan_id":"free"},{"bike_id":"3cfdbbb1-ffe4-4166-9f7c-23d4a93ee3ac","system_id":"levelo_inurba_marseille","lat":43.313571,"lon":5.384829,"is_reserved":false,"is_disabled":false,"rental_uris":{"android":"levelo://app?vid=3cfdbbb1-ffe4-4166-9f7c-23d4a93ee3ac","ios":"levelo://app?vid=3cfdbbb1-ffe4-4166-9f7c-23d4a93ee3ac"},"vehicle_type_id":"4","last_reported":1706051217,"current_range_meters":6800,"station_id":"ce4bgt92rcd13ifvqcf0","pricing_plan_id":"free"},{"bike_id":"acb8ddf7-67d7-4b20-8e3f-75768f3b5100","system_id":"levelo_inurba_marseille","lat":43.313571,"lon":5.384829,"is_reserved":false,"is_disabled":false,"rental_uris":{"android":"levelo://app?vid=acb8ddf7-67d7-4b20-8e3f-75768f3b5100","ios":"levelo://app?vid=acb8ddf7-67d7-4b20-8e3f-75768f3b5100"},"vehicle_type_id":"4","last_reported":1706051217,"current_range_meters":10000,"station_id":"ce4bgt92rcd13ifvqcf0","pricing_plan_id":"free"},{"bike_id":"7da7621b-25a3-4dcf-9345-1b1887ad88bb","system_id":"levelo_inurba_marseille","lat":43.299724,"lon":5.371829,"is_reserved":false,"is_disabled":false,"rental_uris":{"android":"levelo://app?vid=7da7621b-25a3-4dcf-9345-1b1887ad88bb","ios":"levelo://app?vid=7da7621b-25a3-4dcf-9345-1b1887ad88bb"},"vehicle_type_id":"4","last_reported":1706051217,"current_range_meters":16400,"station_id":"ce4bgr92rcd13ifvqc7g","pricing_plan_id":"free"},{"bike_id":"0301e0f2-1b14-4b29-bc2a-c6f423dab75f","system_id":"levelo_inurba_marseille","lat":43.311722,"lon":5.387247,"is_reserved":false,"is_disabled":false,"rental_uris":{"android":"levelo://app?vid=0301e0f2-1b14-4b29-bc2a-c6f423dab75f","ios":"levelo://app?vid=0301e0f2-1b14-4b29-bc2a-c6f423dab75f"},"vehicle_type_id":"4","last_reported":1706051217,"current_range_meters":20000,"station_id":"ce4bgv12rcd13ifvqcp0","pricing_plan_id":"free"},{"bike_id":"bfbdb4fc-81ef-4391-ad6f-62f15820c02f","system_id":"levelo_inurba_marseille","lat":43.299243,"lon":5.374807,"is_reserved":false,"is_disabled":false,"rental_uris":{"android":"levelo://app?vid=bfbdb4fc-81ef-4391-ad6f-62f15820c02f","ios":"levelo://app?vid=bfbdb4fc-81ef-4391-ad6f-62f15820c02f"},"vehicle_type_id":"4","last_reported":1706051217,"current_range_meters":12800,"station_id":"ce4bgjh2rcd13ifvqbg0","pricing_plan_id":"free"},{"bike_id":"170f40b6-cc0e-4d6c-a6f3-50e67a11b4df","system_id":"levelo_inurba_marseille","lat":43.311722,"lon":5.387247,"is_reserved":false,"is_disabled":false,"rental_uris":{"android":"levelo://app?vid=170f40b6-cc0e-4d6c-a6f3-50e67a11b4df","ios":"levelo://app?vid=170f40b6-cc0e-4d6c-a6f3-50e67a11b4df"},"vehicle_type_id":"4","last_reported":1706051217,"current_range_meters":20800,"station_id":"ce4bgv12rcd13ifvqcp0","pricing_plan_id":"free"},{"bike_id":"47e14d49-b774-47c3-a96e-de2ce1c0f7bb","system_id":"levelo_inurba_marseille","lat":43.311722,"lon":5.387247,"is_reserved":false,"is_disabled":false,"rental_uris":{"android":"levelo://app?vid=47e14d49-b774-47c3-a96e-de2ce1c0f7bb","ios":"levelo://app?vid=47e14d49-b774-47c3-a96e-de2ce1c0f7bb"},"vehicle_type_id":"4","last_reported":1706051217,"current_range_meters":26000,"station_id":"ce4bgv12rcd13ifvqcp0","pricing_plan_id":"free"},{"bike_id":"84ffe673-5af9-4ba4-ab67-a1419b69ab67","system_id":"levelo_inurba_marseille","lat":43.311722,"lon":5.387247,"is_reserved":false,"is_disabled":false,"rental_uris":{"android":"levelo://app?vid=84ffe673-5af9-4ba4-ab67-a1419b69ab67","ios":"levelo://app?vid=84ffe673-5af9-4ba4-ab67-a1419b69ab67"},"vehicle_type_id":"4","last_reported":1706051217,"current_range_meters":7200,"station_id":"ce4bgv12rcd13ifvqcp0","pricing_plan_id":"free"},{"bike_id":"33c215fb-489e-453f-85fc-7e557cd9ce08","system_id":"levelo_inurba_marseille","lat":43.311722,"lon":5.387247,"is_reserved":false,"is_disabled":false,"rental_uris":{"android":"levelo://app?vid=33c215fb-489e-453f-85fc-7e557cd9ce08","ios":"levelo://app?vid=33c215fb-489e-453f-85fc-7e557cd9ce08"},"vehicle_type_id":"4","last_reported":1706051217,"current_range_meters":8400,"station_id":"ce4bgv12rcd13ifvqcp0","pricing_plan_id":"free"},{"bike_id":"3849fcfd-2146-4578-8226-c8debb4a607d","system_id":"levelo_inurba_marseille","lat":43.311722,"lon":5.387247,"is_reserved":false,"is_disabled":false,"rental_uris":{"android":"levelo://app?vid=3849fcfd-2146-4578-8226-c8debb4a607d","ios":"levelo://app?vid=3849fcfd-2146-4578-8226-c8debb4a607d"},"vehicle_type_id":"4","last_reported":1706051217,"current_range_meters":10000,"station_id":"ce4bgv12rcd13ifvqcp0","pricing_plan_id":"free"},{"bike_id":"82111cc0-128e-43cb-a4c3-c0a66daa394d","system_id":"levelo_inurba_marseille","lat":43.311722,"lon":5.387247,"is_reserved":false,"is_disabled":false,"rental_uris":{"android":"levelo://app?vid=82111cc0-128e-43cb-a4c3-c0a66daa394d","ios":"levelo://app?vid=82111cc0-128e-43cb-a4c3-c0a66daa394d"},"vehicle_type_id":"4","last_reported":1706051217,"current_range_meters":30800,"station_id":"ce4bgv12rcd13ifvqcp0","pricing_plan_id":"free"},{"bike_id":"a5eab93a-98fb-47fc-9252-cb341c71bc75","system_id":"levelo_inurba_marseille","lat":43.297878,"lon":5.371158,"is_reserved":false,"is_disabled":false,"rental_uris":{"android":"levelo://app?vid=a5eab93a-98fb-47fc-9252-cb341c71bc75","ios":"levelo://app?vid=a5eab93a-98fb-47fc-9252-cb341c71bc75"},"vehicle_type_id":"4","last_reported":1706051217,"current_range_meters":0,"station_id":"ce4bgop2rcd13ifvqc1g","pricing_plan_id":"free"},{"bike_id":"171d2d26-404a-4d95-bf44-3dcfca9fe8aa","system_id":"levelo_inurba_marseille","lat":43.322872,"lon":5.382756,"is_reserved":false,"is_disabled":false,"rental_uris":{"android":"levelo://app?vid=171d2d26-404a-4d95-bf44-3dcfca9fe8aa","ios":"levelo://app?vid=171d2d26-404a-4d95-bf44-3dcfca9fe8aa"},"vehicle_type_id":"4","last_reported":1706051217,"current_range_meters":21600,"station_id":"ce4bhr12rcd13ifvqhqg","pricing_plan_id":"free"},{"bike_id":"89789d60-57f9-4669-bae1-bd74942c359c","system_id":"levelo_inurba_marseille","lat":43.322872,"lon":5.382756,"is_reserved":false,"is_disabled":false,"rental_uris":{"android":"levelo://app?vid=89789d60-57f9-4669-bae1-bd74942c359c","ios":"levelo://app?vid=89789d60-57f9-4669-bae1-bd74942c359c"},"vehicle_type_id":"4","last_reported":1706051217,"current_range_meters":17200,"station_id":"ce4bhr12rcd13ifvqhqg","pricing_plan_id":"free"},{"bike_id":"455aa212-be06-4400-9478-d2f1e827f201","system_id":"levelo_inurba_marseille","lat":43.322872,"lon":5.382756,"is_reserved":false,"is_disabled":false,"rental_uris":{"android":"levelo://app?vid=455aa212-be06-4400-9478-d2f1e827f201","ios":"levelo://app?vid=455aa212-be06-4400-9478-d2f1e827f201"},"vehicle_type_id":"4","last_reported":1706051217,"current_range_meters":21600,"station_id":"ce4bhr12rcd13ifvqhqg","pricing_plan_id":"free"},{"bike_id":"e654f202-6c69-4242-8f59-efc7b661b26a","system_id":"levelo_inurba_marseille","lat":43.322872,"lon":5.382756,"is_reserved":false,"is_disabled":false,"rental_uris":{"android":"levelo://app?vid=e654f202-6c69-4242-8f59-efc7b661b26a","ios":"levelo://app?vid=e654f202-6c69-4242-8f59-efc7b661b26a"},"vehicle_type_id":"4","last_reported":1706051217,"current_range_meters":31200,"station_id":"ce4bhr12rcd13ifvqhqg","pricing_plan_id":"free"},{"bike_id":"96012ef5-e74f-4375-9b61-12f790002a3f","system_id":"levelo_inurba_marseille","lat":43.300057,"lon":5.379027,"is_reserved":false,"is_disabled":false,"rental_uris":{"android":"levelo://app?vid=96012ef5-e74f-4375-9b61-12f790002a3f","ios":"levelo://app?vid=96012ef5-e74f-4375-9b61-12f790002a3f"},"vehicle_type_id":"4","last_reported":1706051217,"current_range_meters":15200,"station_id":"","pricing_plan_id":"free"},{"bike_id":"73755ba0-1381-4d5d-8750-d3a07d3f4c75","system_id":"levelo_inurba_marseille","lat":43.32824,"lon":5.36679,"is_reserved":false,"is_disabled":false,"rental_uris":{"android":"levelo://app?vid=73755ba0-1381-4d5d-8750-d3a07d3f4c75","ios":"levelo://app?vid=73755ba0-1381-4d5d-8750-d3a07d3f4c75"},"vehicle_type_id":"4","last_reported":1706051217,"current_range_meters":9200,"station_id":"ce4bhs92rcd13ifvqi0g","pricing_plan_id":"free"},{"bike_id":"572c30ca-2698-4ebb-9720-28d9ee8291d9","system_id":"levelo_inurba_marseille","lat":43.328248,"lon":5.366819,"is_reserved":false,"is_disabled":false,"rental_uris":{"android":"levelo://app?vid=572c30ca-2698-4ebb-9720-28d9ee8291d9","ios":"levelo://app?vid=572c30ca-2698-4ebb-9720-28d9ee8291d9"},"vehicle_type_id":"4","last_reported":1706051217,"current_range_meters":17600,"station_id":"ce4bhs92rcd13ifvqi0g","pricing_plan_id":"free"},{"bike_id":"6da9db5a-42ba-4fa8-afc9-4fdbb45498c1","system_id":"levelo_inurba_marseille","lat":43.32825,"lon":5.36681,"is_reserved":false,"is_disabled":false,"rental_uris":{"android":"levelo://app?vid=6da9db5a-42ba-4fa8-afc9-4fdbb45498c1","ios":"levelo://app?vid=6da9db5a-42ba-4fa8-afc9-4fdbb45498c1"},"vehicle_type_id":"4","last_reported":1706051217,"current_range_meters":17600,"station_id":"ce4bhs92rcd13ifvqi0g","pricing_plan_id":"free"},{"bike_id":"ea0178f3-2c6b-4af6-b062-91b0b8dde1df","system_id":"levelo_inurba_marseille","lat":43.32827,"lon":5.36688,"is_reserved":false,"is_disabled":false,"rental_uris":{"android":"levelo://app?vid=ea0178f3-2c6b-4af6-b062-91b0b8dde1df","ios":"levelo://app?vid=ea0178f3-2c6b-4af6-b062-91b0b8dde1df"},"vehicle_type_id":"4","last_reported":1706051217,"current_range_meters":8000,"station_id":"ce4bhs92rcd13ifvqi0g","pricing_plan_id":"free"},{"bike_id":"6721428b-c74b-45c6-886b-c2d04f1acc8c","system_id":"levelo_inurba_marseille","lat":43.328276,"lon":5.3669,"is_reserved":false,"is_disabled":false,"rental_uris":{"android":"levelo://app?vid=6721428b-c74b-45c6-886b-c2d04f1acc8c","ios":"levelo://app?vid=6721428b-c74b-45c6-886b-c2d04f1acc8c"},"vehicle_type_id":"4","last_reported":1706051217,"current_range_meters":12400,"station_id":"ce4bhs92rcd13ifvqi0g","pricing_plan_id":"free"},{"bike_id":"38d4b3c6-c1c4-4ada-b0ed-8e6826ac2770","system_id":"levelo_inurba_marseille","lat":43.328371,"lon":5.366912,"is_reserved":false,"is_disabled":false,"rental_uris":{"android":"levelo://app?vid=38d4b3c6-c1c4-4ada-b0ed-8e6826ac2770","ios":"levelo://app?vid=38d4b3c6-c1c4-4ada-b0ed-8e6826ac2770"},"vehicle_type_id":"4","last_reported":1706051217,"current_range_meters":16000,"station_id":"ce4bhs92rcd13ifvqi0g","pricing_plan_id":"free"},{"bike_id":"85cedcff-9e9a-415d-8415-195178ea3cb7","system_id":"levelo_inurba_marseille","lat":43.328287,"lon":5.366769,"is_reserved":false,"is_disabled":false,"rental_uris":{"android":"levelo://app?vid=85cedcff-9e9a-415d-8415-195178ea3cb7","ios":"levelo://app?vid=85cedcff-9e9a-415d-8415-195178ea3cb7"},"vehicle_type_id":"4","last_reported":1706051217,"current_range_meters":10400,"station_id":"ce4bhs92rcd13ifvqi0g","pricing_plan_id":"free"},{"bike_id":"e92d083a-dfb9-464f-a2d7-ffc480709cb3","system_id":"levelo_inurba_marseille","lat":43.328371,"lon":5.366912,"is_reserved":false,"is_disabled":false,"rental_uris":{"android":"levelo://app?vid=e92d083a-dfb9-464f-a2d7-ffc480709cb3","ios":"levelo://app?vid=e92d083a-dfb9-464f-a2d7-ffc480709cb3"},"vehicle_type_id":"4","last_reported":1706051217,"current_range_meters":12400,"station_id":"ce4bhs92rcd13ifvqi0g","pricing_plan_id":"free"},{"bike_id":"5b7aaccd-f0dd-4bc4-a5b7-1581df3aca1d","system_id":"levelo_inurba_marseille","lat":43.328371,"lon":5.366909,"is_reserved":false,"is_disabled":false,"rental_uris":{"android":"levelo://app?vid=5b7aaccd-f0dd-4bc4-a5b7-1581df3aca1d","ios":"levelo://app?vid=5b7aaccd-f0dd-4bc4-a5b7-1581df3aca1d"},"vehicle_type_id":"4","last_reported":1706051217,"current_range_meters":14000,"station_id":"ce4bhs92rcd13ifvqi0g","pricing_plan_id":"free"},{"bike_id":"d8b5260c-205c-4300-9784-22ead2fde86f","system_id":"levelo_inurba_marseille","lat":43.328371,"lon":5.366909,"is_reserved":false,"is_disabled":false,"rental_uris":{"android":"levelo://app?vid=d8b5260c-205c-4300-9784-22ead2fde86f","ios":"levelo://app?vid=d8b5260c-205c-4300-9784-22ead2fde86f"},"vehicle_type_id":"4","last_reported":1706051217,"current_range_meters":17600,"station_id":"ce4bhs92rcd13ifvqi0g","pricing_plan_id":"free"},{"bike_id":"447532c0-56ca-46ac-9000-fea47d81b433","system_id":"levelo_inurba_marseille","lat":43.3283,"lon":5.36684,"is_reserved":false,"is_disabled":false,"rental_uris":{"android":"levelo://app?vid=447532c0-56ca-46ac-9000-fea47d81b433","ios":"levelo://app?vid=447532c0-56ca-46ac-9000-fea47d81b433"},"vehicle_type_id":"4","last_reported":1706051217,"current_range_meters":25600,"station_id":"ce4bhs92rcd13ifvqi0g","pricing_plan_id":"free"},{"bike_id":"6851d2e7-d28c-47d0-964c-c2c15e7e3afe","system_id":"levelo_inurba_marseille","lat":43.328371,"lon":5.366909,"is_reserved":false,"is_disabled":false,"rental_uris":{"android":"levelo://app?vid=6851d2e7-d28c-47d0-964c-c2c15e7e3afe","ios":"levelo://app?vid=6851d2e7-d28c-47d0-964c-c2c15e7e3afe"},"vehicle_type_id":"4","last_reported":1706051217,"current_range_meters":3600,"station_id":"ce4bhs92rcd13ifvqi0g","pricing_plan_id":"free"},{"bike_id":"8e2e258c-9f25-408c-8291-bf6e5ba33180","system_id":"levelo_inurba_marseille","lat":43.328371,"lon":5.366909,"is_reserved":false,"is_disabled":false,"rental_uris":{"android":"levelo://app?vid=8e2e258c-9f25-408c-8291-bf6e5ba33180","ios":"levelo://app?vid=8e2e258c-9f25-408c-8291-bf6e5ba33180"},"vehicle_type_id":"4","last_reported":1706051217,"current_range_meters":28000,"station_id":"ce4bhs92rcd13ifvqi0g","pricing_plan_id":"free"},{"bike_id":"f529af8b-6eb5-4dad-b929-2be8fdbdd47b","system_id":"levelo_inurba_marseille","lat":43.328371,"lon":5.366909,"is_reserved":false,"is_disabled":false,"rental_uris":{"android":"levelo://app?vid=f529af8b-6eb5-4dad-b929-2be8fdbdd47b","ios":"levelo://app?vid=f529af8b-6eb5-4dad-b929-2be8fdbdd47b"},"vehicle_type_id":"4","last_reported":1706051217,"current_range_meters":28800,"station_id":"ce4bhs92rcd13ifvqi0g","pricing_plan_id":"free"},{"bike_id":"32a039db-eef1-4a0a-8c6a-17ab6d5d4eda","system_id":"levelo_inurba_marseille","lat":43.32832,"lon":5.36672,"is_reserved":false,"is_disabled":false,"rental_uris":{"android":"levelo://app?vid=32a039db-eef1-4a0a-8c6a-17ab6d5d4eda","ios":"levelo://app?vid=32a039db-eef1-4a0a-8c6a-17ab6d5d4eda"},"vehicle_type_id":"4","last_reported":1706051217,"current_range_meters":4000,"station_id":"ce4bhs92rcd13ifvqi0g","pricing_plan_id":"free"},{"bike_id":"fb5c81e7-2e43-4803-b381-527ab4102689","system_id":"levelo_inurba_marseille","lat":43.328371,"lon":5.366909,"is_reserved":false,"is_disabled":false,"rental_uris":{"android":"levelo://app?vid=fb5c81e7-2e43-4803-b381-527ab4102689","ios":"levelo://app?vid=fb5c81e7-2e43-4803-b381-527ab4102689"},"vehicle_type_id":"4","last_reported":1706051217,"current_range_meters":30400,"station_id":"ce4bhs92rcd13ifvqi0g","pricing_plan_id":"free"},{"bike_id":"7089a61c-e4af-4be6-b327-9ae27e438203","system_id":"levelo_inurba_marseille","lat":43.328371,"lon":5.366909,"is_reserved":false,"is_disabled":false,"rental_uris":{"android":"levelo://app?vid=7089a61c-e4af-4be6-b327-9ae27e438203","ios":"levelo://app?vid=7089a61c-e4af-4be6-b327-9ae27e438203"},"vehicle_type_id":"4","last_reported":1706051217,"current_range_meters":13600,"station_id":"ce4bhs92rcd13ifvqi0g","pricing_plan_id":"free"},{"bike_id":"79d2d98a-29f2-4ffd-ae01-bfd8a1fa05d5","system_id":"levelo_inurba_marseille","lat":43.328371,"lon":5.366912,"is_reserved":false,"is_disabled":false,"rental_uris":{"android":"levelo://app?vid=79d2d98a-29f2-4ffd-ae01-bfd8a1fa05d5","ios":"levelo://app?vid=79d2d98a-29f2-4ffd-ae01-bfd8a1fa05d5"},"vehicle_type_id":"4","last_reported":1706051217,"current_range_meters":29200,"station_id":"ce4bhs92rcd13ifvqi0g","pricing_plan_id":"free"},{"bike_id":"204738f6-469d-4db3-bd14-c2b38ef5e726","system_id":"levelo_inurba_marseille","lat":43.328371,"lon":5.366912,"is_reserved":false,"is_disabled":false,"rental_uris":{"android":"levelo://app?vid=204738f6-469d-4db3-bd14-c2b38ef5e726","ios":"levelo://app?vid=204738f6-469d-4db3-bd14-c2b38ef5e726"},"vehicle_type_id":"4","last_reported":1706051217,"current_range_meters":22800,"station_id":"ce4bhs92rcd13ifvqi0g","pricing_plan_id":"free"},{"bike_id":"200c9768-fa49-4704-9c91-6e8d27ecc3e4","system_id":"levelo_inurba_marseille","lat":43.2968,"lon":5.37291,"is_reserved":false,"is_disabled":false,"rental_uris":{"android":"levelo://app?vid=200c9768-fa49-4704-9c91-6e8d27ecc3e4","ios":"levelo://app?vid=200c9768-fa49-4704-9c91-6e8d27ecc3e4"},"vehicle_type_id":"4","last_reported":1706051217,"current_range_meters":19200,"station_id":"ce4bgk12rcd13ifvqbj0","pricing_plan_id":"free"},{"bike_id":"e3689707-ebc0-41d8-8284-cf3e01232ac9","system_id":"levelo_inurba_marseille","lat":43.2971,"lon":5.37695,"is_reserved":false,"is_disabled":false,"rental_uris":{"android":"levelo://app?vid=e3689707-ebc0-41d8-8284-cf3e01232ac9","ios":"levelo://app?vid=e3689707-ebc0-41d8-8284-cf3e01232ac9"},"vehicle_type_id":"4","last_reported":1706051217,"current_range_meters":0,"station_id":"ce4bgkh2rcd13ifvqbl0","pricing_plan_id":"free"},{"bike_id":"924a5f85-76bb-41ac-bcf8-376f0ad35949","system_id":"levelo_inurba_marseille","lat":43.309589,"lon":5.390258,"is_reserved":false,"is_disabled":false,"rental_uris":{"android":"levelo://app?vid=924a5f85-76bb-41ac-bcf8-376f0ad35949","ios":"levelo://app?vid=924a5f85-76bb-41ac-bcf8-376f0ad35949"},"vehicle_type_id":"4","last_reported":1706051217,"current_range_meters":18000,"station_id":"ce4bgup2rcd13ifvqco0","pricing_plan_id":"free"},{"bike_id":"a8ee9d30-40b0-4853-b58c-0e424c6eee67","system_id":"levelo_inurba_marseille","lat":43.31763,"lon":5.39007,"is_reserved":false,"is_disabled":false,"rental_uris":{"android":"levelo://app?vid=a8ee9d30-40b0-4853-b58c-0e424c6eee67","ios":"levelo://app?vid=a8ee9d30-40b0-4853-b58c-0e424c6eee67"},"vehicle_type_id":"4","last_reported":1706051217,"current_range_meters":0,"station_id":"ce4bhqp2rcd13ifvqhng","pricing_plan_id":"free"},{"bike_id":"455cf7b4-f3ea-4ac3-b26a-99d16bfdc36c","system_id":"levelo_inurba_marseille","lat":43.317557,"lon":5.390173,"is_reserved":false,"is_disabled":false,"rental_uris":{"android":"levelo://app?vid=455cf7b4-f3ea-4ac3-b26a-99d16bfdc36c","ios":"levelo://app?vid=455cf7b4-f3ea-4ac3-b26a-99d16bfdc36c"},"vehicle_type_id":"4","last_reported":1706051217,"current_range_meters":9600,"station_id":"ce4bhqp2rcd13ifvqhng","pricing_plan_id":"free"},{"bike_id":"bf3f24b4-4097-4422-8bbb-c2c239790714","system_id":"levelo_inurba_marseille","lat":43.304274,"lon":5.388873,"is_reserved":false,"is_disabled":false,"rental_uris":{"android":"levelo://app?vid=bf3f24b4-4097-4422-8bbb-c2c239790714","ios":"levelo://app?vid=bf3f24b4-4097-4422-8bbb-c2c239790714"},"vehicle_type_id":"4","last_reported":1706051217,"current_range_meters":800,"station_id":"ce4bgk12rcd13ifvqbi0","pricing_plan_id":"free"},{"bike_id":"0445d1a9-e719-4b06-9390-673b6beb59ee","system_id":"levelo_inurba_marseille","lat":43.296277,"lon":5.377108,"is_reserved":false,"is_disabled":false,"rental_uris":{"android":"levelo://app?vid=0445d1a9-e719-4b06-9390-673b6beb59ee","ios":"levelo://app?vid=0445d1a9-e719-4b06-9390-673b6beb59ee"},"vehicle_type_id":"4","last_reported":1706051217,"current_range_meters":0,"station_id":"ce4bgi92rcd13ifvqb90","pricing_plan_id":"free"},{"bike_id":"28395faf-8cf1-4f81-a0d6-4ca33555226e","system_id":"levelo_inurba_marseille","lat":43.32367,"lon":5.388836,"is_reserved":false,"is_disabled":false,"rental_uris":{"android":"levelo://app?vid=28395faf-8cf1-4f81-a0d6-4ca33555226e","ios":"levelo://app?vid=28395faf-8cf1-4f81-a0d6-4ca33555226e"},"vehicle_type_id":"4","last_reported":1706051217,"current_range_meters":14000,"station_id":"ce4bhqp2rcd13ifvqhog","pricing_plan_id":"free"},{"bike_id":"b3ae146c-2436-4afb-b45a-3899af5aa2de","system_id":"levelo_inurba_marseille","lat":43.32367,"lon":5.388836,"is_reserved":false,"is_disabled":false,"rental_uris":{"android":"levelo://app?vid=b3ae146c-2436-4afb-b45a-3899af5aa2de","ios":"levelo://app?vid=b3ae146c-2436-4afb-b45a-3899af5aa2de"},"vehicle_type_id":"4","last_reported":1706051217,"current_range_meters":20000,"station_id":"ce4bhqp2rcd13ifvqhog","pricing_plan_id":"free"},{"bike_id":"9cd46bc9-ffdb-44c4-89ef-eab730a945c6","system_id":"levelo_inurba_marseille","lat":43.29601,"lon":5.381084,"is_reserved":false,"is_disabled":false,"rental_uris":{"android":"levelo://app?vid=9cd46bc9-ffdb-44c4-89ef-eab730a945c6","ios":"levelo://app?vid=9cd46bc9-ffdb-44c4-89ef-eab730a945c6"},"vehicle_type_id":"4","last_reported":1706051217,"current_range_meters":19600,"station_id":"ce4bgl12rcd13ifvqbo0","pricing_plan_id":"free"},{"bike_id":"1afee5bc-b919-44e6-92b8-100105a62f7c","system_id":"levelo_inurba_marseille","lat":43.293259,"lon":5.371586,"is_reserved":false,"is_disabled":false,"rental_uris":{"android":"levelo://app?vid=1afee5bc-b919-44e6-92b8-100105a62f7c","ios":"levelo://app?vid=1afee5bc-b919-44e6-92b8-100105a62f7c"},"vehicle_type_id":"4","last_reported":1706051217,"current_range_meters":8400,"station_id":"ce4bgh92rcd13ifvqb40","pricing_plan_id":"free"},{"bike_id":"3aa7afa9-31c9-412e-b41c-5eb00ac6866d","system_id":"levelo_inurba_marseille","lat":43.30641,"lon":5.393002,"is_reserved":false,"is_disabled":false,"rental_uris":{"android":"levelo://app?vid=3aa7afa9-31c9-412e-b41c-5eb00ac6866d","ios":"levelo://app?vid=3aa7afa9-31c9-412e-b41c-5eb00ac6866d"},"vehicle_type_id":"4","last_reported":1706051217,"current_range_meters":21600,"station_id":"","pricing_plan_id":"free"},{"bike_id":"3e3882ca-ddfa-4405-ab8a-55f0a78970b8","system_id":"levelo_inurba_marseille","lat":43.30604,"lon":5.39356,"is_reserved":false,"is_disabled":false,"rental_uris":{"android":"levelo://app?vid=3e3882ca-ddfa-4405-ab8a-55f0a78970b8","ios":"levelo://app?vid=3e3882ca-ddfa-4405-ab8a-55f0a78970b8"},"vehicle_type_id":"4","last_reported":1706051217,"current_range_meters":29600,"station_id":"ce4bh0p2rcd13ifvqd80","pricing_plan_id":"free"},{"bike_id":"8e11e9f2-c115-49a0-88c3-c036ce9d6139","system_id":"levelo_inurba_marseille","lat":43.293009,"lon":5.374584,"is_reserved":false,"is_disabled":false,"rental_uris":{"android":"levelo://app?vid=8e11e9f2-c115-49a0-88c3-c036ce9d6139","ios":"levelo://app?vid=8e11e9f2-c115-49a0-88c3-c036ce9d6139"},"vehicle_type_id":"4","last_reported":1706051217,"current_range_meters":400,"station_id":"ce4bgi12rcd13ifvqb70","pricing_plan_id":"free"},{"bike_id":"77207433-070c-488b-9266-26f9529cf742","system_id":"levelo_inurba_marseille","lat":43.2971,"lon":5.385455,"is_reserved":false,"is_disabled":false,"rental_uris":{"android":"levelo://app?vid=77207433-070c-488b-9266-26f9529cf742","ios":"levelo://app?vid=77207433-070c-488b-9266-26f9529cf742"},"vehicle_type_id":"4","last_reported":1706051217,"current_range_meters":0,"station_id":"","pricing_plan_id":"free"},{"bike_id":"108559eb-0086-4b88-8a12-331a614a5a79","system_id":"levelo_inurba_marseille","lat":43.29448,"lon":5.38021,"is_reserved":false,"is_disabled":false,"rental_uris":{"android":"levelo://app?vid=108559eb-0086-4b88-8a12-331a614a5a79","ios":"levelo://app?vid=108559eb-0086-4b88-8a12-331a614a5a79"},"vehicle_type_id":"4","last_reported":1706051217,"current_range_meters":12400,"station_id":"","pricing_plan_id":"free"},{"bike_id":"eacdd82b-5e4d-4a18-8b57-9be8cd904cfa","system_id":"levelo_inurba_marseille","lat":43.302992,"lon":5.392136,"is_reserved":false,"is_disabled":false,"rental_uris":{"android":"levelo://app?vid=eacdd82b-5e4d-4a18-8b57-9be8cd904cfa","ios":"levelo://app?vid=eacdd82b-5e4d-4a18-8b57-9be8cd904cfa"},"vehicle_type_id":"4","last_reported":1706051217,"current_range_meters":27200,"station_id":"ce4bgkh2rcd13ifvqbk0","pricing_plan_id":"free"},{"bike_id":"6e218a6a-3832-4590-9dee-e87124de6a58","system_id":"levelo_inurba_marseille","lat":43.2936,"lon":5.37835,"is_reserved":false,"is_disabled":false,"rental_uris":{"android":"levelo://app?vid=6e218a6a-3832-4590-9dee-e87124de6a58","ios":"levelo://app?vid=6e218a6a-3832-4590-9dee-e87124de6a58"},"vehicle_type_id":"4","last_reported":1706051217,"current_range_meters":6400,"station_id":"ce4bgjh2rcd13ifvqbf0","pricing_plan_id":"free"},{"bike_id":"23304054-893e-40fa-8786-4ddb9c051807","system_id":"levelo_inurba_marseille","lat":43.303002,"lon":5.392142,"is_reserved":false,"is_disabled":false,"rental_uris":{"android":"levelo://app?vid=23304054-893e-40fa-8786-4ddb9c051807","ios":"levelo://app?vid=23304054-893e-40fa-8786-4ddb9c051807"},"vehicle_type_id":"4","last_reported":1706051217,"current_range_meters":12400,"station_id":"ce4bgkh2rcd13ifvqbk0","pricing_plan_id":"free"},{"bike_id":"c85a1b8a-3977-46bf-940f-60d638112589","system_id":"levelo_inurba_marseille","lat":43.292667,"lon":5.376143,"is_reserved":false,"is_disabled":false,"rental_uris":{"android":"levelo://app?vid=c85a1b8a-3977-46bf-940f-60d638112589","ios":"levelo://app?vid=c85a1b8a-3977-46bf-940f-60d638112589"},"vehicle_type_id":"4","last_reported":1706051217,"current_range_meters":26000,"station_id":"","pricing_plan_id":"free"},{"bike_id":"80be8dc2-b2d4-45e9-a58a-607ce69f1450","system_id":"levelo_inurba_marseille","lat":43.298764,"lon":5.388973,"is_reserved":false,"is_disabled":false,"rental_uris":{"android":"levelo://app?vid=80be8dc2-b2d4-45e9-a58a-607ce69f1450","ios":"levelo://app?vid=80be8dc2-b2d4-45e9-a58a-607ce69f1450"},"vehicle_type_id":"4","last_reported":1706051217,"current_range_meters":0,"station_id":"ce4bh392rcd13ifvqdl0","pricing_plan_id":"free"},{"bike_id":"3ad45def-9801-4830-93f6-31b670685a91","system_id":"levelo_inurba_marseille","lat":43.309038,"lon":5.396546,"is_reserved":false,"is_disabled":false,"rental_uris":{"android":"levelo://app?vid=3ad45def-9801-4830-93f6-31b670685a91","ios":"levelo://app?vid=3ad45def-9801-4830-93f6-31b670685a91"},"vehicle_type_id":"4","last_reported":1706051217,"current_range_meters":19600,"station_id":"ce4bh012rcd13ifvqcv0","pricing_plan_id":"free"},{"bike_id":"658ef7ce-c0aa-461d-ad6e-82fe3b8a6724","system_id":"levelo_inurba_marseille","lat":43.309038,"lon":5.396546,"is_reserved":false,"is_disabled":false,"rental_uris":{"android":"levelo://app?vid=658ef7ce-c0aa-461d-ad6e-82fe3b8a6724","ios":"levelo://app?vid=658ef7ce-c0aa-461d-ad6e-82fe3b8a6724"},"vehicle_type_id":"4","last_reported":1706051217,"current_range_meters":3200,"station_id":"ce4bh012rcd13ifvqcv0","pricing_plan_id":"free"},{"bike_id":"0c2cab1d-421f-413c-8bcf-f810452efcf2","system_id":"levelo_inurba_marseille","lat":43.309047,"lon":5.396551,"is_reserved":false,"is_disabled":false,"rental_uris":{"android":"levelo://app?vid=0c2cab1d-421f-413c-8bcf-f810452efcf2","ios":"levelo://app?vid=0c2cab1d-421f-413c-8bcf-f810452efcf2"},"vehicle_type_id":"4","last_reported":1706051217,"current_range_meters":20800,"station_id":"ce4bh012rcd13ifvqcv0","pricing_plan_id":"free"},{"bike_id":"b801f3af-5189-4a3d-93f2-ae44c07ad806","system_id":"levelo_inurba_marseille","lat":43.292005,"lon":5.357875,"is_reserved":false,"is_disabled":false,"rental_uris":{"android":"levelo://app?vid=b801f3af-5189-4a3d-93f2-ae44c07ad806","ios":"levelo://app?vid=b801f3af-5189-4a3d-93f2-ae44c07ad806"},"vehicle_type_id":"4","last_reported":1706051217,"current_range_meters":29200,"station_id":"ce4bhb12rcd13ifvqel0","pricing_plan_id":"free"},{"bike_id":"e36b906c-b037-4b5e-8952-0700e3f182e7","system_id":"levelo_inurba_marseille","lat":43.309038,"lon":5.396546,"is_reserved":false,"is_disabled":false,"rental_uris":{"android":"levelo://app?vid=e36b906c-b037-4b5e-8952-0700e3f182e7","ios":"levelo://app?vid=e36b906c-b037-4b5e-8952-0700e3f182e7"},"vehicle_type_id":"4","last_reported":1706051217,"current_range_meters":18800,"station_id":"ce4bh012rcd13ifvqcv0","pricing_plan_id":"free"},{"bike_id":"ee570c37-7e5b-4f34-854d-9f0e3f694527","system_id":"levelo_inurba_marseille","lat":43.31334,"lon":5.39682,"is_reserved":false,"is_disabled":false,"rental_uris":{"android":"levelo://app?vid=ee570c37-7e5b-4f34-854d-9f0e3f694527","ios":"levelo://app?vid=ee570c37-7e5b-4f34-854d-9f0e3f694527"},"vehicle_type_id":"4","last_reported":1706051217,"current_range_meters":14400,"station_id":"ce4bgvp2rcd13ifvqcu0","pricing_plan_id":"free"},{"bike_id":"ee3cfdd5-c4c0-4596-9b75-990c66ef91db","system_id":"levelo_inurba_marseille","lat":43.309047,"lon":5.396551,"is_reserved":false,"is_disabled":false,"rental_uris":{"android":"levelo://app?vid=ee3cfdd5-c4c0-4596-9b75-990c66ef91db","ios":"levelo://app?vid=ee3cfdd5-c4c0-4596-9b75-990c66ef91db"},"vehicle_type_id":"4","last_reported":1706051217,"current_range_meters":4000,"station_id":"ce4bh012rcd13ifvqcv0","pricing_plan_id":"free"},{"bike_id":"2378141d-6fe9-4791-9657-29fcf004c61d","system_id":"levelo_inurba_marseille","lat":43.291961,"lon":5.357994,"is_reserved":false,"is_disabled":false,"rental_uris":{"android":"levelo://app?vid=2378141d-6fe9-4791-9657-29fcf004c61d","ios":"levelo://app?vid=2378141d-6fe9-4791-9657-29fcf004c61d"},"vehicle_type_id":"4","last_reported":1706051217,"current_range_meters":0,"station_id":"ce4bhb12rcd13ifvqel0","pricing_plan_id":"free"},{"bike_id":"b3298b71-8a2e-493d-934a-92975a163215","system_id":"levelo_inurba_marseille","lat":43.309038,"lon":5.396546,"is_reserved":false,"is_disabled":false,"rental_uris":{"android":"levelo://app?vid=b3298b71-8a2e-493d-934a-92975a163215","ios":"levelo://app?vid=b3298b71-8a2e-493d-934a-92975a163215"},"vehicle_type_id":"4","last_reported":1706051217,"current_range_meters":20800,"station_id":"ce4bh012rcd13ifvqcv0","pricing_plan_id":"free"},{"bike_id":"e1e96bd3-d4a7-4217-b9f8-077fc51279b7","system_id":"levelo_inurba_marseille","lat":43.313291,"lon":5.396838,"is_reserved":false,"is_disabled":false,"rental_uris":{"android":"levelo://app?vid=e1e96bd3-d4a7-4217-b9f8-077fc51279b7","ios":"levelo://app?vid=e1e96bd3-d4a7-4217-b9f8-077fc51279b7"},"vehicle_type_id":"4","last_reported":1706051217,"current_range_meters":31200,"station_id":"ce4bgvp2rcd13ifvqcu0","pricing_plan_id":"free"},{"bike_id":"f73f91d2-f2e5-4b38-8487-098fc091291a","system_id":"levelo_inurba_marseille","lat":43.309047,"lon":5.396551,"is_reserved":false,"is_disabled":false,"rental_uris":{"android":"levelo://app?vid=f73f91d2-f2e5-4b38-8487-098fc091291a","ios":"levelo://app?vid=f73f91d2-f2e5-4b38-8487-098fc091291a"},"vehicle_type_id":"4","last_reported":1706051217,"current_range_meters":18400,"station_id":"ce4bh012rcd13ifvqcv0","pricing_plan_id":"free"},{"bike_id":"5a423593-da43-4643-9c63-63b26fe2af4d","system_id":"levelo_inurba_marseille","lat":43.309038,"lon":5.396546,"is_reserved":false,"is_disabled":false,"rental_uris":{"android":"levelo://app?vid=5a423593-da43-4643-9c63-63b26fe2af4d","ios":"levelo://app?vid=5a423593-da43-4643-9c63-63b26fe2af4d"},"vehicle_type_id":"4","last_reported":1706051217,"current_range_meters":8800,"station_id":"ce4bh012rcd13ifvqcv0","pricing_plan_id":"free"},{"bike_id":"e470df0f-1488-41d8-83ee-afa09f50550e","system_id":"levelo_inurba_marseille","lat":43.309047,"lon":5.396551,"is_reserved":false,"is_disabled":false,"rental_uris":{"android":"levelo://app?vid=e470df0f-1488-41d8-83ee-afa09f50550e","ios":"levelo://app?vid=e470df0f-1488-41d8-83ee-afa09f50550e"},"vehicle_type_id":"4","last_reported":1706051217,"current_range_meters":5200,"station_id":"ce4bh012rcd13ifvqcv0","pricing_plan_id":"free"},{"bike_id":"5e7a6b38-b865-4eab-82f2-9b56861caa36","system_id":"levelo_inurba_marseille","lat":43.309038,"lon":5.396546,"is_reserved":false,"is_disabled":false,"rental_uris":{"android":"levelo://app?vid=5e7a6b38-b865-4eab-82f2-9b56861caa36","ios":"levelo://app?vid=5e7a6b38-b865-4eab-82f2-9b56861caa36"},"vehicle_type_id":"4","last_reported":1706051217,"current_range_meters":14000,"station_id":"ce4bh012rcd13ifvqcv0","pricing_plan_id":"free"},{"bike_id":"7fc554d0-1d3c-4682-9d56-ad4b987dea3d","system_id":"levelo_inurba_marseille","lat":43.3133,"lon":5.397,"is_reserved":false,"is_disabled":false,"rental_uris":{"android":"levelo://app?vid=7fc554d0-1d3c-4682-9d56-ad4b987dea3d","ios":"levelo://app?vid=7fc554d0-1d3c-4682-9d56-ad4b987dea3d"},"vehicle_type_id":"4","last_reported":1706051217,"current_range_meters":10000,"station_id":"ce4bgvp2rcd13ifvqcu0","pricing_plan_id":"free"},{"bike_id":"a1c9e712-10d1-4be2-a6a0-54efcddeeb28","system_id":"levelo_inurba_marseille","lat":43.309038,"lon":5.396546,"is_reserved":false,"is_disabled":false,"rental_uris":{"android":"levelo://app?vid=a1c9e712-10d1-4be2-a6a0-54efcddeeb28","ios":"levelo://app?vid=a1c9e712-10d1-4be2-a6a0-54efcddeeb28"},"vehicle_type_id":"4","last_reported":1706051217,"current_range_meters":0,"station_id":"ce4bh012rcd13ifvqcv0","pricing_plan_id":"free"},{"bike_id":"1de920fe-d031-4d92-8e0f-ca6274322f4a","system_id":"levelo_inurba_marseille","lat":43.302008,"lon":5.394694,"is_reserved":false,"is_disabled":false,"rental_uris":{"android":"levelo://app?vid=1de920fe-d031-4d92-8e0f-ca6274322f4a","ios":"levelo://app?vid=1de920fe-d031-4d92-8e0f-ca6274322f4a"},"vehicle_type_id":"4","last_reported":1706051217,"current_range_meters":21200,"station_id":"ce4bh0p2rcd13ifvqd70","pricing_plan_id":"free"},{"bike_id":"a0517042-8b10-4713-bc63-984890b585db","system_id":"levelo_inurba_marseille","lat":43.290624,"lon":5.359245,"is_reserved":false,"is_disabled":false,"rental_uris":{"android":"levelo://app?vid=a0517042-8b10-4713-bc63-984890b585db","ios":"levelo://app?vid=a0517042-8b10-4713-bc63-984890b585db"},"vehicle_type_id":"4","last_reported":1706051217,"current_range_meters":20000,"station_id":"ce4bha92rcd13ifvqeg0","pricing_plan_id":"free"},{"bike_id":"56bb1c33-c6b0-4c4c-98be-d11c44720f23","system_id":"levelo_inurba_marseille","lat":43.290631,"lon":5.359244,"is_reserved":false,"is_disabled":false,"rental_uris":{"android":"levelo://app?vid=56bb1c33-c6b0-4c4c-98be-d11c44720f23","ios":"levelo://app?vid=56bb1c33-c6b0-4c4c-98be-d11c44720f23"},"vehicle_type_id":"4","last_reported":1706051217,"current_range_meters":0,"station_id":"ce4bha92rcd13ifvqeg0","pricing_plan_id":"free"},{"bike_id":"98871879-4f99-4ce3-91ad-e20e99753d70","system_id":"levelo_inurba_marseille","lat":43.290631,"lon":5.359244,"is_reserved":false,"is_disabled":false,"rental_uris":{"android":"levelo://app?vid=98871879-4f99-4ce3-91ad-e20e99753d70","ios":"levelo://app?vid=98871879-4f99-4ce3-91ad-e20e99753d70"},"vehicle_type_id":"4","last_reported":1706051217,"current_range_meters":29200,"station_id":"ce4bha92rcd13ifvqeg0","pricing_plan_id":"free"},{"bike_id":"38861a24-e611-4fb8-ae64-630733aa783c","system_id":"levelo_inurba_marseille","lat":43.290631,"lon":5.359244,"is_reserved":false,"is_disabled":false,"rental_uris":{"android":"levelo://app?vid=38861a24-e611-4fb8-ae64-630733aa783c","ios":"levelo://app?vid=38861a24-e611-4fb8-ae64-630733aa783c"},"vehicle_type_id":"4","last_reported":1706051217,"current_range_meters":0,"station_id":"ce4bha92rcd13ifvqeg0","pricing_plan_id":"free"},{"bike_id":"ee2e1f47-ec82-4b72-8516-30fd36e9edd0","system_id":"levelo_inurba_marseille","lat":43.294153,"lon":5.386305,"is_reserved":false,"is_disabled":false,"rental_uris":{"android":"levelo://app?vid=ee2e1f47-ec82-4b72-8516-30fd36e9edd0","ios":"levelo://app?vid=ee2e1f47-ec82-4b72-8516-30fd36e9edd0"},"vehicle_type_id":"4","last_reported":1706051217,"current_range_meters":2400,"station_id":"ce4bh2h2rcd13ifvqdh0","pricing_plan_id":"free"},{"bike_id":"6c067683-26f8-4d5e-980d-4647ff4e93ea","system_id":"levelo_inurba_marseille","lat":43.289468,"lon":5.363719,"is_reserved":false,"is_disabled":false,"rental_uris":{"android":"levelo://app?vid=6c067683-26f8-4d5e-980d-4647ff4e93ea","ios":"levelo://app?vid=6c067683-26f8-4d5e-980d-4647ff4e93ea"},"vehicle_type_id":"4","last_reported":1706051217,"current_range_meters":3600,"station_id":"ce4bhc92rcd13ifvqetg","pricing_plan_id":"free"},{"bike_id":"4b43c33c-f33e-4df2-bf89-88f36094945d","system_id":"levelo_inurba_marseille","lat":43.292644,"lon":5.384257,"is_reserved":false,"is_disabled":false,"rental_uris":{"android":"levelo://app?vid=4b43c33c-f33e-4df2-bf89-88f36094945d","ios":"levelo://app?vid=4b43c33c-f33e-4df2-bf89-88f36094945d"},"vehicle_type_id":"4","last_reported":1706051217,"current_range_meters":17600,"station_id":"ce4bh692rcd13ifvqea0","pricing_plan_id":"free"},{"bike_id":"a9b62a41-eff4-4b40-a3fa-265cd419cfcf","system_id":"levelo_inurba_marseille","lat":43.309038,"lon":5.396546,"is_reserved":false,"is_disabled":false,"rental_uris":{"android":"levelo://app?vid=a9b62a41-eff4-4b40-a3fa-265cd419cfcf","ios":"levelo://app?vid=a9b62a41-eff4-4b40-a3fa-265cd419cfcf"},"vehicle_type_id":"4","last_reported":1706051217,"current_range_meters":18400,"station_id":"ce4bh012rcd13ifvqcv0","pricing_plan_id":"free"},{"bike_id":"97e5ae61-9211-4bd0-a839-6be44bcafb3e","system_id":"levelo_inurba_marseille","lat":43.290104,"lon":5.356111,"is_reserved":false,"is_disabled":false,"rental_uris":{"android":"levelo://app?vid=97e5ae61-9211-4bd0-a839-6be44bcafb3e","ios":"levelo://app?vid=97e5ae61-9211-4bd0-a839-6be44bcafb3e"},"vehicle_type_id":"4","last_reported":1706051217,"current_range_meters":13200,"station_id":"ce4bhb92rcd13ifvqen0","pricing_plan_id":"free"},{"bike_id":"5bb50bd1-214b-48c4-8f3e-e6ec438474a7","system_id":"levelo_inurba_marseille","lat":43.29009,"lon":5.3561,"is_reserved":false,"is_disabled":false,"rental_uris":{"android":"levelo://app?vid=5bb50bd1-214b-48c4-8f3e-e6ec438474a7","ios":"levelo://app?vid=5bb50bd1-214b-48c4-8f3e-e6ec438474a7"},"vehicle_type_id":"4","last_reported":1706051217,"current_range_meters":6000,"station_id":"","pricing_plan_id":"free"},{"bike_id":"f80c0bbd-f809-4868-bc97-a6ae7843c94d","system_id":"levelo_inurba_marseille","lat":43.290104,"lon":5.356111,"is_reserved":false,"is_disabled":false,"rental_uris":{"android":"levelo://app?vid=f80c0bbd-f809-4868-bc97-a6ae7843c94d","ios":"levelo://app?vid=f80c0bbd-f809-4868-bc97-a6ae7843c94d"},"vehicle_type_id":"4","last_reported":1706051217,"current_range_meters":0,"station_id":"ce4bhb92rcd13ifvqen0","pricing_plan_id":"free"},{"bike_id":"2fedfe57-a9c5-4168-a122-32439a79b7f7","system_id":"levelo_inurba_marseille","lat":43.290103,"lon":5.356114,"is_reserved":false,"is_disabled":false,"rental_uris":{"android":"levelo://app?vid=2fedfe57-a9c5-4168-a122-32439a79b7f7","ios":"levelo://app?vid=2fedfe57-a9c5-4168-a122-32439a79b7f7"},"vehicle_type_id":"4","last_reported":1706051217,"current_range_meters":28000,"station_id":"ce4bhb92rcd13ifvqen0","pricing_plan_id":"free"},{"bike_id":"9b0d7531-2847-479e-a51f-c47e28c3c86d","system_id":"levelo_inurba_marseille","lat":43.290103,"lon":5.356114,"is_reserved":false,"is_disabled":false,"rental_uris":{"android":"levelo://app?vid=9b0d7531-2847-479e-a51f-c47e28c3c86d","ios":"levelo://app?vid=9b0d7531-2847-479e-a51f-c47e28c3c86d"},"vehicle_type_id":"4","last_reported":1706051217,"current_range_meters":3200,"station_id":"ce4bhb92rcd13ifvqen0","pricing_plan_id":"free"},{"bike_id":"88f1f9e0-5542-4f2c-a2bd-453ddefd1eef","system_id":"levelo_inurba_marseille","lat":43.298041,"lon":5.393416,"is_reserved":false,"is_disabled":false,"rental_uris":{"android":"levelo://app?vid=88f1f9e0-5542-4f2c-a2bd-453ddefd1eef","ios":"levelo://app?vid=88f1f9e0-5542-4f2c-a2bd-453ddefd1eef"},"vehicle_type_id":"4","last_reported":1706051217,"current_range_meters":31200,"station_id":"chh1huq6cuj3fo74tm60","pricing_plan_id":"free"},{"bike_id":"a1e806de-7881-4fd8-a3a5-9f3f5208bdc0","system_id":"levelo_inurba_marseille","lat":43.297815,"lon":5.393548,"is_reserved":false,"is_disabled":false,"rental_uris":{"android":"levelo://app?vid=a1e806de-7881-4fd8-a3a5-9f3f5208bdc0","ios":"levelo://app?vid=a1e806de-7881-4fd8-a3a5-9f3f5208bdc0"},"vehicle_type_id":"4","last_reported":1706051217,"current_range_meters":28000,"station_id":"chh1huq6cuj3fo74tm60","pricing_plan_id":"free"},{"bike_id":"5bd801ae-98c5-4ed3-95c8-24c2fdac86c0","system_id":"levelo_inurba_marseille","lat":43.297815,"lon":5.393548,"is_reserved":false,"is_disabled":false,"rental_uris":{"android":"levelo://app?vid=5bd801ae-98c5-4ed3-95c8-24c2fdac86c0","ios":"levelo://app?vid=5bd801ae-98c5-4ed3-95c8-24c2fdac86c0"},"vehicle_type_id":"4","last_reported":1706051217,"current_range_meters":28400,"station_id":"chh1huq6cuj3fo74tm60","pricing_plan_id":"free"},{"bike_id":"7e3b44a0-6518-4173-8fd1-e575b28a3580","system_id":"levelo_inurba_marseille","lat":43.297904,"lon":5.393338,"is_reserved":false,"is_disabled":false,"rental_uris":{"android":"levelo://app?vid=7e3b44a0-6518-4173-8fd1-e575b28a3580","ios":"levelo://app?vid=7e3b44a0-6518-4173-8fd1-e575b28a3580"},"vehicle_type_id":"4","last_reported":1706051217,"current_range_meters":27600,"station_id":"chh1huq6cuj3fo74tm60","pricing_plan_id":"free"},{"bike_id":"fedd67f1-4f12-4162-acc8-91cfb3726602","system_id":"levelo_inurba_marseille","lat":43.297815,"lon":5.393548,"is_reserved":false,"is_disabled":false,"rental_uris":{"android":"levelo://app?vid=fedd67f1-4f12-4162-acc8-91cfb3726602","ios":"levelo://app?vid=fedd67f1-4f12-4162-acc8-91cfb3726602"},"vehicle_type_id":"4","last_reported":1706051217,"current_range_meters":16800,"station_id":"chh1huq6cuj3fo74tm60","pricing_plan_id":"free"},{"bike_id":"d52baf28-50ef-4220-9c27-8a655062a064","system_id":"levelo_inurba_marseille","lat":43.297903,"lon":5.393463,"is_reserved":false,"is_disabled":false,"rental_uris":{"android":"levelo://app?vid=d52baf28-50ef-4220-9c27-8a655062a064","ios":"levelo://app?vid=d52baf28-50ef-4220-9c27-8a655062a064"},"vehicle_type_id":"4","last_reported":1706051217,"current_range_meters":22400,"station_id":"chh1huq6cuj3fo74tm60","pricing_plan_id":"free"},{"bike_id":"67c380de-ab9c-4162-b94f-c63800b63578","system_id":"levelo_inurba_marseille","lat":43.330255,"lon":5.390402,"is_reserved":false,"is_disabled":false,"rental_uris":{"android":"levelo://app?vid=67c380de-ab9c-4162-b94f-c63800b63578","ios":"levelo://app?vid=67c380de-ab9c-4162-b94f-c63800b63578"},"vehicle_type_id":"4","last_reported":1706051217,"current_range_meters":8400,"station_id":"","pricing_plan_id":"free"},{"bike_id":"3c740096-bd57-4695-aeaf-fe3c860104cc","system_id":"levelo_inurba_marseille","lat":43.289743,"lon":5.378304,"is_reserved":false,"is_disabled":false,"rental_uris":{"android":"levelo://app?vid=3c740096-bd57-4695-aeaf-fe3c860104cc","ios":"levelo://app?vid=3c740096-bd57-4695-aeaf-fe3c860104cc"},"vehicle_type_id":"4","last_reported":1706051217,"current_range_meters":21200,"station_id":"ce4bh9p2rcd13ifvqed0","pricing_plan_id":"free"},{"bike_id":"803f435c-f72f-4aca-a707-644537ea2758","system_id":"levelo_inurba_marseille","lat":43.28856,"lon":5.358371,"is_reserved":false,"is_disabled":false,"rental_uris":{"android":"levelo://app?vid=803f435c-f72f-4aca-a707-644537ea2758","ios":"levelo://app?vid=803f435c-f72f-4aca-a707-644537ea2758"},"vehicle_type_id":"4","last_reported":1706051217,"current_range_meters":8800,"station_id":"ce4bhb12rcd13ifvqem0","pricing_plan_id":"free"},{"bike_id":"2d23798b-72a4-4d14-8312-0b3cada91ff9","system_id":"levelo_inurba_marseille","lat":43.28856,"lon":5.358371,"is_reserved":false,"is_disabled":false,"rental_uris":{"android":"levelo://app?vid=2d23798b-72a4-4d14-8312-0b3cada91ff9","ios":"levelo://app?vid=2d23798b-72a4-4d14-8312-0b3cada91ff9"},"vehicle_type_id":"4","last_reported":1706051217,"current_range_meters":12400,"station_id":"ce4bhb12rcd13ifvqem0","pricing_plan_id":"free"},{"bike_id":"853b3efa-39b0-4289-bf04-6a71bf583114","system_id":"levelo_inurba_marseille","lat":43.28856,"lon":5.358371,"is_reserved":false,"is_disabled":false,"rental_uris":{"android":"levelo://app?vid=853b3efa-39b0-4289-bf04-6a71bf583114","ios":"levelo://app?vid=853b3efa-39b0-4289-bf04-6a71bf583114"},"vehicle_type_id":"4","last_reported":1706051217,"current_range_meters":28800,"station_id":"ce4bhb12rcd13ifvqem0","pricing_plan_id":"free"},{"bike_id":"1cc8b87d-c914-4364-925d-625b0e108ce5","system_id":"levelo_inurba_marseille","lat":43.28856,"lon":5.358371,"is_reserved":false,"is_disabled":false,"rental_uris":{"android":"levelo://app?vid=1cc8b87d-c914-4364-925d-625b0e108ce5","ios":"levelo://app?vid=1cc8b87d-c914-4364-925d-625b0e108ce5"},"vehicle_type_id":"4","last_reported":1706051217,"current_range_meters":18000,"station_id":"ce4bhb12rcd13ifvqem0","pricing_plan_id":"free"},{"bike_id":"59c1d8f8-d8ab-4b62-988f-4bfc524b1823","system_id":"levelo_inurba_marseille","lat":43.28856,"lon":5.358371,"is_reserved":false,"is_disabled":false,"rental_uris":{"android":"levelo://app?vid=59c1d8f8-d8ab-4b62-988f-4bfc524b1823","ios":"levelo://app?vid=59c1d8f8-d8ab-4b62-988f-4bfc524b1823"},"vehicle_type_id":"4","last_reported":1706051217,"current_range_meters":27600,"station_id":"ce4bhb12rcd13ifvqem0","pricing_plan_id":"free"},{"bike_id":"6f235fc1-706a-49b8-b9dd-1859f7eb91b4","system_id":"levelo_inurba_marseille","lat":43.28856,"lon":5.358371,"is_reserved":false,"is_disabled":false,"rental_uris":{"android":"levelo://app?vid=6f235fc1-706a-49b8-b9dd-1859f7eb91b4","ios":"levelo://app?vid=6f235fc1-706a-49b8-b9dd-1859f7eb91b4"},"vehicle_type_id":"4","last_reported":1706051217,"current_range_meters":3200,"station_id":"ce4bhb12rcd13ifvqem0","pricing_plan_id":"free"},{"bike_id":"acb7ac40-2d0f-496c-87a2-095502ed748c","system_id":"levelo_inurba_marseille","lat":43.28856,"lon":5.358371,"is_reserved":false,"is_disabled":false,"rental_uris":{"android":"levelo://app?vid=acb7ac40-2d0f-496c-87a2-095502ed748c","ios":"levelo://app?vid=acb7ac40-2d0f-496c-87a2-095502ed748c"},"vehicle_type_id":"4","last_reported":1706051217,"current_range_meters":16000,"station_id":"ce4bhb12rcd13ifvqem0","pricing_plan_id":"free"},{"bike_id":"7e350033-17c9-42c2-b62f-617a96d712ca","system_id":"levelo_inurba_marseille","lat":43.28856,"lon":5.358371,"is_reserved":false,"is_disabled":false,"rental_uris":{"android":"levelo://app?vid=7e350033-17c9-42c2-b62f-617a96d712ca","ios":"levelo://app?vid=7e350033-17c9-42c2-b62f-617a96d712ca"},"vehicle_type_id":"4","last_reported":1706051217,"current_range_meters":5200,"station_id":"ce4bhb12rcd13ifvqem0","pricing_plan_id":"free"},{"bike_id":"af038385-ef17-4511-b1ed-eae25e80acec","system_id":"levelo_inurba_marseille","lat":43.30287,"lon":5.39876,"is_reserved":false,"is_disabled":false,"rental_uris":{"android":"levelo://app?vid=af038385-ef17-4511-b1ed-eae25e80acec","ios":"levelo://app?vid=af038385-ef17-4511-b1ed-eae25e80acec"},"vehicle_type_id":"4","last_reported":1706051217,"current_range_meters":23200,"station_id":"","pricing_plan_id":"free"},{"bike_id":"66fff7a6-b42c-43ed-a95e-2a6313453dfe","system_id":"levelo_inurba_marseille","lat":43.312609,"lon":5.401662,"is_reserved":false,"is_disabled":false,"rental_uris":{"android":"levelo://app?vid=66fff7a6-b42c-43ed-a95e-2a6313453dfe","ios":"levelo://app?vid=66fff7a6-b42c-43ed-a95e-2a6313453dfe"},"vehicle_type_id":"4","last_reported":1706051217,"current_range_meters":31600,"station_id":"ce4bh092rcd13ifvqd30","pricing_plan_id":"free"},{"bike_id":"22ebb342-e9b1-472d-9bc6-674213140877","system_id":"levelo_inurba_marseille","lat":43.312808,"lon":5.40165,"is_reserved":false,"is_disabled":false,"rental_uris":{"android":"levelo://app?vid=22ebb342-e9b1-472d-9bc6-674213140877","ios":"levelo://app?vid=22ebb342-e9b1-472d-9bc6-674213140877"},"vehicle_type_id":"4","last_reported":1706051217,"current_range_meters":0,"station_id":"ce4bh092rcd13ifvqd30","pricing_plan_id":"free"},{"bike_id":"c4bce579-e593-411a-a243-d0cda52af56f","system_id":"levelo_inurba_marseille","lat":43.30934,"lon":5.4014,"is_reserved":false,"is_disabled":false,"rental_uris":{"android":"levelo://app?vid=c4bce579-e593-411a-a243-d0cda52af56f","ios":"levelo://app?vid=c4bce579-e593-411a-a243-d0cda52af56f"},"vehicle_type_id":"4","last_reported":1706051217,"current_range_meters":31200,"station_id":"ce4bgvp2rcd13ifvqct0","pricing_plan_id":"free"},{"bike_id":"79adac48-d322-4fbf-aad5-87b1fad5f3da","system_id":"levelo_inurba_marseille","lat":43.30938,"lon":5.40141,"is_reserved":false,"is_disabled":false,"rental_uris":{"android":"levelo://app?vid=79adac48-d322-4fbf-aad5-87b1fad5f3da","ios":"levelo://app?vid=79adac48-d322-4fbf-aad5-87b1fad5f3da"},"vehicle_type_id":"4","last_reported":1706051217,"current_range_meters":26000,"station_id":"ce4bgvp2rcd13ifvqct0","pricing_plan_id":"free"},{"bike_id":"63a86fe5-c548-4541-aa6d-1d021cfa5132","system_id":"levelo_inurba_marseille","lat":43.30937,"lon":5.40141,"is_reserved":false,"is_disabled":false,"rental_uris":{"android":"levelo://app?vid=63a86fe5-c548-4541-aa6d-1d021cfa5132","ios":"levelo://app?vid=63a86fe5-c548-4541-aa6d-1d021cfa5132"},"vehicle_type_id":"4","last_reported":1706051217,"current_range_meters":15600,"station_id":"ce4bgvp2rcd13ifvqct0","pricing_plan_id":"free"},{"bike_id":"f3f56574-0a42-4878-af96-716c32ca81b6","system_id":"levelo_inurba_marseille","lat":43.30646,"lon":5.400635,"is_reserved":false,"is_disabled":false,"rental_uris":{"android":"levelo://app?vid=f3f56574-0a42-4878-af96-716c32ca81b6","ios":"levelo://app?vid=f3f56574-0a42-4878-af96-716c32ca81b6"},"vehicle_type_id":"4","last_reported":1706051217,"current_range_meters":20000,"station_id":"ce4bh112rcd13ifvqda0","pricing_plan_id":"free"},{"bike_id":"f10c2919-ce8b-423d-a8ab-3bbe086a890f","system_id":"levelo_inurba_marseille","lat":43.312609,"lon":5.401662,"is_reserved":false,"is_disabled":false,"rental_uris":{"android":"levelo://app?vid=f10c2919-ce8b-423d-a8ab-3bbe086a890f","ios":"levelo://app?vid=f10c2919-ce8b-423d-a8ab-3bbe086a890f"},"vehicle_type_id":"4","last_reported":1706051217,"current_range_meters":400,"station_id":"ce4bh092rcd13ifvqd30","pricing_plan_id":"free"},{"bike_id":"a34238a9-ff4f-4a92-998f-cfb04a493314","system_id":"levelo_inurba_marseille","lat":43.309371,"lon":5.401449,"is_reserved":false,"is_disabled":false,"rental_uris":{"android":"levelo://app?vid=a34238a9-ff4f-4a92-998f-cfb04a493314","ios":"levelo://app?vid=a34238a9-ff4f-4a92-998f-cfb04a493314"},"vehicle_type_id":"4","last_reported":1706051217,"current_range_meters":4000,"station_id":"ce4bgvp2rcd13ifvqct0","pricing_plan_id":"free"},{"bike_id":"06615cb5-5415-4158-b957-814fa851f731","system_id":"levelo_inurba_marseille","lat":43.30648,"lon":5.40069,"is_reserved":false,"is_disabled":false,"rental_uris":{"android":"levelo://app?vid=06615cb5-5415-4158-b957-814fa851f731","ios":"levelo://app?vid=06615cb5-5415-4158-b957-814fa851f731"},"vehicle_type_id":"4","last_reported":1706051217,"current_range_meters":13600,"station_id":"ce4bh112rcd13ifvqda0","pricing_plan_id":"free"},{"bike_id":"17081a1f-9f97-4e9d-a26c-47c34541bc95","system_id":"levelo_inurba_marseille","lat":43.3064,"lon":5.400673,"is_reserved":false,"is_disabled":false,"rental_uris":{"android":"levelo://app?vid=17081a1f-9f97-4e9d-a26c-47c34541bc95","ios":"levelo://app?vid=17081a1f-9f97-4e9d-a26c-47c34541bc95"},"vehicle_type_id":"4","last_reported":1706051217,"current_range_meters":12400,"station_id":"ce4bh112rcd13ifvqda0","pricing_plan_id":"free"},{"bike_id":"9a602a2d-7df3-4b72-b347-abe477f1e4b6","system_id":"levelo_inurba_marseille","lat":43.306466,"lon":5.400703,"is_reserved":false,"is_disabled":false,"rental_uris":{"android":"levelo://app?vid=9a602a2d-7df3-4b72-b347-abe477f1e4b6","ios":"levelo://app?vid=9a602a2d-7df3-4b72-b347-abe477f1e4b6"},"vehicle_type_id":"4","last_reported":1706051217,"current_range_meters":6800,"station_id":"ce4bh112rcd13ifvqda0","pricing_plan_id":"free"},{"bike_id":"be33880d-3677-4715-b421-d910887dee7f","system_id":"levelo_inurba_marseille","lat":43.306522,"lon":5.400733,"is_reserved":false,"is_disabled":false,"rental_uris":{"android":"levelo://app?vid=be33880d-3677-4715-b421-d910887dee7f","ios":"levelo://app?vid=be33880d-3677-4715-b421-d910887dee7f"},"vehicle_type_id":"4","last_reported":1706051217,"current_range_meters":800,"station_id":"ce4bh112rcd13ifvqda0","pricing_plan_id":"free"},{"bike_id":"9e97375e-ad31-4261-8ad7-7b7fe5bf638f","system_id":"levelo_inurba_marseille","lat":43.306423,"lon":5.400703,"is_reserved":false,"is_disabled":false,"rental_uris":{"android":"levelo://app?vid=9e97375e-ad31-4261-8ad7-7b7fe5bf638f","ios":"levelo://app?vid=9e97375e-ad31-4261-8ad7-7b7fe5bf638f"},"vehicle_type_id":"4","last_reported":1706051217,"current_range_meters":9600,"station_id":"ce4bh112rcd13ifvqda0","pricing_plan_id":"free"},{"bike_id":"b4897c8c-c6f7-4a1a-b17b-462a0f9447d0","system_id":"levelo_inurba_marseille","lat":43.306412,"lon":5.401035,"is_reserved":false,"is_disabled":false,"rental_uris":{"android":"levelo://app?vid=b4897c8c-c6f7-4a1a-b17b-462a0f9447d0","ios":"levelo://app?vid=b4897c8c-c6f7-4a1a-b17b-462a0f9447d0"},"vehicle_type_id":"4","last_reported":1706051217,"current_range_meters":24000,"station_id":"ce4bh112rcd13ifvqda0","pricing_plan_id":"free"},{"bike_id":"9e3eb807-cb13-443b-ae09-22ddbd6033f2","system_id":"levelo_inurba_marseille","lat":43.306412,"lon":5.401035,"is_reserved":false,"is_disabled":false,"rental_uris":{"android":"levelo://app?vid=9e3eb807-cb13-443b-ae09-22ddbd6033f2","ios":"levelo://app?vid=9e3eb807-cb13-443b-ae09-22ddbd6033f2"},"vehicle_type_id":"4","last_reported":1706051217,"current_range_meters":22000,"station_id":"ce4bh112rcd13ifvqda0","pricing_plan_id":"free"},{"bike_id":"a493c45e-deed-4f05-b9df-b6bb1af98b07","system_id":"levelo_inurba_marseille","lat":43.306296,"lon":5.400789,"is_reserved":false,"is_disabled":false,"rental_uris":{"android":"levelo://app?vid=a493c45e-deed-4f05-b9df-b6bb1af98b07","ios":"levelo://app?vid=a493c45e-deed-4f05-b9df-b6bb1af98b07"},"vehicle_type_id":"4","last_reported":1706051217,"current_range_meters":8800,"station_id":"ce4bh112rcd13ifvqda0","pricing_plan_id":"free"},{"bike_id":"d13ed38d-1338-4715-b3a8-e7cc2cbae523","system_id":"levelo_inurba_marseille","lat":43.337618,"lon":5.374518,"is_reserved":false,"is_disabled":false,"rental_uris":{"android":"levelo://app?vid=d13ed38d-1338-4715-b3a8-e7cc2cbae523","ios":"levelo://app?vid=d13ed38d-1338-4715-b3a8-e7cc2cbae523"},"vehicle_type_id":"4","last_reported":1706051217,"current_range_meters":26400,"station_id":"","pricing_plan_id":"free"},{"bike_id":"7907df9e-3038-4b55-8536-3679a3e9eb9a","system_id":"levelo_inurba_marseille","lat":43.306412,"lon":5.401035,"is_reserved":false,"is_disabled":false,"rental_uris":{"android":"levelo://app?vid=7907df9e-3038-4b55-8536-3679a3e9eb9a","ios":"levelo://app?vid=7907df9e-3038-4b55-8536-3679a3e9eb9a"},"vehicle_type_id":"4","last_reported":1706051217,"current_range_meters":4800,"station_id":"ce4bh112rcd13ifvqda0","pricing_plan_id":"free"},{"bike_id":"3e207e3e-8d7d-4594-9d90-f200b790bedc","system_id":"levelo_inurba_marseille","lat":43.306337,"lon":5.400857,"is_reserved":false,"is_disabled":false,"rental_uris":{"android":"levelo://app?vid=3e207e3e-8d7d-4594-9d90-f200b790bedc","ios":"levelo://app?vid=3e207e3e-8d7d-4594-9d90-f200b790bedc"},"vehicle_type_id":"4","last_reported":1706051217,"current_range_meters":6000,"station_id":"ce4bh112rcd13ifvqda0","pricing_plan_id":"free"},{"bike_id":"6dfa28fd-3af0-45de-8d54-3e201eb4df17","system_id":"levelo_inurba_marseille","lat":43.306412,"lon":5.401035,"is_reserved":false,"is_disabled":false,"rental_uris":{"android":"levelo://app?vid=6dfa28fd-3af0-45de-8d54-3e201eb4df17","ios":"levelo://app?vid=6dfa28fd-3af0-45de-8d54-3e201eb4df17"},"vehicle_type_id":"4","last_reported":1706051217,"current_range_meters":5600,"station_id":"ce4bh112rcd13ifvqda0","pricing_plan_id":"free"},{"bike_id":"8b894521-1a30-4078-ab48-f86b65b9874e","system_id":"levelo_inurba_marseille","lat":43.33768,"lon":5.37479,"is_reserved":false,"is_disabled":false,"rental_uris":{"android":"levelo://app?vid=8b894521-1a30-4078-ab48-f86b65b9874e","ios":"levelo://app?vid=8b894521-1a30-4078-ab48-f86b65b9874e"},"vehicle_type_id":"4","last_reported":1706051217,"current_range_meters":23600,"station_id":"","pricing_plan_id":"free"},{"bike_id":"19f51fbb-06a9-4724-97c1-b02c1b65ffde","system_id":"levelo_inurba_marseille","lat":43.33768,"lon":5.37488,"is_reserved":false,"is_disabled":false,"rental_uris":{"android":"levelo://app?vid=19f51fbb-06a9-4724-97c1-b02c1b65ffde","ios":"levelo://app?vid=19f51fbb-06a9-4724-97c1-b02c1b65ffde"},"vehicle_type_id":"4","last_reported":1706051217,"current_range_meters":21200,"station_id":"","pricing_plan_id":"free"},{"bike_id":"9ccd64a4-071b-45a2-b409-77b7cd74ba22","system_id":"levelo_inurba_marseille","lat":43.30137,"lon":5.39865,"is_reserved":false,"is_disabled":false,"rental_uris":{"android":"levelo://app?vid=9ccd64a4-071b-45a2-b409-77b7cd74ba22","ios":"levelo://app?vid=9ccd64a4-071b-45a2-b409-77b7cd74ba22"},"vehicle_type_id":"4","last_reported":1706051217,"current_range_meters":4000,"station_id":"ce4bh0h2rcd13ifvqd40","pricing_plan_id":"free"},{"bike_id":"5d5e716e-af5c-476e-a250-c81d170c08b4","system_id":"levelo_inurba_marseille","lat":43.301117,"lon":5.398795,"is_reserved":false,"is_disabled":false,"rental_uris":{"android":"levelo://app?vid=5d5e716e-af5c-476e-a250-c81d170c08b4","ios":"levelo://app?vid=5d5e716e-af5c-476e-a250-c81d170c08b4"},"vehicle_type_id":"4","last_reported":1706051217,"current_range_meters":0,"station_id":"ce4bh0h2rcd13ifvqd40","pricing_plan_id":"free"},{"bike_id":"0c8ea0d4-8699-45e8-9f5b-6d299875192f","system_id":"levelo_inurba_marseille","lat":43.28727,"lon":5.36078,"is_reserved":false,"is_disabled":false,"rental_uris":{"android":"levelo://app?vid=0c8ea0d4-8699-45e8-9f5b-6d299875192f","ios":"levelo://app?vid=0c8ea0d4-8699-45e8-9f5b-6d299875192f"},"vehicle_type_id":"4","last_reported":1706051217,"current_range_meters":19600,"station_id":"cki0cbj6b192h4jlfktg","pricing_plan_id":"free"},{"bike_id":"399b7936-578d-4c3e-b995-2b0e8c6c7d9d","system_id":"levelo_inurba_marseille","lat":43.28727,"lon":5.36078,"is_reserved":false,"is_disabled":false,"rental_uris":{"android":"levelo://app?vid=399b7936-578d-4c3e-b995-2b0e8c6c7d9d","ios":"levelo://app?vid=399b7936-578d-4c3e-b995-2b0e8c6c7d9d"},"vehicle_type_id":"4","last_reported":1706051217,"current_range_meters":10000,"station_id":"cki0cbj6b192h4jlfktg","pricing_plan_id":"free"},{"bike_id":"98278856-d083-43fc-a3dc-b34347b41bda","system_id":"levelo_inurba_marseille","lat":43.28727,"lon":5.36078,"is_reserved":false,"is_disabled":false,"rental_uris":{"android":"levelo://app?vid=98278856-d083-43fc-a3dc-b34347b41bda","ios":"levelo://app?vid=98278856-d083-43fc-a3dc-b34347b41bda"},"vehicle_type_id":"4","last_reported":1706051217,"current_range_meters":6800,"station_id":"cki0cbj6b192h4jlfktg","pricing_plan_id":"free"},{"bike_id":"c0826c06-002c-4390-9f82-cf174a3bed05","system_id":"levelo_inurba_marseille","lat":43.28727,"lon":5.36078,"is_reserved":false,"is_disabled":false,"rental_uris":{"android":"levelo://app?vid=c0826c06-002c-4390-9f82-cf174a3bed05","ios":"levelo://app?vid=c0826c06-002c-4390-9f82-cf174a3bed05"},"vehicle_type_id":"4","last_reported":1706051217,"current_range_meters":18800,"station_id":"cki0cbj6b192h4jlfktg","pricing_plan_id":"free"},{"bike_id":"2ec9fdc9-5dc6-4af7-b21a-2efb99afcbe4","system_id":"levelo_inurba_marseille","lat":43.28727,"lon":5.36078,"is_reserved":false,"is_disabled":false,"rental_uris":{"android":"levelo://app?vid=2ec9fdc9-5dc6-4af7-b21a-2efb99afcbe4","ios":"levelo://app?vid=2ec9fdc9-5dc6-4af7-b21a-2efb99afcbe4"},"vehicle_type_id":"4","last_reported":1706051217,"current_range_meters":22000,"station_id":"cki0cbj6b192h4jlfktg","pricing_plan_id":"free"},{"bike_id":"58d8d4da-7932-4f7b-955e-4156c5c768dd","system_id":"levelo_inurba_marseille","lat":43.28727,"lon":5.36078,"is_reserved":false,"is_disabled":false,"rental_uris":{"android":"levelo://app?vid=58d8d4da-7932-4f7b-955e-4156c5c768dd","ios":"levelo://app?vid=58d8d4da-7932-4f7b-955e-4156c5c768dd"},"vehicle_type_id":"4","last_reported":1706051217,"current_range_meters":7600,"station_id":"cki0cbj6b192h4jlfktg","pricing_plan_id":"free"},{"bike_id":"38344fa7-f60d-4904-88e1-73eaf3e53887","system_id":"levelo_inurba_marseille","lat":43.28727,"lon":5.36078,"is_reserved":false,"is_disabled":false,"rental_uris":{"android":"levelo://app?vid=38344fa7-f60d-4904-88e1-73eaf3e53887","ios":"levelo://app?vid=38344fa7-f60d-4904-88e1-73eaf3e53887"},"vehicle_type_id":"4","last_reported":1706051217,"current_range_meters":8000,"station_id":"cki0cbj6b192h4jlfktg","pricing_plan_id":"free"},{"bike_id":"d093fd52-8335-4932-ab34-38748d421a9f","system_id":"levelo_inurba_marseille","lat":43.28721,"lon":5.36096,"is_reserved":false,"is_disabled":false,"rental_uris":{"android":"levelo://app?vid=d093fd52-8335-4932-ab34-38748d421a9f","ios":"levelo://app?vid=d093fd52-8335-4932-ab34-38748d421a9f"},"vehicle_type_id":"4","last_reported":1706051217,"current_range_meters":21600,"station_id":"cki0cbj6b192h4jlfktg","pricing_plan_id":"free"},{"bike_id":"badd1cb2-1cf5-4513-b016-6b69513340c1","system_id":"levelo_inurba_marseille","lat":43.298681,"lon":5.397225,"is_reserved":false,"is_disabled":false,"rental_uris":{"android":"levelo://app?vid=badd1cb2-1cf5-4513-b016-6b69513340c1","ios":"levelo://app?vid=badd1cb2-1cf5-4513-b016-6b69513340c1"},"vehicle_type_id":"4","last_reported":1706051217,"current_range_meters":30400,"station_id":"ce4bh0h2rcd13ifvqd50","pricing_plan_id":"free"},{"bike_id":"e0afe9f1-9b58-4e0a-8133-7cb5582618ba","system_id":"levelo_inurba_marseille","lat":43.298681,"lon":5.397225,"is_reserved":false,"is_disabled":false,"rental_uris":{"android":"levelo://app?vid=e0afe9f1-9b58-4e0a-8133-7cb5582618ba","ios":"levelo://app?vid=e0afe9f1-9b58-4e0a-8133-7cb5582618ba"},"vehicle_type_id":"4","last_reported":1706051217,"current_range_meters":19200,"station_id":"ce4bh0h2rcd13ifvqd50","pricing_plan_id":"free"},{"bike_id":"9e0556e2-969a-442b-bf64-2431d657c4bb","system_id":"levelo_inurba_marseille","lat":43.298681,"lon":5.397225,"is_reserved":false,"is_disabled":false,"rental_uris":{"android":"levelo://app?vid=9e0556e2-969a-442b-bf64-2431d657c4bb","ios":"levelo://app?vid=9e0556e2-969a-442b-bf64-2431d657c4bb"},"vehicle_type_id":"4","last_reported":1706051217,"current_range_meters":26400,"station_id":"ce4bh0h2rcd13ifvqd50","pricing_plan_id":"free"},{"bike_id":"f3dcd3e1-b91a-4be7-a6ea-b0f2a4ae0175","system_id":"levelo_inurba_marseille","lat":43.298845,"lon":5.397365,"is_reserved":false,"is_disabled":false,"rental_uris":{"android":"levelo://app?vid=f3dcd3e1-b91a-4be7-a6ea-b0f2a4ae0175","ios":"levelo://app?vid=f3dcd3e1-b91a-4be7-a6ea-b0f2a4ae0175"},"vehicle_type_id":"4","last_reported":1706051217,"current_range_meters":0,"station_id":"ce4bh0h2rcd13ifvqd50","pricing_plan_id":"free"},{"bike_id":"19ffc743-5767-458d-a1ec-a7c46f57abc1","system_id":"levelo_inurba_marseille","lat":43.286591,"lon":5.363346,"is_reserved":false,"is_disabled":false,"rental_uris":{"android":"levelo://app?vid=19ffc743-5767-458d-a1ec-a7c46f57abc1","ios":"levelo://app?vid=19ffc743-5767-458d-a1ec-a7c46f57abc1"},"vehicle_type_id":"4","last_reported":1706051217,"current_range_meters":16000,"station_id":"ce4bhah2rcd13ifvqej0","pricing_plan_id":"free"},{"bike_id":"cb00a1a8-2274-48fe-ab1c-d71d9e89889e","system_id":"levelo_inurba_marseille","lat":43.286591,"lon":5.363346,"is_reserved":false,"is_disabled":false,"rental_uris":{"android":"levelo://app?vid=cb00a1a8-2274-48fe-ab1c-d71d9e89889e","ios":"levelo://app?vid=cb00a1a8-2274-48fe-ab1c-d71d9e89889e"},"vehicle_type_id":"4","last_reported":1706051217,"current_range_meters":1200,"station_id":"ce4bhah2rcd13ifvqej0","pricing_plan_id":"free"},{"bike_id":"9d890b3b-ccd4-44d1-9114-e71989f24b2e","system_id":"levelo_inurba_marseille","lat":43.2867,"lon":5.36353,"is_reserved":false,"is_disabled":false,"rental_uris":{"android":"levelo://app?vid=9d890b3b-ccd4-44d1-9114-e71989f24b2e","ios":"levelo://app?vid=9d890b3b-ccd4-44d1-9114-e71989f24b2e"},"vehicle_type_id":"4","last_reported":1706051217,"current_range_meters":9600,"station_id":"ce4bhah2rcd13ifvqej0","pricing_plan_id":"free"},{"bike_id":"767c0d64-3d59-453a-a3a5-2f0bb0920430","system_id":"levelo_inurba_marseille","lat":43.286591,"lon":5.363346,"is_reserved":false,"is_disabled":false,"rental_uris":{"android":"levelo://app?vid=767c0d64-3d59-453a-a3a5-2f0bb0920430","ios":"levelo://app?vid=767c0d64-3d59-453a-a3a5-2f0bb0920430"},"vehicle_type_id":"4","last_reported":1706051217,"current_range_meters":2000,"station_id":"ce4bhah2rcd13ifvqej0","pricing_plan_id":"free"},{"bike_id":"69c32e18-571c-4b95-b5de-2f94894e4be9","system_id":"levelo_inurba_marseille","lat":43.298681,"lon":5.397225,"is_reserved":false,"is_disabled":false,"rental_uris":{"android":"levelo://app?vid=69c32e18-571c-4b95-b5de-2f94894e4be9","ios":"levelo://app?vid=69c32e18-571c-4b95-b5de-2f94894e4be9"},"vehicle_type_id":"4","last_reported":1706051217,"current_range_meters":31200,"station_id":"ce4bh0h2rcd13ifvqd50","pricing_plan_id":"free"},{"bike_id":"1dcc87b0-b1a6-4ffe-845f-937b8f493392","system_id":"levelo_inurba_marseille","lat":43.286591,"lon":5.363346,"is_reserved":false,"is_disabled":false,"rental_uris":{"android":"levelo://app?vid=1dcc87b0-b1a6-4ffe-845f-937b8f493392","ios":"levelo://app?vid=1dcc87b0-b1a6-4ffe-845f-937b8f493392"},"vehicle_type_id":"4","last_reported":1706051217,"current_range_meters":22800,"station_id":"ce4bhah2rcd13ifvqej0","pricing_plan_id":"free"},{"bike_id":"4ff0019a-17d2-4c5d-b9e0-701b63e93346","system_id":"levelo_inurba_marseille","lat":43.286591,"lon":5.363346,"is_reserved":false,"is_disabled":false,"rental_uris":{"android":"levelo://app?vid=4ff0019a-17d2-4c5d-b9e0-701b63e93346","ios":"levelo://app?vid=4ff0019a-17d2-4c5d-b9e0-701b63e93346"},"vehicle_type_id":"4","last_reported":1706051217,"current_range_meters":4000,"station_id":"ce4bhah2rcd13ifvqej0","pricing_plan_id":"free"},{"bike_id":"4fb9236b-2371-4f83-8ba5-8601d4f7a828","system_id":"levelo_inurba_marseille","lat":43.298681,"lon":5.397225,"is_reserved":false,"is_disabled":false,"rental_uris":{"android":"levelo://app?vid=4fb9236b-2371-4f83-8ba5-8601d4f7a828","ios":"levelo://app?vid=4fb9236b-2371-4f83-8ba5-8601d4f7a828"},"vehicle_type_id":"4","last_reported":1706051217,"current_range_meters":16000,"station_id":"ce4bh0h2rcd13ifvqd50","pricing_plan_id":"free"},{"bike_id":"51573c6e-d598-4584-be99-6187578a54ed","system_id":"levelo_inurba_marseille","lat":43.286591,"lon":5.363346,"is_reserved":false,"is_disabled":false,"rental_uris":{"android":"levelo://app?vid=51573c6e-d598-4584-be99-6187578a54ed","ios":"levelo://app?vid=51573c6e-d598-4584-be99-6187578a54ed"},"vehicle_type_id":"4","last_reported":1706051217,"current_range_meters":9200,"station_id":"ce4bhah2rcd13ifvqej0","pricing_plan_id":"free"},{"bike_id":"9102473f-9c79-41f0-b318-80d31a6a4425","system_id":"levelo_inurba_marseille","lat":43.286593,"lon":5.363346,"is_reserved":false,"is_disabled":false,"rental_uris":{"android":"levelo://app?vid=9102473f-9c79-41f0-b318-80d31a6a4425","ios":"levelo://app?vid=9102473f-9c79-41f0-b318-80d31a6a4425"},"vehicle_type_id":"4","last_reported":1706051217,"current_range_meters":22800,"station_id":"ce4bhah2rcd13ifvqej0","pricing_plan_id":"free"},{"bike_id":"9c666899-ff31-43ef-8088-c51c023daf85","system_id":"levelo_inurba_marseille","lat":43.28664,"lon":5.36366,"is_reserved":false,"is_disabled":false,"rental_uris":{"android":"levelo://app?vid=9c666899-ff31-43ef-8088-c51c023daf85","ios":"levelo://app?vid=9c666899-ff31-43ef-8088-c51c023daf85"},"vehicle_type_id":"4","last_reported":1706051217,"current_range_meters":20800,"station_id":"ce4bhah2rcd13ifvqej0","pricing_plan_id":"free"},{"bike_id":"aa91ffc7-1294-4867-b717-f8674e2e29a1","system_id":"levelo_inurba_marseille","lat":43.28702,"lon":5.37392,"is_reserved":false,"is_disabled":false,"rental_uris":{"android":"levelo://app?vid=aa91ffc7-1294-4867-b717-f8674e2e29a1","ios":"levelo://app?vid=aa91ffc7-1294-4867-b717-f8674e2e29a1"},"vehicle_type_id":"4","last_reported":1706051217,"current_range_meters":6000,"station_id":"ce4bh3p2rcd13ifvqdq0","pricing_plan_id":"free"},{"bike_id":"75ab718d-0f01-4846-881b-58bc141cf4c2","system_id":"levelo_inurba_marseille","lat":43.286997,"lon":5.373887,"is_reserved":false,"is_disabled":false,"rental_uris":{"android":"levelo://app?vid=75ab718d-0f01-4846-881b-58bc141cf4c2","ios":"levelo://app?vid=75ab718d-0f01-4846-881b-58bc141cf4c2"},"vehicle_type_id":"4","last_reported":1706051217,"current_range_meters":18000,"station_id":"ce4bh3p2rcd13ifvqdq0","pricing_plan_id":"free"},{"bike_id":"da8872cf-7463-43d3-bbc6-fe7c861651ca","system_id":"levelo_inurba_marseille","lat":43.298681,"lon":5.397225,"is_reserved":false,"is_disabled":false,"rental_uris":{"android":"levelo://app?vid=da8872cf-7463-43d3-bbc6-fe7c861651ca","ios":"levelo://app?vid=da8872cf-7463-43d3-bbc6-fe7c861651ca"},"vehicle_type_id":"4","last_reported":1706051217,"current_range_meters":26400,"station_id":"ce4bh0h2rcd13ifvqd50","pricing_plan_id":"free"},{"bike_id":"a56e53af-f62f-4296-b51a-752901ed4749","system_id":"levelo_inurba_marseille","lat":43.298681,"lon":5.397225,"is_reserved":false,"is_disabled":false,"rental_uris":{"android":"levelo://app?vid=a56e53af-f62f-4296-b51a-752901ed4749","ios":"levelo://app?vid=a56e53af-f62f-4296-b51a-752901ed4749"},"vehicle_type_id":"4","last_reported":1706051217,"current_range_meters":24000,"station_id":"ce4bh0h2rcd13ifvqd50","pricing_plan_id":"free"},{"bike_id":"dee1eedb-75be-497c-9da5-38cc601dd8c4","system_id":"levelo_inurba_marseille","lat":43.289307,"lon":5.38406,"is_reserved":false,"is_disabled":false,"rental_uris":{"android":"levelo://app?vid=dee1eedb-75be-497c-9da5-38cc601dd8c4","ios":"levelo://app?vid=dee1eedb-75be-497c-9da5-38cc601dd8c4"},"vehicle_type_id":"4","last_reported":1706051217,"current_range_meters":22400,"station_id":"ce4bh612rcd13ifvqe6g","pricing_plan_id":"free"},{"bike_id":"b18f0412-f014-40b6-acc2-a81c16cd588a","system_id":"levelo_inurba_marseille","lat":43.289307,"lon":5.38406,"is_reserved":false,"is_disabled":false,"rental_uris":{"android":"levelo://app?vid=b18f0412-f014-40b6-acc2-a81c16cd588a","ios":"levelo://app?vid=b18f0412-f014-40b6-acc2-a81c16cd588a"},"vehicle_type_id":"4","last_reported":1706051217,"current_range_meters":6800,"station_id":"ce4bh612rcd13ifvqe6g","pricing_plan_id":"free"},{"bike_id":"3655f821-97f2-43b0-8583-eb8a32af0530","system_id":"levelo_inurba_marseille","lat":43.286039,"lon":5.370679,"is_reserved":false,"is_disabled":false,"rental_uris":{"android":"levelo://app?vid=3655f821-97f2-43b0-8583-eb8a32af0530","ios":"levelo://app?vid=3655f821-97f2-43b0-8583-eb8a32af0530"},"vehicle_type_id":"4","last_reported":1706051217,"current_range_meters":30000,"station_id":"ce4bht12rcd13ifvqi60","pricing_plan_id":"free"},{"bike_id":"9548b0d5-5153-4324-9a32-a2cc03b77e0b","system_id":"levelo_inurba_marseille","lat":43.287184,"lon":5.37937,"is_reserved":false,"is_disabled":false,"rental_uris":{"android":"levelo://app?vid=9548b0d5-5153-4324-9a32-a2cc03b77e0b","ios":"levelo://app?vid=9548b0d5-5153-4324-9a32-a2cc03b77e0b"},"vehicle_type_id":"4","last_reported":1706051217,"current_range_meters":13200,"station_id":"ce4bh9p2rcd13ifvqec0","pricing_plan_id":"free"},{"bike_id":"772ae5a0-242d-4ee1-afd0-adda20fd95d1","system_id":"levelo_inurba_marseille","lat":43.287184,"lon":5.37937,"is_reserved":false,"is_disabled":false,"rental_uris":{"android":"levelo://app?vid=772ae5a0-242d-4ee1-afd0-adda20fd95d1","ios":"levelo://app?vid=772ae5a0-242d-4ee1-afd0-adda20fd95d1"},"vehicle_type_id":"4","last_reported":1706051217,"current_range_meters":15600,"station_id":"ce4bh9p2rcd13ifvqec0","pricing_plan_id":"free"},{"bike_id":"ddcf175c-9fe6-4ad7-a1e3-acbbc7e7cdba","system_id":"levelo_inurba_marseille","lat":43.290869,"lon":5.390166,"is_reserved":false,"is_disabled":false,"rental_uris":{"android":"levelo://app?vid=ddcf175c-9fe6-4ad7-a1e3-acbbc7e7cdba","ios":"levelo://app?vid=ddcf175c-9fe6-4ad7-a1e3-acbbc7e7cdba"},"vehicle_type_id":"4","last_reported":1706051217,"current_range_meters":5200,"station_id":"","pricing_plan_id":"free"},{"bike_id":"69407742-f963-405a-aa74-245257c722f6","system_id":"levelo_inurba_marseille","lat":43.316828,"lon":5.404723,"is_reserved":false,"is_disabled":false,"rental_uris":{"android":"levelo://app?vid=69407742-f963-405a-aa74-245257c722f6","ios":"levelo://app?vid=69407742-f963-405a-aa74-245257c722f6"},"vehicle_type_id":"4","last_reported":1706051217,"current_range_meters":3600,"station_id":"ce4bh012rcd13ifvqd00","pricing_plan_id":"free"},{"bike_id":"6e93c2b9-4080-4cff-a85d-1f143d588969","system_id":"levelo_inurba_marseille","lat":43.291994,"lon":5.392907,"is_reserved":false,"is_disabled":false,"rental_uris":{"android":"levelo://app?vid=6e93c2b9-4080-4cff-a85d-1f143d588969","ios":"levelo://app?vid=6e93c2b9-4080-4cff-a85d-1f143d588969"},"vehicle_type_id":"4","last_reported":1706051217,"current_range_meters":22400,"station_id":"ce4bh192rcd13ifvqdd0","pricing_plan_id":"free"},{"bike_id":"70948f58-0c20-4cf4-9409-38f435a8fe8c","system_id":"levelo_inurba_marseille","lat":43.291994,"lon":5.392907,"is_reserved":false,"is_disabled":false,"rental_uris":{"android":"levelo://app?vid=70948f58-0c20-4cf4-9409-38f435a8fe8c","ios":"levelo://app?vid=70948f58-0c20-4cf4-9409-38f435a8fe8c"},"vehicle_type_id":"4","last_reported":1706051217,"current_range_meters":1200,"station_id":"ce4bh192rcd13ifvqdd0","pricing_plan_id":"free"},{"bike_id":"7e2d53de-7890-42ca-8c11-141b4ad63b87","system_id":"levelo_inurba_marseille","lat":43.292,"lon":5.39316,"is_reserved":false,"is_disabled":false,"rental_uris":{"android":"levelo://app?vid=7e2d53de-7890-42ca-8c11-141b4ad63b87","ios":"levelo://app?vid=7e2d53de-7890-42ca-8c11-141b4ad63b87"},"vehicle_type_id":"4","last_reported":1706051217,"current_range_meters":0,"station_id":"ce4bh192rcd13ifvqdd0","pricing_plan_id":"free"},{"bike_id":"e89c46d0-56c5-4e25-8ae9-1e4b1bff0351","system_id":"levelo_inurba_marseille","lat":43.291994,"lon":5.392907,"is_reserved":false,"is_disabled":false,"rental_uris":{"android":"levelo://app?vid=e89c46d0-56c5-4e25-8ae9-1e4b1bff0351","ios":"levelo://app?vid=e89c46d0-56c5-4e25-8ae9-1e4b1bff0351"},"vehicle_type_id":"4","last_reported":1706051217,"current_range_meters":16800,"station_id":"ce4bh192rcd13ifvqdd0","pricing_plan_id":"free"},{"bike_id":"d2314da2-5448-4468-b395-5a3e39354626","system_id":"levelo_inurba_marseille","lat":43.284538,"lon":5.358657,"is_reserved":false,"is_disabled":false,"rental_uris":{"android":"levelo://app?vid=d2314da2-5448-4468-b395-5a3e39354626","ios":"levelo://app?vid=d2314da2-5448-4468-b395-5a3e39354626"},"vehicle_type_id":"4","last_reported":1706051217,"current_range_meters":14400,"station_id":"ce4bhah2rcd13ifvqei0","pricing_plan_id":"free"},{"bike_id":"3abbb022-b716-413e-af30-b379d1924965","system_id":"levelo_inurba_marseille","lat":43.284538,"lon":5.358657,"is_reserved":false,"is_disabled":false,"rental_uris":{"android":"levelo://app?vid=3abbb022-b716-413e-af30-b379d1924965","ios":"levelo://app?vid=3abbb022-b716-413e-af30-b379d1924965"},