{"last_updated":1737792659,"ttl":60,"version":"2.2","data":{"bikes":[{"bike_id":"0e07a6ae-d17e-42fa-9ec3-4f7a623f0735","system_id":"levelo_inurba_marseille","lat":43.27371,"lon":5.36255,"is_reserved":false,"is_disabled":false,"rental_uris":{"android":"levelo://app?vid=0e07a6ae-d17e-42fa-9ec3-4f7a623f0735","ios":"levelo://app?vid=0e07a6ae-d17e-42fa-9ec3-4f7a623f0735"},"vehicle_type_id":"4","last_reported":1737792659,"current_range_meters":38800,"station_id":"ce4bhbh2rcd13ifvqeo0","pricing_plan_id":"cebpf4jnsgd1na2vs0mg"},{"bike_id":"e9b432c9-0e9b-4c3d-93df-1767c2ca5cf8","system_id":"levelo_inurba_marseille","lat":43.29628,"lon":5.40609,"is_reserved":false,"is_disabled":false,"rental_uris":{"android":"levelo://app?vid=e9b432c9-0e9b-4c3d-93df-1767c2ca5cf8","ios":"levelo://app?vid=e9b432c9-0e9b-4c3d-93df-1767c2ca5cf8"},"vehicle_type_id":"4","last_reported":1737792659,"current_range_meters":39200,"station_id":"ce4bh0h2rcd13ifvqd60","pricing_plan_id":"cebpf4jnsgd1na2vs0mg"},{"bike_id":"cd72321d-b559-4772-875f-9368c2e532b3","system_id":"levelo_inurba_marseille","lat":43.29573,"lon":5.37502,"is_reserved":false,"is_disabled":true,"rental_uris":{"android":"levelo://app?vid=cd72321d-b559-4772-875f-9368c2e532b3","ios":"levelo://app?vid=cd72321d-b559-4772-875f-9368c2e532b3"},"vehicle_type_id":"4","last_reported":1737792659,"current_range_meters":36800,"station_id":"ce4bgh92rcd13ifvqb50","pricing_plan_id":"cebpf4jnsgd1na2vs0mg"},{"bike_id":"22fdda07-29f7-4097-aa7c-457566d3caba","system_id":"levelo_inurba_marseille","lat":43.25052,"lon":5.39555,"is_reserved":false,"is_disabled":false,"rental_uris":{"android":"levelo://app?vid=22fdda07-29f7-4097-aa7c-457566d3caba","ios":"levelo://app?vid=22fdda07-29f7-4097-aa7c-457566d3caba"},"vehicle_type_id":"4","last_reported":1737792659,"current_range_meters":30400,"station_id":"","pricing_plan_id":"cebpf4jnsgd1na2vs0mg"},{"bike_id":"ccb58490-949f-4ed7-b0ed-dc2b5267d3cb","system_id":"levelo_inurba_marseille","lat":43.24395,"lon":5.37036,"is_reserved":false,"is_disabled":false,"rental_uris":{"android":"levelo://app?vid=ccb58490-949f-4ed7-b0ed-dc2b5267d3cb","ios":"levelo://app?vid=ccb58490-949f-4ed7-b0ed-dc2b5267d3cb"},"vehicle_type_id":"4","last_reported":1737792659,"current_range_meters":38800,"station_id":"ce4bhhh2rcd13ifvqfk0","pricing_plan_id":"cebpf4jnsgd1na2vs0mg"},{"bike_id":"8a629989-8739-4b2f-b493-9c49dbd0bbd8","system_id":"levelo_inurba_marseille","lat":43.28722,"lon":5.36104,"is_reserved":false,"is_disabled":false,"rental_uris":{"android":"levelo://app?vid=8a629989-8739-4b2f-b493-9c49dbd0bbd8","ios":"levelo://app?vid=8a629989-8739-4b2f-b493-9c49dbd0bbd8"},"vehicle_type_id":"4","last_reported":1737792659,"current_range_meters":23200,"station_id":"cki0cbj6b192h4jlfktg","pricing_plan_id":"cebpf4jnsgd1na2vs0mg"},{"bike_id":"58d9e3df-28a3-4560-b2cd-4d33fefbd544","system_id":"levelo_inurba_marseille","lat":43.28339,"lon":5.38117,"is_reserved":false,"is_disabled":true,"rental_uris":{"android":"levelo://app?vid=58d9e3df-28a3-4560-b2cd-4d33fefbd544","ios":"levelo://app?vid=58d9e3df-28a3-4560-b2cd-4d33fefbd544"},"vehicle_type_id":"4","last_reported":1737792659,"current_range_meters":23200,"station_id":"ce4bh412rcd13ifvqdr0","pricing_plan_id":"cebpf4jnsgd1na2vs0mg"},{"bike_id":"0793f05d-0029-4d54-a0fe-9c0436426db5","system_id":"levelo_inurba_marseille","lat":43.23198,"lon":5.35562,"is_reserved":false,"is_disabled":false,"rental_uris":{"android":"levelo://app?vid=0793f05d-0029-4d54-a0fe-9c0436426db5","ios":"levelo://app?vid=0793f05d-0029-4d54-a0fe-9c0436426db5"},"vehicle_type_id":"4","last_reported":1737792659,"current_range_meters":38800,"station_id":"ce4bhu92rcd13ifvqi70","pricing_plan_id":"cebpf4jnsgd1na2vs0mg"},{"bike_id":"2e69219e-a32a-45dd-bfbe-a39a3389fa1c","system_id":"levelo_inurba_marseille","lat":43.25088,"lon":5.39497,"is_reserved":false,"is_disabled":false,"rental_uris":{"android":"levelo://app?vid=2e69219e-a32a-45dd-bfbe-a39a3389fa1c","ios":"levelo://app?vid=2e69219e-a32a-45dd-bfbe-a39a3389fa1c"},"vehicle_type_id":"4","last_reported":1737792659,"current_range_meters":5600,"station_id":"ce4bhm12rcd13ifvqgkg","pricing_plan_id":"cebpf4jnsgd1na2vs0mg"},{"bike_id":"4914872c-162c-4b5d-a9af-cff65f389580","system_id":"levelo_inurba_marseille","lat":43.29616,"lon":5.38103,"is_reserved":false,"is_disabled":true,"rental_uris":{"android":"levelo://app?vid=4914872c-162c-4b5d-a9af-cff65f389580","ios":"levelo://app?vid=4914872c-162c-4b5d-a9af-cff65f389580"},"vehicle_type_id":"4","last_reported":1737792659,"current_range_meters":800,"station_id":"ce4bgl12rcd13ifvqbo0","pricing_plan_id":"cebpf4jnsgd1na2vs0mg"},{"bike_id":"f19dc989-9b1f-48ea-abf9-5fac135f6a39","system_id":"levelo_inurba_marseille","lat":43.28261,"lon":5.35082,"is_reserved":false,"is_disabled":false,"rental_uris":{"android":"levelo://app?vid=f19dc989-9b1f-48ea-abf9-5fac135f6a39","ios":"levelo://app?vid=f19dc989-9b1f-48ea-abf9-5fac135f6a39"},"vehicle_type_id":"4","last_reported":1737792659,"current_range_meters":38800,"station_id":"ce4bhbp2rcd13ifvqerg","pricing_plan_id":"cebpf4jnsgd1na2vs0mg"},{"bike_id":"78f1bcbe-297f-4d89-be9d-ff7c664d65b5","system_id":"levelo_inurba_marseille","lat":43.27195,"lon":5.40994,"is_reserved":false,"is_disabled":false,"rental_uris":{"android":"levelo://app?vid=78f1bcbe-297f-4d89-be9d-ff7c664d65b5","ios":"levelo://app?vid=78f1bcbe-297f-4d89-be9d-ff7c664d65b5"},"vehicle_type_id":"4","last_reported":1737792659,"current_range_meters":9600,"station_id":"ce4bhl12rcd13ifvqgf0","pricing_plan_id":"cebpf4jnsgd1na2vs0mg"},{"bike_id":"9eb3a6c5-a5c4-4b17-ae2c-9c5132badcbf","system_id":"levelo_inurba_marseille","lat":43.27895,"lon":5.38028,"is_reserved":false,"is_disabled":false,"rental_uris":{"android":"levelo://app?vid=9eb3a6c5-a5c4-4b17-ae2c-9c5132badcbf","ios":"levelo://app?vid=9eb3a6c5-a5c4-4b17-ae2c-9c5132badcbf"},"vehicle_type_id":"4","last_reported":1737792659,"current_range_meters":36800,"station_id":"ce4bhf92rcd13ifvqf50","pricing_plan_id":"cebpf4jnsgd1na2vs0mg"},{"bike_id":"eadecfe8-1294-4c6c-a688-c77357028c6c","system_id":"levelo_inurba_marseille","lat":43.28396,"lon":5.37538,"is_reserved":false,"is_disabled":false,"rental_uris":{"android":"levelo://app?vid=eadecfe8-1294-4c6c-a688-c77357028c6c","ios":"levelo://app?vid=eadecfe8-1294-4c6c-a688-c77357028c6c"},"vehicle_type_id":"4","last_reported":1737792659,"current_range_meters":34000,"station_id":"ce4bh412rcd13ifvqds0","pricing_plan_id":"cebpf4jnsgd1na2vs0mg"},{"bike_id":"6e0e02f5-b0ae-450f-ad77-51511a2e44cf","system_id":"levelo_inurba_marseille","lat":43.30923,"lon":5.40134,"is_reserved":false,"is_disabled":true,"rental_uris":{"android":"levelo://app?vid=6e0e02f5-b0ae-450f-ad77-51511a2e44cf","ios":"levelo://app?vid=6e0e02f5-b0ae-450f-ad77-51511a2e44cf"},"vehicle_type_id":"4","last_reported":1737792659,"current_range_meters":19200,"station_id":"ce4bgvp2rcd13ifvqct0","pricing_plan_id":"cebpf4jnsgd1na2vs0mg"},{"bike_id":"9b28f614-273c-4ff8-b52b-65d98b5f0e0a","system_id":"levelo_inurba_marseille","lat":43.29078,"lon":5.37203,"is_reserved":false,"is_disabled":false,"rental_uris":{"android":"levelo://app?vid=9b28f614-273c-4ff8-b52b-65d98b5f0e0a","ios":"levelo://app?vid=9b28f614-273c-4ff8-b52b-65d98b5f0e0a"},"vehicle_type_id":"4","last_reported":1737792659,"current_range_meters":32000,"station_id":"ce4bh5p2rcd13ifvqe4g","pricing_plan_id":"cebpf4jnsgd1na2vs0mg"},{"bike_id":"bd6a12b4-fce2-41ac-ad77-6c6b79e9b360","system_id":"levelo_inurba_marseille","lat":43.30795,"lon":5.3767,"is_reserved":false,"is_disabled":false,"rental_uris":{"android":"levelo://app?vid=bd6a12b4-fce2-41ac-ad77-6c6b79e9b360","ios":"levelo://app?vid=bd6a12b4-fce2-41ac-ad77-6c6b79e9b360"},"vehicle_type_id":"4","last_reported":1737792659,"current_range_meters":34000,"station_id":"ce4bgv92rcd13ifvqcq0","pricing_plan_id":"cebpf4jnsgd1na2vs0mg"},{"bike_id":"86c840ad-6d1e-4dec-af31-52b706422a9b","system_id":"levelo_inurba_marseille","lat":43.29278,"lon":5.36851,"is_reserved":false,"is_disabled":false,"rental_uris":{"android":"levelo://app?vid=86c840ad-6d1e-4dec-af31-52b706422a9b","ios":"levelo://app?vid=86c840ad-6d1e-4dec-af31-52b706422a9b"},"vehicle_type_id":"4","last_reported":1737792659,"current_range_meters":25200,"station_id":"ce4bhbp2rcd13ifvqesg","pricing_plan_id":"cebpf4jnsgd1na2vs0mg"},{"bike_id":"24d5e14d-cfec-4626-b0ab-ae43a7a8a7a3","system_id":"levelo_inurba_marseille","lat":43.27183,"lon":5.409904,"is_reserved":false,"is_disabled":false,"rental_uris":{"android":"levelo://app?vid=24d5e14d-cfec-4626-b0ab-ae43a7a8a7a3","ios":"levelo://app?vid=24d5e14d-cfec-4626-b0ab-ae43a7a8a7a3"},"vehicle_type_id":"4","last_reported":1737792659,"current_range_meters":33200,"station_id":"ce4bhl12rcd13ifvqgf0","pricing_plan_id":"cebpf4jnsgd1na2vs0mg"},{"bike_id":"278fa707-88f8-42b0-a06f-9a61234b8e76","system_id":"levelo_inurba_marseille","lat":43.31444,"lon":5.37369,"is_reserved":false,"is_disabled":true,"rental_uris":{"android":"levelo://app?vid=278fa707-88f8-42b0-a06f-9a61234b8e76","ios":"levelo://app?vid=278fa707-88f8-42b0-a06f-9a61234b8e76"},"vehicle_type_id":"4","last_reported":1737792659,"current_range_meters":0,"station_id":"","pricing_plan_id":"cebpf4jnsgd1na2vs0mg"},{"bike_id":"5653eca4-b417-427a-a3ec-24a4ba552e07","system_id":"levelo_inurba_marseille","lat":43.2998,"lon":5.38501,"is_reserved":false,"is_disabled":true,"rental_uris":{"android":"levelo://app?vid=5653eca4-b417-427a-a3ec-24a4ba552e07","ios":"levelo://app?vid=5653eca4-b417-427a-a3ec-24a4ba552e07"},"vehicle_type_id":"4","last_reported":1737792659,"current_range_meters":35200,"station_id":"ce4bgj92rcd13ifvqbd0","pricing_plan_id":"cebpf4jnsgd1na2vs0mg"},{"bike_id":"f63fda25-b652-4a7d-98df-67faab664e5b","system_id":"levelo_inurba_marseille","lat":43.30875,"lon":5.39643,"is_reserved":false,"is_disabled":false,"rental_uris":{"android":"levelo://app?vid=f63fda25-b652-4a7d-98df-67faab664e5b","ios":"levelo://app?vid=f63fda25-b652-4a7d-98df-67faab664e5b"},"vehicle_type_id":"4","last_reported":1737792659,"current_range_meters":8800,"station_id":"ce4bh012rcd13ifvqcv0","pricing_plan_id":"cebpf4jnsgd1na2vs0mg"},{"bike_id":"c98f70cd-2fef-43ec-9bec-3d0730f1565f","system_id":"levelo_inurba_marseille","lat":43.31226,"lon":5.36861,"is_reserved":false,"is_disabled":true,"rental_uris":{"android":"levelo://app?vid=c98f70cd-2fef-43ec-9bec-3d0730f1565f","ios":"levelo://app?vid=c98f70cd-2fef-43ec-9bec-3d0730f1565f"},"vehicle_type_id":"4","last_reported":1737792659,"current_range_meters":0,"station_id":"ce4bgl92rcd13ifvqbq0","pricing_plan_id":"cebpf4jnsgd1na2vs0mg"},{"bike_id":"f7ac40bf-9ec2-46b3-898f-7f04d59d08e5","system_id":"levelo_inurba_marseille","lat":43.27175,"lon":5.41,"is_reserved":false,"is_disabled":false,"rental_uris":{"android":"levelo://app?vid=f7ac40bf-9ec2-46b3-898f-7f04d59d08e5","ios":"levelo://app?vid=f7ac40bf-9ec2-46b3-898f-7f04d59d08e5"},"vehicle_type_id":"4","last_reported":1737792659,"current_range_meters":16400,"station_id":"ce4bhl12rcd13ifvqgf0","pricing_plan_id":"cebpf4jnsgd1na2vs0mg"},{"bike_id":"d6fd12db-b649-491b-ae85-e4bec940de64","system_id":"levelo_inurba_marseille","lat":43.30535,"lon":5.36538,"is_reserved":false,"is_disabled":false,"rental_uris":{"android":"levelo://app?vid=d6fd12db-b649-491b-ae85-e4bec940de64","ios":"levelo://app?vid=d6fd12db-b649-491b-ae85-e4bec940de64"},"vehicle_type_id":"4","last_reported":1737792659,"current_range_meters":38000,"station_id":"ce4bgs12rcd13ifvqcag","pricing_plan_id":"cebpf4jnsgd1na2vs0mg"},{"bike_id":"74d6d125-42a3-45e7-91aa-9f15530a9096","system_id":"levelo_inurba_marseille","lat":43.30241,"lon":5.3997,"is_reserved":false,"is_disabled":false,"rental_uris":{"android":"levelo://app?vid=74d6d125-42a3-45e7-91aa-9f15530a9096","ios":"levelo://app?vid=74d6d125-42a3-45e7-91aa-9f15530a9096"},"vehicle_type_id":"4","last_reported":1737792659,"current_range_meters":8800,"station_id":"ce4bgvh2rcd13ifvqcs0","pricing_plan_id":"cebpf4jnsgd1na2vs0mg"},{"bike_id":"1b979711-dc0b-4b0b-91aa-7956df28301c","system_id":"levelo_inurba_marseille","lat":43.28108,"lon":5.37851,"is_reserved":false,"is_disabled":false,"rental_uris":{"android":"levelo://app?vid=1b979711-dc0b-4b0b-91aa-7956df28301c","ios":"levelo://app?vid=1b979711-dc0b-4b0b-91aa-7956df28301c"},"vehicle_type_id":"4","last_reported":1737792659,"current_range_meters":38800,"station_id":"ce4bha12rcd13ifvqee0","pricing_plan_id":"cebpf4jnsgd1na2vs0mg"},{"bike_id":"35fd246c-6ac1-460e-9b98-2f0ca407d940","system_id":"levelo_inurba_marseille","lat":43.251,"lon":5.40347,"is_reserved":false,"is_disabled":false,"rental_uris":{"android":"levelo://app?vid=35fd246c-6ac1-460e-9b98-2f0ca407d940","ios":"levelo://app?vid=35fd246c-6ac1-460e-9b98-2f0ca407d940"},"vehicle_type_id":"4","last_reported":1737792659,"current_range_meters":8800,"station_id":"ce4bhlh2rcd13ifvqgig","pricing_plan_id":"cebpf4jnsgd1na2vs0mg"},{"bike_id":"7ff41bb0-58bb-4e7a-856f-2a2aba66f15e","system_id":"levelo_inurba_marseille","lat":43.31694,"lon":5.43701,"is_reserved":false,"is_disabled":false,"rental_uris":{"android":"levelo://app?vid=7ff41bb0-58bb-4e7a-856f-2a2aba66f15e","ios":"levelo://app?vid=7ff41bb0-58bb-4e7a-856f-2a2aba66f15e"},"vehicle_type_id":"4","last_reported":1737792659,"current_range_meters":38800,"station_id":"ce4bhp92rcd13ifvqhcg","pricing_plan_id":"cebpf4jnsgd1na2vs0mg"},{"bike_id":"6528270d-2a30-4e12-a22e-a34fda2a8bb8","system_id":"levelo_inurba_marseille","lat":43.31501,"lon":5.37272,"is_reserved":false,"is_disabled":false,"rental_uris":{"android":"levelo://app?vid=6528270d-2a30-4e12-a22e-a34fda2a8bb8","ios":"levelo://app?vid=6528270d-2a30-4e12-a22e-a34fda2a8bb8"},"vehicle_type_id":"4","last_reported":1737792659,"current_range_meters":38800,"station_id":"ce4bgt12rcd13ifvqcd0","pricing_plan_id":"cebpf4jnsgd1na2vs0mg"},{"bike_id":"a30351db-fe9e-4b20-8751-6b327939c9b8","system_id":"levelo_inurba_marseille","lat":43.30177,"lon":5.38061,"is_reserved":false,"is_disabled":false,"rental_uris":{"android":"levelo://app?vid=a30351db-fe9e-4b20-8751-6b327939c9b8","ios":"levelo://app?vid=a30351db-fe9e-4b20-8751-6b327939c9b8"},"vehicle_type_id":"4","last_reported":1737792659,"current_range_meters":34000,"station_id":"ce4bgjp2rcd13ifvqbh0","pricing_plan_id":"cebpf4jnsgd1na2vs0mg"},{"bike_id":"060434e9-3256-4589-8231-e511f7e6944c","system_id":"levelo_inurba_marseille","lat":43.26213,"lon":5.37444,"is_reserved":false,"is_disabled":false,"rental_uris":{"android":"levelo://app?vid=060434e9-3256-4589-8231-e511f7e6944c","ios":"levelo://app?vid=060434e9-3256-4589-8231-e511f7e6944c"},"vehicle_type_id":"4","last_reported":1737792659,"current_range_meters":34000,"station_id":"ce4bhgp2rcd13ifvqfc0","pricing_plan_id":"cebpf4jnsgd1na2vs0mg"},{"bike_id":"2df95088-fa4d-4a45-a08d-861841523075","system_id":"levelo_inurba_marseille","lat":43.3061,"lon":5.39333,"is_reserved":false,"is_disabled":false,"rental_uris":{"android":"levelo://app?vid=2df95088-fa4d-4a45-a08d-861841523075","ios":"levelo://app?vid=2df95088-fa4d-4a45-a08d-861841523075"},"vehicle_type_id":"4","last_reported":1737792659,"current_range_meters":16000,"station_id":"ce4bh0p2rcd13ifvqd80","pricing_plan_id":"cebpf4jnsgd1na2vs0mg"},{"bike_id":"8aa97369-b5a6-4d5d-aadb-472a5488584c","system_id":"levelo_inurba_marseille","lat":43.2815,"lon":5.42682,"is_reserved":false,"is_disabled":false,"rental_uris":{"android":"levelo://app?vid=8aa97369-b5a6-4d5d-aadb-472a5488584c","ios":"levelo://app?vid=8aa97369-b5a6-4d5d-aadb-472a5488584c"},"vehicle_type_id":"4","last_reported":1737792659,"current_range_meters":34000,"station_id":"ce4bhnh2rcd13ifvqgug","pricing_plan_id":"cebpf4jnsgd1na2vs0mg"},{"bike_id":"9230b835-4ad2-4ac3-a991-523d96c03f73","system_id":"levelo_inurba_marseille","lat":43.29779,"lon":5.37106,"is_reserved":false,"is_disabled":false,"rental_uris":{"android":"levelo://app?vid=9230b835-4ad2-4ac3-a991-523d96c03f73","ios":"levelo://app?vid=9230b835-4ad2-4ac3-a991-523d96c03f73"},"vehicle_type_id":"4","last_reported":1737792659,"current_range_meters":38000,"station_id":"ce4bgop2rcd13ifvqc1g","pricing_plan_id":"cebpf4jnsgd1na2vs0mg"},{"bike_id":"4a3ca55c-fef4-43f3-af2c-be858b71f7ad","system_id":"levelo_inurba_marseille","lat":43.24993,"lon":5.38962,"is_reserved":false,"is_disabled":false,"rental_uris":{"android":"levelo://app?vid=4a3ca55c-fef4-43f3-af2c-be858b71f7ad","ios":"levelo://app?vid=4a3ca55c-fef4-43f3-af2c-be858b71f7ad"},"vehicle_type_id":"4","last_reported":1737792659,"current_range_meters":10000,"station_id":"ce4bhgp2rcd13ifvqfd0","pricing_plan_id":"cebpf4jnsgd1na2vs0mg"},{"bike_id":"177c4830-729e-4258-b402-8b960fc4eee9","system_id":"levelo_inurba_marseille","lat":43.29756,"lon":5.37656,"is_reserved":false,"is_disabled":false,"rental_uris":{"android":"levelo://app?vid=177c4830-729e-4258-b402-8b960fc4eee9","ios":"levelo://app?vid=177c4830-729e-4258-b402-8b960fc4eee9"},"vehicle_type_id":"4","last_reported":1737792659,"current_range_meters":16000,"station_id":"ce4bgkh2rcd13ifvqbl0","pricing_plan_id":"cebpf4jnsgd1na2vs0mg"},{"bike_id":"5a48328b-50b3-460c-8c64-2722d8c28ce3","system_id":"levelo_inurba_marseille","lat":43.30589,"lon":5.36942,"is_reserved":false,"is_disabled":false,"rental_uris":{"android":"levelo://app?vid=5a48328b-50b3-460c-8c64-2722d8c28ce3","ios":"levelo://app?vid=5a48328b-50b3-460c-8c64-2722d8c28ce3"},"vehicle_type_id":"4","last_reported":1737792659,"current_range_meters":10000,"station_id":"","pricing_plan_id":"cebpf4jnsgd1na2vs0mg"},{"bike_id":"c7884286-b0ec-4bc5-885b-828eea5a7959","system_id":"levelo_inurba_marseille","lat":43.31331,"lon":5.39697,"is_reserved":false,"is_disabled":false,"rental_uris":{"android":"levelo://app?vid=c7884286-b0ec-4bc5-885b-828eea5a7959","ios":"levelo://app?vid=c7884286-b0ec-4bc5-885b-828eea5a7959"},"vehicle_type_id":"4","last_reported":1737792659,"current_range_meters":12000,"station_id":"ce4bgvp2rcd13ifvqcu0","pricing_plan_id":"cebpf4jnsgd1na2vs0mg"},{"bike_id":"657af941-849b-4995-8548-48fa4f4ebe32","system_id":"levelo_inurba_marseille","lat":43.279109,"lon":5.395838,"is_reserved":false,"is_disabled":false,"rental_uris":{"android":"levelo://app?vid=657af941-849b-4995-8548-48fa4f4ebe32","ios":"levelo://app?vid=657af941-849b-4995-8548-48fa4f4ebe32"},"vehicle_type_id":"4","last_reported":1737792659,"current_range_meters":34800,"station_id":"ce4bhf92rcd13ifvqf40","pricing_plan_id":"cebpf4jnsgd1na2vs0mg"},{"bike_id":"9e3a8a98-d23f-4935-95d2-d4861c84b9fe","system_id":"levelo_inurba_marseille","lat":43.31043,"lon":5.3936,"is_reserved":false,"is_disabled":false,"rental_uris":{"android":"levelo://app?vid=9e3a8a98-d23f-4935-95d2-d4861c84b9fe","ios":"levelo://app?vid=9e3a8a98-d23f-4935-95d2-d4861c84b9fe"},"vehicle_type_id":"4","last_reported":1737792659,"current_range_meters":29600,"station_id":"","pricing_plan_id":"cebpf4jnsgd1na2vs0mg"},{"bike_id":"c9dd36c5-f22d-4f52-8d89-3831dd9ebf73","system_id":"levelo_inurba_marseille","lat":43.28503,"lon":5.38523,"is_reserved":false,"is_disabled":false,"rental_uris":{"android":"levelo://app?vid=c9dd36c5-f22d-4f52-8d89-3831dd9ebf73","ios":"levelo://app?vid=c9dd36c5-f22d-4f52-8d89-3831dd9ebf73"},"vehicle_type_id":"4","last_reported":1737792659,"current_range_meters":37600,"station_id":"ce4bh8p2rcd13ifvqeb0","pricing_plan_id":"cebpf4jnsgd1na2vs0mg"},{"bike_id":"3608a3cf-49c3-46d4-b709-f8e9629a9213","system_id":"levelo_inurba_marseille","lat":43.24655,"lon":5.38887,"is_reserved":false,"is_disabled":false,"rental_uris":{"android":"levelo://app?vid=3608a3cf-49c3-46d4-b709-f8e9629a9213","ios":"levelo://app?vid=3608a3cf-49c3-46d4-b709-f8e9629a9213"},"vehicle_type_id":"4","last_reported":1737792659,"current_range_meters":6000,"station_id":"ce4bhg12rcd13ifvqf60","pricing_plan_id":"cebpf4jnsgd1na2vs0mg"},{"bike_id":"23f2310a-7cb3-40ae-bd57-ecc8717e6a13","system_id":"levelo_inurba_marseille","lat":43.31316,"lon":5.39702,"is_reserved":false,"is_disabled":false,"rental_uris":{"android":"levelo://app?vid=23f2310a-7cb3-40ae-bd57-ecc8717e6a13","ios":"levelo://app?vid=23f2310a-7cb3-40ae-bd57-ecc8717e6a13"},"vehicle_type_id":"4","last_reported":1737792659,"current_range_meters":17200,"station_id":"ce4bgvp2rcd13ifvqcu0","pricing_plan_id":"cebpf4jnsgd1na2vs0mg"},{"bike_id":"e91204e9-d4fe-4e30-81a6-71464f86006e","system_id":"levelo_inurba_marseille","lat":43.29894,"lon":5.38151,"is_reserved":false,"is_disabled":true,"rental_uris":{"android":"levelo://app?vid=e91204e9-d4fe-4e30-81a6-71464f86006e","ios":"levelo://app?vid=e91204e9-d4fe-4e30-81a6-71464f86006e"},"vehicle_type_id":"4","last_reported":1737792659,"current_range_meters":36800,"station_id":"ce4bgj12rcd13ifvqbc0","pricing_plan_id":"cebpf4jnsgd1na2vs0mg"},{"bike_id":"3a4662d3-e80a-48b3-bd42-b88b54a78839","system_id":"levelo_inurba_marseille","lat":43.306541,"lon":5.400662,"is_reserved":false,"is_disabled":false,"rental_uris":{"android":"levelo://app?vid=3a4662d3-e80a-48b3-bd42-b88b54a78839","ios":"levelo://app?vid=3a4662d3-e80a-48b3-bd42-b88b54a78839"},"vehicle_type_id":"4","last_reported":1737792659,"current_range_meters":38400,"station_id":"ce4bh112rcd13ifvqda0","pricing_plan_id":"cebpf4jnsgd1na2vs0mg"},{"bike_id":"2b6ff057-733a-4c05-afb5-73b7432e46c8","system_id":"levelo_inurba_marseille","lat":43.2927,"lon":5.38446,"is_reserved":false,"is_disabled":false,"rental_uris":{"android":"levelo://app?vid=2b6ff057-733a-4c05-afb5-73b7432e46c8","ios":"levelo://app?vid=2b6ff057-733a-4c05-afb5-73b7432e46c8"},"vehicle_type_id":"4","last_reported":1737792659,"current_range_meters":33200,"station_id":"ce4bh692rcd13ifvqea0","pricing_plan_id":"cebpf4jnsgd1na2vs0mg"},{"bike_id":"dd338501-6522-47ba-9ec9-c8cf7e7ec880","system_id":"levelo_inurba_marseille","lat":43.26567,"lon":5.39008,"is_reserved":false,"is_disabled":false,"rental_uris":{"android":"levelo://app?vid=dd338501-6522-47ba-9ec9-c8cf7e7ec880","ios":"levelo://app?vid=dd338501-6522-47ba-9ec9-c8cf7e7ec880"},"vehicle_type_id":"4","last_reported":1737792659,"current_range_meters":32800,"station_id":"ce4bhe12rcd13ifvqf30","pricing_plan_id":"cebpf4jnsgd1na2vs0mg"},{"bike_id":"f80b5064-8646-44b5-ab4a-789923d76611","system_id":"levelo_inurba_marseille","lat":43.318923,"lon":5.407298,"is_reserved":false,"is_disabled":false,"rental_uris":{"android":"levelo://app?vid=f80b5064-8646-44b5-ab4a-789923d76611","ios":"levelo://app?vid=f80b5064-8646-44b5-ab4a-789923d76611"},"vehicle_type_id":"4","last_reported":1737792659,"current_range_meters":38800,"station_id":"ce4bhq12rcd13ifvqhig","pricing_plan_id":"cebpf4jnsgd1na2vs0mg"},{"bike_id":"28e7a171-8223-4b14-b980-1fb4aba4652e","system_id":"levelo_inurba_marseille","lat":43.26556,"lon":5.37283,"is_reserved":false,"is_disabled":false,"rental_uris":{"android":"levelo://app?vid=28e7a171-8223-4b14-b980-1fb4aba4652e","ios":"levelo://app?vid=28e7a171-8223-4b14-b980-1fb4aba4652e"},"vehicle_type_id":"4","last_reported":1737792659,"current_range_meters":33600,"station_id":"ce4bhg12rcd13ifvqf70","pricing_plan_id":"cebpf4jnsgd1na2vs0mg"},{"bike_id":"601dcbd8-fb70-4c75-9ea8-ff4043c4d5f0","system_id":"levelo_inurba_marseille","lat":43.31887,"lon":5.40742,"is_reserved":false,"is_disabled":false,"rental_uris":{"android":"levelo://app?vid=601dcbd8-fb70-4c75-9ea8-ff4043c4d5f0","ios":"levelo://app?vid=601dcbd8-fb70-4c75-9ea8-ff4043c4d5f0"},"vehicle_type_id":"4","last_reported":1737792659,"current_range_meters":16000,"station_id":"ce4bhq12rcd13ifvqhig","pricing_plan_id":"cebpf4jnsgd1na2vs0mg"},{"bike_id":"34aa6db6-d08c-4f6b-ad5e-1bad446eaa72","system_id":"levelo_inurba_marseille","lat":43.231867,"lon":5.399893,"is_reserved":false,"is_disabled":false,"rental_uris":{"android":"levelo://app?vid=34aa6db6-d08c-4f6b-ad5e-1bad446eaa72","ios":"levelo://app?vid=34aa6db6-d08c-4f6b-ad5e-1bad446eaa72"},"vehicle_type_id":"4","last_reported":1737792659,"current_range_meters":38800,"station_id":"ce4bhn12rcd13ifvqgqg","pricing_plan_id":"cebpf4jnsgd1na2vs0mg"},{"bike_id":"f55c48d7-587e-4cdf-8c02-c2ecbf811ac9","system_id":"levelo_inurba_marseille","lat":43.29541,"lon":5.42289,"is_reserved":false,"is_disabled":false,"rental_uris":{"android":"levelo://app?vid=f55c48d7-587e-4cdf-8c02-c2ecbf811ac9","ios":"levelo://app?vid=f55c48d7-587e-4cdf-8c02-c2ecbf811ac9"},"vehicle_type_id":"4","last_reported":1737792659,"current_range_meters":38800,"station_id":"ce4bhph2rcd13ifvqhdg","pricing_plan_id":"cebpf4jnsgd1na2vs0mg"},{"bike_id":"990a416c-e71d-4fb7-9ef8-64308cb845c6","system_id":"levelo_inurba_marseille","lat":43.29917,"lon":5.37491,"is_reserved":false,"is_disabled":false,"rental_uris":{"android":"levelo://app?vid=990a416c-e71d-4fb7-9ef8-64308cb845c6","ios":"levelo://app?vid=990a416c-e71d-4fb7-9ef8-64308cb845c6"},"vehicle_type_id":"4","last_reported":1737792659,"current_range_meters":36400,"station_id":"ce4bgjh2rcd13ifvqbg0","pricing_plan_id":"cebpf4jnsgd1na2vs0mg"},{"bike_id":"a2dbdc7e-8ab2-4f75-8035-18bef5b78a3b","system_id":"levelo_inurba_marseille","lat":43.25859,"lon":5.39906,"is_reserved":false,"is_disabled":false,"rental_uris":{"android":"levelo://app?vid=a2dbdc7e-8ab2-4f75-8035-18bef5b78a3b","ios":"levelo://app?vid=a2dbdc7e-8ab2-4f75-8035-18bef5b78a3b"},"vehicle_type_id":"4","last_reported":1737792659,"current_range_meters":38000,"station_id":"ce4bhl92rcd13ifvqghg","pricing_plan_id":"cebpf4jnsgd1na2vs0mg"},{"bike_id":"78c95c59-704d-41a4-9f6b-1c7ddf3ec595","system_id":"levelo_inurba_marseille","lat":43.27492,"lon":5.42453,"is_reserved":false,"is_disabled":false,"rental_uris":{"android":"levelo://app?vid=78c95c59-704d-41a4-9f6b-1c7ddf3ec595","ios":"levelo://app?vid=78c95c59-704d-41a4-9f6b-1c7ddf3ec595"},"vehicle_type_id":"4","last_reported":1737792659,"current_range_meters":11200,"station_id":"ce4bhn92rcd13ifvqgrg","pricing_plan_id":"cebpf4jnsgd1na2vs0mg"},{"bike_id":"96f4e4cd-02de-47bb-a775-1bc9d4fdde7c","system_id":"levelo_inurba_marseille","lat":43.29261,"lon":5.38452,"is_reserved":false,"is_disabled":true,"rental_uris":{"android":"levelo://app?vid=96f4e4cd-02de-47bb-a775-1bc9d4fdde7c","ios":"levelo://app?vid=96f4e4cd-02de-47bb-a775-1bc9d4fdde7c"},"vehicle_type_id":"4","last_reported":1737792659,"current_range_meters":18000,"station_id":"ce4bh692rcd13ifvqea0","pricing_plan_id":"cebpf4jnsgd1na2vs0mg"},{"bike_id":"9838cc78-2b53-49d3-ae13-82df62c4fd64","system_id":"levelo_inurba_marseille","lat":43.28442,"lon":5.40931,"is_reserved":false,"is_disabled":true,"rental_uris":{"android":"levelo://app?vid=9838cc78-2b53-49d3-ae13-82df62c4fd64","ios":"levelo://app?vid=9838cc78-2b53-49d3-ae13-82df62c4fd64"},"vehicle_type_id":"4","last_reported":1737792659,"current_range_meters":0,"station_id":"","pricing_plan_id":"cebpf4jnsgd1na2vs0mg"},{"bike_id":"9eb25b12-5e2d-4582-9d7a-264c52c86aa4","system_id":"levelo_inurba_marseille","lat":43.33777,"lon":5.37428,"is_reserved":false,"is_disabled":false,"rental_uris":{"android":"levelo://app?vid=9eb25b12-5e2d-4582-9d7a-264c52c86aa4","ios":"levelo://app?vid=9eb25b12-5e2d-4582-9d7a-264c52c86aa4"},"vehicle_type_id":"4","last_reported":1737792659,"current_range_meters":22800,"station_id":"","pricing_plan_id":"cebpf4jnsgd1na2vs0mg"},{"bike_id":"50e2033c-b25e-47fd-b2fc-453a8d6c77a3","system_id":"levelo_inurba_marseille","lat":43.313307,"lon":5.397233,"is_reserved":false,"is_disabled":true,"rental_uris":{"android":"levelo://app?vid=50e2033c-b25e-47fd-b2fc-453a8d6c77a3","ios":"levelo://app?vid=50e2033c-b25e-47fd-b2fc-453a8d6c77a3"},"vehicle_type_id":"4","last_reported":1737792659,"current_range_meters":37600,"station_id":"ce4bgvp2rcd13ifvqcu0","pricing_plan_id":"cebpf4jnsgd1na2vs0mg"},{"bike_id":"bf096a89-ee72-4f37-85bd-7b3cf9f0cb41","system_id":"levelo_inurba_marseille","lat":43.31933,"lon":5.37897,"is_reserved":false,"is_disabled":false,"rental_uris":{"android":"levelo://app?vid=bf096a89-ee72-4f37-85bd-7b3cf9f0cb41","ios":"levelo://app?vid=bf096a89-ee72-4f37-85bd-7b3cf9f0cb41"},"vehicle_type_id":"4","last_reported":1737792659,"current_range_meters":32000,"station_id":"","pricing_plan_id":"cebpf4jnsgd1na2vs0mg"},{"bike_id":"66d1f8cf-8260-44c6-89e8-aa09a832fe98","system_id":"levelo_inurba_marseille","lat":43.24677,"lon":5.38168,"is_reserved":false,"is_disabled":true,"rental_uris":{"android":"levelo://app?vid=66d1f8cf-8260-44c6-89e8-aa09a832fe98","ios":"levelo://app?vid=66d1f8cf-8260-44c6-89e8-aa09a832fe98"},"vehicle_type_id":"4","last_reported":1737792659,"current_range_meters":400,"station_id":"ce4bhih2rcd13ifvqfr0","pricing_plan_id":"cebpf4jnsgd1na2vs0mg"},{"bike_id":"37e3e111-9b37-43f0-b268-a39efb3d8c36","system_id":"levelo_inurba_marseille","lat":43.29619,"lon":5.37186,"is_reserved":false,"is_disabled":false,"rental_uris":{"android":"levelo://app?vid=37e3e111-9b37-43f0-b268-a39efb3d8c36","ios":"levelo://app?vid=37e3e111-9b37-43f0-b268-a39efb3d8c36"},"vehicle_type_id":"4","last_reported":1737792659,"current_range_meters":38000,"station_id":"ce4bgnh2rcd13ifvqc0g","pricing_plan_id":"cebpf4jnsgd1na2vs0mg"},{"bike_id":"3bd1d5e7-fb8f-49c8-888b-1bf779aebd9a","system_id":"levelo_inurba_marseille","lat":43.30144,"lon":5.38095,"is_reserved":false,"is_disabled":false,"rental_uris":{"android":"levelo://app?vid=3bd1d5e7-fb8f-49c8-888b-1bf779aebd9a","ios":"levelo://app?vid=3bd1d5e7-fb8f-49c8-888b-1bf779aebd9a"},"vehicle_type_id":"4","last_reported":1737792659,"current_range_meters":22400,"station_id":"ce4bgjp2rcd13ifvqbh0","pricing_plan_id":"cebpf4jnsgd1na2vs0mg"},{"bike_id":"2b1b02f4-2ff3-4b65-b6e6-a9a9faa7cfaf","system_id":"levelo_inurba_marseille","lat":43.29033,"lon":5.38654,"is_reserved":false,"is_disabled":false,"rental_uris":{"android":"levelo://app?vid=2b1b02f4-2ff3-4b65-b6e6-a9a9faa7cfaf","ios":"levelo://app?vid=2b1b02f4-2ff3-4b65-b6e6-a9a9faa7cfaf"},"vehicle_type_id":"4","last_reported":1737792659,"current_range_meters":36400,"station_id":"ce4bh4p2rcd13ifvqe0g","pricing_plan_id":"cebpf4jnsgd1na2vs0mg"},{"bike_id":"275108f1-ded2-4bc6-a86c-b09dad16471a","system_id":"levelo_inurba_marseille","lat":43.28259,"lon":5.35081,"is_reserved":false,"is_disabled":false,"rental_uris":{"android":"levelo://app?vid=275108f1-ded2-4bc6-a86c-b09dad16471a","ios":"levelo://app?vid=275108f1-ded2-4bc6-a86c-b09dad16471a"},"vehicle_type_id":"4","last_reported":1737792659,"current_range_meters":36000,"station_id":"ce4bhbp2rcd13ifvqerg","pricing_plan_id":"cebpf4jnsgd1na2vs0mg"},{"bike_id":"51c3b1a6-c5c6-4d24-9def-8186fdad8596","system_id":"levelo_inurba_marseille","lat":43.27041,"lon":5.42266,"is_reserved":false,"is_disabled":false,"rental_uris":{"android":"levelo://app?vid=51c3b1a6-c5c6-4d24-9def-8186fdad8596","ios":"levelo://app?vid=51c3b1a6-c5c6-4d24-9def-8186fdad8596"},"vehicle_type_id":"4","last_reported":1737792659,"current_range_meters":10800,"station_id":"ce4bhk92rcd13ifvqgb0","pricing_plan_id":"cebpf4jnsgd1na2vs0mg"},{"bike_id":"99456971-cf01-4da2-8121-1af64c1c2a59","system_id":"levelo_inurba_marseille","lat":43.24986,"lon":5.38953,"is_reserved":false,"is_disabled":false,"rental_uris":{"android":"levelo://app?vid=99456971-cf01-4da2-8121-1af64c1c2a59","ios":"levelo://app?vid=99456971-cf01-4da2-8121-1af64c1c2a59"},"vehicle_type_id":"4","last_reported":1737792659,"current_range_meters":34000,"station_id":"ce4bhgp2rcd13ifvqfd0","pricing_plan_id":"cebpf4jnsgd1na2vs0mg"},{"bike_id":"c276da85-c857-4b0d-8792-c2826228a14c","system_id":"levelo_inurba_marseille","lat":43.2396,"lon":5.36626,"is_reserved":false,"is_disabled":false,"rental_uris":{"android":"levelo://app?vid=c276da85-c857-4b0d-8792-c2826228a14c","ios":"levelo://app?vid=c276da85-c857-4b0d-8792-c2826228a14c"},"vehicle_type_id":"4","last_reported":1737792659,"current_range_meters":27200,"station_id":"ce4bhi12rcd13ifvqfp0","pricing_plan_id":"cebpf4jnsgd1na2vs0mg"},{"bike_id":"867d41e1-ec2e-4484-a31e-d471983f0ab7","system_id":"levelo_inurba_marseille","lat":43.33376,"lon":5.40056,"is_reserved":false,"is_disabled":false,"rental_uris":{"android":"levelo://app?vid=867d41e1-ec2e-4484-a31e-d471983f0ab7","ios":"levelo://app?vid=867d41e1-ec2e-4484-a31e-d471983f0ab7"},"vehicle_type_id":"4","last_reported":1737792659,"current_range_meters":15200,"station_id":"","pricing_plan_id":"cebpf4jnsgd1na2vs0mg"},{"bike_id":"7a30cd33-8d30-4d84-a086-6a47673beb62","system_id":"levelo_inurba_marseille","lat":43.27985,"lon":5.41652,"is_reserved":false,"is_disabled":false,"rental_uris":{"android":"levelo://app?vid=7a30cd33-8d30-4d84-a086-6a47673beb62","ios":"levelo://app?vid=7a30cd33-8d30-4d84-a086-6a47673beb62"},"vehicle_type_id":"4","last_reported":1737792659,"current_range_meters":16400,"station_id":"ce4bho12rcd13ifvqh1g","pricing_plan_id":"cebpf4jnsgd1na2vs0mg"},{"bike_id":"f1c7bf13-81b8-4531-aa41-94928301d83d","system_id":"levelo_inurba_marseille","lat":43.27424,"lon":5.39425,"is_reserved":false,"is_disabled":false,"rental_uris":{"android":"levelo://app?vid=f1c7bf13-81b8-4531-aa41-94928301d83d","ios":"levelo://app?vid=f1c7bf13-81b8-4531-aa41-94928301d83d"},"vehicle_type_id":"4","last_reported":1737792659,"current_range_meters":37600,"station_id":"ce4bhdp2rcd13ifvqf20","pricing_plan_id":"cebpf4jnsgd1na2vs0mg"},{"bike_id":"e84f6a72-894f-48e8-8eb1-244ae57ee71b","system_id":"levelo_inurba_marseille","lat":43.31151,"lon":5.38736,"is_reserved":false,"is_disabled":false,"rental_uris":{"android":"levelo://app?vid=e84f6a72-894f-48e8-8eb1-244ae57ee71b","ios":"levelo://app?vid=e84f6a72-894f-48e8-8eb1-244ae57ee71b"},"vehicle_type_id":"4","last_reported":1737792659,"current_range_meters":25600,"station_id":"ce4bgv12rcd13ifvqcp0","pricing_plan_id":"cebpf4jnsgd1na2vs0mg"},{"bike_id":"236ea79f-2896-4961-89ee-e2c77e3155c3","system_id":"levelo_inurba_marseille","lat":43.25592,"lon":5.38243,"is_reserved":false,"is_disabled":false,"rental_uris":{"android":"levelo://app?vid=236ea79f-2896-4961-89ee-e2c77e3155c3","ios":"levelo://app?vid=236ea79f-2896-4961-89ee-e2c77e3155c3"},"vehicle_type_id":"4","last_reported":1737792659,"current_range_meters":38800,"station_id":"ce4bhih2rcd13ifvqfs0","pricing_plan_id":"cebpf4jnsgd1na2vs0mg"},{"bike_id":"468a54a2-6174-4582-bc57-36f50556c34c","system_id":"levelo_inurba_marseille","lat":43.28462,"lon":5.35878,"is_reserved":false,"is_disabled":false,"rental_uris":{"android":"levelo://app?vid=468a54a2-6174-4582-bc57-36f50556c34c","ios":"levelo://app?vid=468a54a2-6174-4582-bc57-36f50556c34c"},"vehicle_type_id":"4","last_reported":1737792659,"current_range_meters":28800,"station_id":"ce4bhah2rcd13ifvqei0","pricing_plan_id":"cebpf4jnsgd1na2vs0mg"},{"bike_id":"2590ad91-0151-4d17-8620-88aeaed152e1","system_id":"levelo_inurba_marseille","lat":43.299784,"lon":5.371686,"is_reserved":false,"is_disabled":true,"rental_uris":{"android":"levelo://app?vid=2590ad91-0151-4d17-8620-88aeaed152e1","ios":"levelo://app?vid=2590ad91-0151-4d17-8620-88aeaed152e1"},"vehicle_type_id":"4","last_reported":1737792659,"current_range_meters":35200,"station_id":"ce4bgr92rcd13ifvqc7g","pricing_plan_id":"cebpf4jnsgd1na2vs0mg"},{"bike_id":"e6d44643-ccac-4e3c-948f-9793a828d6ef","system_id":"levelo_inurba_marseille","lat":43.30485,"lon":5.37908,"is_reserved":false,"is_disabled":false,"rental_uris":{"android":"levelo://app?vid=e6d44643-ccac-4e3c-948f-9793a828d6ef","ios":"levelo://app?vid=e6d44643-ccac-4e3c-948f-9793a828d6ef"},"vehicle_type_id":"4","last_reported":1737792659,"current_range_meters":32800,"station_id":"ce4bgup2rcd13ifvqcn0","pricing_plan_id":"cebpf4jnsgd1na2vs0mg"},{"bike_id":"93f4f4e4-86dd-44c9-bedb-dcbdace9162d","system_id":"levelo_inurba_marseille","lat":43.23193,"lon":5.39981,"is_reserved":false,"is_disabled":false,"rental_uris":{"android":"levelo://app?vid=93f4f4e4-86dd-44c9-bedb-dcbdace9162d","ios":"levelo://app?vid=93f4f4e4-86dd-44c9-bedb-dcbdace9162d"},"vehicle_type_id":"4","last_reported":1737792659,"current_range_meters":39200,"station_id":"ce4bhn12rcd13ifvqgqg","pricing_plan_id":"cebpf4jnsgd1na2vs0mg"},{"bike_id":"347dd29e-9a9e-4a37-8ddd-6e2050aaff03","system_id":"levelo_inurba_marseille","lat":43.33734,"lon":5.39194,"is_reserved":false,"is_disabled":false,"rental_uris":{"android":"levelo://app?vid=347dd29e-9a9e-4a37-8ddd-6e2050aaff03","ios":"levelo://app?vid=347dd29e-9a9e-4a37-8ddd-6e2050aaff03"},"vehicle_type_id":"4","last_reported":1737792659,"current_range_meters":36000,"station_id":"ce4bhr92rcd13ifvqhsg","pricing_plan_id":"cebpf4jnsgd1na2vs0mg"},{"bike_id":"badee5fd-b7b4-423c-a117-af12b0d774ca","system_id":"levelo_inurba_marseille","lat":43.3173,"lon":5.42498,"is_reserved":false,"is_disabled":false,"rental_uris":{"android":"levelo://app?vid=badee5fd-b7b4-423c-a117-af12b0d774ca","ios":"levelo://app?vid=badee5fd-b7b4-423c-a117-af12b0d774ca"},"vehicle_type_id":"4","last_reported":1737792659,"current_range_meters":38800,"station_id":"ce4bhp92rcd13ifvqhbg","pricing_plan_id":"cebpf4jnsgd1na2vs0mg"},{"bike_id":"1cb6eeda-e4e2-4e2b-bc5f-eb917324ab36","system_id":"levelo_inurba_marseille","lat":43.28348,"lon":5.3864,"is_reserved":false,"is_disabled":false,"rental_uris":{"android":"levelo://app?vid=1cb6eeda-e4e2-4e2b-bc5f-eb917324ab36","ios":"levelo://app?vid=1cb6eeda-e4e2-4e2b-bc5f-eb917324ab36"},"vehicle_type_id":"4","last_reported":1737792659,"current_range_meters":5600,"station_id":"ce4bh492rcd13ifvqdvg","pricing_plan_id":"cebpf4jnsgd1na2vs0mg"},{"bike_id":"689b4df9-0021-47af-92a3-26488e05e7a0","system_id":"levelo_inurba_marseille","lat":43.29186,"lon":5.35826,"is_reserved":false,"is_disabled":false,"rental_uris":{"android":"levelo://app?vid=689b4df9-0021-47af-92a3-26488e05e7a0","ios":"levelo://app?vid=689b4df9-0021-47af-92a3-26488e05e7a0"},"vehicle_type_id":"4","last_reported":1737792659,"current_range_meters":38800,"station_id":"ce4bhb12rcd13ifvqel0","pricing_plan_id":"cebpf4jnsgd1na2vs0mg"},{"bike_id":"5231652f-8233-48ab-ad97-fb9f0974ab2e","system_id":"levelo_inurba_marseille","lat":43.29838,"lon":5.36301,"is_reserved":false,"is_disabled":false,"rental_uris":{"android":"levelo://app?vid=5231652f-8233-48ab-ad97-fb9f0974ab2e","ios":"levelo://app?vid=5231652f-8233-48ab-ad97-fb9f0974ab2e"},"vehicle_type_id":"4","last_reported":1737792659,"current_range_meters":32800,"station_id":"ce4bgpp2rcd13ifvqc3g","pricing_plan_id":"cebpf4jnsgd1na2vs0mg"},{"bike_id":"5db9538e-f496-4d36-96eb-dbc4c4bd40dc","system_id":"levelo_inurba_marseille","lat":43.244658,"lon":5.37713,"is_reserved":false,"is_disabled":false,"rental_uris":{"android":"levelo://app?vid=5db9538e-f496-4d36-96eb-dbc4c4bd40dc","ios":"levelo://app?vid=5db9538e-f496-4d36-96eb-dbc4c4bd40dc"},"vehicle_type_id":"4","last_reported":1737792659,"current_range_meters":8800,"station_id":"","pricing_plan_id":"cebpf4jnsgd1na2vs0mg"},{"bike_id":"90b8a1b1-ad54-458d-9362-f5197bbdf048","system_id":"levelo_inurba_marseille","lat":43.22922,"lon":5.35402,"is_reserved":false,"is_disabled":false,"rental_uris":{"android":"levelo://app?vid=90b8a1b1-ad54-458d-9362-f5197bbdf048","ios":"levelo://app?vid=90b8a1b1-ad54-458d-9362-f5197bbdf048"},"vehicle_type_id":"4","last_reported":1737792659,"current_range_meters":37600,"station_id":"cpo3532slgdg3j2ikp40","pricing_plan_id":"cebpf4jnsgd1na2vs0mg"},{"bike_id":"7da50f07-38d9-468b-8e2c-04df74955810","system_id":"levelo_inurba_marseille","lat":43.29545,"lon":5.42278,"is_reserved":false,"is_disabled":false,"rental_uris":{"android":"levelo://app?vid=7da50f07-38d9-468b-8e2c-04df74955810","ios":"levelo://app?vid=7da50f07-38d9-468b-8e2c-04df74955810"},"vehicle_type_id":"4","last_reported":1737792659,"current_range_meters":38800,"station_id":"ce4bhph2rcd13ifvqhdg","pricing_plan_id":"cebpf4jnsgd1na2vs0mg"},{"bike_id":"76f6d9d5-e6de-4488-8f27-9cda9f60e41b","system_id":"levelo_inurba_marseille","lat":43.29026,"lon":5.39962,"is_reserved":false,"is_disabled":false,"rental_uris":{"android":"levelo://app?vid=76f6d9d5-e6de-4488-8f27-9cda9f60e41b","ios":"levelo://app?vid=76f6d9d5-e6de-4488-8f27-9cda9f60e41b"},"vehicle_type_id":"4","last_reported":1737792659,"current_range_meters":20000,"station_id":"ce4bh392rcd13ifvqdm0","pricing_plan_id":"cebpf4jnsgd1na2vs0mg"},{"bike_id":"d82df2a7-b1d0-491d-ad36-c19454e9b192","system_id":"levelo_inurba_marseille","lat":43.29058,"lon":5.39957,"is_reserved":false,"is_disabled":false,"rental_uris":{"android":"levelo://app?vid=d82df2a7-b1d0-491d-ad36-c19454e9b192","ios":"levelo://app?vid=d82df2a7-b1d0-491d-ad36-c19454e9b192"},"vehicle_type_id":"4","last_reported":1737792659,"current_range_meters":24800,"station_id":"ce4bh392rcd13ifvqdm0","pricing_plan_id":"cebpf4jnsgd1na2vs0mg"},{"bike_id":"f4b60626-05b7-4b59-90c0-9ca9f07724cd","system_id":"levelo_inurba_marseille","lat":43.30869,"lon":5.39638,"is_reserved":false,"is_disabled":false,"rental_uris":{"android":"levelo://app?vid=f4b60626-05b7-4b59-90c0-9ca9f07724cd","ios":"levelo://app?vid=f4b60626-05b7-4b59-90c0-9ca9f07724cd"},"vehicle_type_id":"4","last_reported":1737792659,"current_range_meters":38800,"station_id":"ce4bh012rcd13ifvqcv0","pricing_plan_id":"cebpf4jnsgd1na2vs0mg"},{"bike_id":"1ec9ea3d-bdb1-4d93-b38e-647775e10909","system_id":"levelo_inurba_marseille","lat":43.30644,"lon":5.40078,"is_reserved":false,"is_disabled":false,"rental_uris":{"android":"levelo://app?vid=1ec9ea3d-bdb1-4d93-b38e-647775e10909","ios":"levelo://app?vid=1ec9ea3d-bdb1-4d93-b38e-647775e10909"},"vehicle_type_id":"4","last_reported":1737792659,"current_range_meters":36400,"station_id":"ce4bh112rcd13ifvqda0","pricing_plan_id":"cebpf4jnsgd1na2vs0mg"},{"bike_id":"08ce52f6-0d23-4c32-925b-7583b8c8f661","system_id":"levelo_inurba_marseille","lat":43.28755,"lon":5.39937,"is_reserved":false,"is_disabled":false,"rental_uris":{"android":"levelo://app?vid=08ce52f6-0d23-4c32-925b-7583b8c8f661","ios":"levelo://app?vid=08ce52f6-0d23-4c32-925b-7583b8c8f661"},"vehicle_type_id":"4","last_reported":1737792659,"current_range_meters":37600,"station_id":"ce4bho92rcd13ifvqh3g","pricing_plan_id":"cebpf4jnsgd1na2vs0mg"},{"bike_id":"275880cd-0974-4df4-8a10-088732c49c6f","system_id":"levelo_inurba_marseille","lat":43.28696,"lon":5.39995,"is_reserved":false,"is_disabled":true,"rental_uris":{"android":"levelo://app?vid=275880cd-0974-4df4-8a10-088732c49c6f","ios":"levelo://app?vid=275880cd-0974-4df4-8a10-088732c49c6f"},"vehicle_type_id":"4","last_reported":1737792659,"current_range_meters":400,"station_id":"ce4bho92rcd13ifvqh3g","pricing_plan_id":"cebpf4jnsgd1na2vs0mg"},{"bike_id":"2379a823-fdeb-40da-be6e-d8af4799bc36","system_id":"levelo_inurba_marseille","lat":43.30304,"lon":5.40456,"is_reserved":false,"is_disabled":false,"rental_uris":{"android":"levelo://app?vid=2379a823-fdeb-40da-be6e-d8af4799bc36","ios":"levelo://app?vid=2379a823-fdeb-40da-be6e-d8af4799bc36"},"vehicle_type_id":"4","last_reported":1737792659,"current_range_meters":36400,"station_id":"ce4bh012rcd13ifvqd10","pricing_plan_id":"cebpf4jnsgd1na2vs0mg"},{"bike_id":"cd2a4c81-944c-45cd-ad92-4381608c75f0","system_id":"levelo_inurba_marseille","lat":43.231891,"lon":5.355609,"is_reserved":false,"is_disabled":false,"rental_uris":{"android":"levelo://app?vid=cd2a4c81-944c-45cd-ad92-4381608c75f0","ios":"levelo://app?vid=cd2a4c81-944c-45cd-ad92-4381608c75f0"},"vehicle_type_id":"4","last_reported":1737792659,"current_range_meters":8000,"station_id":"ce4bhu92rcd13ifvqi70","pricing_plan_id":"cebpf4jnsgd1na2vs0mg"},{"bike_id":"e39346ad-5835-4e52-9c12-c994715ae718","system_id":"levelo_inurba_marseille","lat":43.31222,"lon":5.38651,"is_reserved":false,"is_disabled":false,"rental_uris":{"android":"levelo://app?vid=e39346ad-5835-4e52-9c12-c994715ae718","ios":"levelo://app?vid=e39346ad-5835-4e52-9c12-c994715ae718"},"vehicle_type_id":"4","last_reported":1737792659,"current_range_meters":29600,"station_id":"","pricing_plan_id":"cebpf4jnsgd1na2vs0mg"},{"bike_id":"518f28b5-25d6-457d-a05c-65599c5f0a56","system_id":"levelo_inurba_marseille","lat":43.30012,"lon":5.37186,"is_reserved":false,"is_disabled":false,"rental_uris":{"android":"levelo://app?vid=518f28b5-25d6-457d-a05c-65599c5f0a56","ios":"levelo://app?vid=518f28b5-25d6-457d-a05c-65599c5f0a56"},"vehicle_type_id":"4","last_reported":1737792659,"current_range_meters":38800,"station_id":"ce4bgr92rcd13ifvqc7g","pricing_plan_id":"cebpf4jnsgd1na2vs0mg"},{"bike_id":"187a06ad-878f-48df-9f2a-b4151b98cfad","system_id":"levelo_inurba_marseille","lat":43.337444,"lon":5.374475,"is_reserved":false,"is_disabled":false,"rental_uris":{"android":"levelo://app?vid=187a06ad-878f-48df-9f2a-b4151b98cfad","ios":"levelo://app?vid=187a06ad-878f-48df-9f2a-b4151b98cfad"},"vehicle_type_id":"4","last_reported":1737792659,"current_range_meters":30400,"station_id":"","pricing_plan_id":"cebpf4jnsgd1na2vs0mg"},{"bike_id":"1ab9b624-40b7-465c-a005-729f21b3d75d","system_id":"levelo_inurba_marseille","lat":43.2571,"lon":5.41126,"is_reserved":false,"is_disabled":false,"rental_uris":{"android":"levelo://app?vid=1ab9b624-40b7-465c-a005-729f21b3d75d","ios":"levelo://app?vid=1ab9b624-40b7-465c-a005-729f21b3d75d"},"vehicle_type_id":"4","last_reported":1737792659,"current_range_meters":39200,"station_id":"ce4bhkp2rcd13ifvqgd0","pricing_plan_id":"cebpf4jnsgd1na2vs0mg"},{"bike_id":"859a8907-8ce3-4d7e-a03f-1d29baa57218","system_id":"levelo_inurba_marseille","lat":43.28462,"lon":5.35873,"is_reserved":false,"is_disabled":false,"rental_uris":{"android":"levelo://app?vid=859a8907-8ce3-4d7e-a03f-1d29baa57218","ios":"levelo://app?vid=859a8907-8ce3-4d7e-a03f-1d29baa57218"},"vehicle_type_id":"4","last_reported":1737792659,"current_range_meters":38400,"station_id":"ce4bhah2rcd13ifvqei0","pricing_plan_id":"cebpf4jnsgd1na2vs0mg"},{"bike_id":"a1378522-9377-4a0e-9d51-418700010289","system_id":"levelo_inurba_marseille","lat":43.31561,"lon":5.37178,"is_reserved":false,"is_disabled":false,"rental_uris":{"android":"levelo://app?vid=a1378522-9377-4a0e-9d51-418700010289","ios":"levelo://app?vid=a1378522-9377-4a0e-9d51-418700010289"},"vehicle_type_id":"4","last_reported":1737792659,"current_range_meters":32000,"station_id":"ce4bgt12rcd13ifvqcd0","pricing_plan_id":"cebpf4jnsgd1na2vs0mg"},{"bike_id":"8609669b-68c7-4651-8463-8b069e6b3840","system_id":"levelo_inurba_marseille","lat":43.31992,"lon":5.38167,"is_reserved":false,"is_disabled":false,"rental_uris":{"android":"levelo://app?vid=8609669b-68c7-4651-8463-8b069e6b3840","ios":"levelo://app?vid=8609669b-68c7-4651-8463-8b069e6b3840"},"vehicle_type_id":"4","last_reported":1737792659,"current_range_meters":37600,"station_id":"ce4bhr12rcd13ifvqhpg","pricing_plan_id":"cebpf4jnsgd1na2vs0mg"},{"bike_id":"dabad150-600b-4273-9d4a-f2cb97af39fc","system_id":"levelo_inurba_marseille","lat":43.24635,"lon":5.38924,"is_reserved":false,"is_disabled":false,"rental_uris":{"android":"levelo://app?vid=dabad150-600b-4273-9d4a-f2cb97af39fc","ios":"levelo://app?vid=dabad150-600b-4273-9d4a-f2cb97af39fc"},"vehicle_type_id":"4","last_reported":1737792659,"current_range_meters":34000,"station_id":"ce4bhg12rcd13ifvqf60","pricing_plan_id":"cebpf4jnsgd1na2vs0mg"},{"bike_id":"a5193d8e-5ab9-42da-ba19-d58641d5f5c5","system_id":"levelo_inurba_marseille","lat":43.30415,"lon":5.41306,"is_reserved":false,"is_disabled":false,"rental_uris":{"android":"levelo://app?vid=a5193d8e-5ab9-42da-ba19-d58641d5f5c5","ios":"levelo://app?vid=a5193d8e-5ab9-42da-ba19-d58641d5f5c5"},"vehicle_type_id":"4","last_reported":1737792659,"current_range_meters":4400,"station_id":"ce4bhop2rcd13ifvqh8g","pricing_plan_id":"cebpf4jnsgd1na2vs0mg"},{"bike_id":"ebb52fe5-b595-49ac-8635-7d8344c873bb","system_id":"levelo_inurba_marseille","lat":43.30864,"lon":5.38964,"is_reserved":false,"is_disabled":false,"rental_uris":{"android":"levelo://app?vid=ebb52fe5-b595-49ac-8635-7d8344c873bb","ios":"levelo://app?vid=ebb52fe5-b595-49ac-8635-7d8344c873bb"},"vehicle_type_id":"4","last_reported":1737792659,"current_range_meters":30000,"station_id":"","pricing_plan_id":"cebpf4jnsgd1na2vs0mg"},{"bike_id":"b074a724-5185-4b47-b4dd-8abd7cf4e676","system_id":"levelo_inurba_marseille","lat":43.3032,"lon":5.40441,"is_reserved":false,"is_disabled":false,"rental_uris":{"android":"levelo://app?vid=b074a724-5185-4b47-b4dd-8abd7cf4e676","ios":"levelo://app?vid=b074a724-5185-4b47-b4dd-8abd7cf4e676"},"vehicle_type_id":"4","last_reported":1737792659,"current_range_meters":34000,"station_id":"ce4bh012rcd13ifvqd10","pricing_plan_id":"cebpf4jnsgd1na2vs0mg"},{"bike_id":"2af62f9a-b50c-409b-b677-b933873a7a86","system_id":"levelo_inurba_marseille","lat":43.308,"lon":5.38176,"is_reserved":false,"is_disabled":false,"rental_uris":{"android":"levelo://app?vid=2af62f9a-b50c-409b-b677-b933873a7a86","ios":"levelo://app?vid=2af62f9a-b50c-409b-b677-b933873a7a86"},"vehicle_type_id":"4","last_reported":1737792659,"current_range_meters":36400,"station_id":"ce4bgt12rcd13ifvqce0","pricing_plan_id":"cebpf4jnsgd1na2vs0mg"},{"bike_id":"da351246-909a-4986-a69c-176945d7bc8a","system_id":"levelo_inurba_marseille","lat":43.2768,"lon":5.38925,"is_reserved":false,"is_disabled":true,"rental_uris":{"android":"levelo://app?vid=da351246-909a-4986-a69c-176945d7bc8a","ios":"levelo://app?vid=da351246-909a-4986-a69c-176945d7bc8a"},"vehicle_type_id":"4","last_reported":1737792659,"current_range_meters":36800,"station_id":"ce4bhi12rcd13ifvqfo0","pricing_plan_id":"cebpf4jnsgd1na2vs0mg"},{"bike_id":"970840ad-46a9-4f33-b760-b5aac0403610","system_id":"levelo_inurba_marseille","lat":43.30309,"lon":5.40458,"is_reserved":false,"is_disabled":false,"rental_uris":{"android":"levelo://app?vid=970840ad-46a9-4f33-b760-b5aac0403610","ios":"levelo://app?vid=970840ad-46a9-4f33-b760-b5aac0403610"},"vehicle_type_id":"4","last_reported":1737792659,"current_range_meters":26800,"station_id":"ce4bh012rcd13ifvqd10","pricing_plan_id":"cebpf4jnsgd1na2vs0mg"},{"bike_id":"80e9d9f2-febe-400a-b138-dafe31f2e8fb","system_id":"levelo_inurba_marseille","lat":43.30659,"lon":5.40081,"is_reserved":false,"is_disabled":false,"rental_uris":{"android":"levelo://app?vid=80e9d9f2-febe-400a-b138-dafe31f2e8fb","ios":"levelo://app?vid=80e9d9f2-febe-400a-b138-dafe31f2e8fb"},"vehicle_type_id":"4","last_reported":1737792659,"current_range_meters":20800,"station_id":"ce4bh112rcd13ifvqda0","pricing_plan_id":"cebpf4jnsgd1na2vs0mg"},{"bike_id":"b5a249ba-6793-489d-834a-e4c21e0e606a","system_id":"levelo_inurba_marseille","lat":43.26945,"lon":5.38631,"is_reserved":false,"is_disabled":false,"rental_uris":{"android":"levelo://app?vid=b5a249ba-6793-489d-834a-e4c21e0e606a","ios":"levelo://app?vid=b5a249ba-6793-489d-834a-e4c21e0e606a"},"vehicle_type_id":"4","last_reported":1737792659,"current_range_meters":21600,"station_id":"ce4bhh92rcd13ifvqfh0","pricing_plan_id":"cebpf4jnsgd1na2vs0mg"},{"bike_id":"1c35c755-8b1c-439e-8798-f1a001a3969d","system_id":"levelo_inurba_marseille","lat":43.281037,"lon":5.378592,"is_reserved":false,"is_disabled":true,"rental_uris":{"android":"levelo://app?vid=1c35c755-8b1c-439e-8798-f1a001a3969d","ios":"levelo://app?vid=1c35c755-8b1c-439e-8798-f1a001a3969d"},"vehicle_type_id":"4","last_reported":1737792659,"current_range_meters":0,"station_id":"ce4bha12rcd13ifvqee0","pricing_plan_id":"cebpf4jnsgd1na2vs0mg"},{"bike_id":"c425264b-f06d-4006-8cf2-8dc867d9adfd","system_id":"levelo_inurba_marseille","lat":43.31644,"lon":5.38345,"is_reserved":false,"is_disabled":false,"rental_uris":{"android":"levelo://app?vid=c425264b-f06d-4006-8cf2-8dc867d9adfd","ios":"levelo://app?vid=c425264b-f06d-4006-8cf2-8dc867d9adfd"},"vehicle_type_id":"4","last_reported":1737792659,"current_range_meters":8800,"station_id":"","pricing_plan_id":"cebpf4jnsgd1na2vs0mg"},{"bike_id":"d56c115f-6df7-4f94-ac43-1d7eeda28b91","system_id":"levelo_inurba_marseille","lat":43.3232,"lon":5.40629,"is_reserved":false,"is_disabled":false,"rental_uris":{"android":"levelo://app?vid=d56c115f-6df7-4f94-ac43-1d7eeda28b91","ios":"levelo://app?vid=d56c115f-6df7-4f94-ac43-1d7eeda28b91"},"vehicle_type_id":"4","last_reported":1737792659,"current_range_meters":36000,"station_id":"ce4bhq92rcd13ifvqhjg","pricing_plan_id":"cebpf4jnsgd1na2vs0mg"},{"bike_id":"bce09769-02dc-489a-bcd7-84421f3b354f","system_id":"levelo_inurba_marseille","lat":43.32359,"lon":5.38888,"is_reserved":false,"is_disabled":false,"rental_uris":{"android":"levelo://app?vid=bce09769-02dc-489a-bcd7-84421f3b354f","ios":"levelo://app?vid=bce09769-02dc-489a-bcd7-84421f3b354f"},"vehicle_type_id":"4","last_reported":1737792659,"current_range_meters":19200,"station_id":"ce4bhqp2rcd13ifvqhog","pricing_plan_id":"cebpf4jnsgd1na2vs0mg"},{"bike_id":"feaa41bd-23bb-4489-ac2b-a57534004bb0","system_id":"levelo_inurba_marseille","lat":43.24167,"lon":5.39741,"is_reserved":false,"is_disabled":false,"rental_uris":{"android":"levelo://app?vid=feaa41bd-23bb-4489-ac2b-a57534004bb0","ios":"levelo://app?vid=feaa41bd-23bb-4489-ac2b-a57534004bb0"},"vehicle_type_id":"4","last_reported":1737792659,"current_range_meters":25200,"station_id":"ce4bhn12rcd13ifvqgpg","pricing_plan_id":"cebpf4jnsgd1na2vs0mg"},{"bike_id":"febe660e-c8d3-40ea-9e6c-5eb2eb78fd55","system_id":"levelo_inurba_marseille","lat":43.24662,"lon":5.38167,"is_reserved":false,"is_disabled":false,"rental_uris":{"android":"levelo://app?vid=febe660e-c8d3-40ea-9e6c-5eb2eb78fd55","ios":"levelo://app?vid=febe660e-c8d3-40ea-9e6c-5eb2eb78fd55"},"vehicle_type_id":"4","last_reported":1737792659,"current_range_meters":26000,"station_id":"ce4bhih2rcd13ifvqfr0","pricing_plan_id":"cebpf4jnsgd1na2vs0mg"},{"bike_id":"d06e4858-1735-4dcf-9f21-bf859f4d029b","system_id":"levelo_inurba_marseille","lat":43.28139,"lon":5.42651,"is_reserved":false,"is_disabled":false,"rental_uris":{"android":"levelo://app?vid=d06e4858-1735-4dcf-9f21-bf859f4d029b","ios":"levelo://app?vid=d06e4858-1735-4dcf-9f21-bf859f4d029b"},"vehicle_type_id":"4","last_reported":1737792659,"current_range_meters":38400,"station_id":"ce4bhnh2rcd13ifvqgug","pricing_plan_id":"cebpf4jnsgd1na2vs0mg"},{"bike_id":"456c720b-c4bb-42a0-89e1-2a9fe602ff7b","system_id":"levelo_inurba_marseille","lat":43.241632,"lon":5.36398,"is_reserved":false,"is_disabled":false,"rental_uris":{"android":"levelo://app?vid=456c720b-c4bb-42a0-89e1-2a9fe602ff7b","ios":"levelo://app?vid=456c720b-c4bb-42a0-89e1-2a9fe602ff7b"},"vehicle_type_id":"4","last_reported":1737792659,"current_range_meters":16400,"station_id":"cpo36qri1sfpv3e86is0","pricing_plan_id":"cebpf4jnsgd1na2vs0mg"},{"bike_id":"61df6208-7c8d-4faf-b087-b4cb2a715156","system_id":"levelo_inurba_marseille","lat":43.31976,"lon":5.38179,"is_reserved":false,"is_disabled":false,"rental_uris":{"android":"levelo://app?vid=61df6208-7c8d-4faf-b087-b4cb2a715156","ios":"levelo://app?vid=61df6208-7c8d-4faf-b087-b4cb2a715156"},"vehicle_type_id":"4","last_reported":1737792659,"current_range_meters":39200,"station_id":"ce4bhr12rcd13ifvqhpg","pricing_plan_id":"cebpf4jnsgd1na2vs0mg"},{"bike_id":"3bac8bf1-c43c-48aa-a4e1-844bfc3a5ad3","system_id":"levelo_inurba_marseille","lat":43.30175,"lon":5.38106,"is_reserved":false,"is_disabled":true,"rental_uris":{"android":"levelo://app?vid=3bac8bf1-c43c-48aa-a4e1-844bfc3a5ad3","ios":"levelo://app?vid=3bac8bf1-c43c-48aa-a4e1-844bfc3a5ad3"},"vehicle_type_id":"4","last_reported":1737792659,"current_range_meters":8000,"station_id":"ce4bgjp2rcd13ifvqbh0","pricing_plan_id":"cebpf4jnsgd1na2vs0mg"},{"bike_id":"5a5f2dc1-b179-4c8f-8366-4367f5a8a308","system_id":"levelo_inurba_marseille","lat":43.30215,"lon":5.40061,"is_reserved":false,"is_disabled":false,"rental_uris":{"android":"levelo://app?vid=5a5f2dc1-b179-4c8f-8366-4367f5a8a308","ios":"levelo://app?vid=5a5f2dc1-b179-4c8f-8366-4367f5a8a308"},"vehicle_type_id":"4","last_reported":1737792659,"current_range_meters":33200,"station_id":"ce4bgvh2rcd13ifvqcs0","pricing_plan_id":"cebpf4jnsgd1na2vs0mg"},{"bike_id":"1346ff93-9ddb-4093-aa5d-b6cb09dfef3c","system_id":"levelo_inurba_marseille","lat":43.29081,"lon":5.38203,"is_reserved":false,"is_disabled":true,"rental_uris":{"android":"levelo://app?vid=1346ff93-9ddb-4093-aa5d-b6cb09dfef3c","ios":"levelo://app?vid=1346ff93-9ddb-4093-aa5d-b6cb09dfef3c"},"vehicle_type_id":"4","last_reported":1737792659,"current_range_meters":9600,"station_id":"ce4bh512rcd13ifvqe2g","pricing_plan_id":"cebpf4jnsgd1na2vs0mg"},{"bike_id":"354a0ed3-542c-4648-b29a-783f2de4680e","system_id":"levelo_inurba_marseille","lat":43.27676,"lon":5.38916,"is_reserved":false,"is_disabled":true,"rental_uris":{"android":"levelo://app?vid=354a0ed3-542c-4648-b29a-783f2de4680e","ios":"levelo://app?vid=354a0ed3-542c-4648-b29a-783f2de4680e"},"vehicle_type_id":"4","last_reported":1737792659,"current_range_meters":33200,"station_id":"ce4bhi12rcd13ifvqfo0","pricing_plan_id":"cebpf4jnsgd1na2vs0mg"},{"bike_id":"e3f5ddf0-cb41-47ac-a29e-5fc94851e670","system_id":"levelo_inurba_marseille","lat":43.29277,"lon":5.36849,"is_reserved":false,"is_disabled":false,"rental_uris":{"android":"levelo://app?vid=e3f5ddf0-cb41-47ac-a29e-5fc94851e670","ios":"levelo://app?vid=e3f5ddf0-cb41-47ac-a29e-5fc94851e670"},"vehicle_type_id":"4","last_reported":1737792659,"current_range_meters":32000,"station_id":"ce4bhbp2rcd13ifvqesg","pricing_plan_id":"cebpf4jnsgd1na2vs0mg"},{"bike_id":"61d45abe-c1c8-4675-87ac-99c23d349e9f","system_id":"levelo_inurba_marseille","lat":43.30103,"lon":5.39087,"is_reserved":false,"is_disabled":false,"rental_uris":{"android":"levelo://app?vid=61d45abe-c1c8-4675-87ac-99c23d349e9f","ios":"levelo://app?vid=61d45abe-c1c8-4675-87ac-99c23d349e9f"},"vehicle_type_id":"4","last_reported":1737792659,"current_range_meters":39200,"station_id":"ce4bh192rcd13ifvqdb0","pricing_plan_id":"cebpf4jnsgd1na2vs0mg"},{"bike_id":"d5665470-c1b3-45e5-80ac-4df7d60c2564","system_id":"levelo_inurba_marseille","lat":43.32109,"lon":5.36763,"is_reserved":false,"is_disabled":false,"rental_uris":{"android":"levelo://app?vid=d5665470-c1b3-45e5-80ac-4df7d60c2564","ios":"levelo://app?vid=d5665470-c1b3-45e5-80ac-4df7d60c2564"},"vehicle_type_id":"4","last_reported":1737792659,"current_range_meters":34000,"station_id":"ce4bhrh2rcd13ifvqhug","pricing_plan_id":"cebpf4jnsgd1na2vs0mg"},{"bike_id":"8cf51c5b-7c48-4ab5-9077-80c820ef55f3","system_id":"levelo_inurba_marseille","lat":43.27494,"lon":5.42448,"is_reserved":false,"is_disabled":false,"rental_uris":{"android":"levelo://app?vid=8cf51c5b-7c48-4ab5-9077-80c820ef55f3","ios":"levelo://app?vid=8cf51c5b-7c48-4ab5-9077-80c820ef55f3"},"vehicle_type_id":"4","last_reported":1737792659,"current_range_meters":30800,"station_id":"ce4bhn92rcd13ifvqgrg","pricing_plan_id":"cebpf4jnsgd1na2vs0mg"},{"bike_id":"92b09ee2-b0c6-42bc-b576-3b7af305ca99","system_id":"levelo_inurba_marseille","lat":43.31285,"lon":5.4018,"is_reserved":false,"is_disabled":false,"rental_uris":{"android":"levelo://app?vid=92b09ee2-b0c6-42bc-b576-3b7af305ca99","ios":"levelo://app?vid=92b09ee2-b0c6-42bc-b576-3b7af305ca99"},"vehicle_type_id":"4","last_reported":1737792659,"current_range_meters":6000,"station_id":"ce4bh092rcd13ifvqd30","pricing_plan_id":"cebpf4jnsgd1na2vs0mg"},{"bike_id":"f7056aa3-3530-4d26-9d7f-58e06b1fd1ad","system_id":"levelo_inurba_marseille","lat":43.293671,"lon":5.378619,"is_reserved":false,"is_disabled":true,"rental_uris":{"android":"levelo://app?vid=f7056aa3-3530-4d26-9d7f-58e06b1fd1ad","ios":"levelo://app?vid=f7056aa3-3530-4d26-9d7f-58e06b1fd1ad"},"vehicle_type_id":"4","last_reported":1737792659,"current_range_meters":34000,"station_id":"ce4bgjh2rcd13ifvqbf0","pricing_plan_id":"cebpf4jnsgd1na2vs0mg"},{"bike_id":"11cc95e4-3cf9-4012-822f-515c26b74bb6","system_id":"levelo_inurba_marseille","lat":43.33601,"lon":5.41022,"is_reserved":false,"is_disabled":false,"rental_uris":{"android":"levelo://app?vid=11cc95e4-3cf9-4012-822f-515c26b74bb6","ios":"levelo://app?vid=11cc95e4-3cf9-4012-822f-515c26b74bb6"},"vehicle_type_id":"4","last_reported":1737792659,"current_range_meters":38000,"station_id":"ce4bhqh2rcd13ifvqhmg","pricing_plan_id":"cebpf4jnsgd1na2vs0mg"},{"bike_id":"c7782ad1-e241-4984-be82-b94ec303cf6b","system_id":"levelo_inurba_marseille","lat":43.27837,"lon":5.39225,"is_reserved":false,"is_disabled":false,"rental_uris":{"android":"levelo://app?vid=c7782ad1-e241-4984-be82-b94ec303cf6b","ios":"levelo://app?vid=c7782ad1-e241-4984-be82-b94ec303cf6b"},"vehicle_type_id":"4","last_reported":1737792659,"current_range_meters":38800,"station_id":"ce4bhjp2rcd13ifvqga0","pricing_plan_id":"cebpf4jnsgd1na2vs0mg"},{"bike_id":"e07bdf35-c361-480d-9f85-da394b2934f0","system_id":"levelo_inurba_marseille","lat":43.27491,"lon":5.42453,"is_reserved":false,"is_disabled":false,"rental_uris":{"android":"levelo://app?vid=e07bdf35-c361-480d-9f85-da394b2934f0","ios":"levelo://app?vid=e07bdf35-c361-480d-9f85-da394b2934f0"},"vehicle_type_id":"4","last_reported":1737792659,"current_range_meters":32800,"station_id":"ce4bhn92rcd13ifvqgrg","pricing_plan_id":"cebpf4jnsgd1na2vs0mg"},{"bike_id":"7163b50e-f30c-4d07-817b-00137a631fae","system_id":"levelo_inurba_marseille","lat":43.28697,"lon":5.40019,"is_reserved":false,"is_disabled":false,"rental_uris":{"android":"levelo://app?vid=7163b50e-f30c-4d07-817b-00137a631fae","ios":"levelo://app?vid=7163b50e-f30c-4d07-817b-00137a631fae"},"vehicle_type_id":"4","last_reported":1737792659,"current_range_meters":38800,"station_id":"ce4bho92rcd13ifvqh3g","pricing_plan_id":"cebpf4jnsgd1na2vs0mg"},{"bike_id":"5d0ced69-255e-410b-9398-708d471fa8b7","system_id":"levelo_inurba_marseille","lat":43.303034,"lon":5.392124,"is_reserved":false,"is_disabled":true,"rental_uris":{"android":"levelo://app?vid=5d0ced69-255e-410b-9398-708d471fa8b7","ios":"levelo://app?vid=5d0ced69-255e-410b-9398-708d471fa8b7"},"vehicle_type_id":"4","last_reported":1737792659,"current_range_meters":32000,"station_id":"ce4bgkh2rcd13ifvqbk0","pricing_plan_id":"cebpf4jnsgd1na2vs0mg"},{"bike_id":"35614ed7-a0df-4792-bca2-a1978fcd9fab","system_id":"levelo_inurba_marseille","lat":43.30785,"lon":5.43527,"is_reserved":false,"is_disabled":false,"rental_uris":{"android":"levelo://app?vid=35614ed7-a0df-4792-bca2-a1978fcd9fab","ios":"levelo://app?vid=35614ed7-a0df-4792-bca2-a1978fcd9fab"},"vehicle_type_id":"4","last_reported":1737792659,"current_range_meters":36400,"station_id":"ce4bhph2rcd13ifvqheg","pricing_plan_id":"cebpf4jnsgd1na2vs0mg"},{"bike_id":"6d17c276-0a0b-4d66-8572-ced57eea72cc","system_id":"levelo_inurba_marseille","lat":43.33588,"lon":5.40991,"is_reserved":false,"is_disabled":false,"rental_uris":{"android":"levelo://app?vid=6d17c276-0a0b-4d66-8572-ced57eea72cc","ios":"levelo://app?vid=6d17c276-0a0b-4d66-8572-ced57eea72cc"},"vehicle_type_id":"4","last_reported":1737792659,"current_range_meters":14800,"station_id":"ce4bhqh2rcd13ifvqhmg","pricing_plan_id":"cebpf4jnsgd1na2vs0mg"},{"bike_id":"b3ebfb7c-352e-4177-b9de-af76ff1f216d","system_id":"levelo_inurba_marseille","lat":43.3104,"lon":5.38348,"is_reserved":false,"is_disabled":false,"rental_uris":{"android":"levelo://app?vid=b3ebfb7c-352e-4177-b9de-af76ff1f216d","ios":"levelo://app?vid=b3ebfb7c-352e-4177-b9de-af76ff1f216d"},"vehicle_type_id":"4","last_reported":1737792659,"current_range_meters":24800,"station_id":"ce4bgv92rcd13ifvqcr0","pricing_plan_id":"cebpf4jnsgd1na2vs0mg"},{"bike_id":"b7faf3f4-bab2-45d2-9bdc-d75527cec9ed","system_id":"levelo_inurba_marseille","lat":43.2898,"lon":5.37826,"is_reserved":false,"is_disabled":false,"rental_uris":{"android":"levelo://app?vid=b7faf3f4-bab2-45d2-9bdc-d75527cec9ed","ios":"levelo://app?vid=b7faf3f4-bab2-45d2-9bdc-d75527cec9ed"},"vehicle_type_id":"4","last_reported":1737792659,"current_range_meters":34000,"station_id":"ce4bh9p2rcd13ifvqed0","pricing_plan_id":"cebpf4jnsgd1na2vs0mg"},{"bike_id":"5df5d3b1-6891-4b1c-a5cb-69d79f829674","system_id":"levelo_inurba_marseille","lat":43.29791,"lon":5.38079,"is_reserved":false,"is_disabled":false,"rental_uris":{"android":"levelo://app?vid=5df5d3b1-6891-4b1c-a5cb-69d79f829674","ios":"levelo://app?vid=5df5d3b1-6891-4b1c-a5cb-69d79f829674"},"vehicle_type_id":"4","last_reported":1737792659,"current_range_meters":30800,"station_id":"ce4bgip2rcd13ifvqbb0","pricing_plan_id":"cebpf4jnsgd1na2vs0mg"},{"bike_id":"51d9c06e-b0ae-4316-a37b-5c2613a5ffa7","system_id":"levelo_inurba_marseille","lat":43.30479,"lon":5.37919,"is_reserved":false,"is_disabled":true,"rental_uris":{"android":"levelo://app?vid=51d9c06e-b0ae-4316-a37b-5c2613a5ffa7","ios":"levelo://app?vid=51d9c06e-b0ae-4316-a37b-5c2613a5ffa7"},"vehicle_type_id":"4","last_reported":1737792659,"current_range_meters":35600,"station_id":"ce4bgup2rcd13ifvqcn0","pricing_plan_id":"cebpf4jnsgd1na2vs0mg"},{"bike_id":"23f6d70a-18ab-4652-842b-b500986d25fd","system_id":"levelo_inurba_marseille","lat":43.29188,"lon":5.35824,"is_reserved":false,"is_disabled":false,"rental_uris":{"android":"levelo://app?vid=23f6d70a-18ab-4652-842b-b500986d25fd","ios":"levelo://app?vid=23f6d70a-18ab-4652-842b-b500986d25fd"},"vehicle_type_id":"4","last_reported":1737792659,"current_range_meters":38400,"station_id":"ce4bhb12rcd13ifvqel0","pricing_plan_id":"cebpf4jnsgd1na2vs0mg"},{"bike_id":"1751fce2-cf09-42c4-909f-331d932110c8","system_id":"levelo_inurba_marseille","lat":43.30875,"lon":5.39647,"is_reserved":false,"is_disabled":true,"rental_uris":{"android":"levelo://app?vid=1751fce2-cf09-42c4-909f-331d932110c8","ios":"levelo://app?vid=1751fce2-cf09-42c4-909f-331d932110c8"},"vehicle_type_id":"4","last_reported":1737792659,"current_range_meters":19600,"station_id":"ce4bh012rcd13ifvqcv0","pricing_plan_id":"cebpf4jnsgd1na2vs0mg"},{"bike_id":"9e579858-e7c0-4e91-9bb1-4a23c5cf16fc","system_id":"levelo_inurba_marseille","lat":43.30252,"lon":5.40089,"is_reserved":false,"is_disabled":false,"rental_uris":{"android":"levelo://app?vid=9e579858-e7c0-4e91-9bb1-4a23c5cf16fc","ios":"levelo://app?vid=9e579858-e7c0-4e91-9bb1-4a23c5cf16fc"},"vehicle_type_id":"4","last_reported":1737792659,"current_range_meters":39200,"station_id":"ce4bgvh2rcd13ifvqcs0","pricing_plan_id":"cebpf4jnsgd1na2vs0mg"},{"bike_id":"cdf0f18c-3eb9-415d-ac4a-82f436557d7b","system_id":"levelo_inurba_marseille","lat":43.23182,"lon":5.3999,"is_reserved":false,"is_disabled":false,"rental_uris":{"android":"levelo://app?vid=cdf0f18c-3eb9-415d-ac4a-82f436557d7b","ios":"levelo://app?vid=cdf0f18c-3eb9-415d-ac4a-82f436557d7b"},"vehicle_type_id":"4","last_reported":1737792659,"current_range_meters":3200,"station_id":"ce4bhn12rcd13ifvqgqg","pricing_plan_id":"cebpf4jnsgd1na2vs0mg"},{"bike_id":"fc840760-c6d7-47de-9420-cc3f4b7608bc","system_id":"levelo_inurba_marseille","lat":43.32347,"lon":5.36745,"is_reserved":false,"is_disabled":false,"rental_uris":{"android":"levelo://app?vid=fc840760-c6d7-47de-9420-cc3f4b7608bc","ios":"levelo://app?vid=fc840760-c6d7-47de-9420-cc3f4b7608bc"},"vehicle_type_id":"4","last_reported":1737792659,"current_range_meters":20800,"station_id":"ce4bhsh2rcd13ifvqi2g","pricing_plan_id":"cebpf4jnsgd1na2vs0mg"},{"bike_id":"921ce6a7-788f-4615-becc-ee4c10884fb4","system_id":"levelo_inurba_marseille","lat":43.26928,"lon":5.38652,"is_reserved":false,"is_disabled":false,"rental_uris":{"android":"levelo://app?vid=921ce6a7-788f-4615-becc-ee4c10884fb4","ios":"levelo://app?vid=921ce6a7-788f-4615-becc-ee4c10884fb4"},"vehicle_type_id":"4","last_reported":1737792659,"current_range_meters":37600,"station_id":"ce4bhh92rcd13ifvqfh0","pricing_plan_id":"cebpf4jnsgd1na2vs0mg"},{"bike_id":"dd0c0e86-ef73-48c7-98b7-b46e24f96f31","system_id":"levelo_inurba_marseille","lat":43.28729,"lon":5.36106,"is_reserved":false,"is_disabled":false,"rental_uris":{"android":"levelo://app?vid=dd0c0e86-ef73-48c7-98b7-b46e24f96f31","ios":"levelo://app?vid=dd0c0e86-ef73-48c7-98b7-b46e24f96f31"},"vehicle_type_id":"4","last_reported":1737792659,"current_range_meters":27600,"station_id":"cki0cbj6b192h4jlfktg","pricing_plan_id":"cebpf4jnsgd1na2vs0mg"},{"bike_id":"0bf478b6-3b2b-4ec9-9e6b-9c53a23f7ed8","system_id":"levelo_inurba_marseille","lat":43.296,"lon":5.38112,"is_reserved":false,"is_disabled":false,"rental_uris":{"android":"levelo://app?vid=0bf478b6-3b2b-4ec9-9e6b-9c53a23f7ed8","ios":"levelo://app?vid=0bf478b6-3b2b-4ec9-9e6b-9c53a23f7ed8"},"vehicle_type_id":"4","last_reported":1737792659,"current_range_meters":26800,"station_id":"ce4bgl12rcd13ifvqbo0","pricing_plan_id":"cebpf4jnsgd1na2vs0mg"},{"bike_id":"ea624404-124a-4128-9041-089ad79942c5","system_id":"levelo_inurba_marseille","lat":43.2955,"lon":5.42282,"is_reserved":false,"is_disabled":false,"rental_uris":{"android":"levelo://app?vid=ea624404-124a-4128-9041-089ad79942c5","ios":"levelo://app?vid=ea624404-124a-4128-9041-089ad79942c5"},"vehicle_type_id":"4","last_reported":1737792659,"current_range_meters":33200,"station_id":"ce4bhph2rcd13ifvqhdg","pricing_plan_id":"cebpf4jnsgd1na2vs0mg"},{"bike_id":"7f1596e0-f6d9-4072-b5fd-4558f8ae0b9d","system_id":"levelo_inurba_marseille","lat":43.25716,"lon":5.41116,"is_reserved":false,"is_disabled":false,"rental_uris":{"android":"levelo://app?vid=7f1596e0-f6d9-4072-b5fd-4558f8ae0b9d","ios":"levelo://app?vid=7f1596e0-f6d9-4072-b5fd-4558f8ae0b9d"},"vehicle_type_id":"4","last_reported":1737792659,"current_range_meters":39200,"station_id":"ce4bhkp2rcd13ifvqgd0","pricing_plan_id":"cebpf4jnsgd1na2vs0mg"},{"bike_id":"9863b7f9-4316-4322-9f6c-3cc66b0448e2","system_id":"levelo_inurba_marseille","lat":43.279439,"lon":5.389008,"is_reserved":false,"is_disabled":true,"rental_uris":{"android":"levelo://app?vid=9863b7f9-4316-4322-9f6c-3cc66b0448e2","ios":"levelo://app?vid=9863b7f9-4316-4322-9f6c-3cc66b0448e2"},"vehicle_type_id":"4","last_reported":1737792659,"current_range_meters":16800,"station_id":"","pricing_plan_id":"cebpf4jnsgd1na2vs0mg"},{"bike_id":"dbb7768e-3a47-4131-9a61-221a0e15cbea","system_id":"levelo_inurba_marseille","lat":43.28698,"lon":5.4,"is_reserved":false,"is_disabled":false,"rental_uris":{"android":"levelo://app?vid=dbb7768e-3a47-4131-9a61-221a0e15cbea","ios":"levelo://app?vid=dbb7768e-3a47-4131-9a61-221a0e15cbea"},"vehicle_type_id":"4","last_reported":1737792659,"current_range_meters":22000,"station_id":"ce4bho92rcd13ifvqh3g","pricing_plan_id":"cebpf4jnsgd1na2vs0mg"},{"bike_id":"99dbffeb-1c5a-4dd9-965e-fb4860ebb73e","system_id":"levelo_inurba_marseille","lat":43.30794,"lon":5.38139,"is_reserved":false,"is_disabled":false,"rental_uris":{"android":"levelo://app?vid=99dbffeb-1c5a-4dd9-965e-fb4860ebb73e","ios":"levelo://app?vid=99dbffeb-1c5a-4dd9-965e-fb4860ebb73e"},"vehicle_type_id":"4","last_reported":1737792659,"current_range_meters":36400,"station_id":"ce4bgt12rcd13ifvqce0","pricing_plan_id":"cebpf4jnsgd1na2vs0mg"},{"bike_id":"4f455d0b-9233-402b-ba41-7ebf3c097a0b","system_id":"levelo_inurba_marseille","lat":43.27069,"lon":5.41519,"is_reserved":false,"is_disabled":false,"rental_uris":{"android":"levelo://app?vid=4f455d0b-9233-402b-ba41-7ebf3c097a0b","ios":"levelo://app?vid=4f455d0b-9233-402b-ba41-7ebf3c097a0b"},"vehicle_type_id":"4","last_reported":1737792659,"current_range_meters":14000,"station_id":"","pricing_plan_id":"cebpf4jnsgd1na2vs0mg"},{"bike_id":"40276c2b-c10e-42ab-857d-43e7ecb22cd6","system_id":"levelo_inurba_marseille","lat":43.27193,"lon":5.41,"is_reserved":false,"is_disabled":false,"rental_uris":{"android":"levelo://app?vid=40276c2b-c10e-42ab-857d-43e7ecb22cd6","ios":"levelo://app?vid=40276c2b-c10e-42ab-857d-43e7ecb22cd6"},"vehicle_type_id":"4","last_reported":1737792659,"current_range_meters":33600,"station_id":"ce4bhl12rcd13ifvqgf0","pricing_plan_id":"cebpf4jnsgd1na2vs0mg"},{"bike_id":"e30fe586-d52a-489f-8e54-564b5d80c32a","system_id":"levelo_inurba_marseille","lat":43.28948,"lon":5.3643,"is_reserved":false,"is_disabled":false,"rental_uris":{"android":"levelo://app?vid=e30fe586-d52a-489f-8e54-564b5d80c32a","ios":"levelo://app?vid=e30fe586-d52a-489f-8e54-564b5d80c32a"},"vehicle_type_id":"4","last_reported":1737792659,"current_range_meters":38000,"station_id":"ce4bhc92rcd13ifvqetg","pricing_plan_id":"cebpf4jnsgd1na2vs0mg"},{"bike_id":"0661138c-ae09-4831-a5ca-b52ad2ea4fd6","system_id":"levelo_inurba_marseille","lat":43.30895,"lon":5.37284,"is_reserved":false,"is_disabled":false,"rental_uris":{"android":"levelo://app?vid=0661138c-ae09-4831-a5ca-b52ad2ea4fd6","ios":"levelo://app?vid=0661138c-ae09-4831-a5ca-b52ad2ea4fd6"},"vehicle_type_id":"4","last_reported":1737792659,"current_range_meters":9600,"station_id":"","pricing_plan_id":"cebpf4jnsgd1na2vs0mg"},{"bike_id":"9834648b-5496-4d87-b744-3e297e8ded1f","system_id":"levelo_inurba_marseille","lat":43.25719,"lon":5.41117,"is_reserved":false,"is_disabled":false,"rental_uris":{"android":"levelo://app?vid=9834648b-5496-4d87-b744-3e297e8ded1f","ios":"levelo://app?vid=9834648b-5496-4d87-b744-3e297e8ded1f"},"vehicle_type_id":"4","last_reported":1737792659,"current_range_meters":37600,"station_id":"ce4bhkp2rcd13ifvqgd0","pricing_plan_id":"cebpf4jnsgd1na2vs0mg"},{"bike_id":"32639744-96fb-4e03-9c77-a8f66e1ade83","system_id":"levelo_inurba_marseille","lat":43.23188,"lon":5.39999,"is_reserved":false,"is_disabled":false,"rental_uris":{"android":"levelo://app?vid=32639744-96fb-4e03-9c77-a8f66e1ade83","ios":"levelo://app?vid=32639744-96fb-4e03-9c77-a8f66e1ade83"},"vehicle_type_id":"4","last_reported":1737792659,"current_range_meters":27600,"station_id":"ce4bhn12rcd13ifvqgqg","pricing_plan_id":"cebpf4jnsgd1na2vs0mg"},{"bike_id":"25de2542-1bfa-4339-b5e3-b1aa2e18e3bf","system_id":"levelo_inurba_marseille","lat":43.3234,"lon":5.40614,"is_reserved":false,"is_disabled":false,"rental_uris":{"android":"levelo://app?vid=25de2542-1bfa-4339-b5e3-b1aa2e18e3bf","ios":"levelo://app?vid=25de2542-1bfa-4339-b5e3-b1aa2e18e3bf"},"vehicle_type_id":"4","last_reported":1737792659,"current_range_meters":19200,"station_id":"ce4bhq92rcd13ifvqhjg","pricing_plan_id":"cebpf4jnsgd1na2vs0mg"},{"bike_id":"cb34c09d-75c7-4b86-a04f-10301f39ae15","system_id":"levelo_inurba_marseille","lat":43.28703,"lon":5.39977,"is_reserved":false,"is_disabled":false,"rental_uris":{"android":"levelo://app?vid=cb34c09d-75c7-4b86-a04f-10301f39ae15","ios":"levelo://app?vid=cb34c09d-75c7-4b86-a04f-10301f39ae15"},"vehicle_type_id":"4","last_reported":1737792659,"current_range_meters":22400,"station_id":"ce4bho92rcd13ifvqh3g","pricing_plan_id":"cebpf4jnsgd1na2vs0mg"},{"bike_id":"0360ea45-d506-45c1-97b0-d45cf5b2aaea","system_id":"levelo_inurba_marseille","lat":43.298119,"lon":5.404121,"is_reserved":false,"is_disabled":false,"rental_uris":{"android":"levelo://app?vid=0360ea45-d506-45c1-97b0-d45cf5b2aaea","ios":"levelo://app?vid=0360ea45-d506-45c1-97b0-d45cf5b2aaea"},"vehicle_type_id":"4","last_reported":1737792659,"current_range_meters":38400,"station_id":"ce4bh112rcd13ifvqd90","pricing_plan_id":"cebpf4jnsgd1na2vs0mg"},{"bike_id":"f716f6a9-70e6-40ef-9b05-f7a8de90bad0","system_id":"levelo_inurba_marseille","lat":43.269356,"lon":5.389118,"is_reserved":false,"is_disabled":false,"rental_uris":{"android":"levelo://app?vid=f716f6a9-70e6-40ef-9b05-f7a8de90bad0","ios":"levelo://app?vid=f716f6a9-70e6-40ef-9b05-f7a8de90bad0"},"vehicle_type_id":"4","last_reported":1737792659,"current_range_meters":29600,"station_id":"ce4bhhh2rcd13ifvqfl0","pricing_plan_id":"cebpf4jnsgd1na2vs0mg"},{"bike_id":"2e95c2f9-54ee-4f43-9ca5-c70c6253eaff","system_id":"levelo_inurba_marseille","lat":43.29808,"lon":5.4042,"is_reserved":false,"is_disabled":false,"rental_uris":{"android":"levelo://app?vid=2e95c2f9-54ee-4f43-9ca5-c70c6253eaff","ios":"levelo://app?vid=2e95c2f9-54ee-4f43-9ca5-c70c6253eaff"},"vehicle_type_id":"4","last_reported":1737792659,"current_range_meters":38800,"station_id":"ce4bh112rcd13ifvqd90","pricing_plan_id":"cebpf4jnsgd1na2vs0mg"},{"bike_id":"f2f78da6-b14e-43df-a3f4-ba0ca5e4ef06","system_id":"levelo_inurba_marseille","lat":43.29281,"lon":5.40115,"is_reserved":false,"is_disabled":false,"rental_uris":{"android":"levelo://app?vid=f2f78da6-b14e-43df-a3f4-ba0ca5e4ef06","ios":"levelo://app?vid=f2f78da6-b14e-43df-a3f4-ba0ca5e4ef06"},"vehicle_type_id":"4","last_reported":1737792659,"current_range_meters":38800,"station_id":"ce4bh312rcd13ifvqdk0","pricing_plan_id":"cebpf4jnsgd1na2vs0mg"},{"bike_id":"994af511-ccca-488a-8537-a60db72ca6b4","system_id":"levelo_inurba_marseille","lat":43.28849,"lon":5.35892,"is_reserved":false,"is_disabled":false,"rental_uris":{"android":"levelo://app?vid=994af511-ccca-488a-8537-a60db72ca6b4","ios":"levelo://app?vid=994af511-ccca-488a-8537-a60db72ca6b4"},"vehicle_type_id":"4","last_reported":1737792659,"current_range_meters":6000,"station_id":"ce4bhb12rcd13ifvqem0","pricing_plan_id":"cebpf4jnsgd1na2vs0mg"},{"bike_id":"f4824e78-ae1a-4a8d-aa12-b7c1f7d7ff5d","system_id":"levelo_inurba_marseille","lat":43.27484,"lon":5.42458,"is_reserved":false,"is_disabled":false,"rental_uris":{"android":"levelo://app?vid=f4824e78-ae1a-4a8d-aa12-b7c1f7d7ff5d","ios":"levelo://app?vid=f4824e78-ae1a-4a8d-aa12-b7c1f7d7ff5d"},"vehicle_type_id":"4","last_reported":1737792659,"current_range_meters":12000,"station_id":"ce4bhn92rcd13ifvqgrg","pricing_plan_id":"cebpf4jnsgd1na2vs0mg"},{"bike_id":"6f0e28ce-024f-4cd7-923a-80deb29961a7","system_id":"levelo_inurba_marseille","lat":43.32986,"lon":5.39084,"is_reserved":false,"is_disabled":false,"rental_uris":{"android":"levelo://app?vid=6f0e28ce-024f-4cd7-923a-80deb29961a7","ios":"levelo://app?vid=6f0e28ce-024f-4cd7-923a-80deb29961a7"},"vehicle_type_id":"4","last_reported":1737792659,"current_range_meters":38800,"station_id":"ce4bhr92rcd13ifvqhrg","pricing_plan_id":"cebpf4jnsgd1na2vs0mg"},{"bike_id":"3da1ba3d-cc9b-4f48-84c0-3b24d0a47268","system_id":"levelo_inurba_marseille","lat":43.27677,"lon":5.3888,"is_reserved":false,"is_disabled":false,"rental_uris":{"android":"levelo://app?vid=3da1ba3d-cc9b-4f48-84c0-3b24d0a47268","ios":"levelo://app?vid=3da1ba3d-cc9b-4f48-84c0-3b24d0a47268"},"vehicle_type_id":"4","last_reported":1737792659,"current_range_meters":38800,"station_id":"ce4bhi12rcd13ifvqfo0","pricing_plan_id":"cebpf4jnsgd1na2vs0mg"},{"bike_id":"3dede1dc-76e1-4f86-b50c-958660e4fbc0","system_id":"levelo_inurba_marseille","lat":43.27921,"lon":5.39582,"is_reserved":false,"is_disabled":false,"rental_uris":{"android":"levelo://app?vid=3dede1dc-76e1-4f86-b50c-958660e4fbc0","ios":"levelo://app?vid=3dede1dc-76e1-4f86-b50c-958660e4fbc0"},"vehicle_type_id":"4","last_reported":1737792659,"current_range_meters":32800,"station_id":"ce4bhf92rcd13ifvqf40","pricing_plan_id":"cebpf4jnsgd1na2vs0mg"},{"bike_id":"7c78a755-c7f5-4f07-a96b-621451d47948","system_id":"levelo_inurba_marseille","lat":43.29908,"lon":5.43667,"is_reserved":false,"is_disabled":false,"rental_uris":{"android":"levelo://app?vid=7c78a755-c7f5-4f07-a96b-621451d47948","ios":"levelo://app?vid=7c78a755-c7f5-4f07-a96b-621451d47948"},"vehicle_type_id":"4","last_reported":1737792659,"current_range_meters":36800,"station_id":"ce4bhpp2rcd13ifvqhfg","pricing_plan_id":"cebpf4jnsgd1na2vs0mg"},{"bike_id":"0a5b83a3-8008-4da5-9bf3-69d0e8ac4adf","system_id":"levelo_inurba_marseille","lat":43.30892,"lon":5.37189,"is_reserved":false,"is_disabled":false,"rental_uris":{"android":"levelo://app?vid=0a5b83a3-8008-4da5-9bf3-69d0e8ac4adf","ios":"levelo://app?vid=0a5b83a3-8008-4da5-9bf3-69d0e8ac4adf"},"vehicle_type_id":"4","last_reported":1737792659,"current_range_meters":38800,"station_id":"ce4bguh2rcd13ifvqckg","pricing_plan_id":"cebpf4jnsgd1na2vs0mg"},{"bike_id":"816aa826-5ae6-4851-821c-832d952a2ba5","system_id":"levelo_inurba_marseille","lat":43.28941,"lon":5.36411,"is_reserved":false,"is_disabled":false,"rental_uris":{"android":"levelo://app?vid=816aa826-5ae6-4851-821c-832d952a2ba5","ios":"levelo://app?vid=816aa826-5ae6-4851-821c-832d952a2ba5"},"vehicle_type_id":"4","last_reported":1737792659,"current_range_meters":35600,"station_id":"ce4bhc92rcd13ifvqetg","pricing_plan_id":"cebpf4jnsgd1na2vs0mg"},{"bike_id":"50945626-5c1b-46b5-84b7-f66bda2de773","system_id":"levelo_inurba_marseille","lat":43.27312,"lon":5.39111,"is_reserved":false,"is_disabled":false,"rental_uris":{"android":"levelo://app?vid=50945626-5c1b-46b5-84b7-f66bda2de773","ios":"levelo://app?vid=50945626-5c1b-46b5-84b7-f66bda2de773"},"vehicle_type_id":"4","last_reported":1737792659,"current_range_meters":3200,"station_id":"ce4bhgp2rcd13ifvqfe0","pricing_plan_id":"cebpf4jnsgd1na2vs0mg"},{"bike_id":"3330f026-8ad6-4e14-a5cd-4b9e97a67a00","system_id":"levelo_inurba_marseille","lat":43.28863,"lon":5.35874,"is_reserved":false,"is_disabled":false,"rental_uris":{"android":"levelo://app?vid=3330f026-8ad6-4e14-a5cd-4b9e97a67a00","ios":"levelo://app?vid=3330f026-8ad6-4e14-a5cd-4b9e97a67a00"},"vehicle_type_id":"4","last_reported":1737792659,"current_range_meters":36800,"station_id":"ce4bhb12rcd13ifvqem0","pricing_plan_id":"cebpf4jnsgd1na2vs0mg"},{"bike_id":"498de11a-cfe5-4f2f-bb2b-40aef463a401","system_id":"levelo_inurba_marseille","lat":43.23187,"lon":5.39986,"is_reserved":false,"is_disabled":false,"rental_uris":{"android":"levelo://app?vid=498de11a-cfe5-4f2f-bb2b-40aef463a401","ios":"levelo://app?vid=498de11a-cfe5-4f2f-bb2b-40aef463a401"},"vehicle_type_id":"4","last_reported":1737792659,"current_range_meters":2800,"station_id":"ce4bhn12rcd13ifvqgqg","pricing_plan_id":"cebpf4jnsgd1na2vs0mg"},{"bike_id":"e6144616-07f5-4c03-a1a3-4500e9f15267","system_id":"levelo_inurba_marseille","lat":43.28732,"lon":5.36094,"is_reserved":false,"is_disabled":false,"rental_uris":{"android":"levelo://app?vid=e6144616-07f5-4c03-a1a3-4500e9f15267","ios":"levelo://app?vid=e6144616-07f5-4c03-a1a3-4500e9f15267"},"vehicle_type_id":"4","last_reported":1737792659,"current_range_meters":38800,"station_id":"cki0cbj6b192h4jlfktg","pricing_plan_id":"cebpf4jnsgd1na2vs0mg"},{"bike_id":"c08562a2-c4c2-4182-900c-b05a7a59cf47","system_id":"levelo_inurba_marseille","lat":43.30585,"lon":5.39352,"is_reserved":false,"is_disabled":false,"rental_uris":{"android":"levelo://app?vid=c08562a2-c4c2-4182-900c-b05a7a59cf47","ios":"levelo://app?vid=c08562a2-c4c2-4182-900c-b05a7a59cf47"},"vehicle_type_id":"4","last_reported":1737792659,"current_range_meters":20400,"station_id":"ce4bh0p2rcd13ifvqd80","pricing_plan_id":"cebpf4jnsgd1na2vs0mg"},{"bike_id":"ec246f4f-03f2-443f-a597-3319b523fee3","system_id":"levelo_inurba_marseille","lat":43.30256,"lon":5.40086,"is_reserved":false,"is_disabled":false,"rental_uris":{"android":"levelo://app?vid=ec246f4f-03f2-443f-a597-3319b523fee3","ios":"levelo://app?vid=ec246f4f-03f2-443f-a597-3319b523fee3"},"vehicle_type_id":"4","last_reported":1737792659,"current_range_meters":33200,"station_id":"ce4bgvh2rcd13ifvqcs0","pricing_plan_id":"cebpf4jnsgd1na2vs0mg"},{"bike_id":"29aefc36-f7e8-4c0d-b8db-29a513c4635e","system_id":"levelo_inurba_marseille","lat":43.25873,"lon":5.39907,"is_reserved":false,"is_disabled":false,"rental_uris":{"android":"levelo://app?vid=29aefc36-f7e8-4c0d-b8db-29a513c4635e","ios":"levelo://app?vid=29aefc36-f7e8-4c0d-b8db-29a513c4635e"},"vehicle_type_id":"4","last_reported":1737792659,"current_range_meters":37600,"station_id":"ce4bhl92rcd13ifvqghg","pricing_plan_id":"cebpf4jnsgd1na2vs0mg"},{"bike_id":"8acb948b-4323-4635-a547-c87000c544f0","system_id":"levelo_inurba_marseille","lat":43.24645,"lon":5.38899,"is_reserved":false,"is_disabled":false,"rental_uris":{"android":"levelo://app?vid=8acb948b-4323-4635-a547-c87000c544f0","ios":"levelo://app?vid=8acb948b-4323-4635-a547-c87000c544f0"},"vehicle_type_id":"4","last_reported":1737792659,"current_range_meters":36400,"station_id":"ce4bhg12rcd13ifvqf60","pricing_plan_id":"cebpf4jnsgd1na2vs0mg"},{"bike_id":"5ee1ad70-14b1-4204-8dea-eeb61de303c1","system_id":"levelo_inurba_marseille","lat":43.30604,"lon":5.37231,"is_reserved":false,"is_disabled":false,"rental_uris":{"android":"levelo://app?vid=5ee1ad70-14b1-4204-8dea-eeb61de303c1","ios":"levelo://app?vid=5ee1ad70-14b1-4204-8dea-eeb61de303c1"},"vehicle_type_id":"4","last_reported":1737792659,"current_range_meters":35200,"station_id":"ce4bgqh2rcd13ifvqc4g","pricing_plan_id":"cebpf4jnsgd1na2vs0mg"},{"bike_id":"09dd8ffe-8d05-4d69-b6dd-462340d9ddee","system_id":"levelo_inurba_marseille","lat":43.3187,"lon":5.40746,"is_reserved":false,"is_disabled":false,"rental_uris":{"android":"levelo://app?vid=09dd8ffe-8d05-4d69-b6dd-462340d9ddee","ios":"levelo://app?vid=09dd8ffe-8d05-4d69-b6dd-462340d9ddee"},"vehicle_type_id":"4","last_reported":1737792659,"current_range_meters":38800,"station_id":"ce4bhq12rcd13ifvqhig","pricing_plan_id":"cebpf4jnsgd1na2vs0mg"},{"bike_id":"fc851299-7014-496a-aee9-60700eda9a95","system_id":"levelo_inurba_marseille","lat":43.29539,"lon":5.37507,"is_reserved":false,"is_disabled":false,"rental_uris":{"android":"levelo://app?vid=fc851299-7014-496a-aee9-60700eda9a95","ios":"levelo://app?vid=fc851299-7014-496a-aee9-60700eda9a95"},"vehicle_type_id":"4","last_reported":1737792659,"current_range_meters":36400,"station_id":"ce4bgkp2rcd13ifvqbmg","pricing_plan_id":"cebpf4jnsgd1na2vs0mg"},{"bike_id":"9f0c46f0-4fb9-4e17-b4b9-e5ede73a87dc","system_id":"levelo_inurba_marseille","lat":43.323765,"lon":5.389025,"is_reserved":false,"is_disabled":false,"rental_uris":{"android":"levelo://app?vid=9f0c46f0-4fb9-4e17-b4b9-e5ede73a87dc","ios":"levelo://app?vid=9f0c46f0-4fb9-4e17-b4b9-e5ede73a87dc"},"vehicle_type_id":"4","last_reported":1737792659,"current_range_meters":30400,"station_id":"ce4bhqp2rcd13ifvqhog","pricing_plan_id":"cebpf4jnsgd1na2vs0mg"},{"bike_id":"1b8ab376-cfd7-48b3-9ad4-fc3dd25c0ae2","system_id":"levelo_inurba_marseille","lat":43.30131,"lon":5.38095,"is_reserved":false,"is_disabled":false,"rental_uris":{"android":"levelo://app?vid=1b8ab376-cfd7-48b3-9ad4-fc3dd25c0ae2","ios":"levelo://app?vid=1b8ab376-cfd7-48b3-9ad4-fc3dd25c0ae2"},"vehicle_type_id":"4","last_reported":1737792659,"current_range_meters":30000,"station_id":"ce4bgjp2rcd13ifvqbh0","pricing_plan_id":"cebpf4jnsgd1na2vs0mg"},{"bike_id":"e2c56740-6efd-4d1b-b7bf-64aef6b556a5","system_id":"levelo_inurba_marseille","lat":43.29033,"lon":5.39992,"is_reserved":false,"is_disabled":false,"rental_uris":{"android":"levelo://app?vid=e2c56740-6efd-4d1b-b7bf-64aef6b556a5","ios":"levelo://app?vid=e2c56740-6efd-4d1b-b7bf-64aef6b556a5"},"vehicle_type_id":"4","last_reported":1737792659,"current_range_meters":38800,"station_id":"ce4bh392rcd13ifvqdm0","pricing_plan_id":"cebpf4jnsgd1na2vs0mg"},{"bike_id":"731cc17f-5d29-4106-9e3d-e2d318062f50","system_id":"levelo_inurba_marseille","lat":43.30153,"lon":5.38098,"is_reserved":false,"is_disabled":false,"rental_uris":{"android":"levelo://app?vid=731cc17f-5d29-4106-9e3d-e2d318062f50","ios":"levelo://app?vid=731cc17f-5d29-4106-9e3d-e2d318062f50"},"vehicle_type_id":"4","last_reported":1737792659,"current_range_meters":38800,"station_id":"ce4bgjp2rcd13ifvqbh0","pricing_plan_id":"cebpf4jnsgd1na2vs0mg"},{"bike_id":"baea81b0-ec88-4597-8150-40e38e7872d6","system_id":"levelo_inurba_marseille","lat":43.303528,"lon":5.418733,"is_reserved":false,"is_disabled":false,"rental_uris":{"android":"levelo://app?vid=baea81b0-ec88-4597-8150-40e38e7872d6","ios":"levelo://app?vid=baea81b0-ec88-4597-8150-40e38e7872d6"},"vehicle_type_id":"4","last_reported":1737792659,"current_range_meters":27200,"station_id":"ce4bhop2rcd13ifvqh7g","pricing_plan_id":"cebpf4jnsgd1na2vs0mg"},{"bike_id":"fe3679b4-09f6-4e41-9aae-9d00892cb93e","system_id":"levelo_inurba_marseille","lat":43.23195,"lon":5.35548,"is_reserved":false,"is_disabled":false,"rental_uris":{"android":"levelo://app?vid=fe3679b4-09f6-4e41-9aae-9d00892cb93e","ios":"levelo://app?vid=fe3679b4-09f6-4e41-9aae-9d00892cb93e"},"vehicle_type_id":"4","last_reported":1737792659,"current_range_meters":13600,"station_id":"ce4bhu92rcd13ifvqi70","pricing_plan_id":"cebpf4jnsgd1na2vs0mg"},{"bike_id":"ec83d336-bb57-4f7c-9458-2f829bed741b","system_id":"levelo_inurba_marseille","lat":43.3131,"lon":5.39702,"is_reserved":false,"is_disabled":false,"rental_uris":{"android":"levelo://app?vid=ec83d336-bb57-4f7c-9458-2f829bed741b","ios":"levelo://app?vid=ec83d336-bb57-4f7c-9458-2f829bed741b"},"vehicle_type_id":"4","last_reported":1737792659,"current_range_meters":28000,"station_id":"ce4bgvp2rcd13ifvqcu0","pricing_plan_id":"cebpf4jnsgd1na2vs0mg"},{"bike_id":"88f9e415-c505-490a-b3f4-82f8b8598297","system_id":"levelo_inurba_marseille","lat":43.29197,"lon":5.35815,"is_reserved":false,"is_disabled":false,"rental_uris":{"android":"levelo://app?vid=88f9e415-c505-490a-b3f4-82f8b8598297","ios":"levelo://app?vid=88f9e415-c505-490a-b3f4-82f8b8598297"},"vehicle_type_id":"4","last_reported":1737792659,"current_range_meters":36000,"station_id":"ce4bhb12rcd13ifvqel0","pricing_plan_id":"cebpf4jnsgd1na2vs0mg"},{"bike_id":"34469043-df83-4c80-b32c-ad39ce5a2ffe","system_id":"levelo_inurba_marseille","lat":43.31111,"lon":5.3778,"is_reserved":false,"is_disabled":false,"rental_uris":{"android":"levelo://app?vid=34469043-df83-4c80-b32c-ad39ce5a2ffe","ios":"levelo://app?vid=34469043-df83-4c80-b32c-ad39ce5a2ffe"},"vehicle_type_id":"4","last_reported":1737792659,"current_range_meters":38000,"station_id":"ce4bgt92rcd13ifvqcg0","pricing_plan_id":"cebpf4jnsgd1na2vs0mg"},{"bike_id":"1fa3ed75-21f9-4b4a-a2ad-a96d5bf08b88","system_id":"levelo_inurba_marseille","lat":43.30923,"lon":5.4014,"is_reserved":false,"is_disabled":true,"rental_uris":{"android":"levelo://app?vid=1fa3ed75-21f9-4b4a-a2ad-a96d5bf08b88","ios":"levelo://app?vid=1fa3ed75-21f9-4b4a-a2ad-a96d5bf08b88"},"vehicle_type_id":"4","last_reported":1737792659,"current_range_meters":0,"station_id":"ce4bgvp2rcd13ifvqct0","pricing_plan_id":"cebpf4jnsgd1na2vs0mg"},{"bike_id":"f1306753-0741-4054-bb1e-176ba35f7013","system_id":"levelo_inurba_marseille","lat":43.24796,"lon":5.37474,"is_reserved":false,"is_disabled":false,"rental_uris":{"android":"levelo://app?vid=f1306753-0741-4054-bb1e-176ba35f7013","ios":"levelo://app?vid=f1306753-0741-4054-bb1e-176ba35f7013"},"vehicle_type_id":"4","last_reported":1737792659,"current_range_meters":8400,"station_id":"ce4bhgh2rcd13ifvqfb0","pricing_plan_id":"cebpf4jnsgd1na2vs0mg"},{"bike_id":"2d4bf5a7-c787-4ef1-85d1-ba4e520467b9","system_id":"levelo_inurba_marseille","lat":43.30951,"lon":5.39056,"is_reserved":false,"is_disabled":false,"rental_uris":{"android":"levelo://app?vid=2d4bf5a7-c787-4ef1-85d1-ba4e520467b9","ios":"levelo://app?vid=2d4bf5a7-c787-4ef1-85d1-ba4e520467b9"},"vehicle_type_id":"4","last_reported":1737792659,"current_range_meters":32000,"station_id":"ce4bgup2rcd13ifvqco0","pricing_plan_id":"cebpf4jnsgd1na2vs0mg"},{"bike_id":"e0d9c214-8293-4f71-86e2-08688c659245","system_id":"levelo_inurba_marseille","lat":43.24806,"lon":5.37454,"is_reserved":false,"is_disabled":false,"rental_uris":{"android":"levelo://app?vid=e0d9c214-8293-4f71-86e2-08688c659245","ios":"levelo://app?vid=e0d9c214-8293-4f71-86e2-08688c659245"},"vehicle_type_id":"4","last_reported":1737792659,"current_range_meters":26000,"station_id":"ce4bhgh2rcd13ifvqfb0","pricing_plan_id":"cebpf4jnsgd1na2vs0mg"},{"bike_id":"16cba4e1-cb10-44ef-b1a1-eca95385335f","system_id":"levelo_inurba_marseille","lat":43.28418,"lon":5.3499,"is_reserved":false,"is_disabled":true,"rental_uris":{"android":"levelo://app?vid=16cba4e1-cb10-44ef-b1a1-eca95385335f","ios":"levelo://app?vid=16cba4e1-cb10-44ef-b1a1-eca95385335f"},"vehicle_type_id":"4","last_reported":1737792659,"current_range_meters":17600,"station_id":"ce4bhbh2rcd13ifvqepg","pricing_plan_id":"cebpf4jnsgd1na2vs0mg"},{"bike_id":"08ec7980-3d1f-4bf1-909e-a9f15b620fd3","system_id":"levelo_inurba_marseille","lat":43.27065,"lon":5.42277,"is_reserved":false,"is_disabled":false,"rental_uris":{"android":"levelo://app?vid=08ec7980-3d1f-4bf1-909e-a9f15b620fd3","ios":"levelo://app?vid=08ec7980-3d1f-4bf1-909e-a9f15b620fd3"},"vehicle_type_id":"4","last_reported":1737792659,"current_range_meters":24000,"station_id":"ce4bhk92rcd13ifvqgb0","pricing_plan_id":"cebpf4jnsgd1na2vs0mg"},{"bike_id":"97b5cf78-4260-492c-ae68-5d0c40c5ac3f","system_id":"levelo_inurba_marseille","lat":43.28724,"lon":5.36091,"is_reserved":false,"is_disabled":false,"rental_uris":{"android":"levelo://app?vid=97b5cf78-4260-492c-ae68-5d0c40c5ac3f","ios":"levelo://app?vid=97b5cf78-4260-492c-ae68-5d0c40c5ac3f"},"vehicle_type_id":"4","last_reported":1737792659,"current_range_meters":38000,"station_id":"cki0cbj6b192h4jlfktg","pricing_plan_id":"cebpf4jnsgd1na2vs0mg"},{"bike_id":"0a93e885-5fbc-4f93-8605-13feb19e8a89","system_id":"levelo_inurba_marseille","lat":43.31702,"lon":5.40467,"is_reserved":false,"is_disabled":false,"rental_uris":{"android":"levelo://app?vid=0a93e885-5fbc-4f93-8605-13feb19e8a89","ios":"levelo://app?vid=0a93e885-5fbc-4f93-8605-13feb19e8a89"},"vehicle_type_id":"4","last_reported":1737792659,"current_range_meters":10000,"station_id":"ce4bh012rcd13ifvqd00","pricing_plan_id":"cebpf4jnsgd1na2vs0mg"},{"bike_id":"8f5afff4-e04c-4492-9553-1f80253820f6","system_id":"levelo_inurba_marseille","lat":43.2731,"lon":5.39102,"is_reserved":false,"is_disabled":false,"rental_uris":{"android":"levelo://app?vid=8f5afff4-e04c-4492-9553-1f80253820f6","ios":"levelo://app?vid=8f5afff4-e04c-4492-9553-1f80253820f6"},"vehicle_type_id":"4","last_reported":1737792659,"current_range_meters":21600,"station_id":"ce4bhgp2rcd13ifvqfe0","pricing_plan_id":"cebpf4jnsgd1na2vs0mg"},{"bike_id":"4a9b970f-5a84-4d42-ab67-be79e658c173","system_id":"levelo_inurba_marseille","lat":43.31265,"lon":5.40177,"is_reserved":false,"is_disabled":false,"rental_uris":{"android":"levelo://app?vid=4a9b970f-5a84-4d42-ab67-be79e658c173","ios":"levelo://app?vid=4a9b970f-5a84-4d42-ab67-be79e658c173"},"vehicle_type_id":"4","last_reported":1737792659,"current_range_meters":38800,"station_id":"ce4bh092rcd13ifvqd30","pricing_plan_id":"cebpf4jnsgd1na2vs0mg"},{"bike_id":"3034e484-1d69-467c-a979-5f7f130e4ac8","system_id":"levelo_inurba_marseille","lat":43.29933,"lon":5.37494,"is_reserved":false,"is_disabled":false,"rental_uris":{"android":"levelo://app?vid=3034e484-1d69-467c-a979-5f7f130e4ac8","ios":"levelo://app?vid=3034e484-1d69-467c-a979-5f7f130e4ac8"},"vehicle_type_id":"4","last_reported":1737792659,"current_range_meters":24400,"station_id":"ce4bgjh2rcd13ifvqbg0","pricing_plan_id":"cebpf4jnsgd1na2vs0mg"},{"bike_id":"0b0f5794-a7e5-472b-b021-994801fdcac0","system_id":"levelo_inurba_marseille","lat":43.31492,"lon":5.37309,"is_reserved":false,"is_disabled":false,"rental_uris":{"android":"levelo://app?vid=0b0f5794-a7e5-472b-b021-994801fdcac0","ios":"levelo://app?vid=0b0f5794-a7e5-472b-b021-994801fdcac0"},"vehicle_type_id":"4","last_reported":1737792659,"current_range_meters":38800,"station_id":"ce4bgt12rcd13ifvqcd0","pricing_plan_id":"cebpf4jnsgd1na2vs0mg"},{"bike_id":"53c33c8a-c862-4308-9965-bef88b94f630","system_id":"levelo_inurba_marseille","lat":43.29719,"lon":5.37694,"is_reserved":false,"is_disabled":false,"rental_uris":{"android":"levelo://app?vid=53c33c8a-c862-4308-9965-bef88b94f630","ios":"levelo://app?vid=53c33c8a-c862-4308-9965-bef88b94f630"},"vehicle_type_id":"4","last_reported":1737792659,"current_range_meters":38400,"station_id":"ce4bgkh2rcd13ifvqbl0","pricing_plan_id":"cebpf4jnsgd1na2vs0mg"},{"bike_id":"dbc4924d-2182-4252-885c-c7d7b84eb525","system_id":"levelo_inurba_marseille","lat":43.30658,"lon":5.40101,"is_reserved":false,"is_disabled":true,"rental_uris":{"android":"levelo://app?vid=dbc4924d-2182-4252-885c-c7d7b84eb525","ios":"levelo://app?vid=dbc4924d-2182-4252-885c-c7d7b84eb525"},"vehicle_type_id":"4","last_reported":1737792659,"current_range_meters":38800,"station_id":"ce4bh112rcd13ifvqda0","pricing_plan_id":"cebpf4jnsgd1na2vs0mg"},{"bike_id":"45b366a6-6abc-4401-bb9e-1aee69db2cae","system_id":"levelo_inurba_marseille","lat":43.28089,"lon":5.39667,"is_reserved":false,"is_disabled":false,"rental_uris":{"android":"levelo://app?vid=45b366a6-6abc-4401-bb9e-1aee69db2cae","ios":"levelo://app?vid=45b366a6-6abc-4401-bb9e-1aee69db2cae"},"vehicle_type_id":"4","last_reported":1737792659,"current_range_meters":28400,"station_id":"ce4bho12rcd13ifvqh2g","pricing_plan_id":"cebpf4jnsgd1na2vs0mg"},{"bike_id":"19842c68-0f75-4e7c-9a81-431c39099c5e","system_id":"levelo_inurba_marseille","lat":43.248,"lon":5.3747,"is_reserved":false,"is_disabled":false,"rental_uris":{"android":"levelo://app?vid=19842c68-0f75-4e7c-9a81-431c39099c5e","ios":"levelo://app?vid=19842c68-0f75-4e7c-9a81-431c39099c5e"},"vehicle_type_id":"4","last_reported":1737792659,"current_range_meters":12400,"station_id":"ce4bhgh2rcd13ifvqfb0","pricing_plan_id":"cebpf4jnsgd1na2vs0mg"},{"bike_id":"5131c065-5635-4935-830a-3afe5524a963","system_id":"levelo_inurba_marseille","lat":43.312714,"lon":5.401621,"is_reserved":false,"is_disabled":false,"rental_uris":{"android":"levelo://app?vid=5131c065-5635-4935-830a-3afe5524a963","ios":"levelo://app?vid=5131c065-5635-4935-830a-3afe5524a963"},"vehicle_type_id":"4","last_reported":1737792659,"current_range_meters":38800,"station_id":"ce4bh092rcd13ifvqd30","pricing_plan_id":"cebpf4jnsgd1na2vs0mg"},{"bike_id":"b735ffc8-b0ff-4d19-96ba-74b492befdc7","system_id":"levelo_inurba_marseille","lat":43.30525,"lon":5.36707,"is_reserved":false,"is_disabled":false,"rental_uris":{"android":"levelo://app?vid=b735ffc8-b0ff-4d19-96ba-74b492befdc7","ios":"levelo://app?vid=b735ffc8-b0ff-4d19-96ba-74b492befdc7"},"vehicle_type_id":"4","last_reported":1737792659,"current_range_meters":38000,"station_id":"ce4bgrp2rcd13ifvqc9g","pricing_plan_id":"cebpf4jnsgd1na2vs0mg"},{"bike_id":"f4a67fd7-7ba0-462e-b321-724410a83bc3","system_id":"levelo_inurba_marseille","lat":43.28604,"lon":5.35108,"is_reserved":false,"is_disabled":true,"rental_uris":{"android":"levelo://app?vid=f4a67fd7-7ba0-462e-b321-724410a83bc3","ios":"levelo://app?vid=f4a67fd7-7ba0-462e-b321-724410a83bc3"},"vehicle_type_id":"4","last_reported":1737792659,"current_range_meters":18000,"station_id":"ce4bhch2rcd13ifvqeug","pricing_plan_id":"cebpf4jnsgd1na2vs0mg"},{"bike_id":"841a1767-078e-4378-8ef2-78843610d635","system_id":"levelo_inurba_marseille","lat":43.23189,"lon":5.35548,"is_reserved":false,"is_disabled":false,"rental_uris":{"android":"levelo://app?vid=841a1767-078e-4378-8ef2-78843610d635","ios":"levelo://app?vid=841a1767-078e-4378-8ef2-78843610d635"},"vehicle_type_id":"4","last_reported":1737792659,"current_range_meters":8000,"station_id":"ce4bhu92rcd13ifvqi70","pricing_plan_id":"cebpf4jnsgd1na2vs0mg"},{"bike_id":"d531adb9-2312-4b34-a321-08be0fda69cf","system_id":"levelo_inurba_marseille","lat":43.29578,"lon":5.4005,"is_reserved":false,"is_disabled":true,"rental_uris":{"android":"levelo://app?vid=d531adb9-2312-4b34-a321-08be0fda69cf","ios":"levelo://app?vid=d531adb9-2312-4b34-a321-08be0fda69cf"},"vehicle_type_id":"4","last_reported":1737792659,"current_range_meters":0,"station_id":"","pricing_plan_id":"cebpf4jnsgd1na2vs0mg"},{"bike_id":"c17d619f-a14c-4d8a-bf25-d4388086c6f5","system_id":"levelo_inurba_marseille","lat":43.31163,"lon":5.38746,"is_reserved":false,"is_disabled":false,"rental_uris":{"android":"levelo://app?vid=c17d619f-a14c-4d8a-bf25-d4388086c6f5","ios":"levelo://app?vid=c17d619f-a14c-4d8a-bf25-d4388086c6f5"},"vehicle_type_id":"4","last_reported":1737792659,"current_range_meters":38800,"station_id":"ce4bgv12rcd13ifvqcp0","pricing_plan_id":"cebpf4jnsgd1na2vs0mg"},{"bike_id":"a0475308-2594-4a42-acbf-0c6d8df8a768","system_id":"levelo_inurba_marseille","lat":43.30564,"lon":5.39375,"is_reserved":false,"is_disabled":false,"rental_uris":{"android":"levelo://app?vid=a0475308-2594-4a42-acbf-0c6d8df8a768","ios":"levelo://app?vid=a0475308-2594-4a42-acbf-0c6d8df8a768"},"vehicle_type_id":"4","last_reported":1737792659,"current_range_meters":23200,"station_id":"ce4bh0p2rcd13ifvqd80","pricing_plan_id":"cebpf4jnsgd1na2vs0mg"},{"bike_id":"82939a3c-3751-48f0-bc49-554140d28b86","system_id":"levelo_inurba_marseille","lat":43.30776,"lon":5.38172,"is_reserved":false,"is_disabled":false,"rental_uris":{"android":"levelo://app?vid=82939a3c-3751-48f0-bc49-554140d28b86","ios":"levelo://app?vid=82939a3c-3751-48f0-bc49-554140d28b86"},"vehicle_type_id":"4","last_reported":1737792659,"current_range_meters":33600,"station_id":"ce4bgt12rcd13ifvqce0","pricing_plan_id":"cebpf4jnsgd1na2vs0mg"},{"bike_id":"a12ae140-7d40-4453-aee3-1f900eeb57d0","system_id":"levelo_inurba_marseille","lat":43.31721,"lon":5.42409,"is_reserved":false,"is_disabled":false,"rental_uris":{"android":"levelo://app?vid=a12ae140-7d40-4453-aee3-1f900eeb57d0","ios":"levelo://app?vid=a12ae140-7d40-4453-aee3-1f900eeb57d0"},"vehicle_type_id":"4","last_reported":1737792659,"current_range_meters":38800,"station_id":"ce4bhp92rcd13ifvqhbg","pricing_plan_id":"cebpf4jnsgd1na2vs0mg"},{"bike_id":"afd53ee7-c48e-4c7a-9b64-51b0a9bab2be","system_id":"levelo_inurba_marseille","lat":43.29873,"lon":5.36405,"is_reserved":false,"is_disabled":false,"rental_uris":{"android":"levelo://app?vid=afd53ee7-c48e-4c7a-9b64-51b0a9bab2be","ios":"levelo://app?vid=afd53ee7-c48e-4c7a-9b64-51b0a9bab2be"},"vehicle_type_id":"4","last_reported":1737792659,"current_range_meters":26800,"station_id":"","pricing_plan_id":"cebpf4jnsgd1na2vs0mg"},{"bike_id":"e10eddc2-a25b-4033-9090-3499aa1e7f6b","system_id":"levelo_inurba_marseille","lat":43.2723,"lon":5.41018,"is_reserved":false,"is_disabled":false,"rental_uris":{"android":"levelo://app?vid=e10eddc2-a25b-4033-9090-3499aa1e7f6b","ios":"levelo://app?vid=e10eddc2-a25b-4033-9090-3499aa1e7f6b"},