{"last_updated":1702930049,"ttl":30,"version":"2.2","data":{"bikes":[{"bike_id":"194712ef-e29f-4c94-bf53-092ef0255e45","system_id":"levelo_inurba_marseille","lat":43.309076,"lon":5.368465,"is_reserved":false,"is_disabled":false,"rental_uris":{"android":"levelo://app?vid=194712ef-e29f-4c94-bf53-092ef0255e45","ios":"levelo://app?vid=194712ef-e29f-4c94-bf53-092ef0255e45"},"vehicle_type_id":"4","last_reported":1702930050,"current_range_meters":20800,"station_id":"ce4bgn92rcd13ifvqbvg","pricing_plan_id":"free"},{"bike_id":"8f23fcbf-7675-462a-9f16-17d04f5e1294","system_id":"levelo_inurba_marseille","lat":43.31478,"lon":5.37309,"is_reserved":false,"is_disabled":false,"rental_uris":{"android":"levelo://app?vid=8f23fcbf-7675-462a-9f16-17d04f5e1294","ios":"levelo://app?vid=8f23fcbf-7675-462a-9f16-17d04f5e1294"},"vehicle_type_id":"4","last_reported":1702930050,"current_range_meters":2000,"station_id":"ce4bgt12rcd13ifvqcd0","pricing_plan_id":"free"},{"bike_id":"4a1d1b60-fa17-4c70-8cb7-0952c1b6b0c7","system_id":"levelo_inurba_marseille","lat":43.314811,"lon":5.373103,"is_reserved":false,"is_disabled":false,"rental_uris":{"android":"levelo://app?vid=4a1d1b60-fa17-4c70-8cb7-0952c1b6b0c7","ios":"levelo://app?vid=4a1d1b60-fa17-4c70-8cb7-0952c1b6b0c7"},"vehicle_type_id":"4","last_reported":1702930050,"current_range_meters":6000,"station_id":"ce4bgt12rcd13ifvqcd0","pricing_plan_id":"free"},{"bike_id":"4a94b513-70c5-4f60-84f1-c09d8c8dbc57","system_id":"levelo_inurba_marseille","lat":43.314811,"lon":5.373103,"is_reserved":false,"is_disabled":false,"rental_uris":{"android":"levelo://app?vid=4a94b513-70c5-4f60-84f1-c09d8c8dbc57","ios":"levelo://app?vid=4a94b513-70c5-4f60-84f1-c09d8c8dbc57"},"vehicle_type_id":"4","last_reported":1702930050,"current_range_meters":18800,"station_id":"ce4bgt12rcd13ifvqcd0","pricing_plan_id":"free"},{"bike_id":"6df7a2d1-081c-41eb-838a-d8fd1c6e8e38","system_id":"levelo_inurba_marseille","lat":43.31484,"lon":5.37312,"is_reserved":false,"is_disabled":false,"rental_uris":{"android":"levelo://app?vid=6df7a2d1-081c-41eb-838a-d8fd1c6e8e38","ios":"levelo://app?vid=6df7a2d1-081c-41eb-838a-d8fd1c6e8e38"},"vehicle_type_id":"4","last_reported":1702930050,"current_range_meters":5600,"station_id":"ce4bgt12rcd13ifvqcd0","pricing_plan_id":"free"},{"bike_id":"17a68309-9c5d-4635-ae28-83c42169581f","system_id":"levelo_inurba_marseille","lat":43.314526,"lon":5.373311,"is_reserved":false,"is_disabled":false,"rental_uris":{"android":"levelo://app?vid=17a68309-9c5d-4635-ae28-83c42169581f","ios":"levelo://app?vid=17a68309-9c5d-4635-ae28-83c42169581f"},"vehicle_type_id":"4","last_reported":1702930050,"current_range_meters":24800,"station_id":"ce4bgt12rcd13ifvqcd0","pricing_plan_id":"free"},{"bike_id":"955e4ab2-16e5-44e8-a986-a2f50ff96c06","system_id":"levelo_inurba_marseille","lat":43.305382,"lon":5.365389,"is_reserved":false,"is_disabled":false,"rental_uris":{"android":"levelo://app?vid=955e4ab2-16e5-44e8-a986-a2f50ff96c06","ios":"levelo://app?vid=955e4ab2-16e5-44e8-a986-a2f50ff96c06"},"vehicle_type_id":"4","last_reported":1702930050,"current_range_meters":6800,"station_id":"","pricing_plan_id":"free"},{"bike_id":"ffe0756d-f7c9-469e-8093-da6c1c28d732","system_id":"levelo_inurba_marseille","lat":43.305989,"lon":5.37225,"is_reserved":false,"is_disabled":false,"rental_uris":{"android":"levelo://app?vid=ffe0756d-f7c9-469e-8093-da6c1c28d732","ios":"levelo://app?vid=ffe0756d-f7c9-469e-8093-da6c1c28d732"},"vehicle_type_id":"4","last_reported":1702930050,"current_range_meters":15600,"station_id":"ce4bgqh2rcd13ifvqc4g","pricing_plan_id":"free"},{"bike_id":"87f36e77-5afc-4851-888e-d4ea1457d363","system_id":"levelo_inurba_marseille","lat":43.305989,"lon":5.37225,"is_reserved":false,"is_disabled":false,"rental_uris":{"android":"levelo://app?vid=87f36e77-5afc-4851-888e-d4ea1457d363","ios":"levelo://app?vid=87f36e77-5afc-4851-888e-d4ea1457d363"},"vehicle_type_id":"4","last_reported":1702930050,"current_range_meters":23200,"station_id":"ce4bgqh2rcd13ifvqc4g","pricing_plan_id":"free"},{"bike_id":"03817e83-de32-493b-85d3-13c5d90f16a1","system_id":"levelo_inurba_marseille","lat":43.303046,"lon":5.368981,"is_reserved":false,"is_disabled":false,"rental_uris":{"android":"levelo://app?vid=03817e83-de32-493b-85d3-13c5d90f16a1","ios":"levelo://app?vid=03817e83-de32-493b-85d3-13c5d90f16a1"},"vehicle_type_id":"4","last_reported":1702930050,"current_range_meters":5600,"station_id":"ce4bgqh2rcd13ifvqc5g","pricing_plan_id":"free"},{"bike_id":"7fff9f38-4835-4a37-922b-2626be2b3c5f","system_id":"levelo_inurba_marseille","lat":43.31532,"lon":5.38035,"is_reserved":false,"is_disabled":false,"rental_uris":{"android":"levelo://app?vid=7fff9f38-4835-4a37-922b-2626be2b3c5f","ios":"levelo://app?vid=7fff9f38-4835-4a37-922b-2626be2b3c5f"},"vehicle_type_id":"4","last_reported":1702930050,"current_range_meters":15600,"station_id":"ce4bhsp2rcd13ifvqi50","pricing_plan_id":"free"},{"bike_id":"dc24c224-d8ae-4463-baf0-5cd8880b5cb0","system_id":"levelo_inurba_marseille","lat":43.305706,"lon":5.365654,"is_reserved":false,"is_disabled":false,"rental_uris":{"android":"levelo://app?vid=dc24c224-d8ae-4463-baf0-5cd8880b5cb0","ios":"levelo://app?vid=dc24c224-d8ae-4463-baf0-5cd8880b5cb0"},"vehicle_type_id":"4","last_reported":1702930050,"current_range_meters":20000,"station_id":"ce4bgs12rcd13ifvqcag","pricing_plan_id":"free"},{"bike_id":"0778b25e-4da6-4fce-aceb-62707657507d","system_id":"levelo_inurba_marseille","lat":43.308012,"lon":5.381511,"is_reserved":false,"is_disabled":false,"rental_uris":{"android":"levelo://app?vid=0778b25e-4da6-4fce-aceb-62707657507d","ios":"levelo://app?vid=0778b25e-4da6-4fce-aceb-62707657507d"},"vehicle_type_id":"4","last_reported":1702930050,"current_range_meters":20400,"station_id":"ce4bgt12rcd13ifvqce0","pricing_plan_id":"free"},{"bike_id":"373808e6-615c-4cda-85fe-a69e5e17badc","system_id":"levelo_inurba_marseille","lat":43.308012,"lon":5.381511,"is_reserved":false,"is_disabled":false,"rental_uris":{"android":"levelo://app?vid=373808e6-615c-4cda-85fe-a69e5e17badc","ios":"levelo://app?vid=373808e6-615c-4cda-85fe-a69e5e17badc"},"vehicle_type_id":"4","last_reported":1702930050,"current_range_meters":13200,"station_id":"ce4bgt12rcd13ifvqce0","pricing_plan_id":"free"},{"bike_id":"8b97c3f1-bb5f-4c4b-bae8-74bcb68230ca","system_id":"levelo_inurba_marseille","lat":43.31071,"lon":5.383214,"is_reserved":false,"is_disabled":false,"rental_uris":{"android":"levelo://app?vid=8b97c3f1-bb5f-4c4b-bae8-74bcb68230ca","ios":"levelo://app?vid=8b97c3f1-bb5f-4c4b-bae8-74bcb68230ca"},"vehicle_type_id":"4","last_reported":1702930050,"current_range_meters":0,"station_id":"","pricing_plan_id":"free"},{"bike_id":"ed80d926-9424-4de4-a2a4-f5420d87fbcd","system_id":"levelo_inurba_marseille","lat":43.30143,"lon":5.37413,"is_reserved":false,"is_disabled":false,"rental_uris":{"android":"levelo://app?vid=ed80d926-9424-4de4-a2a4-f5420d87fbcd","ios":"levelo://app?vid=ed80d926-9424-4de4-a2a4-f5420d87fbcd"},"vehicle_type_id":"4","last_reported":1702930050,"current_range_meters":29600,"station_id":"ce4bgs92rcd13ifvqcc0","pricing_plan_id":"free"},{"bike_id":"9bcc3f0f-d025-4a1e-9f10-ad3bfcc86132","system_id":"levelo_inurba_marseille","lat":43.30143,"lon":5.37413,"is_reserved":false,"is_disabled":false,"rental_uris":{"android":"levelo://app?vid=9bcc3f0f-d025-4a1e-9f10-ad3bfcc86132","ios":"levelo://app?vid=9bcc3f0f-d025-4a1e-9f10-ad3bfcc86132"},"vehicle_type_id":"4","last_reported":1702930050,"current_range_meters":19600,"station_id":"ce4bgs92rcd13ifvqcc0","pricing_plan_id":"free"},{"bike_id":"94a5b383-48db-41b5-896a-da16666118c8","system_id":"levelo_inurba_marseille","lat":43.31367,"lon":5.38494,"is_reserved":false,"is_disabled":false,"rental_uris":{"android":"levelo://app?vid=94a5b383-48db-41b5-896a-da16666118c8","ios":"levelo://app?vid=94a5b383-48db-41b5-896a-da16666118c8"},"vehicle_type_id":"4","last_reported":1702930050,"current_range_meters":23600,"station_id":"ce4bgt92rcd13ifvqcf0","pricing_plan_id":"free"},{"bike_id":"5275ea88-3624-4c0d-91e6-e4385dca5ddb","system_id":"levelo_inurba_marseille","lat":43.31368,"lon":5.385004,"is_reserved":false,"is_disabled":false,"rental_uris":{"android":"levelo://app?vid=5275ea88-3624-4c0d-91e6-e4385dca5ddb","ios":"levelo://app?vid=5275ea88-3624-4c0d-91e6-e4385dca5ddb"},"vehicle_type_id":"4","last_reported":1702930050,"current_range_meters":27600,"station_id":"ce4bgt92rcd13ifvqcf0","pricing_plan_id":"free"},{"bike_id":"b7abe86b-cd2b-4151-b8b4-b40f1e853582","system_id":"levelo_inurba_marseille","lat":43.31361,"lon":5.38503,"is_reserved":false,"is_disabled":false,"rental_uris":{"android":"levelo://app?vid=b7abe86b-cd2b-4151-b8b4-b40f1e853582","ios":"levelo://app?vid=b7abe86b-cd2b-4151-b8b4-b40f1e853582"},"vehicle_type_id":"4","last_reported":1702930050,"current_range_meters":5600,"station_id":"ce4bgt92rcd13ifvqcf0","pricing_plan_id":"free"},{"bike_id":"f0f21bd4-2f2b-467e-8749-0f6745beec37","system_id":"levelo_inurba_marseille","lat":43.300584,"lon":5.374274,"is_reserved":false,"is_disabled":false,"rental_uris":{"android":"levelo://app?vid=f0f21bd4-2f2b-467e-8749-0f6745beec37","ios":"levelo://app?vid=f0f21bd4-2f2b-467e-8749-0f6745beec37"},"vehicle_type_id":"4","last_reported":1702930050,"current_range_meters":5200,"station_id":"","pricing_plan_id":"free"},{"bike_id":"ceedf01b-b5f0-45e7-9ee7-e467e206d89e","system_id":"levelo_inurba_marseille","lat":43.299724,"lon":5.371829,"is_reserved":false,"is_disabled":false,"rental_uris":{"android":"levelo://app?vid=ceedf01b-b5f0-45e7-9ee7-e467e206d89e","ios":"levelo://app?vid=ceedf01b-b5f0-45e7-9ee7-e467e206d89e"},"vehicle_type_id":"4","last_reported":1702930050,"current_range_meters":19200,"station_id":"ce4bgr92rcd13ifvqc7g","pricing_plan_id":"free"},{"bike_id":"31520994-8c22-4c33-af33-bd32a6234ba2","system_id":"levelo_inurba_marseille","lat":43.305364,"lon":5.384119,"is_reserved":false,"is_disabled":false,"rental_uris":{"android":"levelo://app?vid=31520994-8c22-4c33-af33-bd32a6234ba2","ios":"levelo://app?vid=31520994-8c22-4c33-af33-bd32a6234ba2"},"vehicle_type_id":"4","last_reported":1702930050,"current_range_meters":6000,"station_id":"ce4bgg92rcd13ifvqb30","pricing_plan_id":"free"},{"bike_id":"9c53b51a-70b6-4950-9c9f-ffb69be6cbb9","system_id":"levelo_inurba_marseille","lat":43.308012,"lon":5.381511,"is_reserved":false,"is_disabled":false,"rental_uris":{"android":"levelo://app?vid=9c53b51a-70b6-4950-9c9f-ffb69be6cbb9","ios":"levelo://app?vid=9c53b51a-70b6-4950-9c9f-ffb69be6cbb9"},"vehicle_type_id":"4","last_reported":1702930050,"current_range_meters":30000,"station_id":"ce4bgt12rcd13ifvqce0","pricing_plan_id":"free"},{"bike_id":"d79e6f5e-17c5-4a28-bb13-f32abaac0049","system_id":"levelo_inurba_marseille","lat":43.305364,"lon":5.384119,"is_reserved":false,"is_disabled":false,"rental_uris":{"android":"levelo://app?vid=d79e6f5e-17c5-4a28-bb13-f32abaac0049","ios":"levelo://app?vid=d79e6f5e-17c5-4a28-bb13-f32abaac0049"},"vehicle_type_id":"4","last_reported":1702930050,"current_range_meters":14400,"station_id":"ce4bgg92rcd13ifvqb30","pricing_plan_id":"free"},{"bike_id":"819cb438-2e9c-4e0b-902b-5e19ef554d5c","system_id":"levelo_inurba_marseille","lat":43.305445,"lon":5.384362,"is_reserved":false,"is_disabled":false,"rental_uris":{"android":"levelo://app?vid=819cb438-2e9c-4e0b-902b-5e19ef554d5c","ios":"levelo://app?vid=819cb438-2e9c-4e0b-902b-5e19ef554d5c"},"vehicle_type_id":"4","last_reported":1702930050,"current_range_meters":5600,"station_id":"ce4bgg92rcd13ifvqb30","pricing_plan_id":"free"},{"bike_id":"e66617a4-437e-4611-bcde-9766d1b74975","system_id":"levelo_inurba_marseille","lat":43.322872,"lon":5.382756,"is_reserved":false,"is_disabled":false,"rental_uris":{"android":"levelo://app?vid=e66617a4-437e-4611-bcde-9766d1b74975","ios":"levelo://app?vid=e66617a4-437e-4611-bcde-9766d1b74975"},"vehicle_type_id":"4","last_reported":1702930050,"current_range_meters":30000,"station_id":"ce4bhr12rcd13ifvqhqg","pricing_plan_id":"free"},{"bike_id":"5fcddf76-dd6d-43b0-a679-2d7e61213231","system_id":"levelo_inurba_marseille","lat":43.322943,"lon":5.382649,"is_reserved":false,"is_disabled":false,"rental_uris":{"android":"levelo://app?vid=5fcddf76-dd6d-43b0-a679-2d7e61213231","ios":"levelo://app?vid=5fcddf76-dd6d-43b0-a679-2d7e61213231"},"vehicle_type_id":"4","last_reported":1702930050,"current_range_meters":20400,"station_id":"ce4bhr12rcd13ifvqhqg","pricing_plan_id":"free"},{"bike_id":"d3cf9aea-27d1-488f-9d8c-cf26e2e4ef03","system_id":"levelo_inurba_marseille","lat":43.297163,"lon":5.365866,"is_reserved":false,"is_disabled":false,"rental_uris":{"android":"levelo://app?vid=d3cf9aea-27d1-488f-9d8c-cf26e2e4ef03","ios":"levelo://app?vid=d3cf9aea-27d1-488f-9d8c-cf26e2e4ef03"},"vehicle_type_id":"4","last_reported":1702930050,"current_range_meters":5200,"station_id":"ce4bgn12rcd13ifvqbt0","pricing_plan_id":"free"},{"bike_id":"1c267f3f-a1a0-4d46-bdd2-f221e607ff1b","system_id":"levelo_inurba_marseille","lat":43.297163,"lon":5.365866,"is_reserved":false,"is_disabled":false,"rental_uris":{"android":"levelo://app?vid=1c267f3f-a1a0-4d46-bdd2-f221e607ff1b","ios":"levelo://app?vid=1c267f3f-a1a0-4d46-bdd2-f221e607ff1b"},"vehicle_type_id":"4","last_reported":1702930050,"current_range_meters":5600,"station_id":"ce4bgn12rcd13ifvqbt0","pricing_plan_id":"free"},{"bike_id":"4220b8f6-c8f5-425e-8bb0-d258fb0026d7","system_id":"levelo_inurba_marseille","lat":43.309589,"lon":5.390258,"is_reserved":false,"is_disabled":false,"rental_uris":{"android":"levelo://app?vid=4220b8f6-c8f5-425e-8bb0-d258fb0026d7","ios":"levelo://app?vid=4220b8f6-c8f5-425e-8bb0-d258fb0026d7"},"vehicle_type_id":"4","last_reported":1702930050,"current_range_meters":16400,"station_id":"ce4bgup2rcd13ifvqco0","pricing_plan_id":"free"},{"bike_id":"5a0dec12-6d40-456c-a336-a2b332cfce8e","system_id":"levelo_inurba_marseille","lat":43.317557,"lon":5.390173,"is_reserved":false,"is_disabled":false,"rental_uris":{"android":"levelo://app?vid=5a0dec12-6d40-456c-a336-a2b332cfce8e","ios":"levelo://app?vid=5a0dec12-6d40-456c-a336-a2b332cfce8e"},"vehicle_type_id":"4","last_reported":1702930050,"current_range_meters":22000,"station_id":"ce4bhqp2rcd13ifvqhng","pricing_plan_id":"free"},{"bike_id":"891d9f5b-3694-4ef9-997f-ac9e5e2e409c","system_id":"levelo_inurba_marseille","lat":43.317557,"lon":5.390173,"is_reserved":false,"is_disabled":false,"rental_uris":{"android":"levelo://app?vid=891d9f5b-3694-4ef9-997f-ac9e5e2e409c","ios":"levelo://app?vid=891d9f5b-3694-4ef9-997f-ac9e5e2e409c"},"vehicle_type_id":"4","last_reported":1702930050,"current_range_meters":11200,"station_id":"ce4bhqp2rcd13ifvqhng","pricing_plan_id":"free"},{"bike_id":"708ff2df-6df8-437a-83a8-a660675bae4f","system_id":"levelo_inurba_marseille","lat":43.317557,"lon":5.390173,"is_reserved":false,"is_disabled":false,"rental_uris":{"android":"levelo://app?vid=708ff2df-6df8-437a-83a8-a660675bae4f","ios":"levelo://app?vid=708ff2df-6df8-437a-83a8-a660675bae4f"},"vehicle_type_id":"4","last_reported":1702930050,"current_range_meters":6400,"station_id":"ce4bhqp2rcd13ifvqhng","pricing_plan_id":"free"},{"bike_id":"1a85875b-07d9-45c4-aac9-fa5e80e7ae50","system_id":"levelo_inurba_marseille","lat":43.29804,"lon":5.38089,"is_reserved":false,"is_disabled":false,"rental_uris":{"android":"levelo://app?vid=1a85875b-07d9-45c4-aac9-fa5e80e7ae50","ios":"levelo://app?vid=1a85875b-07d9-45c4-aac9-fa5e80e7ae50"},"vehicle_type_id":"4","last_reported":1702930050,"current_range_meters":2000,"station_id":"ce4bgip2rcd13ifvqbb0","pricing_plan_id":"free"},{"bike_id":"c1d31200-3573-4ef7-9b30-ef7557202fa8","system_id":"levelo_inurba_marseille","lat":43.304274,"lon":5.388873,"is_reserved":false,"is_disabled":false,"rental_uris":{"android":"levelo://app?vid=c1d31200-3573-4ef7-9b30-ef7557202fa8","ios":"levelo://app?vid=c1d31200-3573-4ef7-9b30-ef7557202fa8"},"vehicle_type_id":"4","last_reported":1702930050,"current_range_meters":10400,"station_id":"ce4bgk12rcd13ifvqbi0","pricing_plan_id":"free"},{"bike_id":"423aa56c-7b31-4f51-933d-8fe558fe7a80","system_id":"levelo_inurba_marseille","lat":43.304274,"lon":5.388873,"is_reserved":false,"is_disabled":false,"rental_uris":{"android":"levelo://app?vid=423aa56c-7b31-4f51-933d-8fe558fe7a80","ios":"levelo://app?vid=423aa56c-7b31-4f51-933d-8fe558fe7a80"},"vehicle_type_id":"4","last_reported":1702930050,"current_range_meters":22400,"station_id":"ce4bgk12rcd13ifvqbi0","pricing_plan_id":"free"},{"bike_id":"a7ddd39b-5bc6-43a0-a2ab-d377db3462a2","system_id":"levelo_inurba_marseille","lat":43.296263,"lon":5.377094,"is_reserved":false,"is_disabled":false,"rental_uris":{"android":"levelo://app?vid=a7ddd39b-5bc6-43a0-a2ab-d377db3462a2","ios":"levelo://app?vid=a7ddd39b-5bc6-43a0-a2ab-d377db3462a2"},"vehicle_type_id":"4","last_reported":1702930050,"current_range_meters":2000,"station_id":"ce4bgi92rcd13ifvqb90","pricing_plan_id":"free"},{"bike_id":"324d43ac-8acc-493b-a5a9-04c1c83d790f","system_id":"levelo_inurba_marseille","lat":43.296263,"lon":5.377094,"is_reserved":false,"is_disabled":false,"rental_uris":{"android":"levelo://app?vid=324d43ac-8acc-493b-a5a9-04c1c83d790f","ios":"levelo://app?vid=324d43ac-8acc-493b-a5a9-04c1c83d790f"},"vehicle_type_id":"4","last_reported":1702930050,"current_range_meters":22800,"station_id":"ce4bgi92rcd13ifvqb90","pricing_plan_id":"free"},{"bike_id":"34c1c526-774d-4682-ac38-bf5f5e4efd4a","system_id":"levelo_inurba_marseille","lat":43.29966,"lon":5.38499,"is_reserved":false,"is_disabled":false,"rental_uris":{"android":"levelo://app?vid=34c1c526-774d-4682-ac38-bf5f5e4efd4a","ios":"levelo://app?vid=34c1c526-774d-4682-ac38-bf5f5e4efd4a"},"vehicle_type_id":"4","last_reported":1702930050,"current_range_meters":0,"station_id":"ce4bgj92rcd13ifvqbd0","pricing_plan_id":"free"},{"bike_id":"10d7df7f-fd5d-419c-8505-c3bd4c2fcdec","system_id":"levelo_inurba_marseille","lat":43.296296,"lon":5.379992,"is_reserved":false,"is_disabled":false,"rental_uris":{"android":"levelo://app?vid=10d7df7f-fd5d-419c-8505-c3bd4c2fcdec","ios":"levelo://app?vid=10d7df7f-fd5d-419c-8505-c3bd4c2fcdec"},"vehicle_type_id":"4","last_reported":1702930050,"current_range_meters":20000,"station_id":"","pricing_plan_id":"free"},{"bike_id":"a8a00542-b50a-4997-bb46-bb4cd4e44bc4","system_id":"levelo_inurba_marseille","lat":43.29601,"lon":5.381084,"is_reserved":false,"is_disabled":false,"rental_uris":{"android":"levelo://app?vid=a8a00542-b50a-4997-bb46-bb4cd4e44bc4","ios":"levelo://app?vid=a8a00542-b50a-4997-bb46-bb4cd4e44bc4"},"vehicle_type_id":"4","last_reported":1702930050,"current_range_meters":14800,"station_id":"ce4bgl12rcd13ifvqbo0","pricing_plan_id":"free"},{"bike_id":"9ddbd6b0-f1bf-4261-8c12-9f592ce7c0b5","system_id":"levelo_inurba_marseille","lat":43.29601,"lon":5.381084,"is_reserved":false,"is_disabled":false,"rental_uris":{"android":"levelo://app?vid=9ddbd6b0-f1bf-4261-8c12-9f592ce7c0b5","ios":"levelo://app?vid=9ddbd6b0-f1bf-4261-8c12-9f592ce7c0b5"},"vehicle_type_id":"4","last_reported":1702930050,"current_range_meters":8400,"station_id":"ce4bgl12rcd13ifvqbo0","pricing_plan_id":"free"},{"bike_id":"2bb6804e-ed76-4fcf-8097-2465229db7d9","system_id":"levelo_inurba_marseille","lat":43.305994,"lon":5.393687,"is_reserved":false,"is_disabled":false,"rental_uris":{"android":"levelo://app?vid=2bb6804e-ed76-4fcf-8097-2465229db7d9","ios":"levelo://app?vid=2bb6804e-ed76-4fcf-8097-2465229db7d9"},"vehicle_type_id":"4","last_reported":1702930050,"current_range_meters":16000,"station_id":"ce4bh0p2rcd13ifvqd80","pricing_plan_id":"free"},{"bike_id":"06d227cf-ba21-4c27-92c8-72c3f03be2f9","system_id":"levelo_inurba_marseille","lat":43.29281,"lon":5.3744,"is_reserved":false,"is_disabled":false,"rental_uris":{"android":"levelo://app?vid=06d227cf-ba21-4c27-92c8-72c3f03be2f9","ios":"levelo://app?vid=06d227cf-ba21-4c27-92c8-72c3f03be2f9"},"vehicle_type_id":"4","last_reported":1702930050,"current_range_meters":6400,"station_id":"","pricing_plan_id":"free"},{"bike_id":"719fe952-7e4e-46a2-9d7a-9d149efc2f12","system_id":"levelo_inurba_marseille","lat":43.30085,"lon":5.390856,"is_reserved":false,"is_disabled":false,"rental_uris":{"android":"levelo://app?vid=719fe952-7e4e-46a2-9d7a-9d149efc2f12","ios":"levelo://app?vid=719fe952-7e4e-46a2-9d7a-9d149efc2f12"},"vehicle_type_id":"4","last_reported":1702930050,"current_range_meters":24400,"station_id":"ce4bh192rcd13ifvqdb0","pricing_plan_id":"free"},{"bike_id":"6d673728-7a74-4081-a161-8a065ae4dd53","system_id":"levelo_inurba_marseille","lat":43.300852,"lon":5.390859,"is_reserved":false,"is_disabled":false,"rental_uris":{"android":"levelo://app?vid=6d673728-7a74-4081-a161-8a065ae4dd53","ios":"levelo://app?vid=6d673728-7a74-4081-a161-8a065ae4dd53"},"vehicle_type_id":"4","last_reported":1702930050,"current_range_meters":30800,"station_id":"ce4bh192rcd13ifvqdb0","pricing_plan_id":"free"},{"bike_id":"9f18f4a2-2d03-404f-beb7-e3930a60b773","system_id":"levelo_inurba_marseille","lat":43.29873,"lon":5.38902,"is_reserved":false,"is_disabled":false,"rental_uris":{"android":"levelo://app?vid=9f18f4a2-2d03-404f-beb7-e3930a60b773","ios":"levelo://app?vid=9f18f4a2-2d03-404f-beb7-e3930a60b773"},"vehicle_type_id":"4","last_reported":1702930050,"current_range_meters":6000,"station_id":"","pricing_plan_id":"free"},{"bike_id":"45ffc421-054a-48ac-872c-d6512262a28f","system_id":"levelo_inurba_marseille","lat":43.29872,"lon":5.389068,"is_reserved":false,"is_disabled":false,"rental_uris":{"android":"levelo://app?vid=45ffc421-054a-48ac-872c-d6512262a28f","ios":"levelo://app?vid=45ffc421-054a-48ac-872c-d6512262a28f"},"vehicle_type_id":"4","last_reported":1702930050,"current_range_meters":1600,"station_id":"","pricing_plan_id":"free"},{"bike_id":"f962fa19-d9fe-4f81-bbce-17ef368e6843","system_id":"levelo_inurba_marseille","lat":43.298682,"lon":5.389024,"is_reserved":false,"is_disabled":false,"rental_uris":{"android":"levelo://app?vid=f962fa19-d9fe-4f81-bbce-17ef368e6843","ios":"levelo://app?vid=f962fa19-d9fe-4f81-bbce-17ef368e6843"},"vehicle_type_id":"4","last_reported":1702930050,"current_range_meters":0,"station_id":"","pricing_plan_id":"free"},{"bike_id":"8d990dcd-9e1c-4897-b2d8-c69a8205637c","system_id":"levelo_inurba_marseille","lat":43.29865,"lon":5.38912,"is_reserved":false,"is_disabled":false,"rental_uris":{"android":"levelo://app?vid=8d990dcd-9e1c-4897-b2d8-c69a8205637c","ios":"levelo://app?vid=8d990dcd-9e1c-4897-b2d8-c69a8205637c"},"vehicle_type_id":"4","last_reported":1702930050,"current_range_meters":18800,"station_id":"","pricing_plan_id":"free"},{"bike_id":"241b1e6d-5e83-4075-922e-8e2eeb9bb922","system_id":"levelo_inurba_marseille","lat":43.313291,"lon":5.396838,"is_reserved":false,"is_disabled":false,"rental_uris":{"android":"levelo://app?vid=241b1e6d-5e83-4075-922e-8e2eeb9bb922","ios":"levelo://app?vid=241b1e6d-5e83-4075-922e-8e2eeb9bb922"},"vehicle_type_id":"4","last_reported":1702930050,"current_range_meters":18800,"station_id":"ce4bgvp2rcd13ifvqcu0","pricing_plan_id":"free"},{"bike_id":"0a31ed2a-87c2-4e2f-8c31-84ef29d5cbe1","system_id":"levelo_inurba_marseille","lat":43.313291,"lon":5.396838,"is_reserved":false,"is_disabled":false,"rental_uris":{"android":"levelo://app?vid=0a31ed2a-87c2-4e2f-8c31-84ef29d5cbe1","ios":"levelo://app?vid=0a31ed2a-87c2-4e2f-8c31-84ef29d5cbe1"},"vehicle_type_id":"4","last_reported":1702930050,"current_range_meters":29200,"station_id":"ce4bgvp2rcd13ifvqcu0","pricing_plan_id":"free"},{"bike_id":"7145584d-2206-40a6-905f-1ceeb97c25a2","system_id":"levelo_inurba_marseille","lat":43.313291,"lon":5.396838,"is_reserved":false,"is_disabled":false,"rental_uris":{"android":"levelo://app?vid=7145584d-2206-40a6-905f-1ceeb97c25a2","ios":"levelo://app?vid=7145584d-2206-40a6-905f-1ceeb97c25a2"},"vehicle_type_id":"4","last_reported":1702930050,"current_range_meters":8000,"station_id":"ce4bgvp2rcd13ifvqcu0","pricing_plan_id":"free"},{"bike_id":"1c073a34-7b59-4d8f-90d9-1d2b3a1762d0","system_id":"levelo_inurba_marseille","lat":43.309038,"lon":5.396546,"is_reserved":false,"is_disabled":false,"rental_uris":{"android":"levelo://app?vid=1c073a34-7b59-4d8f-90d9-1d2b3a1762d0","ios":"levelo://app?vid=1c073a34-7b59-4d8f-90d9-1d2b3a1762d0"},"vehicle_type_id":"4","last_reported":1702930050,"current_range_meters":3200,"station_id":"ce4bh012rcd13ifvqcv0","pricing_plan_id":"free"},{"bike_id":"3e1705c2-c377-4f28-9057-1f10f70aaada","system_id":"levelo_inurba_marseille","lat":43.309047,"lon":5.396551,"is_reserved":false,"is_disabled":false,"rental_uris":{"android":"levelo://app?vid=3e1705c2-c377-4f28-9057-1f10f70aaada","ios":"levelo://app?vid=3e1705c2-c377-4f28-9057-1f10f70aaada"},"vehicle_type_id":"4","last_reported":1702930050,"current_range_meters":11600,"station_id":"ce4bh012rcd13ifvqcv0","pricing_plan_id":"free"},{"bike_id":"0a6846ef-e9dc-47b2-b1a7-2583912d5ef9","system_id":"levelo_inurba_marseille","lat":43.29529,"lon":5.385581,"is_reserved":false,"is_disabled":false,"rental_uris":{"android":"levelo://app?vid=0a6846ef-e9dc-47b2-b1a7-2583912d5ef9","ios":"levelo://app?vid=0a6846ef-e9dc-47b2-b1a7-2583912d5ef9"},"vehicle_type_id":"4","last_reported":1702930050,"current_range_meters":0,"station_id":"ce4bgih2rcd13ifvqba0","pricing_plan_id":"free"},{"bike_id":"47f01bbe-5918-4a35-9471-a932fd5c0678","system_id":"levelo_inurba_marseille","lat":43.290779,"lon":5.371482,"is_reserved":false,"is_disabled":false,"rental_uris":{"android":"levelo://app?vid=47f01bbe-5918-4a35-9471-a932fd5c0678","ios":"levelo://app?vid=47f01bbe-5918-4a35-9471-a932fd5c0678"},"vehicle_type_id":"4","last_reported":1702930050,"current_range_meters":22000,"station_id":"ce4bh5p2rcd13ifvqe4g","pricing_plan_id":"free"},{"bike_id":"4d4bb202-63ea-48fc-8400-fa8b20021fd2","system_id":"levelo_inurba_marseille","lat":43.289953,"lon":5.366999,"is_reserved":false,"is_disabled":false,"rental_uris":{"android":"levelo://app?vid=4d4bb202-63ea-48fc-8400-fa8b20021fd2","ios":"levelo://app?vid=4d4bb202-63ea-48fc-8400-fa8b20021fd2"},"vehicle_type_id":"4","last_reported":1702930050,"current_range_meters":0,"station_id":"","pricing_plan_id":"free"},{"bike_id":"0d7aa228-8e80-46a9-a143-fefab4b4d0e5","system_id":"levelo_inurba_marseille","lat":43.290624,"lon":5.359245,"is_reserved":false,"is_disabled":false,"rental_uris":{"android":"levelo://app?vid=0d7aa228-8e80-46a9-a143-fefab4b4d0e5","ios":"levelo://app?vid=0d7aa228-8e80-46a9-a143-fefab4b4d0e5"},"vehicle_type_id":"4","last_reported":1702930050,"current_range_meters":5200,"station_id":"ce4bha92rcd13ifvqeg0","pricing_plan_id":"free"},{"bike_id":"872ebf06-3421-4285-9dfb-04c874d8254c","system_id":"levelo_inurba_marseille","lat":43.290624,"lon":5.359245,"is_reserved":false,"is_disabled":false,"rental_uris":{"android":"levelo://app?vid=872ebf06-3421-4285-9dfb-04c874d8254c","ios":"levelo://app?vid=872ebf06-3421-4285-9dfb-04c874d8254c"},"vehicle_type_id":"4","last_reported":1702930050,"current_range_meters":12400,"station_id":"ce4bha92rcd13ifvqeg0","pricing_plan_id":"free"},{"bike_id":"1909193d-9301-4389-ab65-9db313705820","system_id":"levelo_inurba_marseille","lat":43.290327,"lon":5.375711,"is_reserved":false,"is_disabled":false,"rental_uris":{"android":"levelo://app?vid=1909193d-9301-4389-ab65-9db313705820","ios":"levelo://app?vid=1909193d-9301-4389-ab65-9db313705820"},"vehicle_type_id":"4","last_reported":1702930050,"current_range_meters":15600,"station_id":"ce4bh692rcd13ifvqe90","pricing_plan_id":"free"},{"bike_id":"a628e81e-a4a1-471b-8d5a-a7d071e831aa","system_id":"levelo_inurba_marseille","lat":43.292644,"lon":5.384257,"is_reserved":false,"is_disabled":false,"rental_uris":{"android":"levelo://app?vid=a628e81e-a4a1-471b-8d5a-a7d071e831aa","ios":"levelo://app?vid=a628e81e-a4a1-471b-8d5a-a7d071e831aa"},"vehicle_type_id":"4","last_reported":1702930050,"current_range_meters":10000,"station_id":"ce4bh692rcd13ifvqea0","pricing_plan_id":"free"},{"bike_id":"e581f634-4cd7-41fc-9df0-653e0700f386","system_id":"levelo_inurba_marseille","lat":43.292644,"lon":5.384257,"is_reserved":false,"is_disabled":false,"rental_uris":{"android":"levelo://app?vid=e581f634-4cd7-41fc-9df0-653e0700f386","ios":"levelo://app?vid=e581f634-4cd7-41fc-9df0-653e0700f386"},"vehicle_type_id":"4","last_reported":1702930050,"current_range_meters":8400,"station_id":"ce4bh692rcd13ifvqea0","pricing_plan_id":"free"},{"bike_id":"25299760-3b30-4728-952d-8938f1c802c3","system_id":"levelo_inurba_marseille","lat":43.33043,"lon":5.38915,"is_reserved":false,"is_disabled":false,"rental_uris":{"android":"levelo://app?vid=25299760-3b30-4728-952d-8938f1c802c3","ios":"levelo://app?vid=25299760-3b30-4728-952d-8938f1c802c3"},"vehicle_type_id":"4","last_reported":1702930050,"current_range_meters":10000,"station_id":"ce4bhr92rcd13ifvqhrg","pricing_plan_id":"free"},{"bike_id":"8f43d285-eedb-4d4a-bb5a-dd21f2ffe320","system_id":"levelo_inurba_marseille","lat":43.33042,"lon":5.38921,"is_reserved":false,"is_disabled":false,"rental_uris":{"android":"levelo://app?vid=8f43d285-eedb-4d4a-bb5a-dd21f2ffe320","ios":"levelo://app?vid=8f43d285-eedb-4d4a-bb5a-dd21f2ffe320"},"vehicle_type_id":"4","last_reported":1702930050,"current_range_meters":17200,"station_id":"ce4bhr92rcd13ifvqhrg","pricing_plan_id":"free"},{"bike_id":"0eb29cf8-6cad-4fbf-8127-a31ff2bbb89a","system_id":"levelo_inurba_marseille","lat":43.330442,"lon":5.389148,"is_reserved":false,"is_disabled":false,"rental_uris":{"android":"levelo://app?vid=0eb29cf8-6cad-4fbf-8127-a31ff2bbb89a","ios":"levelo://app?vid=0eb29cf8-6cad-4fbf-8127-a31ff2bbb89a"},"vehicle_type_id":"4","last_reported":1702930050,"current_range_meters":2000,"station_id":"ce4bhr92rcd13ifvqhrg","pricing_plan_id":"free"},{"bike_id":"bb4a18f7-dd2a-4ad5-8d6e-35c6c7f9f11b","system_id":"levelo_inurba_marseille","lat":43.33054,"lon":5.38917,"is_reserved":false,"is_disabled":false,"rental_uris":{"android":"levelo://app?vid=bb4a18f7-dd2a-4ad5-8d6e-35c6c7f9f11b","ios":"levelo://app?vid=bb4a18f7-dd2a-4ad5-8d6e-35c6c7f9f11b"},"vehicle_type_id":"4","last_reported":1702930050,"current_range_meters":20800,"station_id":"ce4bhr92rcd13ifvqhrg","pricing_plan_id":"free"},{"bike_id":"204bce71-52a7-4ef3-a323-e54c1712d742","system_id":"levelo_inurba_marseille","lat":43.290995,"lon":5.381361,"is_reserved":false,"is_disabled":false,"rental_uris":{"android":"levelo://app?vid=204bce71-52a7-4ef3-a323-e54c1712d742","ios":"levelo://app?vid=204bce71-52a7-4ef3-a323-e54c1712d742"},"vehicle_type_id":"4","last_reported":1702930050,"current_range_meters":17200,"station_id":"ce4bh512rcd13ifvqe2g","pricing_plan_id":"free"},{"bike_id":"ed0e1d8e-284e-4356-a932-a247a1a89c89","system_id":"levelo_inurba_marseille","lat":43.295169,"lon":5.390426,"is_reserved":false,"is_disabled":false,"rental_uris":{"android":"levelo://app?vid=ed0e1d8e-284e-4356-a932-a247a1a89c89","ios":"levelo://app?vid=ed0e1d8e-284e-4356-a932-a247a1a89c89"},"vehicle_type_id":"4","last_reported":1702930050,"current_range_meters":12800,"station_id":"ce4bh3p2rcd13ifvqdp0","pricing_plan_id":"free"},{"bike_id":"60300a71-b578-414f-b414-3464f778dfe2","system_id":"levelo_inurba_marseille","lat":43.28859,"lon":5.35839,"is_reserved":false,"is_disabled":false,"rental_uris":{"android":"levelo://app?vid=60300a71-b578-414f-b414-3464f778dfe2","ios":"levelo://app?vid=60300a71-b578-414f-b414-3464f778dfe2"},"vehicle_type_id":"4","last_reported":1702930050,"current_range_meters":3200,"station_id":"ce4bhb12rcd13ifvqem0","pricing_plan_id":"free"},{"bike_id":"d124da3c-d570-4fc8-9751-ccbc02517b26","system_id":"levelo_inurba_marseille","lat":43.28857,"lon":5.358486,"is_reserved":false,"is_disabled":false,"rental_uris":{"android":"levelo://app?vid=d124da3c-d570-4fc8-9751-ccbc02517b26","ios":"levelo://app?vid=d124da3c-d570-4fc8-9751-ccbc02517b26"},"vehicle_type_id":"4","last_reported":1702930050,"current_range_meters":0,"station_id":"ce4bhb12rcd13ifvqem0","pricing_plan_id":"free"},{"bike_id":"0e98b83d-ebc8-42f0-84da-19f36307cf56","system_id":"levelo_inurba_marseille","lat":43.288487,"lon":5.358563,"is_reserved":false,"is_disabled":false,"rental_uris":{"android":"levelo://app?vid=0e98b83d-ebc8-42f0-84da-19f36307cf56","ios":"levelo://app?vid=0e98b83d-ebc8-42f0-84da-19f36307cf56"},"vehicle_type_id":"4","last_reported":1702930050,"current_range_meters":6400,"station_id":"ce4bhb12rcd13ifvqem0","pricing_plan_id":"free"},{"bike_id":"8813eb52-4306-4ab5-8247-90d67053df9a","system_id":"levelo_inurba_marseille","lat":43.30942,"lon":5.40146,"is_reserved":false,"is_disabled":false,"rental_uris":{"android":"levelo://app?vid=8813eb52-4306-4ab5-8247-90d67053df9a","ios":"levelo://app?vid=8813eb52-4306-4ab5-8247-90d67053df9a"},"vehicle_type_id":"4","last_reported":1702930050,"current_range_meters":0,"station_id":"ce4bgvp2rcd13ifvqct0","pricing_plan_id":"free"},{"bike_id":"5d2b7674-df04-4304-838c-c0d3b93083a6","system_id":"levelo_inurba_marseille","lat":43.3375,"lon":5.37441,"is_reserved":false,"is_disabled":false,"rental_uris":{"android":"levelo://app?vid=5d2b7674-df04-4304-838c-c0d3b93083a6","ios":"levelo://app?vid=5d2b7674-df04-4304-838c-c0d3b93083a6"},"vehicle_type_id":"4","last_reported":1702930050,"current_range_meters":18800,"station_id":"","pricing_plan_id":"free"},{"bike_id":"f035450e-1ff8-4a3f-8057-bb28866594c7","system_id":"levelo_inurba_marseille","lat":43.309371,"lon":5.401449,"is_reserved":false,"is_disabled":false,"rental_uris":{"android":"levelo://app?vid=f035450e-1ff8-4a3f-8057-bb28866594c7","ios":"levelo://app?vid=f035450e-1ff8-4a3f-8057-bb28866594c7"},"vehicle_type_id":"4","last_reported":1702930050,"current_range_meters":7200,"station_id":"ce4bgvp2rcd13ifvqct0","pricing_plan_id":"free"},{"bike_id":"52555428-7738-4bc5-99ea-eb79b5202705","system_id":"levelo_inurba_marseille","lat":43.337512,"lon":5.374439,"is_reserved":false,"is_disabled":false,"rental_uris":{"android":"levelo://app?vid=52555428-7738-4bc5-99ea-eb79b5202705","ios":"levelo://app?vid=52555428-7738-4bc5-99ea-eb79b5202705"},"vehicle_type_id":"4","last_reported":1702930050,"current_range_meters":28000,"station_id":"","pricing_plan_id":"free"},{"bike_id":"30fe65e3-b366-4630-8c71-a903cf8a6c91","system_id":"levelo_inurba_marseille","lat":43.30642,"lon":5.401031,"is_reserved":false,"is_disabled":false,"rental_uris":{"android":"levelo://app?vid=30fe65e3-b366-4630-8c71-a903cf8a6c91","ios":"levelo://app?vid=30fe65e3-b366-4630-8c71-a903cf8a6c91"},"vehicle_type_id":"4","last_reported":1702930050,"current_range_meters":24000,"station_id":"ce4bh112rcd13ifvqda0","pricing_plan_id":"free"},{"bike_id":"dfe0e63f-e657-4749-8691-a2708869d71d","system_id":"levelo_inurba_marseille","lat":43.28727,"lon":5.36078,"is_reserved":false,"is_disabled":false,"rental_uris":{"android":"levelo://app?vid=dfe0e63f-e657-4749-8691-a2708869d71d","ios":"levelo://app?vid=dfe0e63f-e657-4749-8691-a2708869d71d"},"vehicle_type_id":"4","last_reported":1702930050,"current_range_meters":31600,"station_id":"cki0cbj6b192h4jlfktg","pricing_plan_id":"free"},{"bike_id":"2618ed52-aaab-4281-b032-c4cac9cbdffa","system_id":"levelo_inurba_marseille","lat":43.28727,"lon":5.36078,"is_reserved":false,"is_disabled":false,"rental_uris":{"android":"levelo://app?vid=2618ed52-aaab-4281-b032-c4cac9cbdffa","ios":"levelo://app?vid=2618ed52-aaab-4281-b032-c4cac9cbdffa"},"vehicle_type_id":"4","last_reported":1702930050,"current_range_meters":20400,"station_id":"cki0cbj6b192h4jlfktg","pricing_plan_id":"free"},{"bike_id":"63d602d7-0141-407d-8a2b-bc3417e0c436","system_id":"levelo_inurba_marseille","lat":43.28727,"lon":5.36078,"is_reserved":false,"is_disabled":false,"rental_uris":{"android":"levelo://app?vid=63d602d7-0141-407d-8a2b-bc3417e0c436","ios":"levelo://app?vid=63d602d7-0141-407d-8a2b-bc3417e0c436"},"vehicle_type_id":"4","last_reported":1702930050,"current_range_meters":400,"station_id":"cki0cbj6b192h4jlfktg","pricing_plan_id":"free"},{"bike_id":"57343f7a-b5a7-4c64-bde2-578dd3b7d51a","system_id":"levelo_inurba_marseille","lat":43.286961,"lon":5.373785,"is_reserved":false,"is_disabled":false,"rental_uris":{"android":"levelo://app?vid=57343f7a-b5a7-4c64-bde2-578dd3b7d51a","ios":"levelo://app?vid=57343f7a-b5a7-4c64-bde2-578dd3b7d51a"},"vehicle_type_id":"4","last_reported":1702930050,"current_range_meters":31200,"station_id":"ce4bh3p2rcd13ifvqdq0","pricing_plan_id":"free"},{"bike_id":"09482689-f053-4eab-b1b2-4a75dc849209","system_id":"levelo_inurba_marseille","lat":43.286961,"lon":5.373785,"is_reserved":false,"is_disabled":false,"rental_uris":{"android":"levelo://app?vid=09482689-f053-4eab-b1b2-4a75dc849209","ios":"levelo://app?vid=09482689-f053-4eab-b1b2-4a75dc849209"},"vehicle_type_id":"4","last_reported":1702930050,"current_range_meters":12400,"station_id":"ce4bh3p2rcd13ifvqdq0","pricing_plan_id":"free"},{"bike_id":"773474c7-82a1-47e4-a12f-a6e03bb8a19c","system_id":"levelo_inurba_marseille","lat":43.286961,"lon":5.373785,"is_reserved":false,"is_disabled":false,"rental_uris":{"android":"levelo://app?vid=773474c7-82a1-47e4-a12f-a6e03bb8a19c","ios":"levelo://app?vid=773474c7-82a1-47e4-a12f-a6e03bb8a19c"},"vehicle_type_id":"4","last_reported":1702930050,"current_range_meters":5200,"station_id":"ce4bh3p2rcd13ifvqdq0","pricing_plan_id":"free"},{"bike_id":"a581f509-1603-48d3-a78d-0a28073fa166","system_id":"levelo_inurba_marseille","lat":43.286961,"lon":5.373785,"is_reserved":false,"is_disabled":false,"rental_uris":{"android":"levelo://app?vid=a581f509-1603-48d3-a78d-0a28073fa166","ios":"levelo://app?vid=a581f509-1603-48d3-a78d-0a28073fa166"},"vehicle_type_id":"4","last_reported":1702930050,"current_range_meters":14800,"station_id":"ce4bh3p2rcd13ifvqdq0","pricing_plan_id":"free"},{"bike_id":"b208e740-5086-46ff-bd2e-a1c5a4aeb938","system_id":"levelo_inurba_marseille","lat":43.295196,"lon":5.39397,"is_reserved":false,"is_disabled":false,"rental_uris":{"android":"levelo://app?vid=b208e740-5086-46ff-bd2e-a1c5a4aeb938","ios":"levelo://app?vid=b208e740-5086-46ff-bd2e-a1c5a4aeb938"},"vehicle_type_id":"4","last_reported":1702930050,"current_range_meters":18000,"station_id":"ce4bh292rcd13ifvqdf0","pricing_plan_id":"free"},{"bike_id":"81429949-40df-4185-a3ce-32da8624884c","system_id":"levelo_inurba_marseille","lat":43.302759,"lon":5.400793,"is_reserved":false,"is_disabled":false,"rental_uris":{"android":"levelo://app?vid=81429949-40df-4185-a3ce-32da8624884c","ios":"levelo://app?vid=81429949-40df-4185-a3ce-32da8624884c"},"vehicle_type_id":"4","last_reported":1702930050,"current_range_meters":5200,"station_id":"ce4bgvh2rcd13ifvqcs0","pricing_plan_id":"free"},{"bike_id":"6453bb5c-77f1-4e67-8cc1-f020cb779f12","system_id":"levelo_inurba_marseille","lat":43.290345,"lon":5.38646,"is_reserved":false,"is_disabled":false,"rental_uris":{"android":"levelo://app?vid=6453bb5c-77f1-4e67-8cc1-f020cb779f12","ios":"levelo://app?vid=6453bb5c-77f1-4e67-8cc1-f020cb779f12"},"vehicle_type_id":"4","last_reported":1702930050,"current_range_meters":10400,"station_id":"ce4bh4p2rcd13ifvqe0g","pricing_plan_id":"free"},{"bike_id":"0f4ce063-95b9-4a2b-8afe-3cea89672259","system_id":"levelo_inurba_marseille","lat":43.290336,"lon":5.386425,"is_reserved":false,"is_disabled":false,"rental_uris":{"android":"levelo://app?vid=0f4ce063-95b9-4a2b-8afe-3cea89672259","ios":"levelo://app?vid=0f4ce063-95b9-4a2b-8afe-3cea89672259"},"vehicle_type_id":"4","last_reported":1702930050,"current_range_meters":16800,"station_id":"ce4bh4p2rcd13ifvqe0g","pricing_plan_id":"free"},{"bike_id":"6f6ba09f-b597-4c05-a2e4-5ff867576e7f","system_id":"levelo_inurba_marseille","lat":43.290345,"lon":5.38646,"is_reserved":false,"is_disabled":false,"rental_uris":{"android":"levelo://app?vid=6f6ba09f-b597-4c05-a2e4-5ff867576e7f","ios":"levelo://app?vid=6f6ba09f-b597-4c05-a2e4-5ff867576e7f"},"vehicle_type_id":"4","last_reported":1702930050,"current_range_meters":18400,"station_id":"ce4bh4p2rcd13ifvqe0g","pricing_plan_id":"free"},{"bike_id":"f8b98059-39b3-42c1-8744-efd5127029a8","system_id":"levelo_inurba_marseille","lat":43.289272,"lon":5.384062,"is_reserved":false,"is_disabled":false,"rental_uris":{"android":"levelo://app?vid=f8b98059-39b3-42c1-8744-efd5127029a8","ios":"levelo://app?vid=f8b98059-39b3-42c1-8744-efd5127029a8"},"vehicle_type_id":"4","last_reported":1702930050,"current_range_meters":0,"station_id":"ce4bh612rcd13ifvqe6g","pricing_plan_id":"free"},{"bike_id":"7b3f30db-721a-4fb2-bf74-a7f1ed6d4c50","system_id":"levelo_inurba_marseille","lat":43.2903,"lon":5.38651,"is_reserved":false,"is_disabled":false,"rental_uris":{"android":"levelo://app?vid=7b3f30db-721a-4fb2-bf74-a7f1ed6d4c50","ios":"levelo://app?vid=7b3f30db-721a-4fb2-bf74-a7f1ed6d4c50"},"vehicle_type_id":"4","last_reported":1702930050,"current_range_meters":2800,"station_id":"ce4bh4p2rcd13ifvqe0g","pricing_plan_id":"free"},{"bike_id":"286da3c1-554d-4cbf-ac33-c70ce84d87e4","system_id":"levelo_inurba_marseille","lat":43.29027,"lon":5.38646,"is_reserved":false,"is_disabled":false,"rental_uris":{"android":"levelo://app?vid=286da3c1-554d-4cbf-ac33-c70ce84d87e4","ios":"levelo://app?vid=286da3c1-554d-4cbf-ac33-c70ce84d87e4"},"vehicle_type_id":"4","last_reported":1702930050,"current_range_meters":27200,"station_id":"ce4bh4p2rcd13ifvqe0g","pricing_plan_id":"free"},{"bike_id":"f5954271-b3e2-4739-ad53-3fd68942a6ab","system_id":"levelo_inurba_marseille","lat":43.302759,"lon":5.400793,"is_reserved":false,"is_disabled":false,"rental_uris":{"android":"levelo://app?vid=f5954271-b3e2-4739-ad53-3fd68942a6ab","ios":"levelo://app?vid=f5954271-b3e2-4739-ad53-3fd68942a6ab"},"vehicle_type_id":"4","last_reported":1702930050,"current_range_meters":19200,"station_id":"ce4bgvh2rcd13ifvqcs0","pricing_plan_id":"free"},{"bike_id":"e9ebd21d-2f09-4bd4-a7ea-a9182895e836","system_id":"levelo_inurba_marseille","lat":43.286039,"lon":5.370679,"is_reserved":false,"is_disabled":false,"rental_uris":{"android":"levelo://app?vid=e9ebd21d-2f09-4bd4-a7ea-a9182895e836","ios":"levelo://app?vid=e9ebd21d-2f09-4bd4-a7ea-a9182895e836"},"vehicle_type_id":"4","last_reported":1702930050,"current_range_meters":21200,"station_id":"ce4bht12rcd13ifvqi60","pricing_plan_id":"free"},{"bike_id":"04ce3566-187c-4390-b127-e0bde3fb4456","system_id":"levelo_inurba_marseille","lat":43.314012,"lon":5.403746,"is_reserved":false,"is_disabled":false,"rental_uris":{"android":"levelo://app?vid=04ce3566-187c-4390-b127-e0bde3fb4456","ios":"levelo://app?vid=04ce3566-187c-4390-b127-e0bde3fb4456"},"vehicle_type_id":"4","last_reported":1702930050,"current_range_meters":22000,"station_id":"","pricing_plan_id":"free"},{"bike_id":"4375752a-6049-49d7-acf1-63e551e4e6e5","system_id":"levelo_inurba_marseille","lat":43.287185,"lon":5.379373,"is_reserved":false,"is_disabled":false,"rental_uris":{"android":"levelo://app?vid=4375752a-6049-49d7-acf1-63e551e4e6e5","ios":"levelo://app?vid=4375752a-6049-49d7-acf1-63e551e4e6e5"},"vehicle_type_id":"4","last_reported":1702930050,"current_range_meters":23200,"station_id":"ce4bh9p2rcd13ifvqec0","pricing_plan_id":"free"},{"bike_id":"c90b9caf-f082-4587-b2d6-f3fb3bf1f032","system_id":"levelo_inurba_marseille","lat":43.287185,"lon":5.379373,"is_reserved":false,"is_disabled":false,"rental_uris":{"android":"levelo://app?vid=c90b9caf-f082-4587-b2d6-f3fb3bf1f032","ios":"levelo://app?vid=c90b9caf-f082-4587-b2d6-f3fb3bf1f032"},"vehicle_type_id":"4","last_reported":1702930050,"current_range_meters":20400,"station_id":"ce4bh9p2rcd13ifvqec0","pricing_plan_id":"free"},{"bike_id":"5bd08be1-5509-4d09-b270-6d4d5fa5f7a2","system_id":"levelo_inurba_marseille","lat":43.316821,"lon":5.404737,"is_reserved":false,"is_disabled":false,"rental_uris":{"android":"levelo://app?vid=5bd08be1-5509-4d09-b270-6d4d5fa5f7a2","ios":"levelo://app?vid=5bd08be1-5509-4d09-b270-6d4d5fa5f7a2"},"vehicle_type_id":"4","last_reported":1702930050,"current_range_meters":0,"station_id":"ce4bh012rcd13ifvqd00","pricing_plan_id":"free"},{"bike_id":"24d4422a-81c5-48f5-b5b1-96a084b48a13","system_id":"levelo_inurba_marseille","lat":43.291994,"lon":5.392907,"is_reserved":false,"is_disabled":false,"rental_uris":{"android":"levelo://app?vid=24d4422a-81c5-48f5-b5b1-96a084b48a13","ios":"levelo://app?vid=24d4422a-81c5-48f5-b5b1-96a084b48a13"},"vehicle_type_id":"4","last_reported":1702930050,"current_range_meters":20400,"station_id":"ce4bh192rcd13ifvqdd0","pricing_plan_id":"free"},{"bike_id":"ede12a09-c41d-4966-877a-3721b56c793d","system_id":"levelo_inurba_marseille","lat":43.284538,"lon":5.358657,"is_reserved":false,"is_disabled":false,"rental_uris":{"android":"levelo://app?vid=ede12a09-c41d-4966-877a-3721b56c793d","ios":"levelo://app?vid=ede12a09-c41d-4966-877a-3721b56c793d"},"vehicle_type_id":"4","last_reported":1702930050,"current_range_meters":16800,"station_id":"ce4bhah2rcd13ifvqei0","pricing_plan_id":"free"},{"bike_id":"8c22da29-f189-4442-a10e-a405b7dfb79c","system_id":"levelo_inurba_marseille","lat":43.284538,"lon":5.358657,"is_reserved":false,"is_disabled":false,"rental_uris":{"android":"levelo://app?vid=8c22da29-f189-4442-a10e-a405b7dfb79c","ios":"levelo://app?vid=8c22da29-f189-4442-a10e-a405b7dfb79c"},"vehicle_type_id":"4","last_reported":1702930050,"current_range_meters":31200,"station_id":"ce4bhah2rcd13ifvqei0","pricing_plan_id":"free"},{"bike_id":"20112597-bb6b-4932-9f6b-01574e6a8790","system_id":"levelo_inurba_marseille","lat":43.294314,"lon":5.397498,"is_reserved":false,"is_disabled":false,"rental_uris":{"android":"levelo://app?vid=20112597-bb6b-4932-9f6b-01574e6a8790","ios":"levelo://app?vid=20112597-bb6b-4932-9f6b-01574e6a8790"},"vehicle_type_id":"4","last_reported":1702930050,"current_range_meters":8400,"station_id":"ce4bh3h2rcd13ifvqdo0","pricing_plan_id":"free"},{"bike_id":"77389bdc-2727-4736-819e-bb68f0dc0783","system_id":"levelo_inurba_marseille","lat":43.28613,"lon":5.35111,"is_reserved":false,"is_disabled":false,"rental_uris":{"android":"levelo://app?vid=77389bdc-2727-4736-819e-bb68f0dc0783","ios":"levelo://app?vid=77389bdc-2727-4736-819e-bb68f0dc0783"},"vehicle_type_id":"4","last_reported":1702930050,"current_range_meters":0,"station_id":"ce4bhch2rcd13ifvqeug","pricing_plan_id":"free"},{"bike_id":"5e39142f-4bc7-4b39-81db-3ddba57925dc","system_id":"levelo_inurba_marseille","lat":43.28613,"lon":5.35107,"is_reserved":false,"is_disabled":false,"rental_uris":{"android":"levelo://app?vid=5e39142f-4bc7-4b39-81db-3ddba57925dc","ios":"levelo://app?vid=5e39142f-4bc7-4b39-81db-3ddba57925dc"},"vehicle_type_id":"4","last_reported":1702930050,"current_range_meters":20400,"station_id":"ce4bhch2rcd13ifvqeug","pricing_plan_id":"free"},{"bike_id":"648b9eb3-117b-4ef6-8b52-802a099ea74c","system_id":"levelo_inurba_marseille","lat":43.283998,"lon":5.375062,"is_reserved":false,"is_disabled":false,"rental_uris":{"android":"levelo://app?vid=648b9eb3-117b-4ef6-8b52-802a099ea74c","ios":"levelo://app?vid=648b9eb3-117b-4ef6-8b52-802a099ea74c"},"vehicle_type_id":"4","last_reported":1702930050,"current_range_meters":4000,"station_id":"ce4bh412rcd13ifvqds0","pricing_plan_id":"free"},{"bike_id":"58d9fcc3-6a19-4917-a102-479b465b7478","system_id":"levelo_inurba_marseille","lat":43.295713,"lon":5.399639,"is_reserved":false,"is_disabled":false,"rental_uris":{"android":"levelo://app?vid=58d9fcc3-6a19-4917-a102-479b465b7478","ios":"levelo://app?vid=58d9fcc3-6a19-4917-a102-479b465b7478"},"vehicle_type_id":"4","last_reported":1702930050,"current_range_meters":400,"station_id":"ce4bh312rcd13ifvqdj0","pricing_plan_id":"free"},{"bike_id":"2dfa5049-0e1b-4839-b5c3-156910a65dbd","system_id":"levelo_inurba_marseille","lat":43.33218,"lon":5.397067,"is_reserved":false,"is_disabled":false,"rental_uris":{"android":"levelo://app?vid=2dfa5049-0e1b-4839-b5c3-156910a65dbd","ios":"levelo://app?vid=2dfa5049-0e1b-4839-b5c3-156910a65dbd"},"vehicle_type_id":"4","last_reported":1702930050,"current_range_meters":4000,"station_id":"","pricing_plan_id":"free"},{"bike_id":"dd7c3735-fcc8-4fe9-8427-c354b4521977","system_id":"levelo_inurba_marseille","lat":43.286647,"lon":5.386613,"is_reserved":false,"is_disabled":false,"rental_uris":{"android":"levelo://app?vid=dd7c3735-fcc8-4fe9-8427-c354b4521977","ios":"levelo://app?vid=dd7c3735-fcc8-4fe9-8427-c354b4521977"},"vehicle_type_id":"4","last_reported":1702930050,"current_range_meters":0,"station_id":"ce4bh492rcd13ifvqdug","pricing_plan_id":"free"},{"bike_id":"d276badf-c069-4a08-b8f3-9f55000a41e8","system_id":"levelo_inurba_marseille","lat":43.288501,"lon":5.393087,"is_reserved":false,"is_disabled":false,"rental_uris":{"android":"levelo://app?vid=d276badf-c069-4a08-b8f3-9f55000a41e8","ios":"levelo://app?vid=d276badf-c069-4a08-b8f3-9f55000a41e8"},"vehicle_type_id":"4","last_reported":1702930050,"current_range_meters":4800,"station_id":"ce4bh2p2rcd13ifvqdi0","pricing_plan_id":"free"},{"bike_id":"d27071e6-ff7a-42d4-a3fb-69d605fd9e7d","system_id":"levelo_inurba_marseille","lat":43.284793,"lon":5.384113,"is_reserved":false,"is_disabled":false,"rental_uris":{"android":"levelo://app?vid=d27071e6-ff7a-42d4-a3fb-69d605fd9e7d","ios":"levelo://app?vid=d27071e6-ff7a-42d4-a3fb-69d605fd9e7d"},"vehicle_type_id":"4","last_reported":1702930050,"current_range_meters":21200,"station_id":"ce4bh512rcd13ifvqe3g","pricing_plan_id":"free"},{"bike_id":"3a293e34-ad39-404a-8046-873b947690e5","system_id":"levelo_inurba_marseille","lat":43.297946,"lon":5.404063,"is_reserved":false,"is_disabled":false,"rental_uris":{"android":"levelo://app?vid=3a293e34-ad39-404a-8046-873b947690e5","ios":"levelo://app?vid=3a293e34-ad39-404a-8046-873b947690e5"},"vehicle_type_id":"4","last_reported":1702930050,"current_range_meters":11200,"station_id":"ce4bh112rcd13ifvqd90","pricing_plan_id":"free"},{"bike_id":"aec96270-0f5e-4824-a6b9-de0651288ce2","system_id":"levelo_inurba_marseille","lat":43.284793,"lon":5.384113,"is_reserved":false,"is_disabled":false,"rental_uris":{"android":"levelo://app?vid=aec96270-0f5e-4824-a6b9-de0651288ce2","ios":"levelo://app?vid=aec96270-0f5e-4824-a6b9-de0651288ce2"},"vehicle_type_id":"4","last_reported":1702930050,"current_range_meters":2400,"station_id":"ce4bh512rcd13ifvqe3g","pricing_plan_id":"free"},{"bike_id":"2919631a-5f21-4cf6-930a-50f71929b7b5","system_id":"levelo_inurba_marseille","lat":43.29795,"lon":5.404086,"is_reserved":false,"is_disabled":false,"rental_uris":{"android":"levelo://app?vid=2919631a-5f21-4cf6-930a-50f71929b7b5","ios":"levelo://app?vid=2919631a-5f21-4cf6-930a-50f71929b7b5"},"vehicle_type_id":"4","last_reported":1702930050,"current_range_meters":30000,"station_id":"ce4bh112rcd13ifvqd90","pricing_plan_id":"free"},{"bike_id":"e193160a-6bd5-4841-a687-8160c936a272","system_id":"levelo_inurba_marseille","lat":43.29795,"lon":5.404086,"is_reserved":false,"is_disabled":false,"rental_uris":{"android":"levelo://app?vid=e193160a-6bd5-4841-a687-8160c936a272","ios":"levelo://app?vid=e193160a-6bd5-4841-a687-8160c936a272"},"vehicle_type_id":"4","last_reported":1702930050,"current_range_meters":4000,"station_id":"ce4bh112rcd13ifvqd90","pricing_plan_id":"free"},{"bike_id":"f42e6fc9-1616-4511-bc91-f652118c0916","system_id":"levelo_inurba_marseille","lat":43.283494,"lon":5.380945,"is_reserved":false,"is_disabled":false,"rental_uris":{"android":"levelo://app?vid=f42e6fc9-1616-4511-bc91-f652118c0916","ios":"levelo://app?vid=f42e6fc9-1616-4511-bc91-f652118c0916"},"vehicle_type_id":"4","last_reported":1702930050,"current_range_meters":5200,"station_id":"ce4bh412rcd13ifvqdr0","pricing_plan_id":"free"},{"bike_id":"2ba20bfa-8c81-4913-85d1-3a02ecd897ff","system_id":"levelo_inurba_marseille","lat":43.288501,"lon":5.393087,"is_reserved":false,"is_disabled":false,"rental_uris":{"android":"levelo://app?vid=2ba20bfa-8c81-4913-85d1-3a02ecd897ff","ios":"levelo://app?vid=2ba20bfa-8c81-4913-85d1-3a02ecd897ff"},"vehicle_type_id":"4","last_reported":1702930050,"current_range_meters":2400,"station_id":"ce4bh2p2rcd13ifvqdi0","pricing_plan_id":"free"},{"bike_id":"cb481e2d-4e8a-448d-936a-e58d442d9b70","system_id":"levelo_inurba_marseille","lat":43.288501,"lon":5.393087,"is_reserved":false,"is_disabled":false,"rental_uris":{"android":"levelo://app?vid=cb481e2d-4e8a-448d-936a-e58d442d9b70","ios":"levelo://app?vid=cb481e2d-4e8a-448d-936a-e58d442d9b70"},"vehicle_type_id":"4","last_reported":1702930050,"current_range_meters":15600,"station_id":"ce4bh2p2rcd13ifvqdi0","pricing_plan_id":"free"},{"bike_id":"25a9d768-00b2-4860-8173-2ece38f6eabd","system_id":"levelo_inurba_marseille","lat":43.288501,"lon":5.393087,"is_reserved":false,"is_disabled":false,"rental_uris":{"android":"levelo://app?vid=25a9d768-00b2-4860-8173-2ece38f6eabd","ios":"levelo://app?vid=25a9d768-00b2-4860-8173-2ece38f6eabd"},"vehicle_type_id":"4","last_reported":1702930050,"current_range_meters":24400,"station_id":"ce4bh2p2rcd13ifvqdi0","pricing_plan_id":"free"},{"bike_id":"458810b5-a968-4db9-8f24-f09e7ecbb477","system_id":"levelo_inurba_marseille","lat":43.283498,"lon":5.380948,"is_reserved":false,"is_disabled":false,"rental_uris":{"android":"levelo://app?vid=458810b5-a968-4db9-8f24-f09e7ecbb477","ios":"levelo://app?vid=458810b5-a968-4db9-8f24-f09e7ecbb477"},"vehicle_type_id":"4","last_reported":1702930050,"current_range_meters":16800,"station_id":"ce4bh412rcd13ifvqdr0","pricing_plan_id":"free"},{"bike_id":"d24ba025-9b9c-4f3f-b015-6600986fb00f","system_id":"levelo_inurba_marseille","lat":43.288501,"lon":5.393087,"is_reserved":false,"is_disabled":false,"rental_uris":{"android":"levelo://app?vid=d24ba025-9b9c-4f3f-b015-6600986fb00f","ios":"levelo://app?vid=d24ba025-9b9c-4f3f-b015-6600986fb00f"},"vehicle_type_id":"4","last_reported":1702930050,"current_range_meters":22800,"station_id":"ce4bh2p2rcd13ifvqdi0","pricing_plan_id":"free"},{"bike_id":"63937f00-79aa-4dea-877e-5d1eecd0759e","system_id":"levelo_inurba_marseille","lat":43.306412,"lon":5.401035,"is_reserved":false,"is_disabled":false,"rental_uris":{"android":"levelo://app?vid=63937f00-79aa-4dea-877e-5d1eecd0759e","ios":"levelo://app?vid=63937f00-79aa-4dea-877e-5d1eecd0759e"},"vehicle_type_id":"4","last_reported":1702930050,"current_range_meters":26000,"station_id":"ce4bh112rcd13ifvqda0","pricing_plan_id":"free"},{"bike_id":"bb6b9a71-8635-47ea-816b-53980ea59ef8","system_id":"levelo_inurba_marseille","lat":43.282744,"lon":5.350533,"is_reserved":false,"is_disabled":false,"rental_uris":{"android":"levelo://app?vid=bb6b9a71-8635-47ea-816b-53980ea59ef8","ios":"levelo://app?vid=bb6b9a71-8635-47ea-816b-53980ea59ef8"},"vehicle_type_id":"4","last_reported":1702930050,"current_range_meters":13200,"station_id":"ce4bhbp2rcd13ifvqerg","pricing_plan_id":"free"},{"bike_id":"2b3efb56-540b-40aa-b1a9-2802461999fc","system_id":"levelo_inurba_marseille","lat":43.282744,"lon":5.350533,"is_reserved":false,"is_disabled":false,"rental_uris":{"android":"levelo://app?vid=2b3efb56-540b-40aa-b1a9-2802461999fc","ios":"levelo://app?vid=2b3efb56-540b-40aa-b1a9-2802461999fc"},"vehicle_type_id":"4","last_reported":1702930050,"current_range_meters":22400,"station_id":"ce4bhbp2rcd13ifvqerg","pricing_plan_id":"free"},{"bike_id":"9650f641-6a27-44d6-8eb4-734879b4b659","system_id":"levelo_inurba_marseille","lat":43.286961,"lon":5.373785,"is_reserved":false,"is_disabled":false,"rental_uris":{"android":"levelo://app?vid=9650f641-6a27-44d6-8eb4-734879b4b659","ios":"levelo://app?vid=9650f641-6a27-44d6-8eb4-734879b4b659"},"vehicle_type_id":"4","last_reported":1702930050,"current_range_meters":6800,"station_id":"ce4bh3p2rcd13ifvqdq0","pricing_plan_id":"free"},{"bike_id":"41a616d3-9671-47e6-a61a-79bc77bcedca","system_id":"levelo_inurba_marseille","lat":43.281044,"lon":5.378308,"is_reserved":false,"is_disabled":false,"rental_uris":{"android":"levelo://app?vid=41a616d3-9671-47e6-a61a-79bc77bcedca","ios":"levelo://app?vid=41a616d3-9671-47e6-a61a-79bc77bcedca"},"vehicle_type_id":"4","last_reported":1702930050,"current_range_meters":6000,"station_id":"ce4bha12rcd13ifvqee0","pricing_plan_id":"free"},{"bike_id":"14e1b31b-c460-4fda-b8f3-d7d72b9acd89","system_id":"levelo_inurba_marseille","lat":43.281044,"lon":5.378308,"is_reserved":false,"is_disabled":false,"rental_uris":{"android":"levelo://app?vid=14e1b31b-c460-4fda-b8f3-d7d72b9acd89","ios":"levelo://app?vid=14e1b31b-c460-4fda-b8f3-d7d72b9acd89"},"vehicle_type_id":"4","last_reported":1702930050,"current_range_meters":25200,"station_id":"ce4bha12rcd13ifvqee0","pricing_plan_id":"free"},{"bike_id":"9698e689-4b8e-4a73-8d7d-39bb6b2312fa","system_id":"levelo_inurba_marseille","lat":43.28099,"lon":5.37857,"is_reserved":false,"is_disabled":false,"rental_uris":{"android":"levelo://app?vid=9698e689-4b8e-4a73-8d7d-39bb6b2312fa","ios":"levelo://app?vid=9698e689-4b8e-4a73-8d7d-39bb6b2312fa"},"vehicle_type_id":"4","last_reported":1702930050,"current_range_meters":0,"station_id":"ce4bha12rcd13ifvqee0","pricing_plan_id":"free"},{"bike_id":"078401c7-9978-48fe-a767-59fb46b7e93c","system_id":"levelo_inurba_marseille","lat":43.284462,"lon":5.392121,"is_reserved":false,"is_disabled":false,"rental_uris":{"android":"levelo://app?vid=078401c7-9978-48fe-a767-59fb46b7e93c","ios":"levelo://app?vid=078401c7-9978-48fe-a767-59fb46b7e93c"},"vehicle_type_id":"4","last_reported":1702930050,"current_range_meters":23600,"station_id":"ce4bhoh2rcd13ifvqh5g","pricing_plan_id":"free"},{"bike_id":"2970159a-cdd2-48e2-b3c0-fecd78954376","system_id":"levelo_inurba_marseille","lat":43.284462,"lon":5.392121,"is_reserved":false,"is_disabled":false,"rental_uris":{"android":"levelo://app?vid=2970159a-cdd2-48e2-b3c0-fecd78954376","ios":"levelo://app?vid=2970159a-cdd2-48e2-b3c0-fecd78954376"},"vehicle_type_id":"4","last_reported":1702930050,"current_range_meters":19600,"station_id":"ce4bhoh2rcd13ifvqh5g","pricing_plan_id":"free"},{"bike_id":"75a2a611-e6d8-442f-ba5a-47c2032c5304","system_id":"levelo_inurba_marseille","lat":43.284462,"lon":5.392121,"is_reserved":false,"is_disabled":false,"rental_uris":{"android":"levelo://app?vid=75a2a611-e6d8-442f-ba5a-47c2032c5304","ios":"levelo://app?vid=75a2a611-e6d8-442f-ba5a-47c2032c5304"},"vehicle_type_id":"4","last_reported":1702930050,"current_range_meters":14000,"station_id":"ce4bhoh2rcd13ifvqh5g","pricing_plan_id":"free"},{"bike_id":"857aa8a5-8ac8-4f33-a260-7afdacc6e887","system_id":"levelo_inurba_marseille","lat":43.285742,"lon":5.395004,"is_reserved":false,"is_disabled":false,"rental_uris":{"android":"levelo://app?vid=857aa8a5-8ac8-4f33-a260-7afdacc6e887","ios":"levelo://app?vid=857aa8a5-8ac8-4f33-a260-7afdacc6e887"},"vehicle_type_id":"4","last_reported":1702930050,"current_range_meters":22800,"station_id":"ce4bh292rcd13ifvqdg0","pricing_plan_id":"free"},{"bike_id":"9fc39c62-1e96-4103-a806-0208cfbc2ef4","system_id":"levelo_inurba_marseille","lat":43.285742,"lon":5.395004,"is_reserved":false,"is_disabled":false,"rental_uris":{"android":"levelo://app?vid=9fc39c62-1e96-4103-a806-0208cfbc2ef4","ios":"levelo://app?vid=9fc39c62-1e96-4103-a806-0208cfbc2ef4"},"vehicle_type_id":"4","last_reported":1702930050,"current_range_meters":6000,"station_id":"ce4bh292rcd13ifvqdg0","pricing_plan_id":"free"},{"bike_id":"7945c9bc-8705-4104-aacd-41e0e0a664d5","system_id":"levelo_inurba_marseille","lat":43.28573,"lon":5.394992,"is_reserved":false,"is_disabled":false,"rental_uris":{"android":"levelo://app?vid=7945c9bc-8705-4104-aacd-41e0e0a664d5","ios":"levelo://app?vid=7945c9bc-8705-4104-aacd-41e0e0a664d5"},"vehicle_type_id":"4","last_reported":1702930050,"current_range_meters":29200,"station_id":"ce4bh292rcd13ifvqdg0","pricing_plan_id":"free"},{"bike_id":"ebc382dc-bff4-4ed0-8fce-28d10fdc332a","system_id":"levelo_inurba_marseille","lat":43.304188,"lon":5.412904,"is_reserved":false,"is_disabled":false,"rental_uris":{"android":"levelo://app?vid=ebc382dc-bff4-4ed0-8fce-28d10fdc332a","ios":"levelo://app?vid=ebc382dc-bff4-4ed0-8fce-28d10fdc332a"},"vehicle_type_id":"4","last_reported":1702930050,"current_range_meters":19600,"station_id":"ce4bhop2rcd13ifvqh8g","pricing_plan_id":"free"},{"bike_id":"49d8443e-7f2a-450b-b859-da4aa2a14d6d","system_id":"levelo_inurba_marseille","lat":43.279087,"lon":5.380114,"is_reserved":false,"is_disabled":false,"rental_uris":{"android":"levelo://app?vid=49d8443e-7f2a-450b-b859-da4aa2a14d6d","ios":"levelo://app?vid=49d8443e-7f2a-450b-b859-da4aa2a14d6d"},"vehicle_type_id":"4","last_reported":1702930050,"current_range_meters":28800,"station_id":"ce4bhf92rcd13ifvqf50","pricing_plan_id":"free"},{"bike_id":"4443f536-4f02-4320-8763-26fb4bf07d92","system_id":"levelo_inurba_marseille","lat":43.279087,"lon":5.380114,"is_reserved":false,"is_disabled":false,"rental_uris":{"android":"levelo://app?vid=4443f536-4f02-4320-8763-26fb4bf07d92","ios":"levelo://app?vid=4443f536-4f02-4320-8763-26fb4bf07d92"},"vehicle_type_id":"4","last_reported":1702930050,"current_range_meters":19600,"station_id":"ce4bhf92rcd13ifvqf50","pricing_plan_id":"free"},{"bike_id":"0e053a22-f1e4-4f1f-ab87-c8c89a144582","system_id":"levelo_inurba_marseille","lat":43.279742,"lon":5.38744,"is_reserved":false,"is_disabled":false,"rental_uris":{"android":"levelo://app?vid=0e053a22-f1e4-4f1f-ab87-c8c89a144582","ios":"levelo://app?vid=0e053a22-f1e4-4f1f-ab87-c8c89a144582"},"vehicle_type_id":"4","last_reported":1702930050,"current_range_meters":25600,"station_id":"ce4bhg12rcd13ifvqf80","pricing_plan_id":"free"},{"bike_id":"d520a04f-8645-4de5-8d8e-38114a102fe6","system_id":"levelo_inurba_marseille","lat":43.279742,"lon":5.38744,"is_reserved":false,"is_disabled":false,"rental_uris":{"android":"levelo://app?vid=d520a04f-8645-4de5-8d8e-38114a102fe6","ios":"levelo://app?vid=d520a04f-8645-4de5-8d8e-38114a102fe6"},"vehicle_type_id":"4","last_reported":1702930050,"current_range_meters":25200,"station_id":"ce4bhg12rcd13ifvqf80","pricing_plan_id":"free"},{"bike_id":"945631f1-fc82-4cea-a691-f23b0ae6b9c0","system_id":"levelo_inurba_marseille","lat":43.292569,"lon":5.409107,"is_reserved":false,"is_disabled":false,"rental_uris":{"android":"levelo://app?vid=945631f1-fc82-4cea-a691-f23b0ae6b9c0","ios":"levelo://app?vid=945631f1-fc82-4cea-a691-f23b0ae6b9c0"},"vehicle_type_id":"4","last_reported":1702930050,"current_range_meters":1200,"station_id":"ce4bh192rcd13ifvqdc0","pricing_plan_id":"free"},{"bike_id":"f9930c92-e1ae-487c-add0-fa6429120601","system_id":"levelo_inurba_marseille","lat":43.292569,"lon":5.409107,"is_reserved":false,"is_disabled":false,"rental_uris":{"android":"levelo://app?vid=f9930c92-e1ae-487c-add0-fa6429120601","ios":"levelo://app?vid=f9930c92-e1ae-487c-add0-fa6429120601"},"vehicle_type_id":"4","last_reported":1702930050,"current_range_meters":6400,"station_id":"ce4bh192rcd13ifvqdc0","pricing_plan_id":"free"},{"bike_id":"90106306-9dd7-4d34-a757-00177879933a","system_id":"levelo_inurba_marseille","lat":43.292569,"lon":5.409107,"is_reserved":false,"is_disabled":false,"rental_uris":{"android":"levelo://app?vid=90106306-9dd7-4d34-a757-00177879933a","ios":"levelo://app?vid=90106306-9dd7-4d34-a757-00177879933a"},"vehicle_type_id":"4","last_reported":1702930050,"current_range_meters":22000,"station_id":"ce4bh192rcd13ifvqdc0","pricing_plan_id":"free"},{"bike_id":"746c5f03-bb7e-4feb-be4b-702f6474ef36","system_id":"levelo_inurba_marseille","lat":43.292569,"lon":5.409107,"is_reserved":false,"is_disabled":false,"rental_uris":{"android":"levelo://app?vid=746c5f03-bb7e-4feb-be4b-702f6474ef36","ios":"levelo://app?vid=746c5f03-bb7e-4feb-be4b-702f6474ef36"},"vehicle_type_id":"4","last_reported":1702930050,"current_range_meters":17600,"station_id":"ce4bh192rcd13ifvqdc0","pricing_plan_id":"free"},{"bike_id":"06d6d0a7-5a4c-4ff6-a91a-ac2bb0e711e7","system_id":"levelo_inurba_marseille","lat":43.276075,"lon":5.36098,"is_reserved":false,"is_disabled":false,"rental_uris":{"android":"levelo://app?vid=06d6d0a7-5a4c-4ff6-a91a-ac2bb0e711e7","ios":"levelo://app?vid=06d6d0a7-5a4c-4ff6-a91a-ac2bb0e711e7"},"vehicle_type_id":"4","last_reported":1702930050,"current_range_meters":7600,"station_id":"ce4bgj92rcd13ifvqbe0","pricing_plan_id":"free"},{"bike_id":"abce9a6c-3aeb-4133-883b-f887057d135d","system_id":"levelo_inurba_marseille","lat":43.280784,"lon":5.396622,"is_reserved":false,"is_disabled":false,"rental_uris":{"android":"levelo://app?vid=abce9a6c-3aeb-4133-883b-f887057d135d","ios":"levelo://app?vid=abce9a6c-3aeb-4133-883b-f887057d135d"},"vehicle_type_id":"4","last_reported":1702930050,"current_range_meters":12800,"station_id":"ce4bho12rcd13ifvqh2g","pricing_plan_id":"free"},{"bike_id":"4cee5c6a-7c96-4169-82b7-9b1c414dd242","system_id":"levelo_inurba_marseille","lat":43.280784,"lon":5.396622,"is_reserved":false,"is_disabled":false,"rental_uris":{"android":"levelo://app?vid=4cee5c6a-7c96-4169-82b7-9b1c414dd242","ios":"levelo://app?vid=4cee5c6a-7c96-4169-82b7-9b1c414dd242"},"vehicle_type_id":"4","last_reported":1702930050,"current_range_meters":27200,"station_id":"ce4bho12rcd13ifvqh2g","pricing_plan_id":"free"},{"bike_id":"15e1f8dc-2600-4807-a14e-dd378347c034","system_id":"levelo_inurba_marseille","lat":43.303549,"lon":5.418705,"is_reserved":false,"is_disabled":false,"rental_uris":{"android":"levelo://app?vid=15e1f8dc-2600-4807-a14e-dd378347c034","ios":"levelo://app?vid=15e1f8dc-2600-4807-a14e-dd378347c034"},"vehicle_type_id":"4","last_reported":1702930050,"current_range_meters":30800,"station_id":"ce4bhop2rcd13ifvqh7g","pricing_plan_id":"free"},{"bike_id":"ca903987-9494-4462-9aab-15e028bbb414","system_id":"levelo_inurba_marseille","lat":43.278399,"lon":5.392139,"is_reserved":false,"is_disabled":false,"rental_uris":{"android":"levelo://app?vid=ca903987-9494-4462-9aab-15e028bbb414","ios":"levelo://app?vid=ca903987-9494-4462-9aab-15e028bbb414"},"vehicle_type_id":"4","last_reported":1702930050,"current_range_meters":19200,"station_id":"ce4bhjp2rcd13ifvqga0","pricing_plan_id":"free"},{"bike_id":"982be372-476f-44b7-aa83-0f29f6132526","system_id":"levelo_inurba_marseille","lat":43.278399,"lon":5.392139,"is_reserved":false,"is_disabled":false,"rental_uris":{"android":"levelo://app?vid=982be372-476f-44b7-aa83-0f29f6132526","ios":"levelo://app?vid=982be372-476f-44b7-aa83-0f29f6132526"},"vehicle_type_id":"4","last_reported":1702930050,"current_range_meters":11600,"station_id":"ce4bhjp2rcd13ifvqga0","pricing_plan_id":"free"},{"bike_id":"8b7163c8-747c-4e96-8584-c017d4b913c7","system_id":"levelo_inurba_marseille","lat":43.273613,"lon":5.362705,"is_reserved":false,"is_disabled":false,"rental_uris":{"android":"levelo://app?vid=8b7163c8-747c-4e96-8584-c017d4b913c7","ios":"levelo://app?vid=8b7163c8-747c-4e96-8584-c017d4b913c7"},"vehicle_type_id":"4","last_reported":1702930050,"current_range_meters":24400,"station_id":"ce4bhbh2rcd13ifvqeo0","pricing_plan_id":"free"},{"bike_id":"0cf403f8-9992-471b-b83e-97c5b20efdb5","system_id":"levelo_inurba_marseille","lat":43.273609,"lon":5.362708,"is_reserved":false,"is_disabled":false,"rental_uris":{"android":"levelo://app?vid=0cf403f8-9992-471b-b83e-97c5b20efdb5","ios":"levelo://app?vid=0cf403f8-9992-471b-b83e-97c5b20efdb5"},"vehicle_type_id":"4","last_reported":1702930050,"current_range_meters":26000,"station_id":"ce4bhbh2rcd13ifvqeo0","pricing_plan_id":"free"},{"bike_id":"ba23a49f-f752-40f9-b881-d731ba920e07","system_id":"levelo_inurba_marseille","lat":43.324178,"lon":5.419979,"is_reserved":false,"is_disabled":false,"rental_uris":{"android":"levelo://app?vid=ba23a49f-f752-40f9-b881-d731ba920e07","ios":"levelo://app?vid=ba23a49f-f752-40f9-b881-d731ba920e07"},"vehicle_type_id":"4","last_reported":1702930050,"current_range_meters":27200,"station_id":"","pricing_plan_id":"free"},{"bike_id":"8733e204-521a-4eb5-b941-02d6d0876730","system_id":"levelo_inurba_marseille","lat":43.279952,"lon":5.400085,"is_reserved":false,"is_disabled":false,"rental_uris":{"android":"levelo://app?vid=8733e204-521a-4eb5-b941-02d6d0876730","ios":"levelo://app?vid=8733e204-521a-4eb5-b941-02d6d0876730"},"vehicle_type_id":"4","last_reported":1702930050,"current_range_meters":14800,"station_id":"ce4bho92rcd13ifvqh4g","pricing_plan_id":"free"},{"bike_id":"1c94075f-1520-42e4-b407-7493fed250da","system_id":"levelo_inurba_marseille","lat":43.340804,"lon":5.410219,"is_reserved":false,"is_disabled":false,"rental_uris":{"android":"levelo://app?vid=1c94075f-1520-42e4-b407-7493fed250da","ios":"levelo://app?vid=1c94075f-1520-42e4-b407-7493fed250da"},"vehicle_type_id":"4","last_reported":1702930050,"current_range_meters":20400,"station_id":"ce4bhqh2rcd13ifvqhlg","pricing_plan_id":"free"},{"bike_id":"051c77bb-f477-4448-bbe3-4595a522b0e7","system_id":"levelo_inurba_marseille","lat":43.340804,"lon":5.410219,"is_reserved":false,"is_disabled":false,"rental_uris":{"android":"levelo://app?vid=051c77bb-f477-4448-bbe3-4595a522b0e7","ios":"levelo://app?vid=051c77bb-f477-4448-bbe3-4595a522b0e7"},"vehicle_type_id":"4","last_reported":1702930050,"current_range_meters":19200,"station_id":"ce4bhqh2rcd13ifvqhlg","pricing_plan_id":"free"},{"bike_id":"3ca2c2d2-99b0-4aa6-a05d-e30f02e6a7fb","system_id":"levelo_inurba_marseille","lat":43.276092,"lon":5.395289,"is_reserved":false,"is_disabled":false,"rental_uris":{"android":"levelo://app?vid=3ca2c2d2-99b0-4aa6-a05d-e30f02e6a7fb","ios":"levelo://app?vid=3ca2c2d2-99b0-4aa6-a05d-e30f02e6a7fb"},"vehicle_type_id":"4","last_reported":1702930050,"current_range_meters":12000,"station_id":"","pricing_plan_id":"free"},{"bike_id":"4aa50c83-f74e-4e80-a38a-68eb50be775e","system_id":"levelo_inurba_marseille","lat":43.304088,"lon":5.425388,"is_reserved":false,"is_disabled":false,"rental_uris":{"android":"levelo://app?vid=4aa50c83-f74e-4e80-a38a-68eb50be775e","ios":"levelo://app?vid=4aa50c83-f74e-4e80-a38a-68eb50be775e"},"vehicle_type_id":"4","last_reported":1702930050,"current_range_meters":10000,"station_id":"ce4bhoh2rcd13ifvqh6g","pricing_plan_id":"free"},{"bike_id":"52ffbfe2-3dc9-4e53-97d1-3182ba2225bd","system_id":"levelo_inurba_marseille","lat":43.295511,"lon":5.422926,"is_reserved":false,"is_disabled":false,"rental_uris":{"android":"levelo://app?vid=52ffbfe2-3dc9-4e53-97d1-3182ba2225bd","ios":"levelo://app?vid=52ffbfe2-3dc9-4e53-97d1-3182ba2225bd"},"vehicle_type_id":"4","last_reported":1702930050,"current_range_meters":22400,"station_id":"ce4bhph2rcd13ifvqhdg","pricing_plan_id":"free"},{"bike_id":"9cbe5e87-404e-4c09-afbe-5ee44247e5dc","system_id":"levelo_inurba_marseille","lat":43.295523,"lon":5.422926,"is_reserved":false,"is_disabled":false,"rental_uris":{"android":"levelo://app?vid=9cbe5e87-404e-4c09-afbe-5ee44247e5dc","ios":"levelo://app?vid=9cbe5e87-404e-4c09-afbe-5ee44247e5dc"},"vehicle_type_id":"4","last_reported":1702930050,"current_range_meters":31200,"station_id":"ce4bhph2rcd13ifvqhdg","pricing_plan_id":"free"},{"bike_id":"1d583d68-8350-42de-af0a-dd3bb755495b","system_id":"levelo_inurba_marseille","lat":43.295525,"lon":5.422815,"is_reserved":false,"is_disabled":false,"rental_uris":{"android":"levelo://app?vid=1d583d68-8350-42de-af0a-dd3bb755495b","ios":"levelo://app?vid=1d583d68-8350-42de-af0a-dd3bb755495b"},"vehicle_type_id":"4","last_reported":1702930050,"current_range_meters":2800,"station_id":"ce4bhph2rcd13ifvqhdg","pricing_plan_id":"free"},{"bike_id":"628a1844-4de6-4ff8-b7b8-44bb12a39376","system_id":"levelo_inurba_marseille","lat":43.295511,"lon":5.422926,"is_reserved":false,"is_disabled":false,"rental_uris":{"android":"levelo://app?vid=628a1844-4de6-4ff8-b7b8-44bb12a39376","ios":"levelo://app?vid=628a1844-4de6-4ff8-b7b8-44bb12a39376"},"vehicle_type_id":"4","last_reported":1702930050,"current_range_meters":31200,"station_id":"ce4bhph2rcd13ifvqhdg","pricing_plan_id":"free"},{"bike_id":"c5b44840-1601-43ac-abe9-c1e5b739efac","system_id":"levelo_inurba_marseille","lat":43.295523,"lon":5.422926,"is_reserved":false,"is_disabled":false,"rental_uris":{"android":"levelo://app?vid=c5b44840-1601-43ac-abe9-c1e5b739efac","ios":"levelo://app?vid=c5b44840-1601-43ac-abe9-c1e5b739efac"},"vehicle_type_id":"4","last_reported":1702930050,"current_range_meters":25600,"station_id":"ce4bhph2rcd13ifvqhdg","pricing_plan_id":"free"},{"bike_id":"a1b8af23-d392-49bd-a85a-eb8ad9510d9c","system_id":"levelo_inurba_marseille","lat":43.295511,"lon":5.422926,"is_reserved":false,"is_disabled":false,"rental_uris":{"android":"levelo://app?vid=a1b8af23-d392-49bd-a85a-eb8ad9510d9c","ios":"levelo://app?vid=a1b8af23-d392-49bd-a85a-eb8ad9510d9c"},"vehicle_type_id":"4","last_reported":1702930050,"current_range_meters":3600,"station_id":"ce4bhph2rcd13ifvqhdg","pricing_plan_id":"free"},{"bike_id":"35f4c7df-1dd1-49cd-b086-e9b64d14ba25","system_id":"levelo_inurba_marseille","lat":43.295511,"lon":5.422926,"is_reserved":false,"is_disabled":false,"rental_uris":{"android":"levelo://app?vid=35f4c7df-1dd1-49cd-b086-e9b64d14ba25","ios":"levelo://app?vid=35f4c7df-1dd1-49cd-b086-e9b64d14ba25"},"vehicle_type_id":"4","last_reported":1702930050,"current_range_meters":25200,"station_id":"ce4bhph2rcd13ifvqhdg","pricing_plan_id":"free"},{"bike_id":"fc3f22f4-3d85-4b36-bd3d-60cd40afff37","system_id":"levelo_inurba_marseille","lat":43.295511,"lon":5.422926,"is_reserved":false,"is_disabled":false,"rental_uris":{"android":"levelo://app?vid=fc3f22f4-3d85-4b36-bd3d-60cd40afff37","ios":"levelo://app?vid=fc3f22f4-3d85-4b36-bd3d-60cd40afff37"},"vehicle_type_id":"4","last_reported":1702930050,"current_range_meters":10400,"station_id":"ce4bhph2rcd13ifvqhdg","pricing_plan_id":"free"},{"bike_id":"495235a3-5a60-465d-b852-0fd0e56f7619","system_id":"levelo_inurba_marseille","lat":43.272116,"lon":5.391747,"is_reserved":false,"is_disabled":false,"rental_uris":{"android":"levelo://app?vid=495235a3-5a60-465d-b852-0fd0e56f7619","ios":"levelo://app?vid=495235a3-5a60-465d-b852-0fd0e56f7619"},"vehicle_type_id":"4","last_reported":1702930050,"current_range_meters":15200,"station_id":"ce4bhhp2rcd13ifvqfm0","pricing_plan_id":"free"},{"bike_id":"ad10f8c9-cfe7-4eb7-bb3f-2c4707cc1d6b","system_id":"levelo_inurba_marseille","lat":43.2782,"lon":5.40719,"is_reserved":false,"is_disabled":false,"rental_uris":{"android":"levelo://app?vid=ad10f8c9-cfe7-4eb7-bb3f-2c4707cc1d6b","ios":"levelo://app?vid=ad10f8c9-cfe7-4eb7-bb3f-2c4707cc1d6b"},"vehicle_type_id":"4","last_reported":1702930050,"current_range_meters":0,"station_id":"ce4bhnh2rcd13ifvqgtg","pricing_plan_id":"free"},{"bike_id":"7642e52a-35dd-4016-a3f3-8b4a3d95d769","system_id":"levelo_inurba_marseille","lat":43.278128,"lon":5.407195,"is_reserved":false,"is_disabled":false,"rental_uris":{"android":"levelo://app?vid=7642e52a-35dd-4016-a3f3-8b4a3d95d769","ios":"levelo://app?vid=7642e52a-35dd-4016-a3f3-8b4a3d95d769"},"vehicle_type_id":"4","last_reported":1702930050,"current_range_meters":13600,"station_id":"ce4bhnh2rcd13ifvqgtg","pricing_plan_id":"free"},{"bike_id":"0676602b-588d-4bda-a4e6-b94392e8f194","system_id":"levelo_inurba_marseille","lat":43.278128,"lon":5.407195,"is_reserved":false,"is_disabled":false,"rental_uris":{"android":"levelo://app?vid=0676602b-588d-4bda-a4e6-b94392e8f194","ios":"levelo://app?vid=0676602b-588d-4bda-a4e6-b94392e8f194"},"vehicle_type_id":"4","last_reported":1702930050,"current_range_meters":9200,"station_id":"ce4bhnh2rcd13ifvqgtg","pricing_plan_id":"free"},{"bike_id":"1d41ae8e-a9df-496f-9b59-75c99de355d0","system_id":"levelo_inurba_marseille","lat":43.26936,"lon":5.38917,"is_reserved":false,"is_disabled":false,"rental_uris":{"android":"levelo://app?vid=1d41ae8e-a9df-496f-9b59-75c99de355d0","ios":"levelo://app?vid=1d41ae8e-a9df-496f-9b59-75c99de355d0"},"vehicle_type_id":"4","last_reported":1702930050,"current_range_meters":0,"station_id":"ce4bhhh2rcd13ifvqfl0","pricing_plan_id":"free"},{"bike_id":"036681ef-93f3-4046-997a-329f2a07c70f","system_id":"levelo_inurba_marseille","lat":43.265714,"lon":5.372891,"is_reserved":false,"is_disabled":false,"rental_uris":{"android":"levelo://app?vid=036681ef-93f3-4046-997a-329f2a07c70f","ios":"levelo://app?vid=036681ef-93f3-4046-997a-329f2a07c70f"},"vehicle_type_id":"4","last_reported":1702930050,"current_range_meters":15600,"station_id":"ce4bhg12rcd13ifvqf70","pricing_plan_id":"free"},{"bike_id":"cb97da20-e838-49a8-a07e-267048d14308","system_id":"levelo_inurba_marseille","lat":43.27996,"lon":5.416624,"is_reserved":false,"is_disabled":false,"rental_uris":{"android":"levelo://app?vid=cb97da20-e838-49a8-a07e-267048d14308","ios":"levelo://app?vid=cb97da20-e838-49a8-a07e-267048d14308"},"vehicle_type_id":"4","last_reported":1702930050,"current_range_meters":24800,"station_id":"ce4bho12rcd13ifvqh1g","pricing_plan_id":"free"},{"bike_id":"50adc33a-5cec-46d7-ab61-ad25db1ee9ac","system_id":"levelo_inurba_marseille","lat":43.30806,"lon":5.4352,"is_reserved":false,"is_disabled":false,"rental_uris":{"android":"levelo://app?vid=50adc33a-5cec-46d7-ab61-ad25db1ee9ac","ios":"levelo://app?vid=50adc33a-5cec-46d7-ab61-ad25db1ee9ac"},"vehicle_type_id":"4","last_reported":1702930050,"current_range_meters":1200,"station_id":"ce4bhph2rcd13ifvqheg","pricing_plan_id":"free"},{"bike_id":"b60fc5e1-89e5-42b6-95cd-2facc0075673","system_id":"levelo_inurba_marseille","lat":43.308051,"lon":5.43527,"is_reserved":false,"is_disabled":false,"rental_uris":{"android":"levelo://app?vid=b60fc5e1-89e5-42b6-95cd-2facc0075673","ios":"levelo://app?vid=b60fc5e1-89e5-42b6-95cd-2facc0075673"},"vehicle_type_id":"4","last_reported":1702930050,"current_range_meters":21600,"station_id":"ce4bhph2rcd13ifvqheg","pricing_plan_id":"free"},{"bike_id":"dea6d4bf-6bd3-4e00-ab36-832382195e1c","system_id":"levelo_inurba_marseille","lat":43.308051,"lon":5.43527,"is_reserved":false,"is_disabled":false,"rental_uris":{"android":"levelo://app?vid=dea6d4bf-6bd3-4e00-ab36-832382195e1c","ios":"levelo://app?vid=dea6d4bf-6bd3-4e00-ab36-832382195e1c"},"vehicle_type_id":"4","last_reported":1702930050,"current_range_meters":30400,"station_id":"ce4bhph2rcd13ifvqheg","pricing_plan_id":"free"},{"bike_id":"498e1520-f488-4aa0-b91a-3451bf8d5292","system_id":"levelo_inurba_marseille","lat":43.26949,"lon":5.40262,"is_reserved":false,"is_disabled":false,"rental_uris":{"android":"levelo://app?vid=498e1520-f488-4aa0-b91a-3451bf8d5292","ios":"levelo://app?vid=498e1520-f488-4aa0-b91a-3451bf8d5292"},"vehicle_type_id":"4","last_reported":1702930050,"current_range_meters":12800,"station_id":"cjm6bp8fraef2m0cb0m0","pricing_plan_id":"free"},{"bike_id":"50dd6dff-c53f-4ac5-b9a0-4a136248695a","system_id":"levelo_inurba_marseille","lat":43.2694,"lon":5.40243,"is_reserved":false,"is_disabled":false,"rental_uris":{"android":"levelo://app?vid=50dd6dff-c53f-4ac5-b9a0-4a136248695a","ios":"levelo://app?vid=50dd6dff-c53f-4ac5-b9a0-4a136248695a"},"vehicle_type_id":"4","last_reported":1702930050,"current_range_meters":0,"station_id":"cjm6bp8fraef2m0cb0m0","pricing_plan_id":"free"},{"bike_id":"68a8aa27-7f6a-4bdc-a49e-9faa72ce1250","system_id":"levelo_inurba_marseille","lat":43.26942,"lon":5.40254,"is_reserved":false,"is_disabled":false,"rental_uris":{"android":"levelo://app?vid=68a8aa27-7f6a-4bdc-a49e-9faa72ce1250","ios":"levelo://app?vid=68a8aa27-7f6a-4bdc-a49e-9faa72ce1250"},"vehicle_type_id":"4","last_reported":1702930050,"current_range_meters":2000,"station_id":"cjm6bp8fraef2m0cb0m0","pricing_plan_id":"free"},{"bike_id":"b1838760-ccff-4746-80bf-229efc951a30","system_id":"levelo_inurba_marseille","lat":43.261782,"lon":5.374515,"is_reserved":false,"is_disabled":false,"rental_uris":{"android":"levelo://app?vid=b1838760-ccff-4746-80bf-229efc951a30","ios":"levelo://app?vid=b1838760-ccff-4746-80bf-229efc951a30"},"vehicle_type_id":"4","last_reported":1702930050,"current_range_meters":14400,"station_id":"ce4bhgp2rcd13ifvqfc0","pricing_plan_id":"free"},{"bike_id":"7316220c-bdb8-4c03-8675-bc5b2439eb9a","system_id":"levelo_inurba_marseille","lat":43.26187,"lon":5.37444,"is_reserved":false,"is_disabled":false,"rental_uris":{"android":"levelo://app?vid=7316220c-bdb8-4c03-8675-bc5b2439eb9a","ios":"levelo://app?vid=7316220c-bdb8-4c03-8675-bc5b2439eb9a"},"vehicle_type_id":"4","last_reported":1702930050,"current_range_meters":17200,"station_id":"ce4bhgp2rcd13ifvqfc0","pricing_plan_id":"free"},{"bike_id":"883f20e2-6def-4a2a-94c6-c5c2c4f893c0","system_id":"levelo_inurba_marseille","lat":43.261782,"lon":5.374515,"is_reserved":false,"is_disabled":false,"rental_uris":{"android":"levelo://app?vid=883f20e2-6def-4a2a-94c6-c5c2c4f893c0","ios":"levelo://app?vid=883f20e2-6def-4a2a-94c6-c5c2c4f893c0"},"vehicle_type_id":"4","last_reported":1702930050,"current_range_meters":3200,"station_id":"ce4bhgp2rcd13ifvqfc0","pricing_plan_id":"free"},{"bike_id":"ee1964dd-bd19-4163-8977-66dfe213996c","system_id":"levelo_inurba_marseille","lat":43.261782,"lon":5.374515,"is_reserved":false,"is_disabled":false,"rental_uris":{"android":"levelo://app?vid=ee1964dd-bd19-4163-8977-66dfe213996c","ios":"levelo://app?vid=ee1964dd-bd19-4163-8977-66dfe213996c"},"vehicle_type_id":"4","last_reported":1702930050,"current_range_meters":31200,"station_id":"ce4bhgp2rcd13ifvqfc0","pricing_plan_id":"free"},{"bike_id":"524ed846-4fbf-4d2f-8a66-ae44c466484e","system_id":"levelo_inurba_marseille","lat":43.261782,"lon":5.374515,"is_reserved":false,"is_disabled":false,"rental_uris":{"android":"levelo://app?vid=524ed846-4fbf-4d2f-8a66-ae44c466484e","ios":"levelo://app?vid=524ed846-4fbf-4d2f-8a66-ae44c466484e"},"vehicle_type_id":"4","last_reported":1702930050,"current_range_meters":27200,"station_id":"ce4bhgp2rcd13ifvqfc0","pricing_plan_id":"free"},{"bike_id":"aed94823-987c-4f39-a8b9-00dab2638955","system_id":"levelo_inurba_marseille","lat":43.261782,"lon":5.374515,"is_reserved":false,"is_disabled":false,"rental_uris":{"android":"levelo://app?vid=aed94823-987c-4f39-a8b9-00dab2638955","ios":"levelo://app?vid=aed94823-987c-4f39-a8b9-00dab2638955"},"vehicle_type_id":"4","last_reported":1702930050,"current_range_meters":400,"station_id":"ce4bhgp2rcd13ifvqfc0","pricing_plan_id":"free"},{"bike_id":"596e3210-6bf0-4d85-99a9-57f2c2b7bb13","system_id":"levelo_inurba_marseille","lat":43.262012,"lon":5.379307,"is_reserved":false,"is_disabled":false,"rental_uris":{"android":"levelo://app?vid=596e3210-6bf0-4d85-99a9-57f2c2b7bb13","ios":"levelo://app?vid=596e3210-6bf0-4d85-99a9-57f2c2b7bb13"},"vehicle_type_id":"4","last_reported":1702930050,"current_range_meters":29600,"station_id":"ce4bhjp2rcd13ifvqg90","pricing_plan_id":"free"},{"bike_id":"eb1de3d3-c43d-4404-a0bf-e3e0f979c4f1","system_id":"levelo_inurba_marseille","lat":43.271388,"lon":5.409269,"is_reserved":false,"is_disabled":false,"rental_uris":{"android":"levelo://app?vid=eb1de3d3-c43d-4404-a0bf-e3e0f979c4f1","ios":"levelo://app?vid=eb1de3d3-c43d-4404-a0bf-e3e0f979c4f1"},"vehicle_type_id":"4","last_reported":1702930050,"current_range_meters":8400,"station_id":"ce4bhl12rcd13ifvqgf0","pricing_plan_id":"free"},{"bike_id":"a3be1c29-995a-4f18-8d28-f5aa4c79f3d0","system_id":"levelo_inurba_marseille","lat":43.271368,"lon":5.40928,"is_reserved":false,"is_disabled":false,"rental_uris":{"android":"levelo://app?vid=a3be1c29-995a-4f18-8d28-f5aa4c79f3d0","ios":"levelo://app?vid=a3be1c29-995a-4f18-8d28-f5aa4c79f3d0"},"vehicle_type_id":"4","last_reported":1702930050,"current_range_meters":28800,"station_id":"ce4bhl12rcd13ifvqgf0","pricing_plan_id":"free"},{"bike_id":"de0c8463-985e-421e-ba2b-0e4cab03aa7f","system_id":"levelo_inurba_marseille","lat":43.271388,"lon":5.409269,"is_reserved":false,"is_disabled":false,"rental_uris":{"android":"levelo://app?vid=de0c8463-985e-421e-ba2b-0e4cab03aa7f","ios":"levelo://app?vid=de0c8463-985e-421e-ba2b-0e4cab03aa7f"},"vehicle_type_id":"4","last_reported":1702930050,"current_range_meters":4800,"station_id":"ce4bhl12rcd13ifvqgf0","pricing_plan_id":"free"},{"bike_id":"3ec17574-714c-4dd8-936f-b707a5b77655","system_id":"levelo_inurba_marseille","lat":43.271388,"lon":5.409269,"is_reserved":false,"is_disabled":false,"rental_uris":{"android":"levelo://app?vid=3ec17574-714c-4dd8-936f-b707a5b77655","ios":"levelo://app?vid=3ec17574-714c-4dd8-936f-b707a5b77655"},"vehicle_type_id":"4","last_reported":1702930050,"current_range_meters":23600,"station_id":"ce4bhl12rcd13ifvqgf0","pricing_plan_id":"free"},{"bike_id":"7f0a85fc-e9b1-422b-b922-07a060dc7b5a","system_id":"levelo_inurba_marseille","lat":43.271368,"lon":5.40928,"is_reserved":false,"is_disabled":false,"rental_uris":{"android":"levelo://app?vid=7f0a85fc-e9b1-422b-b922-07a060dc7b5a","ios":"levelo://app?vid=7f0a85fc-e9b1-422b-b922-07a060dc7b5a"},"vehicle_type_id":"4","last_reported":1702930050,"current_range_meters":31200,"station_id":"ce4bhl12rcd13ifvqgf0","pricing_plan_id":"free"},{"bike_id":"d8b3f44b-b64f-48c5-90fb-16521be69981","system_id":"levelo_inurba_marseille","lat":43.267959,"lon":5.402685,"is_reserved":false,"is_disabled":false,"rental_uris":{"android":"levelo://app?vid=d8b3f44b-b64f-48c5-90fb-16521be69981","ios":"levelo://app?vid=d8b3f44b-b64f-48c5-90fb-16521be69981"},"vehicle_type_id":"4","last_reported":1702930050,"current_range_meters":30000,"station_id":"ce501612rcd8frsf0b60","pricing_plan_id":"free"},{"bike_id":"9432fde5-b38d-4791-8aea-32f68aa873e9","system_id":"levelo_inurba_marseille","lat":43.267959,"lon":5.402687,"is_reserved":false,"is_disabled":false,"rental_uris":{"android":"levelo://app?vid=9432fde5-b38d-4791-8aea-32f68aa873e9","ios":"levelo://app?vid=9432fde5-b38d-4791-8aea-32f68aa873e9"},"vehicle_type_id":"4","last_reported":1702930050,"current_range_meters":29200,"station_id":"ce501612rcd8frsf0b60","pricing_plan_id":"free"},{"bike_id":"121b143a-c3d0-42e2-8acc-fe4f38cddd91","system_id":"levelo_inurba_marseille","lat":43.26496,"lon":5.39529,"is_reserved":false,"is_disabled":false,"rental_uris":{"android":"levelo://app?vid=121b143a-c3d0-42e2-8acc-fe4f38cddd91","ios":"levelo://app?vid=121b143a-c3d0-42e2-8acc-fe4f38cddd91"},"vehicle_type_id":"4","last_reported":1702930050,"current_range_meters":10000,"station_id":"","pricing_plan_id":"free"},{"bike_id":"e8a234b0-5e27-410f-b763-446173f4b18b","system_id":"levelo_inurba_marseille","lat":43.26491,"lon":5.39545,"is_reserved":false,"is_disabled":false,"rental_uris":{"android":"levelo://app?vid=e8a234b0-5e27-410f-b763-446173f4b18b","ios":"levelo://app?vid=e8a234b0-5e27-410f-b763-446173f4b18b"},"vehicle_type_id":"4","last_reported":1702930050,"current_range_meters":400,"station_id":"","pricing_plan_id":"free"},{"bike_id":"a4975794-e88f-4155-947c-264e12be34c5","system_id":"levelo_inurba_marseille","lat":43.29899,"lon":5.43662,"is_reserved":false,"is_disabled":false,"rental_uris":{"android":"levelo://app?vid=a4975794-e88f-4155-947c-264e12be34c5","ios":"levelo://app?vid=a4975794-e88f-4155-947c-264e12be34c5"},"vehicle_type_id":"4","last_reported":1702930050,"current_range_meters":26800,"station_id":"ce4bhpp2rcd13ifvqhfg","pricing_plan_id":"free"},{"bike_id":"e1dbd143-4512-4ef2-81f6-ec31d4c89c72","system_id":"levelo_inurba_marseille","lat":43.298768,"lon":5.43643,"is_reserved":false,"is_disabled":false,"rental_uris":{"android":"levelo://app?vid=e1dbd143-4512-4ef2-81f6-ec31d4c89c72","ios":"levelo://app?vid=e1dbd143-4512-4ef2-81f6-ec31d4c89c72"},"vehicle_type_id":"4","last_reported":1702930050,"current_range_meters":20800,"station_id":"ce4bhpp2rcd13ifvqhfg","pricing_plan_id":"free"},{"bike_id":"8b000818-ee66-4afa-956c-06d1feec8088","system_id":"levelo_inurba_marseille","lat":43.298768,"lon":5.43643,"is_reserved":false,"is_disabled":false,"rental_uris":{"android":"levelo://app?vid=8b000818-ee66-4afa-956c-06d1feec8088","ios":"levelo://app?vid=8b000818-ee66-4afa-956c-06d1feec8088"},"vehicle_type_id":"4","last_reported":1702930050,"current_range_meters":31600,"station_id":"ce4bhpp2rcd13ifvqhfg","pricing_plan_id":"free"},{"bike_id":"be3c7518-3a90-4ace-b263-cbe424279bc2","system_id":"levelo_inurba_marseille","lat":43.298768,"lon":5.43643,"is_reserved":false,"is_disabled":false,"rental_uris":{"android":"levelo://app?vid=be3c7518-3a90-4ace-b263-cbe424279bc2","ios":"levelo://app?vid=be3c7518-3a90-4ace-b263-cbe424279bc2"},"vehicle_type_id":"4","last_reported":1702930050,"current_range_meters":30400,"station_id":"ce4bhpp2rcd13ifvqhfg","pricing_plan_id":"free"},{"bike_id":"76346036-12b6-4dcc-86d0-232802e30c75","system_id":"levelo_inurba_marseille","lat":43.298768,"lon":5.43643,"is_reserved":false,"is_disabled":false,"rental_uris":{"android":"levelo://app?vid=76346036-12b6-4dcc-86d0-232802e30c75","ios":"levelo://app?vid=76346036-12b6-4dcc-86d0-232802e30c75"},"vehicle_type_id":"4","last_reported":1702930050,"current_range_meters":24000,"station_id":"ce4bhpp2rcd13ifvqhfg","pricing_plan_id":"free"},{"bike_id":"9e394c7b-ad8a-4178-91e9-ac10bd6076ef","system_id":"levelo_inurba_marseille","lat":43.275028,"lon":5.424534,"is_reserved":false,"is_disabled":false,"rental_uris":{"android":"levelo://app?vid=9e394c7b-ad8a-4178-91e9-ac10bd6076ef","ios":"levelo://app?vid=9e394c7b-ad8a-4178-91e9-ac10bd6076ef"},"vehicle_type_id":"4","last_reported":1702930050,"current_range_meters":24800,"station_id":"ce4bhn92rcd13ifvqgrg","pricing_plan_id":"free"},{"bike_id":"094d45f0-cea5-4dc3-98bc-e91c28e32823","system_id":"levelo_inurba_marseille","lat":43.25588,"lon":5.38235,"is_reserved":false,"is_disabled":false,"rental_uris":{"android":"levelo://app?vid=094d45f0-cea5-4dc3-98bc-e91c28e32823","ios":"levelo://app?vid=094d45f0-cea5-4dc3-98bc-e91c28e32823"},"vehicle_type_id":"4","last_reported":1702930050,"current_range_meters":18800,"station_id":"ce4bhih2rcd13ifvqfs0","pricing_plan_id":"free"},{"bike_id":"771c001f-b785-4927-ada6-91aa387b0245","system_id":"levelo_inurba_marseille","lat":43.255839,"lon":5.382309,"is_reserved":false,"is_disabled":false,"rental_uris":{"android":"levelo://app?vid=771c001f-b785-4927-ada6-91aa387b0245","ios":"levelo://app?vid=771c001f-b785-4927-ada6-91aa387b0245"},"vehicle_type_id":"4","last_reported":1702930050,"current_range_meters":4400,"station_id":"ce4bhih2rcd13ifvqfs0","pricing_plan_id":"free"},{"bike_id":"e52da41e-8a8a-4dd0-b85c-d05f08b46439","system_id":"levelo_inurba_marseille","lat":43.255814,"lon":5.382274,"is_reserved":false,"is_disabled":false,"rental_uris":{"android":"levelo://app?vid=e52da41e-8a8a-4dd0-b85c-d05f08b46439","ios":"levelo://app?vid=e52da41e-8a8a-4dd0-b85c-d05f08b46439"},"vehicle_type_id":"4","last_reported":1702930050,"current_range_meters":14800,"station_id":"ce4bhih2rcd13ifvqfs0","pricing_plan_id":"free"},{"bike_id":"20cb25ab-a5ed-44f2-a730-713583b7456a","system_id":"levelo_inurba_marseille","lat":43.258205,"lon":5.394369,"is_reserved":false,"is_disabled":false,"rental_uris":{"android":"levelo://app?vid=20cb25ab-a5ed-44f2-a730-713583b7456a","ios":"levelo://app?vid=20cb25ab-a5ed-44f2-a730-713583b7456a"},"vehicle_type_id":"4","last_reported":1702930050,"current_range_meters":23200,"station_id":"ce4bhip2rcd13ifvqft0","pricing_plan_id":"free"},{"bike_id":"f66b9691-79da-495b-b626-28549e04daba","system_id":"levelo_inurba_marseille","lat":43.255803,"lon":5.382397,"is_reserved":false,"is_disabled":false,"rental_uris":{"android":"levelo://app?vid=f66b9691-79da-495b-b626-28549e04daba","ios":"levelo://app?vid=f66b9691-79da-495b-b626-28549e04daba"},"vehicle_type_id":"4","last_reported":1702930050,"current_range_meters":0,"station_id":"ce4bhih2rcd13ifvqfs0","pricing_plan_id":"free"},{"bike_id":"c89dcb56-7515-448e-b5f6-fb6ed21417b0","system_id":"levelo_inurba_marseille","lat":43.25503,"lon":5.37651,"is_reserved":false,"is_disabled":false,"rental_uris":{"android":"levelo://app?vid=c89dcb56-7515-448e-b5f6-fb6ed21417b0","ios":"levelo://app?vid=c89dcb56-7515-448e-b5f6-fb6ed21417b0"},"vehicle_type_id":"4","last_reported":1702930050,"current_range_meters":27200,"station_id":"ce4bhh12rcd13ifvqff0","pricing_plan_id":"free"},{"bike_id":"5f10ab57-6efd-45f6-a231-f77b3637d3fb","system_id":"levelo_inurba_marseille","lat":43.25494,"lon":5.37645,"is_reserved":false,"is_disabled":false,"rental_uris":{"android":"levelo://app?vid=5f10ab57-6efd-45f6-a231-f77b3637d3fb","ios":"levelo://app?vid=5f10ab57-6efd-45f6-a231-f77b3637d3fb"},"vehicle_type_id":"4","last_reported":1702930050,"current_range_meters":7200,"station_id":"ce4bhh12rcd13ifvqff0","pricing_plan_id":"free"},{"bike_id":"88eed449-3d87-4183-9edc-9401796301b8","system_id":"levelo_inurba_marseille","lat":43.25493,"lon":5.37648,"is_reserved":false,"is_disabled":false,"rental_uris":{"android":"levelo://app?vid=88eed449-3d87-4183-9edc-9401796301b8","ios":"levelo://app?vid=88eed449-3d87-4183-9edc-9401796301b8"},"vehicle_type_id":"4","last_reported":1702930050,"current_range_meters":17600,"station_id":"ce4bhh12rcd13ifvqff0","pricing_plan_id":"free"},{"bike_id":"2e98747c-fab3-4f2c-bc9f-e197125731a5","system_id":"levelo_inurba_marseille","lat":43.25489,"lon":5.37649,"is_reserved":false,"is_disabled":false,"rental_uris":{"android":"levelo://app?vid=2e98747c-fab3-4f2c-bc9f-e197125731a5","ios":"levelo://app?vid=2e98747c-fab3-4f2c-bc9f-e197125731a5"},"vehicle_type_id":"4","last_reported":1702930050,"current_range_meters":18800,"station_id":"ce4bhh12rcd13ifvqff0","pricing_plan_id":"free"},{"bike_id":"2d2d6ed8-208b-43dd-9924-7afdeb09f536","system_id":"levelo_inurba_marseille","lat":43.27071,"lon":5.42282,"is_reserved":false,"is_disabled":false,"rental_uris":{"android":"levelo://app?vid=2d2d6ed8-208b-43dd-9924-7afdeb09f536","ios":"levelo://app?vid=2d2d6ed8-208b-43dd-9924-7afdeb09f536"},"vehicle_type_id":"4","last_reported":1702930050,"current_range_meters":22800,"station_id":"ce4bhk92rcd13ifvqgb0","pricing_plan_id":"free"},{"bike_id":"43d94734-3de6-4671-9bf4-01e0c9f66288","system_id":"levelo_inurba_marseille","lat":43.27065,"lon":5.42274,"is_reserved":false,"is_disabled":false,"rental_uris":{"android":"levelo://app?vid=43d94734-3de6-4671-9bf4-01e0c9f66288","ios":"levelo://app?vid=43d94734-3de6-4671-9bf4-01e0c9f66288"},"vehicle_type_id":"4","last_reported":1702930050,"current_range_meters":14800,"station_id":"ce4bhk92rcd13ifvqgb0","pricing_plan_id":"free"},{"bike_id":"088bc051-4b2e-4f3b-99d5-218250b2ef2e","system_id":"levelo_inurba_marseille","lat":43.25934,"lon":5.40902,"is_reserved":false,"is_disabled":false,"rental_uris":{"android":"levelo://app?vid=088bc051-4b2e-4f3b-99d5-218250b2ef2e","ios":"levelo://app?vid=088bc051-4b2e-4f3b-99d5-218250b2ef2e"},"vehicle_type_id":"4","last_reported":1702930050,"current_range_meters":26400,"station_id":"ce4bhm92rcd13ifvqglg","pricing_plan_id":"free"},{"bike_id":"57fd8e51-7531-43f5-be4e-4a7b433fe34e","system_id":"levelo_inurba_marseille","lat":43.259009,"lon":5.40929,"is_reserved":false,"is_disabled":false,"rental_uris":{"android":"levelo://app?vid=57fd8e51-7531-43f5-be4e-4a7b433fe34e","ios":"levelo://app?vid=57fd8e51-7531-43f5-be4e-4a7b433fe34e"},"vehicle_type_id":"4","last_reported":1702930050,"current_range_meters":10800,"station_id":"ce4bhm92rcd13ifvqglg","pricing_plan_id":"free"},{"bike_id":"86b0222e-9893-41e3-9aa5-31dd7bec5d9b","system_id":"levelo_inurba_marseille","lat":43.25717,"lon":5.41113,"is_reserved":false,"is_disabled":false,"rental_uris":{"android":"levelo://app?vid=86b0222e-9893-41e3-9aa5-31dd7bec5d9b","ios":"levelo://app?vid=86b0222e-9893-41e3-9aa5-31dd7bec5d9b"},"vehicle_type_id":"4","last_reported":1702930050,"current_range_meters":26000,"station_id":"ce4bhkp2rcd13ifvqgd0","pricing_plan_id":"free"},{"bike_id":"fba7f794-a546-4f15-b96b-697eae263c9d","system_id":"levelo_inurba_marseille","lat":43.250009,"lon":5.389195,"is_reserved":false,"is_disabled":false,"rental_uris":{"android":"levelo://app?vid=fba7f794-a546-4f15-b96b-697eae263c9d","ios":"levelo://app?vid=fba7f794-a546-4f15-b96b-697eae263c9d"},"vehicle_type_id":"4","last_reported":1702930050,"current_range_meters":14000,"station_id":"ce4bhgp2rcd13ifvqfd0","pricing_plan_id":"free"},{"bike_id":"1212fdcd-3184-465c-afc1-6a639fa88bce","system_id":"levelo_inurba_marseille","lat":43.250009,"lon":5.389195,"is_reserved":false,"is_disabled":false,"rental_uris":{"android":"levelo://app?vid=1212fdcd-3184-465c-afc1-6a639fa88bce","ios":"levelo://app?vid=1212fdcd-3184-465c-afc1-6a639fa88bce"},"vehicle_type_id":"4","last_reported":1702930050,"current_range_meters":19600,"station_id":"ce4bhgp2rcd13ifvqfd0","pricing_plan_id":"free"},{"bike_id":"ebbbe43b-9741-475b-ae3d-7d50d4c59a53","system_id":"levelo_inurba_marseille","lat":43.250009,"lon":5.389195,"is_reserved":false,"is_disabled":false,"rental_uris":{"android":"levelo://app?vid=ebbbe43b-9741-475b-ae3d-7d50d4c59a53","ios":"levelo://app?vid=ebbbe43b-9741-475b-ae3d-7d50d4c59a53"},"vehicle_type_id":"4","last_reported":1702930050,"current_range_meters":17600,"station_id":"ce4bhgp2rcd13ifvqfd0","pricing_plan_id":"free"},{"bike_id":"f01ebef3-6276-4dee-bd1f-4abbf85894e0","system_id":"levelo_inurba_marseille","lat":43.2481,"lon":5.37458,"is_reserved":false,"is_disabled":false,"rental_uris":{"android":"levelo://app?vid=f01ebef3-6276-4dee-bd1f-4abbf85894e0","ios":"levelo://app?vid=f01ebef3-6276-4dee-bd1f-4abbf85894e0"},"vehicle_type_id":"4","last_reported":1702930050,"current_range_meters":28400,"station_id":"","pricing_plan_id":"free"},{"bike_id":"86a75369-d1d1-49c4-af68-9b03170689c5","system_id":"levelo_inurba_marseille","lat":43.2479,"lon":5.374457,"is_reserved":false,"is_disabled":false,"rental_uris":{"android":"levelo://app?vid=86a75369-d1d1-49c4-af68-9b03170689c5","ios":"levelo://app?vid=86a75369-d1d1-49c4-af68-9b03170689c5"},"vehicle_type_id":"4","last_reported":1702930050,"current_range_meters":10000,"station_id":"ce4bhgh2rcd13ifvqfb0","pricing_plan_id":"free"},{"bike_id":"2f4ad77a-c515-4040-9f55-9cb3bbaa36e5","system_id":"levelo_inurba_marseille","lat":43.24693,"lon":5.382096,"is_reserved":false,"is_disabled":false,"rental_uris":{"android":"levelo://app?vid=2f4ad77a-c515-4040-9f55-9cb3bbaa36e5","ios":"levelo://app?vid=2f4ad77a-c515-4040-9f55-9cb3bbaa36e5"},"vehicle_type_id":"4","last_reported":1702930050,"current_range_meters":3200,"station_id":"ce4bhih2rcd13ifvqfr0","pricing_plan_id":"free"},{"bike_id":"03ce9493-b5e7-470b-8413-da8bfe5a0daa","system_id":"levelo_inurba_marseille","lat":43.25102,"lon":5.403214,"is_reserved":false,"is_disabled":false,"rental_uris":{"android":"levelo://app?vid=03ce9493-b5e7-470b-8413-da8bfe5a0daa","ios":"levelo://app?vid=03ce9493-b5e7-470b-8413-da8bfe5a0daa"},"vehicle_type_id":"4","last_reported":1702930050,"current_range_meters":0,"station_id":"ce4bhlh2rcd13ifvqgig","pricing_plan_id":"free"},{"bike_id":"db391e1d-b3dc-4008-ba0f-bd3b29b856dd","system_id":"levelo_inurba_marseille","lat":43.25102,"lon":5.403214,"is_reserved":false,"is_disabled":false,"rental_uris":{"android":"levelo://app?vid=db391e1d-b3dc-4008-ba0f-bd3b29b856dd","ios":"levelo://app?vid=db391e1d-b3dc-4008-ba0f-bd3b29b856dd"},"vehicle_type_id":"4","last_reported":1702930050,"current_range_meters":1200,"station_id":"ce4bhlh2rcd13ifvqgig","pricing_plan_id":"free"},{"bike_id":"0b5b9e33-e4a9-477d-86ae-5f3dd1661964","system_id":"levelo_inurba_marseille","lat":43.24393,"lon":5.37057,"is_reserved":false,"is_disabled":false,"rental_uris":{"android":"levelo://app?vid=0b5b9e33-e4a9-477d-86ae-5f3dd1661964","ios":"levelo://app?vid=0b5b9e33-e4a9-477d-86ae-5f3dd1661964"},"vehicle_type_id":"4","last_reported":1702930050,"current_range_meters":29200,"station_id":"ce4bhhh2rcd13ifvqfk0","pricing_plan_id":"free"},{"bike_id":"38b8adbe-18bf-4e0e-915b-4991fbc79633","system_id":"levelo_inurba_marseille","lat":43.2439,"lon":5.37057,"is_reserved":false,"is_disabled":false,"rental_uris":{"android":"levelo://app?vid=38b8adbe-18bf-4e0e-915b-4991fbc79633","ios":"levelo://app?vid=38b8adbe-18bf-4e0e-915b-4991fbc79633"},"vehicle_type_id":"4","last_reported":1702930050,"current_range_meters":10800,"station_id":"ce4bhhh2rcd13ifvqfk0","pricing_plan_id":"free"},{"bike_id":"87aaaa58-30e8-47d9-b1bc-b2da80adccfd","system_id":"levelo_inurba_marseille","lat":43.243885,"lon":5.370662,"is_reserved":false,"is_disabled":false,"rental_uris":{"android":"levelo://app?vid=87aaaa58-30e8-47d9-b1bc-b2da80adccfd","ios":"levelo://app?vid=87aaaa58-30e8-47d9-b1bc-b2da80adccfd"},"vehicle_type_id":"4","last_reported":1702930050,"current_range_meters":22400,"station_id":"ce4bhhh2rcd13ifvqfk0","pricing_plan_id":"free"},{"bike_id":"85526b85-fd42-4866-8652-9009514175af","system_id":"levelo_inurba_marseille","lat":43.24388,"lon":5.37068,"is_reserved":false,"is_disabled":false,"rental_uris":{"android":"levelo://app?vid=85526b85-fd42-4866-8652-9009514175af","ios":"levelo://app?vid=85526b85-fd42-4866-8652-9009514175af"},"vehicle_type_id":"4","last_reported":1702930050,"current_range_meters":4000,"station_id":"ce4bhhh2rcd13ifvqfk0","pricing_plan_id":"free"},{"bike_id":"a748d886-d9d7-457d-9e09-25056277fafd","system_id":"levelo_inurba_marseille","lat":43.24387,"lon":5.37063,"is_reserved":false,"is_disabled":false,"rental_uris":{"android":"levelo://app?vid=a748d886-d9d7-457d-9e09-25056277fafd","ios":"levelo://app?vid=a748d886-d9d7-457d-9e09-25056277fafd"},"vehicle_type_id":"4","last_reported":1702930050,"current_range_meters":7200,"station_id":"ce4bhhh2rcd13ifvqfk0","pricing_plan_id":"free"},