{"last_updated":1719173300,"ttl":30,"version":"2.2","data":{"bikes":[{"bike_id":"e475c574-0a77-403c-8451-5ff9028868a0","system_id":"levelo_inurba_marseille","lat":43.31341,"lon":5.367098,"is_reserved":false,"is_disabled":false,"rental_uris":{"android":"levelo://app?vid=e475c574-0a77-403c-8451-5ff9028868a0","ios":"levelo://app?vid=e475c574-0a77-403c-8451-5ff9028868a0"},"vehicle_type_id":"4","last_reported":1719173300,"current_range_meters":28400,"station_id":"ce4bgr92rcd13ifvqc6g","pricing_plan_id":"cebpf4jnsgd1na2vs0mg"},{"bike_id":"d252e020-3c37-44ce-9dbc-ae8d114813e8","system_id":"levelo_inurba_marseille","lat":43.312239,"lon":5.368562,"is_reserved":false,"is_disabled":false,"rental_uris":{"android":"levelo://app?vid=d252e020-3c37-44ce-9dbc-ae8d114813e8","ios":"levelo://app?vid=d252e020-3c37-44ce-9dbc-ae8d114813e8"},"vehicle_type_id":"4","last_reported":1719173300,"current_range_meters":5200,"station_id":"ce4bgl92rcd13ifvqbq0","pricing_plan_id":"cebpf4jnsgd1na2vs0mg"},{"bike_id":"025322ba-194b-4336-99fc-e447545f7e49","system_id":"levelo_inurba_marseille","lat":43.309076,"lon":5.368465,"is_reserved":false,"is_disabled":false,"rental_uris":{"android":"levelo://app?vid=025322ba-194b-4336-99fc-e447545f7e49","ios":"levelo://app?vid=025322ba-194b-4336-99fc-e447545f7e49"},"vehicle_type_id":"4","last_reported":1719173300,"current_range_meters":25200,"station_id":"ce4bgn92rcd13ifvqbvg","pricing_plan_id":"cebpf4jnsgd1na2vs0mg"},{"bike_id":"4df3cbaf-423a-4baf-acc5-873e49b96d68","system_id":"levelo_inurba_marseille","lat":43.30911,"lon":5.368445,"is_reserved":false,"is_disabled":false,"rental_uris":{"android":"levelo://app?vid=4df3cbaf-423a-4baf-acc5-873e49b96d68","ios":"levelo://app?vid=4df3cbaf-423a-4baf-acc5-873e49b96d68"},"vehicle_type_id":"4","last_reported":1719173300,"current_range_meters":4400,"station_id":"ce4bgn92rcd13ifvqbvg","pricing_plan_id":"cebpf4jnsgd1na2vs0mg"},{"bike_id":"20f31c62-307b-4c16-93b6-6fcc5accd677","system_id":"levelo_inurba_marseille","lat":43.31458,"lon":5.373641,"is_reserved":false,"is_disabled":false,"rental_uris":{"android":"levelo://app?vid=20f31c62-307b-4c16-93b6-6fcc5accd677","ios":"levelo://app?vid=20f31c62-307b-4c16-93b6-6fcc5accd677"},"vehicle_type_id":"4","last_reported":1719173300,"current_range_meters":11200,"station_id":"","pricing_plan_id":"cebpf4jnsgd1na2vs0mg"},{"bike_id":"24d509b5-ef37-465b-b8cc-6a71986a5c4f","system_id":"levelo_inurba_marseille","lat":43.314481,"lon":5.3737,"is_reserved":false,"is_disabled":false,"rental_uris":{"android":"levelo://app?vid=24d509b5-ef37-465b-b8cc-6a71986a5c4f","ios":"levelo://app?vid=24d509b5-ef37-465b-b8cc-6a71986a5c4f"},"vehicle_type_id":"4","last_reported":1719173300,"current_range_meters":21600,"station_id":"","pricing_plan_id":"cebpf4jnsgd1na2vs0mg"},{"bike_id":"77460ccb-960a-4153-8783-e0a172f31a95","system_id":"levelo_inurba_marseille","lat":43.314498,"lon":5.37372,"is_reserved":false,"is_disabled":false,"rental_uris":{"android":"levelo://app?vid=77460ccb-960a-4153-8783-e0a172f31a95","ios":"levelo://app?vid=77460ccb-960a-4153-8783-e0a172f31a95"},"vehicle_type_id":"4","last_reported":1719173300,"current_range_meters":4400,"station_id":"ce4bgt12rcd13ifvqcd0","pricing_plan_id":"cebpf4jnsgd1na2vs0mg"},{"bike_id":"3e6229a9-daa1-4e8e-b7ec-60b28f97252f","system_id":"levelo_inurba_marseille","lat":43.314513,"lon":5.373729,"is_reserved":false,"is_disabled":false,"rental_uris":{"android":"levelo://app?vid=3e6229a9-daa1-4e8e-b7ec-60b28f97252f","ios":"levelo://app?vid=3e6229a9-daa1-4e8e-b7ec-60b28f97252f"},"vehicle_type_id":"4","last_reported":1719173300,"current_range_meters":0,"station_id":"","pricing_plan_id":"cebpf4jnsgd1na2vs0mg"},{"bike_id":"d7c21ce2-a776-470c-b443-51e8cb8311e6","system_id":"levelo_inurba_marseille","lat":43.31459,"lon":5.37373,"is_reserved":false,"is_disabled":false,"rental_uris":{"android":"levelo://app?vid=d7c21ce2-a776-470c-b443-51e8cb8311e6","ios":"levelo://app?vid=d7c21ce2-a776-470c-b443-51e8cb8311e6"},"vehicle_type_id":"4","last_reported":1719173300,"current_range_meters":8800,"station_id":"","pricing_plan_id":"cebpf4jnsgd1na2vs0mg"},{"bike_id":"6e5d4d6e-d912-471c-ba56-198dee06eeed","system_id":"levelo_inurba_marseille","lat":43.309039,"lon":5.371797,"is_reserved":false,"is_disabled":false,"rental_uris":{"android":"levelo://app?vid=6e5d4d6e-d912-471c-ba56-198dee06eeed","ios":"levelo://app?vid=6e5d4d6e-d912-471c-ba56-198dee06eeed"},"vehicle_type_id":"4","last_reported":1719173300,"current_range_meters":28000,"station_id":"ce4bguh2rcd13ifvqckg","pricing_plan_id":"cebpf4jnsgd1na2vs0mg"},{"bike_id":"84c20ea0-8eca-472f-815a-fc3c9508882b","system_id":"levelo_inurba_marseille","lat":43.30618,"lon":5.36899,"is_reserved":false,"is_disabled":false,"rental_uris":{"android":"levelo://app?vid=84c20ea0-8eca-472f-815a-fc3c9508882b","ios":"levelo://app?vid=84c20ea0-8eca-472f-815a-fc3c9508882b"},"vehicle_type_id":"4","last_reported":1719173300,"current_range_meters":0,"station_id":"","pricing_plan_id":"cebpf4jnsgd1na2vs0mg"},{"bike_id":"96c0f75a-9ed0-45ab-bcd3-2744cdb2064e","system_id":"levelo_inurba_marseille","lat":43.30537,"lon":5.367345,"is_reserved":false,"is_disabled":false,"rental_uris":{"android":"levelo://app?vid=96c0f75a-9ed0-45ab-bcd3-2744cdb2064e","ios":"levelo://app?vid=96c0f75a-9ed0-45ab-bcd3-2744cdb2064e"},"vehicle_type_id":"4","last_reported":1719173300,"current_range_meters":30800,"station_id":"ce4bgrp2rcd13ifvqc9g","pricing_plan_id":"cebpf4jnsgd1na2vs0mg"},{"bike_id":"24834dca-0535-45bf-b9e0-f7d8dc943aa5","system_id":"levelo_inurba_marseille","lat":43.305712,"lon":5.365641,"is_reserved":false,"is_disabled":false,"rental_uris":{"android":"levelo://app?vid=24834dca-0535-45bf-b9e0-f7d8dc943aa5","ios":"levelo://app?vid=24834dca-0535-45bf-b9e0-f7d8dc943aa5"},"vehicle_type_id":"4","last_reported":1719173300,"current_range_meters":20400,"station_id":"ce4bgs12rcd13ifvqcag","pricing_plan_id":"cebpf4jnsgd1na2vs0mg"},{"bike_id":"d09c6767-4751-4814-8b83-0cdf48bac056","system_id":"levelo_inurba_marseille","lat":43.305712,"lon":5.365641,"is_reserved":false,"is_disabled":false,"rental_uris":{"android":"levelo://app?vid=d09c6767-4751-4814-8b83-0cdf48bac056","ios":"levelo://app?vid=d09c6767-4751-4814-8b83-0cdf48bac056"},"vehicle_type_id":"4","last_reported":1719173300,"current_range_meters":6400,"station_id":"ce4bgs12rcd13ifvqcag","pricing_plan_id":"cebpf4jnsgd1na2vs0mg"},{"bike_id":"bbe9b954-a60b-4b32-b00a-7696324f5f52","system_id":"levelo_inurba_marseille","lat":43.305368,"lon":5.367343,"is_reserved":false,"is_disabled":false,"rental_uris":{"android":"levelo://app?vid=bbe9b954-a60b-4b32-b00a-7696324f5f52","ios":"levelo://app?vid=bbe9b954-a60b-4b32-b00a-7696324f5f52"},"vehicle_type_id":"4","last_reported":1719173300,"current_range_meters":8000,"station_id":"ce4bgrp2rcd13ifvqc9g","pricing_plan_id":"cebpf4jnsgd1na2vs0mg"},{"bike_id":"a43e7e1e-e283-47ba-bb74-77104a25b45c","system_id":"levelo_inurba_marseille","lat":43.30532,"lon":5.36661,"is_reserved":false,"is_disabled":false,"rental_uris":{"android":"levelo://app?vid=a43e7e1e-e283-47ba-bb74-77104a25b45c","ios":"levelo://app?vid=a43e7e1e-e283-47ba-bb74-77104a25b45c"},"vehicle_type_id":"4","last_reported":1719173300,"current_range_meters":17200,"station_id":"","pricing_plan_id":"cebpf4jnsgd1na2vs0mg"},{"bike_id":"f70a3659-0a8a-4200-84d1-2adb2e20dfe6","system_id":"levelo_inurba_marseille","lat":43.305368,"lon":5.367343,"is_reserved":false,"is_disabled":false,"rental_uris":{"android":"levelo://app?vid=f70a3659-0a8a-4200-84d1-2adb2e20dfe6","ios":"levelo://app?vid=f70a3659-0a8a-4200-84d1-2adb2e20dfe6"},"vehicle_type_id":"4","last_reported":1719173300,"current_range_meters":22000,"station_id":"ce4bgrp2rcd13ifvqc9g","pricing_plan_id":"cebpf4jnsgd1na2vs0mg"},{"bike_id":"d581a36d-d565-4f7e-bb6a-14f649d4bc96","system_id":"levelo_inurba_marseille","lat":43.31132,"lon":5.37745,"is_reserved":false,"is_disabled":false,"rental_uris":{"android":"levelo://app?vid=d581a36d-d565-4f7e-bb6a-14f649d4bc96","ios":"levelo://app?vid=d581a36d-d565-4f7e-bb6a-14f649d4bc96"},"vehicle_type_id":"4","last_reported":1719173300,"current_range_meters":2000,"station_id":"ce4bgt92rcd13ifvqcg0","pricing_plan_id":"cebpf4jnsgd1na2vs0mg"},{"bike_id":"75de3094-f82f-40c0-b329-ce1e8e6edb51","system_id":"levelo_inurba_marseille","lat":43.311125,"lon":5.377624,"is_reserved":false,"is_disabled":false,"rental_uris":{"android":"levelo://app?vid=75de3094-f82f-40c0-b329-ce1e8e6edb51","ios":"levelo://app?vid=75de3094-f82f-40c0-b329-ce1e8e6edb51"},"vehicle_type_id":"4","last_reported":1719173300,"current_range_meters":4400,"station_id":"ce4bgt92rcd13ifvqcg0","pricing_plan_id":"cebpf4jnsgd1na2vs0mg"},{"bike_id":"ec91017a-5a78-4bd9-b4c6-ff580bafa543","system_id":"levelo_inurba_marseille","lat":43.31119,"lon":5.37771,"is_reserved":false,"is_disabled":false,"rental_uris":{"android":"levelo://app?vid=ec91017a-5a78-4bd9-b4c6-ff580bafa543","ios":"levelo://app?vid=ec91017a-5a78-4bd9-b4c6-ff580bafa543"},"vehicle_type_id":"4","last_reported":1719173300,"current_range_meters":0,"station_id":"ce4bgt92rcd13ifvqcg0","pricing_plan_id":"cebpf4jnsgd1na2vs0mg"},{"bike_id":"de8c416a-cdf5-46c9-9b40-4239d87a94f1","system_id":"levelo_inurba_marseille","lat":43.317075,"lon":5.377367,"is_reserved":false,"is_disabled":false,"rental_uris":{"android":"levelo://app?vid=de8c416a-cdf5-46c9-9b40-4239d87a94f1","ios":"levelo://app?vid=de8c416a-cdf5-46c9-9b40-4239d87a94f1"},"vehicle_type_id":"4","last_reported":1719173300,"current_range_meters":30800,"station_id":"ce4bgth2rcd13ifvqch0","pricing_plan_id":"cebpf4jnsgd1na2vs0mg"},{"bike_id":"234c5cb9-d321-4ee3-ae31-61ab59cbb96c","system_id":"levelo_inurba_marseille","lat":43.317075,"lon":5.377367,"is_reserved":false,"is_disabled":false,"rental_uris":{"android":"levelo://app?vid=234c5cb9-d321-4ee3-ae31-61ab59cbb96c","ios":"levelo://app?vid=234c5cb9-d321-4ee3-ae31-61ab59cbb96c"},"vehicle_type_id":"4","last_reported":1719173300,"current_range_meters":5200,"station_id":"ce4bgth2rcd13ifvqch0","pricing_plan_id":"cebpf4jnsgd1na2vs0mg"},{"bike_id":"014916d5-846e-44ef-8af0-fdb844c7b2db","system_id":"levelo_inurba_marseille","lat":43.303046,"lon":5.368981,"is_reserved":false,"is_disabled":false,"rental_uris":{"android":"levelo://app?vid=014916d5-846e-44ef-8af0-fdb844c7b2db","ios":"levelo://app?vid=014916d5-846e-44ef-8af0-fdb844c7b2db"},"vehicle_type_id":"4","last_reported":1719173300,"current_range_meters":0,"station_id":"ce4bgqh2rcd13ifvqc5g","pricing_plan_id":"cebpf4jnsgd1na2vs0mg"},{"bike_id":"23925204-7918-4c5e-97eb-dfd6854003e4","system_id":"levelo_inurba_marseille","lat":43.30304,"lon":5.368987,"is_reserved":false,"is_disabled":false,"rental_uris":{"android":"levelo://app?vid=23925204-7918-4c5e-97eb-dfd6854003e4","ios":"levelo://app?vid=23925204-7918-4c5e-97eb-dfd6854003e4"},"vehicle_type_id":"4","last_reported":1719173300,"current_range_meters":3200,"station_id":"ce4bgqh2rcd13ifvqc5g","pricing_plan_id":"cebpf4jnsgd1na2vs0mg"},{"bike_id":"9a8c11f5-4a16-4822-8b1a-ea2db891bbf2","system_id":"levelo_inurba_marseille","lat":43.31535,"lon":5.38014,"is_reserved":false,"is_disabled":false,"rental_uris":{"android":"levelo://app?vid=9a8c11f5-4a16-4822-8b1a-ea2db891bbf2","ios":"levelo://app?vid=9a8c11f5-4a16-4822-8b1a-ea2db891bbf2"},"vehicle_type_id":"4","last_reported":1719173300,"current_range_meters":5600,"station_id":"ce4bhsp2rcd13ifvqi50","pricing_plan_id":"cebpf4jnsgd1na2vs0mg"},{"bike_id":"5e995718-26d3-4b84-bfb7-c76c11b45153","system_id":"levelo_inurba_marseille","lat":43.315289,"lon":5.380349,"is_reserved":false,"is_disabled":false,"rental_uris":{"android":"levelo://app?vid=5e995718-26d3-4b84-bfb7-c76c11b45153","ios":"levelo://app?vid=5e995718-26d3-4b84-bfb7-c76c11b45153"},"vehicle_type_id":"4","last_reported":1719173300,"current_range_meters":12800,"station_id":"ce4bhsp2rcd13ifvqi50","pricing_plan_id":"cebpf4jnsgd1na2vs0mg"},{"bike_id":"a0def87f-de94-421b-bf88-9105838298ce","system_id":"levelo_inurba_marseille","lat":43.315289,"lon":5.380349,"is_reserved":false,"is_disabled":false,"rental_uris":{"android":"levelo://app?vid=a0def87f-de94-421b-bf88-9105838298ce","ios":"levelo://app?vid=a0def87f-de94-421b-bf88-9105838298ce"},"vehicle_type_id":"4","last_reported":1719173300,"current_range_meters":5200,"station_id":"ce4bhsp2rcd13ifvqi50","pricing_plan_id":"cebpf4jnsgd1na2vs0mg"},{"bike_id":"0131b14e-f4f3-4cf6-afd8-39bd955d48f7","system_id":"levelo_inurba_marseille","lat":43.315289,"lon":5.380349,"is_reserved":false,"is_disabled":false,"rental_uris":{"android":"levelo://app?vid=0131b14e-f4f3-4cf6-afd8-39bd955d48f7","ios":"levelo://app?vid=0131b14e-f4f3-4cf6-afd8-39bd955d48f7"},"vehicle_type_id":"4","last_reported":1719173300,"current_range_meters":17200,"station_id":"ce4bhsp2rcd13ifvqi50","pricing_plan_id":"cebpf4jnsgd1na2vs0mg"},{"bike_id":"cb0d51e5-d665-455b-b0e6-fbb2cbda4230","system_id":"levelo_inurba_marseille","lat":43.31543,"lon":5.3802,"is_reserved":false,"is_disabled":false,"rental_uris":{"android":"levelo://app?vid=cb0d51e5-d665-455b-b0e6-fbb2cbda4230","ios":"levelo://app?vid=cb0d51e5-d665-455b-b0e6-fbb2cbda4230"},"vehicle_type_id":"4","last_reported":1719173300,"current_range_meters":0,"station_id":"ce4bhsp2rcd13ifvqi50","pricing_plan_id":"cebpf4jnsgd1na2vs0mg"},{"bike_id":"bb7b4d48-ff2b-4f13-9411-e3d00e2b7beb","system_id":"levelo_inurba_marseille","lat":43.315289,"lon":5.380349,"is_reserved":false,"is_disabled":false,"rental_uris":{"android":"levelo://app?vid=bb7b4d48-ff2b-4f13-9411-e3d00e2b7beb","ios":"levelo://app?vid=bb7b4d48-ff2b-4f13-9411-e3d00e2b7beb"},"vehicle_type_id":"4","last_reported":1719173300,"current_range_meters":2000,"station_id":"ce4bhsp2rcd13ifvqi50","pricing_plan_id":"cebpf4jnsgd1na2vs0mg"},{"bike_id":"1bc920c8-8b89-437c-9cde-5783116c5366","system_id":"levelo_inurba_marseille","lat":43.315293,"lon":5.380349,"is_reserved":false,"is_disabled":false,"rental_uris":{"android":"levelo://app?vid=1bc920c8-8b89-437c-9cde-5783116c5366","ios":"levelo://app?vid=1bc920c8-8b89-437c-9cde-5783116c5366"},"vehicle_type_id":"4","last_reported":1719173300,"current_range_meters":1200,"station_id":"ce4bhsp2rcd13ifvqi50","pricing_plan_id":"cebpf4jnsgd1na2vs0mg"},{"bike_id":"1440f452-7d3c-4c70-b64e-1cdd0fad876b","system_id":"levelo_inurba_marseille","lat":43.301939,"lon":5.366286,"is_reserved":false,"is_disabled":false,"rental_uris":{"android":"levelo://app?vid=1440f452-7d3c-4c70-b64e-1cdd0fad876b","ios":"levelo://app?vid=1440f452-7d3c-4c70-b64e-1cdd0fad876b"},"vehicle_type_id":"4","last_reported":1719173300,"current_range_meters":24800,"station_id":"ce4bgrh2rcd13ifvqc8g","pricing_plan_id":"cebpf4jnsgd1na2vs0mg"},{"bike_id":"482b22a0-4565-4ea4-9cc4-79179c541354","system_id":"levelo_inurba_marseille","lat":43.301939,"lon":5.366286,"is_reserved":false,"is_disabled":false,"rental_uris":{"android":"levelo://app?vid=482b22a0-4565-4ea4-9cc4-79179c541354","ios":"levelo://app?vid=482b22a0-4565-4ea4-9cc4-79179c541354"},"vehicle_type_id":"4","last_reported":1719173300,"current_range_meters":31200,"station_id":"ce4bgrh2rcd13ifvqc8g","pricing_plan_id":"cebpf4jnsgd1na2vs0mg"},{"bike_id":"42651d17-7994-4eba-854e-a9dc677fc80a","system_id":"levelo_inurba_marseille","lat":43.301939,"lon":5.366286,"is_reserved":false,"is_disabled":false,"rental_uris":{"android":"levelo://app?vid=42651d17-7994-4eba-854e-a9dc677fc80a","ios":"levelo://app?vid=42651d17-7994-4eba-854e-a9dc677fc80a"},"vehicle_type_id":"4","last_reported":1719173300,"current_range_meters":9200,"station_id":"ce4bgrh2rcd13ifvqc8g","pricing_plan_id":"cebpf4jnsgd1na2vs0mg"},{"bike_id":"c8d74784-cfa3-4dc0-a55e-c53d6b6b7590","system_id":"levelo_inurba_marseille","lat":43.31322,"lon":5.38197,"is_reserved":false,"is_disabled":false,"rental_uris":{"android":"levelo://app?vid=c8d74784-cfa3-4dc0-a55e-c53d6b6b7590","ios":"levelo://app?vid=c8d74784-cfa3-4dc0-a55e-c53d6b6b7590"},"vehicle_type_id":"4","last_reported":1719173300,"current_range_meters":18000,"station_id":"","pricing_plan_id":"cebpf4jnsgd1na2vs0mg"},{"bike_id":"e9112a34-cd5c-4fdf-bb30-b10feb629964","system_id":"levelo_inurba_marseille","lat":43.301939,"lon":5.366286,"is_reserved":false,"is_disabled":false,"rental_uris":{"android":"levelo://app?vid=e9112a34-cd5c-4fdf-bb30-b10feb629964","ios":"levelo://app?vid=e9112a34-cd5c-4fdf-bb30-b10feb629964"},"vehicle_type_id":"4","last_reported":1719173300,"current_range_meters":31200,"station_id":"ce4bgrh2rcd13ifvqc8g","pricing_plan_id":"cebpf4jnsgd1na2vs0mg"},{"bike_id":"e19606bd-3447-4135-97e3-edb168a3daef","system_id":"levelo_inurba_marseille","lat":43.313571,"lon":5.384829,"is_reserved":false,"is_disabled":false,"rental_uris":{"android":"levelo://app?vid=e19606bd-3447-4135-97e3-edb168a3daef","ios":"levelo://app?vid=e19606bd-3447-4135-97e3-edb168a3daef"},"vehicle_type_id":"4","last_reported":1719173300,"current_range_meters":12400,"station_id":"ce4bgt92rcd13ifvqcf0","pricing_plan_id":"cebpf4jnsgd1na2vs0mg"},{"bike_id":"dd5f3d4d-6f36-4926-8417-bae2a3da8315","system_id":"levelo_inurba_marseille","lat":43.311748,"lon":5.382475,"is_reserved":false,"is_disabled":false,"rental_uris":{"android":"levelo://app?vid=dd5f3d4d-6f36-4926-8417-bae2a3da8315","ios":"levelo://app?vid=dd5f3d4d-6f36-4926-8417-bae2a3da8315"},"vehicle_type_id":"4","last_reported":1719173300,"current_range_meters":0,"station_id":"","pricing_plan_id":"cebpf4jnsgd1na2vs0mg"},{"bike_id":"edd49e25-c845-40e7-836a-807c36d8149a","system_id":"levelo_inurba_marseille","lat":43.308012,"lon":5.381511,"is_reserved":false,"is_disabled":false,"rental_uris":{"android":"levelo://app?vid=edd49e25-c845-40e7-836a-807c36d8149a","ios":"levelo://app?vid=edd49e25-c845-40e7-836a-807c36d8149a"},"vehicle_type_id":"4","last_reported":1719173300,"current_range_meters":19200,"station_id":"ce4bgt12rcd13ifvqce0","pricing_plan_id":"cebpf4jnsgd1na2vs0mg"},{"bike_id":"ef1e5261-f333-48b2-8947-2c202b3b5ee8","system_id":"levelo_inurba_marseille","lat":43.324771,"lon":5.36557,"is_reserved":false,"is_disabled":false,"rental_uris":{"android":"levelo://app?vid=ef1e5261-f333-48b2-8947-2c202b3b5ee8","ios":"levelo://app?vid=ef1e5261-f333-48b2-8947-2c202b3b5ee8"},"vehicle_type_id":"4","last_reported":1719173300,"current_range_meters":19600,"station_id":"ce4bhs12rcd13ifvqhvg","pricing_plan_id":"cebpf4jnsgd1na2vs0mg"},{"bike_id":"81ad1d62-a571-4b47-a6fb-55c61d57099e","system_id":"levelo_inurba_marseille","lat":43.324771,"lon":5.36557,"is_reserved":false,"is_disabled":false,"rental_uris":{"android":"levelo://app?vid=81ad1d62-a571-4b47-a6fb-55c61d57099e","ios":"levelo://app?vid=81ad1d62-a571-4b47-a6fb-55c61d57099e"},"vehicle_type_id":"4","last_reported":1719173300,"current_range_meters":13600,"station_id":"ce4bhs12rcd13ifvqhvg","pricing_plan_id":"cebpf4jnsgd1na2vs0mg"},{"bike_id":"17f35877-0e3d-4fcb-b17e-8eb1fb688c76","system_id":"levelo_inurba_marseille","lat":43.310804,"lon":5.38359,"is_reserved":false,"is_disabled":false,"rental_uris":{"android":"levelo://app?vid=17f35877-0e3d-4fcb-b17e-8eb1fb688c76","ios":"levelo://app?vid=17f35877-0e3d-4fcb-b17e-8eb1fb688c76"},"vehicle_type_id":"4","last_reported":1719173300,"current_range_meters":0,"station_id":"ce4bgv92rcd13ifvqcr0","pricing_plan_id":"cebpf4jnsgd1na2vs0mg"},{"bike_id":"c8f7bc0e-dd19-4614-bdce-d6f4b2d33f73","system_id":"levelo_inurba_marseille","lat":43.301429,"lon":5.37413,"is_reserved":false,"is_disabled":false,"rental_uris":{"android":"levelo://app?vid=c8f7bc0e-dd19-4614-bdce-d6f4b2d33f73","ios":"levelo://app?vid=c8f7bc0e-dd19-4614-bdce-d6f4b2d33f73"},"vehicle_type_id":"4","last_reported":1719173300,"current_range_meters":28400,"station_id":"ce4bgs92rcd13ifvqcc0","pricing_plan_id":"cebpf4jnsgd1na2vs0mg"},{"bike_id":"3fc224fb-0f71-4f36-a24b-dc0357d998db","system_id":"levelo_inurba_marseille","lat":43.301429,"lon":5.37413,"is_reserved":false,"is_disabled":false,"rental_uris":{"android":"levelo://app?vid=3fc224fb-0f71-4f36-a24b-dc0357d998db","ios":"levelo://app?vid=3fc224fb-0f71-4f36-a24b-dc0357d998db"},"vehicle_type_id":"4","last_reported":1719173300,"current_range_meters":13600,"station_id":"ce4bgs92rcd13ifvqcc0","pricing_plan_id":"cebpf4jnsgd1na2vs0mg"},{"bike_id":"5117386e-8954-49fc-927a-93838b14aaf3","system_id":"levelo_inurba_marseille","lat":43.319935,"lon":5.381699,"is_reserved":false,"is_disabled":false,"rental_uris":{"android":"levelo://app?vid=5117386e-8954-49fc-927a-93838b14aaf3","ios":"levelo://app?vid=5117386e-8954-49fc-927a-93838b14aaf3"},"vehicle_type_id":"4","last_reported":1719173300,"current_range_meters":0,"station_id":"ce4bhr12rcd13ifvqhpg","pricing_plan_id":"cebpf4jnsgd1na2vs0mg"},{"bike_id":"47fa1655-e355-4295-b06f-d039465429d9","system_id":"levelo_inurba_marseille","lat":43.319935,"lon":5.381699,"is_reserved":false,"is_disabled":false,"rental_uris":{"android":"levelo://app?vid=47fa1655-e355-4295-b06f-d039465429d9","ios":"levelo://app?vid=47fa1655-e355-4295-b06f-d039465429d9"},"vehicle_type_id":"4","last_reported":1719173300,"current_range_meters":6800,"station_id":"ce4bhr12rcd13ifvqhpg","pricing_plan_id":"cebpf4jnsgd1na2vs0mg"},{"bike_id":"d7842609-2960-484f-9949-fe24e6495613","system_id":"levelo_inurba_marseille","lat":43.313571,"lon":5.384829,"is_reserved":false,"is_disabled":false,"rental_uris":{"android":"levelo://app?vid=d7842609-2960-484f-9949-fe24e6495613","ios":"levelo://app?vid=d7842609-2960-484f-9949-fe24e6495613"},"vehicle_type_id":"4","last_reported":1719173300,"current_range_meters":30000,"station_id":"ce4bgt92rcd13ifvqcf0","pricing_plan_id":"cebpf4jnsgd1na2vs0mg"},{"bike_id":"ba1ed4b5-f406-4788-833b-83cfd9561d40","system_id":"levelo_inurba_marseille","lat":43.299222,"lon":5.365554,"is_reserved":false,"is_disabled":false,"rental_uris":{"android":"levelo://app?vid=ba1ed4b5-f406-4788-833b-83cfd9561d40","ios":"levelo://app?vid=ba1ed4b5-f406-4788-833b-83cfd9561d40"},"vehicle_type_id":"4","last_reported":1719173300,"current_range_meters":18800,"station_id":"ce4bgm92rcd13ifvqbr0","pricing_plan_id":"cebpf4jnsgd1na2vs0mg"},{"bike_id":"e588f9db-f945-4ea3-a8dd-6c10ab8577ff","system_id":"levelo_inurba_marseille","lat":43.299724,"lon":5.371829,"is_reserved":false,"is_disabled":false,"rental_uris":{"android":"levelo://app?vid=e588f9db-f945-4ea3-a8dd-6c10ab8577ff","ios":"levelo://app?vid=e588f9db-f945-4ea3-a8dd-6c10ab8577ff"},"vehicle_type_id":"4","last_reported":1719173300,"current_range_meters":29200,"station_id":"ce4bgr92rcd13ifvqc7g","pricing_plan_id":"cebpf4jnsgd1na2vs0mg"},{"bike_id":"6356cd36-96ec-4616-82e7-5dc32428e165","system_id":"levelo_inurba_marseille","lat":43.299724,"lon":5.371829,"is_reserved":false,"is_disabled":false,"rental_uris":{"android":"levelo://app?vid=6356cd36-96ec-4616-82e7-5dc32428e165","ios":"levelo://app?vid=6356cd36-96ec-4616-82e7-5dc32428e165"},"vehicle_type_id":"4","last_reported":1719173300,"current_range_meters":800,"station_id":"ce4bgr92rcd13ifvqc7g","pricing_plan_id":"cebpf4jnsgd1na2vs0mg"},{"bike_id":"fe81a784-88ee-478f-8444-7efd4bc7bc04","system_id":"levelo_inurba_marseille","lat":43.299222,"lon":5.365554,"is_reserved":false,"is_disabled":false,"rental_uris":{"android":"levelo://app?vid=fe81a784-88ee-478f-8444-7efd4bc7bc04","ios":"levelo://app?vid=fe81a784-88ee-478f-8444-7efd4bc7bc04"},"vehicle_type_id":"4","last_reported":1719173300,"current_range_meters":14000,"station_id":"ce4bgm92rcd13ifvqbr0","pricing_plan_id":"cebpf4jnsgd1na2vs0mg"},{"bike_id":"ed660266-4f39-450d-9708-04e33493d2d2","system_id":"levelo_inurba_marseille","lat":43.29989,"lon":5.37582,"is_reserved":false,"is_disabled":false,"rental_uris":{"android":"levelo://app?vid=ed660266-4f39-450d-9708-04e33493d2d2","ios":"levelo://app?vid=ed660266-4f39-450d-9708-04e33493d2d2"},"vehicle_type_id":"4","last_reported":1719173300,"current_range_meters":0,"station_id":"","pricing_plan_id":"cebpf4jnsgd1na2vs0mg"},{"bike_id":"926f8ef5-4a9e-4cc8-aa94-62f1e397a87f","system_id":"levelo_inurba_marseille","lat":43.298433,"lon":5.362774,"is_reserved":false,"is_disabled":false,"rental_uris":{"android":"levelo://app?vid=926f8ef5-4a9e-4cc8-aa94-62f1e397a87f","ios":"levelo://app?vid=926f8ef5-4a9e-4cc8-aa94-62f1e397a87f"},"vehicle_type_id":"4","last_reported":1719173300,"current_range_meters":13600,"station_id":"ce4bgpp2rcd13ifvqc3g","pricing_plan_id":"cebpf4jnsgd1na2vs0mg"},{"bike_id":"ec974ee3-bb84-41b3-9c24-18d9b5b2dacf","system_id":"levelo_inurba_marseille","lat":43.298433,"lon":5.362774,"is_reserved":false,"is_disabled":false,"rental_uris":{"android":"levelo://app?vid=ec974ee3-bb84-41b3-9c24-18d9b5b2dacf","ios":"levelo://app?vid=ec974ee3-bb84-41b3-9c24-18d9b5b2dacf"},"vehicle_type_id":"4","last_reported":1719173300,"current_range_meters":4800,"station_id":"ce4bgpp2rcd13ifvqc3g","pricing_plan_id":"cebpf4jnsgd1na2vs0mg"},{"bike_id":"0706a5d1-979d-4380-a389-ca5cc5b3464c","system_id":"levelo_inurba_marseille","lat":43.298433,"lon":5.362774,"is_reserved":false,"is_disabled":false,"rental_uris":{"android":"levelo://app?vid=0706a5d1-979d-4380-a389-ca5cc5b3464c","ios":"levelo://app?vid=0706a5d1-979d-4380-a389-ca5cc5b3464c"},"vehicle_type_id":"4","last_reported":1719173300,"current_range_meters":12000,"station_id":"ce4bgpp2rcd13ifvqc3g","pricing_plan_id":"cebpf4jnsgd1na2vs0mg"},{"bike_id":"c6d9dbbb-71c5-4f3d-bd48-b2125cd59672","system_id":"levelo_inurba_marseille","lat":43.298433,"lon":5.362774,"is_reserved":false,"is_disabled":false,"rental_uris":{"android":"levelo://app?vid=c6d9dbbb-71c5-4f3d-bd48-b2125cd59672","ios":"levelo://app?vid=c6d9dbbb-71c5-4f3d-bd48-b2125cd59672"},"vehicle_type_id":"4","last_reported":1719173300,"current_range_meters":13200,"station_id":"ce4bgpp2rcd13ifvqc3g","pricing_plan_id":"cebpf4jnsgd1na2vs0mg"},{"bike_id":"0f6c80ce-7e93-4080-8bbe-ee17bea8b87f","system_id":"levelo_inurba_marseille","lat":43.298433,"lon":5.362774,"is_reserved":false,"is_disabled":false,"rental_uris":{"android":"levelo://app?vid=0f6c80ce-7e93-4080-8bbe-ee17bea8b87f","ios":"levelo://app?vid=0f6c80ce-7e93-4080-8bbe-ee17bea8b87f"},"vehicle_type_id":"4","last_reported":1719173300,"current_range_meters":27600,"station_id":"ce4bgpp2rcd13ifvqc3g","pricing_plan_id":"cebpf4jnsgd1na2vs0mg"},{"bike_id":"33f08cec-d735-4c2e-8539-7370b9b37369","system_id":"levelo_inurba_marseille","lat":43.31175,"lon":5.38715,"is_reserved":false,"is_disabled":false,"rental_uris":{"android":"levelo://app?vid=33f08cec-d735-4c2e-8539-7370b9b37369","ios":"levelo://app?vid=33f08cec-d735-4c2e-8539-7370b9b37369"},"vehicle_type_id":"4","last_reported":1719173300,"current_range_meters":26000,"station_id":"ce4bgv12rcd13ifvqcp0","pricing_plan_id":"cebpf4jnsgd1na2vs0mg"},{"bike_id":"5e3a8754-c2df-467c-8329-0cd8833a24db","system_id":"levelo_inurba_marseille","lat":43.311722,"lon":5.387247,"is_reserved":false,"is_disabled":false,"rental_uris":{"android":"levelo://app?vid=5e3a8754-c2df-467c-8329-0cd8833a24db","ios":"levelo://app?vid=5e3a8754-c2df-467c-8329-0cd8833a24db"},"vehicle_type_id":"4","last_reported":1719173300,"current_range_meters":10000,"station_id":"ce4bgv12rcd13ifvqcp0","pricing_plan_id":"cebpf4jnsgd1na2vs0mg"},{"bike_id":"d3ae8146-06c4-4e56-8824-242401a33a28","system_id":"levelo_inurba_marseille","lat":43.311722,"lon":5.387247,"is_reserved":false,"is_disabled":false,"rental_uris":{"android":"levelo://app?vid=d3ae8146-06c4-4e56-8824-242401a33a28","ios":"levelo://app?vid=d3ae8146-06c4-4e56-8824-242401a33a28"},"vehicle_type_id":"4","last_reported":1719173300,"current_range_meters":8400,"station_id":"ce4bgv12rcd13ifvqcp0","pricing_plan_id":"cebpf4jnsgd1na2vs0mg"},{"bike_id":"5d9af96a-5a30-44ea-87d3-9d52e4cad3f2","system_id":"levelo_inurba_marseille","lat":43.297794,"lon":5.370888,"is_reserved":false,"is_disabled":false,"rental_uris":{"android":"levelo://app?vid=5d9af96a-5a30-44ea-87d3-9d52e4cad3f2","ios":"levelo://app?vid=5d9af96a-5a30-44ea-87d3-9d52e4cad3f2"},"vehicle_type_id":"4","last_reported":1719173300,"current_range_meters":24800,"station_id":"ce4bgop2rcd13ifvqc1g","pricing_plan_id":"cebpf4jnsgd1na2vs0mg"},{"bike_id":"011a2d84-5fa0-4d46-837a-abdb397e4f36","system_id":"levelo_inurba_marseille","lat":43.297774,"lon":5.370875,"is_reserved":false,"is_disabled":false,"rental_uris":{"android":"levelo://app?vid=011a2d84-5fa0-4d46-837a-abdb397e4f36","ios":"levelo://app?vid=011a2d84-5fa0-4d46-837a-abdb397e4f36"},"vehicle_type_id":"4","last_reported":1719173300,"current_range_meters":24800,"station_id":"ce4bgop2rcd13ifvqc1g","pricing_plan_id":"cebpf4jnsgd1na2vs0mg"},{"bike_id":"d0a1c6d6-8ced-4e8b-a0f4-5022eb4a3c56","system_id":"levelo_inurba_marseille","lat":43.322872,"lon":5.382756,"is_reserved":false,"is_disabled":false,"rental_uris":{"android":"levelo://app?vid=d0a1c6d6-8ced-4e8b-a0f4-5022eb4a3c56","ios":"levelo://app?vid=d0a1c6d6-8ced-4e8b-a0f4-5022eb4a3c56"},"vehicle_type_id":"4","last_reported":1719173300,"current_range_meters":11600,"station_id":"ce4bhr12rcd13ifvqhqg","pricing_plan_id":"cebpf4jnsgd1na2vs0mg"},{"bike_id":"0e0e1733-6cf9-4de6-b1cc-7d8047fd60e8","system_id":"levelo_inurba_marseille","lat":43.322872,"lon":5.382756,"is_reserved":false,"is_disabled":false,"rental_uris":{"android":"levelo://app?vid=0e0e1733-6cf9-4de6-b1cc-7d8047fd60e8","ios":"levelo://app?vid=0e0e1733-6cf9-4de6-b1cc-7d8047fd60e8"},"vehicle_type_id":"4","last_reported":1719173300,"current_range_meters":23200,"station_id":"ce4bhr12rcd13ifvqhqg","pricing_plan_id":"cebpf4jnsgd1na2vs0mg"},{"bike_id":"942cf730-5e47-4e6e-93e6-aeaf84651b41","system_id":"levelo_inurba_marseille","lat":43.297163,"lon":5.365866,"is_reserved":false,"is_disabled":false,"rental_uris":{"android":"levelo://app?vid=942cf730-5e47-4e6e-93e6-aeaf84651b41","ios":"levelo://app?vid=942cf730-5e47-4e6e-93e6-aeaf84651b41"},"vehicle_type_id":"4","last_reported":1719173300,"current_range_meters":24800,"station_id":"ce4bgn12rcd13ifvqbt0","pricing_plan_id":"cebpf4jnsgd1na2vs0mg"},{"bike_id":"e988485c-5c66-4960-8c5f-d5fb17591546","system_id":"levelo_inurba_marseille","lat":43.2968,"lon":5.37291,"is_reserved":false,"is_disabled":false,"rental_uris":{"android":"levelo://app?vid=e988485c-5c66-4960-8c5f-d5fb17591546","ios":"levelo://app?vid=e988485c-5c66-4960-8c5f-d5fb17591546"},"vehicle_type_id":"4","last_reported":1719173300,"current_range_meters":11200,"station_id":"ce4bgk12rcd13ifvqbj0","pricing_plan_id":"cebpf4jnsgd1na2vs0mg"},{"bike_id":"9c717d87-d2d7-4c5d-84b9-1e14e00d4121","system_id":"levelo_inurba_marseille","lat":43.299028,"lon":5.381509,"is_reserved":false,"is_disabled":false,"rental_uris":{"android":"levelo://app?vid=9c717d87-d2d7-4c5d-84b9-1e14e00d4121","ios":"levelo://app?vid=9c717d87-d2d7-4c5d-84b9-1e14e00d4121"},"vehicle_type_id":"4","last_reported":1719173300,"current_range_meters":18000,"station_id":"ce4bgj12rcd13ifvqbc0","pricing_plan_id":"cebpf4jnsgd1na2vs0mg"},{"bike_id":"2d7f586a-612f-4855-a85d-1bd39a2bed5c","system_id":"levelo_inurba_marseille","lat":43.299028,"lon":5.381509,"is_reserved":false,"is_disabled":false,"rental_uris":{"android":"levelo://app?vid=2d7f586a-612f-4855-a85d-1bd39a2bed5c","ios":"levelo://app?vid=2d7f586a-612f-4855-a85d-1bd39a2bed5c"},"vehicle_type_id":"4","last_reported":1719173300,"current_range_meters":2000,"station_id":"ce4bgj12rcd13ifvqbc0","pricing_plan_id":"cebpf4jnsgd1na2vs0mg"},{"bike_id":"0a26aff3-37e5-4d2a-8969-5e7176ca600a","system_id":"levelo_inurba_marseille","lat":43.309589,"lon":5.390258,"is_reserved":false,"is_disabled":false,"rental_uris":{"android":"levelo://app?vid=0a26aff3-37e5-4d2a-8969-5e7176ca600a","ios":"levelo://app?vid=0a26aff3-37e5-4d2a-8969-5e7176ca600a"},"vehicle_type_id":"4","last_reported":1719173300,"current_range_meters":15600,"station_id":"ce4bgup2rcd13ifvqco0","pricing_plan_id":"cebpf4jnsgd1na2vs0mg"},{"bike_id":"ef5b99ae-3012-4238-8ebb-e35b4c61fdb4","system_id":"levelo_inurba_marseille","lat":43.299028,"lon":5.381509,"is_reserved":false,"is_disabled":false,"rental_uris":{"android":"levelo://app?vid=ef5b99ae-3012-4238-8ebb-e35b4c61fdb4","ios":"levelo://app?vid=ef5b99ae-3012-4238-8ebb-e35b4c61fdb4"},"vehicle_type_id":"4","last_reported":1719173300,"current_range_meters":4400,"station_id":"ce4bgj12rcd13ifvqbc0","pricing_plan_id":"cebpf4jnsgd1na2vs0mg"},{"bike_id":"1b955bdf-5345-429c-941e-4834293a6122","system_id":"levelo_inurba_marseille","lat":43.309589,"lon":5.390258,"is_reserved":false,"is_disabled":false,"rental_uris":{"android":"levelo://app?vid=1b955bdf-5345-429c-941e-4834293a6122","ios":"levelo://app?vid=1b955bdf-5345-429c-941e-4834293a6122"},"vehicle_type_id":"4","last_reported":1719173300,"current_range_meters":30000,"station_id":"ce4bgup2rcd13ifvqco0","pricing_plan_id":"cebpf4jnsgd1na2vs0mg"},{"bike_id":"d8f9de5d-bbf8-49cd-89a6-4c6e90f6735f","system_id":"levelo_inurba_marseille","lat":43.309589,"lon":5.390258,"is_reserved":false,"is_disabled":false,"rental_uris":{"android":"levelo://app?vid=d8f9de5d-bbf8-49cd-89a6-4c6e90f6735f","ios":"levelo://app?vid=d8f9de5d-bbf8-49cd-89a6-4c6e90f6735f"},"vehicle_type_id":"4","last_reported":1719173300,"current_range_meters":17200,"station_id":"ce4bgup2rcd13ifvqco0","pricing_plan_id":"cebpf4jnsgd1na2vs0mg"},{"bike_id":"eb84174e-bed4-4c2d-9142-2d02f97ca5dc","system_id":"levelo_inurba_marseille","lat":43.317557,"lon":5.390173,"is_reserved":false,"is_disabled":false,"rental_uris":{"android":"levelo://app?vid=eb84174e-bed4-4c2d-9142-2d02f97ca5dc","ios":"levelo://app?vid=eb84174e-bed4-4c2d-9142-2d02f97ca5dc"},"vehicle_type_id":"4","last_reported":1719173300,"current_range_meters":13600,"station_id":"ce4bhqp2rcd13ifvqhng","pricing_plan_id":"cebpf4jnsgd1na2vs0mg"},{"bike_id":"35ded384-dbee-4288-bd1b-02e28a1172ff","system_id":"levelo_inurba_marseille","lat":43.298037,"lon":5.381066,"is_reserved":false,"is_disabled":false,"rental_uris":{"android":"levelo://app?vid=35ded384-dbee-4288-bd1b-02e28a1172ff","ios":"levelo://app?vid=35ded384-dbee-4288-bd1b-02e28a1172ff"},"vehicle_type_id":"4","last_reported":1719173300,"current_range_meters":3600,"station_id":"ce4bgip2rcd13ifvqbb0","pricing_plan_id":"cebpf4jnsgd1na2vs0mg"},{"bike_id":"d55ea958-e92f-4554-8454-3dfe6aed1146","system_id":"levelo_inurba_marseille","lat":43.304274,"lon":5.388873,"is_reserved":false,"is_disabled":false,"rental_uris":{"android":"levelo://app?vid=d55ea958-e92f-4554-8454-3dfe6aed1146","ios":"levelo://app?vid=d55ea958-e92f-4554-8454-3dfe6aed1146"},"vehicle_type_id":"4","last_reported":1719173300,"current_range_meters":31600,"station_id":"ce4bgk12rcd13ifvqbi0","pricing_plan_id":"cebpf4jnsgd1na2vs0mg"},{"bike_id":"2e1ddfdf-1e7b-489b-8c23-eedb9ec0b7cd","system_id":"levelo_inurba_marseille","lat":43.29577,"lon":5.37516,"is_reserved":false,"is_disabled":false,"rental_uris":{"android":"levelo://app?vid=2e1ddfdf-1e7b-489b-8c23-eedb9ec0b7cd","ios":"levelo://app?vid=2e1ddfdf-1e7b-489b-8c23-eedb9ec0b7cd"},"vehicle_type_id":"4","last_reported":1719173300,"current_range_meters":0,"station_id":"ce4bgh92rcd13ifvqb50","pricing_plan_id":"cebpf4jnsgd1na2vs0mg"},{"bike_id":"ff3458c3-fb86-45a3-a649-59ece4846a43","system_id":"levelo_inurba_marseille","lat":43.295748,"lon":5.37522,"is_reserved":false,"is_disabled":false,"rental_uris":{"android":"levelo://app?vid=ff3458c3-fb86-45a3-a649-59ece4846a43","ios":"levelo://app?vid=ff3458c3-fb86-45a3-a649-59ece4846a43"},"vehicle_type_id":"4","last_reported":1719173300,"current_range_meters":400,"station_id":"ce4bgh92rcd13ifvqb50","pricing_plan_id":"cebpf4jnsgd1na2vs0mg"},{"bike_id":"2cfdf85f-91bd-4bbb-a32e-775d215374fd","system_id":"levelo_inurba_marseille","lat":43.304278,"lon":5.388868,"is_reserved":false,"is_disabled":false,"rental_uris":{"android":"levelo://app?vid=2cfdf85f-91bd-4bbb-a32e-775d215374fd","ios":"levelo://app?vid=2cfdf85f-91bd-4bbb-a32e-775d215374fd"},"vehicle_type_id":"4","last_reported":1719173300,"current_range_meters":28800,"station_id":"ce4bgk12rcd13ifvqbi0","pricing_plan_id":"cebpf4jnsgd1na2vs0mg"},{"bike_id":"54e44bb9-2cd0-4524-80ac-ebc3024195ef","system_id":"levelo_inurba_marseille","lat":43.29628,"lon":5.37711,"is_reserved":false,"is_disabled":false,"rental_uris":{"android":"levelo://app?vid=54e44bb9-2cd0-4524-80ac-ebc3024195ef","ios":"levelo://app?vid=54e44bb9-2cd0-4524-80ac-ebc3024195ef"},"vehicle_type_id":"4","last_reported":1719173300,"current_range_meters":0,"station_id":"ce4bgi92rcd13ifvqb90","pricing_plan_id":"cebpf4jnsgd1na2vs0mg"},{"bike_id":"317fed3a-53b0-466d-a66e-2c065b17e6f7","system_id":"levelo_inurba_marseille","lat":43.304278,"lon":5.388868,"is_reserved":false,"is_disabled":false,"rental_uris":{"android":"levelo://app?vid=317fed3a-53b0-466d-a66e-2c065b17e6f7","ios":"levelo://app?vid=317fed3a-53b0-466d-a66e-2c065b17e6f7"},"vehicle_type_id":"4","last_reported":1719173300,"current_range_meters":27200,"station_id":"ce4bgk12rcd13ifvqbi0","pricing_plan_id":"cebpf4jnsgd1na2vs0mg"},{"bike_id":"ffc2c691-f72a-48ac-9c6f-23a91f4f48a3","system_id":"levelo_inurba_marseille","lat":43.304278,"lon":5.388868,"is_reserved":false,"is_disabled":false,"rental_uris":{"android":"levelo://app?vid=ffc2c691-f72a-48ac-9c6f-23a91f4f48a3","ios":"levelo://app?vid=ffc2c691-f72a-48ac-9c6f-23a91f4f48a3"},"vehicle_type_id":"4","last_reported":1719173300,"current_range_meters":28000,"station_id":"ce4bgk12rcd13ifvqbi0","pricing_plan_id":"cebpf4jnsgd1na2vs0mg"},{"bike_id":"69fc2d02-de0b-49d4-a861-6cdb9e2bd230","system_id":"levelo_inurba_marseille","lat":43.30419,"lon":5.38883,"is_reserved":false,"is_disabled":false,"rental_uris":{"android":"levelo://app?vid=69fc2d02-de0b-49d4-a861-6cdb9e2bd230","ios":"levelo://app?vid=69fc2d02-de0b-49d4-a861-6cdb9e2bd230"},"vehicle_type_id":"4","last_reported":1719173300,"current_range_meters":31200,"station_id":"","pricing_plan_id":"cebpf4jnsgd1na2vs0mg"},{"bike_id":"a024dc1c-243a-48ae-89d4-29a006f85209","system_id":"levelo_inurba_marseille","lat":43.296263,"lon":5.377094,"is_reserved":false,"is_disabled":false,"rental_uris":{"android":"levelo://app?vid=a024dc1c-243a-48ae-89d4-29a006f85209","ios":"levelo://app?vid=a024dc1c-243a-48ae-89d4-29a006f85209"},"vehicle_type_id":"4","last_reported":1719173300,"current_range_meters":12400,"station_id":"ce4bgi92rcd13ifvqb90","pricing_plan_id":"cebpf4jnsgd1na2vs0mg"},{"bike_id":"405a60b5-633a-414e-9ad8-926e0ea5b67f","system_id":"levelo_inurba_marseille","lat":43.304278,"lon":5.388868,"is_reserved":false,"is_disabled":false,"rental_uris":{"android":"levelo://app?vid=405a60b5-633a-414e-9ad8-926e0ea5b67f","ios":"levelo://app?vid=405a60b5-633a-414e-9ad8-926e0ea5b67f"},"vehicle_type_id":"4","last_reported":1719173300,"current_range_meters":28800,"station_id":"ce4bgk12rcd13ifvqbi0","pricing_plan_id":"cebpf4jnsgd1na2vs0mg"},{"bike_id":"7ff524bc-6629-40ed-a0ea-f927a42a807c","system_id":"levelo_inurba_marseille","lat":43.296277,"lon":5.377108,"is_reserved":false,"is_disabled":false,"rental_uris":{"android":"levelo://app?vid=7ff524bc-6629-40ed-a0ea-f927a42a807c","ios":"levelo://app?vid=7ff524bc-6629-40ed-a0ea-f927a42a807c"},"vehicle_type_id":"4","last_reported":1719173300,"current_range_meters":8800,"station_id":"ce4bgi92rcd13ifvqb90","pricing_plan_id":"cebpf4jnsgd1na2vs0mg"},{"bike_id":"f54d8cbd-0685-4790-a2ee-a9c1b74048ad","system_id":"levelo_inurba_marseille","lat":43.304274,"lon":5.388873,"is_reserved":false,"is_disabled":false,"rental_uris":{"android":"levelo://app?vid=f54d8cbd-0685-4790-a2ee-a9c1b74048ad","ios":"levelo://app?vid=f54d8cbd-0685-4790-a2ee-a9c1b74048ad"},"vehicle_type_id":"4","last_reported":1719173300,"current_range_meters":18000,"station_id":"ce4bgk12rcd13ifvqbi0","pricing_plan_id":"cebpf4jnsgd1na2vs0mg"},{"bike_id":"bc877c3c-954a-4c7d-bccb-f32a046df197","system_id":"levelo_inurba_marseille","lat":43.296154,"lon":5.377084,"is_reserved":false,"is_disabled":false,"rental_uris":{"android":"levelo://app?vid=bc877c3c-954a-4c7d-bccb-f32a046df197","ios":"levelo://app?vid=bc877c3c-954a-4c7d-bccb-f32a046df197"},"vehicle_type_id":"4","last_reported":1719173300,"current_range_meters":22800,"station_id":"ce4bgi92rcd13ifvqb90","pricing_plan_id":"cebpf4jnsgd1na2vs0mg"},{"bike_id":"724d0f64-1cef-4dee-9238-aa06ad507158","system_id":"levelo_inurba_marseille","lat":43.296263,"lon":5.377094,"is_reserved":false,"is_disabled":false,"rental_uris":{"android":"levelo://app?vid=724d0f64-1cef-4dee-9238-aa06ad507158","ios":"levelo://app?vid=724d0f64-1cef-4dee-9238-aa06ad507158"},"vehicle_type_id":"4","last_reported":1719173300,"current_range_meters":30800,"station_id":"ce4bgi92rcd13ifvqb90","pricing_plan_id":"cebpf4jnsgd1na2vs0mg"},{"bike_id":"34d042cb-a8b0-4359-a646-e47ee3556383","system_id":"levelo_inurba_marseille","lat":43.273613,"lon":5.362705,"is_reserved":false,"is_disabled":false,"rental_uris":{"android":"levelo://app?vid=34d042cb-a8b0-4359-a646-e47ee3556383","ios":"levelo://app?vid=34d042cb-a8b0-4359-a646-e47ee3556383"},"vehicle_type_id":"4","last_reported":1719173300,"current_range_meters":23600,"station_id":"ce4bhbh2rcd13ifvqeo0","pricing_plan_id":"cebpf4jnsgd1na2vs0mg"},{"bike_id":"454182c7-d66f-45bc-a8a8-890b23bb4b01","system_id":"levelo_inurba_marseille","lat":43.29687,"lon":5.37933,"is_reserved":false,"is_disabled":false,"rental_uris":{"android":"levelo://app?vid=454182c7-d66f-45bc-a8a8-890b23bb4b01","ios":"levelo://app?vid=454182c7-d66f-45bc-a8a8-890b23bb4b01"},"vehicle_type_id":"4","last_reported":1719173300,"current_range_meters":0,"station_id":"","pricing_plan_id":"cebpf4jnsgd1na2vs0mg"},{"bike_id":"3d055234-d33f-4848-8711-99e724ce0fae","system_id":"levelo_inurba_marseille","lat":43.299707,"lon":5.384859,"is_reserved":false,"is_disabled":false,"rental_uris":{"android":"levelo://app?vid=3d055234-d33f-4848-8711-99e724ce0fae","ios":"levelo://app?vid=3d055234-d33f-4848-8711-99e724ce0fae"},"vehicle_type_id":"4","last_reported":1719173300,"current_range_meters":14800,"station_id":"ce4bgj92rcd13ifvqbd0","pricing_plan_id":"cebpf4jnsgd1na2vs0mg"},{"bike_id":"543f2f7d-78d6-428d-8505-5b93dc980b51","system_id":"levelo_inurba_marseille","lat":43.32367,"lon":5.388836,"is_reserved":false,"is_disabled":false,"rental_uris":{"android":"levelo://app?vid=543f2f7d-78d6-428d-8505-5b93dc980b51","ios":"levelo://app?vid=543f2f7d-78d6-428d-8505-5b93dc980b51"},"vehicle_type_id":"4","last_reported":1719173300,"current_range_meters":0,"station_id":"ce4bhqp2rcd13ifvqhog","pricing_plan_id":"cebpf4jnsgd1na2vs0mg"},{"bike_id":"fcbe0b04-d2ee-4b92-a328-ae0d0c0b28a5","system_id":"levelo_inurba_marseille","lat":43.32367,"lon":5.388836,"is_reserved":false,"is_disabled":false,"rental_uris":{"android":"levelo://app?vid=fcbe0b04-d2ee-4b92-a328-ae0d0c0b28a5","ios":"levelo://app?vid=fcbe0b04-d2ee-4b92-a328-ae0d0c0b28a5"},"vehicle_type_id":"4","last_reported":1719173300,"current_range_meters":2000,"station_id":"ce4bhqp2rcd13ifvqhog","pricing_plan_id":"cebpf4jnsgd1na2vs0mg"},{"bike_id":"6bf4cb83-2bdc-4858-b07c-e310d8116c70","system_id":"levelo_inurba_marseille","lat":43.293249,"lon":5.371578,"is_reserved":false,"is_disabled":false,"rental_uris":{"android":"levelo://app?vid=6bf4cb83-2bdc-4858-b07c-e310d8116c70","ios":"levelo://app?vid=6bf4cb83-2bdc-4858-b07c-e310d8116c70"},"vehicle_type_id":"4","last_reported":1719173300,"current_range_meters":0,"station_id":"ce4bgh92rcd13ifvqb40","pricing_plan_id":"cebpf4jnsgd1na2vs0mg"},{"bike_id":"e7538ff8-38e8-40dd-a41d-4e8b7bc2ed49","system_id":"levelo_inurba_marseille","lat":43.292749,"lon":5.368402,"is_reserved":false,"is_disabled":false,"rental_uris":{"android":"levelo://app?vid=e7538ff8-38e8-40dd-a41d-4e8b7bc2ed49","ios":"levelo://app?vid=e7538ff8-38e8-40dd-a41d-4e8b7bc2ed49"},"vehicle_type_id":"4","last_reported":1719173300,"current_range_meters":28400,"station_id":"ce4bhbp2rcd13ifvqesg","pricing_plan_id":"cebpf4jnsgd1na2vs0mg"},{"bike_id":"737f7469-ecc6-4e25-a583-ba7163a205fa","system_id":"levelo_inurba_marseille","lat":43.293249,"lon":5.371578,"is_reserved":false,"is_disabled":false,"rental_uris":{"android":"levelo://app?vid=737f7469-ecc6-4e25-a583-ba7163a205fa","ios":"levelo://app?vid=737f7469-ecc6-4e25-a583-ba7163a205fa"},"vehicle_type_id":"4","last_reported":1719173300,"current_range_meters":15600,"station_id":"ce4bgh92rcd13ifvqb40","pricing_plan_id":"cebpf4jnsgd1na2vs0mg"},{"bike_id":"7a6186f7-d1f1-416b-a949-c4788d31f164","system_id":"levelo_inurba_marseille","lat":43.29301,"lon":5.371702,"is_reserved":false,"is_disabled":false,"rental_uris":{"android":"levelo://app?vid=7a6186f7-d1f1-416b-a949-c4788d31f164","ios":"levelo://app?vid=7a6186f7-d1f1-416b-a949-c4788d31f164"},"vehicle_type_id":"4","last_reported":1719173300,"current_range_meters":0,"station_id":"ce4bgh92rcd13ifvqb40","pricing_plan_id":"cebpf4jnsgd1na2vs0mg"},{"bike_id":"758e709f-1625-4f49-a9c3-09a9200fa006","system_id":"levelo_inurba_marseille","lat":43.293249,"lon":5.371578,"is_reserved":false,"is_disabled":false,"rental_uris":{"android":"levelo://app?vid=758e709f-1625-4f49-a9c3-09a9200fa006","ios":"levelo://app?vid=758e709f-1625-4f49-a9c3-09a9200fa006"},"vehicle_type_id":"4","last_reported":1719173300,"current_range_meters":30000,"station_id":"ce4bgh92rcd13ifvqb40","pricing_plan_id":"cebpf4jnsgd1na2vs0mg"},{"bike_id":"53660ae2-d458-41b9-8613-19badf38d031","system_id":"levelo_inurba_marseille","lat":43.305994,"lon":5.393687,"is_reserved":false,"is_disabled":false,"rental_uris":{"android":"levelo://app?vid=53660ae2-d458-41b9-8613-19badf38d031","ios":"levelo://app?vid=53660ae2-d458-41b9-8613-19badf38d031"},"vehicle_type_id":"4","last_reported":1719173300,"current_range_meters":14800,"station_id":"ce4bh0p2rcd13ifvqd80","pricing_plan_id":"cebpf4jnsgd1na2vs0mg"},{"bike_id":"400b9564-9a86-4e65-910a-2a7c78d0a957","system_id":"levelo_inurba_marseille","lat":43.305994,"lon":5.393687,"is_reserved":false,"is_disabled":false,"rental_uris":{"android":"levelo://app?vid=400b9564-9a86-4e65-910a-2a7c78d0a957","ios":"levelo://app?vid=400b9564-9a86-4e65-910a-2a7c78d0a957"},"vehicle_type_id":"4","last_reported":1719173300,"current_range_meters":14800,"station_id":"ce4bh0p2rcd13ifvqd80","pricing_plan_id":"cebpf4jnsgd1na2vs0mg"},{"bike_id":"446e6e09-e819-4e50-8463-02b7e3e6e98e","system_id":"levelo_inurba_marseille","lat":43.303002,"lon":5.392142,"is_reserved":false,"is_disabled":false,"rental_uris":{"android":"levelo://app?vid=446e6e09-e819-4e50-8463-02b7e3e6e98e","ios":"levelo://app?vid=446e6e09-e819-4e50-8463-02b7e3e6e98e"},"vehicle_type_id":"4","last_reported":1719173300,"current_range_meters":0,"station_id":"ce4bgkh2rcd13ifvqbk0","pricing_plan_id":"cebpf4jnsgd1na2vs0mg"},{"bike_id":"4b324eec-b1f1-4872-a7ec-d3fb3b5bcf93","system_id":"levelo_inurba_marseille","lat":43.303002,"lon":5.392142,"is_reserved":false,"is_disabled":false,"rental_uris":{"android":"levelo://app?vid=4b324eec-b1f1-4872-a7ec-d3fb3b5bcf93","ios":"levelo://app?vid=4b324eec-b1f1-4872-a7ec-d3fb3b5bcf93"},"vehicle_type_id":"4","last_reported":1719173300,"current_range_meters":22400,"station_id":"ce4bgkh2rcd13ifvqbk0","pricing_plan_id":"cebpf4jnsgd1na2vs0mg"},{"bike_id":"dc9a250c-f286-4684-9ce8-53ccd134513c","system_id":"levelo_inurba_marseille","lat":43.303002,"lon":5.392142,"is_reserved":false,"is_disabled":false,"rental_uris":{"android":"levelo://app?vid=dc9a250c-f286-4684-9ce8-53ccd134513c","ios":"levelo://app?vid=dc9a250c-f286-4684-9ce8-53ccd134513c"},"vehicle_type_id":"4","last_reported":1719173300,"current_range_meters":15600,"station_id":"ce4bgkh2rcd13ifvqbk0","pricing_plan_id":"cebpf4jnsgd1na2vs0mg"},{"bike_id":"0a2dda70-5bf6-476f-9f15-7d96e684ac9a","system_id":"levelo_inurba_marseille","lat":43.303002,"lon":5.392142,"is_reserved":false,"is_disabled":false,"rental_uris":{"android":"levelo://app?vid=0a2dda70-5bf6-476f-9f15-7d96e684ac9a","ios":"levelo://app?vid=0a2dda70-5bf6-476f-9f15-7d96e684ac9a"},"vehicle_type_id":"4","last_reported":1719173300,"current_range_meters":17200,"station_id":"ce4bgkh2rcd13ifvqbk0","pricing_plan_id":"cebpf4jnsgd1na2vs0mg"},{"bike_id":"12a74613-883c-4f3a-b6f0-5a4c1097548a","system_id":"levelo_inurba_marseille","lat":43.2936,"lon":5.37835,"is_reserved":false,"is_disabled":false,"rental_uris":{"android":"levelo://app?vid=12a74613-883c-4f3a-b6f0-5a4c1097548a","ios":"levelo://app?vid=12a74613-883c-4f3a-b6f0-5a4c1097548a"},"vehicle_type_id":"4","last_reported":1719173300,"current_range_meters":4400,"station_id":"ce4bgjh2rcd13ifvqbf0","pricing_plan_id":"cebpf4jnsgd1na2vs0mg"},{"bike_id":"a62dea5d-e66d-4cff-8579-9e78ff407d11","system_id":"levelo_inurba_marseille","lat":43.2936,"lon":5.37835,"is_reserved":false,"is_disabled":false,"rental_uris":{"android":"levelo://app?vid=a62dea5d-e66d-4cff-8579-9e78ff407d11","ios":"levelo://app?vid=a62dea5d-e66d-4cff-8579-9e78ff407d11"},"vehicle_type_id":"4","last_reported":1719173300,"current_range_meters":28000,"station_id":"ce4bgjh2rcd13ifvqbf0","pricing_plan_id":"cebpf4jnsgd1na2vs0mg"},{"bike_id":"667ba7fb-5026-4e1f-a3f0-c2bf3edf60a6","system_id":"levelo_inurba_marseille","lat":43.30085,"lon":5.390856,"is_reserved":false,"is_disabled":false,"rental_uris":{"android":"levelo://app?vid=667ba7fb-5026-4e1f-a3f0-c2bf3edf60a6","ios":"levelo://app?vid=667ba7fb-5026-4e1f-a3f0-c2bf3edf60a6"},"vehicle_type_id":"4","last_reported":1719173300,"current_range_meters":28000,"station_id":"ce4bh192rcd13ifvqdb0","pricing_plan_id":"cebpf4jnsgd1na2vs0mg"},{"bike_id":"66e7faed-81de-4ec5-8a4a-2064726af548","system_id":"levelo_inurba_marseille","lat":43.293009,"lon":5.374584,"is_reserved":false,"is_disabled":false,"rental_uris":{"android":"levelo://app?vid=66e7faed-81de-4ec5-8a4a-2064726af548","ios":"levelo://app?vid=66e7faed-81de-4ec5-8a4a-2064726af548"},"vehicle_type_id":"4","last_reported":1719173300,"current_range_meters":18000,"station_id":"ce4bgi12rcd13ifvqb70","pricing_plan_id":"cebpf4jnsgd1na2vs0mg"},{"bike_id":"571971d1-34fa-4e7e-881c-327219c9d05b","system_id":"levelo_inurba_marseille","lat":43.298764,"lon":5.388973,"is_reserved":false,"is_disabled":false,"rental_uris":{"android":"levelo://app?vid=571971d1-34fa-4e7e-881c-327219c9d05b","ios":"levelo://app?vid=571971d1-34fa-4e7e-881c-327219c9d05b"},"vehicle_type_id":"4","last_reported":1719173300,"current_range_meters":2800,"station_id":"ce4bh392rcd13ifvqdl0","pricing_plan_id":"cebpf4jnsgd1na2vs0mg"},{"bike_id":"19982d88-38e3-4295-adf9-880984d23307","system_id":"levelo_inurba_marseille","lat":43.293009,"lon":5.374584,"is_reserved":false,"is_disabled":false,"rental_uris":{"android":"levelo://app?vid=19982d88-38e3-4295-adf9-880984d23307","ios":"levelo://app?vid=19982d88-38e3-4295-adf9-880984d23307"},"vehicle_type_id":"4","last_reported":1719173300,"current_range_meters":9600,"station_id":"ce4bgi12rcd13ifvqb70","pricing_plan_id":"cebpf4jnsgd1na2vs0mg"},{"bike_id":"96118471-4a11-4408-be43-6b8abf01e146","system_id":"levelo_inurba_marseille","lat":43.298764,"lon":5.388973,"is_reserved":false,"is_disabled":false,"rental_uris":{"android":"levelo://app?vid=96118471-4a11-4408-be43-6b8abf01e146","ios":"levelo://app?vid=96118471-4a11-4408-be43-6b8abf01e146"},"vehicle_type_id":"4","last_reported":1719173300,"current_range_meters":14400,"station_id":"ce4bh392rcd13ifvqdl0","pricing_plan_id":"cebpf4jnsgd1na2vs0mg"},{"bike_id":"18465726-f9ce-4f57-83f9-826a82124d99","system_id":"levelo_inurba_marseille","lat":43.31331,"lon":5.39687,"is_reserved":false,"is_disabled":false,"rental_uris":{"android":"levelo://app?vid=18465726-f9ce-4f57-83f9-826a82124d99","ios":"levelo://app?vid=18465726-f9ce-4f57-83f9-826a82124d99"},"vehicle_type_id":"4","last_reported":1719173300,"current_range_meters":22400,"station_id":"ce4bgvp2rcd13ifvqcu0","pricing_plan_id":"cebpf4jnsgd1na2vs0mg"},{"bike_id":"05e99853-d33b-40e7-8216-8ec2253deb80","system_id":"levelo_inurba_marseille","lat":43.31327,"lon":5.39689,"is_reserved":false,"is_disabled":false,"rental_uris":{"android":"levelo://app?vid=05e99853-d33b-40e7-8216-8ec2253deb80","ios":"levelo://app?vid=05e99853-d33b-40e7-8216-8ec2253deb80"},"vehicle_type_id":"4","last_reported":1719173300,"current_range_meters":7600,"station_id":"ce4bgvp2rcd13ifvqcu0","pricing_plan_id":"cebpf4jnsgd1na2vs0mg"},{"bike_id":"19bda9bf-78f2-4710-9836-7a6470c27f81","system_id":"levelo_inurba_marseille","lat":43.309038,"lon":5.396546,"is_reserved":false,"is_disabled":false,"rental_uris":{"android":"levelo://app?vid=19bda9bf-78f2-4710-9836-7a6470c27f81","ios":"levelo://app?vid=19bda9bf-78f2-4710-9836-7a6470c27f81"},"vehicle_type_id":"4","last_reported":1719173300,"current_range_meters":10400,"station_id":"ce4bh012rcd13ifvqcv0","pricing_plan_id":"cebpf4jnsgd1na2vs0mg"},{"bike_id":"6ec97510-f309-4dad-8957-46ea1ed86447","system_id":"levelo_inurba_marseille","lat":43.31325,"lon":5.39691,"is_reserved":false,"is_disabled":false,"rental_uris":{"android":"levelo://app?vid=6ec97510-f309-4dad-8957-46ea1ed86447","ios":"levelo://app?vid=6ec97510-f309-4dad-8957-46ea1ed86447"},"vehicle_type_id":"4","last_reported":1719173300,"current_range_meters":19200,"station_id":"ce4bgvp2rcd13ifvqcu0","pricing_plan_id":"cebpf4jnsgd1na2vs0mg"},{"bike_id":"17c44e8a-49ac-4bd6-9306-7e46df14fb54","system_id":"levelo_inurba_marseille","lat":43.309047,"lon":5.396551,"is_reserved":false,"is_disabled":false,"rental_uris":{"android":"levelo://app?vid=17c44e8a-49ac-4bd6-9306-7e46df14fb54","ios":"levelo://app?vid=17c44e8a-49ac-4bd6-9306-7e46df14fb54"},"vehicle_type_id":"4","last_reported":1719173300,"current_range_meters":4000,"station_id":"ce4bh012rcd13ifvqcv0","pricing_plan_id":"cebpf4jnsgd1na2vs0mg"},{"bike_id":"4f1bc3d6-ea9f-4296-8bc2-648597718b3e","system_id":"levelo_inurba_marseille","lat":43.313291,"lon":5.396838,"is_reserved":false,"is_disabled":false,"rental_uris":{"android":"levelo://app?vid=4f1bc3d6-ea9f-4296-8bc2-648597718b3e","ios":"levelo://app?vid=4f1bc3d6-ea9f-4296-8bc2-648597718b3e"},"vehicle_type_id":"4","last_reported":1719173300,"current_range_meters":30400,"station_id":"ce4bgvp2rcd13ifvqcu0","pricing_plan_id":"cebpf4jnsgd1na2vs0mg"},{"bike_id":"ac0a5d3f-1677-488a-8185-d1feef16150b","system_id":"levelo_inurba_marseille","lat":43.309047,"lon":5.396551,"is_reserved":false,"is_disabled":false,"rental_uris":{"android":"levelo://app?vid=ac0a5d3f-1677-488a-8185-d1feef16150b","ios":"levelo://app?vid=ac0a5d3f-1677-488a-8185-d1feef16150b"},"vehicle_type_id":"4","last_reported":1719173300,"current_range_meters":22400,"station_id":"ce4bh012rcd13ifvqcv0","pricing_plan_id":"cebpf4jnsgd1na2vs0mg"},{"bike_id":"e9f8c0c0-ac3d-46e8-9470-e1799570f886","system_id":"levelo_inurba_marseille","lat":43.332248,"lon":5.380861,"is_reserved":false,"is_disabled":false,"rental_uris":{"android":"levelo://app?vid=e9f8c0c0-ac3d-46e8-9470-e1799570f886","ios":"levelo://app?vid=e9f8c0c0-ac3d-46e8-9470-e1799570f886"},"vehicle_type_id":"4","last_reported":1719173300,"current_range_meters":0,"station_id":"","pricing_plan_id":"cebpf4jnsgd1na2vs0mg"},{"bike_id":"51de7380-1946-4c27-8cb5-95eeaa4b4da5","system_id":"levelo_inurba_marseille","lat":43.29529,"lon":5.385581,"is_reserved":false,"is_disabled":false,"rental_uris":{"android":"levelo://app?vid=51de7380-1946-4c27-8cb5-95eeaa4b4da5","ios":"levelo://app?vid=51de7380-1946-4c27-8cb5-95eeaa4b4da5"},"vehicle_type_id":"4","last_reported":1719173300,"current_range_meters":28800,"station_id":"ce4bgih2rcd13ifvqba0","pricing_plan_id":"cebpf4jnsgd1na2vs0mg"},{"bike_id":"8ae70032-e0c6-4969-aa7c-61b54b033d36","system_id":"levelo_inurba_marseille","lat":43.302008,"lon":5.394694,"is_reserved":false,"is_disabled":false,"rental_uris":{"android":"levelo://app?vid=8ae70032-e0c6-4969-aa7c-61b54b033d36","ios":"levelo://app?vid=8ae70032-e0c6-4969-aa7c-61b54b033d36"},"vehicle_type_id":"4","last_reported":1719173300,"current_range_meters":0,"station_id":"ce4bh0p2rcd13ifvqd70","pricing_plan_id":"cebpf4jnsgd1na2vs0mg"},{"bike_id":"a2129988-a6dd-4127-9881-bb4545afe81b","system_id":"levelo_inurba_marseille","lat":43.302008,"lon":5.394694,"is_reserved":false,"is_disabled":false,"rental_uris":{"android":"levelo://app?vid=a2129988-a6dd-4127-9881-bb4545afe81b","ios":"levelo://app?vid=a2129988-a6dd-4127-9881-bb4545afe81b"},"vehicle_type_id":"4","last_reported":1719173300,"current_range_meters":1200,"station_id":"ce4bh0p2rcd13ifvqd70","pricing_plan_id":"cebpf4jnsgd1na2vs0mg"},{"bike_id":"a06e4fc1-3a66-4169-a69e-c4ed168941c0","system_id":"levelo_inurba_marseille","lat":43.302008,"lon":5.394694,"is_reserved":false,"is_disabled":false,"rental_uris":{"android":"levelo://app?vid=a06e4fc1-3a66-4169-a69e-c4ed168941c0","ios":"levelo://app?vid=a06e4fc1-3a66-4169-a69e-c4ed168941c0"},"vehicle_type_id":"4","last_reported":1719173300,"current_range_meters":13600,"station_id":"ce4bh0p2rcd13ifvqd70","pricing_plan_id":"cebpf4jnsgd1na2vs0mg"},{"bike_id":"fd8ab076-85ab-4319-99f4-ed409ee6cf31","system_id":"levelo_inurba_marseille","lat":43.290624,"lon":5.359245,"is_reserved":false,"is_disabled":false,"rental_uris":{"android":"levelo://app?vid=fd8ab076-85ab-4319-99f4-ed409ee6cf31","ios":"levelo://app?vid=fd8ab076-85ab-4319-99f4-ed409ee6cf31"},"vehicle_type_id":"4","last_reported":1719173300,"current_range_meters":30000,"station_id":"ce4bha92rcd13ifvqeg0","pricing_plan_id":"cebpf4jnsgd1na2vs0mg"},{"bike_id":"e05a6d2d-6063-423e-95db-a1b093da7ef0","system_id":"levelo_inurba_marseille","lat":43.290395,"lon":5.375624,"is_reserved":false,"is_disabled":false,"rental_uris":{"android":"levelo://app?vid=e05a6d2d-6063-423e-95db-a1b093da7ef0","ios":"levelo://app?vid=e05a6d2d-6063-423e-95db-a1b093da7ef0"},"vehicle_type_id":"4","last_reported":1719173300,"current_range_meters":26400,"station_id":"ce4bh692rcd13ifvqe90","pricing_plan_id":"cebpf4jnsgd1na2vs0mg"},{"bike_id":"7f83881b-6712-4316-afe5-44bb9e89f2c4","system_id":"levelo_inurba_marseille","lat":43.294153,"lon":5.386305,"is_reserved":false,"is_disabled":false,"rental_uris":{"android":"levelo://app?vid=7f83881b-6712-4316-afe5-44bb9e89f2c4","ios":"levelo://app?vid=7f83881b-6712-4316-afe5-44bb9e89f2c4"},"vehicle_type_id":"4","last_reported":1719173300,"current_range_meters":26800,"station_id":"ce4bh2h2rcd13ifvqdh0","pricing_plan_id":"cebpf4jnsgd1na2vs0mg"},{"bike_id":"f53f1b12-f4ff-4003-ba9c-50bd81484241","system_id":"levelo_inurba_marseille","lat":43.294153,"lon":5.386305,"is_reserved":false,"is_disabled":false,"rental_uris":{"android":"levelo://app?vid=f53f1b12-f4ff-4003-ba9c-50bd81484241","ios":"levelo://app?vid=f53f1b12-f4ff-4003-ba9c-50bd81484241"},"vehicle_type_id":"4","last_reported":1719173300,"current_range_meters":11600,"station_id":"ce4bh2h2rcd13ifvqdh0","pricing_plan_id":"cebpf4jnsgd1na2vs0mg"},{"bike_id":"f3b6ea72-1a7c-47be-a92d-82066758b36a","system_id":"levelo_inurba_marseille","lat":43.290327,"lon":5.375711,"is_reserved":false,"is_disabled":false,"rental_uris":{"android":"levelo://app?vid=f3b6ea72-1a7c-47be-a92d-82066758b36a","ios":"levelo://app?vid=f3b6ea72-1a7c-47be-a92d-82066758b36a"},"vehicle_type_id":"4","last_reported":1719173300,"current_range_meters":29600,"station_id":"ce4bh692rcd13ifvqe90","pricing_plan_id":"cebpf4jnsgd1na2vs0mg"},{"bike_id":"30975aff-20da-4c6c-9f81-51a068ca5e0c","system_id":"levelo_inurba_marseille","lat":43.294153,"lon":5.386305,"is_reserved":false,"is_disabled":false,"rental_uris":{"android":"levelo://app?vid=30975aff-20da-4c6c-9f81-51a068ca5e0c","ios":"levelo://app?vid=30975aff-20da-4c6c-9f81-51a068ca5e0c"},"vehicle_type_id":"4","last_reported":1719173300,"current_range_meters":15200,"station_id":"ce4bh2h2rcd13ifvqdh0","pricing_plan_id":"cebpf4jnsgd1na2vs0mg"},{"bike_id":"7e137334-5a62-45e0-91ed-111c58b7eab7","system_id":"levelo_inurba_marseille","lat":43.294162,"lon":5.386292,"is_reserved":false,"is_disabled":false,"rental_uris":{"android":"levelo://app?vid=7e137334-5a62-45e0-91ed-111c58b7eab7","ios":"levelo://app?vid=7e137334-5a62-45e0-91ed-111c58b7eab7"},"vehicle_type_id":"4","last_reported":1719173300,"current_range_meters":0,"station_id":"ce4bh2h2rcd13ifvqdh0","pricing_plan_id":"cebpf4jnsgd1na2vs0mg"},{"bike_id":"64477911-5c06-4f49-b794-41e165a19d29","system_id":"levelo_inurba_marseille","lat":43.304274,"lon":5.397513,"is_reserved":false,"is_disabled":false,"rental_uris":{"android":"levelo://app?vid=64477911-5c06-4f49-b794-41e165a19d29","ios":"levelo://app?vid=64477911-5c06-4f49-b794-41e165a19d29"},"vehicle_type_id":"4","last_reported":1719173300,"current_range_meters":10400,"station_id":"ce4bh092rcd13ifvqd20","pricing_plan_id":"cebpf4jnsgd1na2vs0mg"},{"bike_id":"0117f71d-c9a2-4eb4-b650-3a6a61af3471","system_id":"levelo_inurba_marseille","lat":43.304296,"lon":5.397513,"is_reserved":false,"is_disabled":false,"rental_uris":{"android":"levelo://app?vid=0117f71d-c9a2-4eb4-b650-3a6a61af3471","ios":"levelo://app?vid=0117f71d-c9a2-4eb4-b650-3a6a61af3471"},"vehicle_type_id":"4","last_reported":1719173300,"current_range_meters":5600,"station_id":"ce4bh092rcd13ifvqd20","pricing_plan_id":"cebpf4jnsgd1na2vs0mg"},{"bike_id":"67fe5ec9-f3ae-4c66-ae99-89e0769b42c9","system_id":"levelo_inurba_marseille","lat":43.292644,"lon":5.384257,"is_reserved":false,"is_disabled":false,"rental_uris":{"android":"levelo://app?vid=67fe5ec9-f3ae-4c66-ae99-89e0769b42c9","ios":"levelo://app?vid=67fe5ec9-f3ae-4c66-ae99-89e0769b42c9"},"vehicle_type_id":"4","last_reported":1719173300,"current_range_meters":10400,"station_id":"ce4bh692rcd13ifvqea0","pricing_plan_id":"cebpf4jnsgd1na2vs0mg"},{"bike_id":"2672410e-d324-4791-be4b-8de2895e1469","system_id":"levelo_inurba_marseille","lat":43.304296,"lon":5.397513,"is_reserved":false,"is_disabled":false,"rental_uris":{"android":"levelo://app?vid=2672410e-d324-4791-be4b-8de2895e1469","ios":"levelo://app?vid=2672410e-d324-4791-be4b-8de2895e1469"},"vehicle_type_id":"4","last_reported":1719173300,"current_range_meters":0,"station_id":"ce4bh092rcd13ifvqd20","pricing_plan_id":"cebpf4jnsgd1na2vs0mg"},{"bike_id":"1d75adb1-3d63-456b-b4da-e14520fa8848","system_id":"levelo_inurba_marseille","lat":43.29265,"lon":5.38445,"is_reserved":false,"is_disabled":false,"rental_uris":{"android":"levelo://app?vid=1d75adb1-3d63-456b-b4da-e14520fa8848","ios":"levelo://app?vid=1d75adb1-3d63-456b-b4da-e14520fa8848"},"vehicle_type_id":"4","last_reported":1719173300,"current_range_meters":7200,"station_id":"ce4bh692rcd13ifvqea0","pricing_plan_id":"cebpf4jnsgd1na2vs0mg"},{"bike_id":"f98b27c3-fb69-4007-bc93-89515ab18969","system_id":"levelo_inurba_marseille","lat":43.29254,"lon":5.38452,"is_reserved":false,"is_disabled":false,"rental_uris":{"android":"levelo://app?vid=f98b27c3-fb69-4007-bc93-89515ab18969","ios":"levelo://app?vid=f98b27c3-fb69-4007-bc93-89515ab18969"},"vehicle_type_id":"4","last_reported":1719173300,"current_range_meters":25600,"station_id":"ce4bh692rcd13ifvqea0","pricing_plan_id":"cebpf4jnsgd1na2vs0mg"},{"bike_id":"e197cbf0-203c-457e-8e5f-f8d77336e5ac","system_id":"levelo_inurba_marseille","lat":43.292644,"lon":5.384257,"is_reserved":false,"is_disabled":false,"rental_uris":{"android":"levelo://app?vid=e197cbf0-203c-457e-8e5f-f8d77336e5ac","ios":"levelo://app?vid=e197cbf0-203c-457e-8e5f-f8d77336e5ac"},"vehicle_type_id":"4","last_reported":1719173300,"current_range_meters":29200,"station_id":"ce4bh692rcd13ifvqea0","pricing_plan_id":"cebpf4jnsgd1na2vs0mg"},{"bike_id":"99b423ba-3422-4dca-a11f-4c6b1bf49fe9","system_id":"levelo_inurba_marseille","lat":43.290104,"lon":5.356111,"is_reserved":false,"is_disabled":false,"rental_uris":{"android":"levelo://app?vid=99b423ba-3422-4dca-a11f-4c6b1bf49fe9","ios":"levelo://app?vid=99b423ba-3422-4dca-a11f-4c6b1bf49fe9"},"vehicle_type_id":"4","last_reported":1719173300,"current_range_meters":11600,"station_id":"ce4bhb92rcd13ifvqen0","pricing_plan_id":"cebpf4jnsgd1na2vs0mg"},{"bike_id":"6a647557-c8cf-4053-a7e9-e46c77112e88","system_id":"levelo_inurba_marseille","lat":43.290104,"lon":5.356111,"is_reserved":false,"is_disabled":false,"rental_uris":{"android":"levelo://app?vid=6a647557-c8cf-4053-a7e9-e46c77112e88","ios":"levelo://app?vid=6a647557-c8cf-4053-a7e9-e46c77112e88"},"vehicle_type_id":"4","last_reported":1719173300,"current_range_meters":0,"station_id":"ce4bhb92rcd13ifvqen0","pricing_plan_id":"cebpf4jnsgd1na2vs0mg"},{"bike_id":"b408bd2a-09f7-4849-bba6-db08e6ae52bc","system_id":"levelo_inurba_marseille","lat":43.290103,"lon":5.356114,"is_reserved":false,"is_disabled":false,"rental_uris":{"android":"levelo://app?vid=b408bd2a-09f7-4849-bba6-db08e6ae52bc","ios":"levelo://app?vid=b408bd2a-09f7-4849-bba6-db08e6ae52bc"},"vehicle_type_id":"4","last_reported":1719173300,"current_range_meters":24400,"station_id":"ce4bhb92rcd13ifvqen0","pricing_plan_id":"cebpf4jnsgd1na2vs0mg"},{"bike_id":"21acb559-acac-4821-b70a-656629c84bee","system_id":"levelo_inurba_marseille","lat":43.290103,"lon":5.356114,"is_reserved":false,"is_disabled":false,"rental_uris":{"android":"levelo://app?vid=21acb559-acac-4821-b70a-656629c84bee","ios":"levelo://app?vid=21acb559-acac-4821-b70a-656629c84bee"},"vehicle_type_id":"4","last_reported":1719173300,"current_range_meters":14400,"station_id":"ce4bhb92rcd13ifvqen0","pricing_plan_id":"cebpf4jnsgd1na2vs0mg"},{"bike_id":"3cbfef06-ba72-4daa-931a-afadfab0470d","system_id":"levelo_inurba_marseille","lat":43.290995,"lon":5.381361,"is_reserved":false,"is_disabled":false,"rental_uris":{"android":"levelo://app?vid=3cbfef06-ba72-4daa-931a-afadfab0470d","ios":"levelo://app?vid=3cbfef06-ba72-4daa-931a-afadfab0470d"},"vehicle_type_id":"4","last_reported":1719173300,"current_range_meters":21600,"station_id":"ce4bh512rcd13ifvqe2g","pricing_plan_id":"cebpf4jnsgd1na2vs0mg"},{"bike_id":"820751f4-357c-401c-86dc-99c01908e6a4","system_id":"levelo_inurba_marseille","lat":43.290995,"lon":5.381361,"is_reserved":false,"is_disabled":false,"rental_uris":{"android":"levelo://app?vid=820751f4-357c-401c-86dc-99c01908e6a4","ios":"levelo://app?vid=820751f4-357c-401c-86dc-99c01908e6a4"},"vehicle_type_id":"4","last_reported":1719173300,"current_range_meters":8400,"station_id":"ce4bh512rcd13ifvqe2g","pricing_plan_id":"cebpf4jnsgd1na2vs0mg"},{"bike_id":"f9083661-bf5b-436c-bd12-e1092555d4e6","system_id":"levelo_inurba_marseille","lat":43.290995,"lon":5.381361,"is_reserved":false,"is_disabled":false,"rental_uris":{"android":"levelo://app?vid=f9083661-bf5b-436c-bd12-e1092555d4e6","ios":"levelo://app?vid=f9083661-bf5b-436c-bd12-e1092555d4e6"},"vehicle_type_id":"4","last_reported":1719173300,"current_range_meters":7600,"station_id":"ce4bh512rcd13ifvqe2g","pricing_plan_id":"cebpf4jnsgd1na2vs0mg"},{"bike_id":"621f1560-7705-4b42-843e-471923c86efa","system_id":"levelo_inurba_marseille","lat":43.290995,"lon":5.381361,"is_reserved":false,"is_disabled":false,"rental_uris":{"android":"levelo://app?vid=621f1560-7705-4b42-843e-471923c86efa","ios":"levelo://app?vid=621f1560-7705-4b42-843e-471923c86efa"},"vehicle_type_id":"4","last_reported":1719173300,"current_range_meters":11200,"station_id":"ce4bh512rcd13ifvqe2g","pricing_plan_id":"cebpf4jnsgd1na2vs0mg"},{"bike_id":"d1dfdef6-021d-4f33-a580-5e8081bda377","system_id":"levelo_inurba_marseille","lat":43.290995,"lon":5.381361,"is_reserved":false,"is_disabled":false,"rental_uris":{"android":"levelo://app?vid=d1dfdef6-021d-4f33-a580-5e8081bda377","ios":"levelo://app?vid=d1dfdef6-021d-4f33-a580-5e8081bda377"},"vehicle_type_id":"4","last_reported":1719173300,"current_range_meters":29200,"station_id":"ce4bh512rcd13ifvqe2g","pricing_plan_id":"cebpf4jnsgd1na2vs0mg"},{"bike_id":"2f039eb2-3421-4a42-bd57-a9ff4e41ecf0","system_id":"levelo_inurba_marseille","lat":43.290995,"lon":5.381361,"is_reserved":false,"is_disabled":false,"rental_uris":{"android":"levelo://app?vid=2f039eb2-3421-4a42-bd57-a9ff4e41ecf0","ios":"levelo://app?vid=2f039eb2-3421-4a42-bd57-a9ff4e41ecf0"},"vehicle_type_id":"4","last_reported":1719173300,"current_range_meters":6000,"station_id":"ce4bh512rcd13ifvqe2g","pricing_plan_id":"cebpf4jnsgd1na2vs0mg"},{"bike_id":"bc1171c7-71a3-4bba-9d35-b94bc38ba6c7","system_id":"levelo_inurba_marseille","lat":43.29791,"lon":5.39338,"is_reserved":false,"is_disabled":false,"rental_uris":{"android":"levelo://app?vid=bc1171c7-71a3-4bba-9d35-b94bc38ba6c7","ios":"levelo://app?vid=bc1171c7-71a3-4bba-9d35-b94bc38ba6c7"},"vehicle_type_id":"4","last_reported":1719173300,"current_range_meters":16400,"station_id":"chh1huq6cuj3fo74tm60","pricing_plan_id":"cebpf4jnsgd1na2vs0mg"},{"bike_id":"14f32679-5ec9-4bf9-b8d4-20ac4547b251","system_id":"levelo_inurba_marseille","lat":43.29782,"lon":5.39336,"is_reserved":false,"is_disabled":false,"rental_uris":{"android":"levelo://app?vid=14f32679-5ec9-4bf9-b8d4-20ac4547b251","ios":"levelo://app?vid=14f32679-5ec9-4bf9-b8d4-20ac4547b251"},"vehicle_type_id":"4","last_reported":1719173300,"current_range_meters":30000,"station_id":"chh1huq6cuj3fo74tm60","pricing_plan_id":"cebpf4jnsgd1na2vs0mg"},{"bike_id":"30249434-21d7-4d62-bf4a-935d09000ef5","system_id":"levelo_inurba_marseille","lat":43.29786,"lon":5.39345,"is_reserved":false,"is_disabled":false,"rental_uris":{"android":"levelo://app?vid=30249434-21d7-4d62-bf4a-935d09000ef5","ios":"levelo://app?vid=30249434-21d7-4d62-bf4a-935d09000ef5"},"vehicle_type_id":"4","last_reported":1719173300,"current_range_meters":1600,"station_id":"chh1huq6cuj3fo74tm60","pricing_plan_id":"cebpf4jnsgd1na2vs0mg"},{"bike_id":"c6b0ea2e-ea7f-4252-81c7-9487d4fb4654","system_id":"levelo_inurba_marseille","lat":43.297815,"lon":5.393548,"is_reserved":false,"is_disabled":false,"rental_uris":{"android":"levelo://app?vid=c6b0ea2e-ea7f-4252-81c7-9487d4fb4654","ios":"levelo://app?vid=c6b0ea2e-ea7f-4252-81c7-9487d4fb4654"},"vehicle_type_id":"4","last_reported":1719173300,"current_range_meters":28800,"station_id":"chh1huq6cuj3fo74tm60","pricing_plan_id":"cebpf4jnsgd1na2vs0mg"},{"bike_id":"c2098c10-5384-460e-ae15-542145870b98","system_id":"levelo_inurba_marseille","lat":43.330442,"lon":5.389148,"is_reserved":false,"is_disabled":false,"rental_uris":{"android":"levelo://app?vid=c2098c10-5384-460e-ae15-542145870b98","ios":"levelo://app?vid=c2098c10-5384-460e-ae15-542145870b98"},"vehicle_type_id":"4","last_reported":1719173300,"current_range_meters":23600,"station_id":"ce4bhr92rcd13ifvqhrg","pricing_plan_id":"cebpf4jnsgd1na2vs0mg"},{"bike_id":"a61b91f4-81e8-41da-8507-a4ad2ec5f012","system_id":"levelo_inurba_marseille","lat":43.295169,"lon":5.390426,"is_reserved":false,"is_disabled":false,"rental_uris":{"android":"levelo://app?vid=a61b91f4-81e8-41da-8507-a4ad2ec5f012","ios":"levelo://app?vid=a61b91f4-81e8-41da-8507-a4ad2ec5f012"},"vehicle_type_id":"4","last_reported":1719173300,"current_range_meters":30800,"station_id":"ce4bh3p2rcd13ifvqdp0","pricing_plan_id":"cebpf4jnsgd1na2vs0mg"},{"bike_id":"139a1eee-a5dd-4fa0-b6c3-46ac48225e05","system_id":"levelo_inurba_marseille","lat":43.289741,"lon":5.378306,"is_reserved":false,"is_disabled":false,"rental_uris":{"android":"levelo://app?vid=139a1eee-a5dd-4fa0-b6c3-46ac48225e05","ios":"levelo://app?vid=139a1eee-a5dd-4fa0-b6c3-46ac48225e05"},"vehicle_type_id":"4","last_reported":1719173300,"current_range_meters":12400,"station_id":"ce4bh9p2rcd13ifvqed0","pricing_plan_id":"cebpf4jnsgd1na2vs0mg"},{"bike_id":"a459e780-ecd5-403e-b3be-865707660bcb","system_id":"levelo_inurba_marseille","lat":43.295273,"lon":5.390527,"is_reserved":false,"is_disabled":false,"rental_uris":{"android":"levelo://app?vid=a459e780-ecd5-403e-b3be-865707660bcb","ios":"levelo://app?vid=a459e780-ecd5-403e-b3be-865707660bcb"},"vehicle_type_id":"4","last_reported":1719173300,"current_range_meters":0,"station_id":"ce4bh3p2rcd13ifvqdp0","pricing_plan_id":"cebpf4jnsgd1na2vs0mg"},{"bike_id":"7cffc5ab-1d98-4b39-9271-059357023ad7","system_id":"levelo_inurba_marseille","lat":43.330443,"lon":5.390417,"is_reserved":false,"is_disabled":false,"rental_uris":{"android":"levelo://app?vid=7cffc5ab-1d98-4b39-9271-059357023ad7","ios":"levelo://app?vid=7cffc5ab-1d98-4b39-9271-059357023ad7"},"vehicle_type_id":"4","last_reported":1719173300,"current_range_meters":0,"station_id":"ce4bhr92rcd13ifvqhrg","pricing_plan_id":"cebpf4jnsgd1na2vs0mg"},{"bike_id":"e73c7388-f4a8-4d0b-86ef-59da67eae7e6","system_id":"levelo_inurba_marseille","lat":43.29026,"lon":5.38133,"is_reserved":false,"is_disabled":false,"rental_uris":{"android":"levelo://app?vid=e73c7388-f4a8-4d0b-86ef-59da67eae7e6","ios":"levelo://app?vid=e73c7388-f4a8-4d0b-86ef-59da67eae7e6"},"vehicle_type_id":"4","last_reported":1719173300,"current_range_meters":21200,"station_id":"ce4bh4p2rcd13ifvqe1g","pricing_plan_id":"cebpf4jnsgd1na2vs0mg"},{"bike_id":"0ddf48ad-c6d9-4111-a86d-494adf5667f3","system_id":"levelo_inurba_marseille","lat":43.28856,"lon":5.358371,"is_reserved":false,"is_disabled":false,"rental_uris":{"android":"levelo://app?vid=0ddf48ad-c6d9-4111-a86d-494adf5667f3","ios":"levelo://app?vid=0ddf48ad-c6d9-4111-a86d-494adf5667f3"},"vehicle_type_id":"4","last_reported":1719173300,"current_range_meters":10400,"station_id":"ce4bhb12rcd13ifvqem0","pricing_plan_id":"cebpf4jnsgd1na2vs0mg"},{"bike_id":"05092e03-5cef-41c3-9575-df5db7507ebd","system_id":"levelo_inurba_marseille","lat":43.33739,"lon":5.37464,"is_reserved":false,"is_disabled":false,"rental_uris":{"android":"levelo://app?vid=05092e03-5cef-41c3-9575-df5db7507ebd","ios":"levelo://app?vid=05092e03-5cef-41c3-9575-df5db7507ebd"},"vehicle_type_id":"4","last_reported":1719173300,"current_range_meters":14800,"station_id":"","pricing_plan_id":"cebpf4jnsgd1na2vs0mg"},{"bike_id":"7d278bb0-b046-4f8d-a1d8-d543d2d6d0f4","system_id":"levelo_inurba_marseille","lat":43.312609,"lon":5.401662,"is_reserved":false,"is_disabled":false,"rental_uris":{"android":"levelo://app?vid=7d278bb0-b046-4f8d-a1d8-d543d2d6d0f4","ios":"levelo://app?vid=7d278bb0-b046-4f8d-a1d8-d543d2d6d0f4"},"vehicle_type_id":"4","last_reported":1719173300,"current_range_meters":27200,"station_id":"ce4bh092rcd13ifvqd30","pricing_plan_id":"cebpf4jnsgd1na2vs0mg"},{"bike_id":"2b1167d7-b9ff-418b-91d2-05149ca47294","system_id":"levelo_inurba_marseille","lat":43.312609,"lon":5.401662,"is_reserved":false,"is_disabled":false,"rental_uris":{"android":"levelo://app?vid=2b1167d7-b9ff-418b-91d2-05149ca47294","ios":"levelo://app?vid=2b1167d7-b9ff-418b-91d2-05149ca47294"},"vehicle_type_id":"4","last_reported":1719173300,"current_range_meters":6400,"station_id":"ce4bh092rcd13ifvqd30","pricing_plan_id":"cebpf4jnsgd1na2vs0mg"},{"bike_id":"5b5cae36-09e1-4bd0-aeb4-83d37c064d16","system_id":"levelo_inurba_marseille","lat":43.33751,"lon":5.37457,"is_reserved":false,"is_disabled":false,"rental_uris":{"android":"levelo://app?vid=5b5cae36-09e1-4bd0-aeb4-83d37c064d16","ios":"levelo://app?vid=5b5cae36-09e1-4bd0-aeb4-83d37c064d16"},"vehicle_type_id":"4","last_reported":1719173300,"current_range_meters":15600,"station_id":"","pricing_plan_id":"cebpf4jnsgd1na2vs0mg"},{"bike_id":"a00c218c-138a-4388-aca4-2952a6961815","system_id":"levelo_inurba_marseille","lat":43.337479,"lon":5.37488,"is_reserved":false,"is_disabled":false,"rental_uris":{"android":"levelo://app?vid=a00c218c-138a-4388-aca4-2952a6961815","ios":"levelo://app?vid=a00c218c-138a-4388-aca4-2952a6961815"},"vehicle_type_id":"4","last_reported":1719173300,"current_range_meters":28400,"station_id":"","pricing_plan_id":"cebpf4jnsgd1na2vs0mg"},{"bike_id":"0e11bbab-a5d9-4098-a6f1-624d89f27c59","system_id":"levelo_inurba_marseille","lat":43.337572,"lon":5.374546,"is_reserved":false,"is_disabled":false,"rental_uris":{"android":"levelo://app?vid=0e11bbab-a5d9-4098-a6f1-624d89f27c59","ios":"levelo://app?vid=0e11bbab-a5d9-4098-a6f1-624d89f27c59"},"vehicle_type_id":"4","last_reported":1719173300,"current_range_meters":19200,"station_id":"","pricing_plan_id":"cebpf4jnsgd1na2vs0mg"},{"bike_id":"66938a7b-794c-400a-9e93-4915ba9a6ecf","system_id":"levelo_inurba_marseille","lat":43.306412,"lon":5.401035,"is_reserved":false,"is_disabled":false,"rental_uris":{"android":"levelo://app?vid=66938a7b-794c-400a-9e93-4915ba9a6ecf","ios":"levelo://app?vid=66938a7b-794c-400a-9e93-4915ba9a6ecf"},"vehicle_type_id":"4","last_reported":1719173300,"current_range_meters":29200,"station_id":"ce4bh112rcd13ifvqda0","pricing_plan_id":"cebpf4jnsgd1na2vs0mg"},{"bike_id":"db534928-e6a2-47cc-a852-558fe66ed50c","system_id":"levelo_inurba_marseille","lat":43.337583,"lon":5.374633,"is_reserved":false,"is_disabled":false,"rental_uris":{"android":"levelo://app?vid=db534928-e6a2-47cc-a852-558fe66ed50c","ios":"levelo://app?vid=db534928-e6a2-47cc-a852-558fe66ed50c"},"vehicle_type_id":"4","last_reported":1719173300,"current_range_meters":17600,"station_id":"","pricing_plan_id":"cebpf4jnsgd1na2vs0mg"},{"bike_id":"e7be790b-07e4-40f3-b60f-da683b157943","system_id":"levelo_inurba_marseille","lat":43.33033,"lon":5.39238,"is_reserved":false,"is_disabled":false,"rental_uris":{"android":"levelo://app?vid=e7be790b-07e4-40f3-b60f-da683b157943","ios":"levelo://app?vid=e7be790b-07e4-40f3-b60f-da683b157943"},"vehicle_type_id":"4","last_reported":1719173300,"current_range_meters":14000,"station_id":"","pricing_plan_id":"cebpf4jnsgd1na2vs0mg"},{"bike_id":"a77bf3f1-dc55-4e35-8fe0-6292cee970ef","system_id":"levelo_inurba_marseille","lat":43.33035,"lon":5.39239,"is_reserved":false,"is_disabled":false,"rental_uris":{"android":"levelo://app?vid=a77bf3f1-dc55-4e35-8fe0-6292cee970ef","ios":"levelo://app?vid=a77bf3f1-dc55-4e35-8fe0-6292cee970ef"},"vehicle_type_id":"4","last_reported":1719173300,"current_range_meters":16800,"station_id":"","pricing_plan_id":"cebpf4jnsgd1na2vs0mg"},{"bike_id":"cd49203c-c7b6-43bb-96d7-e31869e592fc","system_id":"levelo_inurba_marseille","lat":43.301117,"lon":5.398795,"is_reserved":false,"is_disabled":false,"rental_uris":{"android":"levelo://app?vid=cd49203c-c7b6-43bb-96d7-e31869e592fc","ios":"levelo://app?vid=cd49203c-c7b6-43bb-96d7-e31869e592fc"},"vehicle_type_id":"4","last_reported":1719173300,"current_range_meters":1200,"station_id":"ce4bh0h2rcd13ifvqd40","pricing_plan_id":"cebpf4jnsgd1na2vs0mg"},{"bike_id":"5235424a-042f-4d81-a370-16d16b7f718c","system_id":"levelo_inurba_marseille","lat":43.28727,"lon":5.36078,"is_reserved":false,"is_disabled":false,"rental_uris":{"android":"levelo://app?vid=5235424a-042f-4d81-a370-16d16b7f718c","ios":"levelo://app?vid=5235424a-042f-4d81-a370-16d16b7f718c"},"vehicle_type_id":"4","last_reported":1719173300,"current_range_meters":20000,"station_id":"cki0cbj6b192h4jlfktg","pricing_plan_id":"cebpf4jnsgd1na2vs0mg"},{"bike_id":"88a17bac-0942-4299-aa61-7e6bae697a87","system_id":"levelo_inurba_marseille","lat":43.28706,"lon":5.373709,"is_reserved":false,"is_disabled":false,"rental_uris":{"android":"levelo://app?vid=88a17bac-0942-4299-aa61-7e6bae697a87","ios":"levelo://app?vid=88a17bac-0942-4299-aa61-7e6bae697a87"},"vehicle_type_id":"4","last_reported":1719173300,"current_range_meters":27600,"station_id":"ce4bh3p2rcd13ifvqdq0","pricing_plan_id":"cebpf4jnsgd1na2vs0mg"},{"bike_id":"2e6d7982-472b-4e9f-8d06-913488611558","system_id":"levelo_inurba_marseille","lat":43.286961,"lon":5.373785,"is_reserved":false,"is_disabled":false,"rental_uris":{"android":"levelo://app?vid=2e6d7982-472b-4e9f-8d06-913488611558","ios":"levelo://app?vid=2e6d7982-472b-4e9f-8d06-913488611558"},"vehicle_type_id":"4","last_reported":1719173300,"current_range_meters":3200,"station_id":"ce4bh3p2rcd13ifvqdq0","pricing_plan_id":"cebpf4jnsgd1na2vs0mg"},{"bike_id":"5c755f8e-8966-4421-a406-340ed3ca5f8a","system_id":"levelo_inurba_marseille","lat":43.298681,"lon":5.397225,"is_reserved":false,"is_disabled":false,"rental_uris":{"android":"levelo://app?vid=5c755f8e-8966-4421-a406-340ed3ca5f8a","ios":"levelo://app?vid=5c755f8e-8966-4421-a406-340ed3ca5f8a"},"vehicle_type_id":"4","last_reported":1719173300,"current_range_meters":6800,"station_id":"ce4bh0h2rcd13ifvqd50","pricing_plan_id":"cebpf4jnsgd1na2vs0mg"},{"bike_id":"e36a65fe-97ff-4db1-bb97-c1de3ecb95cb","system_id":"levelo_inurba_marseille","lat":43.286961,"lon":5.373785,"is_reserved":false,"is_disabled":false,"rental_uris":{"android":"levelo://app?vid=e36a65fe-97ff-4db1-bb97-c1de3ecb95cb","ios":"levelo://app?vid=e36a65fe-97ff-4db1-bb97-c1de3ecb95cb"},"vehicle_type_id":"4","last_reported":1719173300,"current_range_meters":23200,"station_id":"ce4bh3p2rcd13ifvqdq0","pricing_plan_id":"cebpf4jnsgd1na2vs0mg"},{"bike_id":"7e1f5586-e7c9-4965-a7f4-e8f2f69b0f63","system_id":"levelo_inurba_marseille","lat":43.28702,"lon":5.37381,"is_reserved":false,"is_disabled":false,"rental_uris":{"android":"levelo://app?vid=7e1f5586-e7c9-4965-a7f4-e8f2f69b0f63","ios":"levelo://app?vid=7e1f5586-e7c9-4965-a7f4-e8f2f69b0f63"},"vehicle_type_id":"4","last_reported":1719173300,"current_range_meters":28800,"station_id":"ce4bh3p2rcd13ifvqdq0","pricing_plan_id":"cebpf4jnsgd1na2vs0mg"},{"bike_id":"650640cc-a5ac-4c80-89e7-defb86a480ad","system_id":"levelo_inurba_marseille","lat":43.286961,"lon":5.373785,"is_reserved":false,"is_disabled":false,"rental_uris":{"android":"levelo://app?vid=650640cc-a5ac-4c80-89e7-defb86a480ad","ios":"levelo://app?vid=650640cc-a5ac-4c80-89e7-defb86a480ad"},"vehicle_type_id":"4","last_reported":1719173300,"current_range_meters":30800,"station_id":"ce4bh3p2rcd13ifvqdq0","pricing_plan_id":"cebpf4jnsgd1na2vs0mg"},{"bike_id":"d8c16bb1-0f4a-4c48-b4eb-7059432fefc1","system_id":"levelo_inurba_marseille","lat":43.286961,"lon":5.373785,"is_reserved":false,"is_disabled":false,"rental_uris":{"android":"levelo://app?vid=d8c16bb1-0f4a-4c48-b4eb-7059432fefc1","ios":"levelo://app?vid=d8c16bb1-0f4a-4c48-b4eb-7059432fefc1"},"vehicle_type_id":"4","last_reported":1719173300,"current_range_meters":15200,"station_id":"ce4bh3p2rcd13ifvqdq0","pricing_plan_id":"cebpf4jnsgd1na2vs0mg"},{"bike_id":"4107874f-6f88-48d4-80e2-2797be0329a3","system_id":"levelo_inurba_marseille","lat":43.28703,"lon":5.37393,"is_reserved":false,"is_disabled":false,"rental_uris":{"android":"levelo://app?vid=4107874f-6f88-48d4-80e2-2797be0329a3","ios":"levelo://app?vid=4107874f-6f88-48d4-80e2-2797be0329a3"},"vehicle_type_id":"4","last_reported":1719173300,"current_range_meters":29600,"station_id":"ce4bh3p2rcd13ifvqdq0","pricing_plan_id":"cebpf4jnsgd1na2vs0mg"},{"bike_id":"f9c5c6cc-e349-42ce-807c-b393a3dde394","system_id":"levelo_inurba_marseille","lat":43.28695,"lon":5.373455,"is_reserved":false,"is_disabled":false,"rental_uris":{"android":"levelo://app?vid=f9c5c6cc-e349-42ce-807c-b393a3dde394","ios":"levelo://app?vid=f9c5c6cc-e349-42ce-807c-b393a3dde394"},"vehicle_type_id":"4","last_reported":1719173300,"current_range_meters":800,"station_id":"ce4bh3p2rcd13ifvqdq0","pricing_plan_id":"cebpf4jnsgd1na2vs0mg"},{"bike_id":"f941bab5-1762-459c-a207-730567e850c9","system_id":"levelo_inurba_marseille","lat":43.286952,"lon":5.373871,"is_reserved":false,"is_disabled":false,"rental_uris":{"android":"levelo://app?vid=f941bab5-1762-459c-a207-730567e850c9","ios":"levelo://app?vid=f941bab5-1762-459c-a207-730567e850c9"},"vehicle_type_id":"4","last_reported":1719173300,"current_range_meters":30400,"station_id":"ce4bh3p2rcd13ifvqdq0","pricing_plan_id":"cebpf4jnsgd1na2vs0mg"},{"bike_id":"5411cfd4-6cce-4b86-a985-53c4afe31c33","system_id":"levelo_inurba_marseille","lat":43.295196,"lon":5.39397,"is_reserved":false,"is_disabled":false,"rental_uris":{"android":"levelo://app?vid=5411cfd4-6cce-4b86-a985-53c4afe31c33","ios":"levelo://app?vid=5411cfd4-6cce-4b86-a985-53c4afe31c33"},"vehicle_type_id":"4","last_reported":1719173300,"current_range_meters":10800,"station_id":"ce4bh292rcd13ifvqdf0","pricing_plan_id":"cebpf4jnsgd1na2vs0mg"},{"bike_id":"6034421d-bc61-4cf1-a55e-ee7ee5897aca","system_id":"levelo_inurba_marseille","lat":43.295196,"lon":5.39397,"is_reserved":false,"is_disabled":false,"rental_uris":{"android":"levelo://app?vid=6034421d-bc61-4cf1-a55e-ee7ee5897aca","ios":"levelo://app?vid=6034421d-bc61-4cf1-a55e-ee7ee5897aca"},"vehicle_type_id":"4","last_reported":1719173300,"current_range_meters":23200,"station_id":"ce4bh292rcd13ifvqdf0","pricing_plan_id":"cebpf4jnsgd1na2vs0mg"},{"bike_id":"078ba68f-7d4f-48ee-b152-089a383b5795","system_id":"levelo_inurba_marseille","lat":43.295194,"lon":5.39397,"is_reserved":false,"is_disabled":false,"rental_uris":{"android":"levelo://app?vid=078ba68f-7d4f-48ee-b152-089a383b5795","ios":"levelo://app?vid=078ba68f-7d4f-48ee-b152-089a383b5795"},"vehicle_type_id":"4","last_reported":1719173300,"current_range_meters":0,"station_id":"ce4bh292rcd13ifvqdf0","pricing_plan_id":"cebpf4jnsgd1na2vs0mg"},{"bike_id":"bdc38747-b941-4eb8-9c40-5888feeb9299","system_id":"levelo_inurba_marseille","lat":43.290336,"lon":5.386425,"is_reserved":false,"is_disabled":false,"rental_uris":{"android":"levelo://app?vid=bdc38747-b941-4eb8-9c40-5888feeb9299","ios":"levelo://app?vid=bdc38747-b941-4eb8-9c40-5888feeb9299"},"vehicle_type_id":"4","last_reported":1719173300,"current_range_meters":14800,"station_id":"ce4bh4p2rcd13ifvqe0g","pricing_plan_id":"cebpf4jnsgd1na2vs0mg"},{"bike_id":"5142af72-1b5b-4812-9805-3296c2dcc7fd","system_id":"levelo_inurba_marseille","lat":43.289307,"lon":5.38406,"is_reserved":false,"is_disabled":false,"rental_uris":{"android":"levelo://app?vid=5142af72-1b5b-4812-9805-3296c2dcc7fd","ios":"levelo://app?vid=5142af72-1b5b-4812-9805-3296c2dcc7fd"},"vehicle_type_id":"4","last_reported":1719173300,"current_range_meters":0,"station_id":"ce4bh612rcd13ifvqe6g","pricing_plan_id":"cebpf4jnsgd1na2vs0mg"},{"bike_id":"caff1e49-3137-47bb-ac9d-b56728e4586c","system_id":"levelo_inurba_marseille","lat":43.302759,"lon":5.400793,"is_reserved":false,"is_disabled":false,"rental_uris":{"android":"levelo://app?vid=caff1e49-3137-47bb-ac9d-b56728e4586c","ios":"levelo://app?vid=caff1e49-3137-47bb-ac9d-b56728e4586c"},"vehicle_type_id":"4","last_reported":1719173300,"current_range_meters":12400,"station_id":"ce4bgvh2rcd13ifvqcs0","pricing_plan_id":"cebpf4jnsgd1na2vs0mg"},{"bike_id":"eb78fdee-9312-476a-8b2d-05d786555aa3","system_id":"levelo_inurba_marseille","lat":43.290336,"lon":5.386425,"is_reserved":false,"is_disabled":false,"rental_uris":{"android":"levelo://app?vid=eb78fdee-9312-476a-8b2d-05d786555aa3","ios":"levelo://app?vid=eb78fdee-9312-476a-8b2d-05d786555aa3"},"vehicle_type_id":"4","last_reported":1719173300,"current_range_meters":800,"station_id":"ce4bh4p2rcd13ifvqe0g","pricing_plan_id":"cebpf4jnsgd1na2vs0mg"},{"bike_id":"5650bab4-49b8-471c-bda0-264e98b4b588","system_id":"levelo_inurba_marseille","lat":43.290336,"lon":5.386425,"is_reserved":false,"is_disabled":false,"rental_uris":{"android":"levelo://app?vid=5650bab4-49b8-471c-bda0-264e98b4b588","ios":"levelo://app?vid=5650bab4-49b8-471c-bda0-264e98b4b588"},"vehicle_type_id":"4","last_reported":1719173300,"current_range_meters":3200,"station_id":"ce4bh4p2rcd13ifvqe0g","pricing_plan_id":"cebpf4jnsgd1na2vs0mg"},{"bike_id":"dfc2b67f-868d-473c-ae8b-e7be19ae87be","system_id":"levelo_inurba_marseille","lat":43.289307,"lon":5.38406,"is_reserved":false,"is_disabled":false,"rental_uris":{"android":"levelo://app?vid=dfc2b67f-868d-473c-ae8b-e7be19ae87be","ios":"levelo://app?vid=dfc2b67f-868d-473c-ae8b-e7be19ae87be"},"vehicle_type_id":"4","last_reported":1719173300,"current_range_meters":16800,"station_id":"ce4bh612rcd13ifvqe6g","pricing_plan_id":"cebpf4jnsgd1na2vs0mg"},{"bike_id":"fc8a6dc8-2737-4c52-a657-4e95b2118ae8","system_id":"levelo_inurba_marseille","lat":43.29028,"lon":5.38645,"is_reserved":false,"is_disabled":false,"rental_uris":{"android":"levelo://app?vid=fc8a6dc8-2737-4c52-a657-4e95b2118ae8","ios":"levelo://app?vid=fc8a6dc8-2737-4c52-a657-4e95b2118ae8"},"vehicle_type_id":"4","last_reported":1719173300,"current_range_meters":0,"station_id":"ce4bh4p2rcd13ifvqe0g","pricing_plan_id":"cebpf4jnsgd1na2vs0mg"},{"bike_id":"2dc81330-47d3-4917-ae4c-3a2a922626d3","system_id":"levelo_inurba_marseille","lat":43.290336,"lon":5.386425,"is_reserved":false,"is_disabled":false,"rental_uris":{"android":"levelo://app?vid=2dc81330-47d3-4917-ae4c-3a2a922626d3","ios":"levelo://app?vid=2dc81330-47d3-4917-ae4c-3a2a922626d3"},"vehicle_type_id":"4","last_reported":1719173300,"current_range_meters":9200,"station_id":"ce4bh4p2rcd13ifvqe0g","pricing_plan_id":"cebpf4jnsgd1na2vs0mg"},{"bike_id":"f67c0276-c86d-4b28-b13e-8065e89d97b1","system_id":"levelo_inurba_marseille","lat":43.29023,"lon":5.38639,"is_reserved":false,"is_disabled":false,"rental_uris":{"android":"levelo://app?vid=f67c0276-c86d-4b28-b13e-8065e89d97b1","ios":"levelo://app?vid=f67c0276-c86d-4b28-b13e-8065e89d97b1"},"vehicle_type_id":"4","last_reported":1719173300,"current_range_meters":0,"station_id":"ce4bh4p2rcd13ifvqe0g","pricing_plan_id":"cebpf4jnsgd1na2vs0mg"},{"bike_id":"98251078-f0c8-4877-8a9e-fcfde0d4761e","system_id":"levelo_inurba_marseille","lat":43.290268,"lon":5.386478,"is_reserved":false,"is_disabled":false,"rental_uris":{"android":"levelo://app?vid=98251078-f0c8-4877-8a9e-fcfde0d4761e","ios":"levelo://app?vid=98251078-f0c8-4877-8a9e-fcfde0d4761e"},"vehicle_type_id":"4","last_reported":1719173300,"current_range_meters":0,"station_id":"ce4bh4p2rcd13ifvqe0g","pricing_plan_id":"cebpf4jnsgd1na2vs0mg"},{"bike_id":"902c0c1b-1792-4698-962a-2f45f9ffe028","system_id":"levelo_inurba_marseille","lat":43.302759,"lon":5.400793,"is_reserved":false,"is_disabled":false,"rental_uris":{"android":"levelo://app?vid=902c0c1b-1792-4698-962a-2f45f9ffe028","ios":"levelo://app?vid=902c0c1b-1792-4698-962a-2f45f9ffe028"},"vehicle_type_id":"4","last_reported":1719173300,"current_range_meters":18800,"station_id":"ce4bgvh2rcd13ifvqcs0","pricing_plan_id":"cebpf4jnsgd1na2vs0mg"},{"bike_id":"df10cec6-a67d-43e2-b777-d23c1d8e749c","system_id":"levelo_inurba_marseille","lat":43.286039,"lon":5.370679,"is_reserved":false,"is_disabled":false,"rental_uris":{"android":"levelo://app?vid=df10cec6-a67d-43e2-b777-d23c1d8e749c","ios":"levelo://app?vid=df10cec6-a67d-43e2-b777-d23c1d8e749c"},"vehicle_type_id":"4","last_reported":1719173300,"current_range_meters":23200,"station_id":"ce4bht12rcd13ifvqi60","pricing_plan_id":"cebpf4jnsgd1na2vs0mg"},{"bike_id":"6a736f0e-39a3-4a85-86bf-38025940d08e","system_id":"levelo_inurba_marseille","lat":43.286039,"lon":5.370681,"is_reserved":false,"is_disabled":false,"rental_uris":{"android":"levelo://app?vid=6a736f0e-39a3-4a85-86bf-38025940d08e","ios":"levelo://app?vid=6a736f0e-39a3-4a85-86bf-38025940d08e"},"vehicle_type_id":"4","last_reported":1719173300,"current_range_meters":2000,"station_id":"ce4bht12rcd13ifvqi60","pricing_plan_id":"cebpf4jnsgd1na2vs0mg"},{"bike_id":"b885254b-d3d7-4257-a723-bf4587a8f409","system_id":"levelo_inurba_marseille","lat":43.287184,"lon":5.37937,"is_reserved":false,"is_disabled":false,"rental_uris":{"android":"levelo://app?vid=b885254b-d3d7-4257-a723-bf4587a8f409","ios":"levelo://app?vid=b885254b-d3d7-4257-a723-bf4587a8f409"},"vehicle_type_id":"4","last_reported":1719173300,"current_range_meters":30800,"station_id":"ce4bh9p2rcd13ifvqec0","pricing_plan_id":"cebpf4jnsgd1na2vs0mg"},{"bike_id":"e5cf39f2-4b04-4c3d-9c86-b199da7226a0","system_id":"levelo_inurba_marseille","lat":43.287185,"lon":5.379373,"is_reserved":false,"is_disabled":false,"rental_uris":{"android":"levelo://app?vid=e5cf39f2-4b04-4c3d-9c86-b199da7226a0","ios":"levelo://app?vid=e5cf39f2-4b04-4c3d-9c86-b199da7226a0"},"vehicle_type_id":"4","last_reported":1719173300,"current_range_meters":16000,"station_id":"ce4bh9p2rcd13ifvqec0","pricing_plan_id":"cebpf4jnsgd1na2vs0mg"},{"bike_id":"c4000610-7cf5-49f9-9a67-1d8d1e6bd7eb","system_id":"levelo_inurba_marseille","lat":43.287185,"lon":5.379373,"is_reserved":false,"is_disabled":false,"rental_uris":{"android":"levelo://app?vid=c4000610-7cf5-49f9-9a67-1d8d1e6bd7eb","ios":"levelo://app?vid=c4000610-7cf5-49f9-9a67-1d8d1e6bd7eb"},"vehicle_type_id":"4","last_reported":1719173300,"current_range_meters":15200,"station_id":"ce4bh9p2rcd13ifvqec0","pricing_plan_id":"cebpf4jnsgd1na2vs0mg"},{"bike_id":"bef1c7e6-6fcd-43fd-9958-98088267d624","system_id":"levelo_inurba_marseille","lat":43.31694,"lon":5.40475,"is_reserved":false,"is_disabled":false,"rental_uris":{"android":"levelo://app?vid=bef1c7e6-6fcd-43fd-9958-98088267d624","ios":"levelo://app?vid=bef1c7e6-6fcd-43fd-9958-98088267d624"},"vehicle_type_id":"4","last_reported":1719173300,"current_range_meters":0,"station_id":"ce4bh012rcd13ifvqd00","pricing_plan_id":"cebpf4jnsgd1na2vs0mg"},{"bike_id":"ce23a1cf-88af-4250-889d-88d2bd8723c3","system_id":"levelo_inurba_marseille","lat":43.291994,"lon":5.392907,"is_reserved":false,"is_disabled":false,"rental_uris":{"android":"levelo://app?vid=ce23a1cf-88af-4250-889d-88d2bd8723c3","ios":"levelo://app?vid=ce23a1cf-88af-4250-889d-88d2bd8723c3"},"vehicle_type_id":"4","last_reported":1719173300,"current_range_meters":0,"station_id":"ce4bh192rcd13ifvqdd0","pricing_plan_id":"cebpf4jnsgd1na2vs0mg"},{"bike_id":"3dd6c79b-c99e-46db-9e5f-8bc80cfb3df8","system_id":"levelo_inurba_marseille","lat":43.291994,"lon":5.392907,"is_reserved":false,"is_disabled":false,"rental_uris":{"android":"levelo://app?vid=3dd6c79b-c99e-46db-9e5f-8bc80cfb3df8","ios":"levelo://app?vid=3dd6c79b-c99e-46db-9e5f-8bc80cfb3df8"},"vehicle_type_id":"4","last_reported":1719173300,"current_range_meters":16000,"station_id":"ce4bh192rcd13ifvqdd0","pricing_plan_id":"cebpf4jnsgd1na2vs0mg"},{"bike_id":"ab8ebddf-e8c8-4d49-a998-b6a6124097e0","system_id":"levelo_inurba_marseille","lat":43.291994,"lon":5.392907,"is_reserved":false,"is_disabled":false,"rental_uris":{"android":"levelo://app?vid=ab8ebddf-e8c8-4d49-a998-b6a6124097e0","ios":"levelo://app?vid=ab8ebddf-e8c8-4d49-a998-b6a6124097e0"},"vehicle_type_id":"4","last_reported":1719173300,"current_range_meters":2400,"station_id":"ce4bh192rcd13ifvqdd0","pricing_plan_id":"cebpf4jnsgd1na2vs0mg"},{"bike_id":"329b79b4-94a4-4280-9124-4cab10ddc26a","system_id":"levelo_inurba_marseille","lat":43.28455,"lon":5.3589,"is_reserved":false,"is_disabled":false,"rental_uris":{"android":"levelo://app?vid=329b79b4-94a4-4280-9124-4cab10ddc26a","ios":"levelo://app?vid=329b79b4-94a4-4280-9124-4cab10ddc26a"},"vehicle_type_id":"4","last_reported":1719173300,"current_range_meters":23600,"station_id":"ce4bhah2rcd13ifvqei0","pricing_plan_id":"cebpf4jnsgd1na2vs0mg"},{"bike_id":"caef7251-4167-4bd1-823c-7883c79c863b","system_id":"levelo_inurba_marseille","lat":43.28455,"lon":5.358873,"is_reserved":false,"is_disabled":false,"rental_uris":{"android":"levelo://app?vid=caef7251-4167-4bd1-823c-7883c79c863b","ios":"levelo://app?vid=caef7251-4167-4bd1-823c-7883c79c863b"},"vehicle_type_id":"4","last_reported":1719173300,"current_range_meters":28800,"station_id":"ce4bhah2rcd13ifvqei0","pricing_plan_id":"cebpf4jnsgd1na2vs0mg"},{"bike_id":"0dbffdbc-8dbe-4404-b7c3-a5a029d2ff7a","system_id":"levelo_inurba_marseille","lat":43.285856,"lon":5.350771,"is_reserved":false,"is_disabled":false,"rental_uris":{"android":"levelo://app?vid=0dbffdbc-8dbe-4404-b7c3-a5a029d2ff7a","ios":"levelo://app?vid=0dbffdbc-8dbe-4404-b7c3-a5a029d2ff7a"},"vehicle_type_id":"4","last_reported":1719173300,"current_range_meters":17200,"station_id":"ce4bhch2rcd13ifvqeug","pricing_plan_id":"cebpf4jnsgd1na2vs0mg"},{"bike_id":"8943ebd0-ea71-46af-9994-07fe62f5fd56","system_id":"levelo_inurba_marseille","lat":43.283998,"lon":5.375062,"is_reserved":false,"is_disabled":false,"rental_uris":{"android":"levelo://app?vid=8943ebd0-ea71-46af-9994-07fe62f5fd56","ios":"levelo://app?vid=8943ebd0-ea71-46af-9994-07fe62f5fd56"},"vehicle_type_id":"4","last_reported":1719173300,"current_range_meters":24400,"station_id":"ce4bh412rcd13ifvqds0","pricing_plan_id":"cebpf4jnsgd1na2vs0mg"},{"bike_id":"202be72d-54dc-4578-9d8a-17aa075a4fb3","system_id":"levelo_inurba_marseille","lat":43.283998,"lon":5.375062,"is_reserved":false,"is_disabled":false,"rental_uris":{"android":"levelo://app?vid=202be72d-54dc-4578-9d8a-17aa075a4fb3","ios":"levelo://app?vid=202be72d-54dc-4578-9d8a-17aa075a4fb3"},"vehicle_type_id":"4","last_reported":1719173300,"current_range_meters":3200,"station_id":"ce4bh412rcd13ifvqds0","pricing_plan_id":"cebpf4jnsgd1na2vs0mg"},{"bike_id":"6b48bba4-ed15-4108-ab2a-d2eccdcea94e","system_id":"levelo_inurba_marseille","lat":43.295713,"lon":5.399639,"is_reserved":false,"is_disabled":false,"rental_uris":{"android":"levelo://app?vid=6b48bba4-ed15-4108-ab2a-d2eccdcea94e","ios":"levelo://app?vid=6b48bba4-ed15-4108-ab2a-d2eccdcea94e"},"vehicle_type_id":"4","last_reported":1719173300,"current_range_meters":26400,"station_id":"ce4bh312rcd13ifvqdj0","pricing_plan_id":"cebpf4jnsgd1na2vs0mg"},{"bike_id":"20cdc5f4-1f9f-4022-a233-20a7776f330c","system_id":"levelo_inurba_marseille","lat":43.295713,"lon":5.399639,"is_reserved":false,"is_disabled":false,"rental_uris":{"android":"levelo://app?vid=20cdc5f4-1f9f-4022-a233-20a7776f330c","ios":"levelo://app?vid=20cdc5f4-1f9f-4022-a233-20a7776f330c"},"vehicle_type_id":"4","last_reported":1719173300,"current_range_meters":4400,"station_id":"ce4bh312rcd13ifvqdj0","pricing_plan_id":"cebpf4jnsgd1na2vs0mg"},{"bike_id":"2924132e-22a2-4090-b7d7-feaf700da515","system_id":"levelo_inurba_marseille","lat":43.286595,"lon":5.386795,"is_reserved":false,"is_disabled":false,"rental_uris":{"android":"levelo://app?vid=2924132e-22a2-4090-b7d7-feaf700da515","ios":"levelo://app?vid=2924132e-22a2-4090-b7d7-feaf700da515"},"vehicle_type_id":"4","last_reported":1719173300,"current_range_meters":2800,"station_id":"ce4bh492rcd13ifvqdug","pricing_plan_id":"cebpf4jnsgd1na2vs0mg"},{"bike_id":"9b935e34-3f22-49bc-9ab5-872d209684dc","system_id":"levelo_inurba_marseille","lat":43.299569,"lon":5.403322,"is_reserved":false,"is_disabled":false,"rental_uris":{"android":"levelo://app?vid=9b935e34-3f22-49bc-9ab5-872d209684dc","ios":"levelo://app?vid=9b935e34-3f22-49bc-9ab5-872d209684dc"},"vehicle_type_id":"4","last_reported":1719173300,"current_range_meters":22800,"station_id":"","pricing_plan_id":"cebpf4jnsgd1na2vs0mg"},{"bike_id":"f37fe84b-ed85-4bbd-a42c-a62e62ee8c71","system_id":"levelo_inurba_marseille","lat":43.283498,"lon":5.380948,"is_reserved":false,"is_disabled":false,"rental_uris":{"android":"levelo://app?vid=f37fe84b-ed85-4bbd-a42c-a62e62ee8c71","ios":"levelo://app?vid=f37fe84b-ed85-4bbd-a42c-a62e62ee8c71"},"vehicle_type_id":"4","last_reported":1719173300,"current_range_meters":2800,"station_id":"ce4bh412rcd13ifvqdr0","pricing_plan_id":"cebpf4jnsgd1na2vs0mg"},{"bike_id":"e3fe3699-a148-4876-b05b-518084263a4d","system_id":"levelo_inurba_marseille","lat":43.286595,"lon":5.386795,"is_reserved":false,"is_disabled":false,"rental_uris":{"android":"levelo://app?vid=e3fe3699-a148-4876-b05b-518084263a4d","ios":"levelo://app?vid=e3fe3699-a148-4876-b05b-518084263a4d"},"vehicle_type_id":"4","last_reported":1719173300,"current_range_meters":9600,"station_id":"ce4bh492rcd13ifvqdug","pricing_plan_id":"cebpf4jnsgd1na2vs0mg"},{"bike_id":"054daca3-c5d8-4a1f-b02d-2334f13c9753","system_id":"levelo_inurba_marseille","lat":43.286595,"lon":5.386795,"is_reserved":false,"is_disabled":false,"rental_uris":{"android":"levelo://app?vid=054daca3-c5d8-4a1f-b02d-2334f13c9753","ios":"levelo://app?vid=054daca3-c5d8-4a1f-b02d-2334f13c9753"},"vehicle_type_id":"4","last_reported":1719173300,"current_range_meters":9600,"station_id":"ce4bh492rcd13ifvqdug","pricing_plan_id":"cebpf4jnsgd1na2vs0mg"},{"bike_id":"dd05cf9b-f849-4d53-ad71-f6bf7b318113","system_id":"levelo_inurba_marseille","lat":43.319179,"lon":5.407725,"is_reserved":false,"is_disabled":false,"rental_uris":{"android":"levelo://app?vid=dd05cf9b-f849-4d53-ad71-f6bf7b318113","ios":"levelo://app?vid=dd05cf9b-f849-4d53-ad71-f6bf7b318113"},"vehicle_type_id":"4","last_reported":1719173300,"current_range_meters":8000,"station_id":"ce4bhq12rcd13ifvqhig","pricing_plan_id":"cebpf4jnsgd1na2vs0mg"},{"bike_id":"654c6902-4ef7-47f4-8d22-28a6f94f260e","system_id":"levelo_inurba_marseille","lat":43.319179,"lon":5.407725,"is_reserved":false,"is_disabled":false,"rental_uris":{"android":"levelo://app?vid=654c6902-4ef7-47f4-8d22-28a6f94f260e","ios":"levelo://app?vid=654c6902-4ef7-47f4-8d22-28a6f94f260e"},"vehicle_type_id":"4","last_reported":1719173300,"current_range_meters":4400,"station_id":"ce4bhq12rcd13ifvqhig","pricing_plan_id":"cebpf4jnsgd1na2vs0mg"},{"bike_id":"0e974e86-d3ac-411b-80c8-2ca262379aeb","system_id":"levelo_inurba_marseille","lat":43.29468,"lon":5.400058,"is_reserved":false,"is_disabled":false,"rental_uris":{"android":"levelo://app?vid=0e974e86-d3ac-411b-80c8-2ca262379aeb","ios":"levelo://app?vid=0e974e86-d3ac-411b-80c8-2ca262379aeb"},"vehicle_type_id":"4","last_reported":1719173300,"current_range_meters":23200,"station_id":"","pricing_plan_id":"cebpf4jnsgd1na2vs0mg"},{"bike_id":"f206fcde-c34e-4808-9453-c4a2983e2dd6","system_id":"levelo_inurba_marseille","lat":43.294736,"lon":5.400312,"is_reserved":false,"is_disabled":false,"rental_uris":{"android":"levelo://app?vid=f206fcde-c34e-4808-9453-c4a2983e2dd6","ios":"levelo://app?vid=f206fcde-c34e-4808-9453-c4a2983e2dd6"},"vehicle_type_id":"4","last_reported":1719173300,"current_range_meters":25200,"station_id":"","pricing_plan_id":"cebpf4jnsgd1na2vs0mg"},