{"last_updated":1685387147,"ttl":30,"version":"2.2","data":{"bikes":[{"bike_id":"7939fecb-8606-4e50-bc28-967e705df8de","system_id":"levelo_inurba_marseille","lat":43.31233,"lon":5.36844,"is_reserved":false,"is_disabled":false,"rental_uris":{"android":"levelo://app?vid=7939fecb-8606-4e50-bc28-967e705df8de","ios":"levelo://app?vid=7939fecb-8606-4e50-bc28-967e705df8de"},"vehicle_type_id":"4","last_reported":1685387147,"current_range_meters":6000,"station_id":"ce4bgl92rcd13ifvqbq0","pricing_plan_id":"free"},{"bike_id":"b51140b1-6128-4b89-93ab-07364709a93b","system_id":"levelo_inurba_marseille","lat":43.31224,"lon":5.36853,"is_reserved":false,"is_disabled":false,"rental_uris":{"android":"levelo://app?vid=b51140b1-6128-4b89-93ab-07364709a93b","ios":"levelo://app?vid=b51140b1-6128-4b89-93ab-07364709a93b"},"vehicle_type_id":"4","last_reported":1685387147,"current_range_meters":15200,"station_id":"ce4bgl92rcd13ifvqbq0","pricing_plan_id":"free"},{"bike_id":"70f66029-645b-4138-a2bc-3d594c327735","system_id":"levelo_inurba_marseille","lat":43.309076,"lon":5.368465,"is_reserved":false,"is_disabled":false,"rental_uris":{"android":"levelo://app?vid=70f66029-645b-4138-a2bc-3d594c327735","ios":"levelo://app?vid=70f66029-645b-4138-a2bc-3d594c327735"},"vehicle_type_id":"4","last_reported":1685387147,"current_range_meters":6400,"station_id":"ce4bgn92rcd13ifvqbvg","pricing_plan_id":"free"},{"bike_id":"44d167e1-8e44-4bff-a70d-8b0ba161f312","system_id":"levelo_inurba_marseille","lat":43.314811,"lon":5.373103,"is_reserved":false,"is_disabled":false,"rental_uris":{"android":"levelo://app?vid=44d167e1-8e44-4bff-a70d-8b0ba161f312","ios":"levelo://app?vid=44d167e1-8e44-4bff-a70d-8b0ba161f312"},"vehicle_type_id":"4","last_reported":1685387147,"current_range_meters":3600,"station_id":"ce4bgt12rcd13ifvqcd0","pricing_plan_id":"free"},{"bike_id":"d226e977-3f0b-4b0c-a0e0-157c44aec210","system_id":"levelo_inurba_marseille","lat":43.31493,"lon":5.37309,"is_reserved":false,"is_disabled":false,"rental_uris":{"android":"levelo://app?vid=d226e977-3f0b-4b0c-a0e0-157c44aec210","ios":"levelo://app?vid=d226e977-3f0b-4b0c-a0e0-157c44aec210"},"vehicle_type_id":"4","last_reported":1685387147,"current_range_meters":27200,"station_id":"ce4bgt12rcd13ifvqcd0","pricing_plan_id":"free"},{"bike_id":"721c56ae-248a-478f-a493-8d8e4266bdfb","system_id":"levelo_inurba_marseille","lat":43.314811,"lon":5.373104,"is_reserved":false,"is_disabled":false,"rental_uris":{"android":"levelo://app?vid=721c56ae-248a-478f-a493-8d8e4266bdfb","ios":"levelo://app?vid=721c56ae-248a-478f-a493-8d8e4266bdfb"},"vehicle_type_id":"4","last_reported":1685387147,"current_range_meters":400,"station_id":"ce4bgt12rcd13ifvqcd0","pricing_plan_id":"free"},{"bike_id":"d5f67321-795d-419c-838f-9e2bcf81e73e","system_id":"levelo_inurba_marseille","lat":43.305989,"lon":5.37225,"is_reserved":false,"is_disabled":false,"rental_uris":{"android":"levelo://app?vid=d5f67321-795d-419c-838f-9e2bcf81e73e","ios":"levelo://app?vid=d5f67321-795d-419c-838f-9e2bcf81e73e"},"vehicle_type_id":"4","last_reported":1685387147,"current_range_meters":11600,"station_id":"ce4bgqh2rcd13ifvqc4g","pricing_plan_id":"free"},{"bike_id":"988c5d06-03da-48a6-bd31-79feb9553a83","system_id":"levelo_inurba_marseille","lat":43.305989,"lon":5.37225,"is_reserved":false,"is_disabled":false,"rental_uris":{"android":"levelo://app?vid=988c5d06-03da-48a6-bd31-79feb9553a83","ios":"levelo://app?vid=988c5d06-03da-48a6-bd31-79feb9553a83"},"vehicle_type_id":"4","last_reported":1685387147,"current_range_meters":25600,"station_id":"ce4bgqh2rcd13ifvqc4g","pricing_plan_id":"free"},{"bike_id":"37a85ad5-7654-4f7c-91cb-95c4eda6da41","system_id":"levelo_inurba_marseille","lat":43.31548,"lon":5.38049,"is_reserved":false,"is_disabled":false,"rental_uris":{"android":"levelo://app?vid=37a85ad5-7654-4f7c-91cb-95c4eda6da41","ios":"levelo://app?vid=37a85ad5-7654-4f7c-91cb-95c4eda6da41"},"vehicle_type_id":"4","last_reported":1685387147,"current_range_meters":0,"station_id":"ce4bhsp2rcd13ifvqi50","pricing_plan_id":"free"},{"bike_id":"d03dfde3-848d-4a12-b8c5-302f4c16e8c3","system_id":"levelo_inurba_marseille","lat":43.31554,"lon":5.38066,"is_reserved":false,"is_disabled":false,"rental_uris":{"android":"levelo://app?vid=d03dfde3-848d-4a12-b8c5-302f4c16e8c3","ios":"levelo://app?vid=d03dfde3-848d-4a12-b8c5-302f4c16e8c3"},"vehicle_type_id":"4","last_reported":1685387147,"current_range_meters":16400,"station_id":"","pricing_plan_id":"free"},{"bike_id":"2b651255-47da-4042-afe0-11acc45c33d6","system_id":"levelo_inurba_marseille","lat":43.308012,"lon":5.381511,"is_reserved":false,"is_disabled":false,"rental_uris":{"android":"levelo://app?vid=2b651255-47da-4042-afe0-11acc45c33d6","ios":"levelo://app?vid=2b651255-47da-4042-afe0-11acc45c33d6"},"vehicle_type_id":"4","last_reported":1685387147,"current_range_meters":0,"station_id":"ce4bgt12rcd13ifvqce0","pricing_plan_id":"free"},{"bike_id":"72978f47-4a9c-4322-9b65-957a6ff36d65","system_id":"levelo_inurba_marseille","lat":43.308012,"lon":5.381511,"is_reserved":false,"is_disabled":false,"rental_uris":{"android":"levelo://app?vid=72978f47-4a9c-4322-9b65-957a6ff36d65","ios":"levelo://app?vid=72978f47-4a9c-4322-9b65-957a6ff36d65"},"vehicle_type_id":"4","last_reported":1685387147,"current_range_meters":6000,"station_id":"ce4bgt12rcd13ifvqce0","pricing_plan_id":"free"},{"bike_id":"ed53ce13-9abf-4cde-a1d3-b17f96ebcdfa","system_id":"levelo_inurba_marseille","lat":43.30802,"lon":5.38148,"is_reserved":false,"is_disabled":false,"rental_uris":{"android":"levelo://app?vid=ed53ce13-9abf-4cde-a1d3-b17f96ebcdfa","ios":"levelo://app?vid=ed53ce13-9abf-4cde-a1d3-b17f96ebcdfa"},"vehicle_type_id":"4","last_reported":1685387147,"current_range_meters":27600,"station_id":"ce4bgt12rcd13ifvqce0","pricing_plan_id":"free"},{"bike_id":"81678cd2-6813-44b6-9d68-7da1e3141b31","system_id":"levelo_inurba_marseille","lat":43.308012,"lon":5.381511,"is_reserved":false,"is_disabled":false,"rental_uris":{"android":"levelo://app?vid=81678cd2-6813-44b6-9d68-7da1e3141b31","ios":"levelo://app?vid=81678cd2-6813-44b6-9d68-7da1e3141b31"},"vehicle_type_id":"4","last_reported":1685387147,"current_range_meters":6000,"station_id":"ce4bgt12rcd13ifvqce0","pricing_plan_id":"free"},{"bike_id":"7f672b93-82a6-4293-a0c7-f20c3fce6873","system_id":"levelo_inurba_marseille","lat":43.308012,"lon":5.381511,"is_reserved":false,"is_disabled":false,"rental_uris":{"android":"levelo://app?vid=7f672b93-82a6-4293-a0c7-f20c3fce6873","ios":"levelo://app?vid=7f672b93-82a6-4293-a0c7-f20c3fce6873"},"vehicle_type_id":"4","last_reported":1685387147,"current_range_meters":20800,"station_id":"ce4bgt12rcd13ifvqce0","pricing_plan_id":"free"},{"bike_id":"c400e462-a4de-4542-ac86-b99081db2f1e","system_id":"levelo_inurba_marseille","lat":43.31648,"lon":5.38349,"is_reserved":false,"is_disabled":false,"rental_uris":{"android":"levelo://app?vid=c400e462-a4de-4542-ac86-b99081db2f1e","ios":"levelo://app?vid=c400e462-a4de-4542-ac86-b99081db2f1e"},"vehicle_type_id":"4","last_reported":1685387147,"current_range_meters":8800,"station_id":"","pricing_plan_id":"free"},{"bike_id":"d11da2d4-50ab-475d-a497-999f76f85bd5","system_id":"levelo_inurba_marseille","lat":43.31658,"lon":5.38366,"is_reserved":false,"is_disabled":false,"rental_uris":{"android":"levelo://app?vid=d11da2d4-50ab-475d-a497-999f76f85bd5","ios":"levelo://app?vid=d11da2d4-50ab-475d-a497-999f76f85bd5"},"vehicle_type_id":"4","last_reported":1685387147,"current_range_meters":21200,"station_id":"","pricing_plan_id":"free"},{"bike_id":"f9192e4d-971e-4e40-81bf-588a6fd11389","system_id":"levelo_inurba_marseille","lat":43.31988,"lon":5.3816,"is_reserved":false,"is_disabled":false,"rental_uris":{"android":"levelo://app?vid=f9192e4d-971e-4e40-81bf-588a6fd11389","ios":"levelo://app?vid=f9192e4d-971e-4e40-81bf-588a6fd11389"},"vehicle_type_id":"4","last_reported":1685387147,"current_range_meters":5200,"station_id":"ce4bhr12rcd13ifvqhpg","pricing_plan_id":"free"},{"bike_id":"ac29a3e2-3de3-4ef9-a505-87d7fa405400","system_id":"levelo_inurba_marseille","lat":43.319935,"lon":5.381699,"is_reserved":false,"is_disabled":false,"rental_uris":{"android":"levelo://app?vid=ac29a3e2-3de3-4ef9-a505-87d7fa405400","ios":"levelo://app?vid=ac29a3e2-3de3-4ef9-a505-87d7fa405400"},"vehicle_type_id":"4","last_reported":1685387147,"current_range_meters":6800,"station_id":"ce4bhr12rcd13ifvqhpg","pricing_plan_id":"free"},{"bike_id":"8e3ed839-fd21-4346-b693-d8cc96dbf204","system_id":"levelo_inurba_marseille","lat":43.305364,"lon":5.384119,"is_reserved":false,"is_disabled":false,"rental_uris":{"android":"levelo://app?vid=8e3ed839-fd21-4346-b693-d8cc96dbf204","ios":"levelo://app?vid=8e3ed839-fd21-4346-b693-d8cc96dbf204"},"vehicle_type_id":"4","last_reported":1685387147,"current_range_meters":25600,"station_id":"ce4bgg92rcd13ifvqb30","pricing_plan_id":"free"},{"bike_id":"4abd72c0-320b-410e-b06b-f7e95edf41bf","system_id":"levelo_inurba_marseille","lat":43.299243,"lon":5.374807,"is_reserved":false,"is_disabled":false,"rental_uris":{"android":"levelo://app?vid=4abd72c0-320b-410e-b06b-f7e95edf41bf","ios":"levelo://app?vid=4abd72c0-320b-410e-b06b-f7e95edf41bf"},"vehicle_type_id":"4","last_reported":1685387147,"current_range_meters":800,"station_id":"ce4bgjh2rcd13ifvqbg0","pricing_plan_id":"free"},{"bike_id":"7fa06b73-cfc4-4c28-afb0-ac3045498474","system_id":"levelo_inurba_marseille","lat":43.311722,"lon":5.387247,"is_reserved":false,"is_disabled":false,"rental_uris":{"android":"levelo://app?vid=7fa06b73-cfc4-4c28-afb0-ac3045498474","ios":"levelo://app?vid=7fa06b73-cfc4-4c28-afb0-ac3045498474"},"vehicle_type_id":"4","last_reported":1685387147,"current_range_meters":4000,"station_id":"ce4bgv12rcd13ifvqcp0","pricing_plan_id":"free"},{"bike_id":"5404fe71-2eb9-42a8-bb8e-ba8798366a65","system_id":"levelo_inurba_marseille","lat":43.297794,"lon":5.370888,"is_reserved":false,"is_disabled":false,"rental_uris":{"android":"levelo://app?vid=5404fe71-2eb9-42a8-bb8e-ba8798366a65","ios":"levelo://app?vid=5404fe71-2eb9-42a8-bb8e-ba8798366a65"},"vehicle_type_id":"4","last_reported":1685387147,"current_range_meters":23200,"station_id":"ce4bgop2rcd13ifvqc1g","pricing_plan_id":"free"},{"bike_id":"10e9ea98-4200-4906-97e7-5eb64a851422","system_id":"levelo_inurba_marseille","lat":43.29784,"lon":5.37088,"is_reserved":false,"is_disabled":false,"rental_uris":{"android":"levelo://app?vid=10e9ea98-4200-4906-97e7-5eb64a851422","ios":"levelo://app?vid=10e9ea98-4200-4906-97e7-5eb64a851422"},"vehicle_type_id":"4","last_reported":1685387147,"current_range_meters":0,"station_id":"ce4bgop2rcd13ifvqc1g","pricing_plan_id":"free"},{"bike_id":"1ec1dde0-b812-4c1e-9e22-a25041461290","system_id":"levelo_inurba_marseille","lat":43.297774,"lon":5.370875,"is_reserved":false,"is_disabled":false,"rental_uris":{"android":"levelo://app?vid=1ec1dde0-b812-4c1e-9e22-a25041461290","ios":"levelo://app?vid=1ec1dde0-b812-4c1e-9e22-a25041461290"},"vehicle_type_id":"4","last_reported":1685387147,"current_range_meters":4800,"station_id":"ce4bgop2rcd13ifvqc1g","pricing_plan_id":"free"},{"bike_id":"5895156f-f83a-4b54-a0b5-57f02c18ef1a","system_id":"levelo_inurba_marseille","lat":43.32824,"lon":5.3669,"is_reserved":false,"is_disabled":false,"rental_uris":{"android":"levelo://app?vid=5895156f-f83a-4b54-a0b5-57f02c18ef1a","ios":"levelo://app?vid=5895156f-f83a-4b54-a0b5-57f02c18ef1a"},"vehicle_type_id":"4","last_reported":1685387147,"current_range_meters":21200,"station_id":"ce4bhs92rcd13ifvqi0g","pricing_plan_id":"free"},{"bike_id":"bfcee4c7-8dc0-4f3e-a9f5-26101145ee75","system_id":"levelo_inurba_marseille","lat":43.29719,"lon":5.36609,"is_reserved":false,"is_disabled":false,"rental_uris":{"android":"levelo://app?vid=bfcee4c7-8dc0-4f3e-a9f5-26101145ee75","ios":"levelo://app?vid=bfcee4c7-8dc0-4f3e-a9f5-26101145ee75"},"vehicle_type_id":"4","last_reported":1685387147,"current_range_meters":5200,"station_id":"","pricing_plan_id":"free"},{"bike_id":"eb0659e8-b01d-4eba-b418-3f442316222b","system_id":"levelo_inurba_marseille","lat":43.328371,"lon":5.366909,"is_reserved":false,"is_disabled":false,"rental_uris":{"android":"levelo://app?vid=eb0659e8-b01d-4eba-b418-3f442316222b","ios":"levelo://app?vid=eb0659e8-b01d-4eba-b418-3f442316222b"},"vehicle_type_id":"4","last_reported":1685387147,"current_range_meters":23200,"station_id":"ce4bhs92rcd13ifvqi0g","pricing_plan_id":"free"},{"bike_id":"114aac37-77a0-4c25-b0bc-2dd06cc69bdb","system_id":"levelo_inurba_marseille","lat":43.29716,"lon":5.36606,"is_reserved":false,"is_disabled":false,"rental_uris":{"android":"levelo://app?vid=114aac37-77a0-4c25-b0bc-2dd06cc69bdb","ios":"levelo://app?vid=114aac37-77a0-4c25-b0bc-2dd06cc69bdb"},"vehicle_type_id":"4","last_reported":1685387147,"current_range_meters":29200,"station_id":"","pricing_plan_id":"free"},{"bike_id":"6c4fbcb1-bd56-4ead-a1f4-7d866983bc03","system_id":"levelo_inurba_marseille","lat":43.29709,"lon":5.36604,"is_reserved":false,"is_disabled":false,"rental_uris":{"android":"levelo://app?vid=6c4fbcb1-bd56-4ead-a1f4-7d866983bc03","ios":"levelo://app?vid=6c4fbcb1-bd56-4ead-a1f4-7d866983bc03"},"vehicle_type_id":"4","last_reported":1685387147,"current_range_meters":16000,"station_id":"","pricing_plan_id":"free"},{"bike_id":"41b3bcbb-b8e3-4751-b6f3-e4f70bc6b518","system_id":"levelo_inurba_marseille","lat":43.29573,"lon":5.367355,"is_reserved":false,"is_disabled":false,"rental_uris":{"android":"levelo://app?vid=41b3bcbb-b8e3-4751-b6f3-e4f70bc6b518","ios":"levelo://app?vid=41b3bcbb-b8e3-4751-b6f3-e4f70bc6b518"},"vehicle_type_id":"4","last_reported":1685387147,"current_range_meters":29200,"station_id":"ce4bgph2rcd13ifvqc2g","pricing_plan_id":"free"},{"bike_id":"c412d231-fdc5-4eef-aa72-8c646e7db5e7","system_id":"levelo_inurba_marseille","lat":43.29573,"lon":5.367355,"is_reserved":false,"is_disabled":false,"rental_uris":{"android":"levelo://app?vid=c412d231-fdc5-4eef-aa72-8c646e7db5e7","ios":"levelo://app?vid=c412d231-fdc5-4eef-aa72-8c646e7db5e7"},"vehicle_type_id":"4","last_reported":1685387147,"current_range_meters":7600,"station_id":"ce4bgph2rcd13ifvqc2g","pricing_plan_id":"free"},{"bike_id":"574190e5-850d-4dd1-8eea-8ea5be63aef3","system_id":"levelo_inurba_marseille","lat":43.309589,"lon":5.390258,"is_reserved":false,"is_disabled":false,"rental_uris":{"android":"levelo://app?vid=574190e5-850d-4dd1-8eea-8ea5be63aef3","ios":"levelo://app?vid=574190e5-850d-4dd1-8eea-8ea5be63aef3"},"vehicle_type_id":"4","last_reported":1685387147,"current_range_meters":0,"station_id":"ce4bgup2rcd13ifvqco0","pricing_plan_id":"free"},{"bike_id":"310da0ad-2b83-4582-8fa3-3911fb21d40c","system_id":"levelo_inurba_marseille","lat":43.299028,"lon":5.381509,"is_reserved":false,"is_disabled":false,"rental_uris":{"android":"levelo://app?vid=310da0ad-2b83-4582-8fa3-3911fb21d40c","ios":"levelo://app?vid=310da0ad-2b83-4582-8fa3-3911fb21d40c"},"vehicle_type_id":"4","last_reported":1685387147,"current_range_meters":2800,"station_id":"ce4bgj12rcd13ifvqbc0","pricing_plan_id":"free"},{"bike_id":"de3f0e0c-d381-48d6-a614-a388ddde6937","system_id":"levelo_inurba_marseille","lat":43.309589,"lon":5.390258,"is_reserved":false,"is_disabled":false,"rental_uris":{"android":"levelo://app?vid=de3f0e0c-d381-48d6-a614-a388ddde6937","ios":"levelo://app?vid=de3f0e0c-d381-48d6-a614-a388ddde6937"},"vehicle_type_id":"4","last_reported":1685387147,"current_range_meters":12800,"station_id":"ce4bgup2rcd13ifvqco0","pricing_plan_id":"free"},{"bike_id":"800f016e-8534-437f-87e0-b7dedb6867b0","system_id":"levelo_inurba_marseille","lat":43.298037,"lon":5.381066,"is_reserved":false,"is_disabled":false,"rental_uris":{"android":"levelo://app?vid=800f016e-8534-437f-87e0-b7dedb6867b0","ios":"levelo://app?vid=800f016e-8534-437f-87e0-b7dedb6867b0"},"vehicle_type_id":"4","last_reported":1685387147,"current_range_meters":4000,"station_id":"ce4bgip2rcd13ifvqbb0","pricing_plan_id":"free"},{"bike_id":"851d0f0a-9fc8-41ca-b163-3ad00da7340d","system_id":"levelo_inurba_marseille","lat":43.295748,"lon":5.37522,"is_reserved":false,"is_disabled":false,"rental_uris":{"android":"levelo://app?vid=851d0f0a-9fc8-41ca-b163-3ad00da7340d","ios":"levelo://app?vid=851d0f0a-9fc8-41ca-b163-3ad00da7340d"},"vehicle_type_id":"4","last_reported":1685387147,"current_range_meters":0,"station_id":"ce4bgh92rcd13ifvqb50","pricing_plan_id":"free"},{"bike_id":"728e9f9f-a35f-44d4-9101-6407d51f86c7","system_id":"levelo_inurba_marseille","lat":43.3043,"lon":5.38893,"is_reserved":false,"is_disabled":false,"rental_uris":{"android":"levelo://app?vid=728e9f9f-a35f-44d4-9101-6407d51f86c7","ios":"levelo://app?vid=728e9f9f-a35f-44d4-9101-6407d51f86c7"},"vehicle_type_id":"4","last_reported":1685387147,"current_range_meters":15600,"station_id":"ce4bgk12rcd13ifvqbi0","pricing_plan_id":"free"},{"bike_id":"c7743222-31dd-4a1e-8044-f44d03d2328b","system_id":"levelo_inurba_marseille","lat":43.29703,"lon":5.37965,"is_reserved":false,"is_disabled":false,"rental_uris":{"android":"levelo://app?vid=c7743222-31dd-4a1e-8044-f44d03d2328b","ios":"levelo://app?vid=c7743222-31dd-4a1e-8044-f44d03d2328b"},"vehicle_type_id":"4","last_reported":1685387147,"current_range_meters":16000,"station_id":"","pricing_plan_id":"free"},{"bike_id":"f306657a-9ebf-442f-bc73-109e35bc1e94","system_id":"levelo_inurba_marseille","lat":43.299707,"lon":5.384859,"is_reserved":false,"is_disabled":false,"rental_uris":{"android":"levelo://app?vid=f306657a-9ebf-442f-bc73-109e35bc1e94","ios":"levelo://app?vid=f306657a-9ebf-442f-bc73-109e35bc1e94"},"vehicle_type_id":"4","last_reported":1685387147,"current_range_meters":400,"station_id":"ce4bgj92rcd13ifvqbd0","pricing_plan_id":"free"},{"bike_id":"3368576c-d347-45ac-a283-75fdf4a2f60b","system_id":"levelo_inurba_marseille","lat":43.299707,"lon":5.384859,"is_reserved":false,"is_disabled":false,"rental_uris":{"android":"levelo://app?vid=3368576c-d347-45ac-a283-75fdf4a2f60b","ios":"levelo://app?vid=3368576c-d347-45ac-a283-75fdf4a2f60b"},"vehicle_type_id":"4","last_reported":1685387147,"current_range_meters":22800,"station_id":"ce4bgj92rcd13ifvqbd0","pricing_plan_id":"free"},{"bike_id":"06554a24-08db-4ccd-861f-763b99b173e8","system_id":"levelo_inurba_marseille","lat":43.295279,"lon":5.375048,"is_reserved":false,"is_disabled":false,"rental_uris":{"android":"levelo://app?vid=06554a24-08db-4ccd-861f-763b99b173e8","ios":"levelo://app?vid=06554a24-08db-4ccd-861f-763b99b173e8"},"vehicle_type_id":"4","last_reported":1685387147,"current_range_meters":31600,"station_id":"ce4bgkp2rcd13ifvqbmg","pricing_plan_id":"free"},{"bike_id":"ccdd3716-3249-41b6-80bf-93f3942d2c15","system_id":"levelo_inurba_marseille","lat":43.29972,"lon":5.38497,"is_reserved":false,"is_disabled":false,"rental_uris":{"android":"levelo://app?vid=ccdd3716-3249-41b6-80bf-93f3942d2c15","ios":"levelo://app?vid=ccdd3716-3249-41b6-80bf-93f3942d2c15"},"vehicle_type_id":"4","last_reported":1685387147,"current_range_meters":12400,"station_id":"ce4bgj92rcd13ifvqbd0","pricing_plan_id":"free"},{"bike_id":"0127117c-514c-49f8-8646-d45f8985aa5e","system_id":"levelo_inurba_marseille","lat":43.29969,"lon":5.38497,"is_reserved":false,"is_disabled":false,"rental_uris":{"android":"levelo://app?vid=0127117c-514c-49f8-8646-d45f8985aa5e","ios":"levelo://app?vid=0127117c-514c-49f8-8646-d45f8985aa5e"},"vehicle_type_id":"4","last_reported":1685387147,"current_range_meters":1600,"station_id":"ce4bgj92rcd13ifvqbd0","pricing_plan_id":"free"},{"bike_id":"59374a13-2c80-406c-ba0e-9dcfebaddfa2","system_id":"levelo_inurba_marseille","lat":43.309589,"lon":5.390258,"is_reserved":false,"is_disabled":false,"rental_uris":{"android":"levelo://app?vid=59374a13-2c80-406c-ba0e-9dcfebaddfa2","ios":"levelo://app?vid=59374a13-2c80-406c-ba0e-9dcfebaddfa2"},"vehicle_type_id":"4","last_reported":1685387147,"current_range_meters":18400,"station_id":"ce4bgup2rcd13ifvqco0","pricing_plan_id":"free"},{"bike_id":"1d032704-3036-4b9b-89b1-8772a8467969","system_id":"levelo_inurba_marseille","lat":43.29965,"lon":5.38494,"is_reserved":false,"is_disabled":false,"rental_uris":{"android":"levelo://app?vid=1d032704-3036-4b9b-89b1-8772a8467969","ios":"levelo://app?vid=1d032704-3036-4b9b-89b1-8772a8467969"},"vehicle_type_id":"4","last_reported":1685387147,"current_range_meters":15200,"station_id":"ce4bgj92rcd13ifvqbd0","pricing_plan_id":"free"},{"bike_id":"e0931ecb-c1da-4e4b-ad85-81c95cc8add8","system_id":"levelo_inurba_marseille","lat":43.299724,"lon":5.384848,"is_reserved":false,"is_disabled":false,"rental_uris":{"android":"levelo://app?vid=e0931ecb-c1da-4e4b-ad85-81c95cc8add8","ios":"levelo://app?vid=e0931ecb-c1da-4e4b-ad85-81c95cc8add8"},"vehicle_type_id":"4","last_reported":1685387147,"current_range_meters":1200,"station_id":"ce4bgj92rcd13ifvqbd0","pricing_plan_id":"free"},{"bike_id":"1e5e5a1b-3ff7-4bf0-a472-e7355e0e1009","system_id":"levelo_inurba_marseille","lat":43.29965,"lon":5.38495,"is_reserved":false,"is_disabled":false,"rental_uris":{"android":"levelo://app?vid=1e5e5a1b-3ff7-4bf0-a472-e7355e0e1009","ios":"levelo://app?vid=1e5e5a1b-3ff7-4bf0-a472-e7355e0e1009"},"vehicle_type_id":"4","last_reported":1685387147,"current_range_meters":6000,"station_id":"ce4bgj92rcd13ifvqbd0","pricing_plan_id":"free"},{"bike_id":"627c7c97-43a6-4066-9ea3-557bfd82a954","system_id":"levelo_inurba_marseille","lat":43.29964,"lon":5.38494,"is_reserved":false,"is_disabled":false,"rental_uris":{"android":"levelo://app?vid=627c7c97-43a6-4066-9ea3-557bfd82a954","ios":"levelo://app?vid=627c7c97-43a6-4066-9ea3-557bfd82a954"},"vehicle_type_id":"4","last_reported":1685387147,"current_range_meters":0,"station_id":"ce4bgj92rcd13ifvqbd0","pricing_plan_id":"free"},{"bike_id":"b1395318-6856-4478-b8fb-8f8c9659e676","system_id":"levelo_inurba_marseille","lat":43.295279,"lon":5.375048,"is_reserved":false,"is_disabled":false,"rental_uris":{"android":"levelo://app?vid=b1395318-6856-4478-b8fb-8f8c9659e676","ios":"levelo://app?vid=b1395318-6856-4478-b8fb-8f8c9659e676"},"vehicle_type_id":"4","last_reported":1685387147,"current_range_meters":4800,"station_id":"ce4bgkp2rcd13ifvqbmg","pricing_plan_id":"free"},{"bike_id":"00c9b202-b5b6-4f69-8084-db1f9466ee79","system_id":"levelo_inurba_marseille","lat":43.32367,"lon":5.388836,"is_reserved":false,"is_disabled":false,"rental_uris":{"android":"levelo://app?vid=00c9b202-b5b6-4f69-8084-db1f9466ee79","ios":"levelo://app?vid=00c9b202-b5b6-4f69-8084-db1f9466ee79"},"vehicle_type_id":"4","last_reported":1685387147,"current_range_meters":24800,"station_id":"ce4bhqp2rcd13ifvqhog","pricing_plan_id":"free"},{"bike_id":"d1ab7cdd-c6a3-4e43-a50c-3d50e564a673","system_id":"levelo_inurba_marseille","lat":43.32367,"lon":5.388836,"is_reserved":false,"is_disabled":false,"rental_uris":{"android":"levelo://app?vid=d1ab7cdd-c6a3-4e43-a50c-3d50e564a673","ios":"levelo://app?vid=d1ab7cdd-c6a3-4e43-a50c-3d50e564a673"},"vehicle_type_id":"4","last_reported":1685387147,"current_range_meters":14400,"station_id":"ce4bhqp2rcd13ifvqhog","pricing_plan_id":"free"},{"bike_id":"1c37c083-39b8-4242-99c8-3430fc05b14b","system_id":"levelo_inurba_marseille","lat":43.32367,"lon":5.388836,"is_reserved":false,"is_disabled":false,"rental_uris":{"android":"levelo://app?vid=1c37c083-39b8-4242-99c8-3430fc05b14b","ios":"levelo://app?vid=1c37c083-39b8-4242-99c8-3430fc05b14b"},"vehicle_type_id":"4","last_reported":1685387147,"current_range_meters":20800,"station_id":"ce4bhqp2rcd13ifvqhog","pricing_plan_id":"free"},{"bike_id":"950f3a0b-8466-40bf-8f81-5f5cf1a96632","system_id":"levelo_inurba_marseille","lat":43.32367,"lon":5.388836,"is_reserved":false,"is_disabled":false,"rental_uris":{"android":"levelo://app?vid=950f3a0b-8466-40bf-8f81-5f5cf1a96632","ios":"levelo://app?vid=950f3a0b-8466-40bf-8f81-5f5cf1a96632"},"vehicle_type_id":"4","last_reported":1685387147,"current_range_meters":8000,"station_id":"ce4bhqp2rcd13ifvqhog","pricing_plan_id":"free"},{"bike_id":"9c45c231-a376-4057-b4cf-7429736ebe2a","system_id":"levelo_inurba_marseille","lat":43.29455,"lon":5.37594,"is_reserved":false,"is_disabled":false,"rental_uris":{"android":"levelo://app?vid=9c45c231-a376-4057-b4cf-7429736ebe2a","ios":"levelo://app?vid=9c45c231-a376-4057-b4cf-7429736ebe2a"},"vehicle_type_id":"4","last_reported":1685387147,"current_range_meters":18800,"station_id":"","pricing_plan_id":"free"},{"bike_id":"247fa5c3-5d73-4d5a-a83a-be670f029300","system_id":"levelo_inurba_marseille","lat":43.29601,"lon":5.381084,"is_reserved":false,"is_disabled":false,"rental_uris":{"android":"levelo://app?vid=247fa5c3-5d73-4d5a-a83a-be670f029300","ios":"levelo://app?vid=247fa5c3-5d73-4d5a-a83a-be670f029300"},"vehicle_type_id":"4","last_reported":1685387147,"current_range_meters":14400,"station_id":"ce4bgl12rcd13ifvqbo0","pricing_plan_id":"free"},{"bike_id":"a86d34f8-e2df-4c7d-b6d3-65b567c58fc4","system_id":"levelo_inurba_marseille","lat":43.29601,"lon":5.381084,"is_reserved":false,"is_disabled":false,"rental_uris":{"android":"levelo://app?vid=a86d34f8-e2df-4c7d-b6d3-65b567c58fc4","ios":"levelo://app?vid=a86d34f8-e2df-4c7d-b6d3-65b567c58fc4"},"vehicle_type_id":"4","last_reported":1685387147,"current_range_meters":18000,"station_id":"ce4bgl12rcd13ifvqbo0","pricing_plan_id":"free"},{"bike_id":"117d4d10-948d-447b-928a-ec5b70efb5e4","system_id":"levelo_inurba_marseille","lat":43.29601,"lon":5.381084,"is_reserved":false,"is_disabled":false,"rental_uris":{"android":"levelo://app?vid=117d4d10-948d-447b-928a-ec5b70efb5e4","ios":"levelo://app?vid=117d4d10-948d-447b-928a-ec5b70efb5e4"},"vehicle_type_id":"4","last_reported":1685387147,"current_range_meters":6000,"station_id":"ce4bgl12rcd13ifvqbo0","pricing_plan_id":"free"},{"bike_id":"626575dc-a47a-4729-b38d-c977a0b32d0e","system_id":"levelo_inurba_marseille","lat":43.29601,"lon":5.381084,"is_reserved":false,"is_disabled":false,"rental_uris":{"android":"levelo://app?vid=626575dc-a47a-4729-b38d-c977a0b32d0e","ios":"levelo://app?vid=626575dc-a47a-4729-b38d-c977a0b32d0e"},"vehicle_type_id":"4","last_reported":1685387147,"current_range_meters":25200,"station_id":"ce4bgl12rcd13ifvqbo0","pricing_plan_id":"free"},{"bike_id":"453dbcb9-0797-445c-a34b-6c23b07432cf","system_id":"levelo_inurba_marseille","lat":43.292749,"lon":5.368402,"is_reserved":false,"is_disabled":false,"rental_uris":{"android":"levelo://app?vid=453dbcb9-0797-445c-a34b-6c23b07432cf","ios":"levelo://app?vid=453dbcb9-0797-445c-a34b-6c23b07432cf"},"vehicle_type_id":"4","last_reported":1685387147,"current_range_meters":0,"station_id":"ce4bhbp2rcd13ifvqesg","pricing_plan_id":"free"},{"bike_id":"c056ad14-40a3-4544-a861-04e5d5af3335","system_id":"levelo_inurba_marseille","lat":43.293009,"lon":5.374584,"is_reserved":false,"is_disabled":false,"rental_uris":{"android":"levelo://app?vid=c056ad14-40a3-4544-a861-04e5d5af3335","ios":"levelo://app?vid=c056ad14-40a3-4544-a861-04e5d5af3335"},"vehicle_type_id":"4","last_reported":1685387147,"current_range_meters":14400,"station_id":"ce4bgi12rcd13ifvqb70","pricing_plan_id":"free"},{"bike_id":"2f259fb7-3f9a-41f5-878d-5388369a63fb","system_id":"levelo_inurba_marseille","lat":43.305994,"lon":5.393687,"is_reserved":false,"is_disabled":false,"rental_uris":{"android":"levelo://app?vid=2f259fb7-3f9a-41f5-878d-5388369a63fb","ios":"levelo://app?vid=2f259fb7-3f9a-41f5-878d-5388369a63fb"},"vehicle_type_id":"4","last_reported":1685387147,"current_range_meters":5200,"station_id":"ce4bh0p2rcd13ifvqd80","pricing_plan_id":"free"},{"bike_id":"9165b02c-922f-44d1-b7e0-ba1565161166","system_id":"levelo_inurba_marseille","lat":43.305994,"lon":5.393687,"is_reserved":false,"is_disabled":false,"rental_uris":{"android":"levelo://app?vid=9165b02c-922f-44d1-b7e0-ba1565161166","ios":"levelo://app?vid=9165b02c-922f-44d1-b7e0-ba1565161166"},"vehicle_type_id":"4","last_reported":1685387147,"current_range_meters":3200,"station_id":"ce4bh0p2rcd13ifvqd80","pricing_plan_id":"free"},{"bike_id":"d8bc309d-a189-4461-b2fb-665fa4b04e2b","system_id":"levelo_inurba_marseille","lat":43.303002,"lon":5.392142,"is_reserved":false,"is_disabled":false,"rental_uris":{"android":"levelo://app?vid=d8bc309d-a189-4461-b2fb-665fa4b04e2b","ios":"levelo://app?vid=d8bc309d-a189-4461-b2fb-665fa4b04e2b"},"vehicle_type_id":"4","last_reported":1685387147,"current_range_meters":12800,"station_id":"ce4bgkh2rcd13ifvqbk0","pricing_plan_id":"free"},{"bike_id":"cf87fb09-20ea-45d8-a265-9ab2326339b6","system_id":"levelo_inurba_marseille","lat":43.303002,"lon":5.392142,"is_reserved":false,"is_disabled":false,"rental_uris":{"android":"levelo://app?vid=cf87fb09-20ea-45d8-a265-9ab2326339b6","ios":"levelo://app?vid=cf87fb09-20ea-45d8-a265-9ab2326339b6"},"vehicle_type_id":"4","last_reported":1685387147,"current_range_meters":1600,"station_id":"ce4bgkh2rcd13ifvqbk0","pricing_plan_id":"free"},{"bike_id":"56234b75-6430-4dea-8f26-882f22a733d2","system_id":"levelo_inurba_marseille","lat":43.302992,"lon":5.392136,"is_reserved":false,"is_disabled":false,"rental_uris":{"android":"levelo://app?vid=56234b75-6430-4dea-8f26-882f22a733d2","ios":"levelo://app?vid=56234b75-6430-4dea-8f26-882f22a733d2"},"vehicle_type_id":"4","last_reported":1685387147,"current_range_meters":19200,"station_id":"ce4bgkh2rcd13ifvqbk0","pricing_plan_id":"free"},{"bike_id":"db9d0b8c-a66e-4144-a40d-f2a5f8a93f17","system_id":"levelo_inurba_marseille","lat":43.29609,"lon":5.38449,"is_reserved":false,"is_disabled":false,"rental_uris":{"android":"levelo://app?vid=db9d0b8c-a66e-4144-a40d-f2a5f8a93f17","ios":"levelo://app?vid=db9d0b8c-a66e-4144-a40d-f2a5f8a93f17"},"vehicle_type_id":"4","last_reported":1685387147,"current_range_meters":5200,"station_id":"","pricing_plan_id":"free"},{"bike_id":"9a50b32c-3239-42f7-9305-435bba038229","system_id":"levelo_inurba_marseille","lat":43.29896,"lon":5.38904,"is_reserved":false,"is_disabled":false,"rental_uris":{"android":"levelo://app?vid=9a50b32c-3239-42f7-9305-435bba038229","ios":"levelo://app?vid=9a50b32c-3239-42f7-9305-435bba038229"},"vehicle_type_id":"4","last_reported":1685387147,"current_range_meters":14000,"station_id":"ce4bh392rcd13ifvqdl0","pricing_plan_id":"free"},{"bike_id":"5acfae18-7e97-4938-b293-1c966f66a696","system_id":"levelo_inurba_marseille","lat":43.291671,"lon":5.371575,"is_reserved":false,"is_disabled":false,"rental_uris":{"android":"levelo://app?vid=5acfae18-7e97-4938-b293-1c966f66a696","ios":"levelo://app?vid=5acfae18-7e97-4938-b293-1c966f66a696"},"vehicle_type_id":"4","last_reported":1685387147,"current_range_meters":5600,"station_id":"ce4bha92rcd13ifvqeh0","pricing_plan_id":"free"},{"bike_id":"8649da42-9253-42c3-adef-ebe24c61f84f","system_id":"levelo_inurba_marseille","lat":43.309038,"lon":5.396546,"is_reserved":false,"is_disabled":false,"rental_uris":{"android":"levelo://app?vid=8649da42-9253-42c3-adef-ebe24c61f84f","ios":"levelo://app?vid=8649da42-9253-42c3-adef-ebe24c61f84f"},"vehicle_type_id":"4","last_reported":1685387147,"current_range_meters":10000,"station_id":"ce4bh012rcd13ifvqcv0","pricing_plan_id":"free"},{"bike_id":"3b7d5df5-ec31-4ab2-8573-9228e5dc9728","system_id":"levelo_inurba_marseille","lat":43.29194,"lon":5.35807,"is_reserved":false,"is_disabled":false,"rental_uris":{"android":"levelo://app?vid=3b7d5df5-ec31-4ab2-8573-9228e5dc9728","ios":"levelo://app?vid=3b7d5df5-ec31-4ab2-8573-9228e5dc9728"},"vehicle_type_id":"4","last_reported":1685387147,"current_range_meters":19200,"station_id":"ce4bhb12rcd13ifvqel0","pricing_plan_id":"free"},{"bike_id":"5fa6a67e-eed1-4195-a75f-4206a54381b4","system_id":"levelo_inurba_marseille","lat":43.309038,"lon":5.396546,"is_reserved":false,"is_disabled":false,"rental_uris":{"android":"levelo://app?vid=5fa6a67e-eed1-4195-a75f-4206a54381b4","ios":"levelo://app?vid=5fa6a67e-eed1-4195-a75f-4206a54381b4"},"vehicle_type_id":"4","last_reported":1685387147,"current_range_meters":7600,"station_id":"ce4bh012rcd13ifvqcv0","pricing_plan_id":"free"},{"bike_id":"30c1dcc4-516e-4733-a331-dc940127796a","system_id":"levelo_inurba_marseille","lat":43.309038,"lon":5.396546,"is_reserved":false,"is_disabled":false,"rental_uris":{"android":"levelo://app?vid=30c1dcc4-516e-4733-a331-dc940127796a","ios":"levelo://app?vid=30c1dcc4-516e-4733-a331-dc940127796a"},"vehicle_type_id":"4","last_reported":1685387147,"current_range_meters":4400,"station_id":"ce4bh012rcd13ifvqcv0","pricing_plan_id":"free"},{"bike_id":"d84748ca-56de-4c39-8d97-8763d6af5c17","system_id":"levelo_inurba_marseille","lat":43.313291,"lon":5.396838,"is_reserved":false,"is_disabled":false,"rental_uris":{"android":"levelo://app?vid=d84748ca-56de-4c39-8d97-8763d6af5c17","ios":"levelo://app?vid=d84748ca-56de-4c39-8d97-8763d6af5c17"},"vehicle_type_id":"4","last_reported":1685387147,"current_range_meters":18800,"station_id":"ce4bgvp2rcd13ifvqcu0","pricing_plan_id":"free"},{"bike_id":"ce4fa09d-e8dd-471d-abaf-e53f89c4c605","system_id":"levelo_inurba_marseille","lat":43.309038,"lon":5.396546,"is_reserved":false,"is_disabled":false,"rental_uris":{"android":"levelo://app?vid=ce4fa09d-e8dd-471d-abaf-e53f89c4c605","ios":"levelo://app?vid=ce4fa09d-e8dd-471d-abaf-e53f89c4c605"},"vehicle_type_id":"4","last_reported":1685387147,"current_range_meters":12000,"station_id":"ce4bh012rcd13ifvqcv0","pricing_plan_id":"free"},{"bike_id":"747fe85b-9cf8-4725-9841-37dca42d7e46","system_id":"levelo_inurba_marseille","lat":43.309038,"lon":5.396546,"is_reserved":false,"is_disabled":false,"rental_uris":{"android":"levelo://app?vid=747fe85b-9cf8-4725-9841-37dca42d7e46","ios":"levelo://app?vid=747fe85b-9cf8-4725-9841-37dca42d7e46"},"vehicle_type_id":"4","last_reported":1685387147,"current_range_meters":8000,"station_id":"ce4bh012rcd13ifvqcv0","pricing_plan_id":"free"},{"bike_id":"8ff77d26-5644-44cd-876e-c70b5613843d","system_id":"levelo_inurba_marseille","lat":43.29529,"lon":5.385581,"is_reserved":false,"is_disabled":false,"rental_uris":{"android":"levelo://app?vid=8ff77d26-5644-44cd-876e-c70b5613843d","ios":"levelo://app?vid=8ff77d26-5644-44cd-876e-c70b5613843d"},"vehicle_type_id":"4","last_reported":1685387147,"current_range_meters":19600,"station_id":"ce4bgih2rcd13ifvqba0","pricing_plan_id":"free"},{"bike_id":"67a5e307-8180-4895-9117-d151c2b2cdcb","system_id":"levelo_inurba_marseille","lat":43.302008,"lon":5.394694,"is_reserved":false,"is_disabled":false,"rental_uris":{"android":"levelo://app?vid=67a5e307-8180-4895-9117-d151c2b2cdcb","ios":"levelo://app?vid=67a5e307-8180-4895-9117-d151c2b2cdcb"},"vehicle_type_id":"4","last_reported":1685387147,"current_range_meters":1200,"station_id":"ce4bh0p2rcd13ifvqd70","pricing_plan_id":"free"},{"bike_id":"bc17d2b5-5d04-49c9-8ec1-af0fde3cab74","system_id":"levelo_inurba_marseille","lat":43.302008,"lon":5.394694,"is_reserved":false,"is_disabled":false,"rental_uris":{"android":"levelo://app?vid=bc17d2b5-5d04-49c9-8ec1-af0fde3cab74","ios":"levelo://app?vid=bc17d2b5-5d04-49c9-8ec1-af0fde3cab74"},"vehicle_type_id":"4","last_reported":1685387147,"current_range_meters":3200,"station_id":"ce4bh0p2rcd13ifvqd70","pricing_plan_id":"free"},{"bike_id":"a284003c-c237-47ba-9c4f-e2b5b0e4e93e","system_id":"levelo_inurba_marseille","lat":43.302008,"lon":5.394694,"is_reserved":false,"is_disabled":false,"rental_uris":{"android":"levelo://app?vid=a284003c-c237-47ba-9c4f-e2b5b0e4e93e","ios":"levelo://app?vid=a284003c-c237-47ba-9c4f-e2b5b0e4e93e"},"vehicle_type_id":"4","last_reported":1685387147,"current_range_meters":12400,"station_id":"ce4bh0p2rcd13ifvqd70","pricing_plan_id":"free"},{"bike_id":"6735f361-a4bd-4b38-8f3a-03c1195b3ca7","system_id":"levelo_inurba_marseille","lat":43.302008,"lon":5.394694,"is_reserved":false,"is_disabled":false,"rental_uris":{"android":"levelo://app?vid=6735f361-a4bd-4b38-8f3a-03c1195b3ca7","ios":"levelo://app?vid=6735f361-a4bd-4b38-8f3a-03c1195b3ca7"},"vehicle_type_id":"4","last_reported":1685387147,"current_range_meters":16400,"station_id":"ce4bh0p2rcd13ifvqd70","pricing_plan_id":"free"},{"bike_id":"08d57459-9793-4995-a33b-08ac679654b1","system_id":"levelo_inurba_marseille","lat":43.290624,"lon":5.359245,"is_reserved":false,"is_disabled":false,"rental_uris":{"android":"levelo://app?vid=08d57459-9793-4995-a33b-08ac679654b1","ios":"levelo://app?vid=08d57459-9793-4995-a33b-08ac679654b1"},"vehicle_type_id":"4","last_reported":1685387147,"current_range_meters":20000,"station_id":"ce4bha92rcd13ifvqeg0","pricing_plan_id":"free"},{"bike_id":"162120b4-939d-4fdc-8d35-b14a5569d8cc","system_id":"levelo_inurba_marseille","lat":43.294153,"lon":5.386305,"is_reserved":false,"is_disabled":false,"rental_uris":{"android":"levelo://app?vid=162120b4-939d-4fdc-8d35-b14a5569d8cc","ios":"levelo://app?vid=162120b4-939d-4fdc-8d35-b14a5569d8cc"},"vehicle_type_id":"4","last_reported":1685387147,"current_range_meters":8800,"station_id":"ce4bh2h2rcd13ifvqdh0","pricing_plan_id":"free"},{"bike_id":"918532cc-9c9e-49b3-abbe-c2b69cfa3f3b","system_id":"levelo_inurba_marseille","lat":43.29412,"lon":5.3863,"is_reserved":false,"is_disabled":false,"rental_uris":{"android":"levelo://app?vid=918532cc-9c9e-49b3-abbe-c2b69cfa3f3b","ios":"levelo://app?vid=918532cc-9c9e-49b3-abbe-c2b69cfa3f3b"},"vehicle_type_id":"4","last_reported":1685387147,"current_range_meters":5600,"station_id":"ce4bh2h2rcd13ifvqdh0","pricing_plan_id":"free"},{"bike_id":"be14c744-62a1-4994-a783-0f165580ec6a","system_id":"levelo_inurba_marseille","lat":43.289468,"lon":5.363719,"is_reserved":false,"is_disabled":false,"rental_uris":{"android":"levelo://app?vid=be14c744-62a1-4994-a783-0f165580ec6a","ios":"levelo://app?vid=be14c744-62a1-4994-a783-0f165580ec6a"},"vehicle_type_id":"4","last_reported":1685387147,"current_range_meters":2400,"station_id":"ce4bhc92rcd13ifvqetg","pricing_plan_id":"free"},{"bike_id":"74523e2a-6966-4b78-aa66-faea97e87801","system_id":"levelo_inurba_marseille","lat":43.29272,"lon":5.384377,"is_reserved":false,"is_disabled":false,"rental_uris":{"android":"levelo://app?vid=74523e2a-6966-4b78-aa66-faea97e87801","ios":"levelo://app?vid=74523e2a-6966-4b78-aa66-faea97e87801"},"vehicle_type_id":"4","last_reported":1685387147,"current_range_meters":2800,"station_id":"ce4bh692rcd13ifvqea0","pricing_plan_id":"free"},{"bike_id":"5c08b696-ebd3-41b9-bbde-65d0159cdbd6","system_id":"levelo_inurba_marseille","lat":43.292642,"lon":5.384254,"is_reserved":false,"is_disabled":false,"rental_uris":{"android":"levelo://app?vid=5c08b696-ebd3-41b9-bbde-65d0159cdbd6","ios":"levelo://app?vid=5c08b696-ebd3-41b9-bbde-65d0159cdbd6"},"vehicle_type_id":"4","last_reported":1685387147,"current_range_meters":30000,"station_id":"ce4bh692rcd13ifvqea0","pricing_plan_id":"free"},{"bike_id":"8e954851-600c-4f9a-a89b-c739346df864","system_id":"levelo_inurba_marseille","lat":43.292644,"lon":5.384257,"is_reserved":false,"is_disabled":false,"rental_uris":{"android":"levelo://app?vid=8e954851-600c-4f9a-a89b-c739346df864","ios":"levelo://app?vid=8e954851-600c-4f9a-a89b-c739346df864"},"vehicle_type_id":"4","last_reported":1685387147,"current_range_meters":24800,"station_id":"ce4bh692rcd13ifvqea0","pricing_plan_id":"free"},{"bike_id":"265d4ef8-32ee-457b-baa2-bc14e984d33c","system_id":"levelo_inurba_marseille","lat":43.29265,"lon":5.38433,"is_reserved":false,"is_disabled":false,"rental_uris":{"android":"levelo://app?vid=265d4ef8-32ee-457b-baa2-bc14e984d33c","ios":"levelo://app?vid=265d4ef8-32ee-457b-baa2-bc14e984d33c"},"vehicle_type_id":"4","last_reported":1685387147,"current_range_meters":0,"station_id":"ce4bh692rcd13ifvqea0","pricing_plan_id":"free"},{"bike_id":"c07f7e9b-1cd9-48cc-8bbc-0a89c47c847e","system_id":"levelo_inurba_marseille","lat":43.29261,"lon":5.38436,"is_reserved":false,"is_disabled":false,"rental_uris":{"android":"levelo://app?vid=c07f7e9b-1cd9-48cc-8bbc-0a89c47c847e","ios":"levelo://app?vid=c07f7e9b-1cd9-48cc-8bbc-0a89c47c847e"},"vehicle_type_id":"4","last_reported":1685387147,"current_range_meters":14400,"station_id":"ce4bh692rcd13ifvqea0","pricing_plan_id":"free"},{"bike_id":"6793d4be-dc68-4964-916a-8a23a251243f","system_id":"levelo_inurba_marseille","lat":43.29261,"lon":5.38437,"is_reserved":false,"is_disabled":false,"rental_uris":{"android":"levelo://app?vid=6793d4be-dc68-4964-916a-8a23a251243f","ios":"levelo://app?vid=6793d4be-dc68-4964-916a-8a23a251243f"},"vehicle_type_id":"4","last_reported":1685387147,"current_range_meters":0,"station_id":"ce4bh692rcd13ifvqea0","pricing_plan_id":"free"},{"bike_id":"959ace2a-f7bf-4d8f-aadd-7cb0cb6613db","system_id":"levelo_inurba_marseille","lat":43.29261,"lon":5.38438,"is_reserved":false,"is_disabled":false,"rental_uris":{"android":"levelo://app?vid=959ace2a-f7bf-4d8f-aadd-7cb0cb6613db","ios":"levelo://app?vid=959ace2a-f7bf-4d8f-aadd-7cb0cb6613db"},"vehicle_type_id":"4","last_reported":1685387147,"current_range_meters":4000,"station_id":"ce4bh692rcd13ifvqea0","pricing_plan_id":"free"},{"bike_id":"a42a09c2-d8a7-4a3f-a3c3-683c7ac6b871","system_id":"levelo_inurba_marseille","lat":43.29259,"lon":5.38434,"is_reserved":false,"is_disabled":false,"rental_uris":{"android":"levelo://app?vid=a42a09c2-d8a7-4a3f-a3c3-683c7ac6b871","ios":"levelo://app?vid=a42a09c2-d8a7-4a3f-a3c3-683c7ac6b871"},"vehicle_type_id":"4","last_reported":1685387147,"current_range_meters":16800,"station_id":"ce4bh692rcd13ifvqea0","pricing_plan_id":"free"},{"bike_id":"737f8368-7f5a-4345-b593-d90b057c30c7","system_id":"levelo_inurba_marseille","lat":43.292642,"lon":5.384254,"is_reserved":false,"is_disabled":false,"rental_uris":{"android":"levelo://app?vid=737f8368-7f5a-4345-b593-d90b057c30c7","ios":"levelo://app?vid=737f8368-7f5a-4345-b593-d90b057c30c7"},"vehicle_type_id":"4","last_reported":1685387147,"current_range_meters":20400,"station_id":"ce4bh692rcd13ifvqea0","pricing_plan_id":"free"},{"bike_id":"3a13c2c8-21b4-4017-adda-6a0360008bbc","system_id":"levelo_inurba_marseille","lat":43.292642,"lon":5.384254,"is_reserved":false,"is_disabled":false,"rental_uris":{"android":"levelo://app?vid=3a13c2c8-21b4-4017-adda-6a0360008bbc","ios":"levelo://app?vid=3a13c2c8-21b4-4017-adda-6a0360008bbc"},"vehicle_type_id":"4","last_reported":1685387147,"current_range_meters":16000,"station_id":"ce4bh692rcd13ifvqea0","pricing_plan_id":"free"},{"bike_id":"8082a95e-cd4e-4664-997f-4bf2b6c1bbe1","system_id":"levelo_inurba_marseille","lat":43.304296,"lon":5.397513,"is_reserved":false,"is_disabled":false,"rental_uris":{"android":"levelo://app?vid=8082a95e-cd4e-4664-997f-4bf2b6c1bbe1","ios":"levelo://app?vid=8082a95e-cd4e-4664-997f-4bf2b6c1bbe1"},"vehicle_type_id":"4","last_reported":1685387147,"current_range_meters":16800,"station_id":"ce4bh092rcd13ifvqd20","pricing_plan_id":"free"},{"bike_id":"b65ad4fa-7981-4ea3-abc1-8a1a22282700","system_id":"levelo_inurba_marseille","lat":43.292642,"lon":5.384254,"is_reserved":false,"is_disabled":false,"rental_uris":{"android":"levelo://app?vid=b65ad4fa-7981-4ea3-abc1-8a1a22282700","ios":"levelo://app?vid=b65ad4fa-7981-4ea3-abc1-8a1a22282700"},"vehicle_type_id":"4","last_reported":1685387147,"current_range_meters":3600,"station_id":"ce4bh692rcd13ifvqea0","pricing_plan_id":"free"},{"bike_id":"4cf8ddb7-c715-431f-af68-cff634ec577d","system_id":"levelo_inurba_marseille","lat":43.292642,"lon":5.384254,"is_reserved":false,"is_disabled":false,"rental_uris":{"android":"levelo://app?vid=4cf8ddb7-c715-431f-af68-cff634ec577d","ios":"levelo://app?vid=4cf8ddb7-c715-431f-af68-cff634ec577d"},"vehicle_type_id":"4","last_reported":1685387147,"current_range_meters":1600,"station_id":"ce4bh692rcd13ifvqea0","pricing_plan_id":"free"},{"bike_id":"606121be-90f8-4169-a66a-5cafc7acd365","system_id":"levelo_inurba_marseille","lat":43.290104,"lon":5.356111,"is_reserved":false,"is_disabled":false,"rental_uris":{"android":"levelo://app?vid=606121be-90f8-4169-a66a-5cafc7acd365","ios":"levelo://app?vid=606121be-90f8-4169-a66a-5cafc7acd365"},"vehicle_type_id":"4","last_reported":1685387147,"current_range_meters":0,"station_id":"ce4bhb92rcd13ifvqen0","pricing_plan_id":"free"},{"bike_id":"eb2ddfe4-4895-492a-9ef3-9d8d5fc8230b","system_id":"levelo_inurba_marseille","lat":43.33043,"lon":5.38917,"is_reserved":false,"is_disabled":false,"rental_uris":{"android":"levelo://app?vid=eb2ddfe4-4895-492a-9ef3-9d8d5fc8230b","ios":"levelo://app?vid=eb2ddfe4-4895-492a-9ef3-9d8d5fc8230b"},"vehicle_type_id":"4","last_reported":1685387147,"current_range_meters":0,"station_id":"ce4bhr92rcd13ifvqhrg","pricing_plan_id":"free"},{"bike_id":"e55f98b2-fb9d-47d0-b629-242289c89736","system_id":"levelo_inurba_marseille","lat":43.290104,"lon":5.356111,"is_reserved":false,"is_disabled":false,"rental_uris":{"android":"levelo://app?vid=e55f98b2-fb9d-47d0-b629-242289c89736","ios":"levelo://app?vid=e55f98b2-fb9d-47d0-b629-242289c89736"},"vehicle_type_id":"4","last_reported":1685387147,"current_range_meters":13200,"station_id":"ce4bhb92rcd13ifvqen0","pricing_plan_id":"free"},{"bike_id":"3e66a956-67ee-4e7f-b239-371919f1f12c","system_id":"levelo_inurba_marseille","lat":43.309038,"lon":5.396546,"is_reserved":false,"is_disabled":false,"rental_uris":{"android":"levelo://app?vid=3e66a956-67ee-4e7f-b239-371919f1f12c","ios":"levelo://app?vid=3e66a956-67ee-4e7f-b239-371919f1f12c"},"vehicle_type_id":"4","last_reported":1685387147,"current_range_meters":12400,"station_id":"ce4bh012rcd13ifvqcv0","pricing_plan_id":"free"},{"bike_id":"eb40b71e-3f77-41cb-bdfc-3b7bac5ae710","system_id":"levelo_inurba_marseille","lat":43.290995,"lon":5.381361,"is_reserved":false,"is_disabled":false,"rental_uris":{"android":"levelo://app?vid=eb40b71e-3f77-41cb-bdfc-3b7bac5ae710","ios":"levelo://app?vid=eb40b71e-3f77-41cb-bdfc-3b7bac5ae710"},"vehicle_type_id":"4","last_reported":1685387147,"current_range_meters":16000,"station_id":"ce4bh512rcd13ifvqe2g","pricing_plan_id":"free"},{"bike_id":"5ce01d77-d020-4e62-ab75-60f6261d71be","system_id":"levelo_inurba_marseille","lat":43.290995,"lon":5.381361,"is_reserved":false,"is_disabled":false,"rental_uris":{"android":"levelo://app?vid=5ce01d77-d020-4e62-ab75-60f6261d71be","ios":"levelo://app?vid=5ce01d77-d020-4e62-ab75-60f6261d71be"},"vehicle_type_id":"4","last_reported":1685387147,"current_range_meters":0,"station_id":"ce4bh512rcd13ifvqe2g","pricing_plan_id":"free"},{"bike_id":"4429ca3a-7458-4f14-b5bf-e4bc9146a799","system_id":"levelo_inurba_marseille","lat":43.290995,"lon":5.381361,"is_reserved":false,"is_disabled":false,"rental_uris":{"android":"levelo://app?vid=4429ca3a-7458-4f14-b5bf-e4bc9146a799","ios":"levelo://app?vid=4429ca3a-7458-4f14-b5bf-e4bc9146a799"},"vehicle_type_id":"4","last_reported":1685387147,"current_range_meters":0,"station_id":"ce4bh512rcd13ifvqe2g","pricing_plan_id":"free"},{"bike_id":"37779d1a-29b1-40f4-befc-fafeb0e830e1","system_id":"levelo_inurba_marseille","lat":43.297814,"lon":5.393513,"is_reserved":false,"is_disabled":false,"rental_uris":{"android":"levelo://app?vid=37779d1a-29b1-40f4-befc-fafeb0e830e1","ios":"levelo://app?vid=37779d1a-29b1-40f4-befc-fafeb0e830e1"},"vehicle_type_id":"4","last_reported":1685387147,"current_range_meters":12400,"station_id":"chh1huq6cuj3fo74tm60","pricing_plan_id":"free"},{"bike_id":"763026ec-2b9a-4580-8d1a-654167259792","system_id":"levelo_inurba_marseille","lat":43.297814,"lon":5.393513,"is_reserved":false,"is_disabled":false,"rental_uris":{"android":"levelo://app?vid=763026ec-2b9a-4580-8d1a-654167259792","ios":"levelo://app?vid=763026ec-2b9a-4580-8d1a-654167259792"},"vehicle_type_id":"4","last_reported":1685387147,"current_range_meters":7200,"station_id":"chh1huq6cuj3fo74tm60","pricing_plan_id":"free"},{"bike_id":"c9bce9e8-f713-47cd-92d1-41364a7fc8a1","system_id":"levelo_inurba_marseille","lat":43.295169,"lon":5.390426,"is_reserved":false,"is_disabled":false,"rental_uris":{"android":"levelo://app?vid=c9bce9e8-f713-47cd-92d1-41364a7fc8a1","ios":"levelo://app?vid=c9bce9e8-f713-47cd-92d1-41364a7fc8a1"},"vehicle_type_id":"4","last_reported":1685387147,"current_range_meters":10400,"station_id":"ce4bh3p2rcd13ifvqdp0","pricing_plan_id":"free"},{"bike_id":"e00f9956-3fe2-4869-add0-8ca8dbc0d8eb","system_id":"levelo_inurba_marseille","lat":43.295169,"lon":5.390426,"is_reserved":false,"is_disabled":false,"rental_uris":{"android":"levelo://app?vid=e00f9956-3fe2-4869-add0-8ca8dbc0d8eb","ios":"levelo://app?vid=e00f9956-3fe2-4869-add0-8ca8dbc0d8eb"},"vehicle_type_id":"4","last_reported":1685387147,"current_range_meters":18000,"station_id":"ce4bh3p2rcd13ifvqdp0","pricing_plan_id":"free"},{"bike_id":"141c14ea-594b-43ee-894e-8c44af1dcd73","system_id":"levelo_inurba_marseille","lat":43.33741,"lon":5.37457,"is_reserved":false,"is_disabled":false,"rental_uris":{"android":"levelo://app?vid=141c14ea-594b-43ee-894e-8c44af1dcd73","ios":"levelo://app?vid=141c14ea-594b-43ee-894e-8c44af1dcd73"},"vehicle_type_id":"4","last_reported":1685387147,"current_range_meters":31200,"station_id":"","pricing_plan_id":"free"},{"bike_id":"493860ce-e063-4684-ab33-c360eaf64153","system_id":"levelo_inurba_marseille","lat":43.33744,"lon":5.37451,"is_reserved":false,"is_disabled":false,"rental_uris":{"android":"levelo://app?vid=493860ce-e063-4684-ab33-c360eaf64153","ios":"levelo://app?vid=493860ce-e063-4684-ab33-c360eaf64153"},"vehicle_type_id":"4","last_reported":1685387147,"current_range_meters":13200,"station_id":"","pricing_plan_id":"free"},{"bike_id":"c67b547c-3fcb-4384-8614-e15f558fec55","system_id":"levelo_inurba_marseille","lat":43.33744,"lon":5.37451,"is_reserved":false,"is_disabled":false,"rental_uris":{"android":"levelo://app?vid=c67b547c-3fcb-4384-8614-e15f558fec55","ios":"levelo://app?vid=c67b547c-3fcb-4384-8614-e15f558fec55"},"vehicle_type_id":"4","last_reported":1685387147,"current_range_meters":22400,"station_id":"","pricing_plan_id":"free"},{"bike_id":"556c6db1-2600-4c2b-9521-aae8453517c1","system_id":"levelo_inurba_marseille","lat":43.3375,"lon":5.37435,"is_reserved":false,"is_disabled":false,"rental_uris":{"android":"levelo://app?vid=556c6db1-2600-4c2b-9521-aae8453517c1","ios":"levelo://app?vid=556c6db1-2600-4c2b-9521-aae8453517c1"},"vehicle_type_id":"4","last_reported":1685387147,"current_range_meters":8800,"station_id":"","pricing_plan_id":"free"},{"bike_id":"b1ed10f9-b3fd-4b57-8740-81cf5e5b956b","system_id":"levelo_inurba_marseille","lat":43.301117,"lon":5.398795,"is_reserved":false,"is_disabled":false,"rental_uris":{"android":"levelo://app?vid=b1ed10f9-b3fd-4b57-8740-81cf5e5b956b","ios":"levelo://app?vid=b1ed10f9-b3fd-4b57-8740-81cf5e5b956b"},"vehicle_type_id":"4","last_reported":1685387147,"current_range_meters":15600,"station_id":"ce4bh0h2rcd13ifvqd40","pricing_plan_id":"free"},{"bike_id":"e8707c1c-8a15-4756-a2b2-099e51b03562","system_id":"levelo_inurba_marseille","lat":43.301117,"lon":5.398795,"is_reserved":false,"is_disabled":false,"rental_uris":{"android":"levelo://app?vid=e8707c1c-8a15-4756-a2b2-099e51b03562","ios":"levelo://app?vid=e8707c1c-8a15-4756-a2b2-099e51b03562"},"vehicle_type_id":"4","last_reported":1685387147,"current_range_meters":15200,"station_id":"ce4bh0h2rcd13ifvqd40","pricing_plan_id":"free"},{"bike_id":"f7c6dd2d-7d66-43b1-95b0-1c66fc4c5036","system_id":"levelo_inurba_marseille","lat":43.301117,"lon":5.398795,"is_reserved":false,"is_disabled":false,"rental_uris":{"android":"levelo://app?vid=f7c6dd2d-7d66-43b1-95b0-1c66fc4c5036","ios":"levelo://app?vid=f7c6dd2d-7d66-43b1-95b0-1c66fc4c5036"},"vehicle_type_id":"4","last_reported":1685387147,"current_range_meters":29200,"station_id":"ce4bh0h2rcd13ifvqd40","pricing_plan_id":"free"},{"bike_id":"3eb9dd09-ec82-4940-9cd2-db24ca7d5eba","system_id":"levelo_inurba_marseille","lat":43.301117,"lon":5.398795,"is_reserved":false,"is_disabled":false,"rental_uris":{"android":"levelo://app?vid=3eb9dd09-ec82-4940-9cd2-db24ca7d5eba","ios":"levelo://app?vid=3eb9dd09-ec82-4940-9cd2-db24ca7d5eba"},"vehicle_type_id":"4","last_reported":1685387147,"current_range_meters":12400,"station_id":"ce4bh0h2rcd13ifvqd40","pricing_plan_id":"free"},{"bike_id":"63a9223a-b042-46b7-8247-e66689d83fc0","system_id":"levelo_inurba_marseille","lat":43.301117,"lon":5.398795,"is_reserved":false,"is_disabled":false,"rental_uris":{"android":"levelo://app?vid=63a9223a-b042-46b7-8247-e66689d83fc0","ios":"levelo://app?vid=63a9223a-b042-46b7-8247-e66689d83fc0"},"vehicle_type_id":"4","last_reported":1685387147,"current_range_meters":22800,"station_id":"ce4bh0h2rcd13ifvqd40","pricing_plan_id":"free"},{"bike_id":"6098e7c1-a1a6-4a71-9c15-707f87dead59","system_id":"levelo_inurba_marseille","lat":43.286591,"lon":5.363346,"is_reserved":false,"is_disabled":false,"rental_uris":{"android":"levelo://app?vid=6098e7c1-a1a6-4a71-9c15-707f87dead59","ios":"levelo://app?vid=6098e7c1-a1a6-4a71-9c15-707f87dead59"},"vehicle_type_id":"4","last_reported":1685387147,"current_range_meters":2000,"station_id":"ce4bhah2rcd13ifvqej0","pricing_plan_id":"free"},{"bike_id":"aa6213e3-72f1-4cb4-8fc3-a52685304eb5","system_id":"levelo_inurba_marseille","lat":43.28752,"lon":5.37707,"is_reserved":false,"is_disabled":false,"rental_uris":{"android":"levelo://app?vid=aa6213e3-72f1-4cb4-8fc3-a52685304eb5","ios":"levelo://app?vid=aa6213e3-72f1-4cb4-8fc3-a52685304eb5"},"vehicle_type_id":"4","last_reported":1685387147,"current_range_meters":5200,"station_id":"","pricing_plan_id":"free"},{"bike_id":"797911c4-c442-42d7-a605-a92f9625d0f6","system_id":"levelo_inurba_marseille","lat":43.286593,"lon":5.363346,"is_reserved":false,"is_disabled":false,"rental_uris":{"android":"levelo://app?vid=797911c4-c442-42d7-a605-a92f9625d0f6","ios":"levelo://app?vid=797911c4-c442-42d7-a605-a92f9625d0f6"},"vehicle_type_id":"4","last_reported":1685387147,"current_range_meters":11200,"station_id":"ce4bhah2rcd13ifvqej0","pricing_plan_id":"free"},{"bike_id":"014740b8-a0f3-4926-aef4-126d2f3bab10","system_id":"levelo_inurba_marseille","lat":43.295194,"lon":5.39397,"is_reserved":false,"is_disabled":false,"rental_uris":{"android":"levelo://app?vid=014740b8-a0f3-4926-aef4-126d2f3bab10","ios":"levelo://app?vid=014740b8-a0f3-4926-aef4-126d2f3bab10"},"vehicle_type_id":"4","last_reported":1685387147,"current_range_meters":10800,"station_id":"ce4bh292rcd13ifvqdf0","pricing_plan_id":"free"},{"bike_id":"4f2265ac-a33a-4989-918e-96163d6cfadc","system_id":"levelo_inurba_marseille","lat":43.30248,"lon":5.40052,"is_reserved":false,"is_disabled":false,"rental_uris":{"android":"levelo://app?vid=4f2265ac-a33a-4989-918e-96163d6cfadc","ios":"levelo://app?vid=4f2265ac-a33a-4989-918e-96163d6cfadc"},"vehicle_type_id":"4","last_reported":1685387147,"current_range_meters":6400,"station_id":"","pricing_plan_id":"free"},{"bike_id":"c144603d-bc7a-4a1d-9665-6b37cf0439f7","system_id":"levelo_inurba_marseille","lat":43.302759,"lon":5.400793,"is_reserved":false,"is_disabled":false,"rental_uris":{"android":"levelo://app?vid=c144603d-bc7a-4a1d-9665-6b37cf0439f7","ios":"levelo://app?vid=c144603d-bc7a-4a1d-9665-6b37cf0439f7"},"vehicle_type_id":"4","last_reported":1685387147,"current_range_meters":800,"station_id":"ce4bgvh2rcd13ifvqcs0","pricing_plan_id":"free"},{"bike_id":"679ec149-c68c-4218-a702-96a7420080ec","system_id":"levelo_inurba_marseille","lat":43.302759,"lon":5.400793,"is_reserved":false,"is_disabled":false,"rental_uris":{"android":"levelo://app?vid=679ec149-c68c-4218-a702-96a7420080ec","ios":"levelo://app?vid=679ec149-c68c-4218-a702-96a7420080ec"},"vehicle_type_id":"4","last_reported":1685387147,"current_range_meters":21200,"station_id":"ce4bgvh2rcd13ifvqcs0","pricing_plan_id":"free"},{"bike_id":"c5b14af7-b978-4404-a525-e495c3dd7863","system_id":"levelo_inurba_marseille","lat":43.302759,"lon":5.400793,"is_reserved":false,"is_disabled":false,"rental_uris":{"android":"levelo://app?vid=c5b14af7-b978-4404-a525-e495c3dd7863","ios":"levelo://app?vid=c5b14af7-b978-4404-a525-e495c3dd7863"},"vehicle_type_id":"4","last_reported":1685387147,"current_range_meters":2800,"station_id":"ce4bgvh2rcd13ifvqcs0","pricing_plan_id":"free"},{"bike_id":"ee96a0bd-8e98-402f-b122-74a3b50ae4f4","system_id":"levelo_inurba_marseille","lat":43.302759,"lon":5.400793,"is_reserved":false,"is_disabled":false,"rental_uris":{"android":"levelo://app?vid=ee96a0bd-8e98-402f-b122-74a3b50ae4f4","ios":"levelo://app?vid=ee96a0bd-8e98-402f-b122-74a3b50ae4f4"},"vehicle_type_id":"4","last_reported":1685387147,"current_range_meters":2800,"station_id":"ce4bgvh2rcd13ifvqcs0","pricing_plan_id":"free"},{"bike_id":"37b5dc5b-977a-460b-a0d8-70df47394c1f","system_id":"levelo_inurba_marseille","lat":43.286039,"lon":5.370679,"is_reserved":false,"is_disabled":false,"rental_uris":{"android":"levelo://app?vid=37b5dc5b-977a-460b-a0d8-70df47394c1f","ios":"levelo://app?vid=37b5dc5b-977a-460b-a0d8-70df47394c1f"},"vehicle_type_id":"4","last_reported":1685387147,"current_range_meters":15600,"station_id":"ce4bht12rcd13ifvqi60","pricing_plan_id":"free"},{"bike_id":"acc2b940-10df-43d1-a355-393a48a16ce9","system_id":"levelo_inurba_marseille","lat":43.29006,"lon":5.38671,"is_reserved":false,"is_disabled":false,"rental_uris":{"android":"levelo://app?vid=acc2b940-10df-43d1-a355-393a48a16ce9","ios":"levelo://app?vid=acc2b940-10df-43d1-a355-393a48a16ce9"},"vehicle_type_id":"4","last_reported":1685387147,"current_range_meters":0,"station_id":"","pricing_plan_id":"free"},{"bike_id":"c5021a32-e1c0-4ed6-803c-4998512206c4","system_id":"levelo_inurba_marseille","lat":43.31646,"lon":5.40428,"is_reserved":false,"is_disabled":false,"rental_uris":{"android":"levelo://app?vid=c5021a32-e1c0-4ed6-803c-4998512206c4","ios":"levelo://app?vid=c5021a32-e1c0-4ed6-803c-4998512206c4"},"vehicle_type_id":"4","last_reported":1685387147,"current_range_meters":2800,"station_id":"ce4bh012rcd13ifvqd00","pricing_plan_id":"free"},{"bike_id":"356a0ed3-f419-4208-abb4-25a6818607c4","system_id":"levelo_inurba_marseille","lat":43.316517,"lon":5.404375,"is_reserved":false,"is_disabled":false,"rental_uris":{"android":"levelo://app?vid=356a0ed3-f419-4208-abb4-25a6818607c4","ios":"levelo://app?vid=356a0ed3-f419-4208-abb4-25a6818607c4"},"vehicle_type_id":"4","last_reported":1685387147,"current_range_meters":15200,"station_id":"ce4bh012rcd13ifvqd00","pricing_plan_id":"free"},{"bike_id":"ecd6f500-ff28-484f-a2f8-9b5bee678a48","system_id":"levelo_inurba_marseille","lat":43.291994,"lon":5.392907,"is_reserved":false,"is_disabled":false,"rental_uris":{"android":"levelo://app?vid=ecd6f500-ff28-484f-a2f8-9b5bee678a48","ios":"levelo://app?vid=ecd6f500-ff28-484f-a2f8-9b5bee678a48"},"vehicle_type_id":"4","last_reported":1685387147,"current_range_meters":19600,"station_id":"ce4bh192rcd13ifvqdd0","pricing_plan_id":"free"},{"bike_id":"8539186d-7e6e-4680-be1e-b0e36b2cba54","system_id":"levelo_inurba_marseille","lat":43.284534,"lon":5.358662,"is_reserved":false,"is_disabled":false,"rental_uris":{"android":"levelo://app?vid=8539186d-7e6e-4680-be1e-b0e36b2cba54","ios":"levelo://app?vid=8539186d-7e6e-4680-be1e-b0e36b2cba54"},"vehicle_type_id":"4","last_reported":1685387147,"current_range_meters":27600,"station_id":"ce4bhah2rcd13ifvqei0","pricing_plan_id":"free"},{"bike_id":"fe752201-c96b-4ae8-a073-9a092ab6cf8b","system_id":"levelo_inurba_marseille","lat":43.28463,"lon":5.35879,"is_reserved":false,"is_disabled":false,"rental_uris":{"android":"levelo://app?vid=fe752201-c96b-4ae8-a073-9a092ab6cf8b","ios":"levelo://app?vid=fe752201-c96b-4ae8-a073-9a092ab6cf8b"},"vehicle_type_id":"4","last_reported":1685387147,"current_range_meters":10800,"station_id":"ce4bhah2rcd13ifvqei0","pricing_plan_id":"free"},{"bike_id":"3c83aa28-a5f3-4e32-8842-87922f0cf9ac","system_id":"levelo_inurba_marseille","lat":43.28461,"lon":5.3589,"is_reserved":false,"is_disabled":false,"rental_uris":{"android":"levelo://app?vid=3c83aa28-a5f3-4e32-8842-87922f0cf9ac","ios":"levelo://app?vid=3c83aa28-a5f3-4e32-8842-87922f0cf9ac"},"vehicle_type_id":"4","last_reported":1685387147,"current_range_meters":0,"station_id":"ce4bhah2rcd13ifvqei0","pricing_plan_id":"free"},{"bike_id":"d19374db-964d-4745-937b-59344220d081","system_id":"levelo_inurba_marseille","lat":43.28455,"lon":5.3589,"is_reserved":false,"is_disabled":false,"rental_uris":{"android":"levelo://app?vid=d19374db-964d-4745-937b-59344220d081","ios":"levelo://app?vid=d19374db-964d-4745-937b-59344220d081"},"vehicle_type_id":"4","last_reported":1685387147,"current_range_meters":2400,"station_id":"ce4bhah2rcd13ifvqei0","pricing_plan_id":"free"},{"bike_id":"a20ca5fb-79b9-430b-b339-862d7035b1f4","system_id":"levelo_inurba_marseille","lat":43.284534,"lon":5.358662,"is_reserved":false,"is_disabled":false,"rental_uris":{"android":"levelo://app?vid=a20ca5fb-79b9-430b-b339-862d7035b1f4","ios":"levelo://app?vid=a20ca5fb-79b9-430b-b339-862d7035b1f4"},"vehicle_type_id":"4","last_reported":1685387147,"current_range_meters":0,"station_id":"ce4bhah2rcd13ifvqei0","pricing_plan_id":"free"},{"bike_id":"e71b44dc-2105-4598-8b20-4aa5c4b1ea81","system_id":"levelo_inurba_marseille","lat":43.28614,"lon":5.35107,"is_reserved":false,"is_disabled":false,"rental_uris":{"android":"levelo://app?vid=e71b44dc-2105-4598-8b20-4aa5c4b1ea81","ios":"levelo://app?vid=e71b44dc-2105-4598-8b20-4aa5c4b1ea81"},"vehicle_type_id":"4","last_reported":1685387147,"current_range_meters":1200,"station_id":"","pricing_plan_id":"free"},{"bike_id":"9c2195c7-a6d1-4e8c-ab4b-15d16eaa0c1e","system_id":"levelo_inurba_marseille","lat":43.29568,"lon":5.3999,"is_reserved":false,"is_disabled":false,"rental_uris":{"android":"levelo://app?vid=9c2195c7-a6d1-4e8c-ab4b-15d16eaa0c1e","ios":"levelo://app?vid=9c2195c7-a6d1-4e8c-ab4b-15d16eaa0c1e"},"vehicle_type_id":"4","last_reported":1685387147,"current_range_meters":15200,"station_id":"ce4bh312rcd13ifvqdj0","pricing_plan_id":"free"},{"bike_id":"c94c4615-9dcb-4f70-b5b8-af7fff257e5e","system_id":"levelo_inurba_marseille","lat":43.286595,"lon":5.386795,"is_reserved":false,"is_disabled":false,"rental_uris":{"android":"levelo://app?vid=c94c4615-9dcb-4f70-b5b8-af7fff257e5e","ios":"levelo://app?vid=c94c4615-9dcb-4f70-b5b8-af7fff257e5e"},"vehicle_type_id":"4","last_reported":1685387147,"current_range_meters":1200,"station_id":"ce4bh492rcd13ifvqdug","pricing_plan_id":"free"},{"bike_id":"e2fc3e02-c01e-4cf9-b6e1-91c460e6e31b","system_id":"levelo_inurba_marseille","lat":43.323464,"lon":5.406297,"is_reserved":false,"is_disabled":false,"rental_uris":{"android":"levelo://app?vid=e2fc3e02-c01e-4cf9-b6e1-91c460e6e31b","ios":"levelo://app?vid=e2fc3e02-c01e-4cf9-b6e1-91c460e6e31b"},"vehicle_type_id":"4","last_reported":1685387147,"current_range_meters":1200,"station_id":"ce4bhq92rcd13ifvqhjg","pricing_plan_id":"free"},{"bike_id":"b28f8b3e-c8f6-4ee2-a062-a87a4858c447","system_id":"levelo_inurba_marseille","lat":43.284793,"lon":5.384119,"is_reserved":false,"is_disabled":false,"rental_uris":{"android":"levelo://app?vid=b28f8b3e-c8f6-4ee2-a062-a87a4858c447","ios":"levelo://app?vid=b28f8b3e-c8f6-4ee2-a062-a87a4858c447"},"vehicle_type_id":"4","last_reported":1685387147,"current_range_meters":2400,"station_id":"ce4bh512rcd13ifvqe3g","pricing_plan_id":"free"},{"bike_id":"f21d15bf-5d6f-481e-8dee-e2df05eea73f","system_id":"levelo_inurba_marseille","lat":43.284793,"lon":5.384119,"is_reserved":false,"is_disabled":false,"rental_uris":{"android":"levelo://app?vid=f21d15bf-5d6f-481e-8dee-e2df05eea73f","ios":"levelo://app?vid=f21d15bf-5d6f-481e-8dee-e2df05eea73f"},"vehicle_type_id":"4","last_reported":1685387147,"current_range_meters":0,"station_id":"ce4bh512rcd13ifvqe3g","pricing_plan_id":"free"},{"bike_id":"387f4afe-c9db-4910-9c16-dea29f143b85","system_id":"levelo_inurba_marseille","lat":43.284787,"lon":5.384116,"is_reserved":false,"is_disabled":false,"rental_uris":{"android":"levelo://app?vid=387f4afe-c9db-4910-9c16-dea29f143b85","ios":"levelo://app?vid=387f4afe-c9db-4910-9c16-dea29f143b85"},"vehicle_type_id":"4","last_reported":1685387147,"current_range_meters":2400,"station_id":"ce4bh512rcd13ifvqe3g","pricing_plan_id":"free"},{"bike_id":"84da99b7-958c-4a50-9975-b90e5a791625","system_id":"levelo_inurba_marseille","lat":43.284793,"lon":5.384119,"is_reserved":false,"is_disabled":false,"rental_uris":{"android":"levelo://app?vid=84da99b7-958c-4a50-9975-b90e5a791625","ios":"levelo://app?vid=84da99b7-958c-4a50-9975-b90e5a791625"},"vehicle_type_id":"4","last_reported":1685387147,"current_range_meters":6000,"station_id":"ce4bh512rcd13ifvqe3g","pricing_plan_id":"free"},{"bike_id":"b340bc7c-339a-41ef-8d27-a5687ae287d8","system_id":"levelo_inurba_marseille","lat":43.2886,"lon":5.39304,"is_reserved":false,"is_disabled":false,"rental_uris":{"android":"levelo://app?vid=b340bc7c-339a-41ef-8d27-a5687ae287d8","ios":"levelo://app?vid=b340bc7c-339a-41ef-8d27-a5687ae287d8"},"vehicle_type_id":"4","last_reported":1685387147,"current_range_meters":5600,"station_id":"ce4bh2p2rcd13ifvqdi0","pricing_plan_id":"free"},{"bike_id":"97195d90-5055-448c-bb65-07a6a2c11011","system_id":"levelo_inurba_marseille","lat":43.28849,"lon":5.39303,"is_reserved":false,"is_disabled":false,"rental_uris":{"android":"levelo://app?vid=97195d90-5055-448c-bb65-07a6a2c11011","ios":"levelo://app?vid=97195d90-5055-448c-bb65-07a6a2c11011"},"vehicle_type_id":"4","last_reported":1685387147,"current_range_meters":1200,"station_id":"ce4bh2p2rcd13ifvqdi0","pricing_plan_id":"free"},{"bike_id":"90773ef0-fb98-494c-91ca-5ef606c0a914","system_id":"levelo_inurba_marseille","lat":43.283494,"lon":5.380945,"is_reserved":false,"is_disabled":false,"rental_uris":{"android":"levelo://app?vid=90773ef0-fb98-494c-91ca-5ef606c0a914","ios":"levelo://app?vid=90773ef0-fb98-494c-91ca-5ef606c0a914"},"vehicle_type_id":"4","last_reported":1685387147,"current_range_meters":10800,"station_id":"ce4bh412rcd13ifvqdr0","pricing_plan_id":"free"},{"bike_id":"faa91aeb-9307-4ad9-99c8-d7d45d723d3f","system_id":"levelo_inurba_marseille","lat":43.283498,"lon":5.380948,"is_reserved":false,"is_disabled":false,"rental_uris":{"android":"levelo://app?vid=faa91aeb-9307-4ad9-99c8-d7d45d723d3f","ios":"levelo://app?vid=faa91aeb-9307-4ad9-99c8-d7d45d723d3f"},"vehicle_type_id":"4","last_reported":1685387147,"current_range_meters":800,"station_id":"ce4bh412rcd13ifvqdr0","pricing_plan_id":"free"},{"bike_id":"ff038a5f-e1f1-4f3c-acd8-0910f26eaf23","system_id":"levelo_inurba_marseille","lat":43.283494,"lon":5.380945,"is_reserved":false,"is_disabled":false,"rental_uris":{"android":"levelo://app?vid=ff038a5f-e1f1-4f3c-acd8-0910f26eaf23","ios":"levelo://app?vid=ff038a5f-e1f1-4f3c-acd8-0910f26eaf23"},"vehicle_type_id":"4","last_reported":1685387147,"current_range_meters":29600,"station_id":"ce4bh412rcd13ifvqdr0","pricing_plan_id":"free"},{"bike_id":"0155492d-0458-42d5-9c74-3aefabdea480","system_id":"levelo_inurba_marseille","lat":43.28427,"lon":5.34977,"is_reserved":false,"is_disabled":false,"rental_uris":{"android":"levelo://app?vid=0155492d-0458-42d5-9c74-3aefabdea480","ios":"levelo://app?vid=0155492d-0458-42d5-9c74-3aefabdea480"},"vehicle_type_id":"4","last_reported":1685387147,"current_range_meters":26000,"station_id":"ce4bhbh2rcd13ifvqepg","pricing_plan_id":"free"},{"bike_id":"59cd3a34-758a-4a5f-b0fa-95a5ab21bf2f","system_id":"levelo_inurba_marseille","lat":43.284219,"lon":5.3497,"is_reserved":false,"is_disabled":false,"rental_uris":{"android":"levelo://app?vid=59cd3a34-758a-4a5f-b0fa-95a5ab21bf2f","ios":"levelo://app?vid=59cd3a34-758a-4a5f-b0fa-95a5ab21bf2f"},"vehicle_type_id":"4","last_reported":1685387147,"current_range_meters":21200,"station_id":"ce4bhbh2rcd13ifvqepg","pricing_plan_id":"free"},{"bike_id":"b0dcd197-4922-4b78-a52a-664d390c5a38","system_id":"levelo_inurba_marseille","lat":43.283502,"lon":5.386471,"is_reserved":false,"is_disabled":false,"rental_uris":{"android":"levelo://app?vid=b0dcd197-4922-4b78-a52a-664d390c5a38","ios":"levelo://app?vid=b0dcd197-4922-4b78-a52a-664d390c5a38"},"vehicle_type_id":"4","last_reported":1685387147,"current_range_meters":21200,"station_id":"ce4bh492rcd13ifvqdvg","pricing_plan_id":"free"},{"bike_id":"73a98f4a-9b9f-42e4-9313-fc177fa45090","system_id":"levelo_inurba_marseille","lat":43.283502,"lon":5.386471,"is_reserved":false,"is_disabled":false,"rental_uris":{"android":"levelo://app?vid=73a98f4a-9b9f-42e4-9313-fc177fa45090","ios":"levelo://app?vid=73a98f4a-9b9f-42e4-9313-fc177fa45090"},"vehicle_type_id":"4","last_reported":1685387147,"current_range_meters":22400,"station_id":"ce4bh492rcd13ifvqdvg","pricing_plan_id":"free"},{"bike_id":"95339fdd-0215-41a6-b7d7-903411ef2cb6","system_id":"levelo_inurba_marseille","lat":43.28039,"lon":5.369297,"is_reserved":false,"is_disabled":false,"rental_uris":{"android":"levelo://app?vid=95339fdd-0215-41a6-b7d7-903411ef2cb6","ios":"levelo://app?vid=95339fdd-0215-41a6-b7d7-903411ef2cb6"},"vehicle_type_id":"4","last_reported":1685387147,"current_range_meters":15200,"station_id":"ce4bha12rcd13ifvqef0","pricing_plan_id":"free"},{"bike_id":"a58a5910-b4f5-490a-bbd7-038ce7c04af8","system_id":"levelo_inurba_marseille","lat":43.281044,"lon":5.378308,"is_reserved":false,"is_disabled":false,"rental_uris":{"android":"levelo://app?vid=a58a5910-b4f5-490a-bbd7-038ce7c04af8","ios":"levelo://app?vid=a58a5910-b4f5-490a-bbd7-038ce7c04af8"},"vehicle_type_id":"4","last_reported":1685387147,"current_range_meters":23600,"station_id":"ce4bha12rcd13ifvqee0","pricing_plan_id":"free"},{"bike_id":"c5929c3c-608b-4d2e-b21e-4b6c4e1c0804","system_id":"levelo_inurba_marseille","lat":43.281044,"lon":5.378308,"is_reserved":false,"is_disabled":false,"rental_uris":{"android":"levelo://app?vid=c5929c3c-608b-4d2e-b21e-4b6c4e1c0804","ios":"levelo://app?vid=c5929c3c-608b-4d2e-b21e-4b6c4e1c0804"},"vehicle_type_id":"4","last_reported":1685387147,"current_range_meters":27200,"station_id":"ce4bha12rcd13ifvqee0","pricing_plan_id":"free"},{"bike_id":"971ed3cc-3b28-4216-81fe-046c44a956ec","system_id":"levelo_inurba_marseille","lat":43.281044,"lon":5.378308,"is_reserved":false,"is_disabled":false,"rental_uris":{"android":"levelo://app?vid=971ed3cc-3b28-4216-81fe-046c44a956ec","ios":"levelo://app?vid=971ed3cc-3b28-4216-81fe-046c44a956ec"},"vehicle_type_id":"4","last_reported":1685387147,"current_range_meters":6800,"station_id":"ce4bha12rcd13ifvqee0","pricing_plan_id":"free"},{"bike_id":"f76c0686-61f9-4a8a-be7a-ab685e168a08","system_id":"levelo_inurba_marseille","lat":43.281044,"lon":5.378308,"is_reserved":false,"is_disabled":false,"rental_uris":{"android":"levelo://app?vid=f76c0686-61f9-4a8a-be7a-ab685e168a08","ios":"levelo://app?vid=f76c0686-61f9-4a8a-be7a-ab685e168a08"},"vehicle_type_id":"4","last_reported":1685387147,"current_range_meters":2400,"station_id":"ce4bha12rcd13ifvqee0","pricing_plan_id":"free"},{"bike_id":"b5e523e4-f969-4839-a37a-5a1dd7ad7df6","system_id":"levelo_inurba_marseille","lat":43.28099,"lon":5.37843,"is_reserved":false,"is_disabled":false,"rental_uris":{"android":"levelo://app?vid=b5e523e4-f969-4839-a37a-5a1dd7ad7df6","ios":"levelo://app?vid=b5e523e4-f969-4839-a37a-5a1dd7ad7df6"},"vehicle_type_id":"4","last_reported":1685387147,"current_range_meters":22400,"station_id":"ce4bha12rcd13ifvqee0","pricing_plan_id":"free"},{"bike_id":"caa21cc0-dee7-4c23-b1cf-9dac9fbadfb0","system_id":"levelo_inurba_marseille","lat":43.281044,"lon":5.378308,"is_reserved":false,"is_disabled":false,"rental_uris":{"android":"levelo://app?vid=caa21cc0-dee7-4c23-b1cf-9dac9fbadfb0","ios":"levelo://app?vid=caa21cc0-dee7-4c23-b1cf-9dac9fbadfb0"},"vehicle_type_id":"4","last_reported":1685387147,"current_range_meters":28000,"station_id":"ce4bha12rcd13ifvqee0","pricing_plan_id":"free"},{"bike_id":"9d835ed8-1041-49e2-8d8e-ccde1a696b7f","system_id":"levelo_inurba_marseille","lat":43.284462,"lon":5.392121,"is_reserved":false,"is_disabled":false,"rental_uris":{"android":"levelo://app?vid=9d835ed8-1041-49e2-8d8e-ccde1a696b7f","ios":"levelo://app?vid=9d835ed8-1041-49e2-8d8e-ccde1a696b7f"},"vehicle_type_id":"4","last_reported":1685387147,"current_range_meters":12400,"station_id":"ce4bhoh2rcd13ifvqh5g","pricing_plan_id":"free"},{"bike_id":"aa5ecbf7-87e2-407d-9037-90f816d2e7fc","system_id":"levelo_inurba_marseille","lat":43.284462,"lon":5.392121,"is_reserved":false,"is_disabled":false,"rental_uris":{"android":"levelo://app?vid=aa5ecbf7-87e2-407d-9037-90f816d2e7fc","ios":"levelo://app?vid=aa5ecbf7-87e2-407d-9037-90f816d2e7fc"},"vehicle_type_id":"4","last_reported":1685387147,"current_range_meters":29200,"station_id":"ce4bhoh2rcd13ifvqh5g","pricing_plan_id":"free"},{"bike_id":"56411c74-edf9-47ad-bae6-cdd455d8c98e","system_id":"levelo_inurba_marseille","lat":43.284462,"lon":5.392121,"is_reserved":false,"is_disabled":false,"rental_uris":{"android":"levelo://app?vid=56411c74-edf9-47ad-bae6-cdd455d8c98e","ios":"levelo://app?vid=56411c74-edf9-47ad-bae6-cdd455d8c98e"},"vehicle_type_id":"4","last_reported":1685387147,"current_range_meters":25200,"station_id":"ce4bhoh2rcd13ifvqh5g","pricing_plan_id":"free"},{"bike_id":"66668c22-6aa3-4657-8f7a-1fafef019cda","system_id":"levelo_inurba_marseille","lat":43.285742,"lon":5.395004,"is_reserved":false,"is_disabled":false,"rental_uris":{"android":"levelo://app?vid=66668c22-6aa3-4657-8f7a-1fafef019cda","ios":"levelo://app?vid=66668c22-6aa3-4657-8f7a-1fafef019cda"},"vehicle_type_id":"4","last_reported":1685387147,"current_range_meters":12400,"station_id":"ce4bh292rcd13ifvqdg0","pricing_plan_id":"free"},{"bike_id":"47f1c969-39b0-49ad-933e-fd9e2f9169a0","system_id":"levelo_inurba_marseille","lat":43.28573,"lon":5.394992,"is_reserved":false,"is_disabled":false,"rental_uris":{"android":"levelo://app?vid=47f1c969-39b0-49ad-933e-fd9e2f9169a0","ios":"levelo://app?vid=47f1c969-39b0-49ad-933e-fd9e2f9169a0"},"vehicle_type_id":"4","last_reported":1685387147,"current_range_meters":26400,"station_id":"ce4bh292rcd13ifvqdg0","pricing_plan_id":"free"},{"bike_id":"f0447088-943e-440a-adb7-8886e9f79049","system_id":"levelo_inurba_marseille","lat":43.28573,"lon":5.394992,"is_reserved":false,"is_disabled":false,"rental_uris":{"android":"levelo://app?vid=f0447088-943e-440a-adb7-8886e9f79049","ios":"levelo://app?vid=f0447088-943e-440a-adb7-8886e9f79049"},"vehicle_type_id":"4","last_reported":1685387147,"current_range_meters":0,"station_id":"ce4bh292rcd13ifvqdg0","pricing_plan_id":"free"},{"bike_id":"4cb4f14c-101a-42bd-a855-c4d9f4718faf","system_id":"levelo_inurba_marseille","lat":43.28717,"lon":5.3999,"is_reserved":false,"is_disabled":false,"rental_uris":{"android":"levelo://app?vid=4cb4f14c-101a-42bd-a855-c4d9f4718faf","ios":"levelo://app?vid=4cb4f14c-101a-42bd-a855-c4d9f4718faf"},"vehicle_type_id":"4","last_reported":1685387147,"current_range_meters":0,"station_id":"ce4bho92rcd13ifvqh3g","pricing_plan_id":"free"},{"bike_id":"7dd00d0d-8407-4a7c-b5d9-c22c594b27cd","system_id":"levelo_inurba_marseille","lat":43.292569,"lon":5.409107,"is_reserved":false,"is_disabled":false,"rental_uris":{"android":"levelo://app?vid=7dd00d0d-8407-4a7c-b5d9-c22c594b27cd","ios":"levelo://app?vid=7dd00d0d-8407-4a7c-b5d9-c22c594b27cd"},"vehicle_type_id":"4","last_reported":1685387147,"current_range_meters":0,"station_id":"ce4bh192rcd13ifvqdc0","pricing_plan_id":"free"},{"bike_id":"6ec9ef19-0921-4b5d-b31b-716e21d2fc7b","system_id":"levelo_inurba_marseille","lat":43.292569,"lon":5.409107,"is_reserved":false,"is_disabled":false,"rental_uris":{"android":"levelo://app?vid=6ec9ef19-0921-4b5d-b31b-716e21d2fc7b","ios":"levelo://app?vid=6ec9ef19-0921-4b5d-b31b-716e21d2fc7b"},"vehicle_type_id":"4","last_reported":1685387147,"current_range_meters":9200,"station_id":"ce4bh192rcd13ifvqdc0","pricing_plan_id":"free"},{"bike_id":"43e751b2-af47-482c-b4ff-066feca566a0","system_id":"levelo_inurba_marseille","lat":43.280784,"lon":5.396622,"is_reserved":false,"is_disabled":false,"rental_uris":{"android":"levelo://app?vid=43e751b2-af47-482c-b4ff-066feca566a0","ios":"levelo://app?vid=43e751b2-af47-482c-b4ff-066feca566a0"},"vehicle_type_id":"4","last_reported":1685387147,"current_range_meters":10000,"station_id":"ce4bho12rcd13ifvqh2g","pricing_plan_id":"free"},{"bike_id":"894fdcdb-e60f-49eb-8fb2-efc459c1b809","system_id":"levelo_inurba_marseille","lat":43.33601,"lon":5.41036,"is_reserved":false,"is_disabled":false,"rental_uris":{"android":"levelo://app?vid=894fdcdb-e60f-49eb-8fb2-efc459c1b809","ios":"levelo://app?vid=894fdcdb-e60f-49eb-8fb2-efc459c1b809"},"vehicle_type_id":"4","last_reported":1685387147,"current_range_meters":0,"station_id":"ce4bhqh2rcd13ifvqhmg","pricing_plan_id":"free"},{"bike_id":"2547bccc-8863-4c43-9b92-3839ee86d3f3","system_id":"levelo_inurba_marseille","lat":43.33603,"lon":5.41036,"is_reserved":false,"is_disabled":false,"rental_uris":{"android":"levelo://app?vid=2547bccc-8863-4c43-9b92-3839ee86d3f3","ios":"levelo://app?vid=2547bccc-8863-4c43-9b92-3839ee86d3f3"},"vehicle_type_id":"4","last_reported":1685387147,"current_range_meters":7200,"station_id":"ce4bhqh2rcd13ifvqhmg","pricing_plan_id":"free"},{"bike_id":"91b49189-18df-431a-bbbf-f0b2350181de","system_id":"levelo_inurba_marseille","lat":43.2842,"lon":5.40777,"is_reserved":false,"is_disabled":false,"rental_uris":{"android":"levelo://app?vid=91b49189-18df-431a-bbbf-f0b2350181de","ios":"levelo://app?vid=91b49189-18df-431a-bbbf-f0b2350181de"},"vehicle_type_id":"4","last_reported":1685387147,"current_range_meters":2400,"station_id":"","pricing_plan_id":"free"},{"bike_id":"5f14306b-bb80-43f7-910f-fdf751dc49ea","system_id":"levelo_inurba_marseille","lat":43.273129,"lon":5.390725,"is_reserved":false,"is_disabled":false,"rental_uris":{"android":"levelo://app?vid=5f14306b-bb80-43f7-910f-fdf751dc49ea","ios":"levelo://app?vid=5f14306b-bb80-43f7-910f-fdf751dc49ea"},"vehicle_type_id":"4","last_reported":1685387147,"current_range_meters":1600,"station_id":"ce4bhgp2rcd13ifvqfe0","pricing_plan_id":"free"},{"bike_id":"7ced472c-e968-4f03-8dcf-84938741b45b","system_id":"levelo_inurba_marseille","lat":43.295523,"lon":5.422926,"is_reserved":false,"is_disabled":false,"rental_uris":{"android":"levelo://app?vid=7ced472c-e968-4f03-8dcf-84938741b45b","ios":"levelo://app?vid=7ced472c-e968-4f03-8dcf-84938741b45b"},"vehicle_type_id":"4","last_reported":1685387147,"current_range_meters":1200,"station_id":"ce4bhph2rcd13ifvqhdg","pricing_plan_id":"free"},{"bike_id":"d5dd3644-ecf4-433e-8139-84aa72f51b1a","system_id":"levelo_inurba_marseille","lat":43.278128,"lon":5.407195,"is_reserved":false,"is_disabled":false,"rental_uris":{"android":"levelo://app?vid=d5dd3644-ecf4-433e-8139-84aa72f51b1a","ios":"levelo://app?vid=d5dd3644-ecf4-433e-8139-84aa72f51b1a"},"vehicle_type_id":"4","last_reported":1685387147,"current_range_meters":19600,"station_id":"ce4bhnh2rcd13ifvqgtg","pricing_plan_id":"free"},{"bike_id":"006b1477-59d9-4abf-bf30-fe468e8a0337","system_id":"levelo_inurba_marseille","lat":43.30636,"lon":5.42936,"is_reserved":false,"is_disabled":false,"rental_uris":{"android":"levelo://app?vid=006b1477-59d9-4abf-bf30-fe468e8a0337","ios":"levelo://app?vid=006b1477-59d9-4abf-bf30-fe468e8a0337"},"vehicle_type_id":"4","last_reported":1685387147,"current_range_meters":25600,"station_id":"","pricing_plan_id":"free"},{"bike_id":"e2e15a3d-96f2-4aa1-b243-1c64aff9baf2","system_id":"levelo_inurba_marseille","lat":43.26554,"lon":5.37277,"is_reserved":false,"is_disabled":false,"rental_uris":{"android":"levelo://app?vid=e2e15a3d-96f2-4aa1-b243-1c64aff9baf2","ios":"levelo://app?vid=e2e15a3d-96f2-4aa1-b243-1c64aff9baf2"},"vehicle_type_id":"4","last_reported":1685387147,"current_range_meters":30000,"station_id":"","pricing_plan_id":"free"},{"bike_id":"84d5a463-a635-4fd0-8210-9cb2e7c4d063","system_id":"levelo_inurba_marseille","lat":43.26553,"lon":5.37284,"is_reserved":false,"is_disabled":false,"rental_uris":{"android":"levelo://app?vid=84d5a463-a635-4fd0-8210-9cb2e7c4d063","ios":"levelo://app?vid=84d5a463-a635-4fd0-8210-9cb2e7c4d063"},"vehicle_type_id":"4","last_reported":1685387147,"current_range_meters":24800,"station_id":"","pricing_plan_id":"free"},{"bike_id":"d9d9b657-7cdd-4600-acb5-7fc6140ff404","system_id":"levelo_inurba_marseille","lat":43.26548,"lon":5.372857,"is_reserved":false,"is_disabled":false,"rental_uris":{"android":"levelo://app?vid=d9d9b657-7cdd-4600-acb5-7fc6140ff404","ios":"levelo://app?vid=d9d9b657-7cdd-4600-acb5-7fc6140ff404"},"vehicle_type_id":"4","last_reported":1685387147,"current_range_meters":2000,"station_id":"ce4bh492rcd13ifvqdvg","pricing_plan_id":"free"},{"bike_id":"97f92444-dc7f-4ac8-885e-43ac50454dc0","system_id":"levelo_inurba_marseille","lat":43.31679,"lon":5.4333,"is_reserved":false,"is_disabled":false,"rental_uris":{"android":"levelo://app?vid=97f92444-dc7f-4ac8-885e-43ac50454dc0","ios":"levelo://app?vid=97f92444-dc7f-4ac8-885e-43ac50454dc0"},"vehicle_type_id":"4","last_reported":1685387147,"current_range_meters":0,"station_id":"","pricing_plan_id":"free"},{"bike_id":"ab0f4bc7-ed72-417f-a5fb-6e7a2d100ff6","system_id":"levelo_inurba_marseille","lat":43.27996,"lon":5.416624,"is_reserved":false,"is_disabled":false,"rental_uris":{"android":"levelo://app?vid=ab0f4bc7-ed72-417f-a5fb-6e7a2d100ff6","ios":"levelo://app?vid=ab0f4bc7-ed72-417f-a5fb-6e7a2d100ff6"},"vehicle_type_id":"4","last_reported":1685387147,"current_range_meters":1600,"station_id":"ce4bho12rcd13ifvqh1g","pricing_plan_id":"free"},{"bike_id":"6fff0859-9d04-43ca-a6ea-680b800cd22a","system_id":"levelo_inurba_marseille","lat":43.27996,"lon":5.416624,"is_reserved":false,"is_disabled":false,"rental_uris":{"android":"levelo://app?vid=6fff0859-9d04-43ca-a6ea-680b800cd22a","ios":"levelo://app?vid=6fff0859-9d04-43ca-a6ea-680b800cd22a"},"vehicle_type_id":"4","last_reported":1685387147,"current_range_meters":800,"station_id":"ce4bho12rcd13ifvqh1g","pricing_plan_id":"free"},{"bike_id":"c65f0f5a-8f2e-4827-bddc-121823f73295","system_id":"levelo_inurba_marseille","lat":43.27996,"lon":5.416624,"is_reserved":false,"is_disabled":false,"rental_uris":{"android":"levelo://app?vid=c65f0f5a-8f2e-4827-bddc-121823f73295","ios":"levelo://app?vid=c65f0f5a-8f2e-4827-bddc-121823f73295"},"vehicle_type_id":"4","last_reported":1685387147,"current_range_meters":8000,"station_id":"ce4bho12rcd13ifvqh1g","pricing_plan_id":"free"},{"bike_id":"904c78f9-5b5c-41a7-b0d2-3c1a2f7331cb","system_id":"levelo_inurba_marseille","lat":43.27996,"lon":5.416624,"is_reserved":false,"is_disabled":false,"rental_uris":{"android":"levelo://app?vid=904c78f9-5b5c-41a7-b0d2-3c1a2f7331cb","ios":"levelo://app?vid=904c78f9-5b5c-41a7-b0d2-3c1a2f7331cb"},"vehicle_type_id":"4","last_reported":1685387147,"current_range_meters":24400,"station_id":"ce4bho12rcd13ifvqh1g","pricing_plan_id":"free"},{"bike_id":"d1851c0a-6e9b-458b-921f-ce85e914c0c7","system_id":"levelo_inurba_marseille","lat":43.308,"lon":5.43516,"is_reserved":false,"is_disabled":false,"rental_uris":{"android":"levelo://app?vid=d1851c0a-6e9b-458b-921f-ce85e914c0c7","ios":"levelo://app?vid=d1851c0a-6e9b-458b-921f-ce85e914c0c7"},"vehicle_type_id":"4","last_reported":1685387147,"current_range_meters":11200,"station_id":"","pricing_plan_id":"free"},{"bike_id":"5707b269-0269-4ead-8ad9-ea83578dd6d8","system_id":"levelo_inurba_marseille","lat":43.30795,"lon":5.43526,"is_reserved":false,"is_disabled":false,"rental_uris":{"android":"levelo://app?vid=5707b269-0269-4ead-8ad9-ea83578dd6d8","ios":"levelo://app?vid=5707b269-0269-4ead-8ad9-ea83578dd6d8"},"vehicle_type_id":"4","last_reported":1685387147,"current_range_meters":17600,"station_id":"","pricing_plan_id":"free"},{"bike_id":"bd6b1c7a-1b81-41eb-9b34-7ba47e005162","system_id":"levelo_inurba_marseille","lat":43.265569,"lon":5.390047,"is_reserved":false,"is_disabled":false,"rental_uris":{"android":"levelo://app?vid=bd6b1c7a-1b81-41eb-9b34-7ba47e005162","ios":"levelo://app?vid=bd6b1c7a-1b81-41eb-9b34-7ba47e005162"},"vehicle_type_id":"4","last_reported":1685387147,"current_range_meters":3600,"station_id":"ce4bhe12rcd13ifvqf30","pricing_plan_id":"free"},{"bike_id":"2fcc0c23-ac53-41eb-a2d4-d3336177ee7b","system_id":"levelo_inurba_marseille","lat":43.32316,"lon":5.4357,"is_reserved":false,"is_disabled":false,"rental_uris":{"android":"levelo://app?vid=2fcc0c23-ac53-41eb-a2d4-d3336177ee7b","ios":"levelo://app?vid=2fcc0c23-ac53-41eb-a2d4-d3336177ee7b"},"vehicle_type_id":"4","last_reported":1685387147,"current_range_meters":10800,"station_id":"","pricing_plan_id":"free"},{"bike_id":"c886b0d7-6fb9-4c3b-80f3-9117998d8bdb","system_id":"levelo_inurba_marseille","lat":43.27182,"lon":5.40994,"is_reserved":false,"is_disabled":false,"rental_uris":{"android":"levelo://app?vid=c886b0d7-6fb9-4c3b-80f3-9117998d8bdb","ios":"levelo://app?vid=c886b0d7-6fb9-4c3b-80f3-9117998d8bdb"},"vehicle_type_id":"4","last_reported":1685387147,"current_range_meters":23200,"station_id":"","pricing_plan_id":"free"},{"bike_id":"4be642e2-f871-4e33-bb4a-fb2b0004c8cf","system_id":"levelo_inurba_marseille","lat":43.27174,"lon":5.40989,"is_reserved":false,"is_disabled":false,"rental_uris":{"android":"levelo://app?vid=4be642e2-f871-4e33-bb4a-fb2b0004c8cf","ios":"levelo://app?vid=4be642e2-f871-4e33-bb4a-fb2b0004c8cf"},"vehicle_type_id":"4","last_reported":1685387147,"current_range_meters":7200,"station_id":"","pricing_plan_id":"free"},{"bike_id":"e01e4add-9126-451a-9912-309c038cfc13","system_id":"levelo_inurba_marseille","lat":43.271388,"lon":5.409269,"is_reserved":false,"is_disabled":false,"rental_uris":{"android":"levelo://app?vid=e01e4add-9126-451a-9912-309c038cfc13","ios":"levelo://app?vid=e01e4add-9126-451a-9912-309c038cfc13"},"vehicle_type_id":"4","last_reported":1685387147,"current_range_meters":27200,"station_id":"ce4bhl12rcd13ifvqgf0","pricing_plan_id":"free"},{"bike_id":"8e11f2df-f957-4dca-9b4d-22e1e1a58278","system_id":"levelo_inurba_marseille","lat":43.267959,"lon":5.402687,"is_reserved":false,"is_disabled":false,"rental_uris":{"android":"levelo://app?vid=8e11f2df-f957-4dca-9b4d-22e1e1a58278","ios":"levelo://app?vid=8e11f2df-f957-4dca-9b4d-22e1e1a58278"},"vehicle_type_id":"4","last_reported":1685387147,"current_range_meters":30400,"station_id":"ce501612rcd8frsf0b60","pricing_plan_id":"free"},{"bike_id":"d5d7c90c-6818-4808-a42b-96107f21122e","system_id":"levelo_inurba_marseille","lat":43.267959,"lon":5.402687,"is_reserved":false,"is_disabled":false,"rental_uris":{"android":"levelo://app?vid=d5d7c90c-6818-4808-a42b-96107f21122e","ios":"levelo://app?vid=d5d7c90c-6818-4808-a42b-96107f21122e"},"vehicle_type_id":"4","last_reported":1685387147,"current_range_meters":31600,"station_id":"ce501612rcd8frsf0b60","pricing_plan_id":"free"},{"bike_id":"a82f1f3d-cf3e-4acf-b3a8-5051bcebffad","system_id":"levelo_inurba_marseille","lat":43.267959,"lon":5.402687,"is_reserved":false,"is_disabled":false,"rental_uris":{"android":"levelo://app?vid=a82f1f3d-cf3e-4acf-b3a8-5051bcebffad","ios":"levelo://app?vid=a82f1f3d-cf3e-4acf-b3a8-5051bcebffad"},"vehicle_type_id":"4","last_reported":1685387147,"current_range_meters":31200,"station_id":"ce501612rcd8frsf0b60","pricing_plan_id":"free"},{"bike_id":"de901b03-b6a7-49ca-99d2-444367bfca35","system_id":"levelo_inurba_marseille","lat":43.267959,"lon":5.402685,"is_reserved":false,"is_disabled":false,"rental_uris":{"android":"levelo://app?vid=de901b03-b6a7-49ca-99d2-444367bfca35","ios":"levelo://app?vid=de901b03-b6a7-49ca-99d2-444367bfca35"},"vehicle_type_id":"4","last_reported":1685387147,"current_range_meters":19200,"station_id":"ce501612rcd8frsf0b60","pricing_plan_id":"free"},{"bike_id":"bfeded0a-2bd2-4b07-89f2-470113647832","system_id":"levelo_inurba_marseille","lat":43.267959,"lon":5.402685,"is_reserved":false,"is_disabled":false,"rental_uris":{"android":"levelo://app?vid=bfeded0a-2bd2-4b07-89f2-470113647832","ios":"levelo://app?vid=bfeded0a-2bd2-4b07-89f2-470113647832"},"vehicle_type_id":"4","last_reported":1685387147,"current_range_meters":31200,"station_id":"ce501612rcd8frsf0b60","pricing_plan_id":"free"},{"bike_id":"74474b43-2943-4493-a56d-39da3fa8faaa","system_id":"levelo_inurba_marseille","lat":43.267959,"lon":5.402687,"is_reserved":false,"is_disabled":false,"rental_uris":{"android":"levelo://app?vid=74474b43-2943-4493-a56d-39da3fa8faaa","ios":"levelo://app?vid=74474b43-2943-4493-a56d-39da3fa8faaa"},"vehicle_type_id":"4","last_reported":1685387147,"current_range_meters":27600,"station_id":"ce501612rcd8frsf0b60","pricing_plan_id":"free"},{"bike_id":"8d16cb84-fcf1-4c79-b13b-7f0c94596d9a","system_id":"levelo_inurba_marseille","lat":43.267959,"lon":5.402687,"is_reserved":false,"is_disabled":false,"rental_uris":{"android":"levelo://app?vid=8d16cb84-fcf1-4c79-b13b-7f0c94596d9a","ios":"levelo://app?vid=8d16cb84-fcf1-4c79-b13b-7f0c94596d9a"},"vehicle_type_id":"4","last_reported":1685387147,"current_range_meters":14800,"station_id":"ce501612rcd8frsf0b60","pricing_plan_id":"free"},{"bike_id":"9dfea13e-b918-4993-a83b-23b57c532356","system_id":"levelo_inurba_marseille","lat":43.267959,"lon":5.402687,"is_reserved":false,"is_disabled":false,"rental_uris":{"android":"levelo://app?vid=9dfea13e-b918-4993-a83b-23b57c532356","ios":"levelo://app?vid=9dfea13e-b918-4993-a83b-23b57c532356"},"vehicle_type_id":"4","last_reported":1685387147,"current_range_meters":20800,"station_id":"ce501612rcd8frsf0b60","pricing_plan_id":"free"},{"bike_id":"01e3bdd2-e33f-49e8-83e3-caafd20a574a","system_id":"levelo_inurba_marseille","lat":43.267959,"lon":5.402685,"is_reserved":false,"is_disabled":false,"rental_uris":{"android":"levelo://app?vid=01e3bdd2-e33f-49e8-83e3-caafd20a574a","ios":"levelo://app?vid=01e3bdd2-e33f-49e8-83e3-caafd20a574a"},"vehicle_type_id":"4","last_reported":1685387147,"current_range_meters":29200,"station_id":"ce501612rcd8frsf0b60","pricing_plan_id":"free"},{"bike_id":"6b404443-757b-4b8d-9a78-a03ca59013fb","system_id":"levelo_inurba_marseille","lat":43.2592,"lon":5.37283,"is_reserved":false,"is_disabled":false,"rental_uris":{"android":"levelo://app?vid=6b404443-757b-4b8d-9a78-a03ca59013fb","ios":"levelo://app?vid=6b404443-757b-4b8d-9a78-a03ca59013fb"},"vehicle_type_id":"4","last_reported":1685387147,"current_range_meters":5600,"station_id":"","pricing_plan_id":"free"},{"bike_id":"193cdf6d-ba84-4c4d-969c-012fed58fbba","system_id":"levelo_inurba_marseille","lat":43.2607,"lon":5.393983,"is_reserved":false,"is_disabled":false,"rental_uris":{"android":"levelo://app?vid=193cdf6d-ba84-4c4d-969c-012fed58fbba","ios":"levelo://app?vid=193cdf6d-ba84-4c4d-969c-012fed58fbba"},"vehicle_type_id":"4","last_reported":1685387147,"current_range_meters":14400,"station_id":"ce4bhh92rcd13ifvqfj0","pricing_plan_id":"free"},{"bike_id":"13b36c97-8f86-49ff-ad9c-6fb36414e4a1","system_id":"levelo_inurba_marseille","lat":43.27866,"lon":5.42863,"is_reserved":false,"is_disabled":false,"rental_uris":{"android":"levelo://app?vid=13b36c97-8f86-49ff-ad9c-6fb36414e4a1","ios":"levelo://app?vid=13b36c97-8f86-49ff-ad9c-6fb36414e4a1"},"vehicle_type_id":"4","last_reported":1685387147,"current_range_meters":30400,"station_id":"","pricing_plan_id":"free"},{"bike_id":"85489740-71fd-439a-9f4c-71e8e5d268ac","system_id":"levelo_inurba_marseille","lat":43.27688,"lon":5.43017,"is_reserved":false,"is_disabled":false,"rental_uris":{"android":"levelo://app?vid=85489740-71fd-439a-9f4c-71e8e5d268ac","ios":"levelo://app?vid=85489740-71fd-439a-9f4c-71e8e5d268ac"},"vehicle_type_id":"4","last_reported":1685387147,"current_range_meters":30400,"station_id":"","pricing_plan_id":"free"},{"bike_id":"28138f54-7c2d-4c6c-9046-f8221715acc1","system_id":"levelo_inurba_marseille","lat":43.270721,"lon":5.422764,"is_reserved":false,"is_disabled":false,"rental_uris":{"android":"levelo://app?vid=28138f54-7c2d-4c6c-9046-f8221715acc1","ios":"levelo://app?vid=28138f54-7c2d-4c6c-9046-f8221715acc1"},"vehicle_type_id":"4","last_reported":1685387147,"current_range_meters":0,"station_id":"ce4bhk92rcd13ifvqgb0","pricing_plan_id":"free"},{"bike_id":"87d4c18b-deba-44d0-bfb3-d7008d1483c0","system_id":"levelo_inurba_marseille","lat":43.270721,"lon":5.422764,"is_reserved":false,"is_disabled":false,"rental_uris":{"android":"levelo://app?vid=87d4c18b-deba-44d0-bfb3-d7008d1483c0","ios":"levelo://app?vid=87d4c18b-deba-44d0-bfb3-d7008d1483c0"},"vehicle_type_id":"4","last_reported":1685387147,"current_range_meters":6800,"station_id":"ce4bhk92rcd13ifvqgb0","pricing_plan_id":"free"},{"bike_id":"64191f44-8520-4304-b1aa-b384abfdcba2","system_id":"levelo_inurba_marseille","lat":43.27641,"lon":5.43028,"is_reserved":false,"is_disabled":false,"rental_uris":{"android":"levelo://app?vid=64191f44-8520-4304-b1aa-b384abfdcba2","ios":"levelo://app?vid=64191f44-8520-4304-b1aa-b384abfdcba2"},"vehicle_type_id":"4","last_reported":1685387147,"current_range_meters":31200,"station_id":"","pricing_plan_id":"free"},{"bike_id":"f70dd318-aa1c-495f-97df-8337c7bbacb0","system_id":"levelo_inurba_marseille","lat":43.258658,"lon":5.398935,"is_reserved":false,"is_disabled":false,"rental_uris":{"android":"levelo://app?vid=f70dd318-aa1c-495f-97df-8337c7bbacb0","ios":"levelo://app?vid=f70dd318-aa1c-495f-97df-8337c7bbacb0"},"vehicle_type_id":"4","last_reported":1685387147,"current_range_meters":0,"station_id":"ce4bhl92rcd13ifvqghg","pricing_plan_id":"free"},{"bike_id":"9ad648bc-e8ed-49e2-a5ec-add1b46f412b","system_id":"levelo_inurba_marseille","lat":43.250023,"lon":5.38919,"is_reserved":false,"is_disabled":false,"rental_uris":{"android":"levelo://app?vid=9ad648bc-e8ed-49e2-a5ec-add1b46f412b","ios":"levelo://app?vid=9ad648bc-e8ed-49e2-a5ec-add1b46f412b"},"vehicle_type_id":"4","last_reported":1685387147,"current_range_meters":29200,"station_id":"ce4bhgp2rcd13ifvqfd0","pricing_plan_id":"free"},{"bike_id":"0714ebc4-5725-493c-8c71-f4b0a121f603","system_id":"levelo_inurba_marseille","lat":43.250023,"lon":5.38919,"is_reserved":false,"is_disabled":false,"rental_uris":{"android":"levelo://app?vid=0714ebc4-5725-493c-8c71-f4b0a121f603","ios":"levelo://app?vid=0714ebc4-5725-493c-8c71-f4b0a121f603"},"vehicle_type_id":"4","last_reported":1685387147,"current_range_meters":31200,"station_id":"ce4bhgp2rcd13ifvqfd0","pricing_plan_id":"free"},{"bike_id":"44937c0e-4019-4eca-a556-bf25959ffa29","system_id":"levelo_inurba_marseille","lat":43.250966,"lon":5.395186,"is_reserved":false,"is_disabled":false,"rental_uris":{"android":"levelo://app?vid=44937c0e-4019-4eca-a556-bf25959ffa29","ios":"levelo://app?vid=44937c0e-4019-4eca-a556-bf25959ffa29"},"vehicle_type_id":"4","last_reported":1685387147,"current_range_meters":5600,"station_id":"ce4bhm12rcd13ifvqgkg","pricing_plan_id":"free"},{"bike_id":"1b41f02f-e50a-4cab-8910-42a7f65fa9b2","system_id":"levelo_inurba_marseille","lat":43.250966,"lon":5.395186,"is_reserved":false,"is_disabled":false,"rental_uris":{"android":"levelo://app?vid=1b41f02f-e50a-4cab-8910-42a7f65fa9b2","ios":"levelo://app?vid=1b41f02f-e50a-4cab-8910-42a7f65fa9b2"},"vehicle_type_id":"4","last_reported":1685387147,"current_range_meters":21200,"station_id":"ce4bhm12rcd13ifvqgkg","pricing_plan_id":"free"},{"bike_id":"2083719c-d28b-4a58-a603-44bd8cbfaddc","system_id":"levelo_inurba_marseille","lat":43.250966,"lon":5.395186,"is_reserved":false,"is_disabled":false,"rental_uris":{"android":"levelo://app?vid=2083719c-d28b-4a58-a603-44bd8cbfaddc","ios":"levelo://app?vid=2083719c-d28b-4a58-a603-44bd8cbfaddc"},"vehicle_type_id":"4","last_reported":1685387147,"current_range_meters":15600,"station_id":"ce4bhm12rcd13ifvqgkg","pricing_plan_id":"free"},{"bike_id":"a05b00ef-7236-40a3-99bf-6c85ac4556e8","system_id":"levelo_inurba_marseille","lat":43.250966,"lon":5.395186,"is_reserved":false,"is_disabled":false,"rental_uris":{"android":"levelo://app?vid=a05b00ef-7236-40a3-99bf-6c85ac4556e8","ios":"levelo://app?vid=a05b00ef-7236-40a3-99bf-6c85ac4556e8"},"vehicle_type_id":"4","last_reported":1685387147,"current_range_meters":28400,"station_id":"ce4bhm12rcd13ifvqgkg","pricing_plan_id":"free"},{"bike_id":"295109d7-8f32-447b-a32d-fdd4a3375719","system_id":"levelo_inurba_marseille","lat":43.24668,"lon":5.38156,"is_reserved":false,"is_disabled":false,"rental_uris":{"android":"levelo://app?vid=295109d7-8f32-447b-a32d-fdd4a3375719","ios":"levelo://app?vid=295109d7-8f32-447b-a32d-fdd4a3375719"},"vehicle_type_id":"4","last_reported":1685387147,"current_range_meters":21200,"station_id":"","pricing_plan_id":"free"},{"bike_id":"6d2073a6-d325-48b2-a6bc-c5f818f0cdb3","system_id":"levelo_inurba_marseille","lat":43.24668,"lon":5.38157,"is_reserved":false,"is_disabled":false,"rental_uris":{"android":"levelo://app?vid=6d2073a6-d325-48b2-a6bc-c5f818f0cdb3","ios":"levelo://app?vid=6d2073a6-d325-48b2-a6bc-c5f818f0cdb3"},"vehicle_type_id":"4","last_reported":1685387147,"current_range_meters":19600,"station_id":"","pricing_plan_id":"free"},{"bike_id":"1d3a1dc5-30ce-4cb3-92a2-df90e2828158","system_id":"levelo_inurba_marseille","lat":43.24667,"lon":5.38157,"is_reserved":false,"is_disabled":false,"rental_uris":{"android":"levelo://app?vid=1d3a1dc5-30ce-4cb3-92a2-df90e2828158","ios":"levelo://app?vid=1d3a1dc5-30ce-4cb3-92a2-df90e2828158"},"vehicle_type_id":"4","last_reported":1685387147,"current_range_meters":31200,"station_id":"","pricing_plan_id":"free"},{"bike_id":"8f8b17bc-bf8e-492d-bed0-a1df47a2fedf","system_id":"levelo_inurba_marseille","lat":43.25102,"lon":5.403214,"is_reserved":false,"is_disabled":false,"rental_uris":{"android":"levelo://app?vid=8f8b17bc-bf8e-492d-bed0-a1df47a2fedf","ios":"levelo://app?vid=8f8b17bc-bf8e-492d-bed0-a1df47a2fedf"},"vehicle_type_id":"4","last_reported":1685387147,"current_range_meters":5200,"station_id":"ce4bhlh2rcd13ifvqgig","pricing_plan_id":"free"},{"bike_id":"1f3c9884-dd9f-492e-be44-0d6e973be08d","system_id":"levelo_inurba_marseille","lat":43.24665,"lon":5.38156,"is_reserved":false,"is_disabled":false,"rental_uris":{"android":"levelo://app?vid=1f3c9884-dd9f-492e-be44-0d6e973be08d","ios":"levelo://app?vid=1f3c9884-dd9f-492e-be44-0d6e973be08d"},"vehicle_type_id":"4","last_reported":1685387147,"current_range_meters":30400,"station_id":"","pricing_plan_id":"free"},{"bike_id":"4332ab61-2b59-45b5-9ee7-69c10bf7a50d","system_id":"levelo_inurba_marseille","lat":43.24664,"lon":5.38158,"is_reserved":false,"is_disabled":false,"rental_uris":{"android":"levelo://app?vid=4332ab61-2b59-45b5-9ee7-69c10bf7a50d","ios":"levelo://app?vid=4332ab61-2b59-45b5-9ee7-69c10bf7a50d"},"vehicle_type_id":"4","last_reported":1685387147,"current_range_meters":31200,"station_id":"","pricing_plan_id":"free"},{"bike_id":"4f443948-a1bf-48fb-8579-010eb091273c","system_id":"levelo_inurba_marseille","lat":43.24664,"lon":5.3816,"is_reserved":false,"is_disabled":false,"rental_uris":{"android":"levelo://app?vid=4f443948-a1bf-48fb-8579-010eb091273c","ios":"levelo://app?vid=4f443948-a1bf-48fb-8579-010eb091273c"},"vehicle_type_id":"4","last_reported":1685387147,"current_range_meters":30000,"station_id":"","pricing_plan_id":"free"},{"bike_id":"668f5496-eb86-41e5-9534-8d456cac7f12","system_id":"levelo_inurba_marseille","lat":43.24693,"lon":5.382096,"is_reserved":false,"is_disabled":false,"rental_uris":{"android":"levelo://app?vid=668f5496-eb86-41e5-9534-8d456cac7f12","ios":"levelo://app?vid=668f5496-eb86-41e5-9534-8d456cac7f12"},"vehicle_type_id":"4","last_reported":1685387147,"current_range_meters":14000,"station_id":"ce4bhih2rcd13ifvqfr0","pricing_plan_id":"free"},{"bike_id":"f0f34558-87ba-4daf-894f-6ef924b9176d","system_id":"levelo_inurba_marseille","lat":43.24693,"lon":5.382096,"is_reserved":false,"is_disabled":false,"rental_uris":{"android":"levelo://app?vid=f0f34558-87ba-4daf-894f-6ef924b9176d","ios":"levelo://app?vid=f0f34558-87ba-4daf-894f-6ef924b9176d"},"vehicle_type_id":"4","last_reported":1685387147,"current_range_meters":31600,"station_id":"ce4bhih2rcd13ifvqfr0","pricing_plan_id":"free"},{"bike_id":"bfeb42c6-e813-4d24-b7ea-5911a96d4b18","system_id":"levelo_inurba_marseille","lat":43.24658,"lon":5.3816,"is_reserved":false,"is_disabled":false,"rental_uris":{"android":"levelo://app?vid=bfeb42c6-e813-4d24-b7ea-5911a96d4b18","ios":"levelo://app?vid=bfeb42c6-e813-4d24-b7ea-5911a96d4b18"},"vehicle_type_id":"4","last_reported":1685387147,"current_range_meters":28800,"station_id":"","pricing_plan_id":"free"},{"bike_id":"9a420799-435f-4970-9f6c-faa1409f8b8c","system_id":"levelo_inurba_marseille","lat":43.24656,"lon":5.38158,"is_reserved":false,"is_disabled":false,"rental_uris":{"android":"levelo://app?vid=9a420799-435f-4970-9f6c-faa1409f8b8c","ios":"levelo://app?vid=9a420799-435f-4970-9f6c-faa1409f8b8c"},"vehicle_type_id":"4","last_reported":1685387147,"current_range_meters":29600,"station_id":"","pricing_plan_id":"free"},{"bike_id":"145dbaf2-1fdc-4e41-adf6-5c3bbe4e658e","system_id":"levelo_inurba_marseille","lat":43.24654,"lon":5.38156,"is_reserved":false,"is_disabled":false,"rental_uris":{"android":"levelo://app?vid=145dbaf2-1fdc-4e41-adf6-5c3bbe4e658e","ios":"levelo://app?vid=145dbaf2-1fdc-4e41-adf6-5c3bbe4e658e"},"vehicle_type_id":"4","last_reported":1685387147,"current_range_meters":21200,"station_id":"","pricing_plan_id":"free"},