{"last_updated":1784272138,"ttl":60,"version":"2.2","data":{"bikes":[{"bike_id":"ba0c28b1-8732-48e2-8079-f25b2b3fbc3c","system_id":"levelo_inurba_marseille","lat":43.337444,"lon":5.374475,"is_reserved":false,"is_disabled":false,"rental_uris":{"android":"levelo://app?vid=ba0c28b1-8732-48e2-8079-f25b2b3fbc3c","ios":"levelo://app?vid=ba0c28b1-8732-48e2-8079-f25b2b3fbc3c"},"vehicle_type_id":"4","last_reported":1784272138,"current_range_meters":0,"station_id":"","pricing_plan_id":"cebpf4jnsgd1na2vs0mg"},{"bike_id":"8fca3e8f-e6b9-483b-874e-b588976e87f6","system_id":"levelo_inurba_marseille","lat":43.33775,"lon":5.37446,"is_reserved":false,"is_disabled":false,"rental_uris":{"android":"levelo://app?vid=8fca3e8f-e6b9-483b-874e-b588976e87f6","ios":"levelo://app?vid=8fca3e8f-e6b9-483b-874e-b588976e87f6"},"vehicle_type_id":"4","last_reported":1784272138,"current_range_meters":38800,"station_id":"","pricing_plan_id":"cebpf4jnsgd1na2vs0mg"},{"bike_id":"63dc20ac-90f4-4eae-ac6c-d24ae13a7929","system_id":"levelo_inurba_marseille","lat":43.25359,"lon":5.42155,"is_reserved":false,"is_disabled":false,"rental_uris":{"android":"levelo://app?vid=63dc20ac-90f4-4eae-ac6c-d24ae13a7929","ios":"levelo://app?vid=63dc20ac-90f4-4eae-ac6c-d24ae13a7929"},"vehicle_type_id":"4","last_reported":1784272138,"current_range_meters":37600,"station_id":"st_d2m65c5bi1j21697t3ng","pricing_plan_id":"cebpf4jnsgd1na2vs0mg"},{"bike_id":"76b63993-96f7-484a-8343-5ea3ca2d69bf","system_id":"levelo_inurba_marseille","lat":43.27445,"lon":5.36113,"is_reserved":false,"is_disabled":false,"rental_uris":{"android":"levelo://app?vid=76b63993-96f7-484a-8343-5ea3ca2d69bf","ios":"levelo://app?vid=76b63993-96f7-484a-8343-5ea3ca2d69bf"},"vehicle_type_id":"4","last_reported":1784272138,"current_range_meters":30000,"station_id":"","pricing_plan_id":"cebpf4jnsgd1na2vs0mg"},{"bike_id":"382bb15b-49be-4b4d-a782-042762a0883b","system_id":"levelo_inurba_marseille","lat":43.26382,"lon":5.41077,"is_reserved":false,"is_disabled":false,"rental_uris":{"android":"levelo://app?vid=382bb15b-49be-4b4d-a782-042762a0883b","ios":"levelo://app?vid=382bb15b-49be-4b4d-a782-042762a0883b"},"vehicle_type_id":"4","last_reported":1784272138,"current_range_meters":8800,"station_id":"st_d4e5ca6na9uc73bfl5fg","pricing_plan_id":"cebpf4jnsgd1na2vs0mg"},{"bike_id":"a0437164-419a-4e09-9676-85c512958c75","system_id":"levelo_inurba_marseille","lat":43.24071,"lon":5.37764,"is_reserved":false,"is_disabled":false,"rental_uris":{"android":"levelo://app?vid=a0437164-419a-4e09-9676-85c512958c75","ios":"levelo://app?vid=a0437164-419a-4e09-9676-85c512958c75"},"vehicle_type_id":"4","last_reported":1784272138,"current_range_meters":30800,"station_id":"ce4bhnp2rcd13ifvqgvg","pricing_plan_id":"cebpf4jnsgd1na2vs0mg"},{"bike_id":"6a243f10-3cb4-41bb-85d7-ec6c7d563352","system_id":"levelo_inurba_marseille","lat":43.31343,"lon":5.39686,"is_reserved":false,"is_disabled":false,"rental_uris":{"android":"levelo://app?vid=6a243f10-3cb4-41bb-85d7-ec6c7d563352","ios":"levelo://app?vid=6a243f10-3cb4-41bb-85d7-ec6c7d563352"},"vehicle_type_id":"4","last_reported":1784272138,"current_range_meters":11600,"station_id":"ce4bgvp2rcd13ifvqcu0","pricing_plan_id":"cebpf4jnsgd1na2vs0mg"},{"bike_id":"1f9d573d-4a28-4bb4-b7f8-f4bd60661fe2","system_id":"levelo_inurba_marseille","lat":43.29206,"lon":5.39337,"is_reserved":false,"is_disabled":false,"rental_uris":{"android":"levelo://app?vid=1f9d573d-4a28-4bb4-b7f8-f4bd60661fe2","ios":"levelo://app?vid=1f9d573d-4a28-4bb4-b7f8-f4bd60661fe2"},"vehicle_type_id":"4","last_reported":1784272138,"current_range_meters":14800,"station_id":"ce4bh192rcd13ifvqdd0","pricing_plan_id":"cebpf4jnsgd1na2vs0mg"},{"bike_id":"93f62aaf-97ab-422a-99e3-4c99e240ad11","system_id":"levelo_inurba_marseille","lat":43.26562,"lon":5.38998,"is_reserved":false,"is_disabled":false,"rental_uris":{"android":"levelo://app?vid=93f62aaf-97ab-422a-99e3-4c99e240ad11","ios":"levelo://app?vid=93f62aaf-97ab-422a-99e3-4c99e240ad11"},"vehicle_type_id":"4","last_reported":1784272138,"current_range_meters":34800,"station_id":"ce4bhe12rcd13ifvqf30","pricing_plan_id":"cebpf4jnsgd1na2vs0mg"},{"bike_id":"4c0eaeda-ac9c-4b78-ae84-d53ed3ec11b5","system_id":"levelo_inurba_marseille","lat":43.29192,"lon":5.35796,"is_reserved":false,"is_disabled":true,"rental_uris":{"android":"levelo://app?vid=4c0eaeda-ac9c-4b78-ae84-d53ed3ec11b5","ios":"levelo://app?vid=4c0eaeda-ac9c-4b78-ae84-d53ed3ec11b5"},"vehicle_type_id":"4","last_reported":1784272138,"current_range_meters":0,"station_id":"ce4bhb12rcd13ifvqel0","pricing_plan_id":"cebpf4jnsgd1na2vs0mg"},{"bike_id":"db8bd5d3-bb99-4688-8de3-0b156a227ffe","system_id":"levelo_inurba_marseille","lat":43.29926,"lon":5.37442,"is_reserved":false,"is_disabled":true,"rental_uris":{"android":"levelo://app?vid=db8bd5d3-bb99-4688-8de3-0b156a227ffe","ios":"levelo://app?vid=db8bd5d3-bb99-4688-8de3-0b156a227ffe"},"vehicle_type_id":"4","last_reported":1784272138,"current_range_meters":10800,"station_id":"ce4bgjh2rcd13ifvqbg0","pricing_plan_id":"cebpf4jnsgd1na2vs0mg"},{"bike_id":"d749523d-f93c-49d0-8009-b305dd6d3874","system_id":"levelo_inurba_marseille","lat":43.25072,"lon":5.39567,"is_reserved":false,"is_disabled":false,"rental_uris":{"android":"levelo://app?vid=d749523d-f93c-49d0-8009-b305dd6d3874","ios":"levelo://app?vid=d749523d-f93c-49d0-8009-b305dd6d3874"},"vehicle_type_id":"4","last_reported":1784272138,"current_range_meters":22800,"station_id":"ce4bhm12rcd13ifvqgkg","pricing_plan_id":"cebpf4jnsgd1na2vs0mg"},{"bike_id":"96849611-00d5-4884-b0dc-e03df79fa9c3","system_id":"levelo_inurba_marseille","lat":43.244,"lon":5.37028,"is_reserved":false,"is_disabled":false,"rental_uris":{"android":"levelo://app?vid=96849611-00d5-4884-b0dc-e03df79fa9c3","ios":"levelo://app?vid=96849611-00d5-4884-b0dc-e03df79fa9c3"},"vehicle_type_id":"4","last_reported":1784272138,"current_range_meters":16000,"station_id":"ce4bhhh2rcd13ifvqfk0","pricing_plan_id":"cebpf4jnsgd1na2vs0mg"},{"bike_id":"cf1bec2f-8c6b-4a4e-8bca-07a1fd68d9b8","system_id":"levelo_inurba_marseille","lat":43.293093,"lon":5.371812,"is_reserved":false,"is_disabled":false,"rental_uris":{"android":"levelo://app?vid=cf1bec2f-8c6b-4a4e-8bca-07a1fd68d9b8","ios":"levelo://app?vid=cf1bec2f-8c6b-4a4e-8bca-07a1fd68d9b8"},"vehicle_type_id":"4","last_reported":1784272138,"current_range_meters":39200,"station_id":"ce4bgh92rcd13ifvqb40","pricing_plan_id":"cebpf4jnsgd1na2vs0mg"},{"bike_id":"e71494cd-d4a8-436a-a5c6-260a2924500e","system_id":"levelo_inurba_marseille","lat":43.26235,"lon":5.38748,"is_reserved":false,"is_disabled":true,"rental_uris":{"android":"levelo://app?vid=e71494cd-d4a8-436a-a5c6-260a2924500e","ios":"levelo://app?vid=e71494cd-d4a8-436a-a5c6-260a2924500e"},"vehicle_type_id":"4","last_reported":1784272138,"current_range_meters":32000,"station_id":"st_d8gjfg747rts73coq3b0","pricing_plan_id":"cebpf4jnsgd1na2vs0mg"},{"bike_id":"4dd83e35-73dd-44b8-9d3c-9c21e3418d4e","system_id":"levelo_inurba_marseille","lat":43.2743,"lon":5.42709,"is_reserved":false,"is_disabled":false,"rental_uris":{"android":"levelo://app?vid=4dd83e35-73dd-44b8-9d3c-9c21e3418d4e","ios":"levelo://app?vid=4dd83e35-73dd-44b8-9d3c-9c21e3418d4e"},"vehicle_type_id":"4","last_reported":1784272138,"current_range_meters":16400,"station_id":"","pricing_plan_id":"cebpf4jnsgd1na2vs0mg"},{"bike_id":"013ea336-d828-44ac-a5f7-5f3385c8a12f","system_id":"levelo_inurba_marseille","lat":43.29207,"lon":5.38384,"is_reserved":false,"is_disabled":false,"rental_uris":{"android":"levelo://app?vid=013ea336-d828-44ac-a5f7-5f3385c8a12f","ios":"levelo://app?vid=013ea336-d828-44ac-a5f7-5f3385c8a12f"},"vehicle_type_id":"4","last_reported":1784272138,"current_range_meters":10800,"station_id":"","pricing_plan_id":"cebpf4jnsgd1na2vs0mg"},{"bike_id":"b3a0f5c7-3575-43be-b38f-c45ce04cb8e0","system_id":"levelo_inurba_marseille","lat":43.24803,"lon":5.37455,"is_reserved":false,"is_disabled":false,"rental_uris":{"android":"levelo://app?vid=b3a0f5c7-3575-43be-b38f-c45ce04cb8e0","ios":"levelo://app?vid=b3a0f5c7-3575-43be-b38f-c45ce04cb8e0"},"vehicle_type_id":"4","last_reported":1784272138,"current_range_meters":37600,"station_id":"ce4bhgh2rcd13ifvqfb0","pricing_plan_id":"cebpf4jnsgd1na2vs0mg"},{"bike_id":"5369b032-dcc5-484a-9b18-671fceb20e9f","system_id":"levelo_inurba_marseille","lat":43.25006,"lon":5.38911,"is_reserved":false,"is_disabled":false,"rental_uris":{"android":"levelo://app?vid=5369b032-dcc5-484a-9b18-671fceb20e9f","ios":"levelo://app?vid=5369b032-dcc5-484a-9b18-671fceb20e9f"},"vehicle_type_id":"4","last_reported":1784272138,"current_range_meters":23200,"station_id":"ce4bhgp2rcd13ifvqfd0","pricing_plan_id":"cebpf4jnsgd1na2vs0mg"},{"bike_id":"7cf07e0f-9872-47d1-91d5-b3f66165664d","system_id":"levelo_inurba_marseille","lat":43.30964,"lon":5.39011,"is_reserved":false,"is_disabled":false,"rental_uris":{"android":"levelo://app?vid=7cf07e0f-9872-47d1-91d5-b3f66165664d","ios":"levelo://app?vid=7cf07e0f-9872-47d1-91d5-b3f66165664d"},"vehicle_type_id":"4","last_reported":1784272138,"current_range_meters":4800,"station_id":"ce4bgup2rcd13ifvqco0","pricing_plan_id":"cebpf4jnsgd1na2vs0mg"},{"bike_id":"daf11da9-09e4-45d4-814b-e16971bc59a4","system_id":"levelo_inurba_marseille","lat":43.27963,"lon":5.38683,"is_reserved":false,"is_disabled":true,"rental_uris":{"android":"levelo://app?vid=daf11da9-09e4-45d4-814b-e16971bc59a4","ios":"levelo://app?vid=daf11da9-09e4-45d4-814b-e16971bc59a4"},"vehicle_type_id":"4","last_reported":1784272138,"current_range_meters":24800,"station_id":"","pricing_plan_id":"cebpf4jnsgd1na2vs0mg"},{"bike_id":"6f681dcb-ee4c-458d-aac3-7caa1c6605da","system_id":"levelo_inurba_marseille","lat":43.26498,"lon":5.39535,"is_reserved":false,"is_disabled":false,"rental_uris":{"android":"levelo://app?vid=6f681dcb-ee4c-458d-aac3-7caa1c6605da","ios":"levelo://app?vid=6f681dcb-ee4c-458d-aac3-7caa1c6605da"},"vehicle_type_id":"4","last_reported":1784272138,"current_range_meters":38000,"station_id":"ce4bhi12rcd13ifvqfq0","pricing_plan_id":"cebpf4jnsgd1na2vs0mg"},{"bike_id":"fd5332a3-4b08-4896-9051-60acc76b5a70","system_id":"levelo_inurba_marseille","lat":43.29465,"lon":5.3865,"is_reserved":false,"is_disabled":false,"rental_uris":{"android":"levelo://app?vid=fd5332a3-4b08-4896-9051-60acc76b5a70","ios":"levelo://app?vid=fd5332a3-4b08-4896-9051-60acc76b5a70"},"vehicle_type_id":"4","last_reported":1784272138,"current_range_meters":14800,"station_id":"","pricing_plan_id":"cebpf4jnsgd1na2vs0mg"},{"bike_id":"25eef984-50da-4a17-b2d3-69c3cc9ed414","system_id":"levelo_inurba_marseille","lat":43.31133,"lon":5.37774,"is_reserved":false,"is_disabled":false,"rental_uris":{"android":"levelo://app?vid=25eef984-50da-4a17-b2d3-69c3cc9ed414","ios":"levelo://app?vid=25eef984-50da-4a17-b2d3-69c3cc9ed414"},"vehicle_type_id":"4","last_reported":1784272138,"current_range_meters":34800,"station_id":"ce4bgt92rcd13ifvqcg0","pricing_plan_id":"cebpf4jnsgd1na2vs0mg"},{"bike_id":"ea3e03c4-4dd6-4479-b8b4-8fd80bfdda8e","system_id":"levelo_inurba_marseille","lat":43.27064,"lon":5.38292,"is_reserved":false,"is_disabled":false,"rental_uris":{"android":"levelo://app?vid=ea3e03c4-4dd6-4479-b8b4-8fd80bfdda8e","ios":"levelo://app?vid=ea3e03c4-4dd6-4479-b8b4-8fd80bfdda8e"},"vehicle_type_id":"4","last_reported":1784272138,"current_range_meters":38800,"station_id":"st_d3n2fo6cfp8s73cte1j0","pricing_plan_id":"cebpf4jnsgd1na2vs0mg"},{"bike_id":"6f74d812-d1f8-4ee3-9a6b-1242af8720f4","system_id":"levelo_inurba_marseille","lat":43.28357,"lon":5.38109,"is_reserved":false,"is_disabled":false,"rental_uris":{"android":"levelo://app?vid=6f74d812-d1f8-4ee3-9a6b-1242af8720f4","ios":"levelo://app?vid=6f74d812-d1f8-4ee3-9a6b-1242af8720f4"},"vehicle_type_id":"4","last_reported":1784272138,"current_range_meters":36000,"station_id":"ce4bh412rcd13ifvqdr0","pricing_plan_id":"cebpf4jnsgd1na2vs0mg"},{"bike_id":"8c691d7a-4d6a-44b5-9ca9-8ad0c4f58584","system_id":"levelo_inurba_marseille","lat":43.27204,"lon":5.40978,"is_reserved":false,"is_disabled":false,"rental_uris":{"android":"levelo://app?vid=8c691d7a-4d6a-44b5-9ca9-8ad0c4f58584","ios":"levelo://app?vid=8c691d7a-4d6a-44b5-9ca9-8ad0c4f58584"},"vehicle_type_id":"4","last_reported":1784272138,"current_range_meters":17600,"station_id":"ce4bhl12rcd13ifvqgf0","pricing_plan_id":"cebpf4jnsgd1na2vs0mg"},{"bike_id":"41fb20d3-d896-457e-8cad-f5756248e0f0","system_id":"levelo_inurba_marseille","lat":43.28002,"lon":5.38238,"is_reserved":false,"is_disabled":false,"rental_uris":{"android":"levelo://app?vid=41fb20d3-d896-457e-8cad-f5756248e0f0","ios":"levelo://app?vid=41fb20d3-d896-457e-8cad-f5756248e0f0"},"vehicle_type_id":"4","last_reported":1784272138,"current_range_meters":32400,"station_id":"","pricing_plan_id":"cebpf4jnsgd1na2vs0mg"},{"bike_id":"508a38b7-cb09-4051-819b-6ddfe0f50522","system_id":"levelo_inurba_marseille","lat":43.3059,"lon":5.37181,"is_reserved":false,"is_disabled":false,"rental_uris":{"android":"levelo://app?vid=508a38b7-cb09-4051-819b-6ddfe0f50522","ios":"levelo://app?vid=508a38b7-cb09-4051-819b-6ddfe0f50522"},"vehicle_type_id":"4","last_reported":1784272138,"current_range_meters":30800,"station_id":"ce4bgqh2rcd13ifvqc4g","pricing_plan_id":"cebpf4jnsgd1na2vs0mg"},{"bike_id":"e4064152-b01a-460a-934b-4b0ab157c51c","system_id":"levelo_inurba_marseille","lat":43.23062,"lon":5.35489,"is_reserved":false,"is_disabled":false,"rental_uris":{"android":"levelo://app?vid=e4064152-b01a-460a-934b-4b0ab157c51c","ios":"levelo://app?vid=e4064152-b01a-460a-934b-4b0ab157c51c"},"vehicle_type_id":"4","last_reported":1784272138,"current_range_meters":9600,"station_id":"cpo3342slgdg3j2ifvpg","pricing_plan_id":"cebpf4jnsgd1na2vs0mg"},{"bike_id":"4d103531-dc76-4632-9ed6-3b8eae789ecc","system_id":"levelo_inurba_marseille","lat":43.3211,"lon":5.36781,"is_reserved":false,"is_disabled":false,"rental_uris":{"android":"levelo://app?vid=4d103531-dc76-4632-9ed6-3b8eae789ecc","ios":"levelo://app?vid=4d103531-dc76-4632-9ed6-3b8eae789ecc"},"vehicle_type_id":"4","last_reported":1784272138,"current_range_meters":15200,"station_id":"ce4bhrh2rcd13ifvqhug","pricing_plan_id":"cebpf4jnsgd1na2vs0mg"},{"bike_id":"c3f152a3-0da9-4938-a276-8e8a2d5a5f2c","system_id":"levelo_inurba_marseille","lat":43.31525,"lon":5.38041,"is_reserved":false,"is_disabled":false,"rental_uris":{"android":"levelo://app?vid=c3f152a3-0da9-4938-a276-8e8a2d5a5f2c","ios":"levelo://app?vid=c3f152a3-0da9-4938-a276-8e8a2d5a5f2c"},"vehicle_type_id":"4","last_reported":1784272138,"current_range_meters":26800,"station_id":"ce4bhsp2rcd13ifvqi50","pricing_plan_id":"cebpf4jnsgd1na2vs0mg"},{"bike_id":"ef6880d0-6944-4f6a-8f40-6662368b8f75","system_id":"levelo_inurba_marseille","lat":43.31455,"lon":5.45396,"is_reserved":false,"is_disabled":false,"rental_uris":{"android":"levelo://app?vid=ef6880d0-6944-4f6a-8f40-6662368b8f75","ios":"levelo://app?vid=ef6880d0-6944-4f6a-8f40-6662368b8f75"},"vehicle_type_id":"4","last_reported":1784272138,"current_range_meters":15200,"station_id":"","pricing_plan_id":"cebpf4jnsgd1na2vs0mg"},{"bike_id":"ab69350f-3557-4b9a-90af-6ff861c5f314","system_id":"levelo_inurba_marseille","lat":43.30788,"lon":5.37641,"is_reserved":false,"is_disabled":false,"rental_uris":{"android":"levelo://app?vid=ab69350f-3557-4b9a-90af-6ff861c5f314","ios":"levelo://app?vid=ab69350f-3557-4b9a-90af-6ff861c5f314"},"vehicle_type_id":"4","last_reported":1784272138,"current_range_meters":28800,"station_id":"ce4bgv92rcd13ifvqcq0","pricing_plan_id":"cebpf4jnsgd1na2vs0mg"},{"bike_id":"09935cea-f0aa-4944-a6ed-cbfaa6daebfb","system_id":"levelo_inurba_marseille","lat":43.28549,"lon":5.38956,"is_reserved":false,"is_disabled":false,"rental_uris":{"android":"levelo://app?vid=09935cea-f0aa-4944-a6ed-cbfaa6daebfb","ios":"levelo://app?vid=09935cea-f0aa-4944-a6ed-cbfaa6daebfb"},"vehicle_type_id":"4","last_reported":1784272138,"current_range_meters":2800,"station_id":"","pricing_plan_id":"cebpf4jnsgd1na2vs0mg"},{"bike_id":"a7046d25-98a0-470a-a205-da0b548d272d","system_id":"levelo_inurba_marseille","lat":43.28076,"lon":5.35225,"is_reserved":false,"is_disabled":false,"rental_uris":{"android":"levelo://app?vid=a7046d25-98a0-470a-a205-da0b548d272d","ios":"levelo://app?vid=a7046d25-98a0-470a-a205-da0b548d272d"},"vehicle_type_id":"4","last_reported":1784272138,"current_range_meters":18800,"station_id":"","pricing_plan_id":"cebpf4jnsgd1na2vs0mg"},{"bike_id":"0a40ae01-64b0-4659-b079-6398000f3eb2","system_id":"levelo_inurba_marseille","lat":43.30603,"lon":5.39344,"is_reserved":false,"is_disabled":false,"rental_uris":{"android":"levelo://app?vid=0a40ae01-64b0-4659-b079-6398000f3eb2","ios":"levelo://app?vid=0a40ae01-64b0-4659-b079-6398000f3eb2"},"vehicle_type_id":"4","last_reported":1784272138,"current_range_meters":39200,"station_id":"ce4bh0p2rcd13ifvqd80","pricing_plan_id":"cebpf4jnsgd1na2vs0mg"},{"bike_id":"1dfa0f53-a33c-4c77-83b8-3fed6ea15ec4","system_id":"levelo_inurba_marseille","lat":43.29161,"lon":5.37149,"is_reserved":false,"is_disabled":false,"rental_uris":{"android":"levelo://app?vid=1dfa0f53-a33c-4c77-83b8-3fed6ea15ec4","ios":"levelo://app?vid=1dfa0f53-a33c-4c77-83b8-3fed6ea15ec4"},"vehicle_type_id":"4","last_reported":1784272138,"current_range_meters":4400,"station_id":"ce4bha92rcd13ifvqeh0","pricing_plan_id":"cebpf4jnsgd1na2vs0mg"},{"bike_id":"d183c213-4177-4bf2-b9e0-24872be8a9c8","system_id":"levelo_inurba_marseille","lat":43.28479,"lon":5.48381,"is_reserved":false,"is_disabled":false,"rental_uris":{"android":"levelo://app?vid=d183c213-4177-4bf2-b9e0-24872be8a9c8","ios":"levelo://app?vid=d183c213-4177-4bf2-b9e0-24872be8a9c8"},"vehicle_type_id":"4","last_reported":1784272138,"current_range_meters":20800,"station_id":"st_d3svhcjqgbts73a3dn0g","pricing_plan_id":"cebpf4jnsgd1na2vs0mg"},{"bike_id":"4a9dc560-9f7e-4b5e-a61c-920a63c5a8c5","system_id":"levelo_inurba_marseille","lat":43.28257,"lon":5.35052,"is_reserved":false,"is_disabled":false,"rental_uris":{"android":"levelo://app?vid=4a9dc560-9f7e-4b5e-a61c-920a63c5a8c5","ios":"levelo://app?vid=4a9dc560-9f7e-4b5e-a61c-920a63c5a8c5"},"vehicle_type_id":"4","last_reported":1784272138,"current_range_meters":27600,"station_id":"ce4bhbp2rcd13ifvqerg","pricing_plan_id":"cebpf4jnsgd1na2vs0mg"},{"bike_id":"47e53042-8463-47fd-b3bc-6dcaf14a95b9","system_id":"levelo_inurba_marseille","lat":43.274255,"lon":5.394171,"is_reserved":false,"is_disabled":false,"rental_uris":{"android":"levelo://app?vid=47e53042-8463-47fd-b3bc-6dcaf14a95b9","ios":"levelo://app?vid=47e53042-8463-47fd-b3bc-6dcaf14a95b9"},"vehicle_type_id":"4","last_reported":1784272138,"current_range_meters":12400,"station_id":"ce4bhdp2rcd13ifvqf20","pricing_plan_id":"cebpf4jnsgd1na2vs0mg"},{"bike_id":"77f0b611-8e54-40ee-804a-9a0ef852a88a","system_id":"levelo_inurba_marseille","lat":43.31215,"lon":5.36837,"is_reserved":false,"is_disabled":true,"rental_uris":{"android":"levelo://app?vid=77f0b611-8e54-40ee-804a-9a0ef852a88a","ios":"levelo://app?vid=77f0b611-8e54-40ee-804a-9a0ef852a88a"},"vehicle_type_id":"4","last_reported":1784272138,"current_range_meters":18000,"station_id":"ce4bgl92rcd13ifvqbq0","pricing_plan_id":"cebpf4jnsgd1na2vs0mg"},{"bike_id":"ff08e03c-b007-4194-a633-adc7dab0a5b3","system_id":"levelo_inurba_marseille","lat":43.30784,"lon":5.37627,"is_reserved":false,"is_disabled":false,"rental_uris":{"android":"levelo://app?vid=ff08e03c-b007-4194-a633-adc7dab0a5b3","ios":"levelo://app?vid=ff08e03c-b007-4194-a633-adc7dab0a5b3"},"vehicle_type_id":"4","last_reported":1784272138,"current_range_meters":38800,"station_id":"ce4bgv92rcd13ifvqcq0","pricing_plan_id":"cebpf4jnsgd1na2vs0mg"},{"bike_id":"e4e2da61-31a3-435a-b1ec-9bb834559f2e","system_id":"levelo_inurba_marseille","lat":43.25012,"lon":5.38929,"is_reserved":false,"is_disabled":false,"rental_uris":{"android":"levelo://app?vid=e4e2da61-31a3-435a-b1ec-9bb834559f2e","ios":"levelo://app?vid=e4e2da61-31a3-435a-b1ec-9bb834559f2e"},"vehicle_type_id":"4","last_reported":1784272138,"current_range_meters":31200,"station_id":"ce4bhgp2rcd13ifvqfd0","pricing_plan_id":"cebpf4jnsgd1na2vs0mg"},{"bike_id":"d5285a14-cc8e-4fa1-8a28-59e368440eff","system_id":"levelo_inurba_marseille","lat":43.27487,"lon":5.41591,"is_reserved":false,"is_disabled":false,"rental_uris":{"android":"levelo://app?vid=d5285a14-cc8e-4fa1-8a28-59e368440eff","ios":"levelo://app?vid=d5285a14-cc8e-4fa1-8a28-59e368440eff"},"vehicle_type_id":"4","last_reported":1784272138,"current_range_meters":39200,"station_id":"st_d6im8g6chgec73a5pndg","pricing_plan_id":"cebpf4jnsgd1na2vs0mg"},{"bike_id":"87932bdc-5e35-4e62-8b81-4961770ea33b","system_id":"levelo_inurba_marseille","lat":43.21746,"lon":5.34601,"is_reserved":false,"is_disabled":false,"rental_uris":{"android":"levelo://app?vid=87932bdc-5e35-4e62-8b81-4961770ea33b","ios":"levelo://app?vid=87932bdc-5e35-4e62-8b81-4961770ea33b"},"vehicle_type_id":"4","last_reported":1784272138,"current_range_meters":20800,"station_id":"st_cvj6r9ubvosntc0bgbag","pricing_plan_id":"cebpf4jnsgd1na2vs0mg"},{"bike_id":"e0c7065e-7f74-4b06-ae7b-f933c635df87","system_id":"levelo_inurba_marseille","lat":43.29554,"lon":5.42297,"is_reserved":false,"is_disabled":false,"rental_uris":{"android":"levelo://app?vid=e0c7065e-7f74-4b06-ae7b-f933c635df87","ios":"levelo://app?vid=e0c7065e-7f74-4b06-ae7b-f933c635df87"},"vehicle_type_id":"4","last_reported":1784272138,"current_range_meters":40000,"station_id":"ce4bhph2rcd13ifvqhdg","pricing_plan_id":"cebpf4jnsgd1na2vs0mg"},{"bike_id":"3d9d15ce-5804-4209-b92a-723f598d0341","system_id":"levelo_inurba_marseille","lat":43.21192,"lon":5.35073,"is_reserved":false,"is_disabled":false,"rental_uris":{"android":"levelo://app?vid=3d9d15ce-5804-4209-b92a-723f598d0341","ios":"levelo://app?vid=3d9d15ce-5804-4209-b92a-723f598d0341"},"vehicle_type_id":"4","last_reported":1784272138,"current_range_meters":14000,"station_id":"st_cvj6sg6p6f1abm77japg","pricing_plan_id":"cebpf4jnsgd1na2vs0mg"},{"bike_id":"0242f6f7-fb21-409d-84e0-fdbac2c8c278","system_id":"levelo_inurba_marseille","lat":43.30519,"lon":5.39991,"is_reserved":false,"is_disabled":false,"rental_uris":{"android":"levelo://app?vid=0242f6f7-fb21-409d-84e0-fdbac2c8c278","ios":"levelo://app?vid=0242f6f7-fb21-409d-84e0-fdbac2c8c278"},"vehicle_type_id":"4","last_reported":1784272138,"current_range_meters":35600,"station_id":"","pricing_plan_id":"cebpf4jnsgd1na2vs0mg"},{"bike_id":"4b9a104a-858d-4f43-9293-1e1fdd4da0c0","system_id":"levelo_inurba_marseille","lat":43.29269,"lon":5.37616,"is_reserved":false,"is_disabled":false,"rental_uris":{"android":"levelo://app?vid=4b9a104a-858d-4f43-9293-1e1fdd4da0c0","ios":"levelo://app?vid=4b9a104a-858d-4f43-9293-1e1fdd4da0c0"},"vehicle_type_id":"4","last_reported":1784272138,"current_range_meters":37600,"station_id":"ce4bgi12rcd13ifvqb80","pricing_plan_id":"cebpf4jnsgd1na2vs0mg"},{"bike_id":"92f9377a-62ba-495b-8de9-1750140cdb94","system_id":"levelo_inurba_marseille","lat":43.29611,"lon":5.37138,"is_reserved":false,"is_disabled":false,"rental_uris":{"android":"levelo://app?vid=92f9377a-62ba-495b-8de9-1750140cdb94","ios":"levelo://app?vid=92f9377a-62ba-495b-8de9-1750140cdb94"},"vehicle_type_id":"4","last_reported":1784272138,"current_range_meters":9600,"station_id":"","pricing_plan_id":"cebpf4jnsgd1na2vs0mg"},{"bike_id":"54a43306-7593-4a50-9c1e-2cceaf860321","system_id":"levelo_inurba_marseille","lat":43.27817,"lon":5.40711,"is_reserved":false,"is_disabled":false,"rental_uris":{"android":"levelo://app?vid=54a43306-7593-4a50-9c1e-2cceaf860321","ios":"levelo://app?vid=54a43306-7593-4a50-9c1e-2cceaf860321"},"vehicle_type_id":"4","last_reported":1784272138,"current_range_meters":10000,"station_id":"ce4bhnh2rcd13ifvqgtg","pricing_plan_id":"cebpf4jnsgd1na2vs0mg"},{"bike_id":"e1bb6861-ee59-438c-aa2a-2a553b2d6f43","system_id":"levelo_inurba_marseille","lat":43.27186,"lon":5.40995,"is_reserved":false,"is_disabled":true,"rental_uris":{"android":"levelo://app?vid=e1bb6861-ee59-438c-aa2a-2a553b2d6f43","ios":"levelo://app?vid=e1bb6861-ee59-438c-aa2a-2a553b2d6f43"},"vehicle_type_id":"4","last_reported":1784272138,"current_range_meters":35200,"station_id":"ce4bhl12rcd13ifvqgf0","pricing_plan_id":"cebpf4jnsgd1na2vs0mg"},{"bike_id":"d61f5f42-3266-4ab9-bc4e-5a83331a7ece","system_id":"levelo_inurba_marseille","lat":43.25583,"lon":5.3825,"is_reserved":false,"is_disabled":true,"rental_uris":{"android":"levelo://app?vid=d61f5f42-3266-4ab9-bc4e-5a83331a7ece","ios":"levelo://app?vid=d61f5f42-3266-4ab9-bc4e-5a83331a7ece"},"vehicle_type_id":"4","last_reported":1784272138,"current_range_meters":36000,"station_id":"ce4bhih2rcd13ifvqfs0","pricing_plan_id":"cebpf4jnsgd1na2vs0mg"},{"bike_id":"06097b1f-6886-48c9-a8e6-84f03d133de4","system_id":"levelo_inurba_marseille","lat":43.31346,"lon":5.43227,"is_reserved":false,"is_disabled":false,"rental_uris":{"android":"levelo://app?vid=06097b1f-6886-48c9-a8e6-84f03d133de4","ios":"levelo://app?vid=06097b1f-6886-48c9-a8e6-84f03d133de4"},"vehicle_type_id":"4","last_reported":1784272138,"current_range_meters":8000,"station_id":"","pricing_plan_id":"cebpf4jnsgd1na2vs0mg"},{"bike_id":"34c5b572-acfb-4138-9633-fe327799f420","system_id":"levelo_inurba_marseille","lat":43.29542,"lon":5.36126,"is_reserved":false,"is_disabled":true,"rental_uris":{"android":"levelo://app?vid=34c5b572-acfb-4138-9633-fe327799f420","ios":"levelo://app?vid=34c5b572-acfb-4138-9633-fe327799f420"},"vehicle_type_id":"4","last_reported":1784272138,"current_range_meters":32400,"station_id":"","pricing_plan_id":"cebpf4jnsgd1na2vs0mg"},{"bike_id":"c70a5a1a-1138-428e-9352-e5f388c6b2fe","system_id":"levelo_inurba_marseille","lat":43.33746,"lon":5.37462,"is_reserved":false,"is_disabled":false,"rental_uris":{"android":"levelo://app?vid=c70a5a1a-1138-428e-9352-e5f388c6b2fe","ios":"levelo://app?vid=c70a5a1a-1138-428e-9352-e5f388c6b2fe"},"vehicle_type_id":"4","last_reported":1784272138,"current_range_meters":28800,"station_id":"","pricing_plan_id":"cebpf4jnsgd1na2vs0mg"},{"bike_id":"448ab149-1e23-45d2-8d41-536c144b6b21","system_id":"levelo_inurba_marseille","lat":43.31759,"lon":5.38989,"is_reserved":false,"is_disabled":false,"rental_uris":{"android":"levelo://app?vid=448ab149-1e23-45d2-8d41-536c144b6b21","ios":"levelo://app?vid=448ab149-1e23-45d2-8d41-536c144b6b21"},"vehicle_type_id":"4","last_reported":1784272138,"current_range_meters":16400,"station_id":"ce4bhqp2rcd13ifvqhng","pricing_plan_id":"cebpf4jnsgd1na2vs0mg"},{"bike_id":"e4069052-09f3-4aad-a4cf-82efe46eca69","system_id":"levelo_inurba_marseille","lat":43.27893,"lon":5.37994,"is_reserved":false,"is_disabled":false,"rental_uris":{"android":"levelo://app?vid=e4069052-09f3-4aad-a4cf-82efe46eca69","ios":"levelo://app?vid=e4069052-09f3-4aad-a4cf-82efe46eca69"},"vehicle_type_id":"4","last_reported":1784272138,"current_range_meters":38000,"station_id":"ce4bhf92rcd13ifvqf50","pricing_plan_id":"cebpf4jnsgd1na2vs0mg"},{"bike_id":"2623e023-e953-40ac-8068-15d2169ca99d","system_id":"levelo_inurba_marseille","lat":43.28704,"lon":5.46684,"is_reserved":false,"is_disabled":false,"rental_uris":{"android":"levelo://app?vid=2623e023-e953-40ac-8068-15d2169ca99d","ios":"levelo://app?vid=2623e023-e953-40ac-8068-15d2169ca99d"},"vehicle_type_id":"4","last_reported":1784272138,"current_range_meters":6800,"station_id":"st_d6tc3vkotcvc738tfjhg","pricing_plan_id":"cebpf4jnsgd1na2vs0mg"},{"bike_id":"c02ff727-b4b3-40d1-8167-8117fd3cb3f6","system_id":"levelo_inurba_marseille","lat":43.30788,"lon":5.37645,"is_reserved":false,"is_disabled":false,"rental_uris":{"android":"levelo://app?vid=c02ff727-b4b3-40d1-8167-8117fd3cb3f6","ios":"levelo://app?vid=c02ff727-b4b3-40d1-8167-8117fd3cb3f6"},"vehicle_type_id":"4","last_reported":1784272138,"current_range_meters":39200,"station_id":"ce4bgv92rcd13ifvqcq0","pricing_plan_id":"cebpf4jnsgd1na2vs0mg"},{"bike_id":"7a5203cf-b3c3-4680-afa1-0e3d4d1fb7e2","system_id":"levelo_inurba_marseille","lat":43.2387,"lon":5.37534,"is_reserved":false,"is_disabled":false,"rental_uris":{"android":"levelo://app?vid=7a5203cf-b3c3-4680-afa1-0e3d4d1fb7e2","ios":"levelo://app?vid=7a5203cf-b3c3-4680-afa1-0e3d4d1fb7e2"},"vehicle_type_id":"4","last_reported":1784272138,"current_range_meters":38000,"station_id":"","pricing_plan_id":"cebpf4jnsgd1na2vs0mg"},{"bike_id":"69b6ed8c-1f17-46c2-8d4a-815055a3a3c4","system_id":"levelo_inurba_marseille","lat":43.28966,"lon":5.35637,"is_reserved":false,"is_disabled":true,"rental_uris":{"android":"levelo://app?vid=69b6ed8c-1f17-46c2-8d4a-815055a3a3c4","ios":"levelo://app?vid=69b6ed8c-1f17-46c2-8d4a-815055a3a3c4"},"vehicle_type_id":"4","last_reported":1784272138,"current_range_meters":38400,"station_id":"","pricing_plan_id":"cebpf4jnsgd1na2vs0mg"},{"bike_id":"ebc9b3c7-9a3f-47fe-86c0-8ccdcb2b70ca","system_id":"levelo_inurba_marseille","lat":43.3016,"lon":5.38093,"is_reserved":false,"is_disabled":false,"rental_uris":{"android":"levelo://app?vid=ebc9b3c7-9a3f-47fe-86c0-8ccdcb2b70ca","ios":"levelo://app?vid=ebc9b3c7-9a3f-47fe-86c0-8ccdcb2b70ca"},"vehicle_type_id":"4","last_reported":1784272138,"current_range_meters":20800,"station_id":"ce4bgjp2rcd13ifvqbh0","pricing_plan_id":"cebpf4jnsgd1na2vs0mg"},{"bike_id":"7805d26b-bae0-4e9d-96e6-e037e3eeb62b","system_id":"levelo_inurba_marseille","lat":43.22934,"lon":5.35376,"is_reserved":false,"is_disabled":false,"rental_uris":{"android":"levelo://app?vid=7805d26b-bae0-4e9d-96e6-e037e3eeb62b","ios":"levelo://app?vid=7805d26b-bae0-4e9d-96e6-e037e3eeb62b"},"vehicle_type_id":"4","last_reported":1784272138,"current_range_meters":4400,"station_id":"cpo3532slgdg3j2ikp40","pricing_plan_id":"cebpf4jnsgd1na2vs0mg"},{"bike_id":"b24dfb91-f5ce-42a0-b9b3-5cc6fb7df858","system_id":"levelo_inurba_marseille","lat":43.26961,"lon":5.38635,"is_reserved":false,"is_disabled":false,"rental_uris":{"android":"levelo://app?vid=b24dfb91-f5ce-42a0-b9b3-5cc6fb7df858","ios":"levelo://app?vid=b24dfb91-f5ce-42a0-b9b3-5cc6fb7df858"},"vehicle_type_id":"4","last_reported":1784272138,"current_range_meters":26000,"station_id":"ce4bhh92rcd13ifvqfh0","pricing_plan_id":"cebpf4jnsgd1na2vs0mg"},{"bike_id":"530d5b81-1545-4b49-8624-2c00cc3d9834","system_id":"levelo_inurba_marseille","lat":43.2533,"lon":5.42165,"is_reserved":false,"is_disabled":false,"rental_uris":{"android":"levelo://app?vid=530d5b81-1545-4b49-8624-2c00cc3d9834","ios":"levelo://app?vid=530d5b81-1545-4b49-8624-2c00cc3d9834"},"vehicle_type_id":"4","last_reported":1784272138,"current_range_meters":17200,"station_id":"st_d2m65c5bi1j21697t3ng","pricing_plan_id":"cebpf4jnsgd1na2vs0mg"},{"bike_id":"863d0357-9100-4091-8be6-61d932e4e898","system_id":"levelo_inurba_marseille","lat":43.33745,"lon":5.37452,"is_reserved":false,"is_disabled":false,"rental_uris":{"android":"levelo://app?vid=863d0357-9100-4091-8be6-61d932e4e898","ios":"levelo://app?vid=863d0357-9100-4091-8be6-61d932e4e898"},"vehicle_type_id":"4","last_reported":1784272138,"current_range_meters":38400,"station_id":"","pricing_plan_id":"cebpf4jnsgd1na2vs0mg"},{"bike_id":"f44d0928-8ad6-4308-b10f-ade40ce37ee2","system_id":"levelo_inurba_marseille","lat":43.27993,"lon":5.3825,"is_reserved":false,"is_disabled":false,"rental_uris":{"android":"levelo://app?vid=f44d0928-8ad6-4308-b10f-ade40ce37ee2","ios":"levelo://app?vid=f44d0928-8ad6-4308-b10f-ade40ce37ee2"},"vehicle_type_id":"4","last_reported":1784272138,"current_range_meters":27600,"station_id":"","pricing_plan_id":"cebpf4jnsgd1na2vs0mg"},{"bike_id":"476582e1-be21-4bc4-8542-d86de0e420c6","system_id":"levelo_inurba_marseille","lat":43.24567,"lon":5.39484,"is_reserved":false,"is_disabled":false,"rental_uris":{"android":"levelo://app?vid=476582e1-be21-4bc4-8542-d86de0e420c6","ios":"levelo://app?vid=476582e1-be21-4bc4-8542-d86de0e420c6"},"vehicle_type_id":"4","last_reported":1784272138,"current_range_meters":39200,"station_id":"ce4bhlp2rcd13ifvqgjg","pricing_plan_id":"cebpf4jnsgd1na2vs0mg"},{"bike_id":"2abcaaac-a7cb-4117-b258-0cc36d96df86","system_id":"levelo_inurba_marseille","lat":43.290176,"lon":5.381271,"is_reserved":false,"is_disabled":false,"rental_uris":{"android":"levelo://app?vid=2abcaaac-a7cb-4117-b258-0cc36d96df86","ios":"levelo://app?vid=2abcaaac-a7cb-4117-b258-0cc36d96df86"},"vehicle_type_id":"4","last_reported":1784272138,"current_range_meters":39200,"station_id":"ce4bh4p2rcd13ifvqe1g","pricing_plan_id":"cebpf4jnsgd1na2vs0mg"},{"bike_id":"10ef5bd0-f130-4452-b7f2-391aef329ae1","system_id":"levelo_inurba_marseille","lat":43.2816,"lon":5.42634,"is_reserved":false,"is_disabled":false,"rental_uris":{"android":"levelo://app?vid=10ef5bd0-f130-4452-b7f2-391aef329ae1","ios":"levelo://app?vid=10ef5bd0-f130-4452-b7f2-391aef329ae1"},"vehicle_type_id":"4","last_reported":1784272138,"current_range_meters":33200,"station_id":"ce4bhnh2rcd13ifvqgug","pricing_plan_id":"cebpf4jnsgd1na2vs0mg"},{"bike_id":"ccbc8778-9fb1-4697-a4f1-aa5a01a4daf2","system_id":"levelo_inurba_marseille","lat":43.31352,"lon":5.36728,"is_reserved":false,"is_disabled":false,"rental_uris":{"android":"levelo://app?vid=ccbc8778-9fb1-4697-a4f1-aa5a01a4daf2","ios":"levelo://app?vid=ccbc8778-9fb1-4697-a4f1-aa5a01a4daf2"},"vehicle_type_id":"4","last_reported":1784272138,"current_range_meters":37600,"station_id":"ce4bgr92rcd13ifvqc6g","pricing_plan_id":"cebpf4jnsgd1na2vs0mg"},{"bike_id":"8ba7f2d6-52d3-4c56-b19a-19a142e62779","system_id":"levelo_inurba_marseille","lat":43.24056,"lon":5.37683,"is_reserved":false,"is_disabled":false,"rental_uris":{"android":"levelo://app?vid=8ba7f2d6-52d3-4c56-b19a-19a142e62779","ios":"levelo://app?vid=8ba7f2d6-52d3-4c56-b19a-19a142e62779"},"vehicle_type_id":"4","last_reported":1784272138,"current_range_meters":17200,"station_id":"","pricing_plan_id":"cebpf4jnsgd1na2vs0mg"},{"bike_id":"3df7b3ee-3083-4a49-a1f1-8ec2f9d7ba3b","system_id":"levelo_inurba_marseille","lat":43.26068,"lon":5.39376,"is_reserved":false,"is_disabled":false,"rental_uris":{"android":"levelo://app?vid=3df7b3ee-3083-4a49-a1f1-8ec2f9d7ba3b","ios":"levelo://app?vid=3df7b3ee-3083-4a49-a1f1-8ec2f9d7ba3b"},"vehicle_type_id":"4","last_reported":1784272138,"current_range_meters":29600,"station_id":"ce4bhh92rcd13ifvqfj0","pricing_plan_id":"cebpf4jnsgd1na2vs0mg"},{"bike_id":"692e39d8-285b-41d0-a15a-1de09e6388a5","system_id":"levelo_inurba_marseille","lat":43.24812,"lon":5.37435,"is_reserved":false,"is_disabled":false,"rental_uris":{"android":"levelo://app?vid=692e39d8-285b-41d0-a15a-1de09e6388a5","ios":"levelo://app?vid=692e39d8-285b-41d0-a15a-1de09e6388a5"},"vehicle_type_id":"4","last_reported":1784272138,"current_range_meters":39200,"station_id":"ce4bhgh2rcd13ifvqfb0","pricing_plan_id":"cebpf4jnsgd1na2vs0mg"},{"bike_id":"eeaaed66-36f9-477d-98fb-d53a7ffce760","system_id":"levelo_inurba_marseille","lat":43.26542,"lon":5.37288,"is_reserved":false,"is_disabled":true,"rental_uris":{"android":"levelo://app?vid=eeaaed66-36f9-477d-98fb-d53a7ffce760","ios":"levelo://app?vid=eeaaed66-36f9-477d-98fb-d53a7ffce760"},"vehicle_type_id":"4","last_reported":1784272138,"current_range_meters":35600,"station_id":"ce4bhg12rcd13ifvqf70","pricing_plan_id":"cebpf4jnsgd1na2vs0mg"},{"bike_id":"1702cc2f-2c66-448b-8b54-58c477324e70","system_id":"levelo_inurba_marseille","lat":43.27339,"lon":5.39097,"is_reserved":false,"is_disabled":false,"rental_uris":{"android":"levelo://app?vid=1702cc2f-2c66-448b-8b54-58c477324e70","ios":"levelo://app?vid=1702cc2f-2c66-448b-8b54-58c477324e70"},"vehicle_type_id":"4","last_reported":1784272138,"current_range_meters":14000,"station_id":"ce4bhgp2rcd13ifvqfe0","pricing_plan_id":"cebpf4jnsgd1na2vs0mg"},{"bike_id":"4fb3f049-924f-4c9c-9f9d-de641cc8ae83","system_id":"levelo_inurba_marseille","lat":43.30144,"lon":5.38092,"is_reserved":false,"is_disabled":false,"rental_uris":{"android":"levelo://app?vid=4fb3f049-924f-4c9c-9f9d-de641cc8ae83","ios":"levelo://app?vid=4fb3f049-924f-4c9c-9f9d-de641cc8ae83"},"vehicle_type_id":"4","last_reported":1784272138,"current_range_meters":38000,"station_id":"ce4bgjp2rcd13ifvqbh0","pricing_plan_id":"cebpf4jnsgd1na2vs0mg"},{"bike_id":"57091f55-05a7-48f3-b9de-2a363c338c85","system_id":"levelo_inurba_marseille","lat":43.23896,"lon":5.3745,"is_reserved":false,"is_disabled":false,"rental_uris":{"android":"levelo://app?vid=57091f55-05a7-48f3-b9de-2a363c338c85","ios":"levelo://app?vid=57091f55-05a7-48f3-b9de-2a363c338c85"},"vehicle_type_id":"4","last_reported":1784272138,"current_range_meters":39200,"station_id":"st_d6sm7csbq4hs73f8fpjg","pricing_plan_id":"cebpf4jnsgd1na2vs0mg"},{"bike_id":"5ee03f4b-159d-426a-a2ca-0b6a084e3698","system_id":"levelo_inurba_marseille","lat":43.23782,"lon":5.36628,"is_reserved":false,"is_disabled":false,"rental_uris":{"android":"levelo://app?vid=5ee03f4b-159d-426a-a2ca-0b6a084e3698","ios":"levelo://app?vid=5ee03f4b-159d-426a-a2ca-0b6a084e3698"},"vehicle_type_id":"4","last_reported":1784272138,"current_range_meters":30400,"station_id":"st_d3nk18o9ro0c73en2l3g","pricing_plan_id":"cebpf4jnsgd1na2vs0mg"},{"bike_id":"e9700518-bfab-4e19-9c8e-e3cb6414cf72","system_id":"levelo_inurba_marseille","lat":43.29201,"lon":5.35826,"is_reserved":false,"is_disabled":true,"rental_uris":{"android":"levelo://app?vid=e9700518-bfab-4e19-9c8e-e3cb6414cf72","ios":"levelo://app?vid=e9700518-bfab-4e19-9c8e-e3cb6414cf72"},"vehicle_type_id":"4","last_reported":1784272138,"current_range_meters":12000,"station_id":"ce4bhb12rcd13ifvqel0","pricing_plan_id":"cebpf4jnsgd1na2vs0mg"},{"bike_id":"cf82b627-a9f2-4f3d-b2eb-cd435082c84d","system_id":"levelo_inurba_marseille","lat":43.306456,"lon":5.400843,"is_reserved":false,"is_disabled":false,"rental_uris":{"android":"levelo://app?vid=cf82b627-a9f2-4f3d-b2eb-cd435082c84d","ios":"levelo://app?vid=cf82b627-a9f2-4f3d-b2eb-cd435082c84d"},"vehicle_type_id":"4","last_reported":1784272138,"current_range_meters":36800,"station_id":"ce4bh112rcd13ifvqda0","pricing_plan_id":"cebpf4jnsgd1na2vs0mg"},{"bike_id":"95ce5d31-1444-4ecd-9f97-683dd61e0473","system_id":"levelo_inurba_marseille","lat":43.30039,"lon":5.40156,"is_reserved":false,"is_disabled":false,"rental_uris":{"android":"levelo://app?vid=95ce5d31-1444-4ecd-9f97-683dd61e0473","ios":"levelo://app?vid=95ce5d31-1444-4ecd-9f97-683dd61e0473"},"vehicle_type_id":"4","last_reported":1784272138,"current_range_meters":13600,"station_id":"","pricing_plan_id":"cebpf4jnsgd1na2vs0mg"},{"bike_id":"40133888-0505-4ab7-bf98-89cc8c9f1fbd","system_id":"levelo_inurba_marseille","lat":43.31236,"lon":5.38147,"is_reserved":false,"is_disabled":false,"rental_uris":{"android":"levelo://app?vid=40133888-0505-4ab7-bf98-89cc8c9f1fbd","ios":"levelo://app?vid=40133888-0505-4ab7-bf98-89cc8c9f1fbd"},"vehicle_type_id":"4","last_reported":1784272138,"current_range_meters":19200,"station_id":"","pricing_plan_id":"cebpf4jnsgd1na2vs0mg"},{"bike_id":"21e71573-8bf0-4106-b8c8-1a9a53e8a6b4","system_id":"levelo_inurba_marseille","lat":43.284151,"lon":5.349831,"is_reserved":false,"is_disabled":false,"rental_uris":{"android":"levelo://app?vid=21e71573-8bf0-4106-b8c8-1a9a53e8a6b4","ios":"levelo://app?vid=21e71573-8bf0-4106-b8c8-1a9a53e8a6b4"},"vehicle_type_id":"4","last_reported":1784272138,"current_range_meters":30400,"station_id":"ce4bhbh2rcd13ifvqepg","pricing_plan_id":"cebpf4jnsgd1na2vs0mg"},{"bike_id":"27c50ee9-358d-4489-8bb6-49287f904a3a","system_id":"levelo_inurba_marseille","lat":43.2897,"lon":5.37834,"is_reserved":false,"is_disabled":false,"rental_uris":{"android":"levelo://app?vid=27c50ee9-358d-4489-8bb6-49287f904a3a","ios":"levelo://app?vid=27c50ee9-358d-4489-8bb6-49287f904a3a"},"vehicle_type_id":"4","last_reported":1784272138,"current_range_meters":6400,"station_id":"ce4bh9p2rcd13ifvqed0","pricing_plan_id":"cebpf4jnsgd1na2vs0mg"},{"bike_id":"71b9772f-5f70-4c31-a7a9-812878aee042","system_id":"levelo_inurba_marseille","lat":43.31537,"lon":5.37277,"is_reserved":false,"is_disabled":false,"rental_uris":{"android":"levelo://app?vid=71b9772f-5f70-4c31-a7a9-812878aee042","ios":"levelo://app?vid=71b9772f-5f70-4c31-a7a9-812878aee042"},"vehicle_type_id":"4","last_reported":1784272138,"current_range_meters":34800,"station_id":"","pricing_plan_id":"cebpf4jnsgd1na2vs0mg"},{"bike_id":"34b4978e-492d-4d36-a2d7-7a18159a1fee","system_id":"levelo_inurba_marseille","lat":43.24675,"lon":5.38139,"is_reserved":false,"is_disabled":false,"rental_uris":{"android":"levelo://app?vid=34b4978e-492d-4d36-a2d7-7a18159a1fee","ios":"levelo://app?vid=34b4978e-492d-4d36-a2d7-7a18159a1fee"},"vehicle_type_id":"4","last_reported":1784272138,"current_range_meters":22000,"station_id":"ce4bhih2rcd13ifvqfr0","pricing_plan_id":"cebpf4jnsgd1na2vs0mg"},{"bike_id":"8c3a68b6-64f1-45d0-a20c-2c93bb39fe9b","system_id":"levelo_inurba_marseille","lat":43.22929,"lon":5.35372,"is_reserved":false,"is_disabled":false,"rental_uris":{"android":"levelo://app?vid=8c3a68b6-64f1-45d0-a20c-2c93bb39fe9b","ios":"levelo://app?vid=8c3a68b6-64f1-45d0-a20c-2c93bb39fe9b"},"vehicle_type_id":"4","last_reported":1784272138,"current_range_meters":19200,"station_id":"cpo3532slgdg3j2ikp40","pricing_plan_id":"cebpf4jnsgd1na2vs0mg"},{"bike_id":"944e3d82-f303-4d6c-a543-b7f5b08cae1f","system_id":"levelo_inurba_marseille","lat":43.32132,"lon":5.36767,"is_reserved":false,"is_disabled":false,"rental_uris":{"android":"levelo://app?vid=944e3d82-f303-4d6c-a543-b7f5b08cae1f","ios":"levelo://app?vid=944e3d82-f303-4d6c-a543-b7f5b08cae1f"},"vehicle_type_id":"4","last_reported":1784272138,"current_range_meters":12000,"station_id":"ce4bhrh2rcd13ifvqhug","pricing_plan_id":"cebpf4jnsgd1na2vs0mg"},{"bike_id":"0c97035e-77c3-47ed-a350-5911d8e51412","system_id":"levelo_inurba_marseille","lat":43.25592,"lon":5.38235,"is_reserved":false,"is_disabled":false,"rental_uris":{"android":"levelo://app?vid=0c97035e-77c3-47ed-a350-5911d8e51412","ios":"levelo://app?vid=0c97035e-77c3-47ed-a350-5911d8e51412"},"vehicle_type_id":"4","last_reported":1784272138,"current_range_meters":38000,"station_id":"ce4bhih2rcd13ifvqfs0","pricing_plan_id":"cebpf4jnsgd1na2vs0mg"},{"bike_id":"f35ef753-bb14-4ec9-bff5-5492c18743a0","system_id":"levelo_inurba_marseille","lat":43.29556,"lon":5.37907,"is_reserved":false,"is_disabled":true,"rental_uris":{"android":"levelo://app?vid=f35ef753-bb14-4ec9-bff5-5492c18743a0","ios":"levelo://app?vid=f35ef753-bb14-4ec9-bff5-5492c18743a0"},"vehicle_type_id":"4","last_reported":1784272138,"current_range_meters":0,"station_id":"","pricing_plan_id":"cebpf4jnsgd1na2vs0mg"},{"bike_id":"81587832-75ed-49cd-91c3-f57f9b8cec45","system_id":"levelo_inurba_marseille","lat":43.29069,"lon":5.3589,"is_reserved":false,"is_disabled":true,"rental_uris":{"android":"levelo://app?vid=81587832-75ed-49cd-91c3-f57f9b8cec45","ios":"levelo://app?vid=81587832-75ed-49cd-91c3-f57f9b8cec45"},"vehicle_type_id":"4","last_reported":1784272138,"current_range_meters":11600,"station_id":"ce4bha92rcd13ifvqeg0","pricing_plan_id":"cebpf4jnsgd1na2vs0mg"},{"bike_id":"d4037206-0988-49a5-9589-9cf52ca0b5da","system_id":"levelo_inurba_marseille","lat":43.30342,"lon":5.40712,"is_reserved":false,"is_disabled":true,"rental_uris":{"android":"levelo://app?vid=d4037206-0988-49a5-9589-9cf52ca0b5da","ios":"levelo://app?vid=d4037206-0988-49a5-9589-9cf52ca0b5da"},"vehicle_type_id":"4","last_reported":1784272138,"current_range_meters":0,"station_id":"","pricing_plan_id":"cebpf4jnsgd1na2vs0mg"},{"bike_id":"86ed29c9-7b7f-4d90-b8cf-30b7c52d814c","system_id":"levelo_inurba_marseille","lat":43.29292,"lon":5.40109,"is_reserved":false,"is_disabled":false,"rental_uris":{"android":"levelo://app?vid=86ed29c9-7b7f-4d90-b8cf-30b7c52d814c","ios":"levelo://app?vid=86ed29c9-7b7f-4d90-b8cf-30b7c52d814c"},"vehicle_type_id":"4","last_reported":1784272138,"current_range_meters":14000,"station_id":"ce4bh312rcd13ifvqdk0","pricing_plan_id":"cebpf4jnsgd1na2vs0mg"},{"bike_id":"8a2ed306-8405-4822-b70f-abc1f81e1070","system_id":"levelo_inurba_marseille","lat":43.24541,"lon":5.39515,"is_reserved":false,"is_disabled":false,"rental_uris":{"android":"levelo://app?vid=8a2ed306-8405-4822-b70f-abc1f81e1070","ios":"levelo://app?vid=8a2ed306-8405-4822-b70f-abc1f81e1070"},"vehicle_type_id":"4","last_reported":1784272138,"current_range_meters":26800,"station_id":"ce4bhlp2rcd13ifvqgjg","pricing_plan_id":"cebpf4jnsgd1na2vs0mg"},{"bike_id":"16cc449f-16a3-4fe7-a9b5-0e4008cc40a2","system_id":"levelo_inurba_marseille","lat":43.27895,"lon":5.38036,"is_reserved":false,"is_disabled":false,"rental_uris":{"android":"levelo://app?vid=16cc449f-16a3-4fe7-a9b5-0e4008cc40a2","ios":"levelo://app?vid=16cc449f-16a3-4fe7-a9b5-0e4008cc40a2"},"vehicle_type_id":"4","last_reported":1784272138,"current_range_meters":37600,"station_id":"ce4bhf92rcd13ifvqf50","pricing_plan_id":"cebpf4jnsgd1na2vs0mg"},{"bike_id":"1fb2594b-e7ab-44d5-82e0-2f25ad1ec43c","system_id":"levelo_inurba_marseille","lat":43.29287,"lon":5.40903,"is_reserved":false,"is_disabled":false,"rental_uris":{"android":"levelo://app?vid=1fb2594b-e7ab-44d5-82e0-2f25ad1ec43c","ios":"levelo://app?vid=1fb2594b-e7ab-44d5-82e0-2f25ad1ec43c"},"vehicle_type_id":"4","last_reported":1784272138,"current_range_meters":40000,"station_id":"ce4bh192rcd13ifvqdc0","pricing_plan_id":"cebpf4jnsgd1na2vs0mg"},{"bike_id":"02fca35e-6bde-4c8b-9280-89f1b51d7527","system_id":"levelo_inurba_marseille","lat":43.30519,"lon":5.36507,"is_reserved":false,"is_disabled":false,"rental_uris":{"android":"levelo://app?vid=02fca35e-6bde-4c8b-9280-89f1b51d7527","ios":"levelo://app?vid=02fca35e-6bde-4c8b-9280-89f1b51d7527"},"vehicle_type_id":"4","last_reported":1784272138,"current_range_meters":36400,"station_id":"","pricing_plan_id":"cebpf4jnsgd1na2vs0mg"},{"bike_id":"e363b584-92a2-4c61-adfd-371a2577000d","system_id":"levelo_inurba_marseille","lat":43.29902,"lon":5.43663,"is_reserved":false,"is_disabled":false,"rental_uris":{"android":"levelo://app?vid=e363b584-92a2-4c61-adfd-371a2577000d","ios":"levelo://app?vid=e363b584-92a2-4c61-adfd-371a2577000d"},"vehicle_type_id":"4","last_reported":1784272138,"current_range_meters":39200,"station_id":"ce4bhpp2rcd13ifvqhfg","pricing_plan_id":"cebpf4jnsgd1na2vs0mg"},{"bike_id":"8618d24b-e7ef-47e0-bbc4-32a5c73e7e9d","system_id":"levelo_inurba_marseille","lat":43.29743,"lon":5.37686,"is_reserved":false,"is_disabled":false,"rental_uris":{"android":"levelo://app?vid=8618d24b-e7ef-47e0-bbc4-32a5c73e7e9d","ios":"levelo://app?vid=8618d24b-e7ef-47e0-bbc4-32a5c73e7e9d"},"vehicle_type_id":"4","last_reported":1784272138,"current_range_meters":39200,"station_id":"ce4bgkh2rcd13ifvqbl0","pricing_plan_id":"cebpf4jnsgd1na2vs0mg"},{"bike_id":"5ebdc902-7281-4b89-a54b-21ee517329fb","system_id":"levelo_inurba_marseille","lat":43.24811,"lon":5.37448,"is_reserved":false,"is_disabled":true,"rental_uris":{"android":"levelo://app?vid=5ebdc902-7281-4b89-a54b-21ee517329fb","ios":"levelo://app?vid=5ebdc902-7281-4b89-a54b-21ee517329fb"},"vehicle_type_id":"4","last_reported":1784272138,"current_range_meters":400,"station_id":"ce4bhgh2rcd13ifvqfb0","pricing_plan_id":"cebpf4jnsgd1na2vs0mg"},{"bike_id":"8d41c8ab-a497-4c0a-ae2c-65f8d0b5952d","system_id":"levelo_inurba_marseille","lat":43.29043,"lon":5.37557,"is_reserved":false,"is_disabled":false,"rental_uris":{"android":"levelo://app?vid=8d41c8ab-a497-4c0a-ae2c-65f8d0b5952d","ios":"levelo://app?vid=8d41c8ab-a497-4c0a-ae2c-65f8d0b5952d"},"vehicle_type_id":"4","last_reported":1784272138,"current_range_meters":12400,"station_id":"ce4bh692rcd13ifvqe90","pricing_plan_id":"cebpf4jnsgd1na2vs0mg"},{"bike_id":"fb0d2b97-27fc-4a11-97b8-0b3dfa99a9ff","system_id":"levelo_inurba_marseille","lat":43.24558,"lon":5.39528,"is_reserved":false,"is_disabled":false,"rental_uris":{"android":"levelo://app?vid=fb0d2b97-27fc-4a11-97b8-0b3dfa99a9ff","ios":"levelo://app?vid=fb0d2b97-27fc-4a11-97b8-0b3dfa99a9ff"},"vehicle_type_id":"4","last_reported":1784272138,"current_range_meters":20800,"station_id":"ce4bhlp2rcd13ifvqgjg","pricing_plan_id":"cebpf4jnsgd1na2vs0mg"},{"bike_id":"7ff8118f-6c81-4cdf-8a1d-4753d954065d","system_id":"levelo_inurba_marseille","lat":43.29588,"lon":5.37943,"is_reserved":false,"is_disabled":false,"rental_uris":{"android":"levelo://app?vid=7ff8118f-6c81-4cdf-8a1d-4753d954065d","ios":"levelo://app?vid=7ff8118f-6c81-4cdf-8a1d-4753d954065d"},"vehicle_type_id":"4","last_reported":1784272138,"current_range_meters":10800,"station_id":"","pricing_plan_id":"cebpf4jnsgd1na2vs0mg"},{"bike_id":"3da6bd28-86e6-4bb5-9156-89be9ed06d84","system_id":"levelo_inurba_marseille","lat":43.28369,"lon":5.38844,"is_reserved":false,"is_disabled":false,"rental_uris":{"android":"levelo://app?vid=3da6bd28-86e6-4bb5-9156-89be9ed06d84","ios":"levelo://app?vid=3da6bd28-86e6-4bb5-9156-89be9ed06d84"},"vehicle_type_id":"4","last_reported":1784272138,"current_range_meters":28000,"station_id":"","pricing_plan_id":"cebpf4jnsgd1na2vs0mg"},{"bike_id":"f853e491-d7e8-464d-9464-55b9e28faacc","system_id":"levelo_inurba_marseille","lat":43.26807,"lon":5.38366,"is_reserved":false,"is_disabled":false,"rental_uris":{"android":"levelo://app?vid=f853e491-d7e8-464d-9464-55b9e28faacc","ios":"levelo://app?vid=f853e491-d7e8-464d-9464-55b9e28faacc"},"vehicle_type_id":"4","last_reported":1784272138,"current_range_meters":6800,"station_id":"","pricing_plan_id":"cebpf4jnsgd1na2vs0mg"},{"bike_id":"463a2e3b-76c2-4feb-bdfe-c83991a79cfe","system_id":"levelo_inurba_marseille","lat":43.26213,"lon":5.37426,"is_reserved":false,"is_disabled":false,"rental_uris":{"android":"levelo://app?vid=463a2e3b-76c2-4feb-bdfe-c83991a79cfe","ios":"levelo://app?vid=463a2e3b-76c2-4feb-bdfe-c83991a79cfe"},"vehicle_type_id":"4","last_reported":1784272138,"current_range_meters":39200,"station_id":"ce4bhgp2rcd13ifvqfc0","pricing_plan_id":"cebpf4jnsgd1na2vs0mg"},{"bike_id":"d7c11974-bca2-402d-a8ff-28eaf16f0c66","system_id":"levelo_inurba_marseille","lat":43.32476,"lon":5.36548,"is_reserved":false,"is_disabled":false,"rental_uris":{"android":"levelo://app?vid=d7c11974-bca2-402d-a8ff-28eaf16f0c66","ios":"levelo://app?vid=d7c11974-bca2-402d-a8ff-28eaf16f0c66"},"vehicle_type_id":"4","last_reported":1784272138,"current_range_meters":38000,"station_id":"ce4bhs12rcd13ifvqhvg","pricing_plan_id":"cebpf4jnsgd1na2vs0mg"},{"bike_id":"1de5753c-f77d-4a34-b134-58bee8bc010c","system_id":"levelo_inurba_marseille","lat":43.26538,"lon":5.37286,"is_reserved":false,"is_disabled":true,"rental_uris":{"android":"levelo://app?vid=1de5753c-f77d-4a34-b134-58bee8bc010c","ios":"levelo://app?vid=1de5753c-f77d-4a34-b134-58bee8bc010c"},"vehicle_type_id":"4","last_reported":1784272138,"current_range_meters":25200,"station_id":"ce4bhg12rcd13ifvqf70","pricing_plan_id":"cebpf4jnsgd1na2vs0mg"},{"bike_id":"9f125b3e-669c-4016-960a-2d636bbd9f86","system_id":"levelo_inurba_marseille","lat":43.31501,"lon":5.37279,"is_reserved":false,"is_disabled":false,"rental_uris":{"android":"levelo://app?vid=9f125b3e-669c-4016-960a-2d636bbd9f86","ios":"levelo://app?vid=9f125b3e-669c-4016-960a-2d636bbd9f86"},"vehicle_type_id":"4","last_reported":1784272138,"current_range_meters":39200,"station_id":"ce4bgt12rcd13ifvqcd0","pricing_plan_id":"cebpf4jnsgd1na2vs0mg"},{"bike_id":"6b7bc794-a8b6-4b15-bdfb-b2fb240ae758","system_id":"levelo_inurba_marseille","lat":43.28418,"lon":5.34989,"is_reserved":false,"is_disabled":true,"rental_uris":{"android":"levelo://app?vid=6b7bc794-a8b6-4b15-bdfb-b2fb240ae758","ios":"levelo://app?vid=6b7bc794-a8b6-4b15-bdfb-b2fb240ae758"},"vehicle_type_id":"4","last_reported":1784272138,"current_range_meters":38800,"station_id":"ce4bhbh2rcd13ifvqepg","pricing_plan_id":"cebpf4jnsgd1na2vs0mg"},{"bike_id":"3cc3e250-cc6e-48e9-a3ad-0c4979ea1bfd","system_id":"levelo_inurba_marseille","lat":43.28458,"lon":5.37473,"is_reserved":false,"is_disabled":false,"rental_uris":{"android":"levelo://app?vid=3cc3e250-cc6e-48e9-a3ad-0c4979ea1bfd","ios":"levelo://app?vid=3cc3e250-cc6e-48e9-a3ad-0c4979ea1bfd"},"vehicle_type_id":"4","last_reported":1784272138,"current_range_meters":4400,"station_id":"","pricing_plan_id":"cebpf4jnsgd1na2vs0mg"},{"bike_id":"f5c6aafd-6df8-40b0-9d9d-3ffc14d0db7b","system_id":"levelo_inurba_marseille","lat":43.28209,"lon":5.42601,"is_reserved":false,"is_disabled":false,"rental_uris":{"android":"levelo://app?vid=f5c6aafd-6df8-40b0-9d9d-3ffc14d0db7b","ios":"levelo://app?vid=f5c6aafd-6df8-40b0-9d9d-3ffc14d0db7b"},"vehicle_type_id":"4","last_reported":1784272138,"current_range_meters":26800,"station_id":"","pricing_plan_id":"cebpf4jnsgd1na2vs0mg"},{"bike_id":"b757706d-1d17-4285-9a90-30a7e24d51ef","system_id":"levelo_inurba_marseille","lat":43.28459,"lon":5.38407,"is_reserved":false,"is_disabled":false,"rental_uris":{"android":"levelo://app?vid=b757706d-1d17-4285-9a90-30a7e24d51ef","ios":"levelo://app?vid=b757706d-1d17-4285-9a90-30a7e24d51ef"},"vehicle_type_id":"4","last_reported":1784272138,"current_range_meters":39200,"station_id":"ce4bh512rcd13ifvqe3g","pricing_plan_id":"cebpf4jnsgd1na2vs0mg"},{"bike_id":"d6b0724d-3030-4e7b-8778-a4d582b3070a","system_id":"levelo_inurba_marseille","lat":43.28614,"lon":5.35105,"is_reserved":false,"is_disabled":true,"rental_uris":{"android":"levelo://app?vid=d6b0724d-3030-4e7b-8778-a4d582b3070a","ios":"levelo://app?vid=d6b0724d-3030-4e7b-8778-a4d582b3070a"},"vehicle_type_id":"4","last_reported":1784272138,"current_range_meters":25600,"station_id":"ce4bhch2rcd13ifvqeug","pricing_plan_id":"cebpf4jnsgd1na2vs0mg"},{"bike_id":"70b4266b-6f2a-4bb7-934f-a2a2bf37b44f","system_id":"levelo_inurba_marseille","lat":43.25127,"lon":5.40319,"is_reserved":false,"is_disabled":true,"rental_uris":{"android":"levelo://app?vid=70b4266b-6f2a-4bb7-934f-a2a2bf37b44f","ios":"levelo://app?vid=70b4266b-6f2a-4bb7-934f-a2a2bf37b44f"},"vehicle_type_id":"4","last_reported":1784272138,"current_range_meters":0,"station_id":"ce4bhlh2rcd13ifvqgig","pricing_plan_id":"cebpf4jnsgd1na2vs0mg"},{"bike_id":"8d641355-9017-4fcd-97ec-2d72a9448ada","system_id":"levelo_inurba_marseille","lat":43.29571,"lon":5.37527,"is_reserved":false,"is_disabled":false,"rental_uris":{"android":"levelo://app?vid=8d641355-9017-4fcd-97ec-2d72a9448ada","ios":"levelo://app?vid=8d641355-9017-4fcd-97ec-2d72a9448ada"},"vehicle_type_id":"4","last_reported":1784272138,"current_range_meters":36800,"station_id":"ce4bgh92rcd13ifvqb50","pricing_plan_id":"cebpf4jnsgd1na2vs0mg"},{"bike_id":"fb58b4a5-8e17-45a1-95b4-c617e83b05f9","system_id":"levelo_inurba_marseille","lat":43.23202,"lon":5.39958,"is_reserved":false,"is_disabled":false,"rental_uris":{"android":"levelo://app?vid=fb58b4a5-8e17-45a1-95b4-c617e83b05f9","ios":"levelo://app?vid=fb58b4a5-8e17-45a1-95b4-c617e83b05f9"},"vehicle_type_id":"4","last_reported":1784272138,"current_range_meters":38800,"station_id":"ce4bhn12rcd13ifvqgqg","pricing_plan_id":"cebpf4jnsgd1na2vs0mg"},{"bike_id":"ba1031fe-940a-4977-baac-8cb8365e1fca","system_id":"levelo_inurba_marseille","lat":43.31355,"lon":5.36697,"is_reserved":false,"is_disabled":false,"rental_uris":{"android":"levelo://app?vid=ba1031fe-940a-4977-baac-8cb8365e1fca","ios":"levelo://app?vid=ba1031fe-940a-4977-baac-8cb8365e1fca"},"vehicle_type_id":"4","last_reported":1784272138,"current_range_meters":33600,"station_id":"ce4bgr92rcd13ifvqc6g","pricing_plan_id":"cebpf4jnsgd1na2vs0mg"},{"bike_id":"17ef7521-be57-48c8-a115-ded8df7df309","system_id":"levelo_inurba_marseille","lat":43.26194,"lon":5.37443,"is_reserved":false,"is_disabled":false,"rental_uris":{"android":"levelo://app?vid=17ef7521-be57-48c8-a115-ded8df7df309","ios":"levelo://app?vid=17ef7521-be57-48c8-a115-ded8df7df309"},"vehicle_type_id":"4","last_reported":1784272138,"current_range_meters":38800,"station_id":"ce4bhgp2rcd13ifvqfc0","pricing_plan_id":"cebpf4jnsgd1na2vs0mg"},{"bike_id":"0f6ff1da-c9e3-42e7-a8d3-8280d1c0addc","system_id":"levelo_inurba_marseille","lat":43.33763,"lon":5.37445,"is_reserved":false,"is_disabled":false,"rental_uris":{"android":"levelo://app?vid=0f6ff1da-c9e3-42e7-a8d3-8280d1c0addc","ios":"levelo://app?vid=0f6ff1da-c9e3-42e7-a8d3-8280d1c0addc"},"vehicle_type_id":"4","last_reported":1784272138,"current_range_meters":32000,"station_id":"","pricing_plan_id":"cebpf4jnsgd1na2vs0mg"},{"bike_id":"dba95777-cb14-4e1b-8f71-08f792d0dd48","system_id":"levelo_inurba_marseille","lat":43.33601,"lon":5.41041,"is_reserved":false,"is_disabled":false,"rental_uris":{"android":"levelo://app?vid=dba95777-cb14-4e1b-8f71-08f792d0dd48","ios":"levelo://app?vid=dba95777-cb14-4e1b-8f71-08f792d0dd48"},"vehicle_type_id":"4","last_reported":1784272138,"current_range_meters":40000,"station_id":"ce4bhqh2rcd13ifvqhmg","pricing_plan_id":"cebpf4jnsgd1na2vs0mg"},{"bike_id":"9816fcfb-fed5-46a5-a828-dec154df7717","system_id":"levelo_inurba_marseille","lat":43.26803,"lon":5.40263,"is_reserved":false,"is_disabled":true,"rental_uris":{"android":"levelo://app?vid=9816fcfb-fed5-46a5-a828-dec154df7717","ios":"levelo://app?vid=9816fcfb-fed5-46a5-a828-dec154df7717"},"vehicle_type_id":"4","last_reported":1784272138,"current_range_meters":28400,"station_id":"ce501612rcd8frsf0b60","pricing_plan_id":"cebpf4jnsgd1na2vs0mg"},{"bike_id":"51432bc6-7717-4ce9-860b-5e1ae158d41a","system_id":"levelo_inurba_marseille","lat":43.311204,"lon":5.37774,"is_reserved":false,"is_disabled":false,"rental_uris":{"android":"levelo://app?vid=51432bc6-7717-4ce9-860b-5e1ae158d41a","ios":"levelo://app?vid=51432bc6-7717-4ce9-860b-5e1ae158d41a"},"vehicle_type_id":"4","last_reported":1784272138,"current_range_meters":3200,"station_id":"ce4bgt92rcd13ifvqcg0","pricing_plan_id":"cebpf4jnsgd1na2vs0mg"},{"bike_id":"b7095b55-d65a-4ece-9a25-ec839c5cfd5d","system_id":"levelo_inurba_marseille","lat":43.27952,"lon":5.41029,"is_reserved":false,"is_disabled":false,"rental_uris":{"android":"levelo://app?vid=b7095b55-d65a-4ece-9a25-ec839c5cfd5d","ios":"levelo://app?vid=b7095b55-d65a-4ece-9a25-ec839c5cfd5d"},"vehicle_type_id":"4","last_reported":1784272138,"current_range_meters":23200,"station_id":"ce4bhnp2rcd13ifvqh0g","pricing_plan_id":"cebpf4jnsgd1na2vs0mg"},{"bike_id":"d5c9c027-ce9b-46f0-b4eb-fc40b239d150","system_id":"levelo_inurba_marseille","lat":43.3169,"lon":5.40463,"is_reserved":false,"is_disabled":false,"rental_uris":{"android":"levelo://app?vid=d5c9c027-ce9b-46f0-b4eb-fc40b239d150","ios":"levelo://app?vid=d5c9c027-ce9b-46f0-b4eb-fc40b239d150"},"vehicle_type_id":"4","last_reported":1784272138,"current_range_meters":38000,"station_id":"ce4bh012rcd13ifvqd00","pricing_plan_id":"cebpf4jnsgd1na2vs0mg"},{"bike_id":"2e4ff4c8-82b6-4799-81b4-c55c62e85325","system_id":"levelo_inurba_marseille","lat":43.29539,"lon":5.37499,"is_reserved":false,"is_disabled":false,"rental_uris":{"android":"levelo://app?vid=2e4ff4c8-82b6-4799-81b4-c55c62e85325","ios":"levelo://app?vid=2e4ff4c8-82b6-4799-81b4-c55c62e85325"},"vehicle_type_id":"4","last_reported":1784272138,"current_range_meters":16400,"station_id":"ce4bgkp2rcd13ifvqbmg","pricing_plan_id":"cebpf4jnsgd1na2vs0mg"},{"bike_id":"298ab1d4-8552-4cf1-af27-c3e2fcf3f8bd","system_id":"levelo_inurba_marseille","lat":43.30546,"lon":5.38437,"is_reserved":false,"is_disabled":false,"rental_uris":{"android":"levelo://app?vid=298ab1d4-8552-4cf1-af27-c3e2fcf3f8bd","ios":"levelo://app?vid=298ab1d4-8552-4cf1-af27-c3e2fcf3f8bd"},"vehicle_type_id":"4","last_reported":1784272138,"current_range_meters":30800,"station_id":"ce4bgg92rcd13ifvqb30","pricing_plan_id":"cebpf4jnsgd1na2vs0mg"},{"bike_id":"942148f9-90f2-4171-8f05-98ba0ca85bcb","system_id":"levelo_inurba_marseille","lat":43.28487,"lon":5.48379,"is_reserved":false,"is_disabled":true,"rental_uris":{"android":"levelo://app?vid=942148f9-90f2-4171-8f05-98ba0ca85bcb","ios":"levelo://app?vid=942148f9-90f2-4171-8f05-98ba0ca85bcb"},"vehicle_type_id":"4","last_reported":1784272138,"current_range_meters":10000,"station_id":"st_d3svhcjqgbts73a3dn0g","pricing_plan_id":"cebpf4jnsgd1na2vs0mg"},{"bike_id":"2cd21150-d2b7-4b36-880f-cb5e3af2b424","system_id":"levelo_inurba_marseille","lat":43.24145,"lon":5.39716,"is_reserved":false,"is_disabled":false,"rental_uris":{"android":"levelo://app?vid=2cd21150-d2b7-4b36-880f-cb5e3af2b424","ios":"levelo://app?vid=2cd21150-d2b7-4b36-880f-cb5e3af2b424"},"vehicle_type_id":"4","last_reported":1784272138,"current_range_meters":3600,"station_id":"ce4bhn12rcd13ifvqgpg","pricing_plan_id":"cebpf4jnsgd1na2vs0mg"},{"bike_id":"b2b194ed-86a5-4dc8-b828-5b80e1681197","system_id":"levelo_inurba_marseille","lat":43.28547,"lon":5.44081,"is_reserved":false,"is_disabled":false,"rental_uris":{"android":"levelo://app?vid=b2b194ed-86a5-4dc8-b828-5b80e1681197","ios":"levelo://app?vid=b2b194ed-86a5-4dc8-b828-5b80e1681197"},"vehicle_type_id":"4","last_reported":1784272138,"current_range_meters":39200,"station_id":"st_d3j3df2ikq2c7380ej80","pricing_plan_id":"cebpf4jnsgd1na2vs0mg"},{"bike_id":"fcef6713-546b-46b2-a609-30a4c17e6625","system_id":"levelo_inurba_marseille","lat":43.28575,"lon":5.3949,"is_reserved":false,"is_disabled":false,"rental_uris":{"android":"levelo://app?vid=fcef6713-546b-46b2-a609-30a4c17e6625","ios":"levelo://app?vid=fcef6713-546b-46b2-a609-30a4c17e6625"},"vehicle_type_id":"4","last_reported":1784272138,"current_range_meters":22800,"station_id":"ce4bh292rcd13ifvqdg0","pricing_plan_id":"cebpf4jnsgd1na2vs0mg"},{"bike_id":"2a93def1-9840-4751-b465-b53bb0ce6123","system_id":"levelo_inurba_marseille","lat":43.22566,"lon":5.41637,"is_reserved":false,"is_disabled":false,"rental_uris":{"android":"levelo://app?vid=2a93def1-9840-4751-b465-b53bb0ce6123","ios":"levelo://app?vid=2a93def1-9840-4751-b465-b53bb0ce6123"},"vehicle_type_id":"4","last_reported":1784272138,"current_range_meters":17600,"station_id":"st_d2o4gvlbi1j2169b742g","pricing_plan_id":"cebpf4jnsgd1na2vs0mg"},{"bike_id":"ff8cbcca-37d3-49dd-af4b-126722b555ff","system_id":"levelo_inurba_marseille","lat":43.2407,"lon":5.37757,"is_reserved":false,"is_disabled":false,"rental_uris":{"android":"levelo://app?vid=ff8cbcca-37d3-49dd-af4b-126722b555ff","ios":"levelo://app?vid=ff8cbcca-37d3-49dd-af4b-126722b555ff"},"vehicle_type_id":"4","last_reported":1784272138,"current_range_meters":26000,"station_id":"ce4bhnp2rcd13ifvqgvg","pricing_plan_id":"cebpf4jnsgd1na2vs0mg"},{"bike_id":"c5300617-66e6-4074-9160-d6283c101daf","system_id":"levelo_inurba_marseille","lat":43.28145,"lon":5.42646,"is_reserved":false,"is_disabled":false,"rental_uris":{"android":"levelo://app?vid=c5300617-66e6-4074-9160-d6283c101daf","ios":"levelo://app?vid=c5300617-66e6-4074-9160-d6283c101daf"},"vehicle_type_id":"4","last_reported":1784272138,"current_range_meters":36400,"station_id":"ce4bhnh2rcd13ifvqgug","pricing_plan_id":"cebpf4jnsgd1na2vs0mg"},{"bike_id":"86269a4c-fbcc-411d-b7a3-0de3f55cc311","system_id":"levelo_inurba_marseille","lat":43.30147,"lon":5.37422,"is_reserved":false,"is_disabled":false,"rental_uris":{"android":"levelo://app?vid=86269a4c-fbcc-411d-b7a3-0de3f55cc311","ios":"levelo://app?vid=86269a4c-fbcc-411d-b7a3-0de3f55cc311"},"vehicle_type_id":"4","last_reported":1784272138,"current_range_meters":20000,"station_id":"ce4bgs92rcd13ifvqcc0","pricing_plan_id":"cebpf4jnsgd1na2vs0mg"},{"bike_id":"b617c35b-7c51-4687-9948-30e5ef21086e","system_id":"levelo_inurba_marseille","lat":43.28701,"lon":5.46668,"is_reserved":false,"is_disabled":false,"rental_uris":{"android":"levelo://app?vid=b617c35b-7c51-4687-9948-30e5ef21086e","ios":"levelo://app?vid=b617c35b-7c51-4687-9948-30e5ef21086e"},"vehicle_type_id":"4","last_reported":1784272138,"current_range_meters":14400,"station_id":"st_d6tc3vkotcvc738tfjhg","pricing_plan_id":"cebpf4jnsgd1na2vs0mg"},{"bike_id":"e97d923d-d560-461e-94e7-6b746b3d8d92","system_id":"levelo_inurba_marseille","lat":43.32117,"lon":5.36772,"is_reserved":false,"is_disabled":false,"rental_uris":{"android":"levelo://app?vid=e97d923d-d560-461e-94e7-6b746b3d8d92","ios":"levelo://app?vid=e97d923d-d560-461e-94e7-6b746b3d8d92"},"vehicle_type_id":"4","last_reported":1784272138,"current_range_meters":30000,"station_id":"ce4bhrh2rcd13ifvqhug","pricing_plan_id":"cebpf4jnsgd1na2vs0mg"},{"bike_id":"ed742eca-6f01-42aa-8690-c704a6c8088f","system_id":"levelo_inurba_marseille","lat":43.30886,"lon":5.37181,"is_reserved":false,"is_disabled":false,"rental_uris":{"android":"levelo://app?vid=ed742eca-6f01-42aa-8690-c704a6c8088f","ios":"levelo://app?vid=ed742eca-6f01-42aa-8690-c704a6c8088f"},"vehicle_type_id":"4","last_reported":1784272138,"current_range_meters":38800,"station_id":"ce4bguh2rcd13ifvqckg","pricing_plan_id":"cebpf4jnsgd1na2vs0mg"},{"bike_id":"abd28b51-9db3-4251-8023-1ab1c1cc68c9","system_id":"levelo_inurba_marseille","lat":43.27983,"lon":5.41648,"is_reserved":false,"is_disabled":true,"rental_uris":{"android":"levelo://app?vid=abd28b51-9db3-4251-8023-1ab1c1cc68c9","ios":"levelo://app?vid=abd28b51-9db3-4251-8023-1ab1c1cc68c9"},"vehicle_type_id":"4","last_reported":1784272138,"current_range_meters":24800,"station_id":"ce4bho12rcd13ifvqh1g","pricing_plan_id":"cebpf4jnsgd1na2vs0mg"},{"bike_id":"66a528f7-53cd-4bc0-ab72-a90a9ea8886e","system_id":"levelo_inurba_marseille","lat":43.30305,"lon":5.3921,"is_reserved":false,"is_disabled":false,"rental_uris":{"android":"levelo://app?vid=66a528f7-53cd-4bc0-ab72-a90a9ea8886e","ios":"levelo://app?vid=66a528f7-53cd-4bc0-ab72-a90a9ea8886e"},"vehicle_type_id":"4","last_reported":1784272138,"current_range_meters":30800,"station_id":"ce4bgkh2rcd13ifvqbk0","pricing_plan_id":"cebpf4jnsgd1na2vs0mg"},{"bike_id":"6d32b765-aa0d-46a8-942b-fd272d4b06e6","system_id":"levelo_inurba_marseille","lat":43.27617,"lon":5.36106,"is_reserved":false,"is_disabled":true,"rental_uris":{"android":"levelo://app?vid=6d32b765-aa0d-46a8-942b-fd272d4b06e6","ios":"levelo://app?vid=6d32b765-aa0d-46a8-942b-fd272d4b06e6"},"vehicle_type_id":"4","last_reported":1784272138,"current_range_meters":12400,"station_id":"ce4bgj92rcd13ifvqbe0","pricing_plan_id":"cebpf4jnsgd1na2vs0mg"},{"bike_id":"21f439ca-4336-4cea-8a70-612d8a89f5e8","system_id":"levelo_inurba_marseille","lat":43.2176,"lon":5.34589,"is_reserved":false,"is_disabled":false,"rental_uris":{"android":"levelo://app?vid=21f439ca-4336-4cea-8a70-612d8a89f5e8","ios":"levelo://app?vid=21f439ca-4336-4cea-8a70-612d8a89f5e8"},"vehicle_type_id":"4","last_reported":1784272138,"current_range_meters":16800,"station_id":"st_cvj6r9ubvosntc0bgbag","pricing_plan_id":"cebpf4jnsgd1na2vs0mg"},{"bike_id":"900afc43-e1e3-494d-b91c-8cfbaec0ffdd","system_id":"levelo_inurba_marseille","lat":43.29032,"lon":5.39956,"is_reserved":false,"is_disabled":false,"rental_uris":{"android":"levelo://app?vid=900afc43-e1e3-494d-b91c-8cfbaec0ffdd","ios":"levelo://app?vid=900afc43-e1e3-494d-b91c-8cfbaec0ffdd"},"vehicle_type_id":"4","last_reported":1784272138,"current_range_meters":34800,"station_id":"ce4bh392rcd13ifvqdm0","pricing_plan_id":"cebpf4jnsgd1na2vs0mg"},{"bike_id":"57889d2e-37dd-4f8f-b3ab-1bc0a62b2215","system_id":"levelo_inurba_marseille","lat":43.30456,"lon":5.37891,"is_reserved":false,"is_disabled":true,"rental_uris":{"android":"levelo://app?vid=57889d2e-37dd-4f8f-b3ab-1bc0a62b2215","ios":"levelo://app?vid=57889d2e-37dd-4f8f-b3ab-1bc0a62b2215"},"vehicle_type_id":"4","last_reported":1784272138,"current_range_meters":27200,"station_id":"ce4bgup2rcd13ifvqcn0","pricing_plan_id":"cebpf4jnsgd1na2vs0mg"},{"bike_id":"c6b62028-2fba-481c-a2b5-507778ec7c93","system_id":"levelo_inurba_marseille","lat":43.31545,"lon":5.41354,"is_reserved":false,"is_disabled":true,"rental_uris":{"android":"levelo://app?vid=c6b62028-2fba-481c-a2b5-507778ec7c93","ios":"levelo://app?vid=c6b62028-2fba-481c-a2b5-507778ec7c93"},"vehicle_type_id":"4","last_reported":1784272138,"current_range_meters":0,"station_id":"","pricing_plan_id":"cebpf4jnsgd1na2vs0mg"},{"bike_id":"7135d7f5-2834-488f-baf4-a3b0445e023c","system_id":"levelo_inurba_marseille","lat":43.279732,"lon":5.387456,"is_reserved":false,"is_disabled":true,"rental_uris":{"android":"levelo://app?vid=7135d7f5-2834-488f-baf4-a3b0445e023c","ios":"levelo://app?vid=7135d7f5-2834-488f-baf4-a3b0445e023c"},"vehicle_type_id":"4","last_reported":1784272138,"current_range_meters":34000,"station_id":"ce4bhg12rcd13ifvqf80","pricing_plan_id":"cebpf4jnsgd1na2vs0mg"},{"bike_id":"1cc89822-93d0-47df-9a31-8fbc0be65f81","system_id":"levelo_inurba_marseille","lat":43.27941,"lon":5.41027,"is_reserved":false,"is_disabled":false,"rental_uris":{"android":"levelo://app?vid=1cc89822-93d0-47df-9a31-8fbc0be65f81","ios":"levelo://app?vid=1cc89822-93d0-47df-9a31-8fbc0be65f81"},"vehicle_type_id":"4","last_reported":1784272138,"current_range_meters":28000,"station_id":"ce4bhnp2rcd13ifvqh0g","pricing_plan_id":"cebpf4jnsgd1na2vs0mg"},{"bike_id":"8946fedd-2e32-49ed-b51d-8d2209da3742","system_id":"levelo_inurba_marseille","lat":43.29432,"lon":5.38121,"is_reserved":false,"is_disabled":false,"rental_uris":{"android":"levelo://app?vid=8946fedd-2e32-49ed-b51d-8d2209da3742","ios":"levelo://app?vid=8946fedd-2e32-49ed-b51d-8d2209da3742"},"vehicle_type_id":"4","last_reported":1784272138,"current_range_meters":8800,"station_id":"","pricing_plan_id":"cebpf4jnsgd1na2vs0mg"},{"bike_id":"51905566-557d-413c-97fd-b84daf11e827","system_id":"levelo_inurba_marseille","lat":43.2793,"lon":5.39568,"is_reserved":false,"is_disabled":true,"rental_uris":{"android":"levelo://app?vid=51905566-557d-413c-97fd-b84daf11e827","ios":"levelo://app?vid=51905566-557d-413c-97fd-b84daf11e827"},"vehicle_type_id":"4","last_reported":1784272138,"current_range_meters":30400,"station_id":"ce4bhf92rcd13ifvqf40","pricing_plan_id":"cebpf4jnsgd1na2vs0mg"},{"bike_id":"1fd3872c-1cbb-4e5b-97bc-1f5e2bf1ca78","system_id":"levelo_inurba_marseille","lat":43.231527,"lon":5.437046,"is_reserved":false,"is_disabled":false,"rental_uris":{"android":"levelo://app?vid=1fd3872c-1cbb-4e5b-97bc-1f5e2bf1ca78","ios":"levelo://app?vid=1fd3872c-1cbb-4e5b-97bc-1f5e2bf1ca78"},"vehicle_type_id":"4","last_reported":1784272138,"current_range_meters":37600,"station_id":"ce4bhmp2rcd13ifvqgog","pricing_plan_id":"cebpf4jnsgd1na2vs0mg"},{"bike_id":"04f79851-52e6-4303-9105-2ba3a3dca261","system_id":"levelo_inurba_marseille","lat":43.24393,"lon":5.37035,"is_reserved":false,"is_disabled":false,"rental_uris":{"android":"levelo://app?vid=04f79851-52e6-4303-9105-2ba3a3dca261","ios":"levelo://app?vid=04f79851-52e6-4303-9105-2ba3a3dca261"},"vehicle_type_id":"4","last_reported":1784272138,"current_range_meters":39200,"station_id":"ce4bhhh2rcd13ifvqfk0","pricing_plan_id":"cebpf4jnsgd1na2vs0mg"},{"bike_id":"78b472ae-7ca1-438d-a65f-f93d06645001","system_id":"levelo_inurba_marseille","lat":43.29218,"lon":5.36015,"is_reserved":false,"is_disabled":true,"rental_uris":{"android":"levelo://app?vid=78b472ae-7ca1-438d-a65f-f93d06645001","ios":"levelo://app?vid=78b472ae-7ca1-438d-a65f-f93d06645001"},"vehicle_type_id":"4","last_reported":1784272138,"current_range_meters":7200,"station_id":"","pricing_plan_id":"cebpf4jnsgd1na2vs0mg"},{"bike_id":"aea11bbc-2d6f-4be0-b121-dbc2d33dd165","system_id":"levelo_inurba_marseille","lat":43.32014,"lon":5.41534,"is_reserved":false,"is_disabled":false,"rental_uris":{"android":"levelo://app?vid=aea11bbc-2d6f-4be0-b121-dbc2d33dd165","ios":"levelo://app?vid=aea11bbc-2d6f-4be0-b121-dbc2d33dd165"},"vehicle_type_id":"4","last_reported":1784272138,"current_range_meters":39200,"station_id":"ce4bhq92rcd13ifvqhkg","pricing_plan_id":"cebpf4jnsgd1na2vs0mg"},{"bike_id":"4c6ecbea-a926-4293-8ede-b01e0502d0a0","system_id":"levelo_inurba_marseille","lat":43.28472,"lon":5.35852,"is_reserved":false,"is_disabled":false,"rental_uris":{"android":"levelo://app?vid=4c6ecbea-a926-4293-8ede-b01e0502d0a0","ios":"levelo://app?vid=4c6ecbea-a926-4293-8ede-b01e0502d0a0"},"vehicle_type_id":"4","last_reported":1784272138,"current_range_meters":13600,"station_id":"ce4bhah2rcd13ifvqei0","pricing_plan_id":"cebpf4jnsgd1na2vs0mg"},{"bike_id":"ca546d1a-4421-43b0-ac8d-27dfe8d371c7","system_id":"levelo_inurba_marseille","lat":43.31107,"lon":5.37765,"is_reserved":false,"is_disabled":false,"rental_uris":{"android":"levelo://app?vid=ca546d1a-4421-43b0-ac8d-27dfe8d371c7","ios":"levelo://app?vid=ca546d1a-4421-43b0-ac8d-27dfe8d371c7"},"vehicle_type_id":"4","last_reported":1784272138,"current_range_meters":12000,"station_id":"ce4bgt92rcd13ifvqcg0","pricing_plan_id":"cebpf4jnsgd1na2vs0mg"},{"bike_id":"49336744-f847-4735-b223-cecf4946723e","system_id":"levelo_inurba_marseille","lat":43.26684,"lon":5.38257,"is_reserved":false,"is_disabled":false,"rental_uris":{"android":"levelo://app?vid=49336744-f847-4735-b223-cecf4946723e","ios":"levelo://app?vid=49336744-f847-4735-b223-cecf4946723e"},"vehicle_type_id":"4","last_reported":1784272138,"current_range_meters":35600,"station_id":"ce4bhg92rcd13ifvqf90","pricing_plan_id":"cebpf4jnsgd1na2vs0mg"},{"bike_id":"ebeb86f7-4534-4bb1-aa48-061858d8a660","system_id":"levelo_inurba_marseille","lat":43.25935,"lon":5.40888,"is_reserved":false,"is_disabled":false,"rental_uris":{"android":"levelo://app?vid=ebeb86f7-4534-4bb1-aa48-061858d8a660","ios":"levelo://app?vid=ebeb86f7-4534-4bb1-aa48-061858d8a660"},"vehicle_type_id":"4","last_reported":1784272138,"current_range_meters":16400,"station_id":"ce4bhm92rcd13ifvqglg","pricing_plan_id":"cebpf4jnsgd1na2vs0mg"},{"bike_id":"f9a5994c-c7cd-4b61-a1ac-5facbf202489","system_id":"levelo_inurba_marseille","lat":43.28689,"lon":5.39948,"is_reserved":false,"is_disabled":false,"rental_uris":{"android":"levelo://app?vid=f9a5994c-c7cd-4b61-a1ac-5facbf202489","ios":"levelo://app?vid=f9a5994c-c7cd-4b61-a1ac-5facbf202489"},"vehicle_type_id":"4","last_reported":1784272138,"current_range_meters":24400,"station_id":"ce4bho92rcd13ifvqh3g","pricing_plan_id":"cebpf4jnsgd1na2vs0mg"},{"bike_id":"cbf57bb6-373a-442c-9860-92cf9215a1bb","system_id":"levelo_inurba_marseille","lat":43.30534,"lon":5.36505,"is_reserved":false,"is_disabled":true,"rental_uris":{"android":"levelo://app?vid=cbf57bb6-373a-442c-9860-92cf9215a1bb","ios":"levelo://app?vid=cbf57bb6-373a-442c-9860-92cf9215a1bb"},"vehicle_type_id":"4","last_reported":1784272138,"current_range_meters":28800,"station_id":"","pricing_plan_id":"cebpf4jnsgd1na2vs0mg"},{"bike_id":"ca553299-8d31-49bd-a6b4-332c888225b5","system_id":"levelo_inurba_marseille","lat":43.25729,"lon":5.41106,"is_reserved":false,"is_disabled":false,"rental_uris":{"android":"levelo://app?vid=ca553299-8d31-49bd-a6b4-332c888225b5","ios":"levelo://app?vid=ca553299-8d31-49bd-a6b4-332c888225b5"},"vehicle_type_id":"4","last_reported":1784272138,"current_range_meters":36000,"station_id":"ce4bhkp2rcd13ifvqgd0","pricing_plan_id":"cebpf4jnsgd1na2vs0mg"},{"bike_id":"fad4d476-b565-4b81-9166-a20796df0b18","system_id":"levelo_inurba_marseille","lat":43.24798,"lon":5.37448,"is_reserved":false,"is_disabled":false,"rental_uris":{"android":"levelo://app?vid=fad4d476-b565-4b81-9166-a20796df0b18","ios":"levelo://app?vid=fad4d476-b565-4b81-9166-a20796df0b18"},"vehicle_type_id":"4","last_reported":1784272138,"current_range_meters":20400,"station_id":"","pricing_plan_id":"cebpf4jnsgd1na2vs0mg"},{"bike_id":"e8fca2a9-3d16-4508-8c2b-8ad57dd224d9","system_id":"levelo_inurba_marseille","lat":43.30302,"lon":5.39209,"is_reserved":false,"is_disabled":false,"rental_uris":{"android":"levelo://app?vid=e8fca2a9-3d16-4508-8c2b-8ad57dd224d9","ios":"levelo://app?vid=e8fca2a9-3d16-4508-8c2b-8ad57dd224d9"},"vehicle_type_id":"4","last_reported":1784272138,"current_range_meters":20000,"station_id":"ce4bgkh2rcd13ifvqbk0","pricing_plan_id":"cebpf4jnsgd1na2vs0mg"},{"bike_id":"e8b2132e-2e2f-4678-bd27-ce3f9f11f158","system_id":"levelo_inurba_marseille","lat":43.30456,"lon":5.37911,"is_reserved":false,"is_disabled":true,"rental_uris":{"android":"levelo://app?vid=e8b2132e-2e2f-4678-bd27-ce3f9f11f158","ios":"levelo://app?vid=e8b2132e-2e2f-4678-bd27-ce3f9f11f158"},"vehicle_type_id":"4","last_reported":1784272138,"current_range_meters":20400,"station_id":"ce4bgup2rcd13ifvqcn0","pricing_plan_id":"cebpf4jnsgd1na2vs0mg"},{"bike_id":"17f00b12-f8d0-413a-b992-98dadbd11261","system_id":"levelo_inurba_marseille","lat":43.25016,"lon":5.38912,"is_reserved":false,"is_disabled":false,"rental_uris":{"android":"levelo://app?vid=17f00b12-f8d0-413a-b992-98dadbd11261","ios":"levelo://app?vid=17f00b12-f8d0-413a-b992-98dadbd11261"},"vehicle_type_id":"4","last_reported":1784272138,"current_range_meters":36400,"station_id":"ce4bhgp2rcd13ifvqfd0","pricing_plan_id":"cebpf4jnsgd1na2vs0mg"},{"bike_id":"93f173f0-b5e7-453c-b62d-5cea08429256","system_id":"levelo_inurba_marseille","lat":43.29196,"lon":5.35815,"is_reserved":false,"is_disabled":true,"rental_uris":{"android":"levelo://app?vid=93f173f0-b5e7-453c-b62d-5cea08429256","ios":"levelo://app?vid=93f173f0-b5e7-453c-b62d-5cea08429256"},"vehicle_type_id":"4","last_reported":1784272138,"current_range_meters":28800,"station_id":"ce4bhb12rcd13ifvqel0","pricing_plan_id":"cebpf4jnsgd1na2vs0mg"},{"bike_id":"f96974ba-e6ad-4805-b9fc-bca3bdc6359f","system_id":"levelo_inurba_marseille","lat":43.24386,"lon":5.37048,"is_reserved":false,"is_disabled":false,"rental_uris":{"android":"levelo://app?vid=f96974ba-e6ad-4805-b9fc-bca3bdc6359f","ios":"levelo://app?vid=f96974ba-e6ad-4805-b9fc-bca3bdc6359f"},"vehicle_type_id":"4","last_reported":1784272138,"current_range_meters":25200,"station_id":"ce4bhhh2rcd13ifvqfk0","pricing_plan_id":"cebpf4jnsgd1na2vs0mg"},{"bike_id":"4f54c651-15d1-492f-8d09-70f1f809ad4f","system_id":"levelo_inurba_marseille","lat":43.27484,"lon":5.42546,"is_reserved":false,"is_disabled":false,"rental_uris":{"android":"levelo://app?vid=4f54c651-15d1-492f-8d09-70f1f809ad4f","ios":"levelo://app?vid=4f54c651-15d1-492f-8d09-70f1f809ad4f"},"vehicle_type_id":"4","last_reported":1784272138,"current_range_meters":30400,"station_id":"st_d8t4bh7nbrqs73arha60","pricing_plan_id":"cebpf4jnsgd1na2vs0mg"},{"bike_id":"04ed4e41-07b7-4d3e-ad9d-b2def000bec2","system_id":"levelo_inurba_marseille","lat":43.31757,"lon":5.39011,"is_reserved":false,"is_disabled":false,"rental_uris":{"android":"levelo://app?vid=04ed4e41-07b7-4d3e-ad9d-b2def000bec2","ios":"levelo://app?vid=04ed4e41-07b7-4d3e-ad9d-b2def000bec2"},"vehicle_type_id":"4","last_reported":1784272138,"current_range_meters":36800,"station_id":"ce4bhqp2rcd13ifvqhng","pricing_plan_id":"cebpf4jnsgd1na2vs0mg"},{"bike_id":"4c3bc6ab-4050-437f-88fc-b705e8310160","system_id":"levelo_inurba_marseille","lat":43.3122,"lon":5.36859,"is_reserved":false,"is_disabled":false,"rental_uris":{"android":"levelo://app?vid=4c3bc6ab-4050-437f-88fc-b705e8310160","ios":"levelo://app?vid=4c3bc6ab-4050-437f-88fc-b705e8310160"},"vehicle_type_id":"4","last_reported":1784272138,"current_range_meters":35600,"station_id":"ce4bgl92rcd13ifvqbq0","pricing_plan_id":"cebpf4jnsgd1na2vs0mg"},{"bike_id":"f0e8fbee-116b-4575-8cba-462368abdb7b","system_id":"levelo_inurba_marseille","lat":43.29928,"lon":5.37444,"is_reserved":false,"is_disabled":false,"rental_uris":{"android":"levelo://app?vid=f0e8fbee-116b-4575-8cba-462368abdb7b","ios":"levelo://app?vid=f0e8fbee-116b-4575-8cba-462368abdb7b"},"vehicle_type_id":"4","last_reported":1784272138,"current_range_meters":22000,"station_id":"ce4bgjh2rcd13ifvqbg0","pricing_plan_id":"cebpf4jnsgd1na2vs0mg"},{"bike_id":"36f48c2a-5ae2-4ade-ad7e-2b91a2b78ec6","system_id":"levelo_inurba_marseille","lat":43.27368,"lon":5.36241,"is_reserved":false,"is_disabled":false,"rental_uris":{"android":"levelo://app?vid=36f48c2a-5ae2-4ade-ad7e-2b91a2b78ec6","ios":"levelo://app?vid=36f48c2a-5ae2-4ade-ad7e-2b91a2b78ec6"},"vehicle_type_id":"4","last_reported":1784272138,"current_range_meters":12000,"station_id":"ce4bhbh2rcd13ifvqeo0","pricing_plan_id":"cebpf4jnsgd1na2vs0mg"},{"bike_id":"9485be1f-c90e-4919-888f-8ea173824e12","system_id":"levelo_inurba_marseille","lat":43.22536,"lon":5.34822,"is_reserved":false,"is_disabled":false,"rental_uris":{"android":"levelo://app?vid=9485be1f-c90e-4919-888f-8ea173824e12","ios":"levelo://app?vid=9485be1f-c90e-4919-888f-8ea173824e12"},"vehicle_type_id":"4","last_reported":1784272138,"current_range_meters":24400,"station_id":"st_cvj5dfep6f1abm77gieg","pricing_plan_id":"cebpf4jnsgd1na2vs0mg"},{"bike_id":"e35b3037-ccf2-48a7-b6f2-14a77143bba4","system_id":"levelo_inurba_marseille","lat":43.32341,"lon":5.36727,"is_reserved":false,"is_disabled":false,"rental_uris":{"android":"levelo://app?vid=e35b3037-ccf2-48a7-b6f2-14a77143bba4","ios":"levelo://app?vid=e35b3037-ccf2-48a7-b6f2-14a77143bba4"},"vehicle_type_id":"4","last_reported":1784272138,"current_range_meters":36000,"station_id":"ce4bhsh2rcd13ifvqi2g","pricing_plan_id":"cebpf4jnsgd1na2vs0mg"},{"bike_id":"0cc9064c-9e67-4dd7-b11e-84260d626c23","system_id":"levelo_inurba_marseille","lat":43.29901,"lon":5.38131,"is_reserved":false,"is_disabled":true,"rental_uris":{"android":"levelo://app?vid=0cc9064c-9e67-4dd7-b11e-84260d626c23","ios":"levelo://app?vid=0cc9064c-9e67-4dd7-b11e-84260d626c23"},"vehicle_type_id":"4","last_reported":1784272138,"current_range_meters":36800,"station_id":"ce4bgj12rcd13ifvqbc0","pricing_plan_id":"cebpf4jnsgd1na2vs0mg"},{"bike_id":"75418dad-a440-4596-b1b1-706c93f7d57d","system_id":"levelo_inurba_marseille","lat":43.24172,"lon":5.39718,"is_reserved":false,"is_disabled":false,"rental_uris":{"android":"levelo://app?vid=75418dad-a440-4596-b1b1-706c93f7d57d","ios":"levelo://app?vid=75418dad-a440-4596-b1b1-706c93f7d57d"},"vehicle_type_id":"4","last_reported":1784272138,"current_range_meters":28800,"station_id":"ce4bhn12rcd13ifvqgpg","pricing_plan_id":"cebpf4jnsgd1na2vs0mg"},{"bike_id":"c9a59056-ae0e-4897-9fea-d31bc3d1cee2","system_id":"levelo_inurba_marseille","lat":43.28711,"lon":5.39967,"is_reserved":false,"is_disabled":false,"rental_uris":{"android":"levelo://app?vid=c9a59056-ae0e-4897-9fea-d31bc3d1cee2","ios":"levelo://app?vid=c9a59056-ae0e-4897-9fea-d31bc3d1cee2"},"vehicle_type_id":"4","last_reported":1784272138,"current_range_meters":39200,"station_id":"ce4bho92rcd13ifvqh3g","pricing_plan_id":"cebpf4jnsgd1na2vs0mg"},{"bike_id":"4e2c5d57-f350-4bf0-937d-7886f623395b","system_id":"levelo_inurba_marseille","lat":43.3016,"lon":5.38079,"is_reserved":false,"is_disabled":false,"rental_uris":{"android":"levelo://app?vid=4e2c5d57-f350-4bf0-937d-7886f623395b","ios":"levelo://app?vid=4e2c5d57-f350-4bf0-937d-7886f623395b"},"vehicle_type_id":"4","last_reported":1784272138,"current_range_meters":12400,"station_id":"ce4bgjp2rcd13ifvqbh0","pricing_plan_id":"cebpf4jnsgd1na2vs0mg"},{"bike_id":"1f743d69-ba21-4d8f-9729-ca99eaf40b11","system_id":"levelo_inurba_marseille","lat":43.26686,"lon":5.38267,"is_reserved":false,"is_disabled":false,"rental_uris":{"android":"levelo://app?vid=1f743d69-ba21-4d8f-9729-ca99eaf40b11","ios":"levelo://app?vid=1f743d69-ba21-4d8f-9729-ca99eaf40b11"},"vehicle_type_id":"4","last_reported":1784272138,"current_range_meters":20400,"station_id":"ce4bhg92rcd13ifvqf90","pricing_plan_id":"cebpf4jnsgd1na2vs0mg"},{"bike_id":"dbbb3219-f764-4e7a-9255-55506377a43e","system_id":"levelo_inurba_marseille","lat":43.30549,"lon":5.3844,"is_reserved":false,"is_disabled":false,"rental_uris":{"android":"levelo://app?vid=dbbb3219-f764-4e7a-9255-55506377a43e","ios":"levelo://app?vid=dbbb3219-f764-4e7a-9255-55506377a43e"},"vehicle_type_id":"4","last_reported":1784272138,"current_range_meters":25200,"station_id":"ce4bgg92rcd13ifvqb30","pricing_plan_id":"cebpf4jnsgd1na2vs0mg"},{"bike_id":"fa3031ad-6631-4525-91b1-34b5dbda5527","system_id":"levelo_inurba_marseille","lat":43.29049,"lon":5.39953,"is_reserved":false,"is_disabled":false,"rental_uris":{"android":"levelo://app?vid=fa3031ad-6631-4525-91b1-34b5dbda5527","ios":"levelo://app?vid=fa3031ad-6631-4525-91b1-34b5dbda5527"},"vehicle_type_id":"4","last_reported":1784272138,"current_range_meters":38800,"station_id":"ce4bh392rcd13ifvqdm0","pricing_plan_id":"cebpf4jnsgd1na2vs0mg"},{"bike_id":"d45333fb-8568-4470-852b-a80a11353993","system_id":"levelo_inurba_marseille","lat":43.2558,"lon":5.38231,"is_reserved":false,"is_disabled":false,"rental_uris":{"android":"levelo://app?vid=d45333fb-8568-4470-852b-a80a11353993","ios":"levelo://app?vid=d45333fb-8568-4470-852b-a80a11353993"},"vehicle_type_id":"4","last_reported":1784272138,"current_range_meters":21600,"station_id":"ce4bhih2rcd13ifvqfs0","pricing_plan_id":"cebpf4jnsgd1na2vs0mg"},{"bike_id":"1d9f3df3-4693-4dfa-8626-345c609c22e4","system_id":"levelo_inurba_marseille","lat":43.29074,"lon":5.37389,"is_reserved":false,"is_disabled":false,"rental_uris":{"android":"levelo://app?vid=1d9f3df3-4693-4dfa-8626-345c609c22e4","ios":"levelo://app?vid=1d9f3df3-4693-4dfa-8626-345c609c22e4"},"vehicle_type_id":"4","last_reported":1784272138,"current_range_meters":26000,"station_id":"","pricing_plan_id":"cebpf4jnsgd1na2vs0mg"},{"bike_id":"c1c091cd-1dc3-4f4f-be9c-3ea45735c1ec","system_id":"levelo_inurba_marseille","lat":43.27688,"lon":5.38887,"is_reserved":false,"is_disabled":false,"rental_uris":{"android":"levelo://app?vid=c1c091cd-1dc3-4f4f-be9c-3ea45735c1ec","ios":"levelo://app?vid=c1c091cd-1dc3-4f4f-be9c-3ea45735c1ec"},"vehicle_type_id":"4","last_reported":1784272138,"current_range_meters":19600,"station_id":"ce4bhi12rcd13ifvqfo0","pricing_plan_id":"cebpf4jnsgd1na2vs0mg"},{"bike_id":"202f9ad0-42a8-41b4-9ba7-c7ec0280e620","system_id":"levelo_inurba_marseille","lat":43.23201,"lon":5.35526,"is_reserved":false,"is_disabled":false,"rental_uris":{"android":"levelo://app?vid=202f9ad0-42a8-41b4-9ba7-c7ec0280e620","ios":"levelo://app?vid=202f9ad0-42a8-41b4-9ba7-c7ec0280e620"},"vehicle_type_id":"4","last_reported":1784272138,"current_range_meters":38800,"station_id":"ce4bhu92rcd13ifvqi70","pricing_plan_id":"cebpf4jnsgd1na2vs0mg"},{"bike_id":"c1ee1d48-1ffa-40ca-a1df-8f0989c3a89e","system_id":"levelo_inurba_marseille","lat":43.30165,"lon":5.38079,"is_reserved":false,"is_disabled":false,"rental_uris":{"android":"levelo://app?vid=c1ee1d48-1ffa-40ca-a1df-8f0989c3a89e","ios":"levelo://app?vid=c1ee1d48-1ffa-40ca-a1df-8f0989c3a89e"},"vehicle_type_id":"4","last_reported":1784272138,"current_range_meters":29600,"station_id":"ce4bgjp2rcd13ifvqbh0","pricing_plan_id":"cebpf4jnsgd1na2vs0mg"},{"bike_id":"ce919813-724a-4d97-82ad-b1af9c37dc6d","system_id":"levelo_inurba_marseille","lat":43.24176,"lon":5.39727,"is_reserved":false,"is_disabled":false,"rental_uris":{"android":"levelo://app?vid=ce919813-724a-4d97-82ad-b1af9c37dc6d","ios":"levelo://app?vid=ce919813-724a-4d97-82ad-b1af9c37dc6d"},"vehicle_type_id":"4","last_reported":1784272138,"current_range_meters":4800,"station_id":"ce4bhn12rcd13ifvqgpg","pricing_plan_id":"cebpf4jnsgd1na2vs0mg"},{"bike_id":"f3955824-bc9b-40e3-bb4b-91c4e41aa833","system_id":"levelo_inurba_marseille","lat":43.30149,"lon":5.37378,"is_reserved":false,"is_disabled":true,"rental_uris":{"android":"levelo://app?vid=f3955824-bc9b-40e3-bb4b-91c4e41aa833","ios":"levelo://app?vid=f3955824-bc9b-40e3-bb4b-91c4e41aa833"},"vehicle_type_id":"4","last_reported":1784272138,"current_range_meters":16800,"station_id":"ce4bgs92rcd13ifvqcc0","pricing_plan_id":"cebpf4jnsgd1na2vs0mg"},{"bike_id":"308a89af-2a4d-4c5c-a169-aebe7bf98b2b","system_id":"levelo_inurba_marseille","lat":43.31026,"lon":5.37147,"is_reserved":false,"is_disabled":false,"rental_uris":{"android":"levelo://app?vid=308a89af-2a4d-4c5c-a169-aebe7bf98b2b","ios":"levelo://app?vid=308a89af-2a4d-4c5c-a169-aebe7bf98b2b"},"vehicle_type_id":"4","last_reported":1784272138,"current_range_meters":17200,"station_id":"st_d4kl2rp97mjs73e7tdfg","pricing_plan_id":"cebpf4jnsgd1na2vs0mg"},{"bike_id":"632ba4c2-82e5-4027-a7bb-cab224a3baee","system_id":"levelo_inurba_marseille","lat":43.22981,"lon":5.44494,"is_reserved":false,"is_disabled":false,"rental_uris":{"android":"levelo://app?vid=632ba4c2-82e5-4027-a7bb-cab224a3baee","ios":"levelo://app?vid=632ba4c2-82e5-4027-a7bb-cab224a3baee"},"vehicle_type_id":"4","last_reported":1784272138,"current_range_meters":8000,"station_id":"","pricing_plan_id":"cebpf4jnsgd1na2vs0mg"},{"bike_id":"d3080228-6b70-492b-8795-04183ba0ffbf","system_id":"levelo_inurba_marseille","lat":43.26223,"lon":5.38762,"is_reserved":false,"is_disabled":false,"rental_uris":{"android":"levelo://app?vid=d3080228-6b70-492b-8795-04183ba0ffbf","ios":"levelo://app?vid=d3080228-6b70-492b-8795-04183ba0ffbf"},"vehicle_type_id":"4","last_reported":1784272138,"current_range_meters":38400,"station_id":"st_d8gjfg747rts73coq3b0","pricing_plan_id":"cebpf4jnsgd1na2vs0mg"},{"bike_id":"1619980e-21bc-4421-80d5-381761aace5b","system_id":"levelo_inurba_marseille","lat":43.23152,"lon":5.43724,"is_reserved":false,"is_disabled":false,"rental_uris":{"android":"levelo://app?vid=1619980e-21bc-4421-80d5-381761aace5b","ios":"levelo://app?vid=1619980e-21bc-4421-80d5-381761aace5b"},"vehicle_type_id":"4","last_reported":1784272138,"current_range_meters":24400,"station_id":"ce4bhmp2rcd13ifvqgog","pricing_plan_id":"cebpf4jnsgd1na2vs0mg"},{"bike_id":"0d3e100f-48fe-47e1-bef7-0a1dcfcc4955","system_id":"levelo_inurba_marseille","lat":43.33726,"lon":5.39174,"is_reserved":false,"is_disabled":false,"rental_uris":{"android":"levelo://app?vid=0d3e100f-48fe-47e1-bef7-0a1dcfcc4955","ios":"levelo://app?vid=0d3e100f-48fe-47e1-bef7-0a1dcfcc4955"},"vehicle_type_id":"4","last_reported":1784272138,"current_range_meters":30800,"station_id":"ce4bhr92rcd13ifvqhsg","pricing_plan_id":"cebpf4jnsgd1na2vs0mg"},{"bike_id":"8109b825-2eb6-467e-b313-e806da3e20b4","system_id":"levelo_inurba_marseille","lat":43.28147,"lon":5.42642,"is_reserved":false,"is_disabled":false,"rental_uris":{"android":"levelo://app?vid=8109b825-2eb6-467e-b313-e806da3e20b4","ios":"levelo://app?vid=8109b825-2eb6-467e-b313-e806da3e20b4"},"vehicle_type_id":"4","last_reported":1784272138,"current_range_meters":8000,"station_id":"ce4bhnh2rcd13ifvqgug","pricing_plan_id":"cebpf4jnsgd1na2vs0mg"},{"bike_id":"287adad5-5e66-4962-bf27-f75e78a46f79","system_id":"levelo_inurba_marseille","lat":43.29758,"lon":5.38059,"is_reserved":false,"is_disabled":true,"rental_uris":{"android":"levelo://app?vid=287adad5-5e66-4962-bf27-f75e78a46f79","ios":"levelo://app?vid=287adad5-5e66-4962-bf27-f75e78a46f79"},"vehicle_type_id":"4","last_reported":1784272138,"current_range_meters":12000,"station_id":"","pricing_plan_id":"cebpf4jnsgd1na2vs0mg"},{"bike_id":"ddbfbc6e-9ea5-4164-b0a2-7cc31ec7c025","system_id":"levelo_inurba_marseille","lat":43.32117,"lon":5.36752,"is_reserved":false,"is_disabled":false,"rental_uris":{"android":"levelo://app?vid=ddbfbc6e-9ea5-4164-b0a2-7cc31ec7c025","ios":"levelo://app?vid=ddbfbc6e-9ea5-4164-b0a2-7cc31ec7c025"},"vehicle_type_id":"4","last_reported":1784272138,"current_range_meters":18800,"station_id":"ce4bhrh2rcd13ifvqhug","pricing_plan_id":"cebpf4jnsgd1na2vs0mg"},{"bike_id":"dbb2d67a-8226-40f4-88fb-e7e257c49d02","system_id":"levelo_inurba_marseille","lat":43.2974,"lon":5.37691,"is_reserved":false,"is_disabled":false,"rental_uris":{"android":"levelo://app?vid=dbb2d67a-8226-40f4-88fb-e7e257c49d02","ios":"levelo://app?vid=dbb2d67a-8226-40f4-88fb-e7e257c49d02"},"vehicle_type_id":"4","last_reported":1784272138,"current_range_meters":16800,"station_id":"ce4bgkh2rcd13ifvqbl0","pricing_plan_id":"cebpf4jnsgd1na2vs0mg"},{"bike_id":"b31f3439-8d64-49dd-9c96-ebe0e325aa03","system_id":"levelo_inurba_marseille","lat":43.30685,"lon":5.36545,"is_reserved":false,"is_disabled":false,"rental_uris":{"android":"levelo://app?vid=b31f3439-8d64-49dd-9c96-ebe0e325aa03","ios":"levelo://app?vid=b31f3439-8d64-49dd-9c96-ebe0e325aa03"},"vehicle_type_id":"4","last_reported":1784272138,"current_range_meters":8000,"station_id":"","pricing_plan_id":"cebpf4jnsgd1na2vs0mg"},{"bike_id":"d2c6dc5b-50c1-41c0-8297-153e4140dd35","system_id":"levelo_inurba_marseille","lat":43.30528,"lon":5.36693,"is_reserved":false,"is_disabled":false,"rental_uris":{"android":"levelo://app?vid=d2c6dc5b-50c1-41c0-8297-153e4140dd35","ios":"levelo://app?vid=d2c6dc5b-50c1-41c0-8297-153e4140dd35"},"vehicle_type_id":"4","last_reported":1784272138,"current_range_meters":37600,"station_id":"ce4bgrp2rcd13ifvqc9g","pricing_plan_id":"cebpf4jnsgd1na2vs0mg"},{"bike_id":"fe9d1eb8-801f-4c8c-9f75-9cb8e94f370f","system_id":"levelo_inurba_marseille","lat":43.31897,"lon":5.40717,"is_reserved":false,"is_disabled":false,"rental_uris":{"android":"levelo://app?vid=fe9d1eb8-801f-4c8c-9f75-9cb8e94f370f","ios":"levelo://app?vid=fe9d1eb8-801f-4c8c-9f75-9cb8e94f370f"},"vehicle_type_id":"4","last_reported":1784272138,"current_range_meters":39200,"station_id":"ce4bhq12rcd13ifvqhig","pricing_plan_id":"cebpf4jnsgd1na2vs0mg"},{"bike_id":"b4b7cf45-857d-499f-903c-2153de8727c5","system_id":"levelo_inurba_marseille","lat":43.32491,"lon":5.36553,"is_reserved":false,"is_disabled":true,"rental_uris":{"android":"levelo://app?vid=b4b7cf45-857d-499f-903c-2153de8727c5","ios":"levelo://app?vid=b4b7cf45-857d-499f-903c-2153de8727c5"},"vehicle_type_id":"4","last_reported":1784272138,"current_range_meters":38800,"station_id":"ce4bhs12rcd13ifvqhvg","pricing_plan_id":"cebpf4jnsgd1na2vs0mg"},{"bike_id":"7d609cd8-5555-4970-a8e9-2081ad744fa5","system_id":"levelo_inurba_marseille","lat":43.25723,"lon":5.41103,"is_reserved":false,"is_disabled":false,"rental_uris":{"android":"levelo://app?vid=7d609cd8-5555-4970-a8e9-2081ad744fa5","ios":"levelo://app?vid=7d609cd8-5555-4970-a8e9-2081ad744fa5"},"vehicle_type_id":"4","last_reported":1784272138,"current_range_meters":36800,"station_id":"ce4bhkp2rcd13ifvqgd0","pricing_plan_id":"cebpf4jnsgd1na2vs0mg"},{"bike_id":"ccc5e218-399c-4ddf-aa35-e62983a28e52","system_id":"levelo_inurba_marseille","lat":43.25875,"lon":5.3988,"is_reserved":false,"is_disabled":false,"rental_uris":{"android":"levelo://app?vid=ccc5e218-399c-4ddf-aa35-e62983a28e52","ios":"levelo://app?vid=ccc5e218-399c-4ddf-aa35-e62983a28e52"},"vehicle_type_id":"4","last_reported":1784272138,"current_range_meters":8800,"station_id":"ce4bhl92rcd13ifvqghg","pricing_plan_id":"cebpf4jnsgd1na2vs0mg"},{"bike_id":"e35a471f-4162-47db-b945-02d55802c4cc","system_id":"levelo_inurba_marseille","lat":43.28552,"lon":5.44067,"is_reserved":false,"is_disabled":false,"rental_uris":{"android":"levelo://app?vid=e35a471f-4162-47db-b945-02d55802c4cc","ios":"levelo://app?vid=e35a471f-4162-47db-b945-02d55802c4cc"},"vehicle_type_id":"4","last_reported":1784272138,"current_range_meters":38000,"station_id":"st_d3j3df2ikq2c7380ej80","pricing_plan_id":"cebpf4jnsgd1na2vs0mg"},{"bike_id":"de33586d-1ad6-43fb-abac-eff95af90a64","system_id":"levelo_inurba_marseille","lat":43.2603,"lon":5.37538,"is_reserved":false,"is_disabled":true,"rental_uris":{"android":"levelo://app?vid=de33586d-1ad6-43fb-abac-eff95af90a64","ios":"levelo://app?vid=de33586d-1ad6-43fb-abac-eff95af90a64"},"vehicle_type_id":"4","last_reported":1784272138,"current_range_meters":24400,"station_id":"ce4bhgh2rcd13ifvqfa0","pricing_plan_id":"cebpf4jnsgd1na2vs0mg"},{"bike_id":"61804fc0-72a7-449f-ad34-2d4f7c8e20d0","system_id":"levelo_inurba_marseille","lat":43.27186,"lon":5.40992,"is_reserved":false,"is_disabled":false,"rental_uris":{"android":"levelo://app?vid=61804fc0-72a7-449f-ad34-2d4f7c8e20d0","ios":"levelo://app?vid=61804fc0-72a7-449f-ad34-2d4f7c8e20d0"},"vehicle_type_id":"4","last_reported":1784272138,"current_range_meters":26000,"station_id":"ce4bhl12rcd13ifvqgf0","pricing_plan_id":"cebpf4jnsgd1na2vs0mg"},{"bike_id":"8d35f373-a260-4aa9-9c99-8da954203902","system_id":"levelo_inurba_marseille","lat":43.30946,"lon":5.40122,"is_reserved":false,"is_disabled":false,"rental_uris":{"android":"levelo://app?vid=8d35f373-a260-4aa9-9c99-8da954203902","ios":"levelo://app?vid=8d35f373-a260-4aa9-9c99-8da954203902"},"vehicle_type_id":"4","last_reported":1784272138,"current_range_meters":39200,"station_id":"ce4bgvp2rcd13ifvqct0","pricing_plan_id":"cebpf4jnsgd1na2vs0mg"},{"bike_id":"5071112f-97ec-47b6-ab51-02d6f01099ff","system_id":"levelo_inurba_marseille","lat":43.269268,"lon":5.389179,"is_reserved":false,"is_disabled":false,"rental_uris":{"android":"levelo://app?vid=5071112f-97ec-47b6-ab51-02d6f01099ff","ios":"levelo://app?vid=5071112f-97ec-47b6-ab51-02d6f01099ff"},"vehicle_type_id":"4","last_reported":1784272138,"current_range_meters":30400,"station_id":"ce4bhhh2rcd13ifvqfl0","pricing_plan_id":"cebpf4jnsgd1na2vs0mg"},{"bike_id":"44a2d414-1ac1-4189-b47c-dc4459103bc9","system_id":"levelo_inurba_marseille","lat":43.33755,"lon":5.37432,"is_reserved":false,"is_disabled":false,"rental_uris":{"android":"levelo://app?vid=44a2d414-1ac1-4189-b47c-dc4459103bc9","ios":"levelo://app?vid=44a2d414-1ac1-4189-b47c-dc4459103bc9"},"vehicle_type_id":"4","last_reported":1784272138,"current_range_meters":38800,"station_id":"","pricing_plan_id":"cebpf4jnsgd1na2vs0mg"},{"bike_id":"b92582d7-69d4-493e-a0fe-c4cf66ff53e1","system_id":"levelo_inurba_marseille","lat":43.24385,"lon":5.37048,"is_reserved":false,"is_disabled":false,"rental_uris":{"android":"levelo://app?vid=b92582d7-69d4-493e-a0fe-c4cf66ff53e1","ios":"levelo://app?vid=b92582d7-69d4-493e-a0fe-c4cf66ff53e1"},"vehicle_type_id":"4","last_reported":1784272138,"current_range_meters":39200,"station_id":"ce4bhhh2rcd13ifvqfk0","pricing_plan_id":"cebpf4jnsgd1na2vs0mg"},{"bike_id":"5934dfff-666b-4536-966e-3a9ad6955bb0","system_id":"levelo_inurba_marseille","lat":43.29248,"lon":5.39982,"is_reserved":false,"is_disabled":false,"rental_uris":{"android":"levelo://app?vid=5934dfff-666b-4536-966e-3a9ad6955bb0","ios":"levelo://app?vid=5934dfff-666b-4536-966e-3a9ad6955bb0"},"vehicle_type_id":"4","last_reported":1784272138,"current_range_meters":8800,"station_id":"","pricing_plan_id":"cebpf4jnsgd1na2vs0mg"},{"bike_id":"eadbf5e7-6bfc-4e3a-b0e9-0f3c75f13d91","system_id":"levelo_inurba_marseille","lat":43.28141,"lon":5.37772,"is_reserved":false,"is_disabled":false,"rental_uris":{"android":"levelo://app?vid=eadbf5e7-6bfc-4e3a-b0e9-0f3c75f13d91","ios":"levelo://app?vid=eadbf5e7-6bfc-4e3a-b0e9-0f3c75f13d91"},"vehicle_type_id":"4","last_reported":1784272138,"current_range_meters":34800,"station_id":"ce4bha12rcd13ifvqee0","pricing_plan_id":"cebpf4jnsgd1na2vs0mg"},{"bike_id":"cf422a98-3b72-48d5-bc83-9f0f71ad0ca8","system_id":"levelo_inurba_marseille","lat":43.3302,"lon":5.39039,"is_reserved":false,"is_disabled":false,"rental_uris":{"android":"levelo://app?vid=cf422a98-3b72-48d5-bc83-9f0f71ad0ca8","ios":"levelo://app?vid=cf422a98-3b72-48d5-bc83-9f0f71ad0ca8"},"vehicle_type_id":"4","last_reported":1784272138,"current_range_meters":38400,"station_id":"ce4bhr92rcd13ifvqhrg","pricing_plan_id":"cebpf4jnsgd1na2vs0mg"},{"bike_id":"9dcfdf96-578b-46e7-b429-1767b2ea8f00","system_id":"levelo_inurba_marseille","lat":43.24695,"lon":5.38116,"is_reserved":false,"is_disabled":false,"rental_uris":{"android":"levelo://app?vid=9dcfdf96-578b-46e7-b429-1767b2ea8f00","ios":"levelo://app?vid=9dcfdf96-578b-46e7-b429-1767b2ea8f00"},"vehicle_type_id":"4","last_reported":1784272138,"current_range_meters":39200,"station_id":"","pricing_plan_id":"cebpf4jnsgd1na2vs0mg"},{"bike_id":"188163cf-083d-4db4-ad88-62be7d50188a","system_id":"levelo_inurba_marseille","lat":43.3033,"lon":5.36895,"is_reserved":false,"is_disabled":false,"rental_uris":{"android":"levelo://app?vid=188163cf-083d-4db4-ad88-62be7d50188a","ios":"levelo://app?vid=188163cf-083d-4db4-ad88-62be7d50188a"},"vehicle_type_id":"4","last_reported":1784272138,"current_range_meters":37600,"station_id":"ce4bgqh2rcd13ifvqc5g","pricing_plan_id":"cebpf4jnsgd1na2vs0mg"},{"bike_id":"011f44bc-69b8-4a18-b9b2-2d7664d4a328","system_id":"levelo_inurba_marseille","lat":43.29124,"lon":5.38202,"is_reserved":false,"is_disabled":false,"rental_uris":{"android":"levelo://app?vid=011f44bc-69b8-4a18-b9b2-2d7664d4a328","ios":"levelo://app?vid=011f44bc-69b8-4a18-b9b2-2d7664d4a328"},"vehicle_type_id":"4","last_reported":1784272138,"current_range_meters":37600,"station_id":"","pricing_plan_id":"cebpf4jnsgd1na2vs0mg"},{"bike_id":"7604574c-06cb-407e-9e16-b7858411e1bc","system_id":"levelo_inurba_marseille","lat":43.27798,"lon":5.40713,"is_reserved":false,"is_disabled":true,"rental_uris":{"android":"levelo://app?vid=7604574c-06cb-407e-9e16-b7858411e1bc","ios":"levelo://app?vid=7604574c-06cb-407e-9e16-b7858411e1bc"},"vehicle_type_id":"4","last_reported":1784272138,"current_range_meters":22800,"station_id":"ce4bhnh2rcd13ifvqgtg","pricing_plan_id":"cebpf4jnsgd1na2vs0mg"},{"bike_id":"600d3649-4b6d-473c-a715-d27921e00684","system_id":"levelo_inurba_marseille","lat":43.23196,"lon":5.35541,"is_reserved":false,"is_disabled":false,"rental_uris":{"android":"levelo://app?vid=600d3649-4b6d-473c-a715-d27921e00684","ios":"levelo://app?vid=600d3649-4b6d-473c-a715-d27921e00684"},"vehicle_type_id":"4","last_reported":1784272138,"current_range_meters":26000,"station_id":"ce4bhu92rcd13ifvqi70","pricing_plan_id":"cebpf4jnsgd1na2vs0mg"},{"bike_id":"03a041ca-3e72-4f40-9ea4-bf3e53a3a956","system_id":"levelo_inurba_marseille","lat":43.25495,"lon":5.37655,"is_reserved":false,"is_disabled":false,"rental_uris":{"android":"levelo://app?vid=03a041ca-3e72-4f40-9ea4-bf3e53a3a956","ios":"levelo://app?vid=03a041ca-3e72-4f40-9ea4-bf3e53a3a956"},