{"last_updated":1747311622,"ttl":60,"version":"2.2","data":{"bikes":[{"bike_id":"c0b9fd4f-e181-46ce-b0bf-f5119973334f","system_id":"levelo_inurba_marseille","lat":43.33771,"lon":5.37424,"is_reserved":false,"is_disabled":false,"rental_uris":{"android":"levelo://app?vid=c0b9fd4f-e181-46ce-b0bf-f5119973334f","ios":"levelo://app?vid=c0b9fd4f-e181-46ce-b0bf-f5119973334f"},"vehicle_type_id":"4","last_reported":1747311622,"current_range_meters":14800,"station_id":"","pricing_plan_id":"cebpf4jnsgd1na2vs0mg"},{"bike_id":"111ebbdb-72a9-4e4d-bc22-f68f42b99ba3","system_id":"levelo_inurba_marseille","lat":43.28318,"lon":5.38521,"is_reserved":false,"is_disabled":true,"rental_uris":{"android":"levelo://app?vid=111ebbdb-72a9-4e4d-bc22-f68f42b99ba3","ios":"levelo://app?vid=111ebbdb-72a9-4e4d-bc22-f68f42b99ba3"},"vehicle_type_id":"4","last_reported":1747311622,"current_range_meters":0,"station_id":"","pricing_plan_id":"cebpf4jnsgd1na2vs0mg"},{"bike_id":"fc2577e7-1497-425b-9d4f-ab8d7dc843c6","system_id":"levelo_inurba_marseille","lat":43.33771,"lon":5.37485,"is_reserved":false,"is_disabled":true,"rental_uris":{"android":"levelo://app?vid=fc2577e7-1497-425b-9d4f-ab8d7dc843c6","ios":"levelo://app?vid=fc2577e7-1497-425b-9d4f-ab8d7dc843c6"},"vehicle_type_id":"4","last_reported":1747311622,"current_range_meters":0,"station_id":"","pricing_plan_id":"cebpf4jnsgd1na2vs0mg"},{"bike_id":"893cee9f-22ed-4823-82b3-4da288b81784","system_id":"levelo_inurba_marseille","lat":43.318025,"lon":5.369465,"is_reserved":false,"is_disabled":true,"rental_uris":{"android":"levelo://app?vid=893cee9f-22ed-4823-82b3-4da288b81784","ios":"levelo://app?vid=893cee9f-22ed-4823-82b3-4da288b81784"},"vehicle_type_id":"4","last_reported":1747311622,"current_range_meters":0,"station_id":"","pricing_plan_id":"cebpf4jnsgd1na2vs0mg"},{"bike_id":"792567c6-0442-4011-aff0-9c05e25deb48","system_id":"levelo_inurba_marseille","lat":43.337444,"lon":5.374475,"is_reserved":false,"is_disabled":true,"rental_uris":{"android":"levelo://app?vid=792567c6-0442-4011-aff0-9c05e25deb48","ios":"levelo://app?vid=792567c6-0442-4011-aff0-9c05e25deb48"},"vehicle_type_id":"4","last_reported":1747311622,"current_range_meters":0,"station_id":"","pricing_plan_id":"cebpf4jnsgd1na2vs0mg"},{"bike_id":"90477825-ffb2-4978-859d-dd7669b366b6","system_id":"levelo_inurba_marseille","lat":43.308845,"lon":5.396498,"is_reserved":false,"is_disabled":true,"rental_uris":{"android":"levelo://app?vid=90477825-ffb2-4978-859d-dd7669b366b6","ios":"levelo://app?vid=90477825-ffb2-4978-859d-dd7669b366b6"},"vehicle_type_id":"4","last_reported":1747311622,"current_range_meters":0,"station_id":"ce4bh012rcd13ifvqcv0","pricing_plan_id":"cebpf4jnsgd1na2vs0mg"},{"bike_id":"3295dfaa-a6f6-42c6-a831-6b5ef33f2ec5","system_id":"levelo_inurba_marseille","lat":43.286931,"lon":5.351772,"is_reserved":false,"is_disabled":true,"rental_uris":{"android":"levelo://app?vid=3295dfaa-a6f6-42c6-a831-6b5ef33f2ec5","ios":"levelo://app?vid=3295dfaa-a6f6-42c6-a831-6b5ef33f2ec5"},"vehicle_type_id":"4","last_reported":1747311622,"current_range_meters":0,"station_id":"ce4bhbp2rcd13ifvqesg","pricing_plan_id":"cebpf4jnsgd1na2vs0mg"},{"bike_id":"1f0179d4-17b2-4225-9a16-0485c755e2fb","system_id":"levelo_inurba_marseille","lat":43.26564,"lon":5.39006,"is_reserved":false,"is_disabled":true,"rental_uris":{"android":"levelo://app?vid=1f0179d4-17b2-4225-9a16-0485c755e2fb","ios":"levelo://app?vid=1f0179d4-17b2-4225-9a16-0485c755e2fb"},"vehicle_type_id":"4","last_reported":1747311622,"current_range_meters":0,"station_id":"ce4bhe12rcd13ifvqf30","pricing_plan_id":"cebpf4jnsgd1na2vs0mg"},{"bike_id":"4439649f-7739-4f07-a01c-6577497ea17b","system_id":"levelo_inurba_marseille","lat":43.32496,"lon":5.36578,"is_reserved":false,"is_disabled":true,"rental_uris":{"android":"levelo://app?vid=4439649f-7739-4f07-a01c-6577497ea17b","ios":"levelo://app?vid=4439649f-7739-4f07-a01c-6577497ea17b"},"vehicle_type_id":"4","last_reported":1747311622,"current_range_meters":0,"station_id":"ce4bhs12rcd13ifvqhvg","pricing_plan_id":"cebpf4jnsgd1na2vs0mg"},{"bike_id":"aafc1df7-8956-4b96-8d9a-33db3a9e80e6","system_id":"levelo_inurba_marseille","lat":43.3021,"lon":5.39472,"is_reserved":false,"is_disabled":true,"rental_uris":{"android":"levelo://app?vid=aafc1df7-8956-4b96-8d9a-33db3a9e80e6","ios":"levelo://app?vid=aafc1df7-8956-4b96-8d9a-33db3a9e80e6"},"vehicle_type_id":"4","last_reported":1747311622,"current_range_meters":400,"station_id":"ce4bh0p2rcd13ifvqd70","pricing_plan_id":"cebpf4jnsgd1na2vs0mg"},{"bike_id":"9314dddf-072c-4cc0-8876-ed2b90349374","system_id":"levelo_inurba_marseille","lat":43.32538,"lon":5.414325,"is_reserved":false,"is_disabled":true,"rental_uris":{"android":"levelo://app?vid=9314dddf-072c-4cc0-8876-ed2b90349374","ios":"levelo://app?vid=9314dddf-072c-4cc0-8876-ed2b90349374"},"vehicle_type_id":"4","last_reported":1747311622,"current_range_meters":400,"station_id":"ce4bhq12rcd13ifvqhhg","pricing_plan_id":"cebpf4jnsgd1na2vs0mg"},{"bike_id":"2b8fbf5f-4106-421b-bd48-29543ccb14db","system_id":"levelo_inurba_marseille","lat":43.2371,"lon":5.36113,"is_reserved":false,"is_disabled":true,"rental_uris":{"android":"levelo://app?vid=2b8fbf5f-4106-421b-bd48-29543ccb14db","ios":"levelo://app?vid=2b8fbf5f-4106-421b-bd48-29543ccb14db"},"vehicle_type_id":"4","last_reported":1747311622,"current_range_meters":800,"station_id":"","pricing_plan_id":"cebpf4jnsgd1na2vs0mg"},{"bike_id":"bc812659-d02b-49ba-bb11-585dd969844e","system_id":"levelo_inurba_marseille","lat":43.257467,"lon":5.383136,"is_reserved":false,"is_disabled":true,"rental_uris":{"android":"levelo://app?vid=bc812659-d02b-49ba-bb11-585dd969844e","ios":"levelo://app?vid=bc812659-d02b-49ba-bb11-585dd969844e"},"vehicle_type_id":"4","last_reported":1747311622,"current_range_meters":800,"station_id":"ce4bhih2rcd13ifvqfs0","pricing_plan_id":"cebpf4jnsgd1na2vs0mg"},{"bike_id":"7ee44e60-709a-44ce-9b83-19bff0631fbb","system_id":"levelo_inurba_marseille","lat":43.275633,"lon":5.423689,"is_reserved":false,"is_disabled":true,"rental_uris":{"android":"levelo://app?vid=7ee44e60-709a-44ce-9b83-19bff0631fbb","ios":"levelo://app?vid=7ee44e60-709a-44ce-9b83-19bff0631fbb"},"vehicle_type_id":"4","last_reported":1747311622,"current_range_meters":800,"station_id":"ce4bhn92rcd13ifvqgrg","pricing_plan_id":"cebpf4jnsgd1na2vs0mg"},{"bike_id":"ce56dac4-3879-4283-8148-af2b9fd6c04b","system_id":"levelo_inurba_marseille","lat":43.312998,"lon":5.390152,"is_reserved":false,"is_disabled":true,"rental_uris":{"android":"levelo://app?vid=ce56dac4-3879-4283-8148-af2b9fd6c04b","ios":"levelo://app?vid=ce56dac4-3879-4283-8148-af2b9fd6c04b"},"vehicle_type_id":"4","last_reported":1747311622,"current_range_meters":1200,"station_id":"","pricing_plan_id":"cebpf4jnsgd1na2vs0mg"},{"bike_id":"f31a3e22-1ae5-4365-968b-4fce827474cc","system_id":"levelo_inurba_marseille","lat":43.31327,"lon":5.39693,"is_reserved":false,"is_disabled":true,"rental_uris":{"android":"levelo://app?vid=f31a3e22-1ae5-4365-968b-4fce827474cc","ios":"levelo://app?vid=f31a3e22-1ae5-4365-968b-4fce827474cc"},"vehicle_type_id":"4","last_reported":1747311622,"current_range_meters":1200,"station_id":"ce4bgvp2rcd13ifvqcu0","pricing_plan_id":"cebpf4jnsgd1na2vs0mg"},{"bike_id":"2693ad26-5da0-4988-8f66-ac3be6343bfa","system_id":"levelo_inurba_marseille","lat":43.28496,"lon":5.38414,"is_reserved":false,"is_disabled":true,"rental_uris":{"android":"levelo://app?vid=2693ad26-5da0-4988-8f66-ac3be6343bfa","ios":"levelo://app?vid=2693ad26-5da0-4988-8f66-ac3be6343bfa"},"vehicle_type_id":"4","last_reported":1747311622,"current_range_meters":1200,"station_id":"ce4bh512rcd13ifvqe3g","pricing_plan_id":"cebpf4jnsgd1na2vs0mg"},{"bike_id":"7f205a2c-ec0d-46dd-8e0f-abe1efbdf211","system_id":"levelo_inurba_marseille","lat":43.29556,"lon":5.42291,"is_reserved":false,"is_disabled":true,"rental_uris":{"android":"levelo://app?vid=7f205a2c-ec0d-46dd-8e0f-abe1efbdf211","ios":"levelo://app?vid=7f205a2c-ec0d-46dd-8e0f-abe1efbdf211"},"vehicle_type_id":"4","last_reported":1747311622,"current_range_meters":1200,"station_id":"ce4bhph2rcd13ifvqhdg","pricing_plan_id":"cebpf4jnsgd1na2vs0mg"},{"bike_id":"ce4325af-2448-4172-bdec-81d552ee0b62","system_id":"levelo_inurba_marseille","lat":43.2617,"lon":5.41997,"is_reserved":false,"is_disabled":true,"rental_uris":{"android":"levelo://app?vid=ce4325af-2448-4172-bdec-81d552ee0b62","ios":"levelo://app?vid=ce4325af-2448-4172-bdec-81d552ee0b62"},"vehicle_type_id":"4","last_reported":1747311622,"current_range_meters":1600,"station_id":"","pricing_plan_id":"cebpf4jnsgd1na2vs0mg"},{"bike_id":"1009deb7-2d1d-4d96-adb0-90bc974b8e7d","system_id":"levelo_inurba_marseille","lat":43.29298,"lon":5.37175,"is_reserved":false,"is_disabled":true,"rental_uris":{"android":"levelo://app?vid=1009deb7-2d1d-4d96-adb0-90bc974b8e7d","ios":"levelo://app?vid=1009deb7-2d1d-4d96-adb0-90bc974b8e7d"},"vehicle_type_id":"4","last_reported":1747311622,"current_range_meters":1600,"station_id":"ce4bgh92rcd13ifvqb40","pricing_plan_id":"cebpf4jnsgd1na2vs0mg"},{"bike_id":"8129a4e4-58cc-4a4c-a147-c7297789f706","system_id":"levelo_inurba_marseille","lat":43.30538,"lon":5.36714,"is_reserved":false,"is_disabled":true,"rental_uris":{"android":"levelo://app?vid=8129a4e4-58cc-4a4c-a147-c7297789f706","ios":"levelo://app?vid=8129a4e4-58cc-4a4c-a147-c7297789f706"},"vehicle_type_id":"4","last_reported":1747311622,"current_range_meters":1600,"station_id":"ce4bgrp2rcd13ifvqc9g","pricing_plan_id":"cebpf4jnsgd1na2vs0mg"},{"bike_id":"dc91ccd0-c3ed-4040-aa5a-c0fe60245054","system_id":"levelo_inurba_marseille","lat":43.286586,"lon":5.374016,"is_reserved":false,"is_disabled":true,"rental_uris":{"android":"levelo://app?vid=dc91ccd0-c3ed-4040-aa5a-c0fe60245054","ios":"levelo://app?vid=dc91ccd0-c3ed-4040-aa5a-c0fe60245054"},"vehicle_type_id":"4","last_reported":1747311622,"current_range_meters":1600,"station_id":"ce4bh3p2rcd13ifvqdq0","pricing_plan_id":"cebpf4jnsgd1na2vs0mg"},{"bike_id":"3c38274c-d27a-45e6-9340-7ba1cd11f56f","system_id":"levelo_inurba_marseille","lat":43.29264,"lon":5.38444,"is_reserved":false,"is_disabled":true,"rental_uris":{"android":"levelo://app?vid=3c38274c-d27a-45e6-9340-7ba1cd11f56f","ios":"levelo://app?vid=3c38274c-d27a-45e6-9340-7ba1cd11f56f"},"vehicle_type_id":"4","last_reported":1747311622,"current_range_meters":1600,"station_id":"ce4bh692rcd13ifvqea0","pricing_plan_id":"cebpf4jnsgd1na2vs0mg"},{"bike_id":"7b92cdce-cf70-47e7-a8b0-4474becba5bc","system_id":"levelo_inurba_marseille","lat":43.2622,"lon":5.40472,"is_reserved":false,"is_disabled":true,"rental_uris":{"android":"levelo://app?vid=7b92cdce-cf70-47e7-a8b0-4474becba5bc","ios":"levelo://app?vid=7b92cdce-cf70-47e7-a8b0-4474becba5bc"},"vehicle_type_id":"4","last_reported":1747311622,"current_range_meters":1600,"station_id":"ce4bhmh2rcd13ifvqgmg","pricing_plan_id":"cebpf4jnsgd1na2vs0mg"},{"bike_id":"2eb6fdbd-4c87-4e9a-8c7c-c8c24ae2318b","system_id":"levelo_inurba_marseille","lat":43.30237,"lon":5.40049,"is_reserved":false,"is_disabled":true,"rental_uris":{"android":"levelo://app?vid=2eb6fdbd-4c87-4e9a-8c7c-c8c24ae2318b","ios":"levelo://app?vid=2eb6fdbd-4c87-4e9a-8c7c-c8c24ae2318b"},"vehicle_type_id":"4","last_reported":1747311622,"current_range_meters":2000,"station_id":"ce4bgvh2rcd13ifvqcs0","pricing_plan_id":"cebpf4jnsgd1na2vs0mg"},{"bike_id":"86ca4658-29cd-4833-a4d2-a44b00bfe5aa","system_id":"levelo_inurba_marseille","lat":43.28416,"lon":5.34979,"is_reserved":false,"is_disabled":true,"rental_uris":{"android":"levelo://app?vid=86ca4658-29cd-4833-a4d2-a44b00bfe5aa","ios":"levelo://app?vid=86ca4658-29cd-4833-a4d2-a44b00bfe5aa"},"vehicle_type_id":"4","last_reported":1747311622,"current_range_meters":2000,"station_id":"ce4bhbh2rcd13ifvqepg","pricing_plan_id":"cebpf4jnsgd1na2vs0mg"},{"bike_id":"c3bf4068-1357-45de-9af2-24648fba9855","system_id":"levelo_inurba_marseille","lat":43.2894,"lon":5.36389,"is_reserved":false,"is_disabled":true,"rental_uris":{"android":"levelo://app?vid=c3bf4068-1357-45de-9af2-24648fba9855","ios":"levelo://app?vid=c3bf4068-1357-45de-9af2-24648fba9855"},"vehicle_type_id":"4","last_reported":1747311622,"current_range_meters":2000,"station_id":"ce4bhc92rcd13ifvqetg","pricing_plan_id":"cebpf4jnsgd1na2vs0mg"},{"bike_id":"d805c266-e964-4fbd-aa05-19511acd6f8b","system_id":"levelo_inurba_marseille","lat":43.312307,"lon":5.368422,"is_reserved":false,"is_disabled":false,"rental_uris":{"android":"levelo://app?vid=d805c266-e964-4fbd-aa05-19511acd6f8b","ios":"levelo://app?vid=d805c266-e964-4fbd-aa05-19511acd6f8b"},"vehicle_type_id":"4","last_reported":1747311622,"current_range_meters":2800,"station_id":"ce4bgl92rcd13ifvqbq0","pricing_plan_id":"cebpf4jnsgd1na2vs0mg"},{"bike_id":"41778ef5-15e9-4f8d-b2f9-f66c4605cbd4","system_id":"levelo_inurba_marseille","lat":43.26596,"lon":5.39023,"is_reserved":false,"is_disabled":false,"rental_uris":{"android":"levelo://app?vid=41778ef5-15e9-4f8d-b2f9-f66c4605cbd4","ios":"levelo://app?vid=41778ef5-15e9-4f8d-b2f9-f66c4605cbd4"},"vehicle_type_id":"4","last_reported":1747311622,"current_range_meters":2800,"station_id":"ce4bhe12rcd13ifvqf30","pricing_plan_id":"cebpf4jnsgd1na2vs0mg"},{"bike_id":"9cbc5780-04db-41c2-a62f-7a4aeac04b89","system_id":"levelo_inurba_marseille","lat":43.232049,"lon":5.355578,"is_reserved":false,"is_disabled":false,"rental_uris":{"android":"levelo://app?vid=9cbc5780-04db-41c2-a62f-7a4aeac04b89","ios":"levelo://app?vid=9cbc5780-04db-41c2-a62f-7a4aeac04b89"},"vehicle_type_id":"4","last_reported":1747311622,"current_range_meters":2800,"station_id":"ce4bhu92rcd13ifvqi70","pricing_plan_id":"cebpf4jnsgd1na2vs0mg"},{"bike_id":"960dc072-6857-4858-8100-fe2c86a800d7","system_id":"levelo_inurba_marseille","lat":43.29005,"lon":5.356057,"is_reserved":false,"is_disabled":false,"rental_uris":{"android":"levelo://app?vid=960dc072-6857-4858-8100-fe2c86a800d7","ios":"levelo://app?vid=960dc072-6857-4858-8100-fe2c86a800d7"},"vehicle_type_id":"4","last_reported":1747311622,"current_range_meters":3200,"station_id":"ce4bhb92rcd13ifvqen0","pricing_plan_id":"cebpf4jnsgd1na2vs0mg"},{"bike_id":"21894b80-ad88-4e4a-b578-572cb8564b0e","system_id":"levelo_inurba_marseille","lat":43.27814,"lon":5.40711,"is_reserved":false,"is_disabled":false,"rental_uris":{"android":"levelo://app?vid=21894b80-ad88-4e4a-b578-572cb8564b0e","ios":"levelo://app?vid=21894b80-ad88-4e4a-b578-572cb8564b0e"},"vehicle_type_id":"4","last_reported":1747311622,"current_range_meters":3200,"station_id":"ce4bhnh2rcd13ifvqgtg","pricing_plan_id":"cebpf4jnsgd1na2vs0mg"},{"bike_id":"0303231a-44d3-46bc-914a-1fb5aa190fd8","system_id":"levelo_inurba_marseille","lat":43.32489,"lon":5.36571,"is_reserved":false,"is_disabled":false,"rental_uris":{"android":"levelo://app?vid=0303231a-44d3-46bc-914a-1fb5aa190fd8","ios":"levelo://app?vid=0303231a-44d3-46bc-914a-1fb5aa190fd8"},"vehicle_type_id":"4","last_reported":1747311622,"current_range_meters":3200,"station_id":"ce4bhs12rcd13ifvqhvg","pricing_plan_id":"cebpf4jnsgd1na2vs0mg"},{"bike_id":"1c0401c1-c5ff-4bd7-826f-db5320c4debd","system_id":"levelo_inurba_marseille","lat":43.30538,"lon":5.3655,"is_reserved":false,"is_disabled":false,"rental_uris":{"android":"levelo://app?vid=1c0401c1-c5ff-4bd7-826f-db5320c4debd","ios":"levelo://app?vid=1c0401c1-c5ff-4bd7-826f-db5320c4debd"},"vehicle_type_id":"4","last_reported":1747311622,"current_range_meters":3600,"station_id":"ce4bgs12rcd13ifvqcag","pricing_plan_id":"cebpf4jnsgd1na2vs0mg"},{"bike_id":"aaf81311-945c-4cba-ad1a-dc289d2062ba","system_id":"levelo_inurba_marseille","lat":43.29197,"lon":5.39317,"is_reserved":false,"is_disabled":false,"rental_uris":{"android":"levelo://app?vid=aaf81311-945c-4cba-ad1a-dc289d2062ba","ios":"levelo://app?vid=aaf81311-945c-4cba-ad1a-dc289d2062ba"},"vehicle_type_id":"4","last_reported":1747311622,"current_range_meters":3600,"station_id":"ce4bh192rcd13ifvqdd0","pricing_plan_id":"cebpf4jnsgd1na2vs0mg"},{"bike_id":"525a4b1a-fa02-4e18-a6e9-d48f7a707323","system_id":"levelo_inurba_marseille","lat":43.28861,"lon":5.35849,"is_reserved":false,"is_disabled":false,"rental_uris":{"android":"levelo://app?vid=525a4b1a-fa02-4e18-a6e9-d48f7a707323","ios":"levelo://app?vid=525a4b1a-fa02-4e18-a6e9-d48f7a707323"},"vehicle_type_id":"4","last_reported":1747311622,"current_range_meters":3600,"station_id":"ce4bhb12rcd13ifvqem0","pricing_plan_id":"cebpf4jnsgd1na2vs0mg"},{"bike_id":"0e68518c-0014-4e6f-aec7-ade0978a6643","system_id":"levelo_inurba_marseille","lat":43.28944,"lon":5.36388,"is_reserved":false,"is_disabled":false,"rental_uris":{"android":"levelo://app?vid=0e68518c-0014-4e6f-aec7-ade0978a6643","ios":"levelo://app?vid=0e68518c-0014-4e6f-aec7-ade0978a6643"},"vehicle_type_id":"4","last_reported":1747311622,"current_range_meters":3600,"station_id":"ce4bhc92rcd13ifvqetg","pricing_plan_id":"cebpf4jnsgd1na2vs0mg"},{"bike_id":"5bdd7104-89b4-436c-97b4-e139a0ba9f55","system_id":"levelo_inurba_marseille","lat":43.24178,"lon":5.3973,"is_reserved":false,"is_disabled":false,"rental_uris":{"android":"levelo://app?vid=5bdd7104-89b4-436c-97b4-e139a0ba9f55","ios":"levelo://app?vid=5bdd7104-89b4-436c-97b4-e139a0ba9f55"},"vehicle_type_id":"4","last_reported":1747311622,"current_range_meters":3600,"station_id":"ce4bhn12rcd13ifvqgpg","pricing_plan_id":"cebpf4jnsgd1na2vs0mg"},{"bike_id":"fdbcf3bc-dd44-4431-bf32-e29d2b7b3ad6","system_id":"levelo_inurba_marseille","lat":43.30427,"lon":5.39756,"is_reserved":false,"is_disabled":false,"rental_uris":{"android":"levelo://app?vid=fdbcf3bc-dd44-4431-bf32-e29d2b7b3ad6","ios":"levelo://app?vid=fdbcf3bc-dd44-4431-bf32-e29d2b7b3ad6"},"vehicle_type_id":"4","last_reported":1747311622,"current_range_meters":4000,"station_id":"ce4bh092rcd13ifvqd20","pricing_plan_id":"cebpf4jnsgd1na2vs0mg"},{"bike_id":"381b85c1-3312-4eda-956e-6cb5854d4d8e","system_id":"levelo_inurba_marseille","lat":43.23196,"lon":5.35554,"is_reserved":false,"is_disabled":false,"rental_uris":{"android":"levelo://app?vid=381b85c1-3312-4eda-956e-6cb5854d4d8e","ios":"levelo://app?vid=381b85c1-3312-4eda-956e-6cb5854d4d8e"},"vehicle_type_id":"4","last_reported":1747311622,"current_range_meters":4000,"station_id":"ce4bhu92rcd13ifvqi70","pricing_plan_id":"cebpf4jnsgd1na2vs0mg"},{"bike_id":"34af0941-5eec-488a-aaf3-1a5724a5aa01","system_id":"levelo_inurba_marseille","lat":43.25003,"lon":5.38927,"is_reserved":false,"is_disabled":false,"rental_uris":{"android":"levelo://app?vid=34af0941-5eec-488a-aaf3-1a5724a5aa01","ios":"levelo://app?vid=34af0941-5eec-488a-aaf3-1a5724a5aa01"},"vehicle_type_id":"4","last_reported":1747311622,"current_range_meters":4400,"station_id":"ce4bhgp2rcd13ifvqfd0","pricing_plan_id":"cebpf4jnsgd1na2vs0mg"},{"bike_id":"5ca41ceb-959f-4a12-ba49-1a751f1e9777","system_id":"levelo_inurba_marseille","lat":43.27368,"lon":5.36257,"is_reserved":false,"is_disabled":false,"rental_uris":{"android":"levelo://app?vid=5ca41ceb-959f-4a12-ba49-1a751f1e9777","ios":"levelo://app?vid=5ca41ceb-959f-4a12-ba49-1a751f1e9777"},"vehicle_type_id":"4","last_reported":1747311622,"current_range_meters":5600,"station_id":"ce4bhbh2rcd13ifvqeo0","pricing_plan_id":"cebpf4jnsgd1na2vs0mg"},{"bike_id":"6bf54d60-f58b-4089-8a78-f6bd8e020120","system_id":"levelo_inurba_marseille","lat":43.2792,"lon":5.39573,"is_reserved":false,"is_disabled":false,"rental_uris":{"android":"levelo://app?vid=6bf54d60-f58b-4089-8a78-f6bd8e020120","ios":"levelo://app?vid=6bf54d60-f58b-4089-8a78-f6bd8e020120"},"vehicle_type_id":"4","last_reported":1747311622,"current_range_meters":5600,"station_id":"ce4bhf92rcd13ifvqf40","pricing_plan_id":"cebpf4jnsgd1na2vs0mg"},{"bike_id":"fe892ad5-d46d-4292-93bd-e1236cdf55b5","system_id":"levelo_inurba_marseille","lat":43.25106,"lon":5.40319,"is_reserved":false,"is_disabled":false,"rental_uris":{"android":"levelo://app?vid=fe892ad5-d46d-4292-93bd-e1236cdf55b5","ios":"levelo://app?vid=fe892ad5-d46d-4292-93bd-e1236cdf55b5"},"vehicle_type_id":"4","last_reported":1747311622,"current_range_meters":5600,"station_id":"ce4bhlh2rcd13ifvqgig","pricing_plan_id":"cebpf4jnsgd1na2vs0mg"},{"bike_id":"45e307f9-dc69-4d8e-b5a0-a3fb58d38a70","system_id":"levelo_inurba_marseille","lat":43.28944,"lon":5.36392,"is_reserved":false,"is_disabled":false,"rental_uris":{"android":"levelo://app?vid=45e307f9-dc69-4d8e-b5a0-a3fb58d38a70","ios":"levelo://app?vid=45e307f9-dc69-4d8e-b5a0-a3fb58d38a70"},"vehicle_type_id":"4","last_reported":1747311622,"current_range_meters":6000,"station_id":"ce4bhc92rcd13ifvqetg","pricing_plan_id":"cebpf4jnsgd1na2vs0mg"},{"bike_id":"09861ecc-8063-414a-91c5-53c5b91406d9","system_id":"levelo_inurba_marseille","lat":43.2794,"lon":5.41045,"is_reserved":false,"is_disabled":false,"rental_uris":{"android":"levelo://app?vid=09861ecc-8063-414a-91c5-53c5b91406d9","ios":"levelo://app?vid=09861ecc-8063-414a-91c5-53c5b91406d9"},"vehicle_type_id":"4","last_reported":1747311622,"current_range_meters":6000,"station_id":"ce4bhnp2rcd13ifvqh0g","pricing_plan_id":"cebpf4jnsgd1na2vs0mg"},{"bike_id":"63b9b4a8-220d-4932-bf1c-d67f1bee7cdd","system_id":"levelo_inurba_marseille","lat":43.28353,"lon":5.38106,"is_reserved":false,"is_disabled":false,"rental_uris":{"android":"levelo://app?vid=63b9b4a8-220d-4932-bf1c-d67f1bee7cdd","ios":"levelo://app?vid=63b9b4a8-220d-4932-bf1c-d67f1bee7cdd"},"vehicle_type_id":"4","last_reported":1747311622,"current_range_meters":6400,"station_id":"ce4bh412rcd13ifvqdr0","pricing_plan_id":"cebpf4jnsgd1na2vs0mg"},{"bike_id":"5c266eb5-10bb-47f4-8c01-11e3374d2145","system_id":"levelo_inurba_marseille","lat":43.32354,"lon":5.42062,"is_reserved":false,"is_disabled":false,"rental_uris":{"android":"levelo://app?vid=5c266eb5-10bb-47f4-8c01-11e3374d2145","ios":"levelo://app?vid=5c266eb5-10bb-47f4-8c01-11e3374d2145"},"vehicle_type_id":"4","last_reported":1747311622,"current_range_meters":6800,"station_id":"","pricing_plan_id":"cebpf4jnsgd1na2vs0mg"},{"bike_id":"c1c25239-8fce-48f7-8061-273abbd7fffb","system_id":"levelo_inurba_marseille","lat":43.29545,"lon":5.37507,"is_reserved":false,"is_disabled":false,"rental_uris":{"android":"levelo://app?vid=c1c25239-8fce-48f7-8061-273abbd7fffb","ios":"levelo://app?vid=c1c25239-8fce-48f7-8061-273abbd7fffb"},"vehicle_type_id":"4","last_reported":1747311622,"current_range_meters":6800,"station_id":"ce4bgkp2rcd13ifvqbmg","pricing_plan_id":"cebpf4jnsgd1na2vs0mg"},{"bike_id":"4ef3af47-1f5a-4ab2-93c5-eddb0e8db531","system_id":"levelo_inurba_marseille","lat":43.29198,"lon":5.39318,"is_reserved":false,"is_disabled":false,"rental_uris":{"android":"levelo://app?vid=4ef3af47-1f5a-4ab2-93c5-eddb0e8db531","ios":"levelo://app?vid=4ef3af47-1f5a-4ab2-93c5-eddb0e8db531"},"vehicle_type_id":"4","last_reported":1747311622,"current_range_meters":6800,"station_id":"ce4bh192rcd13ifvqdd0","pricing_plan_id":"cebpf4jnsgd1na2vs0mg"},{"bike_id":"2d045e21-2a9f-4f9d-8713-4a3301522103","system_id":"levelo_inurba_marseille","lat":43.286693,"lon":5.38673,"is_reserved":false,"is_disabled":false,"rental_uris":{"android":"levelo://app?vid=2d045e21-2a9f-4f9d-8713-4a3301522103","ios":"levelo://app?vid=2d045e21-2a9f-4f9d-8713-4a3301522103"},"vehicle_type_id":"4","last_reported":1747311622,"current_range_meters":6800,"station_id":"ce4bh492rcd13ifvqdug","pricing_plan_id":"cebpf4jnsgd1na2vs0mg"},{"bike_id":"70af7316-a8c8-4365-a0fd-78ae83fc0a0c","system_id":"levelo_inurba_marseille","lat":43.28077,"lon":5.39663,"is_reserved":false,"is_disabled":false,"rental_uris":{"android":"levelo://app?vid=70af7316-a8c8-4365-a0fd-78ae83fc0a0c","ios":"levelo://app?vid=70af7316-a8c8-4365-a0fd-78ae83fc0a0c"},"vehicle_type_id":"4","last_reported":1747311622,"current_range_meters":6800,"station_id":"ce4bho12rcd13ifvqh2g","pricing_plan_id":"cebpf4jnsgd1na2vs0mg"},{"bike_id":"6699c7ab-61fe-43f0-b3ca-c0a686907237","system_id":"levelo_inurba_marseille","lat":43.28461,"lon":5.38417,"is_reserved":false,"is_disabled":false,"rental_uris":{"android":"levelo://app?vid=6699c7ab-61fe-43f0-b3ca-c0a686907237","ios":"levelo://app?vid=6699c7ab-61fe-43f0-b3ca-c0a686907237"},"vehicle_type_id":"4","last_reported":1747311622,"current_range_meters":7200,"station_id":"ce4bh512rcd13ifvqe3g","pricing_plan_id":"cebpf4jnsgd1na2vs0mg"},{"bike_id":"d88b4786-8037-46ef-bfa6-54812ea8d1c8","system_id":"levelo_inurba_marseille","lat":43.27057,"lon":5.40257,"is_reserved":false,"is_disabled":false,"rental_uris":{"android":"levelo://app?vid=d88b4786-8037-46ef-bfa6-54812ea8d1c8","ios":"levelo://app?vid=d88b4786-8037-46ef-bfa6-54812ea8d1c8"},"vehicle_type_id":"4","last_reported":1747311622,"current_range_meters":7200,"station_id":"ce4bhk92rcd13ifvqgc0","pricing_plan_id":"cebpf4jnsgd1na2vs0mg"},{"bike_id":"3faf053c-e846-4d83-83ee-8fd51efc38bb","system_id":"levelo_inurba_marseille","lat":43.321095,"lon":5.367783,"is_reserved":false,"is_disabled":false,"rental_uris":{"android":"levelo://app?vid=3faf053c-e846-4d83-83ee-8fd51efc38bb","ios":"levelo://app?vid=3faf053c-e846-4d83-83ee-8fd51efc38bb"},"vehicle_type_id":"4","last_reported":1747311622,"current_range_meters":7200,"station_id":"ce4bhrh2rcd13ifvqhug","pricing_plan_id":"cebpf4jnsgd1na2vs0mg"},{"bike_id":"5a5a3b5b-cfba-4dfb-8a1f-171cbf209063","system_id":"levelo_inurba_marseille","lat":43.32492,"lon":5.36561,"is_reserved":false,"is_disabled":false,"rental_uris":{"android":"levelo://app?vid=5a5a3b5b-cfba-4dfb-8a1f-171cbf209063","ios":"levelo://app?vid=5a5a3b5b-cfba-4dfb-8a1f-171cbf209063"},"vehicle_type_id":"4","last_reported":1747311622,"current_range_meters":7200,"station_id":"ce4bhs12rcd13ifvqhvg","pricing_plan_id":"cebpf4jnsgd1na2vs0mg"},{"bike_id":"85dae03a-e7a0-44dd-9917-66a39c7df6bd","system_id":"levelo_inurba_marseille","lat":43.21194,"lon":5.35068,"is_reserved":false,"is_disabled":false,"rental_uris":{"android":"levelo://app?vid=85dae03a-e7a0-44dd-9917-66a39c7df6bd","ios":"levelo://app?vid=85dae03a-e7a0-44dd-9917-66a39c7df6bd"},"vehicle_type_id":"4","last_reported":1747311622,"current_range_meters":7200,"station_id":"st_cvj6sg6p6f1abm77japg","pricing_plan_id":"cebpf4jnsgd1na2vs0mg"},{"bike_id":"32968e24-9b43-4742-b4c0-87d71af16766","system_id":"levelo_inurba_marseille","lat":43.29703,"lon":5.36613,"is_reserved":false,"is_disabled":false,"rental_uris":{"android":"levelo://app?vid=32968e24-9b43-4742-b4c0-87d71af16766","ios":"levelo://app?vid=32968e24-9b43-4742-b4c0-87d71af16766"},"vehicle_type_id":"4","last_reported":1747311622,"current_range_meters":8000,"station_id":"ce4bgn12rcd13ifvqbt0","pricing_plan_id":"cebpf4jnsgd1na2vs0mg"},{"bike_id":"fce194a4-28c3-4c96-91f4-0dbdb606a796","system_id":"levelo_inurba_marseille","lat":43.29577,"lon":5.36736,"is_reserved":false,"is_disabled":false,"rental_uris":{"android":"levelo://app?vid=fce194a4-28c3-4c96-91f4-0dbdb606a796","ios":"levelo://app?vid=fce194a4-28c3-4c96-91f4-0dbdb606a796"},"vehicle_type_id":"4","last_reported":1747311622,"current_range_meters":8000,"station_id":"ce4bgph2rcd13ifvqc2g","pricing_plan_id":"cebpf4jnsgd1na2vs0mg"},{"bike_id":"d98d1de8-ac41-4634-8246-2e5170862a9e","system_id":"levelo_inurba_marseille","lat":43.29006,"lon":5.3561,"is_reserved":false,"is_disabled":false,"rental_uris":{"android":"levelo://app?vid=d98d1de8-ac41-4634-8246-2e5170862a9e","ios":"levelo://app?vid=d98d1de8-ac41-4634-8246-2e5170862a9e"},"vehicle_type_id":"4","last_reported":1747311622,"current_range_meters":8000,"station_id":"ce4bhb92rcd13ifvqen0","pricing_plan_id":"cebpf4jnsgd1na2vs0mg"},{"bike_id":"65e7e765-7b46-4fa2-ab6b-4cf551bea003","system_id":"levelo_inurba_marseille","lat":43.28265,"lon":5.35075,"is_reserved":false,"is_disabled":false,"rental_uris":{"android":"levelo://app?vid=65e7e765-7b46-4fa2-ab6b-4cf551bea003","ios":"levelo://app?vid=65e7e765-7b46-4fa2-ab6b-4cf551bea003"},"vehicle_type_id":"4","last_reported":1747311622,"current_range_meters":8000,"station_id":"ce4bhbp2rcd13ifvqerg","pricing_plan_id":"cebpf4jnsgd1na2vs0mg"},{"bike_id":"d5ddcfd4-cc60-4a84-bc76-55f25a231b05","system_id":"levelo_inurba_marseille","lat":43.265558,"lon":5.37284,"is_reserved":false,"is_disabled":false,"rental_uris":{"android":"levelo://app?vid=d5ddcfd4-cc60-4a84-bc76-55f25a231b05","ios":"levelo://app?vid=d5ddcfd4-cc60-4a84-bc76-55f25a231b05"},"vehicle_type_id":"4","last_reported":1747311622,"current_range_meters":8000,"station_id":"ce4bhg12rcd13ifvqf70","pricing_plan_id":"cebpf4jnsgd1na2vs0mg"},{"bike_id":"094c4808-776d-4b66-af3a-cf29dfc94970","system_id":"levelo_inurba_marseille","lat":43.26552,"lon":5.37284,"is_reserved":false,"is_disabled":false,"rental_uris":{"android":"levelo://app?vid=094c4808-776d-4b66-af3a-cf29dfc94970","ios":"levelo://app?vid=094c4808-776d-4b66-af3a-cf29dfc94970"},"vehicle_type_id":"4","last_reported":1747311622,"current_range_meters":8000,"station_id":"ce4bhg12rcd13ifvqf70","pricing_plan_id":"cebpf4jnsgd1na2vs0mg"},{"bike_id":"434a812c-1fba-42ba-9078-b039d5d12d98","system_id":"levelo_inurba_marseille","lat":43.26213,"lon":5.37443,"is_reserved":false,"is_disabled":false,"rental_uris":{"android":"levelo://app?vid=434a812c-1fba-42ba-9078-b039d5d12d98","ios":"levelo://app?vid=434a812c-1fba-42ba-9078-b039d5d12d98"},"vehicle_type_id":"4","last_reported":1747311622,"current_range_meters":8000,"station_id":"ce4bhgp2rcd13ifvqfc0","pricing_plan_id":"cebpf4jnsgd1na2vs0mg"},{"bike_id":"35783b03-67b6-4df8-98b6-bec94665b3c9","system_id":"levelo_inurba_marseille","lat":43.23149,"lon":5.43702,"is_reserved":false,"is_disabled":false,"rental_uris":{"android":"levelo://app?vid=35783b03-67b6-4df8-98b6-bec94665b3c9","ios":"levelo://app?vid=35783b03-67b6-4df8-98b6-bec94665b3c9"},"vehicle_type_id":"4","last_reported":1747311622,"current_range_meters":8000,"station_id":"ce4bhmp2rcd13ifvqgog","pricing_plan_id":"cebpf4jnsgd1na2vs0mg"},{"bike_id":"6819c3ed-f4b1-45a0-bf21-5edcaf5092c3","system_id":"levelo_inurba_marseille","lat":43.24067,"lon":5.3776,"is_reserved":false,"is_disabled":false,"rental_uris":{"android":"levelo://app?vid=6819c3ed-f4b1-45a0-bf21-5edcaf5092c3","ios":"levelo://app?vid=6819c3ed-f4b1-45a0-bf21-5edcaf5092c3"},"vehicle_type_id":"4","last_reported":1747311622,"current_range_meters":8000,"station_id":"ce4bhnp2rcd13ifvqgvg","pricing_plan_id":"cebpf4jnsgd1na2vs0mg"},{"bike_id":"e3faef6f-635a-4b6b-b2b3-c0b918604df6","system_id":"levelo_inurba_marseille","lat":43.29915,"lon":5.43637,"is_reserved":false,"is_disabled":false,"rental_uris":{"android":"levelo://app?vid=e3faef6f-635a-4b6b-b2b3-c0b918604df6","ios":"levelo://app?vid=e3faef6f-635a-4b6b-b2b3-c0b918604df6"},"vehicle_type_id":"4","last_reported":1747311622,"current_range_meters":8000,"station_id":"ce4bhpp2rcd13ifvqhfg","pricing_plan_id":"cebpf4jnsgd1na2vs0mg"},{"bike_id":"1aaeeda5-632d-43d2-880f-93a92a13f2b9","system_id":"levelo_inurba_marseille","lat":43.262268,"lon":5.404547,"is_reserved":false,"is_disabled":false,"rental_uris":{"android":"levelo://app?vid=1aaeeda5-632d-43d2-880f-93a92a13f2b9","ios":"levelo://app?vid=1aaeeda5-632d-43d2-880f-93a92a13f2b9"},"vehicle_type_id":"4","last_reported":1747311622,"current_range_meters":8800,"station_id":"","pricing_plan_id":"cebpf4jnsgd1na2vs0mg"},{"bike_id":"6d9e1aa2-4cff-410c-bd6e-28f028d1e629","system_id":"levelo_inurba_marseille","lat":43.31072,"lon":5.38355,"is_reserved":false,"is_disabled":false,"rental_uris":{"android":"levelo://app?vid=6d9e1aa2-4cff-410c-bd6e-28f028d1e629","ios":"levelo://app?vid=6d9e1aa2-4cff-410c-bd6e-28f028d1e629"},"vehicle_type_id":"4","last_reported":1747311622,"current_range_meters":8800,"station_id":"ce4bgv92rcd13ifvqcr0","pricing_plan_id":"cebpf4jnsgd1na2vs0mg"},{"bike_id":"4b5e50ff-d602-4581-8396-7c2523c5f562","system_id":"levelo_inurba_marseille","lat":43.3043,"lon":5.39745,"is_reserved":false,"is_disabled":false,"rental_uris":{"android":"levelo://app?vid=4b5e50ff-d602-4581-8396-7c2523c5f562","ios":"levelo://app?vid=4b5e50ff-d602-4581-8396-7c2523c5f562"},"vehicle_type_id":"4","last_reported":1747311622,"current_range_meters":8800,"station_id":"ce4bh092rcd13ifvqd20","pricing_plan_id":"cebpf4jnsgd1na2vs0mg"},{"bike_id":"305f735f-cc00-4357-beef-dd2790b9e6fb","system_id":"levelo_inurba_marseille","lat":43.29268,"lon":5.36844,"is_reserved":false,"is_disabled":false,"rental_uris":{"android":"levelo://app?vid=305f735f-cc00-4357-beef-dd2790b9e6fb","ios":"levelo://app?vid=305f735f-cc00-4357-beef-dd2790b9e6fb"},"vehicle_type_id":"4","last_reported":1747311622,"current_range_meters":8800,"station_id":"ce4bhbp2rcd13ifvqesg","pricing_plan_id":"cebpf4jnsgd1na2vs0mg"},{"bike_id":"73174a1e-b779-4402-b8c8-f72bd450c25f","system_id":"levelo_inurba_marseille","lat":43.26557,"lon":5.37284,"is_reserved":false,"is_disabled":false,"rental_uris":{"android":"levelo://app?vid=73174a1e-b779-4402-b8c8-f72bd450c25f","ios":"levelo://app?vid=73174a1e-b779-4402-b8c8-f72bd450c25f"},"vehicle_type_id":"4","last_reported":1747311622,"current_range_meters":8800,"station_id":"ce4bhg12rcd13ifvqf70","pricing_plan_id":"cebpf4jnsgd1na2vs0mg"},{"bike_id":"f141b136-aadf-4a94-923e-4b198f8dbce8","system_id":"levelo_inurba_marseille","lat":43.26228,"lon":5.40452,"is_reserved":false,"is_disabled":false,"rental_uris":{"android":"levelo://app?vid=f141b136-aadf-4a94-923e-4b198f8dbce8","ios":"levelo://app?vid=f141b136-aadf-4a94-923e-4b198f8dbce8"},"vehicle_type_id":"4","last_reported":1747311622,"current_range_meters":8800,"station_id":"ce4bhmh2rcd13ifvqgmg","pricing_plan_id":"cebpf4jnsgd1na2vs0mg"},{"bike_id":"36b024cd-150e-45ef-a8b1-58e13d95fed4","system_id":"levelo_inurba_marseille","lat":43.29704,"lon":5.36613,"is_reserved":false,"is_disabled":false,"rental_uris":{"android":"levelo://app?vid=36b024cd-150e-45ef-a8b1-58e13d95fed4","ios":"levelo://app?vid=36b024cd-150e-45ef-a8b1-58e13d95fed4"},"vehicle_type_id":"4","last_reported":1747311622,"current_range_meters":9200,"station_id":"ce4bgn12rcd13ifvqbt0","pricing_plan_id":"cebpf4jnsgd1na2vs0mg"},{"bike_id":"c68022f0-7be7-4dde-9a51-7a59aed68b2d","system_id":"levelo_inurba_marseille","lat":43.2314,"lon":5.43722,"is_reserved":false,"is_disabled":false,"rental_uris":{"android":"levelo://app?vid=c68022f0-7be7-4dde-9a51-7a59aed68b2d","ios":"levelo://app?vid=c68022f0-7be7-4dde-9a51-7a59aed68b2d"},"vehicle_type_id":"4","last_reported":1747311622,"current_range_meters":9200,"station_id":"ce4bhmp2rcd13ifvqgog","pricing_plan_id":"cebpf4jnsgd1na2vs0mg"},{"bike_id":"e53c7f18-60cf-4219-9ac8-4254c2f9fe68","system_id":"levelo_inurba_marseille","lat":43.31236,"lon":5.36833,"is_reserved":false,"is_disabled":false,"rental_uris":{"android":"levelo://app?vid=e53c7f18-60cf-4219-9ac8-4254c2f9fe68","ios":"levelo://app?vid=e53c7f18-60cf-4219-9ac8-4254c2f9fe68"},"vehicle_type_id":"4","last_reported":1747311622,"current_range_meters":9600,"station_id":"ce4bgl92rcd13ifvqbq0","pricing_plan_id":"cebpf4jnsgd1na2vs0mg"},{"bike_id":"0c4d88aa-d524-4ae2-bf44-37a32f7f889d","system_id":"levelo_inurba_marseille","lat":43.28613,"lon":5.35103,"is_reserved":false,"is_disabled":false,"rental_uris":{"android":"levelo://app?vid=0c4d88aa-d524-4ae2-bf44-37a32f7f889d","ios":"levelo://app?vid=0c4d88aa-d524-4ae2-bf44-37a32f7f889d"},"vehicle_type_id":"4","last_reported":1747311622,"current_range_meters":9600,"station_id":"ce4bhch2rcd13ifvqeug","pricing_plan_id":"cebpf4jnsgd1na2vs0mg"},{"bike_id":"d3ebe11a-3608-4660-9ab8-b82fcfc401e1","system_id":"levelo_inurba_marseille","lat":43.25724,"lon":5.4111,"is_reserved":false,"is_disabled":false,"rental_uris":{"android":"levelo://app?vid=d3ebe11a-3608-4660-9ab8-b82fcfc401e1","ios":"levelo://app?vid=d3ebe11a-3608-4660-9ab8-b82fcfc401e1"},"vehicle_type_id":"4","last_reported":1747311622,"current_range_meters":9600,"station_id":"ce4bhkp2rcd13ifvqgd0","pricing_plan_id":"cebpf4jnsgd1na2vs0mg"},{"bike_id":"17d57f58-ffb0-4d77-bbe5-7f462887ac74","system_id":"levelo_inurba_marseille","lat":43.24157,"lon":5.39704,"is_reserved":false,"is_disabled":false,"rental_uris":{"android":"levelo://app?vid=17d57f58-ffb0-4d77-bbe5-7f462887ac74","ios":"levelo://app?vid=17d57f58-ffb0-4d77-bbe5-7f462887ac74"},"vehicle_type_id":"4","last_reported":1747311622,"current_range_meters":9600,"station_id":"ce4bhn12rcd13ifvqgpg","pricing_plan_id":"cebpf4jnsgd1na2vs0mg"},{"bike_id":"7cad8bbf-afe9-4767-8543-3e633fd367b9","system_id":"levelo_inurba_marseille","lat":43.27813,"lon":5.40706,"is_reserved":false,"is_disabled":false,"rental_uris":{"android":"levelo://app?vid=7cad8bbf-afe9-4767-8543-3e633fd367b9","ios":"levelo://app?vid=7cad8bbf-afe9-4767-8543-3e633fd367b9"},"vehicle_type_id":"4","last_reported":1747311622,"current_range_meters":9600,"station_id":"ce4bhnh2rcd13ifvqgtg","pricing_plan_id":"cebpf4jnsgd1na2vs0mg"},{"bike_id":"fdc5feaa-667f-4558-92a9-a87cfe586bf8","system_id":"levelo_inurba_marseille","lat":43.21752,"lon":5.34603,"is_reserved":false,"is_disabled":false,"rental_uris":{"android":"levelo://app?vid=fdc5feaa-667f-4558-92a9-a87cfe586bf8","ios":"levelo://app?vid=fdc5feaa-667f-4558-92a9-a87cfe586bf8"},"vehicle_type_id":"4","last_reported":1747311622,"current_range_meters":9600,"station_id":"st_cvj6r9ubvosntc0bgbag","pricing_plan_id":"cebpf4jnsgd1na2vs0mg"},{"bike_id":"62f46a39-1962-4377-bbc8-458dc2ee22ed","system_id":"levelo_inurba_marseille","lat":43.26245,"lon":5.42115,"is_reserved":false,"is_disabled":false,"rental_uris":{"android":"levelo://app?vid=62f46a39-1962-4377-bbc8-458dc2ee22ed","ios":"levelo://app?vid=62f46a39-1962-4377-bbc8-458dc2ee22ed"},"vehicle_type_id":"4","last_reported":1747311622,"current_range_meters":10000,"station_id":"","pricing_plan_id":"cebpf4jnsgd1na2vs0mg"},{"bike_id":"fd0ccbdf-600a-4862-8766-1143f88e0f6b","system_id":"levelo_inurba_marseille","lat":43.28894,"lon":5.36632,"is_reserved":false,"is_disabled":false,"rental_uris":{"android":"levelo://app?vid=fd0ccbdf-600a-4862-8766-1143f88e0f6b","ios":"levelo://app?vid=fd0ccbdf-600a-4862-8766-1143f88e0f6b"},"vehicle_type_id":"4","last_reported":1747311622,"current_range_meters":10000,"station_id":"ce4bhap2rcd13ifvqek0","pricing_plan_id":"cebpf4jnsgd1na2vs0mg"},{"bike_id":"f0bcbfb9-b4be-4f7b-a937-8e9ef267f89f","system_id":"levelo_inurba_marseille","lat":43.27494,"lon":5.42448,"is_reserved":false,"is_disabled":false,"rental_uris":{"android":"levelo://app?vid=f0bcbfb9-b4be-4f7b-a937-8e9ef267f89f","ios":"levelo://app?vid=f0bcbfb9-b4be-4f7b-a937-8e9ef267f89f"},"vehicle_type_id":"4","last_reported":1747311622,"current_range_meters":10000,"station_id":"ce4bhn92rcd13ifvqgrg","pricing_plan_id":"cebpf4jnsgd1na2vs0mg"},{"bike_id":"55697a48-9aaa-468a-9813-6afc6f45d640","system_id":"levelo_inurba_marseille","lat":43.27621,"lon":5.36109,"is_reserved":false,"is_disabled":false,"rental_uris":{"android":"levelo://app?vid=55697a48-9aaa-468a-9813-6afc6f45d640","ios":"levelo://app?vid=55697a48-9aaa-468a-9813-6afc6f45d640"},"vehicle_type_id":"4","last_reported":1747311622,"current_range_meters":10800,"station_id":"ce4bgj92rcd13ifvqbe0","pricing_plan_id":"cebpf4jnsgd1na2vs0mg"},{"bike_id":"44f8de94-69ad-4727-b41f-494cb8bac861","system_id":"levelo_inurba_marseille","lat":43.30276,"lon":5.37706,"is_reserved":false,"is_disabled":false,"rental_uris":{"android":"levelo://app?vid=44f8de94-69ad-4727-b41f-494cb8bac861","ios":"levelo://app?vid=44f8de94-69ad-4727-b41f-494cb8bac861"},"vehicle_type_id":"4","last_reported":1747311622,"current_range_meters":10800,"station_id":"ce4bguh2rcd13ifvqcj0","pricing_plan_id":"cebpf4jnsgd1na2vs0mg"},{"bike_id":"8c7308bf-84fd-4edb-9b86-07fbeaf5e51b","system_id":"levelo_inurba_marseille","lat":43.31728,"lon":5.42411,"is_reserved":false,"is_disabled":false,"rental_uris":{"android":"levelo://app?vid=8c7308bf-84fd-4edb-9b86-07fbeaf5e51b","ios":"levelo://app?vid=8c7308bf-84fd-4edb-9b86-07fbeaf5e51b"},"vehicle_type_id":"4","last_reported":1747311622,"current_range_meters":10800,"station_id":"ce4bhp92rcd13ifvqhbg","pricing_plan_id":"cebpf4jnsgd1na2vs0mg"},{"bike_id":"b6fbbbba-77da-407c-a49e-81ed8effa4d5","system_id":"levelo_inurba_marseille","lat":43.30465,"lon":5.37898,"is_reserved":false,"is_disabled":false,"rental_uris":{"android":"levelo://app?vid=b6fbbbba-77da-407c-a49e-81ed8effa4d5","ios":"levelo://app?vid=b6fbbbba-77da-407c-a49e-81ed8effa4d5"},"vehicle_type_id":"4","last_reported":1747311622,"current_range_meters":11200,"station_id":"ce4bgup2rcd13ifvqcn0","pricing_plan_id":"cebpf4jnsgd1na2vs0mg"},{"bike_id":"21b9c04f-6015-4656-8c2d-a4cf7b873d9f","system_id":"levelo_inurba_marseille","lat":43.282613,"lon":5.350717,"is_reserved":false,"is_disabled":false,"rental_uris":{"android":"levelo://app?vid=21b9c04f-6015-4656-8c2d-a4cf7b873d9f","ios":"levelo://app?vid=21b9c04f-6015-4656-8c2d-a4cf7b873d9f"},"vehicle_type_id":"4","last_reported":1747311622,"current_range_meters":11200,"station_id":"ce4bhbp2rcd13ifvqerg","pricing_plan_id":"cebpf4jnsgd1na2vs0mg"},{"bike_id":"bee35244-ec95-4b3d-8fae-96abe913294a","system_id":"levelo_inurba_marseille","lat":43.28617,"lon":5.35096,"is_reserved":false,"is_disabled":false,"rental_uris":{"android":"levelo://app?vid=bee35244-ec95-4b3d-8fae-96abe913294a","ios":"levelo://app?vid=bee35244-ec95-4b3d-8fae-96abe913294a"},"vehicle_type_id":"4","last_reported":1747311622,"current_range_meters":11200,"station_id":"ce4bhch2rcd13ifvqeug","pricing_plan_id":"cebpf4jnsgd1na2vs0mg"},{"bike_id":"bb4273ca-64d7-42a1-8d28-46e3c1864972","system_id":"levelo_inurba_marseille","lat":43.33593,"lon":5.41038,"is_reserved":false,"is_disabled":false,"rental_uris":{"android":"levelo://app?vid=bb4273ca-64d7-42a1-8d28-46e3c1864972","ios":"levelo://app?vid=bb4273ca-64d7-42a1-8d28-46e3c1864972"},"vehicle_type_id":"4","last_reported":1747311622,"current_range_meters":11200,"station_id":"ce4bhqh2rcd13ifvqhmg","pricing_plan_id":"cebpf4jnsgd1na2vs0mg"},{"bike_id":"009875bc-4fd5-4b3e-ae40-0a56471efd32","system_id":"levelo_inurba_marseille","lat":43.2967,"lon":5.37287,"is_reserved":false,"is_disabled":false,"rental_uris":{"android":"levelo://app?vid=009875bc-4fd5-4b3e-ae40-0a56471efd32","ios":"levelo://app?vid=009875bc-4fd5-4b3e-ae40-0a56471efd32"},"vehicle_type_id":"4","last_reported":1747311622,"current_range_meters":11600,"station_id":"ce4bgk12rcd13ifvqbj0","pricing_plan_id":"cebpf4jnsgd1na2vs0mg"},{"bike_id":"8fe3432f-01ba-47a9-a8c2-8ee6ac7aa499","system_id":"levelo_inurba_marseille","lat":43.30909,"lon":5.36839,"is_reserved":false,"is_disabled":false,"rental_uris":{"android":"levelo://app?vid=8fe3432f-01ba-47a9-a8c2-8ee6ac7aa499","ios":"levelo://app?vid=8fe3432f-01ba-47a9-a8c2-8ee6ac7aa499"},"vehicle_type_id":"4","last_reported":1747311622,"current_range_meters":11600,"station_id":"ce4bgn92rcd13ifvqbvg","pricing_plan_id":"cebpf4jnsgd1na2vs0mg"},{"bike_id":"cc377332-c824-4cf8-bc9d-97d1852f3692","system_id":"levelo_inurba_marseille","lat":43.3168,"lon":5.40491,"is_reserved":false,"is_disabled":false,"rental_uris":{"android":"levelo://app?vid=cc377332-c824-4cf8-bc9d-97d1852f3692","ios":"levelo://app?vid=cc377332-c824-4cf8-bc9d-97d1852f3692"},"vehicle_type_id":"4","last_reported":1747311622,"current_range_meters":11600,"station_id":"ce4bh012rcd13ifvqd00","pricing_plan_id":"cebpf4jnsgd1na2vs0mg"},{"bike_id":"06793973-68f4-45d8-ae7c-00877361d651","system_id":"levelo_inurba_marseille","lat":43.29042,"lon":5.37567,"is_reserved":false,"is_disabled":false,"rental_uris":{"android":"levelo://app?vid=06793973-68f4-45d8-ae7c-00877361d651","ios":"levelo://app?vid=06793973-68f4-45d8-ae7c-00877361d651"},"vehicle_type_id":"4","last_reported":1747311622,"current_range_meters":11600,"station_id":"ce4bh692rcd13ifvqe90","pricing_plan_id":"cebpf4jnsgd1na2vs0mg"},{"bike_id":"bbfd3c35-ddaa-44e6-9cb1-c430263d73d9","system_id":"levelo_inurba_marseille","lat":43.26551,"lon":5.37282,"is_reserved":false,"is_disabled":false,"rental_uris":{"android":"levelo://app?vid=bbfd3c35-ddaa-44e6-9cb1-c430263d73d9","ios":"levelo://app?vid=bbfd3c35-ddaa-44e6-9cb1-c430263d73d9"},"vehicle_type_id":"4","last_reported":1747311622,"current_range_meters":11600,"station_id":"ce4bhg12rcd13ifvqf70","pricing_plan_id":"cebpf4jnsgd1na2vs0mg"},{"bike_id":"a6083d34-e66a-4824-b164-ef0a4090c517","system_id":"levelo_inurba_marseille","lat":43.26555,"lon":5.37284,"is_reserved":false,"is_disabled":false,"rental_uris":{"android":"levelo://app?vid=a6083d34-e66a-4824-b164-ef0a4090c517","ios":"levelo://app?vid=a6083d34-e66a-4824-b164-ef0a4090c517"},"vehicle_type_id":"4","last_reported":1747311622,"current_range_meters":11600,"station_id":"ce4bhg12rcd13ifvqf70","pricing_plan_id":"cebpf4jnsgd1na2vs0mg"},{"bike_id":"c9d7b39b-134a-4e8e-b1fe-822242ca147f","system_id":"levelo_inurba_marseille","lat":43.24387,"lon":5.37058,"is_reserved":false,"is_disabled":false,"rental_uris":{"android":"levelo://app?vid=c9d7b39b-134a-4e8e-b1fe-822242ca147f","ios":"levelo://app?vid=c9d7b39b-134a-4e8e-b1fe-822242ca147f"},"vehicle_type_id":"4","last_reported":1747311622,"current_range_meters":11600,"station_id":"ce4bhhh2rcd13ifvqfk0","pricing_plan_id":"cebpf4jnsgd1na2vs0mg"},{"bike_id":"cb8b7059-8a42-4571-9d84-7a35fb676251","system_id":"levelo_inurba_marseille","lat":43.262163,"lon":5.404616,"is_reserved":false,"is_disabled":false,"rental_uris":{"android":"levelo://app?vid=cb8b7059-8a42-4571-9d84-7a35fb676251","ios":"levelo://app?vid=cb8b7059-8a42-4571-9d84-7a35fb676251"},"vehicle_type_id":"4","last_reported":1747311622,"current_range_meters":11600,"station_id":"ce4bhmh2rcd13ifvqgmg","pricing_plan_id":"cebpf4jnsgd1na2vs0mg"},{"bike_id":"b3d5342e-5515-48d6-860b-2c6a82fb25ff","system_id":"levelo_inurba_marseille","lat":43.27495,"lon":5.4245,"is_reserved":false,"is_disabled":false,"rental_uris":{"android":"levelo://app?vid=b3d5342e-5515-48d6-860b-2c6a82fb25ff","ios":"levelo://app?vid=b3d5342e-5515-48d6-860b-2c6a82fb25ff"},"vehicle_type_id":"4","last_reported":1747311622,"current_range_meters":11600,"station_id":"ce4bhn92rcd13ifvqgrg","pricing_plan_id":"cebpf4jnsgd1na2vs0mg"},{"bike_id":"2efed16c-b21a-4d03-9a1c-09ac07f71dd6","system_id":"levelo_inurba_marseille","lat":43.21185,"lon":5.35071,"is_reserved":false,"is_disabled":false,"rental_uris":{"android":"levelo://app?vid=2efed16c-b21a-4d03-9a1c-09ac07f71dd6","ios":"levelo://app?vid=2efed16c-b21a-4d03-9a1c-09ac07f71dd6"},"vehicle_type_id":"4","last_reported":1747311622,"current_range_meters":11600,"station_id":"st_cvj6sg6p6f1abm77japg","pricing_plan_id":"cebpf4jnsgd1na2vs0mg"},{"bike_id":"cd5a9068-1827-4a1f-b4db-c94d2fd46810","system_id":"levelo_inurba_marseille","lat":43.30299,"lon":5.3921,"is_reserved":false,"is_disabled":false,"rental_uris":{"android":"levelo://app?vid=cd5a9068-1827-4a1f-b4db-c94d2fd46810","ios":"levelo://app?vid=cd5a9068-1827-4a1f-b4db-c94d2fd46810"},"vehicle_type_id":"4","last_reported":1747311622,"current_range_meters":12000,"station_id":"ce4bgkh2rcd13ifvqbk0","pricing_plan_id":"cebpf4jnsgd1na2vs0mg"},{"bike_id":"f7b25ce1-a89d-4c0c-8bc4-c0f867e52f74","system_id":"levelo_inurba_marseille","lat":43.265579,"lon":5.372826,"is_reserved":false,"is_disabled":false,"rental_uris":{"android":"levelo://app?vid=f7b25ce1-a89d-4c0c-8bc4-c0f867e52f74","ios":"levelo://app?vid=f7b25ce1-a89d-4c0c-8bc4-c0f867e52f74"},"vehicle_type_id":"4","last_reported":1747311622,"current_range_meters":12000,"station_id":"ce4bhg12rcd13ifvqf70","pricing_plan_id":"cebpf4jnsgd1na2vs0mg"},{"bike_id":"57d11794-83e4-4d3f-918e-67334f06abb8","system_id":"levelo_inurba_marseille","lat":43.32536,"lon":5.41424,"is_reserved":false,"is_disabled":false,"rental_uris":{"android":"levelo://app?vid=57d11794-83e4-4d3f-918e-67334f06abb8","ios":"levelo://app?vid=57d11794-83e4-4d3f-918e-67334f06abb8"},"vehicle_type_id":"4","last_reported":1747311622,"current_range_meters":12000,"station_id":"ce4bhq12rcd13ifvqhhg","pricing_plan_id":"cebpf4jnsgd1na2vs0mg"},{"bike_id":"c6189e18-759c-4af5-af82-4c210291bdab","system_id":"levelo_inurba_marseille","lat":43.32107,"lon":5.36762,"is_reserved":false,"is_disabled":false,"rental_uris":{"android":"levelo://app?vid=c6189e18-759c-4af5-af82-4c210291bdab","ios":"levelo://app?vid=c6189e18-759c-4af5-af82-4c210291bdab"},"vehicle_type_id":"4","last_reported":1747311622,"current_range_meters":12000,"station_id":"ce4bhrh2rcd13ifvqhug","pricing_plan_id":"cebpf4jnsgd1na2vs0mg"},{"bike_id":"1750c97e-7373-408c-93f4-43676dc44521","system_id":"levelo_inurba_marseille","lat":43.31351,"lon":5.36706,"is_reserved":false,"is_disabled":false,"rental_uris":{"android":"levelo://app?vid=1750c97e-7373-408c-93f4-43676dc44521","ios":"levelo://app?vid=1750c97e-7373-408c-93f4-43676dc44521"},"vehicle_type_id":"4","last_reported":1747311622,"current_range_meters":12400,"station_id":"ce4bgr92rcd13ifvqc6g","pricing_plan_id":"cebpf4jnsgd1na2vs0mg"},{"bike_id":"3f3bfa83-dff4-4796-8474-87eef7a2e604","system_id":"levelo_inurba_marseille","lat":43.25084,"lon":5.39524,"is_reserved":false,"is_disabled":false,"rental_uris":{"android":"levelo://app?vid=3f3bfa83-dff4-4796-8474-87eef7a2e604","ios":"levelo://app?vid=3f3bfa83-dff4-4796-8474-87eef7a2e604"},"vehicle_type_id":"4","last_reported":1747311622,"current_range_meters":12400,"station_id":"ce4bhm12rcd13ifvqgkg","pricing_plan_id":"cebpf4jnsgd1na2vs0mg"},{"bike_id":"94425245-09df-4108-9a30-610dbcaf2585","system_id":"levelo_inurba_marseille","lat":43.317229,"lon":5.423934,"is_reserved":false,"is_disabled":false,"rental_uris":{"android":"levelo://app?vid=94425245-09df-4108-9a30-610dbcaf2585","ios":"levelo://app?vid=94425245-09df-4108-9a30-610dbcaf2585"},"vehicle_type_id":"4","last_reported":1747311622,"current_range_meters":12400,"station_id":"ce4bhp92rcd13ifvqhbg","pricing_plan_id":"cebpf4jnsgd1na2vs0mg"},{"bike_id":"1ca372b2-144c-48a2-ac1f-4e82f694691e","system_id":"levelo_inurba_marseille","lat":43.28618,"lon":5.35098,"is_reserved":false,"is_disabled":false,"rental_uris":{"android":"levelo://app?vid=1ca372b2-144c-48a2-ac1f-4e82f694691e","ios":"levelo://app?vid=1ca372b2-144c-48a2-ac1f-4e82f694691e"},"vehicle_type_id":"4","last_reported":1747311622,"current_range_meters":12800,"station_id":"ce4bhch2rcd13ifvqeug","pricing_plan_id":"cebpf4jnsgd1na2vs0mg"},{"bike_id":"80cdd81e-e144-44bc-a3f2-ecffa6ece368","system_id":"levelo_inurba_marseille","lat":43.26032,"lon":5.37547,"is_reserved":false,"is_disabled":false,"rental_uris":{"android":"levelo://app?vid=80cdd81e-e144-44bc-a3f2-ecffa6ece368","ios":"levelo://app?vid=80cdd81e-e144-44bc-a3f2-ecffa6ece368"},"vehicle_type_id":"4","last_reported":1747311622,"current_range_meters":12800,"station_id":"ce4bhgh2rcd13ifvqfa0","pricing_plan_id":"cebpf4jnsgd1na2vs0mg"},{"bike_id":"8add6c6a-07e5-4ed5-a3ff-f03ff2661930","system_id":"levelo_inurba_marseille","lat":43.29555,"lon":5.422862,"is_reserved":false,"is_disabled":false,"rental_uris":{"android":"levelo://app?vid=8add6c6a-07e5-4ed5-a3ff-f03ff2661930","ios":"levelo://app?vid=8add6c6a-07e5-4ed5-a3ff-f03ff2661930"},"vehicle_type_id":"4","last_reported":1747311622,"current_range_meters":12800,"station_id":"ce4bhph2rcd13ifvqhdg","pricing_plan_id":"cebpf4jnsgd1na2vs0mg"},{"bike_id":"dc643886-ab96-41da-96d1-bd674f19bfdb","system_id":"levelo_inurba_marseille","lat":43.28618,"lon":5.35099,"is_reserved":false,"is_disabled":false,"rental_uris":{"android":"levelo://app?vid=dc643886-ab96-41da-96d1-bd674f19bfdb","ios":"levelo://app?vid=dc643886-ab96-41da-96d1-bd674f19bfdb"},"vehicle_type_id":"4","last_reported":1747311622,"current_range_meters":13600,"station_id":"ce4bhch2rcd13ifvqeug","pricing_plan_id":"cebpf4jnsgd1na2vs0mg"},{"bike_id":"d66f73cc-761e-4760-9aff-d70c1801349e","system_id":"levelo_inurba_marseille","lat":43.25717,"lon":5.41111,"is_reserved":false,"is_disabled":false,"rental_uris":{"android":"levelo://app?vid=d66f73cc-761e-4760-9aff-d70c1801349e","ios":"levelo://app?vid=d66f73cc-761e-4760-9aff-d70c1801349e"},"vehicle_type_id":"4","last_reported":1747311622,"current_range_meters":13600,"station_id":"ce4bhkp2rcd13ifvqgd0","pricing_plan_id":"cebpf4jnsgd1na2vs0mg"},{"bike_id":"a98c3fa8-328d-435e-9be5-c8def3e5711c","system_id":"levelo_inurba_marseille","lat":43.31714,"lon":5.43707,"is_reserved":false,"is_disabled":false,"rental_uris":{"android":"levelo://app?vid=a98c3fa8-328d-435e-9be5-c8def3e5711c","ios":"levelo://app?vid=a98c3fa8-328d-435e-9be5-c8def3e5711c"},"vehicle_type_id":"4","last_reported":1747311622,"current_range_meters":13600,"station_id":"ce4bhp92rcd13ifvqhcg","pricing_plan_id":"cebpf4jnsgd1na2vs0mg"},{"bike_id":"6e4a2201-51d8-4726-a5b9-1d8f7f49a126","system_id":"levelo_inurba_marseille","lat":43.3079,"lon":5.43524,"is_reserved":false,"is_disabled":false,"rental_uris":{"android":"levelo://app?vid=6e4a2201-51d8-4726-a5b9-1d8f7f49a126","ios":"levelo://app?vid=6e4a2201-51d8-4726-a5b9-1d8f7f49a126"},"vehicle_type_id":"4","last_reported":1747311622,"current_range_meters":13600,"station_id":"ce4bhph2rcd13ifvqheg","pricing_plan_id":"cebpf4jnsgd1na2vs0mg"},{"bike_id":"9c9c9f75-2494-4177-be27-3875bd15dbdd","system_id":"levelo_inurba_marseille","lat":43.21199,"lon":5.35072,"is_reserved":false,"is_disabled":false,"rental_uris":{"android":"levelo://app?vid=9c9c9f75-2494-4177-be27-3875bd15dbdd","ios":"levelo://app?vid=9c9c9f75-2494-4177-be27-3875bd15dbdd"},"vehicle_type_id":"4","last_reported":1747311622,"current_range_meters":13600,"station_id":"st_cvj6sg6p6f1abm77japg","pricing_plan_id":"cebpf4jnsgd1na2vs0mg"},{"bike_id":"e52494ed-992f-4886-99d5-0a13de980004","system_id":"levelo_inurba_marseille","lat":43.28413,"lon":5.34984,"is_reserved":false,"is_disabled":false,"rental_uris":{"android":"levelo://app?vid=e52494ed-992f-4886-99d5-0a13de980004","ios":"levelo://app?vid=e52494ed-992f-4886-99d5-0a13de980004"},"vehicle_type_id":"4","last_reported":1747311622,"current_range_meters":14000,"station_id":"ce4bhbh2rcd13ifvqepg","pricing_plan_id":"cebpf4jnsgd1na2vs0mg"},{"bike_id":"24db4cee-c84f-4675-9250-c8dbae4d875d","system_id":"levelo_inurba_marseille","lat":43.27808,"lon":5.40708,"is_reserved":false,"is_disabled":false,"rental_uris":{"android":"levelo://app?vid=24db4cee-c84f-4675-9250-c8dbae4d875d","ios":"levelo://app?vid=24db4cee-c84f-4675-9250-c8dbae4d875d"},"vehicle_type_id":"4","last_reported":1747311622,"current_range_meters":14000,"station_id":"ce4bhnh2rcd13ifvqgtg","pricing_plan_id":"cebpf4jnsgd1na2vs0mg"},{"bike_id":"c90a6867-790c-429b-aae5-8e1a164eb994","system_id":"levelo_inurba_marseille","lat":43.2407,"lon":5.37763,"is_reserved":false,"is_disabled":false,"rental_uris":{"android":"levelo://app?vid=c90a6867-790c-429b-aae5-8e1a164eb994","ios":"levelo://app?vid=c90a6867-790c-429b-aae5-8e1a164eb994"},"vehicle_type_id":"4","last_reported":1747311622,"current_range_meters":14000,"station_id":"ce4bhnp2rcd13ifvqgvg","pricing_plan_id":"cebpf4jnsgd1na2vs0mg"},{"bike_id":"00a55c41-0aeb-4205-9a5f-0a561c8e57cd","system_id":"levelo_inurba_marseille","lat":43.24067,"lon":5.37762,"is_reserved":false,"is_disabled":false,"rental_uris":{"android":"levelo://app?vid=00a55c41-0aeb-4205-9a5f-0a561c8e57cd","ios":"levelo://app?vid=00a55c41-0aeb-4205-9a5f-0a561c8e57cd"},"vehicle_type_id":"4","last_reported":1747311622,"current_range_meters":14400,"station_id":"ce4bhnp2rcd13ifvqgvg","pricing_plan_id":"cebpf4jnsgd1na2vs0mg"},{"bike_id":"a949b9e7-5481-4332-a4e1-0b6f34f3838d","system_id":"levelo_inurba_marseille","lat":43.28598,"lon":5.37068,"is_reserved":false,"is_disabled":false,"rental_uris":{"android":"levelo://app?vid=a949b9e7-5481-4332-a4e1-0b6f34f3838d","ios":"levelo://app?vid=a949b9e7-5481-4332-a4e1-0b6f34f3838d"},"vehicle_type_id":"4","last_reported":1747311622,"current_range_meters":14400,"station_id":"ce4bht12rcd13ifvqi60","pricing_plan_id":"cebpf4jnsgd1na2vs0mg"},{"bike_id":"e463b158-3d2d-4bec-a614-7e2edeeaf526","system_id":"levelo_inurba_marseille","lat":43.28941,"lon":5.39625,"is_reserved":false,"is_disabled":false,"rental_uris":{"android":"levelo://app?vid=e463b158-3d2d-4bec-a614-7e2edeeaf526","ios":"levelo://app?vid=e463b158-3d2d-4bec-a614-7e2edeeaf526"},"vehicle_type_id":"4","last_reported":1747311622,"current_range_meters":14800,"station_id":"ce4bh3h2rcd13ifvqdn0","pricing_plan_id":"cebpf4jnsgd1na2vs0mg"},{"bike_id":"b9ad0511-ea6e-4457-8aa5-0c8216146b67","system_id":"levelo_inurba_marseille","lat":43.28478,"lon":5.38424,"is_reserved":false,"is_disabled":false,"rental_uris":{"android":"levelo://app?vid=b9ad0511-ea6e-4457-8aa5-0c8216146b67","ios":"levelo://app?vid=b9ad0511-ea6e-4457-8aa5-0c8216146b67"},"vehicle_type_id":"4","last_reported":1747311622,"current_range_meters":14800,"station_id":"ce4bh512rcd13ifvqe3g","pricing_plan_id":"cebpf4jnsgd1na2vs0mg"},{"bike_id":"0d4ae6e2-fbcd-4e34-ae19-c27e08f7c70c","system_id":"levelo_inurba_marseille","lat":43.28456,"lon":5.38419,"is_reserved":false,"is_disabled":false,"rental_uris":{"android":"levelo://app?vid=0d4ae6e2-fbcd-4e34-ae19-c27e08f7c70c","ios":"levelo://app?vid=0d4ae6e2-fbcd-4e34-ae19-c27e08f7c70c"},"vehicle_type_id":"4","last_reported":1747311622,"current_range_meters":14800,"station_id":"ce4bh512rcd13ifvqe3g","pricing_plan_id":"cebpf4jnsgd1na2vs0mg"},{"bike_id":"59576e81-0f19-4514-a47d-f8c875761719","system_id":"levelo_inurba_marseille","lat":43.286002,"lon":5.350934,"is_reserved":false,"is_disabled":false,"rental_uris":{"android":"levelo://app?vid=59576e81-0f19-4514-a47d-f8c875761719","ios":"levelo://app?vid=59576e81-0f19-4514-a47d-f8c875761719"},"vehicle_type_id":"4","last_reported":1747311622,"current_range_meters":14800,"station_id":"ce4bhch2rcd13ifvqeug","pricing_plan_id":"cebpf4jnsgd1na2vs0mg"},{"bike_id":"9bbbecbc-3d43-45fe-b6c5-9cd4090b1886","system_id":"levelo_inurba_marseille","lat":43.27998,"lon":5.40011,"is_reserved":false,"is_disabled":false,"rental_uris":{"android":"levelo://app?vid=9bbbecbc-3d43-45fe-b6c5-9cd4090b1886","ios":"levelo://app?vid=9bbbecbc-3d43-45fe-b6c5-9cd4090b1886"},"vehicle_type_id":"4","last_reported":1747311622,"current_range_meters":14800,"station_id":"ce4bho92rcd13ifvqh4g","pricing_plan_id":"cebpf4jnsgd1na2vs0mg"},{"bike_id":"12c754ba-3b9a-4ce3-9fb1-d841cde2bc57","system_id":"levelo_inurba_marseille","lat":43.34142,"lon":5.40899,"is_reserved":false,"is_disabled":false,"rental_uris":{"android":"levelo://app?vid=12c754ba-3b9a-4ce3-9fb1-d841cde2bc57","ios":"levelo://app?vid=12c754ba-3b9a-4ce3-9fb1-d841cde2bc57"},"vehicle_type_id":"4","last_reported":1747311622,"current_range_meters":14800,"station_id":"ce4bhqh2rcd13ifvqhlg","pricing_plan_id":"cebpf4jnsgd1na2vs0mg"},{"bike_id":"c3acc1e9-c036-4520-87a3-7e8466cee4e3","system_id":"levelo_inurba_marseille","lat":43.32487,"lon":5.36553,"is_reserved":false,"is_disabled":false,"rental_uris":{"android":"levelo://app?vid=c3acc1e9-c036-4520-87a3-7e8466cee4e3","ios":"levelo://app?vid=c3acc1e9-c036-4520-87a3-7e8466cee4e3"},"vehicle_type_id":"4","last_reported":1747311622,"current_range_meters":14800,"station_id":"ce4bhs12rcd13ifvqhvg","pricing_plan_id":"cebpf4jnsgd1na2vs0mg"},{"bike_id":"dd5422d6-53cb-49fb-8efb-b898f8501e90","system_id":"levelo_inurba_marseille","lat":43.27642,"lon":5.36073,"is_reserved":false,"is_disabled":false,"rental_uris":{"android":"levelo://app?vid=dd5422d6-53cb-49fb-8efb-b898f8501e90","ios":"levelo://app?vid=dd5422d6-53cb-49fb-8efb-b898f8501e90"},"vehicle_type_id":"4","last_reported":1747311622,"current_range_meters":15200,"station_id":"ce4bgj92rcd13ifvqbe0","pricing_plan_id":"cebpf4jnsgd1na2vs0mg"},{"bike_id":"e2da6c75-9f70-47cc-bb19-3a862d01cb54","system_id":"levelo_inurba_marseille","lat":43.28482,"lon":5.38421,"is_reserved":false,"is_disabled":false,"rental_uris":{"android":"levelo://app?vid=e2da6c75-9f70-47cc-bb19-3a862d01cb54","ios":"levelo://app?vid=e2da6c75-9f70-47cc-bb19-3a862d01cb54"},"vehicle_type_id":"4","last_reported":1747311622,"current_range_meters":15200,"station_id":"ce4bh512rcd13ifvqe3g","pricing_plan_id":"cebpf4jnsgd1na2vs0mg"},{"bike_id":"c2bfe94b-bed5-4b49-994e-7e42b91a3b6b","system_id":"levelo_inurba_marseille","lat":43.28271,"lon":5.35056,"is_reserved":false,"is_disabled":false,"rental_uris":{"android":"levelo://app?vid=c2bfe94b-bed5-4b49-994e-7e42b91a3b6b","ios":"levelo://app?vid=c2bfe94b-bed5-4b49-994e-7e42b91a3b6b"},"vehicle_type_id":"4","last_reported":1747311622,"current_range_meters":15200,"station_id":"ce4bhbp2rcd13ifvqerg","pricing_plan_id":"cebpf4jnsgd1na2vs0mg"},{"bike_id":"9ac1696d-b5ba-498e-a11a-3fa733e978b4","system_id":"levelo_inurba_marseille","lat":43.255,"lon":5.37647,"is_reserved":false,"is_disabled":false,"rental_uris":{"android":"levelo://app?vid=9ac1696d-b5ba-498e-a11a-3fa733e978b4","ios":"levelo://app?vid=9ac1696d-b5ba-498e-a11a-3fa733e978b4"},"vehicle_type_id":"4","last_reported":1747311622,"current_range_meters":15200,"station_id":"ce4bhh12rcd13ifvqff0","pricing_plan_id":"cebpf4jnsgd1na2vs0mg"},{"bike_id":"d16a04ad-c755-40c8-948b-57ca544a0f4c","system_id":"levelo_inurba_marseille","lat":43.27494,"lon":5.4245,"is_reserved":false,"is_disabled":false,"rental_uris":{"android":"levelo://app?vid=d16a04ad-c755-40c8-948b-57ca544a0f4c","ios":"levelo://app?vid=d16a04ad-c755-40c8-948b-57ca544a0f4c"},"vehicle_type_id":"4","last_reported":1747311622,"current_range_meters":15200,"station_id":"ce4bhn92rcd13ifvqgrg","pricing_plan_id":"cebpf4jnsgd1na2vs0mg"},{"bike_id":"1b2ca96b-a115-4009-b707-71f4c5b975d8","system_id":"levelo_inurba_marseille","lat":43.324903,"lon":5.365457,"is_reserved":false,"is_disabled":false,"rental_uris":{"android":"levelo://app?vid=1b2ca96b-a115-4009-b707-71f4c5b975d8","ios":"levelo://app?vid=1b2ca96b-a115-4009-b707-71f4c5b975d8"},"vehicle_type_id":"4","last_reported":1747311622,"current_range_meters":15200,"station_id":"ce4bhs12rcd13ifvqhvg","pricing_plan_id":"cebpf4jnsgd1na2vs0mg"},{"bike_id":"925b4e85-aaeb-4fcc-be54-02ba3b0118e7","system_id":"levelo_inurba_marseille","lat":43.217545,"lon":5.34603,"is_reserved":false,"is_disabled":false,"rental_uris":{"android":"levelo://app?vid=925b4e85-aaeb-4fcc-be54-02ba3b0118e7","ios":"levelo://app?vid=925b4e85-aaeb-4fcc-be54-02ba3b0118e7"},"vehicle_type_id":"4","last_reported":1747311622,"current_range_meters":15200,"station_id":"st_cvj6r9ubvosntc0bgbag","pricing_plan_id":"cebpf4jnsgd1na2vs0mg"},{"bike_id":"dbd34c21-58aa-4a6b-9f71-a475cb3405ff","system_id":"levelo_inurba_marseille","lat":43.28428,"lon":5.34985,"is_reserved":false,"is_disabled":false,"rental_uris":{"android":"levelo://app?vid=dbd34c21-58aa-4a6b-9f71-a475cb3405ff","ios":"levelo://app?vid=dbd34c21-58aa-4a6b-9f71-a475cb3405ff"},"vehicle_type_id":"4","last_reported":1747311622,"current_range_meters":16000,"station_id":"ce4bhbh2rcd13ifvqepg","pricing_plan_id":"cebpf4jnsgd1na2vs0mg"},{"bike_id":"024fbeb4-79b0-4f9f-a1d2-5edc8a7a32d4","system_id":"levelo_inurba_marseille","lat":43.28618,"lon":5.35104,"is_reserved":false,"is_disabled":false,"rental_uris":{"android":"levelo://app?vid=024fbeb4-79b0-4f9f-a1d2-5edc8a7a32d4","ios":"levelo://app?vid=024fbeb4-79b0-4f9f-a1d2-5edc8a7a32d4"},"vehicle_type_id":"4","last_reported":1747311622,"current_range_meters":16000,"station_id":"ce4bhch2rcd13ifvqeug","pricing_plan_id":"cebpf4jnsgd1na2vs0mg"},{"bike_id":"f8a8e7f3-56e2-4aae-a998-d43df0ecdbe3","system_id":"levelo_inurba_marseille","lat":43.27494,"lon":5.42446,"is_reserved":false,"is_disabled":false,"rental_uris":{"android":"levelo://app?vid=f8a8e7f3-56e2-4aae-a998-d43df0ecdbe3","ios":"levelo://app?vid=f8a8e7f3-56e2-4aae-a998-d43df0ecdbe3"},"vehicle_type_id":"4","last_reported":1747311622,"current_range_meters":16000,"station_id":"ce4bhn92rcd13ifvqgrg","pricing_plan_id":"cebpf4jnsgd1na2vs0mg"},{"bike_id":"81e36ace-ad5f-4344-9d9d-cc207f08a6af","system_id":"levelo_inurba_marseille","lat":43.24075,"lon":5.37756,"is_reserved":false,"is_disabled":false,"rental_uris":{"android":"levelo://app?vid=81e36ace-ad5f-4344-9d9d-cc207f08a6af","ios":"levelo://app?vid=81e36ace-ad5f-4344-9d9d-cc207f08a6af"},"vehicle_type_id":"4","last_reported":1747311622,"current_range_meters":16000,"station_id":"ce4bhnp2rcd13ifvqgvg","pricing_plan_id":"cebpf4jnsgd1na2vs0mg"},{"bike_id":"9ddbfac5-ea50-4538-b7dd-1f005f49a749","system_id":"levelo_inurba_marseille","lat":43.28437,"lon":5.39199,"is_reserved":false,"is_disabled":false,"rental_uris":{"android":"levelo://app?vid=9ddbfac5-ea50-4538-b7dd-1f005f49a749","ios":"levelo://app?vid=9ddbfac5-ea50-4538-b7dd-1f005f49a749"},"vehicle_type_id":"4","last_reported":1747311622,"current_range_meters":16000,"station_id":"ce4bhoh2rcd13ifvqh5g","pricing_plan_id":"cebpf4jnsgd1na2vs0mg"},{"bike_id":"385c5680-aa17-4953-8596-7f0cb64e8bcd","system_id":"levelo_inurba_marseille","lat":43.324829,"lon":5.365693,"is_reserved":false,"is_disabled":false,"rental_uris":{"android":"levelo://app?vid=385c5680-aa17-4953-8596-7f0cb64e8bcd","ios":"levelo://app?vid=385c5680-aa17-4953-8596-7f0cb64e8bcd"},"vehicle_type_id":"4","last_reported":1747311622,"current_range_meters":16000,"station_id":"ce4bhs12rcd13ifvqhvg","pricing_plan_id":"cebpf4jnsgd1na2vs0mg"},{"bike_id":"8167e193-3716-4b21-8704-a1f6f97fe099","system_id":"levelo_inurba_marseille","lat":43.24169,"lon":5.36396,"is_reserved":false,"is_disabled":false,"rental_uris":{"android":"levelo://app?vid=8167e193-3716-4b21-8704-a1f6f97fe099","ios":"levelo://app?vid=8167e193-3716-4b21-8704-a1f6f97fe099"},"vehicle_type_id":"4","last_reported":1747311622,"current_range_meters":16000,"station_id":"cpo36qri1sfpv3e86is0","pricing_plan_id":"cebpf4jnsgd1na2vs0mg"},{"bike_id":"46d8de76-ce03-4a99-b9a9-0e690e273029","system_id":"levelo_inurba_marseille","lat":43.33767,"lon":5.374323,"is_reserved":false,"is_disabled":false,"rental_uris":{"android":"levelo://app?vid=46d8de76-ce03-4a99-b9a9-0e690e273029","ios":"levelo://app?vid=46d8de76-ce03-4a99-b9a9-0e690e273029"},"vehicle_type_id":"4","last_reported":1747311622,"current_range_meters":16400,"station_id":"","pricing_plan_id":"cebpf4jnsgd1na2vs0mg"},{"bike_id":"d9e3a38a-36fa-4f09-8a6d-601a1bdc0d4b","system_id":"levelo_inurba_marseille","lat":43.29225,"lon":5.36056,"is_reserved":false,"is_disabled":false,"rental_uris":{"android":"levelo://app?vid=d9e3a38a-36fa-4f09-8a6d-601a1bdc0d4b","ios":"levelo://app?vid=d9e3a38a-36fa-4f09-8a6d-601a1bdc0d4b"},"vehicle_type_id":"4","last_reported":1747311622,"current_range_meters":16400,"station_id":"ce4bhbh2rcd13ifvqeqg","pricing_plan_id":"cebpf4jnsgd1na2vs0mg"},{"bike_id":"52d1638d-c01c-4b93-af74-56246a94d3de","system_id":"levelo_inurba_marseille","lat":43.27066,"lon":5.42271,"is_reserved":false,"is_disabled":false,"rental_uris":{"android":"levelo://app?vid=52d1638d-c01c-4b93-af74-56246a94d3de","ios":"levelo://app?vid=52d1638d-c01c-4b93-af74-56246a94d3de"},"vehicle_type_id":"4","last_reported":1747311622,"current_range_meters":16400,"station_id":"ce4bhk92rcd13ifvqgb0","pricing_plan_id":"cebpf4jnsgd1na2vs0mg"},{"bike_id":"b127a7f9-2af6-4d66-a018-944286f30a53","system_id":"levelo_inurba_marseille","lat":43.31207,"lon":5.36843,"is_reserved":false,"is_disabled":false,"rental_uris":{"android":"levelo://app?vid=b127a7f9-2af6-4d66-a018-944286f30a53","ios":"levelo://app?vid=b127a7f9-2af6-4d66-a018-944286f30a53"},"vehicle_type_id":"4","last_reported":1747311622,"current_range_meters":16800,"station_id":"ce4bgl92rcd13ifvqbq0","pricing_plan_id":"cebpf4jnsgd1na2vs0mg"},{"bike_id":"6a13e9de-f749-4bee-823d-1fd471c13313","system_id":"levelo_inurba_marseille","lat":43.29939,"lon":5.36548,"is_reserved":false,"is_disabled":false,"rental_uris":{"android":"levelo://app?vid=6a13e9de-f749-4bee-823d-1fd471c13313","ios":"levelo://app?vid=6a13e9de-f749-4bee-823d-1fd471c13313"},"vehicle_type_id":"4","last_reported":1747311622,"current_range_meters":16800,"station_id":"ce4bgm92rcd13ifvqbr0","pricing_plan_id":"cebpf4jnsgd1na2vs0mg"},{"bike_id":"3145283d-5a92-499f-8beb-487ce83d8908","system_id":"levelo_inurba_marseille","lat":43.29015,"lon":5.35613,"is_reserved":false,"is_disabled":false,"rental_uris":{"android":"levelo://app?vid=3145283d-5a92-499f-8beb-487ce83d8908","ios":"levelo://app?vid=3145283d-5a92-499f-8beb-487ce83d8908"},"vehicle_type_id":"4","last_reported":1747311622,"current_range_meters":16800,"station_id":"ce4bhb92rcd13ifvqen0","pricing_plan_id":"cebpf4jnsgd1na2vs0mg"},{"bike_id":"6a5ca72e-51de-4905-96e1-5bd7c7c37213","system_id":"levelo_inurba_marseille","lat":43.27368,"lon":5.36251,"is_reserved":false,"is_disabled":false,"rental_uris":{"android":"levelo://app?vid=6a5ca72e-51de-4905-96e1-5bd7c7c37213","ios":"levelo://app?vid=6a5ca72e-51de-4905-96e1-5bd7c7c37213"},"vehicle_type_id":"4","last_reported":1747311622,"current_range_meters":16800,"station_id":"ce4bhbh2rcd13ifvqeo0","pricing_plan_id":"cebpf4jnsgd1na2vs0mg"},{"bike_id":"90a7a5c4-26ed-4f82-a702-54f40b58e5c0","system_id":"levelo_inurba_marseille","lat":43.28271,"lon":5.35056,"is_reserved":false,"is_disabled":false,"rental_uris":{"android":"levelo://app?vid=90a7a5c4-26ed-4f82-a702-54f40b58e5c0","ios":"levelo://app?vid=90a7a5c4-26ed-4f82-a702-54f40b58e5c0"},"vehicle_type_id":"4","last_reported":1747311622,"current_range_meters":16800,"station_id":"ce4bhbp2rcd13ifvqerg","pricing_plan_id":"cebpf4jnsgd1na2vs0mg"},{"bike_id":"7eabcfe4-4418-4b9d-b76d-5930654da7d6","system_id":"levelo_inurba_marseille","lat":43.26164,"lon":5.40423,"is_reserved":false,"is_disabled":false,"rental_uris":{"android":"levelo://app?vid=7eabcfe4-4418-4b9d-b76d-5930654da7d6","ios":"levelo://app?vid=7eabcfe4-4418-4b9d-b76d-5930654da7d6"},"vehicle_type_id":"4","last_reported":1747311622,"current_range_meters":16800,"station_id":"ce4bhmh2rcd13ifvqgmg","pricing_plan_id":"cebpf4jnsgd1na2vs0mg"},{"bike_id":"24662577-69c7-4d84-a260-f2892b169180","system_id":"levelo_inurba_marseille","lat":43.21748,"lon":5.34603,"is_reserved":false,"is_disabled":false,"rental_uris":{"android":"levelo://app?vid=24662577-69c7-4d84-a260-f2892b169180","ios":"levelo://app?vid=24662577-69c7-4d84-a260-f2892b169180"},"vehicle_type_id":"4","last_reported":1747311622,"current_range_meters":16800,"station_id":"st_cvj6r9ubvosntc0bgbag","pricing_plan_id":"cebpf4jnsgd1na2vs0mg"},{"bike_id":"313c65ca-995b-41ea-9c3a-4ff815cfdd69","system_id":"levelo_inurba_marseille","lat":43.30331,"lon":5.4043,"is_reserved":false,"is_disabled":false,"rental_uris":{"android":"levelo://app?vid=313c65ca-995b-41ea-9c3a-4ff815cfdd69","ios":"levelo://app?vid=313c65ca-995b-41ea-9c3a-4ff815cfdd69"},"vehicle_type_id":"4","last_reported":1747311622,"current_range_meters":17200,"station_id":"ce4bh012rcd13ifvqd10","pricing_plan_id":"cebpf4jnsgd1na2vs0mg"},{"bike_id":"6414c6d0-c577-4b00-8541-05cb008ccfad","system_id":"levelo_inurba_marseille","lat":43.28413,"lon":5.34977,"is_reserved":false,"is_disabled":false,"rental_uris":{"android":"levelo://app?vid=6414c6d0-c577-4b00-8541-05cb008ccfad","ios":"levelo://app?vid=6414c6d0-c577-4b00-8541-05cb008ccfad"},"vehicle_type_id":"4","last_reported":1747311622,"current_range_meters":17200,"station_id":"ce4bhbh2rcd13ifvqepg","pricing_plan_id":"cebpf4jnsgd1na2vs0mg"},{"bike_id":"422a51ad-bcbc-41e5-a5aa-af5b15a22506","system_id":"levelo_inurba_marseille","lat":43.23962,"lon":5.36628,"is_reserved":false,"is_disabled":false,"rental_uris":{"android":"levelo://app?vid=422a51ad-bcbc-41e5-a5aa-af5b15a22506","ios":"levelo://app?vid=422a51ad-bcbc-41e5-a5aa-af5b15a22506"},"vehicle_type_id":"4","last_reported":1747311622,"current_range_meters":17200,"station_id":"ce4bhi12rcd13ifvqfp0","pricing_plan_id":"cebpf4jnsgd1na2vs0mg"},{"bike_id":"190b54b1-ec26-4c96-a05f-65db5e20ebd7","system_id":"levelo_inurba_marseille","lat":43.27048,"lon":5.40257,"is_reserved":false,"is_disabled":false,"rental_uris":{"android":"levelo://app?vid=190b54b1-ec26-4c96-a05f-65db5e20ebd7","ios":"levelo://app?vid=190b54b1-ec26-4c96-a05f-65db5e20ebd7"},"vehicle_type_id":"4","last_reported":1747311622,"current_range_meters":17200,"station_id":"ce4bhk92rcd13ifvqgc0","pricing_plan_id":"cebpf4jnsgd1na2vs0mg"},{"bike_id":"5679686c-f723-4726-8736-32a12efe9c6e","system_id":"levelo_inurba_marseille","lat":43.27494,"lon":5.42452,"is_reserved":false,"is_disabled":false,"rental_uris":{"android":"levelo://app?vid=5679686c-f723-4726-8736-32a12efe9c6e","ios":"levelo://app?vid=5679686c-f723-4726-8736-32a12efe9c6e"},"vehicle_type_id":"4","last_reported":1747311622,"current_range_meters":17200,"station_id":"ce4bhn92rcd13ifvqgrg","pricing_plan_id":"cebpf4jnsgd1na2vs0mg"},{"bike_id":"da0c4fad-78e4-4017-9c8d-6f6509cc04e9","system_id":"levelo_inurba_marseille","lat":43.246552,"lon":5.381659,"is_reserved":false,"is_disabled":false,"rental_uris":{"android":"levelo://app?vid=da0c4fad-78e4-4017-9c8d-6f6509cc04e9","ios":"levelo://app?vid=da0c4fad-78e4-4017-9c8d-6f6509cc04e9"},"vehicle_type_id":"4","last_reported":1747311622,"current_range_meters":17200,"station_id":"ce4bho92rcd13ifvqh4g","pricing_plan_id":"cebpf4jnsgd1na2vs0mg"},{"bike_id":"e0cee8cc-6f19-45b7-9404-5da0172c0995","system_id":"levelo_inurba_marseille","lat":43.28002,"lon":5.40012,"is_reserved":false,"is_disabled":false,"rental_uris":{"android":"levelo://app?vid=e0cee8cc-6f19-45b7-9404-5da0172c0995","ios":"levelo://app?vid=e0cee8cc-6f19-45b7-9404-5da0172c0995"},"vehicle_type_id":"4","last_reported":1747311622,"current_range_meters":17200,"station_id":"ce4bho92rcd13ifvqh4g","pricing_plan_id":"cebpf4jnsgd1na2vs0mg"},{"bike_id":"6d886103-344e-431a-ac80-7f62879d2f7c","system_id":"levelo_inurba_marseille","lat":43.22926,"lon":5.35378,"is_reserved":false,"is_disabled":false,"rental_uris":{"android":"levelo://app?vid=6d886103-344e-431a-ac80-7f62879d2f7c","ios":"levelo://app?vid=6d886103-344e-431a-ac80-7f62879d2f7c"},"vehicle_type_id":"4","last_reported":1747311622,"current_range_meters":17200,"station_id":"cpo3532slgdg3j2ikp40","pricing_plan_id":"cebpf4jnsgd1na2vs0mg"},{"bike_id":"0e642aa4-6b11-42d7-a2d5-23309c013ac1","system_id":"levelo_inurba_marseille","lat":43.30571,"lon":5.36726,"is_reserved":false,"is_disabled":false,"rental_uris":{"android":"levelo://app?vid=0e642aa4-6b11-42d7-a2d5-23309c013ac1","ios":"levelo://app?vid=0e642aa4-6b11-42d7-a2d5-23309c013ac1"},"vehicle_type_id":"4","last_reported":1747311622,"current_range_meters":17600,"station_id":"ce4bgrp2rcd13ifvqc9g","pricing_plan_id":"cebpf4jnsgd1na2vs0mg"},{"bike_id":"c98725b9-d422-424e-a9dd-9e3bf3af260b","system_id":"levelo_inurba_marseille","lat":43.27495,"lon":5.42452,"is_reserved":false,"is_disabled":false,"rental_uris":{"android":"levelo://app?vid=c98725b9-d422-424e-a9dd-9e3bf3af260b","ios":"levelo://app?vid=c98725b9-d422-424e-a9dd-9e3bf3af260b"},"vehicle_type_id":"4","last_reported":1747311622,"current_range_meters":17600,"station_id":"ce4bhn92rcd13ifvqgrg","pricing_plan_id":"cebpf4jnsgd1na2vs0mg"},{"bike_id":"b04d83ba-cbc3-42fd-9f3a-475da3064896","system_id":"levelo_inurba_marseille","lat":43.27498,"lon":5.42478,"is_reserved":false,"is_disabled":false,"rental_uris":{"android":"levelo://app?vid=b04d83ba-cbc3-42fd-9f3a-475da3064896","ios":"levelo://app?vid=b04d83ba-cbc3-42fd-9f3a-475da3064896"},"vehicle_type_id":"4","last_reported":1747311622,"current_range_meters":17600,"station_id":"ce4bhn92rcd13ifvqgrg","pricing_plan_id":"cebpf4jnsgd1na2vs0mg"},{"bike_id":"3d865944-f7af-4aae-a63d-adb45bcbc2d1","system_id":"levelo_inurba_marseille","lat":43.29548,"lon":5.42282,"is_reserved":false,"is_disabled":false,"rental_uris":{"android":"levelo://app?vid=3d865944-f7af-4aae-a63d-adb45bcbc2d1","ios":"levelo://app?vid=3d865944-f7af-4aae-a63d-adb45bcbc2d1"},"vehicle_type_id":"4","last_reported":1747311622,"current_range_meters":17600,"station_id":"ce4bhph2rcd13ifvqhdg","pricing_plan_id":"cebpf4jnsgd1na2vs0mg"},{"bike_id":"c811cb3b-1339-44ae-bed6-20879e104c4c","system_id":"levelo_inurba_marseille","lat":43.29893,"lon":5.43671,"is_reserved":false,"is_disabled":false,"rental_uris":{"android":"levelo://app?vid=c811cb3b-1339-44ae-bed6-20879e104c4c","ios":"levelo://app?vid=c811cb3b-1339-44ae-bed6-20879e104c4c"},"vehicle_type_id":"4","last_reported":1747311622,"current_range_meters":17600,"station_id":"ce4bhpp2rcd13ifvqhfg","pricing_plan_id":"cebpf4jnsgd1na2vs0mg"},{"bike_id":"228e4d6a-e038-4298-91d7-ef0db8977f42","system_id":"levelo_inurba_marseille","lat":43.27623,"lon":5.36107,"is_reserved":false,"is_disabled":false,"rental_uris":{"android":"levelo://app?vid=228e4d6a-e038-4298-91d7-ef0db8977f42","ios":"levelo://app?vid=228e4d6a-e038-4298-91d7-ef0db8977f42"},"vehicle_type_id":"4","last_reported":1747311622,"current_range_meters":18000,"station_id":"ce4bgj92rcd13ifvqbe0","pricing_plan_id":"cebpf4jnsgd1na2vs0mg"},{"bike_id":"586edf46-f3d7-47d1-b02c-ef8c8df43618","system_id":"levelo_inurba_marseille","lat":43.3107,"lon":5.38349,"is_reserved":false,"is_disabled":false,"rental_uris":{"android":"levelo://app?vid=586edf46-f3d7-47d1-b02c-ef8c8df43618","ios":"levelo://app?vid=586edf46-f3d7-47d1-b02c-ef8c8df43618"},"vehicle_type_id":"4","last_reported":1747311622,"current_range_meters":18000,"station_id":"ce4bgv92rcd13ifvqcr0","pricing_plan_id":"cebpf4jnsgd1na2vs0mg"},{"bike_id":"36e24a2d-696c-4742-85a2-660fc2606bd4","system_id":"levelo_inurba_marseille","lat":43.28357,"lon":5.38637,"is_reserved":false,"is_disabled":false,"rental_uris":{"android":"levelo://app?vid=36e24a2d-696c-4742-85a2-660fc2606bd4","ios":"levelo://app?vid=36e24a2d-696c-4742-85a2-660fc2606bd4"},"vehicle_type_id":"4","last_reported":1747311622,"current_range_meters":18000,"station_id":"ce4bh492rcd13ifvqdvg","pricing_plan_id":"cebpf4jnsgd1na2vs0mg"},{"bike_id":"10e0193d-8711-4319-9e2c-a6efb8e6265f","system_id":"levelo_inurba_marseille","lat":43.308938,"lon":5.368552,"is_reserved":false,"is_disabled":false,"rental_uris":{"android":"levelo://app?vid=10e0193d-8711-4319-9e2c-a6efb8e6265f","ios":"levelo://app?vid=10e0193d-8711-4319-9e2c-a6efb8e6265f"},"vehicle_type_id":"4","last_reported":1747311622,"current_range_meters":18000,"station_id":"ce4bhbp2rcd13ifvqerg","pricing_plan_id":"cebpf4jnsgd1na2vs0mg"},{"bike_id":"7d31d720-bae3-47d1-99f0-b11e42b4dafd","system_id":"levelo_inurba_marseille","lat":43.27943,"lon":5.41042,"is_reserved":false,"is_disabled":false,"rental_uris":{"android":"levelo://app?vid=7d31d720-bae3-47d1-99f0-b11e42b4dafd","ios":"levelo://app?vid=7d31d720-bae3-47d1-99f0-b11e42b4dafd"},"vehicle_type_id":"4","last_reported":1747311622,"current_range_meters":18000,"station_id":"ce4bhnp2rcd13ifvqh0g","pricing_plan_id":"cebpf4jnsgd1na2vs0mg"},{"bike_id":"6e3a2a89-a769-40fd-9d75-6f65e239f3ef","system_id":"levelo_inurba_marseille","lat":43.29542,"lon":5.42289,"is_reserved":false,"is_disabled":false,"rental_uris":{"android":"levelo://app?vid=6e3a2a89-a769-40fd-9d75-6f65e239f3ef","ios":"levelo://app?vid=6e3a2a89-a769-40fd-9d75-6f65e239f3ef"},"vehicle_type_id":"4","last_reported":1747311622,"current_range_meters":18000,"station_id":"ce4bhph2rcd13ifvqhdg","pricing_plan_id":"cebpf4jnsgd1na2vs0mg"},{"bike_id":"186cf4a6-f198-4e82-ba0d-d3472417b3e9","system_id":"levelo_inurba_marseille","lat":43.30933,"lon":5.36827,"is_reserved":false,"is_disabled":false,"rental_uris":{"android":"levelo://app?vid=186cf4a6-f198-4e82-ba0d-d3472417b3e9","ios":"levelo://app?vid=186cf4a6-f198-4e82-ba0d-d3472417b3e9"},"vehicle_type_id":"4","last_reported":1747311622,"current_range_meters":18800,"station_id":"ce4bgn92rcd13ifvqbvg","pricing_plan_id":"cebpf4jnsgd1na2vs0mg"},{"bike_id":"9d96c087-2099-47b8-859b-35989e66aa4c","system_id":"levelo_inurba_marseille","lat":43.31361,"lon":5.38493,"is_reserved":false,"is_disabled":false,"rental_uris":{"android":"levelo://app?vid=9d96c087-2099-47b8-859b-35989e66aa4c","ios":"levelo://app?vid=9d96c087-2099-47b8-859b-35989e66aa4c"},"vehicle_type_id":"4","last_reported":1747311622,"current_range_meters":18800,"station_id":"ce4bgt92rcd13ifvqcf0","pricing_plan_id":"cebpf4jnsgd1na2vs0mg"},{"bike_id":"8937e58a-82bd-4181-b426-25cf9717cf13","system_id":"levelo_inurba_marseille","lat":43.28424,"lon":5.34985,"is_reserved":false,"is_disabled":false,"rental_uris":{"android":"levelo://app?vid=8937e58a-82bd-4181-b426-25cf9717cf13","ios":"levelo://app?vid=8937e58a-82bd-4181-b426-25cf9717cf13"},"vehicle_type_id":"4","last_reported":1747311622,"current_range_meters":18800,"station_id":"ce4bhbh2rcd13ifvqepg","pricing_plan_id":"cebpf4jnsgd1na2vs0mg"},{"bike_id":"8c801b9f-3818-4ceb-9573-4499ff41234b","system_id":"levelo_inurba_marseille","lat":43.284219,"lon":5.349944,"is_reserved":false,"is_disabled":false,"rental_uris":{"android":"levelo://app?vid=8c801b9f-3818-4ceb-9573-4499ff41234b","ios":"levelo://app?vid=8c801b9f-3818-4ceb-9573-4499ff41234b"},"vehicle_type_id":"4","last_reported":1747311622,"current_range_meters":18800,"station_id":"ce4bhbh2rcd13ifvqepg","pricing_plan_id":"cebpf4jnsgd1na2vs0mg"},{"bike_id":"ecff8b47-fbe1-4c2b-8281-da5a048230ac","system_id":"levelo_inurba_marseille","lat":43.278105,"lon":5.407107,"is_reserved":false,"is_disabled":false,"rental_uris":{"android":"levelo://app?vid=ecff8b47-fbe1-4c2b-8281-da5a048230ac","ios":"levelo://app?vid=ecff8b47-fbe1-4c2b-8281-da5a048230ac"},"vehicle_type_id":"4","last_reported":1747311622,"current_range_meters":18800,"station_id":"ce4bhnh2rcd13ifvqgtg","pricing_plan_id":"cebpf4jnsgd1na2vs0mg"},{"bike_id":"824ec645-1560-410a-92b5-9fa3598340f8","system_id":"levelo_inurba_marseille","lat":43.28706,"lon":5.3999,"is_reserved":false,"is_disabled":false,"rental_uris":{"android":"levelo://app?vid=824ec645-1560-410a-92b5-9fa3598340f8","ios":"levelo://app?vid=824ec645-1560-410a-92b5-9fa3598340f8"},"vehicle_type_id":"4","last_reported":1747311622,"current_range_meters":18800,"station_id":"ce4bho92rcd13ifvqh3g","pricing_plan_id":"cebpf4jnsgd1na2vs0mg"},{"bike_id":"142302ef-8acc-4b35-85b2-634a432b0745","system_id":"levelo_inurba_marseille","lat":43.31894,"lon":5.40738,"is_reserved":false,"is_disabled":false,"rental_uris":{"android":"levelo://app?vid=142302ef-8acc-4b35-85b2-634a432b0745","ios":"levelo://app?vid=142302ef-8acc-4b35-85b2-634a432b0745"},"vehicle_type_id":"4","last_reported":1747311622,"current_range_meters":18800,"station_id":"ce4bhq12rcd13ifvqhig","pricing_plan_id":"cebpf4jnsgd1na2vs0mg"},{"bike_id":"d3b5719e-795d-4b7b-9b3c-5b2d04e14bd8","system_id":"levelo_inurba_marseille","lat":43.28931,"lon":5.39627,"is_reserved":false,"is_disabled":false,"rental_uris":{"android":"levelo://app?vid=d3b5719e-795d-4b7b-9b3c-5b2d04e14bd8","ios":"levelo://app?vid=d3b5719e-795d-4b7b-9b3c-5b2d04e14bd8"},"vehicle_type_id":"4","last_reported":1747311622,"current_range_meters":19200,"station_id":"ce4bh3h2rcd13ifvqdn0","pricing_plan_id":"cebpf4jnsgd1na2vs0mg"},{"bike_id":"6aa6fcb6-50d9-4173-ab5d-b2b0eb782221","system_id":"levelo_inurba_marseille","lat":43.29278,"lon":5.36851,"is_reserved":false,"is_disabled":false,"rental_uris":{"android":"levelo://app?vid=6aa6fcb6-50d9-4173-ab5d-b2b0eb782221","ios":"levelo://app?vid=6aa6fcb6-50d9-4173-ab5d-b2b0eb782221"},"vehicle_type_id":"4","last_reported":1747311622,"current_range_meters":19200,"station_id":"ce4bhbp2rcd13ifvqesg","pricing_plan_id":"cebpf4jnsgd1na2vs0mg"},{"bike_id":"71061298-85e7-45bc-993b-630ac66b913f","system_id":"levelo_inurba_marseille","lat":43.26553,"lon":5.37269,"is_reserved":false,"is_disabled":false,"rental_uris":{"android":"levelo://app?vid=71061298-85e7-45bc-993b-630ac66b913f","ios":"levelo://app?vid=71061298-85e7-45bc-993b-630ac66b913f"},"vehicle_type_id":"4","last_reported":1747311622,"current_range_meters":19200,"station_id":"ce4bhg12rcd13ifvqf70","pricing_plan_id":"cebpf4jnsgd1na2vs0mg"},{"bike_id":"db77887e-0d96-4823-9d7a-29dcd7da204d","system_id":"levelo_inurba_marseille","lat":43.26223,"lon":5.40447,"is_reserved":false,"is_disabled":false,"rental_uris":{"android":"levelo://app?vid=db77887e-0d96-4823-9d7a-29dcd7da204d","ios":"levelo://app?vid=db77887e-0d96-4823-9d7a-29dcd7da204d"},"vehicle_type_id":"4","last_reported":1747311622,"current_range_meters":19200,"station_id":"ce4bhmh2rcd13ifvqgmg","pricing_plan_id":"cebpf4jnsgd1na2vs0mg"},{"bike_id":"0ea343df-94e7-4e89-b3cb-6b6bc61f0fa5","system_id":"levelo_inurba_marseille","lat":43.27502,"lon":5.42453,"is_reserved":false,"is_disabled":false,"rental_uris":{"android":"levelo://app?vid=0ea343df-94e7-4e89-b3cb-6b6bc61f0fa5","ios":"levelo://app?vid=0ea343df-94e7-4e89-b3cb-6b6bc61f0fa5"},"vehicle_type_id":"4","last_reported":1747311622,"current_range_meters":19200,"station_id":"ce4bhn92rcd13ifvqgrg","pricing_plan_id":"cebpf4jnsgd1na2vs0mg"},{"bike_id":"f1d6bead-709a-4e55-99a9-cc7cc7606d6e","system_id":"levelo_inurba_marseille","lat":43.24059,"lon":5.37754,"is_reserved":false,"is_disabled":false,"rental_uris":{"android":"levelo://app?vid=f1d6bead-709a-4e55-99a9-cc7cc7606d6e","ios":"levelo://app?vid=f1d6bead-709a-4e55-99a9-cc7cc7606d6e"},"vehicle_type_id":"4","last_reported":1747311622,"current_range_meters":19200,"station_id":"ce4bhnp2rcd13ifvqgvg","pricing_plan_id":"cebpf4jnsgd1na2vs0mg"},{"bike_id":"2fcc4300-9147-4a4b-a12c-17076499c238","system_id":"levelo_inurba_marseille","lat":43.32541,"lon":5.414529,"is_reserved":false,"is_disabled":false,"rental_uris":{"android":"levelo://app?vid=2fcc4300-9147-4a4b-a12c-17076499c238","ios":"levelo://app?vid=2fcc4300-9147-4a4b-a12c-17076499c238"},"vehicle_type_id":"4","last_reported":1747311622,"current_range_meters":19200,"station_id":"ce4bhq12rcd13ifvqhhg","pricing_plan_id":"cebpf4jnsgd1na2vs0mg"},{"bike_id":"180e10a7-ba2a-44a0-95b4-4567b94c2920","system_id":"levelo_inurba_marseille","lat":43.21743,"lon":5.34595,"is_reserved":false,"is_disabled":false,"rental_uris":{"android":"levelo://app?vid=180e10a7-ba2a-44a0-95b4-4567b94c2920","ios":"levelo://app?vid=180e10a7-ba2a-44a0-95b4-4567b94c2920"},"vehicle_type_id":"4","last_reported":1747311622,"current_range_meters":19200,"station_id":"st_cvj6r9ubvosntc0bgbag","pricing_plan_id":"cebpf4jnsgd1na2vs0mg"},{"bike_id":"64bd598c-dd43-4a46-9d6c-5633d6873e63","system_id":"levelo_inurba_marseille","lat":43.30735,"lon":5.37284,"is_reserved":false,"is_disabled":false,"rental_uris":{"android":"levelo://app?vid=64bd598c-dd43-4a46-9d6c-5633d6873e63","ios":"levelo://app?vid=64bd598c-dd43-4a46-9d6c-5633d6873e63"},"vehicle_type_id":"4","last_reported":1747311622,"current_range_meters":19600,"station_id":"","pricing_plan_id":"cebpf4jnsgd1na2vs0mg"},{"bike_id":"c0e0fd84-4c7c-420a-b641-45b7066ef9a9","system_id":"levelo_inurba_marseille","lat":43.3135,"lon":5.36701,"is_reserved":false,"is_disabled":false,"rental_uris":{"android":"levelo://app?vid=c0e0fd84-4c7c-420a-b641-45b7066ef9a9","ios":"levelo://app?vid=c0e0fd84-4c7c-420a-b641-45b7066ef9a9"},"vehicle_type_id":"4","last_reported":1747311622,"current_range_meters":19600,"station_id":"ce4bgr92rcd13ifvqc6g","pricing_plan_id":"cebpf4jnsgd1na2vs0mg"},{"bike_id":"495b74ac-33f6-4ce9-b0f0-356203a3e517","system_id":"levelo_inurba_marseille","lat":43.29268,"lon":5.36844,"is_reserved":false,"is_disabled":false,"rental_uris":{"android":"levelo://app?vid=495b74ac-33f6-4ce9-b0f0-356203a3e517","ios":"levelo://app?vid=495b74ac-33f6-4ce9-b0f0-356203a3e517"},"vehicle_type_id":"4","last_reported":1747311622,"current_range_meters":19600,"station_id":"ce4bhbp2rcd13ifvqesg","pricing_plan_id":"cebpf4jnsgd1na2vs0mg"},{"bike_id":"444a83ab-8534-4782-ba69-20c25ccaa8b0","system_id":"levelo_inurba_marseille","lat":43.26551,"lon":5.37289,"is_reserved":false,"is_disabled":false,"rental_uris":{"android":"levelo://app?vid=444a83ab-8534-4782-ba69-20c25ccaa8b0","ios":"levelo://app?vid=444a83ab-8534-4782-ba69-20c25ccaa8b0"},"vehicle_type_id":"4","last_reported":1747311622,"current_range_meters":19600,"station_id":"ce4bhg12rcd13ifvqf70","pricing_plan_id":"cebpf4jnsgd1na2vs0mg"},{"bike_id":"22ad963e-f809-4036-bd22-9dae1aef29df","system_id":"levelo_inurba_marseille","lat":43.26036,"lon":5.3754,"is_reserved":false,"is_disabled":false,"rental_uris":{"android":"levelo://app?vid=22ad963e-f809-4036-bd22-9dae1aef29df","ios":"levelo://app?vid=22ad963e-f809-4036-bd22-9dae1aef29df"},"vehicle_type_id":"4","last_reported":1747311622,"current_range_meters":19600,"station_id":"ce4bhgh2rcd13ifvqfa0","pricing_plan_id":"cebpf4jnsgd1na2vs0mg"},{"bike_id":"ce2d5fd7-697f-4e9a-ae60-3c24d36eee6a","system_id":"levelo_inurba_marseille","lat":43.27502,"lon":5.42461,"is_reserved":false,"is_disabled":false,"rental_uris":{"android":"levelo://app?vid=ce2d5fd7-697f-4e9a-ae60-3c24d36eee6a","ios":"levelo://app?vid=ce2d5fd7-697f-4e9a-ae60-3c24d36eee6a"},"vehicle_type_id":"4","last_reported":1747311622,"current_range_meters":19600,"station_id":"ce4bhn92rcd13ifvqgrg","pricing_plan_id":"cebpf4jnsgd1na2vs0mg"},{"bike_id":"38f3d392-61a6-471e-8ede-2e604408fe16","system_id":"levelo_inurba_marseille","lat":43.27494,"lon":5.42451,"is_reserved":false,"is_disabled":false,"rental_uris":{"android":"levelo://app?vid=38f3d392-61a6-471e-8ede-2e604408fe16","ios":"levelo://app?vid=38f3d392-61a6-471e-8ede-2e604408fe16"},"vehicle_type_id":"4","last_reported":1747311622,"current_range_meters":19600,"station_id":"ce4bhn92rcd13ifvqgrg","pricing_plan_id":"cebpf4jnsgd1na2vs0mg"},{"bike_id":"540934c7-658b-46f8-a1fc-1214c339e9eb","system_id":"levelo_inurba_marseille","lat":43.24064,"lon":5.37756,"is_reserved":false,"is_disabled":false,"rental_uris":{"android":"levelo://app?vid=540934c7-658b-46f8-a1fc-1214c339e9eb","ios":"levelo://app?vid=540934c7-658b-46f8-a1fc-1214c339e9eb"},"vehicle_type_id":"4","last_reported":1747311622,"current_range_meters":19600,"station_id":"ce4bhnp2rcd13ifvqgvg","pricing_plan_id":"cebpf4jnsgd1na2vs0mg"},{"bike_id":"54a1a73b-9f7a-414c-a48f-eeace73bd9b0","system_id":"levelo_inurba_marseille","lat":43.225,"lon":5.34787,"is_reserved":false,"is_disabled":false,"rental_uris":{"android":"levelo://app?vid=54a1a73b-9f7a-414c-a48f-eeace73bd9b0","ios":"levelo://app?vid=54a1a73b-9f7a-414c-a48f-eeace73bd9b0"},"vehicle_type_id":"4","last_reported":1747311622,"current_range_meters":19600,"station_id":"st_cvj5dfep6f1abm77gieg","pricing_plan_id":"cebpf4jnsgd1na2vs0mg"},{"bike_id":"a6a918b7-f192-461f-8ef4-9b93ba3f3240","system_id":"levelo_inurba_marseille","lat":43.21749,"lon":5.34582,"is_reserved":false,"is_disabled":false,"rental_uris":{"android":"levelo://app?vid=a6a918b7-f192-461f-8ef4-9b93ba3f3240","ios":"levelo://app?vid=a6a918b7-f192-461f-8ef4-9b93ba3f3240"},"vehicle_type_id":"4","last_reported":1747311622,"current_range_meters":19600,"station_id":"st_cvj6r9ubvosntc0bgbag","pricing_plan_id":"cebpf4jnsgd1na2vs0mg"},{"bike_id":"54c80718-1468-47f9-9877-bc44f5940722","system_id":"levelo_inurba_marseille","lat":43.21193,"lon":5.35079,"is_reserved":false,"is_disabled":false,"rental_uris":{"android":"levelo://app?vid=54c80718-1468-47f9-9877-bc44f5940722","ios":"levelo://app?vid=54c80718-1468-47f9-9877-bc44f5940722"},"vehicle_type_id":"4","last_reported":1747311622,"current_range_meters":19600,"station_id":"st_cvj6sg6p6f1abm77japg","pricing_plan_id":"cebpf4jnsgd1na2vs0mg"},{"bike_id":"0b6b35f4-fe4f-49d9-9808-16582d0cd37c","system_id":"levelo_inurba_marseille","lat":43.27613,"lon":5.361,"is_reserved":false,"is_disabled":false,"rental_uris":{"android":"levelo://app?vid=0b6b35f4-fe4f-49d9-9808-16582d0cd37c","ios":"levelo://app?vid=0b6b35f4-fe4f-49d9-9808-16582d0cd37c"},"vehicle_type_id":"4","last_reported":1747311622,"current_range_meters":20000,"station_id":"ce4bgj92rcd13ifvqbe0","pricing_plan_id":"cebpf4jnsgd1na2vs0mg"},{"bike_id":"062afb2c-cb12-4f21-b474-ccd370e0677b","system_id":"levelo_inurba_marseille","lat":43.29195,"lon":5.35805,"is_reserved":false,"is_disabled":false,"rental_uris":{"android":"levelo://app?vid=062afb2c-cb12-4f21-b474-ccd370e0677b","ios":"levelo://app?vid=062afb2c-cb12-4f21-b474-ccd370e0677b"},"vehicle_type_id":"4","last_reported":1747311622,"current_range_meters":20000,"station_id":"ce4bhb12rcd13ifvqel0","pricing_plan_id":"cebpf4jnsgd1na2vs0mg"},{"bike_id":"28ed1b42-7d7b-458f-8f52-d8ac679b825a","system_id":"levelo_inurba_marseille","lat":43.25502,"lon":5.37647,"is_reserved":false,"is_disabled":false,"rental_uris":{"android":"levelo://app?vid=28ed1b42-7d7b-458f-8f52-d8ac679b825a","ios":"levelo://app?vid=28ed1b42-7d7b-458f-8f52-d8ac679b825a"},"vehicle_type_id":"4","last_reported":1747311622,"current_range_meters":20000,"station_id":"ce4bhh12rcd13ifvqff0","pricing_plan_id":"cebpf4jnsgd1na2vs0mg"},{"bike_id":"ef74dc31-1d56-445b-8de9-435d0bbcffc0","system_id":"levelo_inurba_marseille","lat":43.239588,"lon":5.366278,"is_reserved":false,"is_disabled":false,"rental_uris":{"android":"levelo://app?vid=ef74dc31-1d56-445b-8de9-435d0bbcffc0","ios":"levelo://app?vid=ef74dc31-1d56-445b-8de9-435d0bbcffc0"},"vehicle_type_id":"4","last_reported":1747311622,"current_range_meters":20000,"station_id":"ce4bhi12rcd13ifvqfp0","pricing_plan_id":"cebpf4jnsgd1na2vs0mg"},{"bike_id":"56b281eb-56cb-460f-8b8f-cf004e7b133c","system_id":"levelo_inurba_marseille","lat":43.262074,"lon":5.404643,"is_reserved":false,"is_disabled":false,"rental_uris":{"android":"levelo://app?vid=56b281eb-56cb-460f-8b8f-cf004e7b133c","ios":"levelo://app?vid=56b281eb-56cb-460f-8b8f-cf004e7b133c"},"vehicle_type_id":"4","last_reported":1747311622,"current_range_meters":20000,"station_id":"ce4bhmh2rcd13ifvqgmg","pricing_plan_id":"cebpf4jnsgd1na2vs0mg"},{"bike_id":"028512d3-26df-40b2-b967-7e505524b114","system_id":"levelo_inurba_marseille","lat":43.27488,"lon":5.42444,"is_reserved":false,"is_disabled":false,"rental_uris":{"android":"levelo://app?vid=028512d3-26df-40b2-b967-7e505524b114","ios":"levelo://app?vid=028512d3-26df-40b2-b967-7e505524b114"},"vehicle_type_id":"4","last_reported":1747311622,"current_range_meters":20000,"station_id":"ce4bhn92rcd13ifvqgrg","pricing_plan_id":"cebpf4jnsgd1na2vs0mg"},{"bike_id":"ff15b184-243e-48a2-9ca8-9b425fc5e5f7","system_id":"levelo_inurba_marseille","lat":43.29963,"lon":5.41338,"is_reserved":false,"is_disabled":false,"rental_uris":{"android":"levelo://app?vid=ff15b184-243e-48a2-9ca8-9b425fc5e5f7","ios":"levelo://app?vid=ff15b184-243e-48a2-9ca8-9b425fc5e5f7"},"vehicle_type_id":"4","last_reported":1747311622,"current_range_meters":20000,"station_id":"ce4bhp12rcd13ifvqh9g","pricing_plan_id":"cebpf4jnsgd1na2vs0mg"},{"bike_id":"21f5a1a4-43c5-4049-8a8d-3146c5c35157","system_id":"levelo_inurba_marseille","lat":43.22923,"lon":5.35395,"is_reserved":false,"is_disabled":false,"rental_uris":{"android":"levelo://app?vid=21f5a1a4-43c5-4049-8a8d-3146c5c35157","ios":"levelo://app?vid=21f5a1a4-43c5-4049-8a8d-3146c5c35157"},"vehicle_type_id":"4","last_reported":1747311622,"current_range_meters":20000,"station_id":"cpo3532slgdg3j2ikp40","pricing_plan_id":"cebpf4jnsgd1na2vs0mg"},{"bike_id":"aa53c5b9-c9b8-4906-989e-6e49a1f5abe6","system_id":"levelo_inurba_marseille","lat":43.22936,"lon":5.35371,"is_reserved":false,"is_disabled":false,"rental_uris":{"android":"levelo://app?vid=aa53c5b9-c9b8-4906-989e-6e49a1f5abe6","ios":"levelo://app?vid=aa53c5b9-c9b8-4906-989e-6e49a1f5abe6"},"vehicle_type_id":"4","last_reported":1747311622,"current_range_meters":20000,"station_id":"cpo3532slgdg3j2ikp40","pricing_plan_id":"cebpf4jnsgd1na2vs0mg"},{"bike_id":"2ad16a69-7242-485c-af59-dd96a3cafcef","system_id":"levelo_inurba_marseille","lat":43.31715,"lon":5.37756,"is_reserved":false,"is_disabled":false,"rental_uris":{"android":"levelo://app?vid=2ad16a69-7242-485c-af59-dd96a3cafcef","ios":"levelo://app?vid=2ad16a69-7242-485c-af59-dd96a3cafcef"},"vehicle_type_id":"4","last_reported":1747311622,"current_range_meters":20400,"station_id":"ce4bgth2rcd13ifvqch0","pricing_plan_id":"cebpf4jnsgd1na2vs0mg"},{"bike_id":"b5bf91b1-f0d2-4b28-b2f0-400f4779b28c","system_id":"levelo_inurba_marseille","lat":43.27972,"lon":5.38739,"is_reserved":false,"is_disabled":false,"rental_uris":{"android":"levelo://app?vid=b5bf91b1-f0d2-4b28-b2f0-400f4779b28c","ios":"levelo://app?vid=b5bf91b1-f0d2-4b28-b2f0-400f4779b28c"},"vehicle_type_id":"4","last_reported":1747311622,"current_range_meters":20400,"station_id":"ce4bhg12rcd13ifvqf80","pricing_plan_id":"cebpf4jnsgd1na2vs0mg"},{"bike_id":"dff8c6a1-13d1-4167-a2cc-2614f7472670","system_id":"levelo_inurba_marseille","lat":43.26223,"lon":5.40442,"is_reserved":false,"is_disabled":false,"rental_uris":{"android":"levelo://app?vid=dff8c6a1-13d1-4167-a2cc-2614f7472670","ios":"levelo://app?vid=dff8c6a1-13d1-4167-a2cc-2614f7472670"},"vehicle_type_id":"4","last_reported":1747311622,"current_range_meters":20400,"station_id":"ce4bhmh2rcd13ifvqgmg","pricing_plan_id":"cebpf4jnsgd1na2vs0mg"},{"bike_id":"bc997f5b-ce07-476e-841c-3f5b79bd98e0","system_id":"levelo_inurba_marseille","lat":43.23156,"lon":5.43694,"is_reserved":false,"is_disabled":false,"rental_uris":{"android":"levelo://app?vid=bc997f5b-ce07-476e-841c-3f5b79bd98e0","ios":"levelo://app?vid=bc997f5b-ce07-476e-841c-3f5b79bd98e0"},"vehicle_type_id":"4","last_reported":1747311622,"current_range_meters":20400,"station_id":"ce4bhmp2rcd13ifvqgog","pricing_plan_id":"cebpf4jnsgd1na2vs0mg"},{"bike_id":"c41abff9-2506-47e6-9902-a67c3ce73da3","system_id":"levelo_inurba_marseille","lat":43.24162,"lon":5.39689,"is_reserved":false,"is_disabled":false,"rental_uris":{"android":"levelo://app?vid=c41abff9-2506-47e6-9902-a67c3ce73da3","ios":"levelo://app?vid=c41abff9-2506-47e6-9902-a67c3ce73da3"},"vehicle_type_id":"4","last_reported":1747311622,"current_range_meters":20400,"station_id":"ce4bhn12rcd13ifvqgpg","pricing_plan_id":"cebpf4jnsgd1na2vs0mg"},{"bike_id":"ffc7a2d1-7d1a-4475-a8b2-e1f929706db9","system_id":"levelo_inurba_marseille","lat":43.2407,"lon":5.37745,"is_reserved":false,"is_disabled":false,"rental_uris":{"android":"levelo://app?vid=ffc7a2d1-7d1a-4475-a8b2-e1f929706db9","ios":"levelo://app?vid=ffc7a2d1-7d1a-4475-a8b2-e1f929706db9"},"vehicle_type_id":"4","last_reported":1747311622,"current_range_meters":20400,"station_id":"ce4bhnp2rcd13ifvqgvg","pricing_plan_id":"cebpf4jnsgd1na2vs0mg"},{"bike_id":"683280a6-222a-410e-8092-5117649dec0a","system_id":"levelo_inurba_marseille","lat":43.29548,"lon":5.42272,"is_reserved":false,"is_disabled":false,"rental_uris":{"android":"levelo://app?vid=683280a6-222a-410e-8092-5117649dec0a","ios":"levelo://app?vid=683280a6-222a-410e-8092-5117649dec0a"},"vehicle_type_id":"4","last_reported":1747311622,"current_range_meters":20400,"station_id":"ce4bhph2rcd13ifvqhdg","pricing_plan_id":"cebpf4jnsgd1na2vs0mg"},{"bike_id":"3d46183d-e421-4498-8767-0e257c53394b","system_id":"levelo_inurba_marseille","lat":43.3254,"lon":5.41423,"is_reserved":false,"is_disabled":false,"rental_uris":{"android":"levelo://app?vid=3d46183d-e421-4498-8767-0e257c53394b","ios":"levelo://app?vid=3d46183d-e421-4498-8767-0e257c53394b"},"vehicle_type_id":"4","last_reported":1747311622,"current_range_meters":20400,"station_id":"ce4bhq12rcd13ifvqhhg","pricing_plan_id":"cebpf4jnsgd1na2vs0mg"},{"bike_id":"549c6be5-cea4-42ad-a1a3-3ae411264425","system_id":"levelo_inurba_marseille","lat":43.21192,"lon":5.35068,"is_reserved":false,"is_disabled":false,"rental_uris":{"android":"levelo://app?vid=549c6be5-cea4-42ad-a1a3-3ae411264425","ios":"levelo://app?vid=549c6be5-cea4-42ad-a1a3-3ae411264425"},"vehicle_type_id":"4","last_reported":1747311622,"current_range_meters":20400,"station_id":"st_cvj6sg6p6f1abm77japg","pricing_plan_id":"cebpf4jnsgd1na2vs0mg"},{"bike_id":"3e342461-e021-4bc3-b8cd-569157725a21","system_id":"levelo_inurba_marseille","lat":43.31354,"lon":5.38495,"is_reserved":false,"is_disabled":false,"rental_uris":{"android":"levelo://app?vid=3e342461-e021-4bc3-b8cd-569157725a21","ios":"levelo://app?vid=3e342461-e021-4bc3-b8cd-569157725a21"},"vehicle_type_id":"4","last_reported":1747311622,"current_range_meters":20800,"station_id":"ce4bgt92rcd13ifvqcf0","pricing_plan_id":"cebpf4jnsgd1na2vs0mg"},{"bike_id":"0a174039-1d1b-4c22-aaa0-ac555fc600c1","system_id":"levelo_inurba_marseille","lat":43.28662,"lon":5.38673,"is_reserved":false,"is_disabled":false,"rental_uris":{"android":"levelo://app?vid=0a174039-1d1b-4c22-aaa0-ac555fc600c1","ios":"levelo://app?vid=0a174039-1d1b-4c22-aaa0-ac555fc600c1"},"vehicle_type_id":"4","last_reported":1747311622,"current_range_meters":20800,"station_id":"ce4bh492rcd13ifvqdug","pricing_plan_id":"cebpf4jnsgd1na2vs0mg"},{"bike_id":"b836f20f-bc80-4669-8eef-31a35cdd43fc","system_id":"levelo_inurba_marseille","lat":43.28369,"lon":5.386368,"is_reserved":false,"is_disabled":false,"rental_uris":{"android":"levelo://app?vid=b836f20f-bc80-4669-8eef-31a35cdd43fc","ios":"levelo://app?vid=b836f20f-bc80-4669-8eef-31a35cdd43fc"},"vehicle_type_id":"4","last_reported":1747311622,"current_range_meters":20800,"station_id":"ce4bh492rcd13ifvqdvg","pricing_plan_id":"cebpf4jnsgd1na2vs0mg"},{"bike_id":"47619d9b-72c5-4197-9d0e-4ad6c5710ddc","system_id":"levelo_inurba_marseille","lat":43.28418,"lon":5.34985,"is_reserved":false,"is_disabled":false,"rental_uris":{"android":"levelo://app?vid=47619d9b-72c5-4197-9d0e-4ad6c5710ddc","ios":"levelo://app?vid=47619d9b-72c5-4197-9d0e-4ad6c5710ddc"},"vehicle_type_id":"4","last_reported":1747311622,"current_range_meters":20800,"station_id":"ce4bhbh2rcd13ifvqepg","pricing_plan_id":"cebpf4jnsgd1na2vs0mg"},