{"last_updated":1718978765,"ttl":30,"version":"2.2","data":{"bikes":[{"bike_id":"50d8ffb6-6fe5-4821-ba78-e26a93180a34","system_id":"levelo_inurba_marseille","lat":43.312239,"lon":5.368562,"is_reserved":false,"is_disabled":false,"rental_uris":{"android":"levelo://app?vid=50d8ffb6-6fe5-4821-ba78-e26a93180a34","ios":"levelo://app?vid=50d8ffb6-6fe5-4821-ba78-e26a93180a34"},"vehicle_type_id":"4","last_reported":1718978765,"current_range_meters":21200,"station_id":"ce4bgl92rcd13ifvqbq0","pricing_plan_id":"cebpf4jnsgd1na2vs0mg"},{"bike_id":"7312e661-1647-43af-aabb-9024bb1cd178","system_id":"levelo_inurba_marseille","lat":43.312239,"lon":5.368562,"is_reserved":false,"is_disabled":false,"rental_uris":{"android":"levelo://app?vid=7312e661-1647-43af-aabb-9024bb1cd178","ios":"levelo://app?vid=7312e661-1647-43af-aabb-9024bb1cd178"},"vehicle_type_id":"4","last_reported":1718978765,"current_range_meters":2000,"station_id":"ce4bgl92rcd13ifvqbq0","pricing_plan_id":"cebpf4jnsgd1na2vs0mg"},{"bike_id":"59ee3937-0008-4b02-b4b6-43bc8df30463","system_id":"levelo_inurba_marseille","lat":43.312239,"lon":5.368562,"is_reserved":false,"is_disabled":false,"rental_uris":{"android":"levelo://app?vid=59ee3937-0008-4b02-b4b6-43bc8df30463","ios":"levelo://app?vid=59ee3937-0008-4b02-b4b6-43bc8df30463"},"vehicle_type_id":"4","last_reported":1718978765,"current_range_meters":14000,"station_id":"ce4bgl92rcd13ifvqbq0","pricing_plan_id":"cebpf4jnsgd1na2vs0mg"},{"bike_id":"17360560-515f-47d6-8fe8-6ac86be1cebe","system_id":"levelo_inurba_marseille","lat":43.314811,"lon":5.373103,"is_reserved":false,"is_disabled":false,"rental_uris":{"android":"levelo://app?vid=17360560-515f-47d6-8fe8-6ac86be1cebe","ios":"levelo://app?vid=17360560-515f-47d6-8fe8-6ac86be1cebe"},"vehicle_type_id":"4","last_reported":1718978765,"current_range_meters":800,"station_id":"ce4bgt12rcd13ifvqcd0","pricing_plan_id":"cebpf4jnsgd1na2vs0mg"},{"bike_id":"4751d51a-5f8c-4d21-bd13-e7b433491e4d","system_id":"levelo_inurba_marseille","lat":43.314811,"lon":5.373104,"is_reserved":false,"is_disabled":false,"rental_uris":{"android":"levelo://app?vid=4751d51a-5f8c-4d21-bd13-e7b433491e4d","ios":"levelo://app?vid=4751d51a-5f8c-4d21-bd13-e7b433491e4d"},"vehicle_type_id":"4","last_reported":1718978765,"current_range_meters":16400,"station_id":"ce4bgt12rcd13ifvqcd0","pricing_plan_id":"cebpf4jnsgd1na2vs0mg"},{"bike_id":"20f31c62-307b-4c16-93b6-6fcc5accd677","system_id":"levelo_inurba_marseille","lat":43.31467,"lon":5.37349,"is_reserved":false,"is_disabled":false,"rental_uris":{"android":"levelo://app?vid=20f31c62-307b-4c16-93b6-6fcc5accd677","ios":"levelo://app?vid=20f31c62-307b-4c16-93b6-6fcc5accd677"},"vehicle_type_id":"4","last_reported":1718978765,"current_range_meters":16400,"station_id":"ce4bgt12rcd13ifvqcd0","pricing_plan_id":"cebpf4jnsgd1na2vs0mg"},{"bike_id":"8908c6ba-eb64-47b1-a9ab-43cc74c2de11","system_id":"levelo_inurba_marseille","lat":43.305543,"lon":5.367113,"is_reserved":false,"is_disabled":false,"rental_uris":{"android":"levelo://app?vid=8908c6ba-eb64-47b1-a9ab-43cc74c2de11","ios":"levelo://app?vid=8908c6ba-eb64-47b1-a9ab-43cc74c2de11"},"vehicle_type_id":"4","last_reported":1718978765,"current_range_meters":0,"station_id":"ce4bgrp2rcd13ifvqc9g","pricing_plan_id":"cebpf4jnsgd1na2vs0mg"},{"bike_id":"a5b066a7-6d48-453b-a064-565b394cc969","system_id":"levelo_inurba_marseille","lat":43.305714,"lon":5.365633,"is_reserved":false,"is_disabled":false,"rental_uris":{"android":"levelo://app?vid=a5b066a7-6d48-453b-a064-565b394cc969","ios":"levelo://app?vid=a5b066a7-6d48-453b-a064-565b394cc969"},"vehicle_type_id":"4","last_reported":1718978765,"current_range_meters":30000,"station_id":"ce4bgs12rcd13ifvqcag","pricing_plan_id":"cebpf4jnsgd1na2vs0mg"},{"bike_id":"13268e1d-01ae-47bc-a7b5-ebc86bb633f3","system_id":"levelo_inurba_marseille","lat":43.305368,"lon":5.367343,"is_reserved":false,"is_disabled":false,"rental_uris":{"android":"levelo://app?vid=13268e1d-01ae-47bc-a7b5-ebc86bb633f3","ios":"levelo://app?vid=13268e1d-01ae-47bc-a7b5-ebc86bb633f3"},"vehicle_type_id":"4","last_reported":1718978765,"current_range_meters":14800,"station_id":"ce4bgrp2rcd13ifvqc9g","pricing_plan_id":"cebpf4jnsgd1na2vs0mg"},{"bike_id":"2df394d9-10c6-4025-954c-99b781d5e3db","system_id":"levelo_inurba_marseille","lat":43.311125,"lon":5.377624,"is_reserved":false,"is_disabled":false,"rental_uris":{"android":"levelo://app?vid=2df394d9-10c6-4025-954c-99b781d5e3db","ios":"levelo://app?vid=2df394d9-10c6-4025-954c-99b781d5e3db"},"vehicle_type_id":"4","last_reported":1718978765,"current_range_meters":12800,"station_id":"ce4bgt92rcd13ifvqcg0","pricing_plan_id":"cebpf4jnsgd1na2vs0mg"},{"bike_id":"f7c4ecf5-64c9-43e5-a8d5-3c03b8dd8898","system_id":"levelo_inurba_marseille","lat":43.305989,"lon":5.37225,"is_reserved":false,"is_disabled":false,"rental_uris":{"android":"levelo://app?vid=f7c4ecf5-64c9-43e5-a8d5-3c03b8dd8898","ios":"levelo://app?vid=f7c4ecf5-64c9-43e5-a8d5-3c03b8dd8898"},"vehicle_type_id":"4","last_reported":1718978765,"current_range_meters":0,"station_id":"ce4bgqh2rcd13ifvqc4g","pricing_plan_id":"cebpf4jnsgd1na2vs0mg"},{"bike_id":"1fde0c82-7859-427d-89cc-c0d9e91d29df","system_id":"levelo_inurba_marseille","lat":43.311125,"lon":5.377624,"is_reserved":false,"is_disabled":false,"rental_uris":{"android":"levelo://app?vid=1fde0c82-7859-427d-89cc-c0d9e91d29df","ios":"levelo://app?vid=1fde0c82-7859-427d-89cc-c0d9e91d29df"},"vehicle_type_id":"4","last_reported":1718978765,"current_range_meters":30400,"station_id":"ce4bgt92rcd13ifvqcg0","pricing_plan_id":"cebpf4jnsgd1na2vs0mg"},{"bike_id":"b41ce0a5-4089-451a-8c11-1d17de72ccf6","system_id":"levelo_inurba_marseille","lat":43.311125,"lon":5.377624,"is_reserved":false,"is_disabled":false,"rental_uris":{"android":"levelo://app?vid=b41ce0a5-4089-451a-8c11-1d17de72ccf6","ios":"levelo://app?vid=b41ce0a5-4089-451a-8c11-1d17de72ccf6"},"vehicle_type_id":"4","last_reported":1718978765,"current_range_meters":800,"station_id":"ce4bgt92rcd13ifvqcg0","pricing_plan_id":"cebpf4jnsgd1na2vs0mg"},{"bike_id":"447b0e13-9f0e-4ba4-abd5-d7e5322c57d2","system_id":"levelo_inurba_marseille","lat":43.311125,"lon":5.377624,"is_reserved":false,"is_disabled":false,"rental_uris":{"android":"levelo://app?vid=447b0e13-9f0e-4ba4-abd5-d7e5322c57d2","ios":"levelo://app?vid=447b0e13-9f0e-4ba4-abd5-d7e5322c57d2"},"vehicle_type_id":"4","last_reported":1718978765,"current_range_meters":8000,"station_id":"ce4bgt92rcd13ifvqcg0","pricing_plan_id":"cebpf4jnsgd1na2vs0mg"},{"bike_id":"d9bed178-c3d4-4666-a317-a33df8c09eb7","system_id":"levelo_inurba_marseille","lat":43.317075,"lon":5.377367,"is_reserved":false,"is_disabled":false,"rental_uris":{"android":"levelo://app?vid=d9bed178-c3d4-4666-a317-a33df8c09eb7","ios":"levelo://app?vid=d9bed178-c3d4-4666-a317-a33df8c09eb7"},"vehicle_type_id":"4","last_reported":1718978765,"current_range_meters":7600,"station_id":"ce4bgth2rcd13ifvqch0","pricing_plan_id":"cebpf4jnsgd1na2vs0mg"},{"bike_id":"c90f95a5-c2a7-4693-9698-e2a16255692a","system_id":"levelo_inurba_marseille","lat":43.31715,"lon":5.37738,"is_reserved":false,"is_disabled":false,"rental_uris":{"android":"levelo://app?vid=c90f95a5-c2a7-4693-9698-e2a16255692a","ios":"levelo://app?vid=c90f95a5-c2a7-4693-9698-e2a16255692a"},"vehicle_type_id":"4","last_reported":1718978765,"current_range_meters":6000,"station_id":"ce4bgth2rcd13ifvqch0","pricing_plan_id":"cebpf4jnsgd1na2vs0mg"},{"bike_id":"fe4687b5-47fe-450a-a3af-f6f204d0bfbf","system_id":"levelo_inurba_marseille","lat":43.31711,"lon":5.37753,"is_reserved":false,"is_disabled":false,"rental_uris":{"android":"levelo://app?vid=fe4687b5-47fe-450a-a3af-f6f204d0bfbf","ios":"levelo://app?vid=fe4687b5-47fe-450a-a3af-f6f204d0bfbf"},"vehicle_type_id":"4","last_reported":1718978765,"current_range_meters":22800,"station_id":"ce4bgth2rcd13ifvqch0","pricing_plan_id":"cebpf4jnsgd1na2vs0mg"},{"bike_id":"303d38a4-98f6-48fa-8bd4-54fabe4e78dd","system_id":"levelo_inurba_marseille","lat":43.31724,"lon":5.3775,"is_reserved":false,"is_disabled":false,"rental_uris":{"android":"levelo://app?vid=303d38a4-98f6-48fa-8bd4-54fabe4e78dd","ios":"levelo://app?vid=303d38a4-98f6-48fa-8bd4-54fabe4e78dd"},"vehicle_type_id":"4","last_reported":1718978765,"current_range_meters":13600,"station_id":"ce4bgth2rcd13ifvqch0","pricing_plan_id":"cebpf4jnsgd1na2vs0mg"},{"bike_id":"30acfc05-f4e4-4335-8091-536478e13075","system_id":"levelo_inurba_marseille","lat":43.303046,"lon":5.368981,"is_reserved":false,"is_disabled":false,"rental_uris":{"android":"levelo://app?vid=30acfc05-f4e4-4335-8091-536478e13075","ios":"levelo://app?vid=30acfc05-f4e4-4335-8091-536478e13075"},"vehicle_type_id":"4","last_reported":1718978765,"current_range_meters":27200,"station_id":"ce4bgqh2rcd13ifvqc5g","pricing_plan_id":"cebpf4jnsgd1na2vs0mg"},{"bike_id":"3f6ebfce-715f-4adb-b249-8f772ad08407","system_id":"levelo_inurba_marseille","lat":43.31534,"lon":5.38039,"is_reserved":false,"is_disabled":false,"rental_uris":{"android":"levelo://app?vid=3f6ebfce-715f-4adb-b249-8f772ad08407","ios":"levelo://app?vid=3f6ebfce-715f-4adb-b249-8f772ad08407"},"vehicle_type_id":"4","last_reported":1718978765,"current_range_meters":19200,"station_id":"ce4bhsp2rcd13ifvqi50","pricing_plan_id":"cebpf4jnsgd1na2vs0mg"},{"bike_id":"1aa9382d-bd55-4aff-8971-b23615fccdae","system_id":"levelo_inurba_marseille","lat":43.310788,"lon":5.381409,"is_reserved":false,"is_disabled":false,"rental_uris":{"android":"levelo://app?vid=1aa9382d-bd55-4aff-8971-b23615fccdae","ios":"levelo://app?vid=1aa9382d-bd55-4aff-8971-b23615fccdae"},"vehicle_type_id":"4","last_reported":1718978765,"current_range_meters":5200,"station_id":"","pricing_plan_id":"cebpf4jnsgd1na2vs0mg"},{"bike_id":"1e37087b-ac87-49e2-bb62-bed3d7bc6bc2","system_id":"levelo_inurba_marseille","lat":43.308012,"lon":5.381511,"is_reserved":false,"is_disabled":false,"rental_uris":{"android":"levelo://app?vid=1e37087b-ac87-49e2-bb62-bed3d7bc6bc2","ios":"levelo://app?vid=1e37087b-ac87-49e2-bb62-bed3d7bc6bc2"},"vehicle_type_id":"4","last_reported":1718978765,"current_range_meters":22000,"station_id":"ce4bgt12rcd13ifvqce0","pricing_plan_id":"cebpf4jnsgd1na2vs0mg"},{"bike_id":"b15eb6d3-6470-46b8-8934-e60b17bf9119","system_id":"levelo_inurba_marseille","lat":43.308012,"lon":5.381511,"is_reserved":false,"is_disabled":false,"rental_uris":{"android":"levelo://app?vid=b15eb6d3-6470-46b8-8934-e60b17bf9119","ios":"levelo://app?vid=b15eb6d3-6470-46b8-8934-e60b17bf9119"},"vehicle_type_id":"4","last_reported":1718978765,"current_range_meters":31200,"station_id":"ce4bgt12rcd13ifvqce0","pricing_plan_id":"cebpf4jnsgd1na2vs0mg"},{"bike_id":"f60f6857-4ace-4830-9450-34fefb591401","system_id":"levelo_inurba_marseille","lat":43.308012,"lon":5.381511,"is_reserved":false,"is_disabled":false,"rental_uris":{"android":"levelo://app?vid=f60f6857-4ace-4830-9450-34fefb591401","ios":"levelo://app?vid=f60f6857-4ace-4830-9450-34fefb591401"},"vehicle_type_id":"4","last_reported":1718978765,"current_range_meters":28000,"station_id":"ce4bgt12rcd13ifvqce0","pricing_plan_id":"cebpf4jnsgd1na2vs0mg"},{"bike_id":"4d9b8fb1-d2f6-4766-844f-3eccd1e64543","system_id":"levelo_inurba_marseille","lat":43.308012,"lon":5.381511,"is_reserved":false,"is_disabled":false,"rental_uris":{"android":"levelo://app?vid=4d9b8fb1-d2f6-4766-844f-3eccd1e64543","ios":"levelo://app?vid=4d9b8fb1-d2f6-4766-844f-3eccd1e64543"},"vehicle_type_id":"4","last_reported":1718978765,"current_range_meters":31200,"station_id":"ce4bgt12rcd13ifvqce0","pricing_plan_id":"cebpf4jnsgd1na2vs0mg"},{"bike_id":"d045c74b-c877-46ae-87ee-b7a3f1a8fe4e","system_id":"levelo_inurba_marseille","lat":43.308012,"lon":5.381511,"is_reserved":false,"is_disabled":false,"rental_uris":{"android":"levelo://app?vid=d045c74b-c877-46ae-87ee-b7a3f1a8fe4e","ios":"levelo://app?vid=d045c74b-c877-46ae-87ee-b7a3f1a8fe4e"},"vehicle_type_id":"4","last_reported":1718978765,"current_range_meters":13600,"station_id":"ce4bgt12rcd13ifvqce0","pricing_plan_id":"cebpf4jnsgd1na2vs0mg"},{"bike_id":"f9bf1fd2-7f65-4fed-992a-7dfd6a79db32","system_id":"levelo_inurba_marseille","lat":43.304606,"lon":5.379026,"is_reserved":false,"is_disabled":false,"rental_uris":{"android":"levelo://app?vid=f9bf1fd2-7f65-4fed-992a-7dfd6a79db32","ios":"levelo://app?vid=f9bf1fd2-7f65-4fed-992a-7dfd6a79db32"},"vehicle_type_id":"4","last_reported":1718978765,"current_range_meters":21600,"station_id":"ce4bgup2rcd13ifvqcn0","pricing_plan_id":"cebpf4jnsgd1na2vs0mg"},{"bike_id":"567cd815-e154-40ef-b026-81433b67cf21","system_id":"levelo_inurba_marseille","lat":43.3248,"lon":5.36569,"is_reserved":false,"is_disabled":false,"rental_uris":{"android":"levelo://app?vid=567cd815-e154-40ef-b026-81433b67cf21","ios":"levelo://app?vid=567cd815-e154-40ef-b026-81433b67cf21"},"vehicle_type_id":"4","last_reported":1718978765,"current_range_meters":19600,"station_id":"ce4bhs12rcd13ifvqhvg","pricing_plan_id":"cebpf4jnsgd1na2vs0mg"},{"bike_id":"8e82d9f4-2cfd-4cf6-855b-b9c54f8abad7","system_id":"levelo_inurba_marseille","lat":43.32482,"lon":5.36572,"is_reserved":false,"is_disabled":false,"rental_uris":{"android":"levelo://app?vid=8e82d9f4-2cfd-4cf6-855b-b9c54f8abad7","ios":"levelo://app?vid=8e82d9f4-2cfd-4cf6-855b-b9c54f8abad7"},"vehicle_type_id":"4","last_reported":1718978765,"current_range_meters":3600,"station_id":"ce4bhs12rcd13ifvqhvg","pricing_plan_id":"cebpf4jnsgd1na2vs0mg"},{"bike_id":"d8f03939-787e-4a10-983e-9d1f3bec1a91","system_id":"levelo_inurba_marseille","lat":43.302784,"lon":5.377158,"is_reserved":false,"is_disabled":false,"rental_uris":{"android":"levelo://app?vid=d8f03939-787e-4a10-983e-9d1f3bec1a91","ios":"levelo://app?vid=d8f03939-787e-4a10-983e-9d1f3bec1a91"},"vehicle_type_id":"4","last_reported":1718978765,"current_range_meters":27600,"station_id":"ce4bguh2rcd13ifvqcj0","pricing_plan_id":"cebpf4jnsgd1na2vs0mg"},{"bike_id":"0cf4f2e2-150e-4567-bd04-06c956a4df89","system_id":"levelo_inurba_marseille","lat":43.32492,"lon":5.36556,"is_reserved":false,"is_disabled":false,"rental_uris":{"android":"levelo://app?vid=0cf4f2e2-150e-4567-bd04-06c956a4df89","ios":"levelo://app?vid=0cf4f2e2-150e-4567-bd04-06c956a4df89"},"vehicle_type_id":"4","last_reported":1718978765,"current_range_meters":0,"station_id":"ce4bhs12rcd13ifvqhvg","pricing_plan_id":"cebpf4jnsgd1na2vs0mg"},{"bike_id":"2dff8bb0-4393-4425-8523-4554df4b2a96","system_id":"levelo_inurba_marseille","lat":43.30296,"lon":5.37706,"is_reserved":false,"is_disabled":false,"rental_uris":{"android":"levelo://app?vid=2dff8bb0-4393-4425-8523-4554df4b2a96","ios":"levelo://app?vid=2dff8bb0-4393-4425-8523-4554df4b2a96"},"vehicle_type_id":"4","last_reported":1718978765,"current_range_meters":27600,"station_id":"ce4bguh2rcd13ifvqcj0","pricing_plan_id":"cebpf4jnsgd1na2vs0mg"},{"bike_id":"4b4c6786-0daf-4e00-8dd3-05483bb864c6","system_id":"levelo_inurba_marseille","lat":43.310804,"lon":5.38359,"is_reserved":false,"is_disabled":false,"rental_uris":{"android":"levelo://app?vid=4b4c6786-0daf-4e00-8dd3-05483bb864c6","ios":"levelo://app?vid=4b4c6786-0daf-4e00-8dd3-05483bb864c6"},"vehicle_type_id":"4","last_reported":1718978765,"current_range_meters":0,"station_id":"ce4bgv92rcd13ifvqcr0","pricing_plan_id":"cebpf4jnsgd1na2vs0mg"},{"bike_id":"878d38a2-4838-48ed-8e62-4136fad0af27","system_id":"levelo_inurba_marseille","lat":43.3028,"lon":5.37685,"is_reserved":false,"is_disabled":false,"rental_uris":{"android":"levelo://app?vid=878d38a2-4838-48ed-8e62-4136fad0af27","ios":"levelo://app?vid=878d38a2-4838-48ed-8e62-4136fad0af27"},"vehicle_type_id":"4","last_reported":1718978765,"current_range_meters":31200,"station_id":"ce4bguh2rcd13ifvqcj0","pricing_plan_id":"cebpf4jnsgd1na2vs0mg"},{"bike_id":"1d3833c5-6812-4c4e-a723-b827ba6e8d65","system_id":"levelo_inurba_marseille","lat":43.310804,"lon":5.38359,"is_reserved":false,"is_disabled":false,"rental_uris":{"android":"levelo://app?vid=1d3833c5-6812-4c4e-a723-b827ba6e8d65","ios":"levelo://app?vid=1d3833c5-6812-4c4e-a723-b827ba6e8d65"},"vehicle_type_id":"4","last_reported":1718978765,"current_range_meters":0,"station_id":"ce4bgv92rcd13ifvqcr0","pricing_plan_id":"cebpf4jnsgd1na2vs0mg"},{"bike_id":"2b04bc10-9b2c-4c20-948f-89c41f12fc82","system_id":"levelo_inurba_marseille","lat":43.302784,"lon":5.377158,"is_reserved":false,"is_disabled":false,"rental_uris":{"android":"levelo://app?vid=2b04bc10-9b2c-4c20-948f-89c41f12fc82","ios":"levelo://app?vid=2b04bc10-9b2c-4c20-948f-89c41f12fc82"},"vehicle_type_id":"4","last_reported":1718978765,"current_range_meters":24800,"station_id":"ce4bguh2rcd13ifvqcj0","pricing_plan_id":"cebpf4jnsgd1na2vs0mg"},{"bike_id":"47b5ffe9-d66a-45f7-9dc9-1f956712e14a","system_id":"levelo_inurba_marseille","lat":43.302784,"lon":5.377158,"is_reserved":false,"is_disabled":false,"rental_uris":{"android":"levelo://app?vid=47b5ffe9-d66a-45f7-9dc9-1f956712e14a","ios":"levelo://app?vid=47b5ffe9-d66a-45f7-9dc9-1f956712e14a"},"vehicle_type_id":"4","last_reported":1718978765,"current_range_meters":30800,"station_id":"ce4bguh2rcd13ifvqcj0","pricing_plan_id":"cebpf4jnsgd1na2vs0mg"},{"bike_id":"e0917a9c-1540-428e-af3a-afe133a1cd5c","system_id":"levelo_inurba_marseille","lat":43.302784,"lon":5.377158,"is_reserved":false,"is_disabled":false,"rental_uris":{"android":"levelo://app?vid=e0917a9c-1540-428e-af3a-afe133a1cd5c","ios":"levelo://app?vid=e0917a9c-1540-428e-af3a-afe133a1cd5c"},"vehicle_type_id":"4","last_reported":1718978765,"current_range_meters":22800,"station_id":"ce4bguh2rcd13ifvqcj0","pricing_plan_id":"cebpf4jnsgd1na2vs0mg"},{"bike_id":"4d3b157b-0efc-4fc2-a924-148cfe3c4654","system_id":"levelo_inurba_marseille","lat":43.302784,"lon":5.377158,"is_reserved":false,"is_disabled":false,"rental_uris":{"android":"levelo://app?vid=4d3b157b-0efc-4fc2-a924-148cfe3c4654","ios":"levelo://app?vid=4d3b157b-0efc-4fc2-a924-148cfe3c4654"},"vehicle_type_id":"4","last_reported":1718978765,"current_range_meters":31200,"station_id":"ce4bguh2rcd13ifvqcj0","pricing_plan_id":"cebpf4jnsgd1na2vs0mg"},{"bike_id":"4f17b089-79cb-4f2e-a7e1-b736df93b457","system_id":"levelo_inurba_marseille","lat":43.320027,"lon":5.381537,"is_reserved":false,"is_disabled":false,"rental_uris":{"android":"levelo://app?vid=4f17b089-79cb-4f2e-a7e1-b736df93b457","ios":"levelo://app?vid=4f17b089-79cb-4f2e-a7e1-b736df93b457"},"vehicle_type_id":"4","last_reported":1718978765,"current_range_meters":0,"station_id":"ce4bhr12rcd13ifvqhpg","pricing_plan_id":"cebpf4jnsgd1na2vs0mg"},{"bike_id":"5a53d483-6eff-4354-8775-fdf535e61b9f","system_id":"levelo_inurba_marseille","lat":43.319935,"lon":5.381699,"is_reserved":false,"is_disabled":false,"rental_uris":{"android":"levelo://app?vid=5a53d483-6eff-4354-8775-fdf535e61b9f","ios":"levelo://app?vid=5a53d483-6eff-4354-8775-fdf535e61b9f"},"vehicle_type_id":"4","last_reported":1718978765,"current_range_meters":22400,"station_id":"ce4bhr12rcd13ifvqhpg","pricing_plan_id":"cebpf4jnsgd1na2vs0mg"},{"bike_id":"38467b22-1fb4-456f-869b-425e40282c2c","system_id":"levelo_inurba_marseille","lat":43.31368,"lon":5.38493,"is_reserved":false,"is_disabled":false,"rental_uris":{"android":"levelo://app?vid=38467b22-1fb4-456f-869b-425e40282c2c","ios":"levelo://app?vid=38467b22-1fb4-456f-869b-425e40282c2c"},"vehicle_type_id":"4","last_reported":1718978765,"current_range_meters":0,"station_id":"ce4bgt92rcd13ifvqcf0","pricing_plan_id":"cebpf4jnsgd1na2vs0mg"},{"bike_id":"5e7efb6f-e424-4d47-96d7-06e54486e8cf","system_id":"levelo_inurba_marseille","lat":43.313571,"lon":5.384829,"is_reserved":false,"is_disabled":false,"rental_uris":{"android":"levelo://app?vid=5e7efb6f-e424-4d47-96d7-06e54486e8cf","ios":"levelo://app?vid=5e7efb6f-e424-4d47-96d7-06e54486e8cf"},"vehicle_type_id":"4","last_reported":1718978765,"current_range_meters":12400,"station_id":"ce4bgt92rcd13ifvqcf0","pricing_plan_id":"cebpf4jnsgd1na2vs0mg"},{"bike_id":"5f286054-a18e-4521-b4bd-5b63c07d57be","system_id":"levelo_inurba_marseille","lat":43.313571,"lon":5.384829,"is_reserved":false,"is_disabled":false,"rental_uris":{"android":"levelo://app?vid=5f286054-a18e-4521-b4bd-5b63c07d57be","ios":"levelo://app?vid=5f286054-a18e-4521-b4bd-5b63c07d57be"},"vehicle_type_id":"4","last_reported":1718978765,"current_range_meters":24000,"station_id":"ce4bgt92rcd13ifvqcf0","pricing_plan_id":"cebpf4jnsgd1na2vs0mg"},{"bike_id":"137c2c4e-6e49-492c-a110-3c2d500f667d","system_id":"levelo_inurba_marseille","lat":43.299222,"lon":5.365554,"is_reserved":false,"is_disabled":false,"rental_uris":{"android":"levelo://app?vid=137c2c4e-6e49-492c-a110-3c2d500f667d","ios":"levelo://app?vid=137c2c4e-6e49-492c-a110-3c2d500f667d"},"vehicle_type_id":"4","last_reported":1718978765,"current_range_meters":19600,"station_id":"ce4bgm92rcd13ifvqbr0","pricing_plan_id":"cebpf4jnsgd1na2vs0mg"},{"bike_id":"d278f2cb-cfde-4dc8-882b-08eea6a7d21f","system_id":"levelo_inurba_marseille","lat":43.299724,"lon":5.371829,"is_reserved":false,"is_disabled":false,"rental_uris":{"android":"levelo://app?vid=d278f2cb-cfde-4dc8-882b-08eea6a7d21f","ios":"levelo://app?vid=d278f2cb-cfde-4dc8-882b-08eea6a7d21f"},"vehicle_type_id":"4","last_reported":1718978765,"current_range_meters":23600,"station_id":"ce4bgr92rcd13ifvqc7g","pricing_plan_id":"cebpf4jnsgd1na2vs0mg"},{"bike_id":"ecad230d-9305-4ce1-9a9a-66c255562319","system_id":"levelo_inurba_marseille","lat":43.299222,"lon":5.365554,"is_reserved":false,"is_disabled":false,"rental_uris":{"android":"levelo://app?vid=ecad230d-9305-4ce1-9a9a-66c255562319","ios":"levelo://app?vid=ecad230d-9305-4ce1-9a9a-66c255562319"},"vehicle_type_id":"4","last_reported":1718978765,"current_range_meters":22800,"station_id":"ce4bgm92rcd13ifvqbr0","pricing_plan_id":"cebpf4jnsgd1na2vs0mg"},{"bike_id":"628662f3-2cd7-4249-8b79-d039520dd563","system_id":"levelo_inurba_marseille","lat":43.299222,"lon":5.365554,"is_reserved":false,"is_disabled":false,"rental_uris":{"android":"levelo://app?vid=628662f3-2cd7-4249-8b79-d039520dd563","ios":"levelo://app?vid=628662f3-2cd7-4249-8b79-d039520dd563"},"vehicle_type_id":"4","last_reported":1718978765,"current_range_meters":20000,"station_id":"ce4bgm92rcd13ifvqbr0","pricing_plan_id":"cebpf4jnsgd1na2vs0mg"},{"bike_id":"eea01d6d-dad5-4fbe-8fd6-016e5f4c4e15","system_id":"levelo_inurba_marseille","lat":43.298433,"lon":5.362774,"is_reserved":false,"is_disabled":false,"rental_uris":{"android":"levelo://app?vid=eea01d6d-dad5-4fbe-8fd6-016e5f4c4e15","ios":"levelo://app?vid=eea01d6d-dad5-4fbe-8fd6-016e5f4c4e15"},"vehicle_type_id":"4","last_reported":1718978765,"current_range_meters":0,"station_id":"ce4bgpp2rcd13ifvqc3g","pricing_plan_id":"cebpf4jnsgd1na2vs0mg"},{"bike_id":"b2583e68-6088-4824-b098-5366f15414f9","system_id":"levelo_inurba_marseille","lat":43.298487,"lon":5.362837,"is_reserved":false,"is_disabled":false,"rental_uris":{"android":"levelo://app?vid=b2583e68-6088-4824-b098-5366f15414f9","ios":"levelo://app?vid=b2583e68-6088-4824-b098-5366f15414f9"},"vehicle_type_id":"4","last_reported":1718978765,"current_range_meters":21600,"station_id":"ce4bgpp2rcd13ifvqc3g","pricing_plan_id":"cebpf4jnsgd1na2vs0mg"},{"bike_id":"103a2948-86c5-4dd7-954f-735c4d82633b","system_id":"levelo_inurba_marseille","lat":43.305364,"lon":5.384119,"is_reserved":false,"is_disabled":false,"rental_uris":{"android":"levelo://app?vid=103a2948-86c5-4dd7-954f-735c4d82633b","ios":"levelo://app?vid=103a2948-86c5-4dd7-954f-735c4d82633b"},"vehicle_type_id":"4","last_reported":1718978765,"current_range_meters":26800,"station_id":"ce4bgg92rcd13ifvqb30","pricing_plan_id":"cebpf4jnsgd1na2vs0mg"},{"bike_id":"a2c9828a-bf1b-46a4-a6a1-de913134dd16","system_id":"levelo_inurba_marseille","lat":43.305364,"lon":5.384119,"is_reserved":false,"is_disabled":false,"rental_uris":{"android":"levelo://app?vid=a2c9828a-bf1b-46a4-a6a1-de913134dd16","ios":"levelo://app?vid=a2c9828a-bf1b-46a4-a6a1-de913134dd16"},"vehicle_type_id":"4","last_reported":1718978765,"current_range_meters":9200,"station_id":"ce4bgg92rcd13ifvqb30","pricing_plan_id":"cebpf4jnsgd1na2vs0mg"},{"bike_id":"01f84447-c267-4212-864d-804827ea76d3","system_id":"levelo_inurba_marseille","lat":43.299243,"lon":5.37481,"is_reserved":false,"is_disabled":false,"rental_uris":{"android":"levelo://app?vid=01f84447-c267-4212-864d-804827ea76d3","ios":"levelo://app?vid=01f84447-c267-4212-864d-804827ea76d3"},"vehicle_type_id":"4","last_reported":1718978765,"current_range_meters":20800,"station_id":"ce4bgjh2rcd13ifvqbg0","pricing_plan_id":"cebpf4jnsgd1na2vs0mg"},{"bike_id":"620725e7-e90d-47dc-9d8d-e6f8c548a754","system_id":"levelo_inurba_marseille","lat":43.297794,"lon":5.370888,"is_reserved":false,"is_disabled":false,"rental_uris":{"android":"levelo://app?vid=620725e7-e90d-47dc-9d8d-e6f8c548a754","ios":"levelo://app?vid=620725e7-e90d-47dc-9d8d-e6f8c548a754"},"vehicle_type_id":"4","last_reported":1718978765,"current_range_meters":26400,"station_id":"ce4bgop2rcd13ifvqc1g","pricing_plan_id":"cebpf4jnsgd1na2vs0mg"},{"bike_id":"3ae12918-7860-47be-aac5-d54ae234676a","system_id":"levelo_inurba_marseille","lat":43.322872,"lon":5.382756,"is_reserved":false,"is_disabled":false,"rental_uris":{"android":"levelo://app?vid=3ae12918-7860-47be-aac5-d54ae234676a","ios":"levelo://app?vid=3ae12918-7860-47be-aac5-d54ae234676a"},"vehicle_type_id":"4","last_reported":1718978765,"current_range_meters":26000,"station_id":"ce4bhr12rcd13ifvqhqg","pricing_plan_id":"cebpf4jnsgd1na2vs0mg"},{"bike_id":"85a71fdc-ce80-44ea-9704-bcd3802fb8ed","system_id":"levelo_inurba_marseille","lat":43.297794,"lon":5.370888,"is_reserved":false,"is_disabled":false,"rental_uris":{"android":"levelo://app?vid=85a71fdc-ce80-44ea-9704-bcd3802fb8ed","ios":"levelo://app?vid=85a71fdc-ce80-44ea-9704-bcd3802fb8ed"},"vehicle_type_id":"4","last_reported":1718978765,"current_range_meters":6400,"station_id":"ce4bgop2rcd13ifvqc1g","pricing_plan_id":"cebpf4jnsgd1na2vs0mg"},{"bike_id":"ef490b0b-c6b5-47a7-ac20-a85f5f34c3c6","system_id":"levelo_inurba_marseille","lat":43.297163,"lon":5.365866,"is_reserved":false,"is_disabled":false,"rental_uris":{"android":"levelo://app?vid=ef490b0b-c6b5-47a7-ac20-a85f5f34c3c6","ios":"levelo://app?vid=ef490b0b-c6b5-47a7-ac20-a85f5f34c3c6"},"vehicle_type_id":"4","last_reported":1718978765,"current_range_meters":31600,"station_id":"ce4bgn12rcd13ifvqbt0","pricing_plan_id":"cebpf4jnsgd1na2vs0mg"},{"bike_id":"a82d5ed9-a373-450c-8218-6ab19e659832","system_id":"levelo_inurba_marseille","lat":43.297163,"lon":5.365866,"is_reserved":false,"is_disabled":false,"rental_uris":{"android":"levelo://app?vid=a82d5ed9-a373-450c-8218-6ab19e659832","ios":"levelo://app?vid=a82d5ed9-a373-450c-8218-6ab19e659832"},"vehicle_type_id":"4","last_reported":1718978765,"current_range_meters":20400,"station_id":"ce4bgn12rcd13ifvqbt0","pricing_plan_id":"cebpf4jnsgd1na2vs0mg"},{"bike_id":"203bfdc1-7309-4a10-8640-9facd97be305","system_id":"levelo_inurba_marseille","lat":43.297163,"lon":5.365866,"is_reserved":false,"is_disabled":false,"rental_uris":{"android":"levelo://app?vid=203bfdc1-7309-4a10-8640-9facd97be305","ios":"levelo://app?vid=203bfdc1-7309-4a10-8640-9facd97be305"},"vehicle_type_id":"4","last_reported":1718978765,"current_range_meters":8000,"station_id":"ce4bgn12rcd13ifvqbt0","pricing_plan_id":"cebpf4jnsgd1na2vs0mg"},{"bike_id":"28ace8dc-8c3d-4fda-8e74-c5d18cc646b6","system_id":"levelo_inurba_marseille","lat":43.297163,"lon":5.365866,"is_reserved":false,"is_disabled":false,"rental_uris":{"android":"levelo://app?vid=28ace8dc-8c3d-4fda-8e74-c5d18cc646b6","ios":"levelo://app?vid=28ace8dc-8c3d-4fda-8e74-c5d18cc646b6"},"vehicle_type_id":"4","last_reported":1718978765,"current_range_meters":22000,"station_id":"ce4bgn12rcd13ifvqbt0","pricing_plan_id":"cebpf4jnsgd1na2vs0mg"},{"bike_id":"c8d74784-cfa3-4dc0-a55e-c53d6b6b7590","system_id":"levelo_inurba_marseille","lat":43.296495,"lon":5.361493,"is_reserved":false,"is_disabled":false,"rental_uris":{"android":"levelo://app?vid=c8d74784-cfa3-4dc0-a55e-c53d6b6b7590","ios":"levelo://app?vid=c8d74784-cfa3-4dc0-a55e-c53d6b6b7590"},"vehicle_type_id":"4","last_reported":1718978765,"current_range_meters":18800,"station_id":"","pricing_plan_id":"cebpf4jnsgd1na2vs0mg"},{"bike_id":"9d9e175d-b67f-4dc3-9d70-c954e88192eb","system_id":"levelo_inurba_marseille","lat":43.29625,"lon":5.37155,"is_reserved":false,"is_disabled":false,"rental_uris":{"android":"levelo://app?vid=9d9e175d-b67f-4dc3-9d70-c954e88192eb","ios":"levelo://app?vid=9d9e175d-b67f-4dc3-9d70-c954e88192eb"},"vehicle_type_id":"4","last_reported":1718978765,"current_range_meters":25200,"station_id":"ce4bgnh2rcd13ifvqc0g","pricing_plan_id":"cebpf4jnsgd1na2vs0mg"},{"bike_id":"0c0dc36d-85fd-4cb0-88fa-8adf09222cee","system_id":"levelo_inurba_marseille","lat":43.29623,"lon":5.37162,"is_reserved":false,"is_disabled":false,"rental_uris":{"android":"levelo://app?vid=0c0dc36d-85fd-4cb0-88fa-8adf09222cee","ios":"levelo://app?vid=0c0dc36d-85fd-4cb0-88fa-8adf09222cee"},"vehicle_type_id":"4","last_reported":1718978765,"current_range_meters":31200,"station_id":"ce4bgnh2rcd13ifvqc0g","pricing_plan_id":"cebpf4jnsgd1na2vs0mg"},{"bike_id":"33785d5e-8151-4f30-b774-636fdeb9b583","system_id":"levelo_inurba_marseille","lat":43.296131,"lon":5.370791,"is_reserved":false,"is_disabled":false,"rental_uris":{"android":"levelo://app?vid=33785d5e-8151-4f30-b774-636fdeb9b583","ios":"levelo://app?vid=33785d5e-8151-4f30-b774-636fdeb9b583"},"vehicle_type_id":"4","last_reported":1718978765,"current_range_meters":5600,"station_id":"ce4bgnh2rcd13ifvqc0g","pricing_plan_id":"cebpf4jnsgd1na2vs0mg"},{"bike_id":"41b6750f-285f-429d-95e2-a53b5c515edf","system_id":"levelo_inurba_marseille","lat":43.29622,"lon":5.37165,"is_reserved":false,"is_disabled":false,"rental_uris":{"android":"levelo://app?vid=41b6750f-285f-429d-95e2-a53b5c515edf","ios":"levelo://app?vid=41b6750f-285f-429d-95e2-a53b5c515edf"},"vehicle_type_id":"4","last_reported":1718978765,"current_range_meters":17600,"station_id":"ce4bgnh2rcd13ifvqc0g","pricing_plan_id":"cebpf4jnsgd1na2vs0mg"},{"bike_id":"0e19e75b-ca5c-46d8-9124-bf0e52050b1a","system_id":"levelo_inurba_marseille","lat":43.296935,"lon":5.376544,"is_reserved":false,"is_disabled":false,"rental_uris":{"android":"levelo://app?vid=0e19e75b-ca5c-46d8-9124-bf0e52050b1a","ios":"levelo://app?vid=0e19e75b-ca5c-46d8-9124-bf0e52050b1a"},"vehicle_type_id":"4","last_reported":1718978765,"current_range_meters":28000,"station_id":"ce4bgkh2rcd13ifvqbl0","pricing_plan_id":"cebpf4jnsgd1na2vs0mg"},{"bike_id":"2c32dac7-b615-45de-ad3a-ab0d65004436","system_id":"levelo_inurba_marseille","lat":43.299028,"lon":5.381509,"is_reserved":false,"is_disabled":false,"rental_uris":{"android":"levelo://app?vid=2c32dac7-b615-45de-ad3a-ab0d65004436","ios":"levelo://app?vid=2c32dac7-b615-45de-ad3a-ab0d65004436"},"vehicle_type_id":"4","last_reported":1718978765,"current_range_meters":20800,"station_id":"ce4bgj12rcd13ifvqbc0","pricing_plan_id":"cebpf4jnsgd1na2vs0mg"},{"bike_id":"c0c35369-5af0-4deb-99b0-ea46bde64bc3","system_id":"levelo_inurba_marseille","lat":43.296935,"lon":5.376544,"is_reserved":false,"is_disabled":false,"rental_uris":{"android":"levelo://app?vid=c0c35369-5af0-4deb-99b0-ea46bde64bc3","ios":"levelo://app?vid=c0c35369-5af0-4deb-99b0-ea46bde64bc3"},"vehicle_type_id":"4","last_reported":1718978765,"current_range_meters":30400,"station_id":"ce4bgkh2rcd13ifvqbl0","pricing_plan_id":"cebpf4jnsgd1na2vs0mg"},{"bike_id":"b522b4ab-189a-498e-ab7e-78d0c4cc9e23","system_id":"levelo_inurba_marseille","lat":43.317557,"lon":5.390173,"is_reserved":false,"is_disabled":false,"rental_uris":{"android":"levelo://app?vid=b522b4ab-189a-498e-ab7e-78d0c4cc9e23","ios":"levelo://app?vid=b522b4ab-189a-498e-ab7e-78d0c4cc9e23"},"vehicle_type_id":"4","last_reported":1718978765,"current_range_meters":16400,"station_id":"ce4bhqp2rcd13ifvqhng","pricing_plan_id":"cebpf4jnsgd1na2vs0mg"},{"bike_id":"97cb19b7-26dd-4a4e-ba62-4a15570c3e5f","system_id":"levelo_inurba_marseille","lat":43.31757,"lon":5.3902,"is_reserved":false,"is_disabled":false,"rental_uris":{"android":"levelo://app?vid=97cb19b7-26dd-4a4e-ba62-4a15570c3e5f","ios":"levelo://app?vid=97cb19b7-26dd-4a4e-ba62-4a15570c3e5f"},"vehicle_type_id":"4","last_reported":1718978765,"current_range_meters":12400,"station_id":"ce4bhqp2rcd13ifvqhng","pricing_plan_id":"cebpf4jnsgd1na2vs0mg"},{"bike_id":"28f80400-7f5a-4851-9e1b-185b7414bb91","system_id":"levelo_inurba_marseille","lat":43.31758,"lon":5.390217,"is_reserved":false,"is_disabled":false,"rental_uris":{"android":"levelo://app?vid=28f80400-7f5a-4851-9e1b-185b7414bb91","ios":"levelo://app?vid=28f80400-7f5a-4851-9e1b-185b7414bb91"},"vehicle_type_id":"4","last_reported":1718978765,"current_range_meters":22800,"station_id":"ce4bhqp2rcd13ifvqhng","pricing_plan_id":"cebpf4jnsgd1na2vs0mg"},{"bike_id":"561a6528-6f0e-49a1-b2fe-8c0dda055aff","system_id":"levelo_inurba_marseille","lat":43.317557,"lon":5.390173,"is_reserved":false,"is_disabled":false,"rental_uris":{"android":"levelo://app?vid=561a6528-6f0e-49a1-b2fe-8c0dda055aff","ios":"levelo://app?vid=561a6528-6f0e-49a1-b2fe-8c0dda055aff"},"vehicle_type_id":"4","last_reported":1718978765,"current_range_meters":0,"station_id":"ce4bhqp2rcd13ifvqhng","pricing_plan_id":"cebpf4jnsgd1na2vs0mg"},{"bike_id":"ab508447-626b-488a-a7dc-75bf75875769","system_id":"levelo_inurba_marseille","lat":43.295748,"lon":5.37522,"is_reserved":false,"is_disabled":false,"rental_uris":{"android":"levelo://app?vid=ab508447-626b-488a-a7dc-75bf75875769","ios":"levelo://app?vid=ab508447-626b-488a-a7dc-75bf75875769"},"vehicle_type_id":"4","last_reported":1718978765,"current_range_meters":22400,"station_id":"ce4bgh92rcd13ifvqb50","pricing_plan_id":"cebpf4jnsgd1na2vs0mg"},{"bike_id":"20f7fdc3-ec50-4fdb-afe8-b7e59f7f6489","system_id":"levelo_inurba_marseille","lat":43.295748,"lon":5.37522,"is_reserved":false,"is_disabled":false,"rental_uris":{"android":"levelo://app?vid=20f7fdc3-ec50-4fdb-afe8-b7e59f7f6489","ios":"levelo://app?vid=20f7fdc3-ec50-4fdb-afe8-b7e59f7f6489"},"vehicle_type_id":"4","last_reported":1718978765,"current_range_meters":19600,"station_id":"ce4bgh92rcd13ifvqb50","pricing_plan_id":"cebpf4jnsgd1na2vs0mg"},{"bike_id":"fcca2ba3-216b-4323-b52c-73f1c3db0490","system_id":"levelo_inurba_marseille","lat":43.298037,"lon":5.381066,"is_reserved":false,"is_disabled":false,"rental_uris":{"android":"levelo://app?vid=fcca2ba3-216b-4323-b52c-73f1c3db0490","ios":"levelo://app?vid=fcca2ba3-216b-4323-b52c-73f1c3db0490"},"vehicle_type_id":"4","last_reported":1718978765,"current_range_meters":12800,"station_id":"ce4bgip2rcd13ifvqbb0","pricing_plan_id":"cebpf4jnsgd1na2vs0mg"},{"bike_id":"ba5596a2-ed1c-453c-934b-043ed0c4b961","system_id":"levelo_inurba_marseille","lat":43.295279,"lon":5.375048,"is_reserved":false,"is_disabled":false,"rental_uris":{"android":"levelo://app?vid=ba5596a2-ed1c-453c-934b-043ed0c4b961","ios":"levelo://app?vid=ba5596a2-ed1c-453c-934b-043ed0c4b961"},"vehicle_type_id":"4","last_reported":1718978765,"current_range_meters":30000,"station_id":"ce4bgkp2rcd13ifvqbmg","pricing_plan_id":"cebpf4jnsgd1na2vs0mg"},{"bike_id":"947cef8a-c6e6-466d-91c1-488a50130c8b","system_id":"levelo_inurba_marseille","lat":43.298037,"lon":5.381066,"is_reserved":false,"is_disabled":false,"rental_uris":{"android":"levelo://app?vid=947cef8a-c6e6-466d-91c1-488a50130c8b","ios":"levelo://app?vid=947cef8a-c6e6-466d-91c1-488a50130c8b"},"vehicle_type_id":"4","last_reported":1718978765,"current_range_meters":10400,"station_id":"ce4bgip2rcd13ifvqbb0","pricing_plan_id":"cebpf4jnsgd1na2vs0mg"},{"bike_id":"91e63ca3-b1bd-43e1-a374-fa93fc2766ef","system_id":"levelo_inurba_marseille","lat":43.295279,"lon":5.375048,"is_reserved":false,"is_disabled":false,"rental_uris":{"android":"levelo://app?vid=91e63ca3-b1bd-43e1-a374-fa93fc2766ef","ios":"levelo://app?vid=91e63ca3-b1bd-43e1-a374-fa93fc2766ef"},"vehicle_type_id":"4","last_reported":1718978765,"current_range_meters":19200,"station_id":"ce4bgkp2rcd13ifvqbmg","pricing_plan_id":"cebpf4jnsgd1na2vs0mg"},{"bike_id":"b2ca4759-56b6-455f-85bc-e5dd2fed1f5e","system_id":"levelo_inurba_marseille","lat":43.295279,"lon":5.375048,"is_reserved":false,"is_disabled":false,"rental_uris":{"android":"levelo://app?vid=b2ca4759-56b6-455f-85bc-e5dd2fed1f5e","ios":"levelo://app?vid=b2ca4759-56b6-455f-85bc-e5dd2fed1f5e"},"vehicle_type_id":"4","last_reported":1718978765,"current_range_meters":28000,"station_id":"ce4bgkp2rcd13ifvqbmg","pricing_plan_id":"cebpf4jnsgd1na2vs0mg"},{"bike_id":"9a2c0738-c0a6-4aac-9ba7-5d41975c9ef2","system_id":"levelo_inurba_marseille","lat":43.295279,"lon":5.375048,"is_reserved":false,"is_disabled":false,"rental_uris":{"android":"levelo://app?vid=9a2c0738-c0a6-4aac-9ba7-5d41975c9ef2","ios":"levelo://app?vid=9a2c0738-c0a6-4aac-9ba7-5d41975c9ef2"},"vehicle_type_id":"4","last_reported":1718978765,"current_range_meters":0,"station_id":"ce4bgkp2rcd13ifvqbmg","pricing_plan_id":"cebpf4jnsgd1na2vs0mg"},{"bike_id":"52a55485-1f1e-4aa4-a694-9542559f1668","system_id":"levelo_inurba_marseille","lat":43.295279,"lon":5.375048,"is_reserved":false,"is_disabled":false,"rental_uris":{"android":"levelo://app?vid=52a55485-1f1e-4aa4-a694-9542559f1668","ios":"levelo://app?vid=52a55485-1f1e-4aa4-a694-9542559f1668"},"vehicle_type_id":"4","last_reported":1718978765,"current_range_meters":25200,"station_id":"ce4bgkp2rcd13ifvqbmg","pricing_plan_id":"cebpf4jnsgd1na2vs0mg"},{"bike_id":"06f74501-dde8-4908-8392-ddeb59f2bd4f","system_id":"levelo_inurba_marseille","lat":43.29413,"lon":5.3747,"is_reserved":false,"is_disabled":false,"rental_uris":{"android":"levelo://app?vid=06f74501-dde8-4908-8392-ddeb59f2bd4f","ios":"levelo://app?vid=06f74501-dde8-4908-8392-ddeb59f2bd4f"},"vehicle_type_id":"4","last_reported":1718978765,"current_range_meters":400,"station_id":"ce4bgi12rcd13ifvqb70","pricing_plan_id":"cebpf4jnsgd1na2vs0mg"},{"bike_id":"02b5ebd5-93d3-48c6-89b1-a7dae2d68505","system_id":"levelo_inurba_marseille","lat":43.29602,"lon":5.381084,"is_reserved":false,"is_disabled":false,"rental_uris":{"android":"levelo://app?vid=02b5ebd5-93d3-48c6-89b1-a7dae2d68505","ios":"levelo://app?vid=02b5ebd5-93d3-48c6-89b1-a7dae2d68505"},"vehicle_type_id":"4","last_reported":1718978765,"current_range_meters":18800,"station_id":"ce4bgl12rcd13ifvqbo0","pricing_plan_id":"cebpf4jnsgd1na2vs0mg"},{"bike_id":"919a464a-2d42-43ec-bfed-b49ea5deddc9","system_id":"levelo_inurba_marseille","lat":43.29602,"lon":5.381084,"is_reserved":false,"is_disabled":false,"rental_uris":{"android":"levelo://app?vid=919a464a-2d42-43ec-bfed-b49ea5deddc9","ios":"levelo://app?vid=919a464a-2d42-43ec-bfed-b49ea5deddc9"},"vehicle_type_id":"4","last_reported":1718978765,"current_range_meters":25200,"station_id":"ce4bgl12rcd13ifvqbo0","pricing_plan_id":"cebpf4jnsgd1na2vs0mg"},{"bike_id":"88202a62-465a-49b9-a935-ac0f947efcce","system_id":"levelo_inurba_marseille","lat":43.29602,"lon":5.3811,"is_reserved":false,"is_disabled":false,"rental_uris":{"android":"levelo://app?vid=88202a62-465a-49b9-a935-ac0f947efcce","ios":"levelo://app?vid=88202a62-465a-49b9-a935-ac0f947efcce"},"vehicle_type_id":"4","last_reported":1718978765,"current_range_meters":18000,"station_id":"ce4bgl12rcd13ifvqbo0","pricing_plan_id":"cebpf4jnsgd1na2vs0mg"},{"bike_id":"238067a2-0340-42fb-88e5-4e8ba39dfd3b","system_id":"levelo_inurba_marseille","lat":43.292749,"lon":5.368402,"is_reserved":false,"is_disabled":false,"rental_uris":{"android":"levelo://app?vid=238067a2-0340-42fb-88e5-4e8ba39dfd3b","ios":"levelo://app?vid=238067a2-0340-42fb-88e5-4e8ba39dfd3b"},"vehicle_type_id":"4","last_reported":1718978765,"current_range_meters":24000,"station_id":"ce4bhbp2rcd13ifvqesg","pricing_plan_id":"cebpf4jnsgd1na2vs0mg"},{"bike_id":"5e425af9-6a12-4a88-ba36-9f9b257481d8","system_id":"levelo_inurba_marseille","lat":43.29278,"lon":5.36839,"is_reserved":false,"is_disabled":false,"rental_uris":{"android":"levelo://app?vid=5e425af9-6a12-4a88-ba36-9f9b257481d8","ios":"levelo://app?vid=5e425af9-6a12-4a88-ba36-9f9b257481d8"},"vehicle_type_id":"4","last_reported":1718978765,"current_range_meters":3200,"station_id":"ce4bhbp2rcd13ifvqesg","pricing_plan_id":"cebpf4jnsgd1na2vs0mg"},{"bike_id":"c9443ceb-e8c0-496b-b949-84ebd05e2555","system_id":"levelo_inurba_marseille","lat":43.29745,"lon":5.38539,"is_reserved":false,"is_disabled":false,"rental_uris":{"android":"levelo://app?vid=c9443ceb-e8c0-496b-b949-84ebd05e2555","ios":"levelo://app?vid=c9443ceb-e8c0-496b-b949-84ebd05e2555"},"vehicle_type_id":"4","last_reported":1718978765,"current_range_meters":0,"station_id":"","pricing_plan_id":"cebpf4jnsgd1na2vs0mg"},{"bike_id":"1c9f1058-77a5-4b33-9738-100734f36821","system_id":"levelo_inurba_marseille","lat":43.305994,"lon":5.393687,"is_reserved":false,"is_disabled":false,"rental_uris":{"android":"levelo://app?vid=1c9f1058-77a5-4b33-9738-100734f36821","ios":"levelo://app?vid=1c9f1058-77a5-4b33-9738-100734f36821"},"vehicle_type_id":"4","last_reported":1718978765,"current_range_meters":29600,"station_id":"ce4bh0p2rcd13ifvqd80","pricing_plan_id":"cebpf4jnsgd1na2vs0mg"},{"bike_id":"e21cdaa3-bad5-42a7-877f-90cd213148b1","system_id":"levelo_inurba_marseille","lat":43.293009,"lon":5.374584,"is_reserved":false,"is_disabled":false,"rental_uris":{"android":"levelo://app?vid=e21cdaa3-bad5-42a7-877f-90cd213148b1","ios":"levelo://app?vid=e21cdaa3-bad5-42a7-877f-90cd213148b1"},"vehicle_type_id":"4","last_reported":1718978765,"current_range_meters":800,"station_id":"ce4bgi12rcd13ifvqb70","pricing_plan_id":"cebpf4jnsgd1na2vs0mg"},{"bike_id":"ffabf56f-0c3b-4b90-9196-284e8c2e3ec1","system_id":"levelo_inurba_marseille","lat":43.302992,"lon":5.392136,"is_reserved":false,"is_disabled":false,"rental_uris":{"android":"levelo://app?vid=ffabf56f-0c3b-4b90-9196-284e8c2e3ec1","ios":"levelo://app?vid=ffabf56f-0c3b-4b90-9196-284e8c2e3ec1"},"vehicle_type_id":"4","last_reported":1718978765,"current_range_meters":4400,"station_id":"ce4bgkh2rcd13ifvqbk0","pricing_plan_id":"cebpf4jnsgd1na2vs0mg"},{"bike_id":"41db559e-aa17-4754-ad73-5a786aee1b65","system_id":"levelo_inurba_marseille","lat":43.303002,"lon":5.392142,"is_reserved":false,"is_disabled":false,"rental_uris":{"android":"levelo://app?vid=41db559e-aa17-4754-ad73-5a786aee1b65","ios":"levelo://app?vid=41db559e-aa17-4754-ad73-5a786aee1b65"},"vehicle_type_id":"4","last_reported":1718978765,"current_range_meters":0,"station_id":"ce4bgkh2rcd13ifvqbk0","pricing_plan_id":"cebpf4jnsgd1na2vs0mg"},{"bike_id":"3f720b99-cb70-4ff5-8972-591fe73279c2","system_id":"levelo_inurba_marseille","lat":43.2936,"lon":5.37835,"is_reserved":false,"is_disabled":false,"rental_uris":{"android":"levelo://app?vid=3f720b99-cb70-4ff5-8972-591fe73279c2","ios":"levelo://app?vid=3f720b99-cb70-4ff5-8972-591fe73279c2"},"vehicle_type_id":"4","last_reported":1718978765,"current_range_meters":0,"station_id":"ce4bgjh2rcd13ifvqbf0","pricing_plan_id":"cebpf4jnsgd1na2vs0mg"},{"bike_id":"d3676700-93d1-44fd-a0cd-fc9933f0d209","system_id":"levelo_inurba_marseille","lat":43.292311,"lon":5.360731,"is_reserved":false,"is_disabled":false,"rental_uris":{"android":"levelo://app?vid=d3676700-93d1-44fd-a0cd-fc9933f0d209","ios":"levelo://app?vid=d3676700-93d1-44fd-a0cd-fc9933f0d209"},"vehicle_type_id":"4","last_reported":1718978765,"current_range_meters":22800,"station_id":"ce4bhbh2rcd13ifvqeqg","pricing_plan_id":"cebpf4jnsgd1na2vs0mg"},{"bike_id":"687c2d5b-ef98-4e08-8e56-6b137caf87b4","system_id":"levelo_inurba_marseille","lat":43.294642,"lon":5.381386,"is_reserved":false,"is_disabled":false,"rental_uris":{"android":"levelo://app?vid=687c2d5b-ef98-4e08-8e56-6b137caf87b4","ios":"levelo://app?vid=687c2d5b-ef98-4e08-8e56-6b137caf87b4"},"vehicle_type_id":"4","last_reported":1718978765,"current_range_meters":18800,"station_id":"","pricing_plan_id":"cebpf4jnsgd1na2vs0mg"},{"bike_id":"30072201-4165-40bf-8161-c79e6bc75ee7","system_id":"levelo_inurba_marseille","lat":43.292311,"lon":5.360731,"is_reserved":false,"is_disabled":false,"rental_uris":{"android":"levelo://app?vid=30072201-4165-40bf-8161-c79e6bc75ee7","ios":"levelo://app?vid=30072201-4165-40bf-8161-c79e6bc75ee7"},"vehicle_type_id":"4","last_reported":1718978765,"current_range_meters":28800,"station_id":"ce4bhbh2rcd13ifvqeqg","pricing_plan_id":"cebpf4jnsgd1na2vs0mg"},{"bike_id":"15bb9032-c795-4b66-934f-975b995183cb","system_id":"levelo_inurba_marseille","lat":43.292311,"lon":5.360731,"is_reserved":false,"is_disabled":false,"rental_uris":{"android":"levelo://app?vid=15bb9032-c795-4b66-934f-975b995183cb","ios":"levelo://app?vid=15bb9032-c795-4b66-934f-975b995183cb"},"vehicle_type_id":"4","last_reported":1718978765,"current_range_meters":8400,"station_id":"ce4bhbh2rcd13ifvqeqg","pricing_plan_id":"cebpf4jnsgd1na2vs0mg"},{"bike_id":"7e514b48-c045-4faa-b6ea-afce786e4ead","system_id":"levelo_inurba_marseille","lat":43.292311,"lon":5.360731,"is_reserved":false,"is_disabled":false,"rental_uris":{"android":"levelo://app?vid=7e514b48-c045-4faa-b6ea-afce786e4ead","ios":"levelo://app?vid=7e514b48-c045-4faa-b6ea-afce786e4ead"},"vehicle_type_id":"4","last_reported":1718978765,"current_range_meters":6400,"station_id":"ce4bhbh2rcd13ifvqeqg","pricing_plan_id":"cebpf4jnsgd1na2vs0mg"},{"bike_id":"ca21b7b4-7c6b-4cdc-84ae-73675a60b6c2","system_id":"levelo_inurba_marseille","lat":43.292311,"lon":5.360731,"is_reserved":false,"is_disabled":false,"rental_uris":{"android":"levelo://app?vid=ca21b7b4-7c6b-4cdc-84ae-73675a60b6c2","ios":"levelo://app?vid=ca21b7b4-7c6b-4cdc-84ae-73675a60b6c2"},"vehicle_type_id":"4","last_reported":1718978765,"current_range_meters":12400,"station_id":"ce4bhbh2rcd13ifvqeqg","pricing_plan_id":"cebpf4jnsgd1na2vs0mg"},{"bike_id":"79a4bcd8-1133-4f89-bd7a-1184d2039225","system_id":"levelo_inurba_marseille","lat":43.292311,"lon":5.360731,"is_reserved":false,"is_disabled":false,"rental_uris":{"android":"levelo://app?vid=79a4bcd8-1133-4f89-bd7a-1184d2039225","ios":"levelo://app?vid=79a4bcd8-1133-4f89-bd7a-1184d2039225"},"vehicle_type_id":"4","last_reported":1718978765,"current_range_meters":3600,"station_id":"ce4bhbh2rcd13ifvqeqg","pricing_plan_id":"cebpf4jnsgd1na2vs0mg"},{"bike_id":"d180d09e-010d-41d8-8a62-47bce0950cd2","system_id":"levelo_inurba_marseille","lat":43.29224,"lon":5.36057,"is_reserved":false,"is_disabled":false,"rental_uris":{"android":"levelo://app?vid=d180d09e-010d-41d8-8a62-47bce0950cd2","ios":"levelo://app?vid=d180d09e-010d-41d8-8a62-47bce0950cd2"},"vehicle_type_id":"4","last_reported":1718978765,"current_range_meters":16400,"station_id":"ce4bhbh2rcd13ifvqeqg","pricing_plan_id":"cebpf4jnsgd1na2vs0mg"},{"bike_id":"0bfb8378-da93-4cf0-9bac-fe36568e731a","system_id":"levelo_inurba_marseille","lat":43.292311,"lon":5.360731,"is_reserved":false,"is_disabled":false,"rental_uris":{"android":"levelo://app?vid=0bfb8378-da93-4cf0-9bac-fe36568e731a","ios":"levelo://app?vid=0bfb8378-da93-4cf0-9bac-fe36568e731a"},"vehicle_type_id":"4","last_reported":1718978765,"current_range_meters":23200,"station_id":"ce4bhbh2rcd13ifvqeqg","pricing_plan_id":"cebpf4jnsgd1na2vs0mg"},{"bike_id":"c0ee0a6d-a9c9-4c39-aab1-f71a47a811a2","system_id":"levelo_inurba_marseille","lat":43.29224,"lon":5.36056,"is_reserved":false,"is_disabled":false,"rental_uris":{"android":"levelo://app?vid=c0ee0a6d-a9c9-4c39-aab1-f71a47a811a2","ios":"levelo://app?vid=c0ee0a6d-a9c9-4c39-aab1-f71a47a811a2"},"vehicle_type_id":"4","last_reported":1718978765,"current_range_meters":9200,"station_id":"ce4bhbh2rcd13ifvqeqg","pricing_plan_id":"cebpf4jnsgd1na2vs0mg"},{"bike_id":"60aca34e-6fd9-474d-a264-65a0f7a449a2","system_id":"levelo_inurba_marseille","lat":43.298764,"lon":5.388973,"is_reserved":false,"is_disabled":false,"rental_uris":{"android":"levelo://app?vid=60aca34e-6fd9-474d-a264-65a0f7a449a2","ios":"levelo://app?vid=60aca34e-6fd9-474d-a264-65a0f7a449a2"},"vehicle_type_id":"4","last_reported":1718978765,"current_range_meters":26800,"station_id":"ce4bh392rcd13ifvqdl0","pricing_plan_id":"cebpf4jnsgd1na2vs0mg"},{"bike_id":"bb21fd80-58da-44c0-8d8e-8aabe9f82f30","system_id":"levelo_inurba_marseille","lat":43.291675,"lon":5.371583,"is_reserved":false,"is_disabled":false,"rental_uris":{"android":"levelo://app?vid=bb21fd80-58da-44c0-8d8e-8aabe9f82f30","ios":"levelo://app?vid=bb21fd80-58da-44c0-8d8e-8aabe9f82f30"},"vehicle_type_id":"4","last_reported":1718978765,"current_range_meters":1200,"station_id":"ce4bha92rcd13ifvqeh0","pricing_plan_id":"cebpf4jnsgd1na2vs0mg"},{"bike_id":"8a6a29c7-68f0-40f9-9e66-e63555a7f82e","system_id":"levelo_inurba_marseille","lat":43.298764,"lon":5.388973,"is_reserved":false,"is_disabled":false,"rental_uris":{"android":"levelo://app?vid=8a6a29c7-68f0-40f9-9e66-e63555a7f82e","ios":"levelo://app?vid=8a6a29c7-68f0-40f9-9e66-e63555a7f82e"},"vehicle_type_id":"4","last_reported":1718978765,"current_range_meters":25200,"station_id":"ce4bh392rcd13ifvqdl0","pricing_plan_id":"cebpf4jnsgd1na2vs0mg"},{"bike_id":"99c55085-0491-43b8-ad03-73b288ac364c","system_id":"levelo_inurba_marseille","lat":43.292005,"lon":5.357875,"is_reserved":false,"is_disabled":false,"rental_uris":{"android":"levelo://app?vid=99c55085-0491-43b8-ad03-73b288ac364c","ios":"levelo://app?vid=99c55085-0491-43b8-ad03-73b288ac364c"},"vehicle_type_id":"4","last_reported":1718978765,"current_range_meters":14800,"station_id":"ce4bhb12rcd13ifvqel0","pricing_plan_id":"cebpf4jnsgd1na2vs0mg"},{"bike_id":"0aa69ae8-9e22-4094-b72d-3214e9bb5e8e","system_id":"levelo_inurba_marseille","lat":43.292005,"lon":5.357875,"is_reserved":false,"is_disabled":false,"rental_uris":{"android":"levelo://app?vid=0aa69ae8-9e22-4094-b72d-3214e9bb5e8e","ios":"levelo://app?vid=0aa69ae8-9e22-4094-b72d-3214e9bb5e8e"},"vehicle_type_id":"4","last_reported":1718978765,"current_range_meters":12800,"station_id":"ce4bhb12rcd13ifvqel0","pricing_plan_id":"cebpf4jnsgd1na2vs0mg"},{"bike_id":"62171fe1-8e68-4935-a03f-940dde5a4608","system_id":"levelo_inurba_marseille","lat":43.292005,"lon":5.357875,"is_reserved":false,"is_disabled":false,"rental_uris":{"android":"levelo://app?vid=62171fe1-8e68-4935-a03f-940dde5a4608","ios":"levelo://app?vid=62171fe1-8e68-4935-a03f-940dde5a4608"},"vehicle_type_id":"4","last_reported":1718978765,"current_range_meters":23600,"station_id":"ce4bhb12rcd13ifvqel0","pricing_plan_id":"cebpf4jnsgd1na2vs0mg"},{"bike_id":"f122ff05-c12b-4389-ad31-e5edf35b5383","system_id":"levelo_inurba_marseille","lat":43.291994,"lon":5.357886,"is_reserved":false,"is_disabled":false,"rental_uris":{"android":"levelo://app?vid=f122ff05-c12b-4389-ad31-e5edf35b5383","ios":"levelo://app?vid=f122ff05-c12b-4389-ad31-e5edf35b5383"},"vehicle_type_id":"4","last_reported":1718978765,"current_range_meters":26000,"station_id":"ce4bhb12rcd13ifvqel0","pricing_plan_id":"cebpf4jnsgd1na2vs0mg"},{"bike_id":"75f5610b-ea4b-4944-856c-a7ed4bcd1f8f","system_id":"levelo_inurba_marseille","lat":43.292005,"lon":5.357875,"is_reserved":false,"is_disabled":false,"rental_uris":{"android":"levelo://app?vid=75f5610b-ea4b-4944-856c-a7ed4bcd1f8f","ios":"levelo://app?vid=75f5610b-ea4b-4944-856c-a7ed4bcd1f8f"},"vehicle_type_id":"4","last_reported":1718978765,"current_range_meters":11200,"station_id":"ce4bhb12rcd13ifvqel0","pricing_plan_id":"cebpf4jnsgd1na2vs0mg"},{"bike_id":"e1d27ae6-b5d1-41f1-9228-38520ebf6ae1","system_id":"levelo_inurba_marseille","lat":43.313291,"lon":5.396838,"is_reserved":false,"is_disabled":false,"rental_uris":{"android":"levelo://app?vid=e1d27ae6-b5d1-41f1-9228-38520ebf6ae1","ios":"levelo://app?vid=e1d27ae6-b5d1-41f1-9228-38520ebf6ae1"},"vehicle_type_id":"4","last_reported":1718978765,"current_range_meters":8800,"station_id":"ce4bgvp2rcd13ifvqcu0","pricing_plan_id":"cebpf4jnsgd1na2vs0mg"},{"bike_id":"d88ad2b3-0188-4688-87c4-7bcce14011f6","system_id":"levelo_inurba_marseille","lat":43.292005,"lon":5.357875,"is_reserved":false,"is_disabled":false,"rental_uris":{"android":"levelo://app?vid=d88ad2b3-0188-4688-87c4-7bcce14011f6","ios":"levelo://app?vid=d88ad2b3-0188-4688-87c4-7bcce14011f6"},"vehicle_type_id":"4","last_reported":1718978765,"current_range_meters":21200,"station_id":"ce4bhb12rcd13ifvqel0","pricing_plan_id":"cebpf4jnsgd1na2vs0mg"},{"bike_id":"90841a2d-4e42-4014-bac9-ed31887992b7","system_id":"levelo_inurba_marseille","lat":43.313291,"lon":5.396838,"is_reserved":false,"is_disabled":false,"rental_uris":{"android":"levelo://app?vid=90841a2d-4e42-4014-bac9-ed31887992b7","ios":"levelo://app?vid=90841a2d-4e42-4014-bac9-ed31887992b7"},"vehicle_type_id":"4","last_reported":1718978765,"current_range_meters":10800,"station_id":"ce4bgvp2rcd13ifvqcu0","pricing_plan_id":"cebpf4jnsgd1na2vs0mg"},{"bike_id":"a98eaee5-dd2a-4422-b795-fcb2935b87a2","system_id":"levelo_inurba_marseille","lat":43.313291,"lon":5.396838,"is_reserved":false,"is_disabled":false,"rental_uris":{"android":"levelo://app?vid=a98eaee5-dd2a-4422-b795-fcb2935b87a2","ios":"levelo://app?vid=a98eaee5-dd2a-4422-b795-fcb2935b87a2"},"vehicle_type_id":"4","last_reported":1718978765,"current_range_meters":15200,"station_id":"ce4bgvp2rcd13ifvqcu0","pricing_plan_id":"cebpf4jnsgd1na2vs0mg"},{"bike_id":"e1b0c701-d69e-4c47-9e36-8a1ac145badb","system_id":"levelo_inurba_marseille","lat":43.29529,"lon":5.385581,"is_reserved":false,"is_disabled":false,"rental_uris":{"android":"levelo://app?vid=e1b0c701-d69e-4c47-9e36-8a1ac145badb","ios":"levelo://app?vid=e1b0c701-d69e-4c47-9e36-8a1ac145badb"},"vehicle_type_id":"4","last_reported":1718978765,"current_range_meters":31600,"station_id":"ce4bgih2rcd13ifvqba0","pricing_plan_id":"cebpf4jnsgd1na2vs0mg"},{"bike_id":"5afb7369-1ac1-4571-9109-db3844daca93","system_id":"levelo_inurba_marseille","lat":43.29529,"lon":5.385581,"is_reserved":false,"is_disabled":false,"rental_uris":{"android":"levelo://app?vid=5afb7369-1ac1-4571-9109-db3844daca93","ios":"levelo://app?vid=5afb7369-1ac1-4571-9109-db3844daca93"},"vehicle_type_id":"4","last_reported":1718978765,"current_range_meters":0,"station_id":"ce4bgih2rcd13ifvqba0","pricing_plan_id":"cebpf4jnsgd1na2vs0mg"},{"bike_id":"7d228019-bc90-464a-8e1b-4b51b63f72f4","system_id":"levelo_inurba_marseille","lat":43.29529,"lon":5.385581,"is_reserved":false,"is_disabled":false,"rental_uris":{"android":"levelo://app?vid=7d228019-bc90-464a-8e1b-4b51b63f72f4","ios":"levelo://app?vid=7d228019-bc90-464a-8e1b-4b51b63f72f4"},"vehicle_type_id":"4","last_reported":1718978765,"current_range_meters":1200,"station_id":"ce4bgih2rcd13ifvqba0","pricing_plan_id":"cebpf4jnsgd1na2vs0mg"},{"bike_id":"7befff7d-0625-4e5b-b8be-da213b536fe4","system_id":"levelo_inurba_marseille","lat":43.29062,"lon":5.37155,"is_reserved":false,"is_disabled":false,"rental_uris":{"android":"levelo://app?vid=7befff7d-0625-4e5b-b8be-da213b536fe4","ios":"levelo://app?vid=7befff7d-0625-4e5b-b8be-da213b536fe4"},"vehicle_type_id":"4","last_reported":1718978765,"current_range_meters":28800,"station_id":"ce4bh5p2rcd13ifvqe4g","pricing_plan_id":"cebpf4jnsgd1na2vs0mg"},{"bike_id":"82c31903-dac2-4cb8-aa9e-e0984d649099","system_id":"levelo_inurba_marseille","lat":43.290624,"lon":5.359245,"is_reserved":false,"is_disabled":false,"rental_uris":{"android":"levelo://app?vid=82c31903-dac2-4cb8-aa9e-e0984d649099","ios":"levelo://app?vid=82c31903-dac2-4cb8-aa9e-e0984d649099"},"vehicle_type_id":"4","last_reported":1718978765,"current_range_meters":9200,"station_id":"ce4bha92rcd13ifvqeg0","pricing_plan_id":"cebpf4jnsgd1na2vs0mg"},{"bike_id":"bbdc8add-1601-4893-be6c-b00fa81ec9c2","system_id":"levelo_inurba_marseille","lat":43.290631,"lon":5.359244,"is_reserved":false,"is_disabled":false,"rental_uris":{"android":"levelo://app?vid=bbdc8add-1601-4893-be6c-b00fa81ec9c2","ios":"levelo://app?vid=bbdc8add-1601-4893-be6c-b00fa81ec9c2"},"vehicle_type_id":"4","last_reported":1718978765,"current_range_meters":3600,"station_id":"ce4bha92rcd13ifvqeg0","pricing_plan_id":"cebpf4jnsgd1na2vs0mg"},{"bike_id":"7e3ac071-b631-4b58-ac30-16a4c6cce20d","system_id":"levelo_inurba_marseille","lat":43.290624,"lon":5.359245,"is_reserved":false,"is_disabled":false,"rental_uris":{"android":"levelo://app?vid=7e3ac071-b631-4b58-ac30-16a4c6cce20d","ios":"levelo://app?vid=7e3ac071-b631-4b58-ac30-16a4c6cce20d"},"vehicle_type_id":"4","last_reported":1718978765,"current_range_meters":31600,"station_id":"ce4bha92rcd13ifvqeg0","pricing_plan_id":"cebpf4jnsgd1na2vs0mg"},{"bike_id":"2f4827a3-7d11-4478-b444-1bf4600953f4","system_id":"levelo_inurba_marseille","lat":43.290624,"lon":5.359245,"is_reserved":false,"is_disabled":false,"rental_uris":{"android":"levelo://app?vid=2f4827a3-7d11-4478-b444-1bf4600953f4","ios":"levelo://app?vid=2f4827a3-7d11-4478-b444-1bf4600953f4"},"vehicle_type_id":"4","last_reported":1718978765,"current_range_meters":16800,"station_id":"ce4bha92rcd13ifvqeg0","pricing_plan_id":"cebpf4jnsgd1na2vs0mg"},{"bike_id":"42106460-b6d1-4e7a-84cf-868dd903da22","system_id":"levelo_inurba_marseille","lat":43.290624,"lon":5.359245,"is_reserved":false,"is_disabled":false,"rental_uris":{"android":"levelo://app?vid=42106460-b6d1-4e7a-84cf-868dd903da22","ios":"levelo://app?vid=42106460-b6d1-4e7a-84cf-868dd903da22"},"vehicle_type_id":"4","last_reported":1718978765,"current_range_meters":16800,"station_id":"ce4bha92rcd13ifvqeg0","pricing_plan_id":"cebpf4jnsgd1na2vs0mg"},{"bike_id":"e8cd9a33-a784-4fb5-b3c6-527e189c2a0b","system_id":"levelo_inurba_marseille","lat":43.290631,"lon":5.359244,"is_reserved":false,"is_disabled":false,"rental_uris":{"android":"levelo://app?vid=e8cd9a33-a784-4fb5-b3c6-527e189c2a0b","ios":"levelo://app?vid=e8cd9a33-a784-4fb5-b3c6-527e189c2a0b"},"vehicle_type_id":"4","last_reported":1718978765,"current_range_meters":12800,"station_id":"ce4bha92rcd13ifvqeg0","pricing_plan_id":"cebpf4jnsgd1na2vs0mg"},{"bike_id":"53c5967b-70dd-4a8c-b44f-f592bf09c8ac","system_id":"levelo_inurba_marseille","lat":43.290624,"lon":5.359245,"is_reserved":false,"is_disabled":false,"rental_uris":{"android":"levelo://app?vid=53c5967b-70dd-4a8c-b44f-f592bf09c8ac","ios":"levelo://app?vid=53c5967b-70dd-4a8c-b44f-f592bf09c8ac"},"vehicle_type_id":"4","last_reported":1718978765,"current_range_meters":25600,"station_id":"ce4bha92rcd13ifvqeg0","pricing_plan_id":"cebpf4jnsgd1na2vs0mg"},{"bike_id":"ddba18f1-4423-47b1-ae45-d83637cfc424","system_id":"levelo_inurba_marseille","lat":43.290624,"lon":5.359245,"is_reserved":false,"is_disabled":false,"rental_uris":{"android":"levelo://app?vid=ddba18f1-4423-47b1-ae45-d83637cfc424","ios":"levelo://app?vid=ddba18f1-4423-47b1-ae45-d83637cfc424"},"vehicle_type_id":"4","last_reported":1718978765,"current_range_meters":31600,"station_id":"ce4bha92rcd13ifvqeg0","pricing_plan_id":"cebpf4jnsgd1na2vs0mg"},{"bike_id":"e34f0608-fa90-4412-9d52-c87ac37ba604","system_id":"levelo_inurba_marseille","lat":43.289468,"lon":5.363719,"is_reserved":false,"is_disabled":false,"rental_uris":{"android":"levelo://app?vid=e34f0608-fa90-4412-9d52-c87ac37ba604","ios":"levelo://app?vid=e34f0608-fa90-4412-9d52-c87ac37ba604"},"vehicle_type_id":"4","last_reported":1718978765,"current_range_meters":13200,"station_id":"ce4bhc92rcd13ifvqetg","pricing_plan_id":"cebpf4jnsgd1na2vs0mg"},{"bike_id":"76856384-3234-4b27-9155-c54d1e03290b","system_id":"levelo_inurba_marseille","lat":43.289184,"lon":5.366408,"is_reserved":false,"is_disabled":false,"rental_uris":{"android":"levelo://app?vid=76856384-3234-4b27-9155-c54d1e03290b","ios":"levelo://app?vid=76856384-3234-4b27-9155-c54d1e03290b"},"vehicle_type_id":"4","last_reported":1718978765,"current_range_meters":0,"station_id":"ce4bhap2rcd13ifvqek0","pricing_plan_id":"cebpf4jnsgd1na2vs0mg"},{"bike_id":"3a986ebe-c302-4380-ba8d-3e63c0880261","system_id":"levelo_inurba_marseille","lat":43.292711,"lon":5.384444,"is_reserved":false,"is_disabled":false,"rental_uris":{"android":"levelo://app?vid=3a986ebe-c302-4380-ba8d-3e63c0880261","ios":"levelo://app?vid=3a986ebe-c302-4380-ba8d-3e63c0880261"},"vehicle_type_id":"4","last_reported":1718978765,"current_range_meters":0,"station_id":"ce4bh692rcd13ifvqea0","pricing_plan_id":"cebpf4jnsgd1na2vs0mg"},{"bike_id":"560958da-4c84-4e03-b5a0-0e1dcab1be80","system_id":"levelo_inurba_marseille","lat":43.290104,"lon":5.356111,"is_reserved":false,"is_disabled":false,"rental_uris":{"android":"levelo://app?vid=560958da-4c84-4e03-b5a0-0e1dcab1be80","ios":"levelo://app?vid=560958da-4c84-4e03-b5a0-0e1dcab1be80"},"vehicle_type_id":"4","last_reported":1718978765,"current_range_meters":23200,"station_id":"ce4bhb92rcd13ifvqen0","pricing_plan_id":"cebpf4jnsgd1na2vs0mg"},{"bike_id":"be46278a-e336-424d-ba87-6d9ef8b597ba","system_id":"levelo_inurba_marseille","lat":43.290104,"lon":5.356111,"is_reserved":false,"is_disabled":false,"rental_uris":{"android":"levelo://app?vid=be46278a-e336-424d-ba87-6d9ef8b597ba","ios":"levelo://app?vid=be46278a-e336-424d-ba87-6d9ef8b597ba"},"vehicle_type_id":"4","last_reported":1718978765,"current_range_meters":15600,"station_id":"ce4bhb92rcd13ifvqen0","pricing_plan_id":"cebpf4jnsgd1na2vs0mg"},{"bike_id":"9039fe9a-bcc2-41b9-bf4e-8b34abf13d32","system_id":"levelo_inurba_marseille","lat":43.290103,"lon":5.356114,"is_reserved":false,"is_disabled":false,"rental_uris":{"android":"levelo://app?vid=9039fe9a-bcc2-41b9-bf4e-8b34abf13d32","ios":"levelo://app?vid=9039fe9a-bcc2-41b9-bf4e-8b34abf13d32"},"vehicle_type_id":"4","last_reported":1718978765,"current_range_meters":17200,"station_id":"ce4bhb92rcd13ifvqen0","pricing_plan_id":"cebpf4jnsgd1na2vs0mg"},{"bike_id":"05471d63-d3c1-4f84-9a05-d32526f75739","system_id":"levelo_inurba_marseille","lat":43.290103,"lon":5.356114,"is_reserved":false,"is_disabled":false,"rental_uris":{"android":"levelo://app?vid=05471d63-d3c1-4f84-9a05-d32526f75739","ios":"levelo://app?vid=05471d63-d3c1-4f84-9a05-d32526f75739"},"vehicle_type_id":"4","last_reported":1718978765,"current_range_meters":25200,"station_id":"ce4bhb92rcd13ifvqen0","pricing_plan_id":"cebpf4jnsgd1na2vs0mg"},{"bike_id":"566fa8b6-67d3-4b62-a358-532fb5b2db30","system_id":"levelo_inurba_marseille","lat":43.290104,"lon":5.356111,"is_reserved":false,"is_disabled":false,"rental_uris":{"android":"levelo://app?vid=566fa8b6-67d3-4b62-a358-532fb5b2db30","ios":"levelo://app?vid=566fa8b6-67d3-4b62-a358-532fb5b2db30"},"vehicle_type_id":"4","last_reported":1718978765,"current_range_meters":7200,"station_id":"ce4bhb92rcd13ifvqen0","pricing_plan_id":"cebpf4jnsgd1na2vs0mg"},{"bike_id":"bbab6750-9abc-4f9b-924e-09950554151f","system_id":"levelo_inurba_marseille","lat":43.290995,"lon":5.381361,"is_reserved":false,"is_disabled":false,"rental_uris":{"android":"levelo://app?vid=bbab6750-9abc-4f9b-924e-09950554151f","ios":"levelo://app?vid=bbab6750-9abc-4f9b-924e-09950554151f"},"vehicle_type_id":"4","last_reported":1718978765,"current_range_meters":31600,"station_id":"ce4bh512rcd13ifvqe2g","pricing_plan_id":"cebpf4jnsgd1na2vs0mg"},{"bike_id":"fe27ba46-66c8-4d83-a7c0-3d655e6ce07e","system_id":"levelo_inurba_marseille","lat":43.289743,"lon":5.378304,"is_reserved":false,"is_disabled":false,"rental_uris":{"android":"levelo://app?vid=fe27ba46-66c8-4d83-a7c0-3d655e6ce07e","ios":"levelo://app?vid=fe27ba46-66c8-4d83-a7c0-3d655e6ce07e"},"vehicle_type_id":"4","last_reported":1718978765,"current_range_meters":7600,"station_id":"ce4bh9p2rcd13ifvqed0","pricing_plan_id":"cebpf4jnsgd1na2vs0mg"},{"bike_id":"d010d5a5-ab20-43c1-b701-cec6633216b4","system_id":"levelo_inurba_marseille","lat":43.29526,"lon":5.39032,"is_reserved":false,"is_disabled":false,"rental_uris":{"android":"levelo://app?vid=d010d5a5-ab20-43c1-b701-cec6633216b4","ios":"levelo://app?vid=d010d5a5-ab20-43c1-b701-cec6633216b4"},"vehicle_type_id":"4","last_reported":1718978765,"current_range_meters":0,"station_id":"ce4bh3p2rcd13ifvqdp0","pricing_plan_id":"cebpf4jnsgd1na2vs0mg"},{"bike_id":"bfa3a36f-4315-4d5e-b595-e54bd63d55ea","system_id":"levelo_inurba_marseille","lat":43.29521,"lon":5.39025,"is_reserved":false,"is_disabled":false,"rental_uris":{"android":"levelo://app?vid=bfa3a36f-4315-4d5e-b595-e54bd63d55ea","ios":"levelo://app?vid=bfa3a36f-4315-4d5e-b595-e54bd63d55ea"},"vehicle_type_id":"4","last_reported":1718978765,"current_range_meters":26800,"station_id":"ce4bh3p2rcd13ifvqdp0","pricing_plan_id":"cebpf4jnsgd1na2vs0mg"},{"bike_id":"ed833066-c963-46bb-b72e-2dbc33fbf24e","system_id":"levelo_inurba_marseille","lat":43.330442,"lon":5.389148,"is_reserved":false,"is_disabled":false,"rental_uris":{"android":"levelo://app?vid=ed833066-c963-46bb-b72e-2dbc33fbf24e","ios":"levelo://app?vid=ed833066-c963-46bb-b72e-2dbc33fbf24e"},"vehicle_type_id":"4","last_reported":1718978765,"current_range_meters":19600,"station_id":"ce4bhr92rcd13ifvqhrg","pricing_plan_id":"cebpf4jnsgd1na2vs0mg"},{"bike_id":"bcb44b82-373a-4896-ae65-82fc0015a997","system_id":"levelo_inurba_marseille","lat":43.330442,"lon":5.389148,"is_reserved":false,"is_disabled":false,"rental_uris":{"android":"levelo://app?vid=bcb44b82-373a-4896-ae65-82fc0015a997","ios":"levelo://app?vid=bcb44b82-373a-4896-ae65-82fc0015a997"},"vehicle_type_id":"4","last_reported":1718978765,"current_range_meters":20000,"station_id":"ce4bhr92rcd13ifvqhrg","pricing_plan_id":"cebpf4jnsgd1na2vs0mg"},{"bike_id":"ee5d7985-c2c1-4c7d-9037-b772b4a45f72","system_id":"levelo_inurba_marseille","lat":43.28856,"lon":5.358371,"is_reserved":false,"is_disabled":false,"rental_uris":{"android":"levelo://app?vid=ee5d7985-c2c1-4c7d-9037-b772b4a45f72","ios":"levelo://app?vid=ee5d7985-c2c1-4c7d-9037-b772b4a45f72"},"vehicle_type_id":"4","last_reported":1718978765,"current_range_meters":31600,"station_id":"ce4bhb12rcd13ifvqem0","pricing_plan_id":"cebpf4jnsgd1na2vs0mg"},{"bike_id":"0f09af76-1df3-4e87-b92f-55a229830dd4","system_id":"levelo_inurba_marseille","lat":43.2901,"lon":5.381269,"is_reserved":false,"is_disabled":false,"rental_uris":{"android":"levelo://app?vid=0f09af76-1df3-4e87-b92f-55a229830dd4","ios":"levelo://app?vid=0f09af76-1df3-4e87-b92f-55a229830dd4"},"vehicle_type_id":"4","last_reported":1718978765,"current_range_meters":5600,"station_id":"ce4bh4p2rcd13ifvqe1g","pricing_plan_id":"cebpf4jnsgd1na2vs0mg"},{"bike_id":"5856ac18-38eb-44da-bdad-3bbeab0d4729","system_id":"levelo_inurba_marseille","lat":43.2901,"lon":5.381269,"is_reserved":false,"is_disabled":false,"rental_uris":{"android":"levelo://app?vid=5856ac18-38eb-44da-bdad-3bbeab0d4729","ios":"levelo://app?vid=5856ac18-38eb-44da-bdad-3bbeab0d4729"},"vehicle_type_id":"4","last_reported":1718978765,"current_range_meters":7600,"station_id":"ce4bh4p2rcd13ifvqe1g","pricing_plan_id":"cebpf4jnsgd1na2vs0mg"},{"bike_id":"c1424065-d7cc-44a0-85f3-4ad6c7febb4e","system_id":"levelo_inurba_marseille","lat":43.290631,"lon":5.359244,"is_reserved":false,"is_disabled":false,"rental_uris":{"android":"levelo://app?vid=c1424065-d7cc-44a0-85f3-4ad6c7febb4e","ios":"levelo://app?vid=c1424065-d7cc-44a0-85f3-4ad6c7febb4e"},"vehicle_type_id":"4","last_reported":1718978765,"current_range_meters":8000,"station_id":"ce4bha92rcd13ifvqeg0","pricing_plan_id":"cebpf4jnsgd1na2vs0mg"},{"bike_id":"df5d5e1f-930b-4d11-bfee-758ae31b63d8","system_id":"levelo_inurba_marseille","lat":43.28856,"lon":5.358371,"is_reserved":false,"is_disabled":false,"rental_uris":{"android":"levelo://app?vid=df5d5e1f-930b-4d11-bfee-758ae31b63d8","ios":"levelo://app?vid=df5d5e1f-930b-4d11-bfee-758ae31b63d8"},"vehicle_type_id":"4","last_reported":1718978765,"current_range_meters":31600,"station_id":"ce4bhb12rcd13ifvqem0","pricing_plan_id":"cebpf4jnsgd1na2vs0mg"},{"bike_id":"5350dd83-fa15-45ae-a910-a1d77e84433d","system_id":"levelo_inurba_marseille","lat":43.28856,"lon":5.358371,"is_reserved":false,"is_disabled":false,"rental_uris":{"android":"levelo://app?vid=5350dd83-fa15-45ae-a910-a1d77e84433d","ios":"levelo://app?vid=5350dd83-fa15-45ae-a910-a1d77e84433d"},"vehicle_type_id":"4","last_reported":1718978765,"current_range_meters":19600,"station_id":"ce4bhb12rcd13ifvqem0","pricing_plan_id":"cebpf4jnsgd1na2vs0mg"},{"bike_id":"05092e03-5cef-41c3-9575-df5db7507ebd","system_id":"levelo_inurba_marseille","lat":43.33739,"lon":5.37464,"is_reserved":false,"is_disabled":false,"rental_uris":{"android":"levelo://app?vid=05092e03-5cef-41c3-9575-df5db7507ebd","ios":"levelo://app?vid=05092e03-5cef-41c3-9575-df5db7507ebd"},"vehicle_type_id":"4","last_reported":1718978765,"current_range_meters":22800,"station_id":"","pricing_plan_id":"cebpf4jnsgd1na2vs0mg"},{"bike_id":"db534928-e6a2-47cc-a852-558fe66ed50c","system_id":"levelo_inurba_marseille","lat":43.33746,"lon":5.37464,"is_reserved":false,"is_disabled":false,"rental_uris":{"android":"levelo://app?vid=db534928-e6a2-47cc-a852-558fe66ed50c","ios":"levelo://app?vid=db534928-e6a2-47cc-a852-558fe66ed50c"},"vehicle_type_id":"4","last_reported":1718978765,"current_range_meters":22000,"station_id":"","pricing_plan_id":"cebpf4jnsgd1na2vs0mg"},{"bike_id":"59d0e608-4f64-44c5-abb7-c153d9c29495","system_id":"levelo_inurba_marseille","lat":43.312609,"lon":5.401662,"is_reserved":false,"is_disabled":false,"rental_uris":{"android":"levelo://app?vid=59d0e608-4f64-44c5-abb7-c153d9c29495","ios":"levelo://app?vid=59d0e608-4f64-44c5-abb7-c153d9c29495"},"vehicle_type_id":"4","last_reported":1718978765,"current_range_meters":800,"station_id":"ce4bh092rcd13ifvqd30","pricing_plan_id":"cebpf4jnsgd1na2vs0mg"},{"bike_id":"0e11bbab-a5d9-4098-a6f1-624d89f27c59","system_id":"levelo_inurba_marseille","lat":43.337572,"lon":5.374546,"is_reserved":false,"is_disabled":false,"rental_uris":{"android":"levelo://app?vid=0e11bbab-a5d9-4098-a6f1-624d89f27c59","ios":"levelo://app?vid=0e11bbab-a5d9-4098-a6f1-624d89f27c59"},"vehicle_type_id":"4","last_reported":1718978765,"current_range_meters":28000,"station_id":"","pricing_plan_id":"cebpf4jnsgd1na2vs0mg"},{"bike_id":"30550b42-5b7c-4cb0-a373-c9572ebcfe6f","system_id":"levelo_inurba_marseille","lat":43.337587,"lon":5.374563,"is_reserved":false,"is_disabled":false,"rental_uris":{"android":"levelo://app?vid=30550b42-5b7c-4cb0-a373-c9572ebcfe6f","ios":"levelo://app?vid=30550b42-5b7c-4cb0-a373-c9572ebcfe6f"},"vehicle_type_id":"4","last_reported":1718978765,"current_range_meters":24400,"station_id":"","pricing_plan_id":"cebpf4jnsgd1na2vs0mg"},{"bike_id":"c9b66a2b-0639-4d7a-b560-2bf673d8bd00","system_id":"levelo_inurba_marseille","lat":43.33033,"lon":5.39233,"is_reserved":false,"is_disabled":false,"rental_uris":{"android":"levelo://app?vid=c9b66a2b-0639-4d7a-b560-2bf673d8bd00","ios":"levelo://app?vid=c9b66a2b-0639-4d7a-b560-2bf673d8bd00"},"vehicle_type_id":"4","last_reported":1718978765,"current_range_meters":0,"station_id":"","pricing_plan_id":"cebpf4jnsgd1na2vs0mg"},{"bike_id":"6d78b7a6-fb56-4ffa-8f29-0688ebad0faa","system_id":"levelo_inurba_marseille","lat":43.33767,"lon":5.37451,"is_reserved":false,"is_disabled":false,"rental_uris":{"android":"levelo://app?vid=6d78b7a6-fb56-4ffa-8f29-0688ebad0faa","ios":"levelo://app?vid=6d78b7a6-fb56-4ffa-8f29-0688ebad0faa"},"vehicle_type_id":"4","last_reported":1718978765,"current_range_meters":23200,"station_id":"","pricing_plan_id":"cebpf4jnsgd1na2vs0mg"},{"bike_id":"a77bf3f1-dc55-4e35-8fe0-6292cee970ef","system_id":"levelo_inurba_marseille","lat":43.33035,"lon":5.39239,"is_reserved":false,"is_disabled":false,"rental_uris":{"android":"levelo://app?vid=a77bf3f1-dc55-4e35-8fe0-6292cee970ef","ios":"levelo://app?vid=a77bf3f1-dc55-4e35-8fe0-6292cee970ef"},"vehicle_type_id":"4","last_reported":1718978765,"current_range_meters":24800,"station_id":"","pricing_plan_id":"cebpf4jnsgd1na2vs0mg"},{"bike_id":"174fde28-2174-4c3e-8efb-67beec28e19e","system_id":"levelo_inurba_marseille","lat":43.301117,"lon":5.398795,"is_reserved":false,"is_disabled":false,"rental_uris":{"android":"levelo://app?vid=174fde28-2174-4c3e-8efb-67beec28e19e","ios":"levelo://app?vid=174fde28-2174-4c3e-8efb-67beec28e19e"},"vehicle_type_id":"4","last_reported":1718978765,"current_range_meters":2400,"station_id":"ce4bh0h2rcd13ifvqd40","pricing_plan_id":"cebpf4jnsgd1na2vs0mg"},{"bike_id":"fe34370e-0e75-481c-9c2c-1bf3403c771f","system_id":"levelo_inurba_marseille","lat":43.301117,"lon":5.398795,"is_reserved":false,"is_disabled":false,"rental_uris":{"android":"levelo://app?vid=fe34370e-0e75-481c-9c2c-1bf3403c771f","ios":"levelo://app?vid=fe34370e-0e75-481c-9c2c-1bf3403c771f"},"vehicle_type_id":"4","last_reported":1718978765,"current_range_meters":1200,"station_id":"ce4bh0h2rcd13ifvqd40","pricing_plan_id":"cebpf4jnsgd1na2vs0mg"},{"bike_id":"2cfcb1d3-ca23-497c-b9c3-e953a151474d","system_id":"levelo_inurba_marseille","lat":43.301117,"lon":5.398795,"is_reserved":false,"is_disabled":false,"rental_uris":{"android":"levelo://app?vid=2cfcb1d3-ca23-497c-b9c3-e953a151474d","ios":"levelo://app?vid=2cfcb1d3-ca23-497c-b9c3-e953a151474d"},"vehicle_type_id":"4","last_reported":1718978765,"current_range_meters":800,"station_id":"ce4bh0h2rcd13ifvqd40","pricing_plan_id":"cebpf4jnsgd1na2vs0mg"},{"bike_id":"1529575d-3c24-4053-9dc4-3fc753c20a3e","system_id":"levelo_inurba_marseille","lat":43.3304,"lon":5.39281,"is_reserved":false,"is_disabled":false,"rental_uris":{"android":"levelo://app?vid=1529575d-3c24-4053-9dc4-3fc753c20a3e","ios":"levelo://app?vid=1529575d-3c24-4053-9dc4-3fc753c20a3e"},"vehicle_type_id":"4","last_reported":1718978765,"current_range_meters":5600,"station_id":"","pricing_plan_id":"cebpf4jnsgd1na2vs0mg"},{"bike_id":"c362be4e-2163-4679-89c5-a65039b4d460","system_id":"levelo_inurba_marseille","lat":43.28727,"lon":5.36078,"is_reserved":false,"is_disabled":false,"rental_uris":{"android":"levelo://app?vid=c362be4e-2163-4679-89c5-a65039b4d460","ios":"levelo://app?vid=c362be4e-2163-4679-89c5-a65039b4d460"},"vehicle_type_id":"4","last_reported":1718978765,"current_range_meters":17600,"station_id":"cki0cbj6b192h4jlfktg","pricing_plan_id":"cebpf4jnsgd1na2vs0mg"},{"bike_id":"3f5b125b-dbe0-40ae-9e20-136f2ceefd51","system_id":"levelo_inurba_marseille","lat":43.286593,"lon":5.363346,"is_reserved":false,"is_disabled":false,"rental_uris":{"android":"levelo://app?vid=3f5b125b-dbe0-40ae-9e20-136f2ceefd51","ios":"levelo://app?vid=3f5b125b-dbe0-40ae-9e20-136f2ceefd51"},"vehicle_type_id":"4","last_reported":1718978765,"current_range_meters":14400,"station_id":"ce4bhah2rcd13ifvqej0","pricing_plan_id":"cebpf4jnsgd1na2vs0mg"},{"bike_id":"1d90e7bb-d110-4345-8536-c56b102b78c4","system_id":"levelo_inurba_marseille","lat":43.28705,"lon":5.37389,"is_reserved":false,"is_disabled":false,"rental_uris":{"android":"levelo://app?vid=1d90e7bb-d110-4345-8536-c56b102b78c4","ios":"levelo://app?vid=1d90e7bb-d110-4345-8536-c56b102b78c4"},"vehicle_type_id":"4","last_reported":1718978765,"current_range_meters":9600,"station_id":"ce4bh3p2rcd13ifvqdq0","pricing_plan_id":"cebpf4jnsgd1na2vs0mg"},{"bike_id":"22a28d7b-890a-4a86-a0f9-62b7444a2f7f","system_id":"levelo_inurba_marseille","lat":43.286961,"lon":5.373785,"is_reserved":false,"is_disabled":false,"rental_uris":{"android":"levelo://app?vid=22a28d7b-890a-4a86-a0f9-62b7444a2f7f","ios":"levelo://app?vid=22a28d7b-890a-4a86-a0f9-62b7444a2f7f"},"vehicle_type_id":"4","last_reported":1718978765,"current_range_meters":3600,"station_id":"ce4bh3p2rcd13ifvqdq0","pricing_plan_id":"cebpf4jnsgd1na2vs0mg"},{"bike_id":"bcacd9d9-cebf-4693-9229-d32364db3d98","system_id":"levelo_inurba_marseille","lat":43.286591,"lon":5.363346,"is_reserved":false,"is_disabled":false,"rental_uris":{"android":"levelo://app?vid=bcacd9d9-cebf-4693-9229-d32364db3d98","ios":"levelo://app?vid=bcacd9d9-cebf-4693-9229-d32364db3d98"},"vehicle_type_id":"4","last_reported":1718978765,"current_range_meters":2000,"station_id":"ce4bhah2rcd13ifvqej0","pricing_plan_id":"cebpf4jnsgd1na2vs0mg"},{"bike_id":"ca8e6a4c-0449-4940-b025-7be0528c11e8","system_id":"levelo_inurba_marseille","lat":43.286591,"lon":5.363346,"is_reserved":false,"is_disabled":false,"rental_uris":{"android":"levelo://app?vid=ca8e6a4c-0449-4940-b025-7be0528c11e8","ios":"levelo://app?vid=ca8e6a4c-0449-4940-b025-7be0528c11e8"},"vehicle_type_id":"4","last_reported":1718978765,"current_range_meters":0,"station_id":"ce4bhah2rcd13ifvqej0","pricing_plan_id":"cebpf4jnsgd1na2vs0mg"},{"bike_id":"2250089a-f6ca-4b03-88e5-f0ff289bfbf1","system_id":"levelo_inurba_marseille","lat":43.28701,"lon":5.37385,"is_reserved":false,"is_disabled":false,"rental_uris":{"android":"levelo://app?vid=2250089a-f6ca-4b03-88e5-f0ff289bfbf1","ios":"levelo://app?vid=2250089a-f6ca-4b03-88e5-f0ff289bfbf1"},"vehicle_type_id":"4","last_reported":1718978765,"current_range_meters":0,"station_id":"ce4bh3p2rcd13ifvqdq0","pricing_plan_id":"cebpf4jnsgd1na2vs0mg"},{"bike_id":"f03be70d-0a79-4b35-a8c5-f500ad844ac5","system_id":"levelo_inurba_marseille","lat":43.286992,"lon":5.373956,"is_reserved":false,"is_disabled":false,"rental_uris":{"android":"levelo://app?vid=f03be70d-0a79-4b35-a8c5-f500ad844ac5","ios":"levelo://app?vid=f03be70d-0a79-4b35-a8c5-f500ad844ac5"},"vehicle_type_id":"4","last_reported":1718978765,"current_range_meters":31200,"station_id":"ce4bh3p2rcd13ifvqdq0","pricing_plan_id":"cebpf4jnsgd1na2vs0mg"},{"bike_id":"a57cd130-edf2-43cf-9bf7-ac25d04971df","system_id":"levelo_inurba_marseille","lat":43.286591,"lon":5.363346,"is_reserved":false,"is_disabled":false,"rental_uris":{"android":"levelo://app?vid=a57cd130-edf2-43cf-9bf7-ac25d04971df","ios":"levelo://app?vid=a57cd130-edf2-43cf-9bf7-ac25d04971df"},"vehicle_type_id":"4","last_reported":1718978765,"current_range_meters":19200,"station_id":"ce4bhah2rcd13ifvqej0","pricing_plan_id":"cebpf4jnsgd1na2vs0mg"},{"bike_id":"51f6eeb8-5ec8-4aa6-9fe3-f65df8330379","system_id":"levelo_inurba_marseille","lat":43.286961,"lon":5.373785,"is_reserved":false,"is_disabled":false,"rental_uris":{"android":"levelo://app?vid=51f6eeb8-5ec8-4aa6-9fe3-f65df8330379","ios":"levelo://app?vid=51f6eeb8-5ec8-4aa6-9fe3-f65df8330379"},"vehicle_type_id":"4","last_reported":1718978765,"current_range_meters":19200,"station_id":"ce4bh3p2rcd13ifvqdq0","pricing_plan_id":"cebpf4jnsgd1na2vs0mg"},{"bike_id":"17bf8645-9ef0-48a0-8d75-c2921ce87f85","system_id":"levelo_inurba_marseille","lat":43.295196,"lon":5.39397,"is_reserved":false,"is_disabled":false,"rental_uris":{"android":"levelo://app?vid=17bf8645-9ef0-48a0-8d75-c2921ce87f85","ios":"levelo://app?vid=17bf8645-9ef0-48a0-8d75-c2921ce87f85"},"vehicle_type_id":"4","last_reported":1718978765,"current_range_meters":1200,"station_id":"ce4bh292rcd13ifvqdf0","pricing_plan_id":"cebpf4jnsgd1na2vs0mg"},{"bike_id":"1a0a9a5e-3f4e-4fcb-8dc7-5cc53d118a7e","system_id":"levelo_inurba_marseille","lat":43.295194,"lon":5.39397,"is_reserved":false,"is_disabled":false,"rental_uris":{"android":"levelo://app?vid=1a0a9a5e-3f4e-4fcb-8dc7-5cc53d118a7e","ios":"levelo://app?vid=1a0a9a5e-3f4e-4fcb-8dc7-5cc53d118a7e"},"vehicle_type_id":"4","last_reported":1718978765,"current_range_meters":19200,"station_id":"ce4bh292rcd13ifvqdf0","pricing_plan_id":"cebpf4jnsgd1na2vs0mg"},{"bike_id":"45ab8c13-cc8f-4a2d-bfbb-60292f4087a5","system_id":"levelo_inurba_marseille","lat":43.309038,"lon":5.396546,"is_reserved":false,"is_disabled":false,"rental_uris":{"android":"levelo://app?vid=45ab8c13-cc8f-4a2d-bfbb-60292f4087a5","ios":"levelo://app?vid=45ab8c13-cc8f-4a2d-bfbb-60292f4087a5"},"vehicle_type_id":"4","last_reported":1718978765,"current_range_meters":24000,"station_id":"ce4bh012rcd13ifvqcv0","pricing_plan_id":"cebpf4jnsgd1na2vs0mg"},{"bike_id":"8e93197f-de30-4eb9-834f-c0c3fcab815c","system_id":"levelo_inurba_marseille","lat":43.289307,"lon":5.38406,"is_reserved":false,"is_disabled":false,"rental_uris":{"android":"levelo://app?vid=8e93197f-de30-4eb9-834f-c0c3fcab815c","ios":"levelo://app?vid=8e93197f-de30-4eb9-834f-c0c3fcab815c"},"vehicle_type_id":"4","last_reported":1718978765,"current_range_meters":22000,"station_id":"ce4bh612rcd13ifvqe6g","pricing_plan_id":"cebpf4jnsgd1na2vs0mg"},{"bike_id":"ea1a795e-bfbd-45f1-bf56-3f1ea09d9807","system_id":"levelo_inurba_marseille","lat":43.290336,"lon":5.386425,"is_reserved":false,"is_disabled":false,"rental_uris":{"android":"levelo://app?vid=ea1a795e-bfbd-45f1-bf56-3f1ea09d9807","ios":"levelo://app?vid=ea1a795e-bfbd-45f1-bf56-3f1ea09d9807"},"vehicle_type_id":"4","last_reported":1718978765,"current_range_meters":0,"station_id":"ce4bh4p2rcd13ifvqe0g","pricing_plan_id":"cebpf4jnsgd1na2vs0mg"},{"bike_id":"b986688e-32c7-4537-b5f0-e802d89f968b","system_id":"levelo_inurba_marseille","lat":43.302759,"lon":5.400793,"is_reserved":false,"is_disabled":false,"rental_uris":{"android":"levelo://app?vid=b986688e-32c7-4537-b5f0-e802d89f968b","ios":"levelo://app?vid=b986688e-32c7-4537-b5f0-e802d89f968b"},"vehicle_type_id":"4","last_reported":1718978765,"current_range_meters":27200,"station_id":"ce4bgvh2rcd13ifvqcs0","pricing_plan_id":"cebpf4jnsgd1na2vs0mg"},{"bike_id":"5fe06fc1-c150-4d69-ac22-d807bf6f39e3","system_id":"levelo_inurba_marseille","lat":43.290345,"lon":5.38646,"is_reserved":false,"is_disabled":false,"rental_uris":{"android":"levelo://app?vid=5fe06fc1-c150-4d69-ac22-d807bf6f39e3","ios":"levelo://app?vid=5fe06fc1-c150-4d69-ac22-d807bf6f39e3"},"vehicle_type_id":"4","last_reported":1718978765,"current_range_meters":1600,"station_id":"ce4bh4p2rcd13ifvqe0g","pricing_plan_id":"cebpf4jnsgd1na2vs0mg"},{"bike_id":"2ab1b62a-3b8f-4ec7-a577-93c9df929d04","system_id":"levelo_inurba_marseille","lat":43.286039,"lon":5.370681,"is_reserved":false,"is_disabled":false,"rental_uris":{"android":"levelo://app?vid=2ab1b62a-3b8f-4ec7-a577-93c9df929d04","ios":"levelo://app?vid=2ab1b62a-3b8f-4ec7-a577-93c9df929d04"},"vehicle_type_id":"4","last_reported":1718978765,"current_range_meters":17600,"station_id":"ce4bht12rcd13ifvqi60","pricing_plan_id":"cebpf4jnsgd1na2vs0mg"},{"bike_id":"6f38c684-847a-4b9b-b37e-b936fc5b4937","system_id":"levelo_inurba_marseille","lat":43.286039,"lon":5.370681,"is_reserved":false,"is_disabled":false,"rental_uris":{"android":"levelo://app?vid=6f38c684-847a-4b9b-b37e-b936fc5b4937","ios":"levelo://app?vid=6f38c684-847a-4b9b-b37e-b936fc5b4937"},"vehicle_type_id":"4","last_reported":1718978765,"current_range_meters":10000,"station_id":"ce4bht12rcd13ifvqi60","pricing_plan_id":"cebpf4jnsgd1na2vs0mg"},{"bike_id":"988e47a1-93d4-4033-a9aa-3b722ed917d6","system_id":"levelo_inurba_marseille","lat":43.287184,"lon":5.37937,"is_reserved":false,"is_disabled":false,"rental_uris":{"android":"levelo://app?vid=988e47a1-93d4-4033-a9aa-3b722ed917d6","ios":"levelo://app?vid=988e47a1-93d4-4033-a9aa-3b722ed917d6"},"vehicle_type_id":"4","last_reported":1718978765,"current_range_meters":30400,"station_id":"ce4bh9p2rcd13ifvqec0","pricing_plan_id":"cebpf4jnsgd1na2vs0mg"},{"bike_id":"d08aea5d-95ab-4f01-8ef4-438b7a28baff","system_id":"levelo_inurba_marseille","lat":43.291994,"lon":5.392907,"is_reserved":false,"is_disabled":false,"rental_uris":{"android":"levelo://app?vid=d08aea5d-95ab-4f01-8ef4-438b7a28baff","ios":"levelo://app?vid=d08aea5d-95ab-4f01-8ef4-438b7a28baff"},"vehicle_type_id":"4","last_reported":1718978765,"current_range_meters":400,"station_id":"ce4bh192rcd13ifvqdd0","pricing_plan_id":"cebpf4jnsgd1na2vs0mg"},{"bike_id":"bc956cb7-a470-4b84-9039-0022e6c8e1fc","system_id":"levelo_inurba_marseille","lat":43.28672,"lon":5.38318,"is_reserved":false,"is_disabled":false,"rental_uris":{"android":"levelo://app?vid=bc956cb7-a470-4b84-9039-0022e6c8e1fc","ios":"levelo://app?vid=bc956cb7-a470-4b84-9039-0022e6c8e1fc"},"vehicle_type_id":"4","last_reported":1718978765,"current_range_meters":28800,"station_id":"","pricing_plan_id":"cebpf4jnsgd1na2vs0mg"},{"bike_id":"3f29f854-fcfb-400a-9f05-6b36cff5a424","system_id":"levelo_inurba_marseille","lat":43.284534,"lon":5.358662,"is_reserved":false,"is_disabled":false,"rental_uris":{"android":"levelo://app?vid=3f29f854-fcfb-400a-9f05-6b36cff5a424","ios":"levelo://app?vid=3f29f854-fcfb-400a-9f05-6b36cff5a424"},"vehicle_type_id":"4","last_reported":1718978765,"current_range_meters":22400,"station_id":"ce4bhah2rcd13ifvqei0","pricing_plan_id":"cebpf4jnsgd1na2vs0mg"},{"bike_id":"12660429-04a8-46f8-9c30-fd583412f7e5","system_id":"levelo_inurba_marseille","lat":43.294314,"lon":5.397498,"is_reserved":false,"is_disabled":false,"rental_uris":{"android":"levelo://app?vid=12660429-04a8-46f8-9c30-fd583412f7e5","ios":"levelo://app?vid=12660429-04a8-46f8-9c30-fd583412f7e5"},"vehicle_type_id":"4","last_reported":1718978765,"current_range_meters":22800,"station_id":"ce4bh3h2rcd13ifvqdo0","pricing_plan_id":"cebpf4jnsgd1na2vs0mg"},{"bike_id":"bc365083-7266-4c54-aaa4-034b4bb190c4","system_id":"levelo_inurba_marseille","lat":43.285856,"lon":5.350771,"is_reserved":false,"is_disabled":false,"rental_uris":{"android":"levelo://app?vid=bc365083-7266-4c54-aaa4-034b4bb190c4","ios":"levelo://app?vid=bc365083-7266-4c54-aaa4-034b4bb190c4"},"vehicle_type_id":"4","last_reported":1718978765,"current_range_meters":31200,"station_id":"ce4bhch2rcd13ifvqeug","pricing_plan_id":"cebpf4jnsgd1na2vs0mg"},{"bike_id":"f9a6ed5b-4589-4226-868c-3e9a4ce5aa70","system_id":"levelo_inurba_marseille","lat":43.28619,"lon":5.35109,"is_reserved":false,"is_disabled":false,"rental_uris":{"android":"levelo://app?vid=f9a6ed5b-4589-4226-868c-3e9a4ce5aa70","ios":"levelo://app?vid=f9a6ed5b-4589-4226-868c-3e9a4ce5aa70"},"vehicle_type_id":"4","last_reported":1718978765,"current_range_meters":2000,"station_id":"ce4bhch2rcd13ifvqeug","pricing_plan_id":"cebpf4jnsgd1na2vs0mg"},{"bike_id":"40740ba8-fdbb-49bc-a98d-e8b834121e0a","system_id":"levelo_inurba_marseille","lat":43.28618,"lon":5.35111,"is_reserved":false,"is_disabled":false,"rental_uris":{"android":"levelo://app?vid=40740ba8-fdbb-49bc-a98d-e8b834121e0a","ios":"levelo://app?vid=40740ba8-fdbb-49bc-a98d-e8b834121e0a"},"vehicle_type_id":"4","last_reported":1718978765,"current_range_meters":22400,"station_id":"ce4bhch2rcd13ifvqeug","pricing_plan_id":"cebpf4jnsgd1na2vs0mg"},{"bike_id":"077bb202-0b81-408d-88a2-fc4470bdbf32","system_id":"levelo_inurba_marseille","lat":43.28619,"lon":5.35106,"is_reserved":false,"is_disabled":false,"rental_uris":{"android":"levelo://app?vid=077bb202-0b81-408d-88a2-fc4470bdbf32","ios":"levelo://app?vid=077bb202-0b81-408d-88a2-fc4470bdbf32"},"vehicle_type_id":"4","last_reported":1718978765,"current_range_meters":12400,"station_id":"ce4bhch2rcd13ifvqeug","pricing_plan_id":"cebpf4jnsgd1na2vs0mg"},{"bike_id":"166bf79b-feaa-4c50-81e7-524b4b537e8c","system_id":"levelo_inurba_marseille","lat":43.28619,"lon":5.35106,"is_reserved":false,"is_disabled":false,"rental_uris":{"android":"levelo://app?vid=166bf79b-feaa-4c50-81e7-524b4b537e8c","ios":"levelo://app?vid=166bf79b-feaa-4c50-81e7-524b4b537e8c"},"vehicle_type_id":"4","last_reported":1718978765,"current_range_meters":18000,"station_id":"ce4bhch2rcd13ifvqeug","pricing_plan_id":"cebpf4jnsgd1na2vs0mg"},{"bike_id":"70817c11-c4f8-47bd-9d1d-f925d55af994","system_id":"levelo_inurba_marseille","lat":43.2862,"lon":5.35102,"is_reserved":false,"is_disabled":false,"rental_uris":{"android":"levelo://app?vid=70817c11-c4f8-47bd-9d1d-f925d55af994","ios":"levelo://app?vid=70817c11-c4f8-47bd-9d1d-f925d55af994"},"vehicle_type_id":"4","last_reported":1718978765,"current_range_meters":0,"station_id":"ce4bhch2rcd13ifvqeug","pricing_plan_id":"cebpf4jnsgd1na2vs0mg"},{"bike_id":"890711c0-ce20-4a7e-91cb-cb9986e7d9ec","system_id":"levelo_inurba_marseille","lat":43.285856,"lon":5.350771,"is_reserved":false,"is_disabled":false,"rental_uris":{"android":"levelo://app?vid=890711c0-ce20-4a7e-91cb-cb9986e7d9ec","ios":"levelo://app?vid=890711c0-ce20-4a7e-91cb-cb9986e7d9ec"},"vehicle_type_id":"4","last_reported":1718978765,"current_range_meters":27200,"station_id":"ce4bhch2rcd13ifvqeug","pricing_plan_id":"cebpf4jnsgd1na2vs0mg"},{"bike_id":"4397410c-d49f-4866-ac95-26d23f45728d","system_id":"levelo_inurba_marseille","lat":43.28617,"lon":5.35109,"is_reserved":false,"is_disabled":false,"rental_uris":{"android":"levelo://app?vid=4397410c-d49f-4866-ac95-26d23f45728d","ios":"levelo://app?vid=4397410c-d49f-4866-ac95-26d23f45728d"},"vehicle_type_id":"4","last_reported":1718978765,"current_range_meters":0,"station_id":"ce4bhch2rcd13ifvqeug","pricing_plan_id":"cebpf4jnsgd1na2vs0mg"},{"bike_id":"b4e68ff4-2f76-4144-b993-c69b6635b886","system_id":"levelo_inurba_marseille","lat":43.28617,"lon":5.35107,"is_reserved":false,"is_disabled":false,"rental_uris":{"android":"levelo://app?vid=b4e68ff4-2f76-4144-b993-c69b6635b886","ios":"levelo://app?vid=b4e68ff4-2f76-4144-b993-c69b6635b886"},"vehicle_type_id":"4","last_reported":1718978765,"current_range_meters":6000,"station_id":"ce4bhch2rcd13ifvqeug","pricing_plan_id":"cebpf4jnsgd1na2vs0mg"},{"bike_id":"70f94f05-335f-48b3-848c-c3de81ab617f","system_id":"levelo_inurba_marseille","lat":43.285856,"lon":5.350771,"is_reserved":false,"is_disabled":false,"rental_uris":{"android":"levelo://app?vid=70f94f05-335f-48b3-848c-c3de81ab617f","ios":"levelo://app?vid=70f94f05-335f-48b3-848c-c3de81ab617f"},"vehicle_type_id":"4","last_reported":1718978765,"current_range_meters":23200,"station_id":"ce4bhch2rcd13ifvqeug","pricing_plan_id":"cebpf4jnsgd1na2vs0mg"},{"bike_id":"cf4d68a3-a5d3-44b6-b0f3-ced79016fd55","system_id":"levelo_inurba_marseille","lat":43.28618,"lon":5.351,"is_reserved":false,"is_disabled":false,"rental_uris":{"android":"levelo://app?vid=cf4d68a3-a5d3-44b6-b0f3-ced79016fd55","ios":"levelo://app?vid=cf4d68a3-a5d3-44b6-b0f3-ced79016fd55"},"vehicle_type_id":"4","last_reported":1718978765,"current_range_meters":31200,"station_id":"ce4bhch2rcd13ifvqeug","pricing_plan_id":"cebpf4jnsgd1na2vs0mg"},{"bike_id":"ead23108-7180-48b5-9b55-3c1d55979c9d","system_id":"levelo_inurba_marseille","lat":43.28617,"lon":5.35103,"is_reserved":false,"is_disabled":false,"rental_uris":{"android":"levelo://app?vid=ead23108-7180-48b5-9b55-3c1d55979c9d","ios":"levelo://app?vid=ead23108-7180-48b5-9b55-3c1d55979c9d"},"vehicle_type_id":"4","last_reported":1718978765,"current_range_meters":12800,"station_id":"ce4bhch2rcd13ifvqeug","pricing_plan_id":"cebpf4jnsgd1na2vs0mg"},{"bike_id":"f7a07b7e-7768-476a-a30b-c89676193252","system_id":"levelo_inurba_marseille","lat":43.285856,"lon":5.350771,"is_reserved":false,"is_disabled":false,"rental_uris":{"android":"levelo://app?vid=f7a07b7e-7768-476a-a30b-c89676193252","ios":"levelo://app?vid=f7a07b7e-7768-476a-a30b-c89676193252"},"vehicle_type_id":"4","last_reported":1718978765,"current_range_meters":31200,"station_id":"ce4bhch2rcd13ifvqeug","pricing_plan_id":"cebpf4jnsgd1na2vs0mg"},{"bike_id":"a6078aa0-ade9-440e-96e2-9621cef76ec9","system_id":"levelo_inurba_marseille","lat":43.28617,"lon":5.35102,"is_reserved":false,"is_disabled":false,"rental_uris":{"android":"levelo://app?vid=a6078aa0-ade9-440e-96e2-9621cef76ec9","ios":"levelo://app?vid=a6078aa0-ade9-440e-96e2-9621cef76ec9"},"vehicle_type_id":"4","last_reported":1718978765,"current_range_meters":23600,"station_id":"ce4bhch2rcd13ifvqeug","pricing_plan_id":"cebpf4jnsgd1na2vs0mg"},{"bike_id":"a0ab25b7-3853-4764-98db-e6aebd7d058f","system_id":"levelo_inurba_marseille","lat":43.28619,"lon":5.35095,"is_reserved":false,"is_disabled":false,"rental_uris":{"android":"levelo://app?vid=a0ab25b7-3853-4764-98db-e6aebd7d058f","ios":"levelo://app?vid=a0ab25b7-3853-4764-98db-e6aebd7d058f"},"vehicle_type_id":"4","last_reported":1718978765,"current_range_meters":31200,"station_id":"ce4bhch2rcd13ifvqeug","pricing_plan_id":"cebpf4jnsgd1na2vs0mg"},{"bike_id":"d9f3d9c4-307c-4830-95ea-2bc00c348015","system_id":"levelo_inurba_marseille","lat":43.28617,"lon":5.35099,"is_reserved":false,"is_disabled":false,"rental_uris":{"android":"levelo://app?vid=d9f3d9c4-307c-4830-95ea-2bc00c348015","ios":"levelo://app?vid=d9f3d9c4-307c-4830-95ea-2bc00c348015"},"vehicle_type_id":"4","last_reported":1718978765,"current_range_meters":20000,"station_id":"ce4bhch2rcd13ifvqeug","pricing_plan_id":"cebpf4jnsgd1na2vs0mg"},{"bike_id":"670d7bcc-19cd-44eb-be26-5af8cb29d08e","system_id":"levelo_inurba_marseille","lat":43.28614,"lon":5.35106,"is_reserved":false,"is_disabled":false,"rental_uris":{"android":"levelo://app?vid=670d7bcc-19cd-44eb-be26-5af8cb29d08e","ios":"levelo://app?vid=670d7bcc-19cd-44eb-be26-5af8cb29d08e"},"vehicle_type_id":"4","last_reported":1718978765,"current_range_meters":14400,"station_id":"ce4bhch2rcd13ifvqeug","pricing_plan_id":"cebpf4jnsgd1na2vs0mg"},{"bike_id":"dd13918b-1712-4a27-b4b4-1ff86e512a12","system_id":"levelo_inurba_marseille","lat":43.285856,"lon":5.350771,"is_reserved":false,"is_disabled":false,"rental_uris":{"android":"levelo://app?vid=dd13918b-1712-4a27-b4b4-1ff86e512a12","ios":"levelo://app?vid=dd13918b-1712-4a27-b4b4-1ff86e512a12"},"vehicle_type_id":"4","last_reported":1718978765,"current_range_meters":0,"station_id":"ce4bhch2rcd13ifvqeug","pricing_plan_id":"cebpf4jnsgd1na2vs0mg"},{"bike_id":"898d08cb-d825-44de-9d83-bc246cf6cb97","system_id":"levelo_inurba_marseille","lat":43.28614,"lon":5.35101,"is_reserved":false,"is_disabled":false,"rental_uris":{"android":"levelo://app?vid=898d08cb-d825-44de-9d83-bc246cf6cb97","ios":"levelo://app?vid=898d08cb-d825-44de-9d83-bc246cf6cb97"},"vehicle_type_id":"4","last_reported":1718978765,"current_range_meters":10400,"station_id":"ce4bhch2rcd13ifvqeug","pricing_plan_id":"cebpf4jnsgd1na2vs0mg"},{"bike_id":"287d799d-99f4-437e-9049-c3d85a76ac49","system_id":"levelo_inurba_marseille","lat":43.284499,"lon":5.376155,"is_reserved":false,"is_disabled":false,"rental_uris":{"android":"levelo://app?vid=287d799d-99f4-437e-9049-c3d85a76ac49","ios":"levelo://app?vid=287d799d-99f4-437e-9049-c3d85a76ac49"},"vehicle_type_id":"4","last_reported":1718978765,"current_range_meters":26800,"station_id":"","pricing_plan_id":"cebpf4jnsgd1na2vs0mg"},{"bike_id":"c501872a-ecb3-4954-bff4-c3ab043dd64c","system_id":"levelo_inurba_marseille","lat":43.285856,"lon":5.350771,"is_reserved":false,"is_disabled":false,"rental_uris":{"android":"levelo://app?vid=c501872a-ecb3-4954-bff4-c3ab043dd64c","ios":"levelo://app?vid=c501872a-ecb3-4954-bff4-c3ab043dd64c"},"vehicle_type_id":"4","last_reported":1718978765,"current_range_meters":2000,"station_id":"ce4bhch2rcd13ifvqeug","pricing_plan_id":"cebpf4jnsgd1na2vs0mg"},{"bike_id":"5532452b-2b7e-4b8a-816a-be6d72a3657a","system_id":"levelo_inurba_marseille","lat":43.283998,"lon":5.375062,"is_reserved":false,"is_disabled":false,"rental_uris":{"android":"levelo://app?vid=5532452b-2b7e-4b8a-816a-be6d72a3657a","ios":"levelo://app?vid=5532452b-2b7e-4b8a-816a-be6d72a3657a"},"vehicle_type_id":"4","last_reported":1718978765,"current_range_meters":0,"station_id":"ce4bh412rcd13ifvqds0","pricing_plan_id":"cebpf4jnsgd1na2vs0mg"},{"bike_id":"43ef36a3-8db7-4114-bd92-aa3791251e38","system_id":"levelo_inurba_marseille","lat":43.295713,"lon":5.399639,"is_reserved":false,"is_disabled":false,"rental_uris":{"android":"levelo://app?vid=43ef36a3-8db7-4114-bd92-aa3791251e38","ios":"levelo://app?vid=43ef36a3-8db7-4114-bd92-aa3791251e38"},"vehicle_type_id":"4","last_reported":1718978765,"current_range_meters":14800,"station_id":"ce4bh312rcd13ifvqdj0","pricing_plan_id":"cebpf4jnsgd1na2vs0mg"},{"bike_id":"d5794c18-9433-44a4-a776-76745d67d402","system_id":"levelo_inurba_marseille","lat":43.29749,"lon":5.40123,"is_reserved":false,"is_disabled":false,"rental_uris":{"android":"levelo://app?vid=d5794c18-9433-44a4-a776-76745d67d402","ios":"levelo://app?vid=d5794c18-9433-44a4-a776-76745d67d402"},"vehicle_type_id":"4","last_reported":1718978765,"current_range_meters":25600,"station_id":"","pricing_plan_id":"cebpf4jnsgd1na2vs0mg"},{"bike_id":"21bec8ff-cf3b-423b-aba4-7bd3dcdf5867","system_id":"levelo_inurba_marseille","lat":43.283998,"lon":5.375062,"is_reserved":false,"is_disabled":false,"rental_uris":{"android":"levelo://app?vid=21bec8ff-cf3b-423b-aba4-7bd3dcdf5867","ios":"levelo://app?vid=21bec8ff-cf3b-423b-aba4-7bd3dcdf5867"},"vehicle_type_id":"4","last_reported":1718978765,"current_range_meters":24000,"station_id":"ce4bh412rcd13ifvqds0","pricing_plan_id":"cebpf4jnsgd1na2vs0mg"},{"bike_id":"b6aa7a3b-e659-4e73-828a-5bc6ba78eee2","system_id":"levelo_inurba_marseille","lat":43.283998,"lon":5.375062,"is_reserved":false,"is_disabled":false,"rental_uris":{"android":"levelo://app?vid=b6aa7a3b-e659-4e73-828a-5bc6ba78eee2","ios":"levelo://app?vid=b6aa7a3b-e659-4e73-828a-5bc6ba78eee2"},"vehicle_type_id":"4","last_reported":1718978765,"current_range_meters":6000,"station_id":"ce4bh412rcd13ifvqds0","pricing_plan_id":"cebpf4jnsgd1na2vs0mg"},{"bike_id":"61e3b4d4-36da-4d94-8c76-ecee10b2f9c0","system_id":"levelo_inurba_marseille","lat":43.295713,"lon":5.399639,"is_reserved":false,"is_disabled":false,"rental_uris":{"android":"levelo://app?vid=61e3b4d4-36da-4d94-8c76-ecee10b2f9c0","ios":"levelo://app?vid=61e3b4d4-36da-4d94-8c76-ecee10b2f9c0"},"vehicle_type_id":"4","last_reported":1718978765,"current_range_meters":2800,"station_id":"ce4bh312rcd13ifvqdj0","pricing_plan_id":"cebpf4jnsgd1na2vs0mg"},{"bike_id":"ab20bfcf-dd95-454d-bc48-d3af41bcb9f9","system_id":"levelo_inurba_marseille","lat":43.319179,"lon":5.407725,"is_reserved":false,"is_disabled":false,"rental_uris":{"android":"levelo://app?vid=ab20bfcf-dd95-454d-bc48-d3af41bcb9f9","ios":"levelo://app?vid=ab20bfcf-dd95-454d-bc48-d3af41bcb9f9"},"vehicle_type_id":"4","last_reported":1718978765,"current_range_meters":31200,"station_id":"ce4bhq12rcd13ifvqhig","pricing_plan_id":"cebpf4jnsgd1na2vs0mg"},{"bike_id":"3fc98292-978c-4019-a4d4-b74d6018280a","system_id":"levelo_inurba_marseille","lat":43.288497,"lon":5.393089,"is_reserved":false,"is_disabled":false,"rental_uris":{"android":"levelo://app?vid=3fc98292-978c-4019-a4d4-b74d6018280a","ios":"levelo://app?vid=3fc98292-978c-4019-a4d4-b74d6018280a"},"vehicle_type_id":"4","last_reported":1718978765,"current_range_meters":6800,"station_id":"ce4bh2p2rcd13ifvqdi0","pricing_plan_id":"cebpf4jnsgd1na2vs0mg"},{"bike_id":"8b715652-734b-43bd-8612-afc1050920dd","system_id":"levelo_inurba_marseille","lat":43.31879,"lon":5.40776,"is_reserved":false,"is_disabled":false,"rental_uris":{"android":"levelo://app?vid=8b715652-734b-43bd-8612-afc1050920dd","ios":"levelo://app?vid=8b715652-734b-43bd-8612-afc1050920dd"},"vehicle_type_id":"4","last_reported":1718978765,"current_range_meters":0,"station_id":"ce4bhq12rcd13ifvqhig","pricing_plan_id":"cebpf4jnsgd1na2vs0mg"},{"bike_id":"5394714c-29bb-47ae-b103-9216d2456bcb","system_id":"levelo_inurba_marseille","lat":43.33727,"lon":5.39158,"is_reserved":false,"is_disabled":false,"rental_uris":{"android":"levelo://app?vid=5394714c-29bb-47ae-b103-9216d2456bcb","ios":"levelo://app?vid=5394714c-29bb-47ae-b103-9216d2456bcb"},"vehicle_type_id":"4","last_reported":1718978765,"current_range_meters":2400,"station_id":"ce4bhr92rcd13ifvqhsg","pricing_plan_id":"cebpf4jnsgd1na2vs0mg"},{"bike_id":"42aacf60-7f67-4a29-8ce7-5941df97d533","system_id":"levelo_inurba_marseille","lat":43.323464,"lon":5.406297,"is_reserved":false,"is_disabled":false,"rental_uris":{"android":"levelo://app?vid=42aacf60-7f67-4a29-8ce7-5941df97d533","ios":"levelo://app?vid=42aacf60-7f67-4a29-8ce7-5941df97d533"},"vehicle_type_id":"4","last_reported":1718978765,"current_range_meters":18800,"station_id":"ce4bhq92rcd13ifvqhjg","pricing_plan_id":"cebpf4jnsgd1na2vs0mg"},{"bike_id":"8b53132a-00d8-4581-a9b6-0143d6ce54c9","system_id":"levelo_inurba_marseille","lat":43.32341,"lon":5.40617,"is_reserved":false,"is_disabled":false,"rental_uris":{"android":"levelo://app?vid=8b53132a-00d8-4581-a9b6-0143d6ce54c9","ios":"levelo://app?vid=8b53132a-00d8-4581-a9b6-0143d6ce54c9"},"vehicle_type_id":"4","last_reported":1718978765,"current_range_meters":16800,"station_id":"ce4bhq92rcd13ifvqhjg","pricing_plan_id":"cebpf4jnsgd1na2vs0mg"},{"bike_id":"f476d628-1740-4739-bb0c-93219bfe931e","system_id":"levelo_inurba_marseille","lat":43.33727,"lon":5.39182,"is_reserved":false,"is_disabled":false,"rental_uris":{"android":"levelo://app?vid=f476d628-1740-4739-bb0c-93219bfe931e","ios":"levelo://app?vid=f476d628-1740-4739-bb0c-93219bfe931e"},"vehicle_type_id":"4","last_reported":1718978765,"current_range_meters":1200,"station_id":"ce4bhr92rcd13ifvqhsg","pricing_plan_id":"cebpf4jnsgd1na2vs0mg"},{"bike_id":"9c138f2d-98b0-4c5b-803a-5433bf6022b0","system_id":"levelo_inurba_marseille","lat":43.288497,"lon":5.393089,"is_reserved":false,"is_disabled":false,"rental_uris":{"android":"levelo://app?vid=9c138f2d-98b0-4c5b-803a-5433bf6022b0","ios":"levelo://app?vid=9c138f2d-98b0-4c5b-803a-5433bf6022b0"},"vehicle_type_id":"4","last_reported":1718978765,"current_range_meters":7200,"station_id":"ce4bh2p2rcd13ifvqdi0","pricing_plan_id":"cebpf4jnsgd1na2vs0mg"},{"bike_id":"fb32fc24-cbf2-4688-a538-dd8b4802a12f","system_id":"levelo_inurba_marseille","lat":43.288497,"lon":5.393089,"is_reserved":false,"is_disabled":false,"rental_uris":{"android":"levelo://app?vid=fb32fc24-cbf2-4688-a538-dd8b4802a12f","ios":"levelo://app?vid=fb32fc24-cbf2-4688-a538-dd8b4802a12f"},"vehicle_type_id":"4","last_reported":1718978765,"current_range_meters":1600,"station_id":"ce4bh2p2rcd13ifvqdi0","pricing_plan_id":"cebpf4jnsgd1na2vs0mg"},