{"last_updated":1705691135,"ttl":30,"version":"2.2","data":{"bikes":[{"bike_id":"97f08bf8-1ec8-41a0-9009-c1b03f85bd6a","system_id":"levelo_inurba_marseille","lat":43.313543,"lon":5.367001,"is_reserved":false,"is_disabled":false,"rental_uris":{"android":"levelo://app?vid=97f08bf8-1ec8-41a0-9009-c1b03f85bd6a","ios":"levelo://app?vid=97f08bf8-1ec8-41a0-9009-c1b03f85bd6a"},"vehicle_type_id":"4","last_reported":1705691135,"current_range_meters":24800,"station_id":"ce4bgr92rcd13ifvqc6g","pricing_plan_id":"free"},{"bike_id":"e87e381d-9e43-46aa-bdc6-ccd3443b2ca9","system_id":"levelo_inurba_marseille","lat":43.313556,"lon":5.367042,"is_reserved":false,"is_disabled":false,"rental_uris":{"android":"levelo://app?vid=e87e381d-9e43-46aa-bdc6-ccd3443b2ca9","ios":"levelo://app?vid=e87e381d-9e43-46aa-bdc6-ccd3443b2ca9"},"vehicle_type_id":"4","last_reported":1705691135,"current_range_meters":15600,"station_id":"ce4bgr92rcd13ifvqc6g","pricing_plan_id":"free"},{"bike_id":"8af93833-18b6-490a-8fc5-9cfa82edad07","system_id":"levelo_inurba_marseille","lat":43.312239,"lon":5.368562,"is_reserved":false,"is_disabled":false,"rental_uris":{"android":"levelo://app?vid=8af93833-18b6-490a-8fc5-9cfa82edad07","ios":"levelo://app?vid=8af93833-18b6-490a-8fc5-9cfa82edad07"},"vehicle_type_id":"4","last_reported":1705691135,"current_range_meters":3200,"station_id":"ce4bgl92rcd13ifvqbq0","pricing_plan_id":"free"},{"bike_id":"6ba15a29-d86f-4270-afd5-8926b51235c3","system_id":"levelo_inurba_marseille","lat":43.312239,"lon":5.368562,"is_reserved":false,"is_disabled":false,"rental_uris":{"android":"levelo://app?vid=6ba15a29-d86f-4270-afd5-8926b51235c3","ios":"levelo://app?vid=6ba15a29-d86f-4270-afd5-8926b51235c3"},"vehicle_type_id":"4","last_reported":1705691135,"current_range_meters":21200,"station_id":"ce4bgl92rcd13ifvqbq0","pricing_plan_id":"free"},{"bike_id":"f9b82c1c-7c82-4344-bd05-c27963a7b1e2","system_id":"levelo_inurba_marseille","lat":43.312239,"lon":5.368562,"is_reserved":false,"is_disabled":false,"rental_uris":{"android":"levelo://app?vid=f9b82c1c-7c82-4344-bd05-c27963a7b1e2","ios":"levelo://app?vid=f9b82c1c-7c82-4344-bd05-c27963a7b1e2"},"vehicle_type_id":"4","last_reported":1705691135,"current_range_meters":4800,"station_id":"ce4bgl92rcd13ifvqbq0","pricing_plan_id":"free"},{"bike_id":"f9437048-cd1e-4983-b751-7b53f60e1982","system_id":"levelo_inurba_marseille","lat":43.312239,"lon":5.368562,"is_reserved":false,"is_disabled":false,"rental_uris":{"android":"levelo://app?vid=f9437048-cd1e-4983-b751-7b53f60e1982","ios":"levelo://app?vid=f9437048-cd1e-4983-b751-7b53f60e1982"},"vehicle_type_id":"4","last_reported":1705691135,"current_range_meters":25600,"station_id":"ce4bgl92rcd13ifvqbq0","pricing_plan_id":"free"},{"bike_id":"af9a0238-b7e6-4c29-95fc-91fbf0bc9127","system_id":"levelo_inurba_marseille","lat":43.312239,"lon":5.368562,"is_reserved":false,"is_disabled":false,"rental_uris":{"android":"levelo://app?vid=af9a0238-b7e6-4c29-95fc-91fbf0bc9127","ios":"levelo://app?vid=af9a0238-b7e6-4c29-95fc-91fbf0bc9127"},"vehicle_type_id":"4","last_reported":1705691135,"current_range_meters":16000,"station_id":"ce4bgl92rcd13ifvqbq0","pricing_plan_id":"free"},{"bike_id":"5c185597-47ad-4ecf-898c-2a858e830bd9","system_id":"levelo_inurba_marseille","lat":43.312239,"lon":5.368562,"is_reserved":false,"is_disabled":false,"rental_uris":{"android":"levelo://app?vid=5c185597-47ad-4ecf-898c-2a858e830bd9","ios":"levelo://app?vid=5c185597-47ad-4ecf-898c-2a858e830bd9"},"vehicle_type_id":"4","last_reported":1705691135,"current_range_meters":12000,"station_id":"ce4bgl92rcd13ifvqbq0","pricing_plan_id":"free"},{"bike_id":"d6436457-39b7-4c17-8a51-d1cb4b2e366f","system_id":"levelo_inurba_marseille","lat":43.312239,"lon":5.368562,"is_reserved":false,"is_disabled":false,"rental_uris":{"android":"levelo://app?vid=d6436457-39b7-4c17-8a51-d1cb4b2e366f","ios":"levelo://app?vid=d6436457-39b7-4c17-8a51-d1cb4b2e366f"},"vehicle_type_id":"4","last_reported":1705691135,"current_range_meters":13200,"station_id":"ce4bgl92rcd13ifvqbq0","pricing_plan_id":"free"},{"bike_id":"1281d799-9d76-4a04-b28f-c7585f08f157","system_id":"levelo_inurba_marseille","lat":43.312239,"lon":5.368562,"is_reserved":false,"is_disabled":false,"rental_uris":{"android":"levelo://app?vid=1281d799-9d76-4a04-b28f-c7585f08f157","ios":"levelo://app?vid=1281d799-9d76-4a04-b28f-c7585f08f157"},"vehicle_type_id":"4","last_reported":1705691135,"current_range_meters":12800,"station_id":"ce4bgl92rcd13ifvqbq0","pricing_plan_id":"free"},{"bike_id":"173c07e5-8508-415e-8f5f-ed33807c7621","system_id":"levelo_inurba_marseille","lat":43.312239,"lon":5.368562,"is_reserved":false,"is_disabled":false,"rental_uris":{"android":"levelo://app?vid=173c07e5-8508-415e-8f5f-ed33807c7621","ios":"levelo://app?vid=173c07e5-8508-415e-8f5f-ed33807c7621"},"vehicle_type_id":"4","last_reported":1705691135,"current_range_meters":28400,"station_id":"ce4bgl92rcd13ifvqbq0","pricing_plan_id":"free"},{"bike_id":"68ce9576-2dba-47f5-a97d-7c3897ff0890","system_id":"levelo_inurba_marseille","lat":43.312239,"lon":5.368562,"is_reserved":false,"is_disabled":false,"rental_uris":{"android":"levelo://app?vid=68ce9576-2dba-47f5-a97d-7c3897ff0890","ios":"levelo://app?vid=68ce9576-2dba-47f5-a97d-7c3897ff0890"},"vehicle_type_id":"4","last_reported":1705691135,"current_range_meters":30800,"station_id":"ce4bgl92rcd13ifvqbq0","pricing_plan_id":"free"},{"bike_id":"c29a3c1a-2bc1-48d4-8c54-54ccfbc2af99","system_id":"levelo_inurba_marseille","lat":43.312239,"lon":5.368562,"is_reserved":false,"is_disabled":false,"rental_uris":{"android":"levelo://app?vid=c29a3c1a-2bc1-48d4-8c54-54ccfbc2af99","ios":"levelo://app?vid=c29a3c1a-2bc1-48d4-8c54-54ccfbc2af99"},"vehicle_type_id":"4","last_reported":1705691135,"current_range_meters":26000,"station_id":"ce4bgl92rcd13ifvqbq0","pricing_plan_id":"free"},{"bike_id":"7f57cc82-d70c-4c1a-ba34-96ebd763daa3","system_id":"levelo_inurba_marseille","lat":43.310454,"lon":5.371423,"is_reserved":false,"is_disabled":false,"rental_uris":{"android":"levelo://app?vid=7f57cc82-d70c-4c1a-ba34-96ebd763daa3","ios":"levelo://app?vid=7f57cc82-d70c-4c1a-ba34-96ebd763daa3"},"vehicle_type_id":"4","last_reported":1705691135,"current_range_meters":400,"station_id":"","pricing_plan_id":"free"},{"bike_id":"25205c82-9642-4578-8c50-8d01b937e62b","system_id":"levelo_inurba_marseille","lat":43.314811,"lon":5.373103,"is_reserved":false,"is_disabled":false,"rental_uris":{"android":"levelo://app?vid=25205c82-9642-4578-8c50-8d01b937e62b","ios":"levelo://app?vid=25205c82-9642-4578-8c50-8d01b937e62b"},"vehicle_type_id":"4","last_reported":1705691135,"current_range_meters":17200,"station_id":"ce4bgt12rcd13ifvqcd0","pricing_plan_id":"free"},{"bike_id":"d1a42ae6-7983-4d29-9887-de3486766268","system_id":"levelo_inurba_marseille","lat":43.314811,"lon":5.373104,"is_reserved":false,"is_disabled":false,"rental_uris":{"android":"levelo://app?vid=d1a42ae6-7983-4d29-9887-de3486766268","ios":"levelo://app?vid=d1a42ae6-7983-4d29-9887-de3486766268"},"vehicle_type_id":"4","last_reported":1705691135,"current_range_meters":24800,"station_id":"ce4bgt12rcd13ifvqcd0","pricing_plan_id":"free"},{"bike_id":"bdeb0438-bfe3-4562-91e3-8d67a00a1d8d","system_id":"levelo_inurba_marseille","lat":43.309039,"lon":5.371797,"is_reserved":false,"is_disabled":false,"rental_uris":{"android":"levelo://app?vid=bdeb0438-bfe3-4562-91e3-8d67a00a1d8d","ios":"levelo://app?vid=bdeb0438-bfe3-4562-91e3-8d67a00a1d8d"},"vehicle_type_id":"4","last_reported":1705691135,"current_range_meters":21600,"station_id":"ce4bguh2rcd13ifvqckg","pricing_plan_id":"free"},{"bike_id":"bd1338ab-4bb2-4e7d-b172-a8f916ce1d18","system_id":"levelo_inurba_marseille","lat":43.305686,"lon":5.366966,"is_reserved":false,"is_disabled":false,"rental_uris":{"android":"levelo://app?vid=bd1338ab-4bb2-4e7d-b172-a8f916ce1d18","ios":"levelo://app?vid=bd1338ab-4bb2-4e7d-b172-a8f916ce1d18"},"vehicle_type_id":"4","last_reported":1705691135,"current_range_meters":8400,"station_id":"ce4bgrp2rcd13ifvqc9g","pricing_plan_id":"free"},{"bike_id":"a916bcdb-8c1d-4f09-b646-c746a4a55639","system_id":"levelo_inurba_marseille","lat":43.305712,"lon":5.365641,"is_reserved":false,"is_disabled":false,"rental_uris":{"android":"levelo://app?vid=a916bcdb-8c1d-4f09-b646-c746a4a55639","ios":"levelo://app?vid=a916bcdb-8c1d-4f09-b646-c746a4a55639"},"vehicle_type_id":"4","last_reported":1705691135,"current_range_meters":9200,"station_id":"ce4bgs12rcd13ifvqcag","pricing_plan_id":"free"},{"bike_id":"bb885ef1-2c92-4e77-afb5-dfe3fdb38f72","system_id":"levelo_inurba_marseille","lat":43.30544,"lon":5.36709,"is_reserved":false,"is_disabled":false,"rental_uris":{"android":"levelo://app?vid=bb885ef1-2c92-4e77-afb5-dfe3fdb38f72","ios":"levelo://app?vid=bb885ef1-2c92-4e77-afb5-dfe3fdb38f72"},"vehicle_type_id":"4","last_reported":1705691135,"current_range_meters":0,"station_id":"ce4bgrp2rcd13ifvqc9g","pricing_plan_id":"free"},{"bike_id":"54da90fb-ce4a-4415-ad54-ebe77a4cc9b5","system_id":"levelo_inurba_marseille","lat":43.305368,"lon":5.367343,"is_reserved":false,"is_disabled":false,"rental_uris":{"android":"levelo://app?vid=54da90fb-ce4a-4415-ad54-ebe77a4cc9b5","ios":"levelo://app?vid=54da90fb-ce4a-4415-ad54-ebe77a4cc9b5"},"vehicle_type_id":"4","last_reported":1705691135,"current_range_meters":25200,"station_id":"ce4bgrp2rcd13ifvqc9g","pricing_plan_id":"free"},{"bike_id":"2e942cc4-fd0e-4117-ae3f-3bcb2af63253","system_id":"levelo_inurba_marseille","lat":43.305368,"lon":5.367343,"is_reserved":false,"is_disabled":false,"rental_uris":{"android":"levelo://app?vid=2e942cc4-fd0e-4117-ae3f-3bcb2af63253","ios":"levelo://app?vid=2e942cc4-fd0e-4117-ae3f-3bcb2af63253"},"vehicle_type_id":"4","last_reported":1705691135,"current_range_meters":18000,"station_id":"ce4bgrp2rcd13ifvqc9g","pricing_plan_id":"free"},{"bike_id":"397b5218-8b37-4109-aadb-b19b3edc2d04","system_id":"levelo_inurba_marseille","lat":43.306006,"lon":5.372192,"is_reserved":false,"is_disabled":false,"rental_uris":{"android":"levelo://app?vid=397b5218-8b37-4109-aadb-b19b3edc2d04","ios":"levelo://app?vid=397b5218-8b37-4109-aadb-b19b3edc2d04"},"vehicle_type_id":"4","last_reported":1705691135,"current_range_meters":7200,"station_id":"ce4bgqh2rcd13ifvqc4g","pricing_plan_id":"free"},{"bike_id":"895bbd9d-7930-477f-9561-710624a48868","system_id":"levelo_inurba_marseille","lat":43.305989,"lon":5.37225,"is_reserved":false,"is_disabled":false,"rental_uris":{"android":"levelo://app?vid=895bbd9d-7930-477f-9561-710624a48868","ios":"levelo://app?vid=895bbd9d-7930-477f-9561-710624a48868"},"vehicle_type_id":"4","last_reported":1705691135,"current_range_meters":20400,"station_id":"ce4bgqh2rcd13ifvqc4g","pricing_plan_id":"free"},{"bike_id":"99bccf18-c5f9-48ad-a620-0438c95b1df3","system_id":"levelo_inurba_marseille","lat":43.311125,"lon":5.377624,"is_reserved":false,"is_disabled":false,"rental_uris":{"android":"levelo://app?vid=99bccf18-c5f9-48ad-a620-0438c95b1df3","ios":"levelo://app?vid=99bccf18-c5f9-48ad-a620-0438c95b1df3"},"vehicle_type_id":"4","last_reported":1705691135,"current_range_meters":0,"station_id":"ce4bgt92rcd13ifvqcg0","pricing_plan_id":"free"},{"bike_id":"fdaeaed9-9851-4017-9f79-0bcba5790810","system_id":"levelo_inurba_marseille","lat":43.311125,"lon":5.377624,"is_reserved":false,"is_disabled":false,"rental_uris":{"android":"levelo://app?vid=fdaeaed9-9851-4017-9f79-0bcba5790810","ios":"levelo://app?vid=fdaeaed9-9851-4017-9f79-0bcba5790810"},"vehicle_type_id":"4","last_reported":1705691135,"current_range_meters":11200,"station_id":"ce4bgt92rcd13ifvqcg0","pricing_plan_id":"free"},{"bike_id":"1e598083-a05f-45ba-b573-c0fbb591b4db","system_id":"levelo_inurba_marseille","lat":43.311125,"lon":5.377624,"is_reserved":false,"is_disabled":false,"rental_uris":{"android":"levelo://app?vid=1e598083-a05f-45ba-b573-c0fbb591b4db","ios":"levelo://app?vid=1e598083-a05f-45ba-b573-c0fbb591b4db"},"vehicle_type_id":"4","last_reported":1705691135,"current_range_meters":20000,"station_id":"ce4bgt92rcd13ifvqcg0","pricing_plan_id":"free"},{"bike_id":"ea34e360-488f-4d25-8ffe-d59f26ae195f","system_id":"levelo_inurba_marseille","lat":43.307945,"lon":5.376487,"is_reserved":false,"is_disabled":false,"rental_uris":{"android":"levelo://app?vid=ea34e360-488f-4d25-8ffe-d59f26ae195f","ios":"levelo://app?vid=ea34e360-488f-4d25-8ffe-d59f26ae195f"},"vehicle_type_id":"4","last_reported":1705691135,"current_range_meters":25200,"station_id":"ce4bgv92rcd13ifvqcq0","pricing_plan_id":"free"},{"bike_id":"4340c690-869f-4ac2-9ced-f550368417f0","system_id":"levelo_inurba_marseille","lat":43.317075,"lon":5.377367,"is_reserved":false,"is_disabled":false,"rental_uris":{"android":"levelo://app?vid=4340c690-869f-4ac2-9ced-f550368417f0","ios":"levelo://app?vid=4340c690-869f-4ac2-9ced-f550368417f0"},"vehicle_type_id":"4","last_reported":1705691135,"current_range_meters":28000,"station_id":"ce4bgth2rcd13ifvqch0","pricing_plan_id":"free"},{"bike_id":"1b461cb5-b7e2-40f1-83a9-caef7f262ef5","system_id":"levelo_inurba_marseille","lat":43.317075,"lon":5.377367,"is_reserved":false,"is_disabled":false,"rental_uris":{"android":"levelo://app?vid=1b461cb5-b7e2-40f1-83a9-caef7f262ef5","ios":"levelo://app?vid=1b461cb5-b7e2-40f1-83a9-caef7f262ef5"},"vehicle_type_id":"4","last_reported":1705691135,"current_range_meters":15200,"station_id":"ce4bgth2rcd13ifvqch0","pricing_plan_id":"free"},{"bike_id":"bdc9717c-b2de-4059-be4e-d19e9ec43c99","system_id":"levelo_inurba_marseille","lat":43.317075,"lon":5.377367,"is_reserved":false,"is_disabled":false,"rental_uris":{"android":"levelo://app?vid=bdc9717c-b2de-4059-be4e-d19e9ec43c99","ios":"levelo://app?vid=bdc9717c-b2de-4059-be4e-d19e9ec43c99"},"vehicle_type_id":"4","last_reported":1705691135,"current_range_meters":9200,"station_id":"ce4bgth2rcd13ifvqch0","pricing_plan_id":"free"},{"bike_id":"862c232f-c8fc-4aa8-bac5-9883ba481167","system_id":"levelo_inurba_marseille","lat":43.317075,"lon":5.377367,"is_reserved":false,"is_disabled":false,"rental_uris":{"android":"levelo://app?vid=862c232f-c8fc-4aa8-bac5-9883ba481167","ios":"levelo://app?vid=862c232f-c8fc-4aa8-bac5-9883ba481167"},"vehicle_type_id":"4","last_reported":1705691135,"current_range_meters":26000,"station_id":"ce4bgth2rcd13ifvqch0","pricing_plan_id":"free"},{"bike_id":"24c802cc-e850-425e-a50c-a22853f55d5d","system_id":"levelo_inurba_marseille","lat":43.317075,"lon":5.377367,"is_reserved":false,"is_disabled":false,"rental_uris":{"android":"levelo://app?vid=24c802cc-e850-425e-a50c-a22853f55d5d","ios":"levelo://app?vid=24c802cc-e850-425e-a50c-a22853f55d5d"},"vehicle_type_id":"4","last_reported":1705691135,"current_range_meters":27200,"station_id":"ce4bgth2rcd13ifvqch0","pricing_plan_id":"free"},{"bike_id":"da2ffbfd-eb74-48d3-8f41-fa66691ac1ca","system_id":"levelo_inurba_marseille","lat":43.31711,"lon":5.37777,"is_reserved":false,"is_disabled":false,"rental_uris":{"android":"levelo://app?vid=da2ffbfd-eb74-48d3-8f41-fa66691ac1ca","ios":"levelo://app?vid=da2ffbfd-eb74-48d3-8f41-fa66691ac1ca"},"vehicle_type_id":"4","last_reported":1705691135,"current_range_meters":0,"station_id":"ce4bgth2rcd13ifvqch0","pricing_plan_id":"free"},{"bike_id":"49159af0-adcb-40dd-aa0a-d3043ea6f086","system_id":"levelo_inurba_marseille","lat":43.308012,"lon":5.381511,"is_reserved":false,"is_disabled":false,"rental_uris":{"android":"levelo://app?vid=49159af0-adcb-40dd-aa0a-d3043ea6f086","ios":"levelo://app?vid=49159af0-adcb-40dd-aa0a-d3043ea6f086"},"vehicle_type_id":"4","last_reported":1705691135,"current_range_meters":9600,"station_id":"ce4bgt12rcd13ifvqce0","pricing_plan_id":"free"},{"bike_id":"15845578-34ed-4917-9818-aa232233a8de","system_id":"levelo_inurba_marseille","lat":43.308012,"lon":5.381511,"is_reserved":false,"is_disabled":false,"rental_uris":{"android":"levelo://app?vid=15845578-34ed-4917-9818-aa232233a8de","ios":"levelo://app?vid=15845578-34ed-4917-9818-aa232233a8de"},"vehicle_type_id":"4","last_reported":1705691135,"current_range_meters":2400,"station_id":"ce4bgt12rcd13ifvqce0","pricing_plan_id":"free"},{"bike_id":"005ea7c6-0d96-4979-9e9f-b4f56a2ed4d9","system_id":"levelo_inurba_marseille","lat":43.308012,"lon":5.381511,"is_reserved":false,"is_disabled":false,"rental_uris":{"android":"levelo://app?vid=005ea7c6-0d96-4979-9e9f-b4f56a2ed4d9","ios":"levelo://app?vid=005ea7c6-0d96-4979-9e9f-b4f56a2ed4d9"},"vehicle_type_id":"4","last_reported":1705691135,"current_range_meters":27600,"station_id":"ce4bgt12rcd13ifvqce0","pricing_plan_id":"free"},{"bike_id":"71a126c7-b719-426c-b069-4af1d4a5ba47","system_id":"levelo_inurba_marseille","lat":43.324771,"lon":5.36557,"is_reserved":false,"is_disabled":false,"rental_uris":{"android":"levelo://app?vid=71a126c7-b719-426c-b069-4af1d4a5ba47","ios":"levelo://app?vid=71a126c7-b719-426c-b069-4af1d4a5ba47"},"vehicle_type_id":"4","last_reported":1705691135,"current_range_meters":1200,"station_id":"ce4bhs12rcd13ifvqhvg","pricing_plan_id":"free"},{"bike_id":"3cb5ad2b-e743-4194-9d67-007686b421e8","system_id":"levelo_inurba_marseille","lat":43.324771,"lon":5.36557,"is_reserved":false,"is_disabled":false,"rental_uris":{"android":"levelo://app?vid=3cb5ad2b-e743-4194-9d67-007686b421e8","ios":"levelo://app?vid=3cb5ad2b-e743-4194-9d67-007686b421e8"},"vehicle_type_id":"4","last_reported":1705691135,"current_range_meters":17600,"station_id":"ce4bhs12rcd13ifvqhvg","pricing_plan_id":"free"},{"bike_id":"2179bf7d-2ef3-478f-ab07-0d1474ed1fd2","system_id":"levelo_inurba_marseille","lat":43.324771,"lon":5.36557,"is_reserved":false,"is_disabled":false,"rental_uris":{"android":"levelo://app?vid=2179bf7d-2ef3-478f-ab07-0d1474ed1fd2","ios":"levelo://app?vid=2179bf7d-2ef3-478f-ab07-0d1474ed1fd2"},"vehicle_type_id":"4","last_reported":1705691135,"current_range_meters":5200,"station_id":"ce4bhs12rcd13ifvqhvg","pricing_plan_id":"free"},{"bike_id":"2c7b11b2-aeb0-46dd-88cd-cd944730dc70","system_id":"levelo_inurba_marseille","lat":43.324771,"lon":5.36557,"is_reserved":false,"is_disabled":false,"rental_uris":{"android":"levelo://app?vid=2c7b11b2-aeb0-46dd-88cd-cd944730dc70","ios":"levelo://app?vid=2c7b11b2-aeb0-46dd-88cd-cd944730dc70"},"vehicle_type_id":"4","last_reported":1705691135,"current_range_meters":13200,"station_id":"ce4bhs12rcd13ifvqhvg","pricing_plan_id":"free"},{"bike_id":"d655f5bb-ed30-48d1-8fea-b10c22e797ad","system_id":"levelo_inurba_marseille","lat":43.324771,"lon":5.36557,"is_reserved":false,"is_disabled":false,"rental_uris":{"android":"levelo://app?vid=d655f5bb-ed30-48d1-8fea-b10c22e797ad","ios":"levelo://app?vid=d655f5bb-ed30-48d1-8fea-b10c22e797ad"},"vehicle_type_id":"4","last_reported":1705691135,"current_range_meters":19200,"station_id":"ce4bhs12rcd13ifvqhvg","pricing_plan_id":"free"},{"bike_id":"303265ce-08f1-4bc2-afd3-0425b4b00f8f","system_id":"levelo_inurba_marseille","lat":43.324771,"lon":5.36557,"is_reserved":false,"is_disabled":false,"rental_uris":{"android":"levelo://app?vid=303265ce-08f1-4bc2-afd3-0425b4b00f8f","ios":"levelo://app?vid=303265ce-08f1-4bc2-afd3-0425b4b00f8f"},"vehicle_type_id":"4","last_reported":1705691135,"current_range_meters":20000,"station_id":"ce4bhs12rcd13ifvqhvg","pricing_plan_id":"free"},{"bike_id":"c7d678ca-5190-4aab-9b8d-cdb0cac2118f","system_id":"levelo_inurba_marseille","lat":43.324771,"lon":5.36557,"is_reserved":false,"is_disabled":false,"rental_uris":{"android":"levelo://app?vid=c7d678ca-5190-4aab-9b8d-cdb0cac2118f","ios":"levelo://app?vid=c7d678ca-5190-4aab-9b8d-cdb0cac2118f"},"vehicle_type_id":"4","last_reported":1705691135,"current_range_meters":17600,"station_id":"ce4bhs12rcd13ifvqhvg","pricing_plan_id":"free"},{"bike_id":"d3c12c07-9adf-4ee9-a278-dd4a66fbaa07","system_id":"levelo_inurba_marseille","lat":43.324771,"lon":5.36557,"is_reserved":false,"is_disabled":false,"rental_uris":{"android":"levelo://app?vid=d3c12c07-9adf-4ee9-a278-dd4a66fbaa07","ios":"levelo://app?vid=d3c12c07-9adf-4ee9-a278-dd4a66fbaa07"},"vehicle_type_id":"4","last_reported":1705691135,"current_range_meters":17200,"station_id":"ce4bhs12rcd13ifvqhvg","pricing_plan_id":"free"},{"bike_id":"f0e6f343-5d11-4ccd-b521-fba2ec1496b9","system_id":"levelo_inurba_marseille","lat":43.319935,"lon":5.381699,"is_reserved":false,"is_disabled":false,"rental_uris":{"android":"levelo://app?vid=f0e6f343-5d11-4ccd-b521-fba2ec1496b9","ios":"levelo://app?vid=f0e6f343-5d11-4ccd-b521-fba2ec1496b9"},"vehicle_type_id":"4","last_reported":1705691135,"current_range_meters":14000,"station_id":"ce4bhr12rcd13ifvqhpg","pricing_plan_id":"free"},{"bike_id":"2200c8c5-2419-4eb5-b913-cfff868d749d","system_id":"levelo_inurba_marseille","lat":43.319935,"lon":5.381699,"is_reserved":false,"is_disabled":false,"rental_uris":{"android":"levelo://app?vid=2200c8c5-2419-4eb5-b913-cfff868d749d","ios":"levelo://app?vid=2200c8c5-2419-4eb5-b913-cfff868d749d"},"vehicle_type_id":"4","last_reported":1705691135,"current_range_meters":0,"station_id":"ce4bhr12rcd13ifvqhpg","pricing_plan_id":"free"},{"bike_id":"0a75d398-202e-4bc2-bb19-78723107fc59","system_id":"levelo_inurba_marseille","lat":43.319935,"lon":5.381699,"is_reserved":false,"is_disabled":false,"rental_uris":{"android":"levelo://app?vid=0a75d398-202e-4bc2-bb19-78723107fc59","ios":"levelo://app?vid=0a75d398-202e-4bc2-bb19-78723107fc59"},"vehicle_type_id":"4","last_reported":1705691135,"current_range_meters":4400,"station_id":"ce4bhr12rcd13ifvqhpg","pricing_plan_id":"free"},{"bike_id":"f64e4fed-f907-45bd-a879-16b6b25a422c","system_id":"levelo_inurba_marseille","lat":43.313571,"lon":5.384829,"is_reserved":false,"is_disabled":false,"rental_uris":{"android":"levelo://app?vid=f64e4fed-f907-45bd-a879-16b6b25a422c","ios":"levelo://app?vid=f64e4fed-f907-45bd-a879-16b6b25a422c"},"vehicle_type_id":"4","last_reported":1705691135,"current_range_meters":26800,"station_id":"ce4bgt92rcd13ifvqcf0","pricing_plan_id":"free"},{"bike_id":"b6a5b033-f474-40bc-8288-0b3f2cf3d599","system_id":"levelo_inurba_marseille","lat":43.313571,"lon":5.384829,"is_reserved":false,"is_disabled":false,"rental_uris":{"android":"levelo://app?vid=b6a5b033-f474-40bc-8288-0b3f2cf3d599","ios":"levelo://app?vid=b6a5b033-f474-40bc-8288-0b3f2cf3d599"},"vehicle_type_id":"4","last_reported":1705691135,"current_range_meters":19200,"station_id":"ce4bgt92rcd13ifvqcf0","pricing_plan_id":"free"},{"bike_id":"8db02612-be4a-455d-84e4-6aae05c4022d","system_id":"levelo_inurba_marseille","lat":43.31364,"lon":5.38494,"is_reserved":false,"is_disabled":false,"rental_uris":{"android":"levelo://app?vid=8db02612-be4a-455d-84e4-6aae05c4022d","ios":"levelo://app?vid=8db02612-be4a-455d-84e4-6aae05c4022d"},"vehicle_type_id":"4","last_reported":1705691135,"current_range_meters":27200,"station_id":"ce4bgt92rcd13ifvqcf0","pricing_plan_id":"free"},{"bike_id":"0eb10803-bf21-42fd-bb19-dbde9c199eff","system_id":"levelo_inurba_marseille","lat":43.31365,"lon":5.38501,"is_reserved":false,"is_disabled":false,"rental_uris":{"android":"levelo://app?vid=0eb10803-bf21-42fd-bb19-dbde9c199eff","ios":"levelo://app?vid=0eb10803-bf21-42fd-bb19-dbde9c199eff"},"vehicle_type_id":"4","last_reported":1705691135,"current_range_meters":5600,"station_id":"ce4bgt92rcd13ifvqcf0","pricing_plan_id":"free"},{"bike_id":"cb3d7850-4362-45e7-aad1-2cff35d5f878","system_id":"levelo_inurba_marseille","lat":43.299724,"lon":5.371829,"is_reserved":false,"is_disabled":false,"rental_uris":{"android":"levelo://app?vid=cb3d7850-4362-45e7-aad1-2cff35d5f878","ios":"levelo://app?vid=cb3d7850-4362-45e7-aad1-2cff35d5f878"},"vehicle_type_id":"4","last_reported":1705691135,"current_range_meters":24400,"station_id":"ce4bgr92rcd13ifvqc7g","pricing_plan_id":"free"},{"bike_id":"f604a061-e731-42ff-bc27-b7e2f8ab9e38","system_id":"levelo_inurba_marseille","lat":43.30143,"lon":5.37413,"is_reserved":false,"is_disabled":false,"rental_uris":{"android":"levelo://app?vid=f604a061-e731-42ff-bc27-b7e2f8ab9e38","ios":"levelo://app?vid=f604a061-e731-42ff-bc27-b7e2f8ab9e38"},"vehicle_type_id":"4","last_reported":1705691135,"current_range_meters":21600,"station_id":"ce4bgs92rcd13ifvqcc0","pricing_plan_id":"free"},{"bike_id":"87ab718c-7a09-484d-9e25-38375149a780","system_id":"levelo_inurba_marseille","lat":43.311722,"lon":5.387247,"is_reserved":false,"is_disabled":false,"rental_uris":{"android":"levelo://app?vid=87ab718c-7a09-484d-9e25-38375149a780","ios":"levelo://app?vid=87ab718c-7a09-484d-9e25-38375149a780"},"vehicle_type_id":"4","last_reported":1705691135,"current_range_meters":10000,"station_id":"ce4bgv12rcd13ifvqcp0","pricing_plan_id":"free"},{"bike_id":"6d159b6c-65e9-49d0-b478-2914e3707d1b","system_id":"levelo_inurba_marseille","lat":43.29911,"lon":5.3749,"is_reserved":false,"is_disabled":false,"rental_uris":{"android":"levelo://app?vid=6d159b6c-65e9-49d0-b478-2914e3707d1b","ios":"levelo://app?vid=6d159b6c-65e9-49d0-b478-2914e3707d1b"},"vehicle_type_id":"4","last_reported":1705691135,"current_range_meters":29200,"station_id":"ce4bgjh2rcd13ifvqbg0","pricing_plan_id":"free"},{"bike_id":"c617c3a8-9e02-45ed-a475-4b9041cd9336","system_id":"levelo_inurba_marseille","lat":43.297794,"lon":5.370888,"is_reserved":false,"is_disabled":false,"rental_uris":{"android":"levelo://app?vid=c617c3a8-9e02-45ed-a475-4b9041cd9336","ios":"levelo://app?vid=c617c3a8-9e02-45ed-a475-4b9041cd9336"},"vehicle_type_id":"4","last_reported":1705691135,"current_range_meters":30400,"station_id":"ce4bgop2rcd13ifvqc1g","pricing_plan_id":"free"},{"bike_id":"b297575b-a7b6-4e6d-ba46-7ced5dd9abee","system_id":"levelo_inurba_marseille","lat":43.322872,"lon":5.382756,"is_reserved":false,"is_disabled":false,"rental_uris":{"android":"levelo://app?vid=b297575b-a7b6-4e6d-ba46-7ced5dd9abee","ios":"levelo://app?vid=b297575b-a7b6-4e6d-ba46-7ced5dd9abee"},"vehicle_type_id":"4","last_reported":1705691135,"current_range_meters":14800,"station_id":"ce4bhr12rcd13ifvqhqg","pricing_plan_id":"free"},{"bike_id":"ccfdc9dc-d620-4700-bb0c-8371f03d6c34","system_id":"levelo_inurba_marseille","lat":43.297794,"lon":5.370888,"is_reserved":false,"is_disabled":false,"rental_uris":{"android":"levelo://app?vid=ccfdc9dc-d620-4700-bb0c-8371f03d6c34","ios":"levelo://app?vid=ccfdc9dc-d620-4700-bb0c-8371f03d6c34"},"vehicle_type_id":"4","last_reported":1705691135,"current_range_meters":17200,"station_id":"ce4bgop2rcd13ifvqc1g","pricing_plan_id":"free"},{"bike_id":"afe2d6ba-ebda-4981-9104-c77037901f05","system_id":"levelo_inurba_marseille","lat":43.322872,"lon":5.382756,"is_reserved":false,"is_disabled":false,"rental_uris":{"android":"levelo://app?vid=afe2d6ba-ebda-4981-9104-c77037901f05","ios":"levelo://app?vid=afe2d6ba-ebda-4981-9104-c77037901f05"},"vehicle_type_id":"4","last_reported":1705691135,"current_range_meters":28400,"station_id":"ce4bhr12rcd13ifvqhqg","pricing_plan_id":"free"},{"bike_id":"c3ab95e9-b05f-4b19-b4ee-7abea1f52c27","system_id":"levelo_inurba_marseille","lat":43.322872,"lon":5.382756,"is_reserved":false,"is_disabled":false,"rental_uris":{"android":"levelo://app?vid=c3ab95e9-b05f-4b19-b4ee-7abea1f52c27","ios":"levelo://app?vid=c3ab95e9-b05f-4b19-b4ee-7abea1f52c27"},"vehicle_type_id":"4","last_reported":1705691135,"current_range_meters":31600,"station_id":"ce4bhr12rcd13ifvqhqg","pricing_plan_id":"free"},{"bike_id":"34c8b400-5074-46e3-aa02-f5d274dfaa4f","system_id":"levelo_inurba_marseille","lat":43.322872,"lon":5.382756,"is_reserved":false,"is_disabled":false,"rental_uris":{"android":"levelo://app?vid=34c8b400-5074-46e3-aa02-f5d274dfaa4f","ios":"levelo://app?vid=34c8b400-5074-46e3-aa02-f5d274dfaa4f"},"vehicle_type_id":"4","last_reported":1705691135,"current_range_meters":28400,"station_id":"ce4bhr12rcd13ifvqhqg","pricing_plan_id":"free"},{"bike_id":"c1b67890-f7d9-4d1f-b03b-fc166c7b9129","system_id":"levelo_inurba_marseille","lat":43.322872,"lon":5.382756,"is_reserved":false,"is_disabled":false,"rental_uris":{"android":"levelo://app?vid=c1b67890-f7d9-4d1f-b03b-fc166c7b9129","ios":"levelo://app?vid=c1b67890-f7d9-4d1f-b03b-fc166c7b9129"},"vehicle_type_id":"4","last_reported":1705691135,"current_range_meters":0,"station_id":"ce4bhr12rcd13ifvqhqg","pricing_plan_id":"free"},{"bike_id":"217b56ce-f663-414b-bd80-2c68d6f3e28b","system_id":"levelo_inurba_marseille","lat":43.322872,"lon":5.382756,"is_reserved":false,"is_disabled":false,"rental_uris":{"android":"levelo://app?vid=217b56ce-f663-414b-bd80-2c68d6f3e28b","ios":"levelo://app?vid=217b56ce-f663-414b-bd80-2c68d6f3e28b"},"vehicle_type_id":"4","last_reported":1705691135,"current_range_meters":24000,"station_id":"ce4bhr12rcd13ifvqhqg","pricing_plan_id":"free"},{"bike_id":"510e4003-ad50-4182-a4bb-6da1b111fff5","system_id":"levelo_inurba_marseille","lat":43.322872,"lon":5.382756,"is_reserved":false,"is_disabled":false,"rental_uris":{"android":"levelo://app?vid=510e4003-ad50-4182-a4bb-6da1b111fff5","ios":"levelo://app?vid=510e4003-ad50-4182-a4bb-6da1b111fff5"},"vehicle_type_id":"4","last_reported":1705691135,"current_range_meters":18000,"station_id":"ce4bhr12rcd13ifvqhqg","pricing_plan_id":"free"},{"bike_id":"c59e915a-05cb-49b2-8b19-dcae4465ebcc","system_id":"levelo_inurba_marseille","lat":43.322872,"lon":5.382756,"is_reserved":false,"is_disabled":false,"rental_uris":{"android":"levelo://app?vid=c59e915a-05cb-49b2-8b19-dcae4465ebcc","ios":"levelo://app?vid=c59e915a-05cb-49b2-8b19-dcae4465ebcc"},"vehicle_type_id":"4","last_reported":1705691135,"current_range_meters":25600,"station_id":"ce4bhr12rcd13ifvqhqg","pricing_plan_id":"free"},{"bike_id":"85cedcff-9e9a-415d-8415-195178ea3cb7","system_id":"levelo_inurba_marseille","lat":43.3282,"lon":5.36693,"is_reserved":false,"is_disabled":false,"rental_uris":{"android":"levelo://app?vid=85cedcff-9e9a-415d-8415-195178ea3cb7","ios":"levelo://app?vid=85cedcff-9e9a-415d-8415-195178ea3cb7"},"vehicle_type_id":"4","last_reported":1705691135,"current_range_meters":10400,"station_id":"ce4bhs92rcd13ifvqi0g","pricing_plan_id":"free"},{"bike_id":"6da9db5a-42ba-4fa8-afc9-4fdbb45498c1","system_id":"levelo_inurba_marseille","lat":43.32824,"lon":5.36681,"is_reserved":false,"is_disabled":false,"rental_uris":{"android":"levelo://app?vid=6da9db5a-42ba-4fa8-afc9-4fdbb45498c1","ios":"levelo://app?vid=6da9db5a-42ba-4fa8-afc9-4fdbb45498c1"},"vehicle_type_id":"4","last_reported":1705691135,"current_range_meters":2800,"station_id":"ce4bhs92rcd13ifvqi0g","pricing_plan_id":"free"},{"bike_id":"b3d1df88-d8ad-420f-822b-89111e75191e","system_id":"levelo_inurba_marseille","lat":43.328249,"lon":5.36687,"is_reserved":false,"is_disabled":false,"rental_uris":{"android":"levelo://app?vid=b3d1df88-d8ad-420f-822b-89111e75191e","ios":"levelo://app?vid=b3d1df88-d8ad-420f-822b-89111e75191e"},"vehicle_type_id":"4","last_reported":1705691135,"current_range_meters":0,"station_id":"ce4bhs92rcd13ifvqi0g","pricing_plan_id":"free"},{"bike_id":"33a5b9b9-aec4-4925-974d-72730cfc5f44","system_id":"levelo_inurba_marseille","lat":43.328256,"lon":5.36677,"is_reserved":false,"is_disabled":false,"rental_uris":{"android":"levelo://app?vid=33a5b9b9-aec4-4925-974d-72730cfc5f44","ios":"levelo://app?vid=33a5b9b9-aec4-4925-974d-72730cfc5f44"},"vehicle_type_id":"4","last_reported":1705691135,"current_range_meters":17600,"station_id":"ce4bhs92rcd13ifvqi0g","pricing_plan_id":"free"},{"bike_id":"2849c95b-f1a6-402d-aac7-80ea81f2feb2","system_id":"levelo_inurba_marseille","lat":43.32827,"lon":5.36685,"is_reserved":false,"is_disabled":false,"rental_uris":{"android":"levelo://app?vid=2849c95b-f1a6-402d-aac7-80ea81f2feb2","ios":"levelo://app?vid=2849c95b-f1a6-402d-aac7-80ea81f2feb2"},"vehicle_type_id":"4","last_reported":1705691135,"current_range_meters":24800,"station_id":"ce4bhs92rcd13ifvqi0g","pricing_plan_id":"free"},{"bike_id":"1782ad4d-7cbc-4ac0-af82-b65688e9d34c","system_id":"levelo_inurba_marseille","lat":43.328371,"lon":5.366909,"is_reserved":false,"is_disabled":false,"rental_uris":{"android":"levelo://app?vid=1782ad4d-7cbc-4ac0-af82-b65688e9d34c","ios":"levelo://app?vid=1782ad4d-7cbc-4ac0-af82-b65688e9d34c"},"vehicle_type_id":"4","last_reported":1705691135,"current_range_meters":18000,"station_id":"ce4bhs92rcd13ifvqi0g","pricing_plan_id":"free"},{"bike_id":"02f97db8-1e1e-4f38-89f3-11868234f7c3","system_id":"levelo_inurba_marseille","lat":43.32828,"lon":5.36679,"is_reserved":false,"is_disabled":false,"rental_uris":{"android":"levelo://app?vid=02f97db8-1e1e-4f38-89f3-11868234f7c3","ios":"levelo://app?vid=02f97db8-1e1e-4f38-89f3-11868234f7c3"},"vehicle_type_id":"4","last_reported":1705691135,"current_range_meters":8000,"station_id":"ce4bhs92rcd13ifvqi0g","pricing_plan_id":"free"},{"bike_id":"130b18c2-11ce-4fc1-9052-79c75f9cbffa","system_id":"levelo_inurba_marseille","lat":43.328282,"lon":5.366946,"is_reserved":false,"is_disabled":false,"rental_uris":{"android":"levelo://app?vid=130b18c2-11ce-4fc1-9052-79c75f9cbffa","ios":"levelo://app?vid=130b18c2-11ce-4fc1-9052-79c75f9cbffa"},"vehicle_type_id":"4","last_reported":1705691135,"current_range_meters":17200,"station_id":"ce4bhs92rcd13ifvqi0g","pricing_plan_id":"free"},{"bike_id":"59148974-5dd5-4b80-aebd-ec12c23b58c1","system_id":"levelo_inurba_marseille","lat":43.32829,"lon":5.366839,"is_reserved":false,"is_disabled":false,"rental_uris":{"android":"levelo://app?vid=59148974-5dd5-4b80-aebd-ec12c23b58c1","ios":"levelo://app?vid=59148974-5dd5-4b80-aebd-ec12c23b58c1"},"vehicle_type_id":"4","last_reported":1705691135,"current_range_meters":8400,"station_id":"ce4bhs92rcd13ifvqi0g","pricing_plan_id":"free"},{"bike_id":"ea0178f3-2c6b-4af6-b062-91b0b8dde1df","system_id":"levelo_inurba_marseille","lat":43.328295,"lon":5.366786,"is_reserved":false,"is_disabled":false,"rental_uris":{"android":"levelo://app?vid=ea0178f3-2c6b-4af6-b062-91b0b8dde1df","ios":"levelo://app?vid=ea0178f3-2c6b-4af6-b062-91b0b8dde1df"},"vehicle_type_id":"4","last_reported":1705691135,"current_range_meters":26800,"station_id":"ce4bhs92rcd13ifvqi0g","pricing_plan_id":"free"},{"bike_id":"6b4ea496-3016-42db-af64-ba8beb6e73fc","system_id":"levelo_inurba_marseille","lat":43.328371,"lon":5.366909,"is_reserved":false,"is_disabled":false,"rental_uris":{"android":"levelo://app?vid=6b4ea496-3016-42db-af64-ba8beb6e73fc","ios":"levelo://app?vid=6b4ea496-3016-42db-af64-ba8beb6e73fc"},"vehicle_type_id":"4","last_reported":1705691135,"current_range_meters":13600,"station_id":"ce4bhs92rcd13ifvqi0g","pricing_plan_id":"free"},{"bike_id":"bae0e6ef-8eeb-485a-a054-bea3431d2035","system_id":"levelo_inurba_marseille","lat":43.328371,"lon":5.366909,"is_reserved":false,"is_disabled":false,"rental_uris":{"android":"levelo://app?vid=bae0e6ef-8eeb-485a-a054-bea3431d2035","ios":"levelo://app?vid=bae0e6ef-8eeb-485a-a054-bea3431d2035"},"vehicle_type_id":"4","last_reported":1705691135,"current_range_meters":8000,"station_id":"ce4bhs92rcd13ifvqi0g","pricing_plan_id":"free"},{"bike_id":"641739e6-19de-47df-9491-35da26c3c9da","system_id":"levelo_inurba_marseille","lat":43.328371,"lon":5.366909,"is_reserved":false,"is_disabled":false,"rental_uris":{"android":"levelo://app?vid=641739e6-19de-47df-9491-35da26c3c9da","ios":"levelo://app?vid=641739e6-19de-47df-9491-35da26c3c9da"},"vehicle_type_id":"4","last_reported":1705691135,"current_range_meters":18400,"station_id":"ce4bhs92rcd13ifvqi0g","pricing_plan_id":"free"},{"bike_id":"a53b6dde-9c97-4a96-897c-ee7f9265222d","system_id":"levelo_inurba_marseille","lat":43.328371,"lon":5.366909,"is_reserved":false,"is_disabled":false,"rental_uris":{"android":"levelo://app?vid=a53b6dde-9c97-4a96-897c-ee7f9265222d","ios":"levelo://app?vid=a53b6dde-9c97-4a96-897c-ee7f9265222d"},"vehicle_type_id":"4","last_reported":1705691135,"current_range_meters":11600,"station_id":"ce4bhs92rcd13ifvqi0g","pricing_plan_id":"free"},{"bike_id":"88638e12-da12-4596-b7e2-600ab2f62219","system_id":"levelo_inurba_marseille","lat":43.328371,"lon":5.366909,"is_reserved":false,"is_disabled":false,"rental_uris":{"android":"levelo://app?vid=88638e12-da12-4596-b7e2-600ab2f62219","ios":"levelo://app?vid=88638e12-da12-4596-b7e2-600ab2f62219"},"vehicle_type_id":"4","last_reported":1705691135,"current_range_meters":400,"station_id":"ce4bhs92rcd13ifvqi0g","pricing_plan_id":"free"},{"bike_id":"fd213293-34d0-4d8d-96a7-171f6e71f1d6","system_id":"levelo_inurba_marseille","lat":43.297163,"lon":5.365866,"is_reserved":false,"is_disabled":false,"rental_uris":{"android":"levelo://app?vid=fd213293-34d0-4d8d-96a7-171f6e71f1d6","ios":"levelo://app?vid=fd213293-34d0-4d8d-96a7-171f6e71f1d6"},"vehicle_type_id":"4","last_reported":1705691135,"current_range_meters":28800,"station_id":"ce4bgn12rcd13ifvqbt0","pricing_plan_id":"free"},{"bike_id":"38082c03-fac1-44d3-a79f-5142b4a113a9","system_id":"levelo_inurba_marseille","lat":43.328373,"lon":5.366902,"is_reserved":false,"is_disabled":false,"rental_uris":{"android":"levelo://app?vid=38082c03-fac1-44d3-a79f-5142b4a113a9","ios":"levelo://app?vid=38082c03-fac1-44d3-a79f-5142b4a113a9"},"vehicle_type_id":"4","last_reported":1705691135,"current_range_meters":13600,"station_id":"ce4bhs92rcd13ifvqi0g","pricing_plan_id":"free"},{"bike_id":"dcef4528-44d4-4003-92dc-4f5d859db022","system_id":"levelo_inurba_marseille","lat":43.297163,"lon":5.365866,"is_reserved":false,"is_disabled":false,"rental_uris":{"android":"levelo://app?vid=dcef4528-44d4-4003-92dc-4f5d859db022","ios":"levelo://app?vid=dcef4528-44d4-4003-92dc-4f5d859db022"},"vehicle_type_id":"4","last_reported":1705691135,"current_range_meters":28000,"station_id":"ce4bgn12rcd13ifvqbt0","pricing_plan_id":"free"},{"bike_id":"47b7c023-01cc-44a0-91c8-30b39794f64c","system_id":"levelo_inurba_marseille","lat":43.29608,"lon":5.36778,"is_reserved":false,"is_disabled":false,"rental_uris":{"android":"levelo://app?vid=47b7c023-01cc-44a0-91c8-30b39794f64c","ios":"levelo://app?vid=47b7c023-01cc-44a0-91c8-30b39794f64c"},"vehicle_type_id":"4","last_reported":1705691135,"current_range_meters":18400,"station_id":"","pricing_plan_id":"free"},{"bike_id":"76e672fc-e3bd-494c-a9ec-da8d526ce7b1","system_id":"levelo_inurba_marseille","lat":43.29581,"lon":5.36765,"is_reserved":false,"is_disabled":false,"rental_uris":{"android":"levelo://app?vid=76e672fc-e3bd-494c-a9ec-da8d526ce7b1","ios":"levelo://app?vid=76e672fc-e3bd-494c-a9ec-da8d526ce7b1"},"vehicle_type_id":"4","last_reported":1705691135,"current_range_meters":0,"station_id":"ce4bgph2rcd13ifvqc2g","pricing_plan_id":"free"},{"bike_id":"1747a2df-9fdd-4485-8c0a-008d957b61d7","system_id":"levelo_inurba_marseille","lat":43.317557,"lon":5.390173,"is_reserved":false,"is_disabled":false,"rental_uris":{"android":"levelo://app?vid=1747a2df-9fdd-4485-8c0a-008d957b61d7","ios":"levelo://app?vid=1747a2df-9fdd-4485-8c0a-008d957b61d7"},"vehicle_type_id":"4","last_reported":1705691135,"current_range_meters":28400,"station_id":"ce4bhqp2rcd13ifvqhng","pricing_plan_id":"free"},{"bike_id":"14e0d56e-cde5-4799-a904-73db61fcc0f7","system_id":"levelo_inurba_marseille","lat":43.317557,"lon":5.390173,"is_reserved":false,"is_disabled":false,"rental_uris":{"android":"levelo://app?vid=14e0d56e-cde5-4799-a904-73db61fcc0f7","ios":"levelo://app?vid=14e0d56e-cde5-4799-a904-73db61fcc0f7"},"vehicle_type_id":"4","last_reported":1705691135,"current_range_meters":23200,"station_id":"ce4bhqp2rcd13ifvqhng","pricing_plan_id":"free"},{"bike_id":"7a1d93d7-4767-4a9b-aa98-0f1070949ce6","system_id":"levelo_inurba_marseille","lat":43.317557,"lon":5.390173,"is_reserved":false,"is_disabled":false,"rental_uris":{"android":"levelo://app?vid=7a1d93d7-4767-4a9b-aa98-0f1070949ce6","ios":"levelo://app?vid=7a1d93d7-4767-4a9b-aa98-0f1070949ce6"},"vehicle_type_id":"4","last_reported":1705691135,"current_range_meters":12800,"station_id":"ce4bhqp2rcd13ifvqhng","pricing_plan_id":"free"},{"bike_id":"5d506fbb-776e-46fa-8774-1d271de01957","system_id":"levelo_inurba_marseille","lat":43.298037,"lon":5.381066,"is_reserved":false,"is_disabled":false,"rental_uris":{"android":"levelo://app?vid=5d506fbb-776e-46fa-8774-1d271de01957","ios":"levelo://app?vid=5d506fbb-776e-46fa-8774-1d271de01957"},"vehicle_type_id":"4","last_reported":1705691135,"current_range_meters":0,"station_id":"ce4bgip2rcd13ifvqbb0","pricing_plan_id":"free"},{"bike_id":"c3cf45b6-1fb9-4e19-b157-2b27b8f47e3f","system_id":"levelo_inurba_marseille","lat":43.298037,"lon":5.381066,"is_reserved":false,"is_disabled":false,"rental_uris":{"android":"levelo://app?vid=c3cf45b6-1fb9-4e19-b157-2b27b8f47e3f","ios":"levelo://app?vid=c3cf45b6-1fb9-4e19-b157-2b27b8f47e3f"},"vehicle_type_id":"4","last_reported":1705691135,"current_range_meters":12000,"station_id":"ce4bgip2rcd13ifvqbb0","pricing_plan_id":"free"},{"bike_id":"d6ebdf0e-c151-4378-bb39-5bcb1cff404e","system_id":"levelo_inurba_marseille","lat":43.298037,"lon":5.381066,"is_reserved":false,"is_disabled":false,"rental_uris":{"android":"levelo://app?vid=d6ebdf0e-c151-4378-bb39-5bcb1cff404e","ios":"levelo://app?vid=d6ebdf0e-c151-4378-bb39-5bcb1cff404e"},"vehicle_type_id":"4","last_reported":1705691135,"current_range_meters":16400,"station_id":"ce4bgip2rcd13ifvqbb0","pricing_plan_id":"free"},{"bike_id":"e17332fe-7c14-4916-b138-0919d89e1fcf","system_id":"levelo_inurba_marseille","lat":43.298037,"lon":5.381066,"is_reserved":false,"is_disabled":false,"rental_uris":{"android":"levelo://app?vid=e17332fe-7c14-4916-b138-0919d89e1fcf","ios":"levelo://app?vid=e17332fe-7c14-4916-b138-0919d89e1fcf"},"vehicle_type_id":"4","last_reported":1705691135,"current_range_meters":24800,"station_id":"ce4bgip2rcd13ifvqbb0","pricing_plan_id":"free"},{"bike_id":"248bed86-edec-4083-b70d-b4c0bc62e69e","system_id":"levelo_inurba_marseille","lat":43.298037,"lon":5.381066,"is_reserved":false,"is_disabled":false,"rental_uris":{"android":"levelo://app?vid=248bed86-edec-4083-b70d-b4c0bc62e69e","ios":"levelo://app?vid=248bed86-edec-4083-b70d-b4c0bc62e69e"},"vehicle_type_id":"4","last_reported":1705691135,"current_range_meters":2000,"station_id":"ce4bgip2rcd13ifvqbb0","pricing_plan_id":"free"},{"bike_id":"af84cc74-9b17-4d18-b43c-58b00b5e261b","system_id":"levelo_inurba_marseille","lat":43.29639,"lon":5.37719,"is_reserved":false,"is_disabled":false,"rental_uris":{"android":"levelo://app?vid=af84cc74-9b17-4d18-b43c-58b00b5e261b","ios":"levelo://app?vid=af84cc74-9b17-4d18-b43c-58b00b5e261b"},"vehicle_type_id":"4","last_reported":1705691135,"current_range_meters":0,"station_id":"ce4bgi92rcd13ifvqb90","pricing_plan_id":"free"},{"bike_id":"60b8c46c-9082-445c-b638-9730e2bd1bec","system_id":"levelo_inurba_marseille","lat":43.304274,"lon":5.388873,"is_reserved":false,"is_disabled":false,"rental_uris":{"android":"levelo://app?vid=60b8c46c-9082-445c-b638-9730e2bd1bec","ios":"levelo://app?vid=60b8c46c-9082-445c-b638-9730e2bd1bec"},"vehicle_type_id":"4","last_reported":1705691135,"current_range_meters":20800,"station_id":"ce4bgk12rcd13ifvqbi0","pricing_plan_id":"free"},{"bike_id":"34483ff8-6643-4675-b8d3-43d584fa79af","system_id":"levelo_inurba_marseille","lat":43.295748,"lon":5.37522,"is_reserved":false,"is_disabled":false,"rental_uris":{"android":"levelo://app?vid=34483ff8-6643-4675-b8d3-43d584fa79af","ios":"levelo://app?vid=34483ff8-6643-4675-b8d3-43d584fa79af"},"vehicle_type_id":"4","last_reported":1705691135,"current_range_meters":9200,"station_id":"ce4bgh92rcd13ifvqb50","pricing_plan_id":"free"},{"bike_id":"89bcca9d-8164-4ab9-bea9-440f0afcb4ad","system_id":"levelo_inurba_marseille","lat":43.295748,"lon":5.37522,"is_reserved":false,"is_disabled":false,"rental_uris":{"android":"levelo://app?vid=89bcca9d-8164-4ab9-bea9-440f0afcb4ad","ios":"levelo://app?vid=89bcca9d-8164-4ab9-bea9-440f0afcb4ad"},"vehicle_type_id":"4","last_reported":1705691135,"current_range_meters":24400,"station_id":"ce4bgh92rcd13ifvqb50","pricing_plan_id":"free"},{"bike_id":"c81e0606-7192-44c0-97c0-da9820fba6c2","system_id":"levelo_inurba_marseille","lat":43.295748,"lon":5.37522,"is_reserved":false,"is_disabled":false,"rental_uris":{"android":"levelo://app?vid=c81e0606-7192-44c0-97c0-da9820fba6c2","ios":"levelo://app?vid=c81e0606-7192-44c0-97c0-da9820fba6c2"},"vehicle_type_id":"4","last_reported":1705691135,"current_range_meters":9600,"station_id":"ce4bgh92rcd13ifvqb50","pricing_plan_id":"free"},{"bike_id":"ef73b0c5-8c44-4e2e-aded-a9445fdc0e4d","system_id":"levelo_inurba_marseille","lat":43.295748,"lon":5.37522,"is_reserved":false,"is_disabled":false,"rental_uris":{"android":"levelo://app?vid=ef73b0c5-8c44-4e2e-aded-a9445fdc0e4d","ios":"levelo://app?vid=ef73b0c5-8c44-4e2e-aded-a9445fdc0e4d"},"vehicle_type_id":"4","last_reported":1705691135,"current_range_meters":14400,"station_id":"ce4bgh92rcd13ifvqb50","pricing_plan_id":"free"},{"bike_id":"4c867b3d-7364-4e72-93d5-8426da7504f1","system_id":"levelo_inurba_marseille","lat":43.304278,"lon":5.388868,"is_reserved":false,"is_disabled":false,"rental_uris":{"android":"levelo://app?vid=4c867b3d-7364-4e72-93d5-8426da7504f1","ios":"levelo://app?vid=4c867b3d-7364-4e72-93d5-8426da7504f1"},"vehicle_type_id":"4","last_reported":1705691135,"current_range_meters":21200,"station_id":"ce4bgk12rcd13ifvqbi0","pricing_plan_id":"free"},{"bike_id":"209b887a-d927-4ba2-ae96-4777ea208dae","system_id":"levelo_inurba_marseille","lat":43.29633,"lon":5.37721,"is_reserved":false,"is_disabled":false,"rental_uris":{"android":"levelo://app?vid=209b887a-d927-4ba2-ae96-4777ea208dae","ios":"levelo://app?vid=209b887a-d927-4ba2-ae96-4777ea208dae"},"vehicle_type_id":"4","last_reported":1705691135,"current_range_meters":4400,"station_id":"ce4bgi92rcd13ifvqb90","pricing_plan_id":"free"},{"bike_id":"a0212433-ee64-4cfe-a2a7-3086ae3e014e","system_id":"levelo_inurba_marseille","lat":43.296299,"lon":5.377117,"is_reserved":false,"is_disabled":false,"rental_uris":{"android":"levelo://app?vid=a0212433-ee64-4cfe-a2a7-3086ae3e014e","ios":"levelo://app?vid=a0212433-ee64-4cfe-a2a7-3086ae3e014e"},"vehicle_type_id":"4","last_reported":1705691135,"current_range_meters":23600,"station_id":"","pricing_plan_id":"free"},{"bike_id":"b3862648-a6b2-4597-bcc4-c7f45f046e5b","system_id":"levelo_inurba_marseille","lat":43.296478,"lon":5.377818,"is_reserved":false,"is_disabled":false,"rental_uris":{"android":"levelo://app?vid=b3862648-a6b2-4597-bcc4-c7f45f046e5b","ios":"levelo://app?vid=b3862648-a6b2-4597-bcc4-c7f45f046e5b"},"vehicle_type_id":"4","last_reported":1705691135,"current_range_meters":23600,"station_id":"ce4bgi92rcd13ifvqb90","pricing_plan_id":"free"},{"bike_id":"2c56becc-a03a-4c86-8048-48400fac9867","system_id":"levelo_inurba_marseille","lat":43.304274,"lon":5.388873,"is_reserved":false,"is_disabled":false,"rental_uris":{"android":"levelo://app?vid=2c56becc-a03a-4c86-8048-48400fac9867","ios":"levelo://app?vid=2c56becc-a03a-4c86-8048-48400fac9867"},"vehicle_type_id":"4","last_reported":1705691135,"current_range_meters":15600,"station_id":"ce4bgk12rcd13ifvqbi0","pricing_plan_id":"free"},{"bike_id":"7ce0e917-7c07-4bb2-b38c-b07c03326c76","system_id":"levelo_inurba_marseille","lat":43.296119,"lon":5.37721,"is_reserved":false,"is_disabled":false,"rental_uris":{"android":"levelo://app?vid=7ce0e917-7c07-4bb2-b38c-b07c03326c76","ios":"levelo://app?vid=7ce0e917-7c07-4bb2-b38c-b07c03326c76"},"vehicle_type_id":"4","last_reported":1705691135,"current_range_meters":0,"station_id":"ce4bgi92rcd13ifvqb90","pricing_plan_id":"free"},{"bike_id":"9b8071b5-e637-495f-b2d8-cfa8e4f9975d","system_id":"levelo_inurba_marseille","lat":43.29978,"lon":5.38483,"is_reserved":false,"is_disabled":false,"rental_uris":{"android":"levelo://app?vid=9b8071b5-e637-495f-b2d8-cfa8e4f9975d","ios":"levelo://app?vid=9b8071b5-e637-495f-b2d8-cfa8e4f9975d"},"vehicle_type_id":"4","last_reported":1705691135,"current_range_meters":12400,"station_id":"ce4bgj92rcd13ifvqbd0","pricing_plan_id":"free"},{"bike_id":"f98f5d0d-e3f6-4f14-a844-c1b90243be2b","system_id":"levelo_inurba_marseille","lat":43.299794,"lon":5.384872,"is_reserved":false,"is_disabled":false,"rental_uris":{"android":"levelo://app?vid=f98f5d0d-e3f6-4f14-a844-c1b90243be2b","ios":"levelo://app?vid=f98f5d0d-e3f6-4f14-a844-c1b90243be2b"},"vehicle_type_id":"4","last_reported":1705691135,"current_range_meters":16800,"station_id":"ce4bgj92rcd13ifvqbd0","pricing_plan_id":"free"},{"bike_id":"e6f3e9c4-6d7b-4189-a4bf-e26374068291","system_id":"levelo_inurba_marseille","lat":43.299717,"lon":5.384845,"is_reserved":false,"is_disabled":false,"rental_uris":{"android":"levelo://app?vid=e6f3e9c4-6d7b-4189-a4bf-e26374068291","ios":"levelo://app?vid=e6f3e9c4-6d7b-4189-a4bf-e26374068291"},"vehicle_type_id":"4","last_reported":1705691135,"current_range_meters":8000,"station_id":"ce4bgj92rcd13ifvqbd0","pricing_plan_id":"free"},{"bike_id":"43fedd3f-4256-43be-bff0-de4c78f0e0a4","system_id":"levelo_inurba_marseille","lat":43.2952,"lon":5.37502,"is_reserved":false,"is_disabled":false,"rental_uris":{"android":"levelo://app?vid=43fedd3f-4256-43be-bff0-de4c78f0e0a4","ios":"levelo://app?vid=43fedd3f-4256-43be-bff0-de4c78f0e0a4"},"vehicle_type_id":"4","last_reported":1705691135,"current_range_meters":13600,"station_id":"ce4bgkp2rcd13ifvqbmg","pricing_plan_id":"free"},{"bike_id":"36d56d9a-d72c-4c47-80c7-7fb95b061c23","system_id":"levelo_inurba_marseille","lat":43.295279,"lon":5.375048,"is_reserved":false,"is_disabled":false,"rental_uris":{"android":"levelo://app?vid=36d56d9a-d72c-4c47-80c7-7fb95b061c23","ios":"levelo://app?vid=36d56d9a-d72c-4c47-80c7-7fb95b061c23"},"vehicle_type_id":"4","last_reported":1705691135,"current_range_meters":21600,"station_id":"ce4bgkp2rcd13ifvqbmg","pricing_plan_id":"free"},{"bike_id":"0a5844ad-a4f9-4fda-9f23-a1367aa24e65","system_id":"levelo_inurba_marseille","lat":43.29967,"lon":5.38503,"is_reserved":false,"is_disabled":false,"rental_uris":{"android":"levelo://app?vid=0a5844ad-a4f9-4fda-9f23-a1367aa24e65","ios":"levelo://app?vid=0a5844ad-a4f9-4fda-9f23-a1367aa24e65"},"vehicle_type_id":"4","last_reported":1705691135,"current_range_meters":19600,"station_id":"ce4bgj92rcd13ifvqbd0","pricing_plan_id":"free"},{"bike_id":"59749826-7bca-4f0e-ba0d-6be12868bdc4","system_id":"levelo_inurba_marseille","lat":43.32367,"lon":5.388836,"is_reserved":false,"is_disabled":false,"rental_uris":{"android":"levelo://app?vid=59749826-7bca-4f0e-ba0d-6be12868bdc4","ios":"levelo://app?vid=59749826-7bca-4f0e-ba0d-6be12868bdc4"},"vehicle_type_id":"4","last_reported":1705691135,"current_range_meters":29200,"station_id":"ce4bhqp2rcd13ifvqhog","pricing_plan_id":"free"},{"bike_id":"b97f084f-e70f-4ca2-a87d-ee12c07f24a3","system_id":"levelo_inurba_marseille","lat":43.32367,"lon":5.388836,"is_reserved":false,"is_disabled":false,"rental_uris":{"android":"levelo://app?vid=b97f084f-e70f-4ca2-a87d-ee12c07f24a3","ios":"levelo://app?vid=b97f084f-e70f-4ca2-a87d-ee12c07f24a3"},"vehicle_type_id":"4","last_reported":1705691135,"current_range_meters":6800,"station_id":"ce4bhqp2rcd13ifvqhog","pricing_plan_id":"free"},{"bike_id":"7a77d777-cbf4-4854-b02f-5892bd6fc69d","system_id":"levelo_inurba_marseille","lat":43.3237,"lon":5.38882,"is_reserved":false,"is_disabled":false,"rental_uris":{"android":"levelo://app?vid=7a77d777-cbf4-4854-b02f-5892bd6fc69d","ios":"levelo://app?vid=7a77d777-cbf4-4854-b02f-5892bd6fc69d"},"vehicle_type_id":"4","last_reported":1705691135,"current_range_meters":21200,"station_id":"","pricing_plan_id":"free"},{"bike_id":"0488a15c-5dec-4ef3-a79c-803c01b074d3","system_id":"levelo_inurba_marseille","lat":43.32367,"lon":5.388836,"is_reserved":false,"is_disabled":false,"rental_uris":{"android":"levelo://app?vid=0488a15c-5dec-4ef3-a79c-803c01b074d3","ios":"levelo://app?vid=0488a15c-5dec-4ef3-a79c-803c01b074d3"},"vehicle_type_id":"4","last_reported":1705691135,"current_range_meters":12800,"station_id":"ce4bhqp2rcd13ifvqhog","pricing_plan_id":"free"},{"bike_id":"f380ca6f-7a3a-4d56-9fcc-106969c567da","system_id":"levelo_inurba_marseille","lat":43.32367,"lon":5.388836,"is_reserved":false,"is_disabled":false,"rental_uris":{"android":"levelo://app?vid=f380ca6f-7a3a-4d56-9fcc-106969c567da","ios":"levelo://app?vid=f380ca6f-7a3a-4d56-9fcc-106969c567da"},"vehicle_type_id":"4","last_reported":1705691135,"current_range_meters":20800,"station_id":"ce4bhqp2rcd13ifvqhog","pricing_plan_id":"free"},{"bike_id":"e488bc27-b4bd-4ecb-9994-ebd8743b5676","system_id":"levelo_inurba_marseille","lat":43.32367,"lon":5.388836,"is_reserved":false,"is_disabled":false,"rental_uris":{"android":"levelo://app?vid=e488bc27-b4bd-4ecb-9994-ebd8743b5676","ios":"levelo://app?vid=e488bc27-b4bd-4ecb-9994-ebd8743b5676"},"vehicle_type_id":"4","last_reported":1705691135,"current_range_meters":6800,"station_id":"ce4bhqp2rcd13ifvqhog","pricing_plan_id":"free"},{"bike_id":"c68b6822-d442-4675-b9d4-8c9cc910fa25","system_id":"levelo_inurba_marseille","lat":43.32367,"lon":5.388836,"is_reserved":false,"is_disabled":false,"rental_uris":{"android":"levelo://app?vid=c68b6822-d442-4675-b9d4-8c9cc910fa25","ios":"levelo://app?vid=c68b6822-d442-4675-b9d4-8c9cc910fa25"},"vehicle_type_id":"4","last_reported":1705691135,"current_range_meters":29600,"station_id":"ce4bhqp2rcd13ifvqhog","pricing_plan_id":"free"},{"bike_id":"e1283bec-dd91-4ead-a047-f9dd4ef7f4d0","system_id":"levelo_inurba_marseille","lat":43.29601,"lon":5.381084,"is_reserved":false,"is_disabled":false,"rental_uris":{"android":"levelo://app?vid=e1283bec-dd91-4ead-a047-f9dd4ef7f4d0","ios":"levelo://app?vid=e1283bec-dd91-4ead-a047-f9dd4ef7f4d0"},"vehicle_type_id":"4","last_reported":1705691135,"current_range_meters":24800,"station_id":"ce4bgl12rcd13ifvqbo0","pricing_plan_id":"free"},{"bike_id":"b58b0ab3-d792-4d77-88a8-5330be49a762","system_id":"levelo_inurba_marseille","lat":43.29601,"lon":5.381084,"is_reserved":false,"is_disabled":false,"rental_uris":{"android":"levelo://app?vid=b58b0ab3-d792-4d77-88a8-5330be49a762","ios":"levelo://app?vid=b58b0ab3-d792-4d77-88a8-5330be49a762"},"vehicle_type_id":"4","last_reported":1705691135,"current_range_meters":25200,"station_id":"ce4bgl12rcd13ifvqbo0","pricing_plan_id":"free"},{"bike_id":"310cc76f-1e02-4109-b33c-84afe3814094","system_id":"levelo_inurba_marseille","lat":43.29601,"lon":5.381084,"is_reserved":false,"is_disabled":false,"rental_uris":{"android":"levelo://app?vid=310cc76f-1e02-4109-b33c-84afe3814094","ios":"levelo://app?vid=310cc76f-1e02-4109-b33c-84afe3814094"},"vehicle_type_id":"4","last_reported":1705691135,"current_range_meters":28000,"station_id":"ce4bgl12rcd13ifvqbo0","pricing_plan_id":"free"},{"bike_id":"9ef3b602-d877-4892-bb9b-d511956e05f9","system_id":"levelo_inurba_marseille","lat":43.29602,"lon":5.381084,"is_reserved":false,"is_disabled":false,"rental_uris":{"android":"levelo://app?vid=9ef3b602-d877-4892-bb9b-d511956e05f9","ios":"levelo://app?vid=9ef3b602-d877-4892-bb9b-d511956e05f9"},"vehicle_type_id":"4","last_reported":1705691135,"current_range_meters":16000,"station_id":"ce4bgl12rcd13ifvqbo0","pricing_plan_id":"free"},{"bike_id":"8955df26-69c2-436d-81c8-a838e2a58aa9","system_id":"levelo_inurba_marseille","lat":43.29601,"lon":5.381084,"is_reserved":false,"is_disabled":false,"rental_uris":{"android":"levelo://app?vid=8955df26-69c2-436d-81c8-a838e2a58aa9","ios":"levelo://app?vid=8955df26-69c2-436d-81c8-a838e2a58aa9"},"vehicle_type_id":"4","last_reported":1705691135,"current_range_meters":400,"station_id":"ce4bgl12rcd13ifvqbo0","pricing_plan_id":"free"},{"bike_id":"a0bde91d-0866-4ce3-9ce0-d1e61f399921","system_id":"levelo_inurba_marseille","lat":43.29602,"lon":5.381084,"is_reserved":false,"is_disabled":false,"rental_uris":{"android":"levelo://app?vid=a0bde91d-0866-4ce3-9ce0-d1e61f399921","ios":"levelo://app?vid=a0bde91d-0866-4ce3-9ce0-d1e61f399921"},"vehicle_type_id":"4","last_reported":1705691135,"current_range_meters":17200,"station_id":"ce4bgl12rcd13ifvqbo0","pricing_plan_id":"free"},{"bike_id":"ee6ca4e3-4e6f-4bb0-95a7-6ce280bdee88","system_id":"levelo_inurba_marseille","lat":43.292749,"lon":5.368402,"is_reserved":false,"is_disabled":false,"rental_uris":{"android":"levelo://app?vid=ee6ca4e3-4e6f-4bb0-95a7-6ce280bdee88","ios":"levelo://app?vid=ee6ca4e3-4e6f-4bb0-95a7-6ce280bdee88"},"vehicle_type_id":"4","last_reported":1705691135,"current_range_meters":12400,"station_id":"ce4bhbp2rcd13ifvqesg","pricing_plan_id":"free"},{"bike_id":"0384eb92-c7d0-40dd-9e12-4e6d718bdf7f","system_id":"levelo_inurba_marseille","lat":43.292749,"lon":5.368402,"is_reserved":false,"is_disabled":false,"rental_uris":{"android":"levelo://app?vid=0384eb92-c7d0-40dd-9e12-4e6d718bdf7f","ios":"levelo://app?vid=0384eb92-c7d0-40dd-9e12-4e6d718bdf7f"},"vehicle_type_id":"4","last_reported":1705691135,"current_range_meters":20800,"station_id":"ce4bhbp2rcd13ifvqesg","pricing_plan_id":"free"},{"bike_id":"31b5b041-277a-4be2-9e58-11073d690b43","system_id":"levelo_inurba_marseille","lat":43.292749,"lon":5.368402,"is_reserved":false,"is_disabled":false,"rental_uris":{"android":"levelo://app?vid=31b5b041-277a-4be2-9e58-11073d690b43","ios":"levelo://app?vid=31b5b041-277a-4be2-9e58-11073d690b43"},"vehicle_type_id":"4","last_reported":1705691135,"current_range_meters":18800,"station_id":"ce4bhbp2rcd13ifvqesg","pricing_plan_id":"free"},{"bike_id":"8e8b9dc2-619d-4209-9731-3c29911578b7","system_id":"levelo_inurba_marseille","lat":43.293249,"lon":5.371578,"is_reserved":false,"is_disabled":false,"rental_uris":{"android":"levelo://app?vid=8e8b9dc2-619d-4209-9731-3c29911578b7","ios":"levelo://app?vid=8e8b9dc2-619d-4209-9731-3c29911578b7"},"vehicle_type_id":"4","last_reported":1705691135,"current_range_meters":17200,"station_id":"ce4bgh92rcd13ifvqb40","pricing_plan_id":"free"},{"bike_id":"95fde7ed-2d37-4e02-98af-a0cdd0087941","system_id":"levelo_inurba_marseille","lat":43.293249,"lon":5.371578,"is_reserved":false,"is_disabled":false,"rental_uris":{"android":"levelo://app?vid=95fde7ed-2d37-4e02-98af-a0cdd0087941","ios":"levelo://app?vid=95fde7ed-2d37-4e02-98af-a0cdd0087941"},"vehicle_type_id":"4","last_reported":1705691135,"current_range_meters":0,"station_id":"ce4bgh92rcd13ifvqb40","pricing_plan_id":"free"},{"bike_id":"c72b6bd5-6bbf-4cc1-a22a-e52c2c9916d9","system_id":"levelo_inurba_marseille","lat":43.293249,"lon":5.371578,"is_reserved":false,"is_disabled":false,"rental_uris":{"android":"levelo://app?vid=c72b6bd5-6bbf-4cc1-a22a-e52c2c9916d9","ios":"levelo://app?vid=c72b6bd5-6bbf-4cc1-a22a-e52c2c9916d9"},"vehicle_type_id":"4","last_reported":1705691135,"current_range_meters":11600,"station_id":"ce4bgh92rcd13ifvqb40","pricing_plan_id":"free"},{"bike_id":"b04642f3-3001-4754-9383-7b974889de24","system_id":"levelo_inurba_marseille","lat":43.293259,"lon":5.371586,"is_reserved":false,"is_disabled":false,"rental_uris":{"android":"levelo://app?vid=b04642f3-3001-4754-9383-7b974889de24","ios":"levelo://app?vid=b04642f3-3001-4754-9383-7b974889de24"},"vehicle_type_id":"4","last_reported":1705691135,"current_range_meters":0,"station_id":"ce4bgh92rcd13ifvqb40","pricing_plan_id":"free"},{"bike_id":"191e67bf-a06c-4982-9af6-96718e070701","system_id":"levelo_inurba_marseille","lat":43.292749,"lon":5.368402,"is_reserved":false,"is_disabled":false,"rental_uris":{"android":"levelo://app?vid=191e67bf-a06c-4982-9af6-96718e070701","ios":"levelo://app?vid=191e67bf-a06c-4982-9af6-96718e070701"},"vehicle_type_id":"4","last_reported":1705691135,"current_range_meters":18800,"station_id":"ce4bhbp2rcd13ifvqesg","pricing_plan_id":"free"},{"bike_id":"a9607db4-f0d6-4377-bf8f-8748391957f1","system_id":"levelo_inurba_marseille","lat":43.292749,"lon":5.368402,"is_reserved":false,"is_disabled":false,"rental_uris":{"android":"levelo://app?vid=a9607db4-f0d6-4377-bf8f-8748391957f1","ios":"levelo://app?vid=a9607db4-f0d6-4377-bf8f-8748391957f1"},"vehicle_type_id":"4","last_reported":1705691135,"current_range_meters":9600,"station_id":"ce4bhbp2rcd13ifvqesg","pricing_plan_id":"free"},{"bike_id":"9a1efc17-2858-45e3-92fb-95b7cf84117d","system_id":"levelo_inurba_marseille","lat":43.293009,"lon":5.374584,"is_reserved":false,"is_disabled":false,"rental_uris":{"android":"levelo://app?vid=9a1efc17-2858-45e3-92fb-95b7cf84117d","ios":"levelo://app?vid=9a1efc17-2858-45e3-92fb-95b7cf84117d"},"vehicle_type_id":"4","last_reported":1705691135,"current_range_meters":17200,"station_id":"ce4bgi12rcd13ifvqb70","pricing_plan_id":"free"},{"bike_id":"2f26f03b-db4b-457f-be9b-bec1c2bcebea","system_id":"levelo_inurba_marseille","lat":43.305994,"lon":5.393687,"is_reserved":false,"is_disabled":false,"rental_uris":{"android":"levelo://app?vid=2f26f03b-db4b-457f-be9b-bec1c2bcebea","ios":"levelo://app?vid=2f26f03b-db4b-457f-be9b-bec1c2bcebea"},"vehicle_type_id":"4","last_reported":1705691135,"current_range_meters":21600,"station_id":"ce4bh0p2rcd13ifvqd80","pricing_plan_id":"free"},{"bike_id":"cb241662-dd01-46fb-8001-b317667c316c","system_id":"levelo_inurba_marseille","lat":43.293009,"lon":5.374584,"is_reserved":false,"is_disabled":false,"rental_uris":{"android":"levelo://app?vid=cb241662-dd01-46fb-8001-b317667c316c","ios":"levelo://app?vid=cb241662-dd01-46fb-8001-b317667c316c"},"vehicle_type_id":"4","last_reported":1705691135,"current_range_meters":25600,"station_id":"ce4bgi12rcd13ifvqb70","pricing_plan_id":"free"},{"bike_id":"7c6f8806-f207-4530-bb1e-f1cf54ce6f96","system_id":"levelo_inurba_marseille","lat":43.305994,"lon":5.393687,"is_reserved":false,"is_disabled":false,"rental_uris":{"android":"levelo://app?vid=7c6f8806-f207-4530-bb1e-f1cf54ce6f96","ios":"levelo://app?vid=7c6f8806-f207-4530-bb1e-f1cf54ce6f96"},"vehicle_type_id":"4","last_reported":1705691135,"current_range_meters":3600,"station_id":"ce4bh0p2rcd13ifvqd80","pricing_plan_id":"free"},{"bike_id":"dfee808a-392c-463a-af32-019d3a8737c5","system_id":"levelo_inurba_marseille","lat":43.303002,"lon":5.392142,"is_reserved":false,"is_disabled":false,"rental_uris":{"android":"levelo://app?vid=dfee808a-392c-463a-af32-019d3a8737c5","ios":"levelo://app?vid=dfee808a-392c-463a-af32-019d3a8737c5"},"vehicle_type_id":"4","last_reported":1705691135,"current_range_meters":9600,"station_id":"ce4bgkh2rcd13ifvqbk0","pricing_plan_id":"free"},{"bike_id":"9434c724-b868-4fd7-920a-83d620b2608b","system_id":"levelo_inurba_marseille","lat":43.302992,"lon":5.392136,"is_reserved":false,"is_disabled":false,"rental_uris":{"android":"levelo://app?vid=9434c724-b868-4fd7-920a-83d620b2608b","ios":"levelo://app?vid=9434c724-b868-4fd7-920a-83d620b2608b"},"vehicle_type_id":"4","last_reported":1705691135,"current_range_meters":14800,"station_id":"ce4bgkh2rcd13ifvqbk0","pricing_plan_id":"free"},{"bike_id":"12d54f80-d65f-409c-9fbf-57b1c67f6e85","system_id":"levelo_inurba_marseille","lat":43.2936,"lon":5.37835,"is_reserved":false,"is_disabled":false,"rental_uris":{"android":"levelo://app?vid=12d54f80-d65f-409c-9fbf-57b1c67f6e85","ios":"levelo://app?vid=12d54f80-d65f-409c-9fbf-57b1c67f6e85"},"vehicle_type_id":"4","last_reported":1705691135,"current_range_meters":14800,"station_id":"ce4bgjh2rcd13ifvqbf0","pricing_plan_id":"free"},{"bike_id":"89da6392-6702-4eb8-b034-ec08301460eb","system_id":"levelo_inurba_marseille","lat":43.302992,"lon":5.392136,"is_reserved":false,"is_disabled":false,"rental_uris":{"android":"levelo://app?vid=89da6392-6702-4eb8-b034-ec08301460eb","ios":"levelo://app?vid=89da6392-6702-4eb8-b034-ec08301460eb"},"vehicle_type_id":"4","last_reported":1705691135,"current_range_meters":14800,"station_id":"ce4bgkh2rcd13ifvqbk0","pricing_plan_id":"free"},{"bike_id":"9bb045c6-33ae-4ecf-b911-5b875450fc26","system_id":"levelo_inurba_marseille","lat":43.300993,"lon":5.39077,"is_reserved":false,"is_disabled":false,"rental_uris":{"android":"levelo://app?vid=9bb045c6-33ae-4ecf-b911-5b875450fc26","ios":"levelo://app?vid=9bb045c6-33ae-4ecf-b911-5b875450fc26"},"vehicle_type_id":"4","last_reported":1705691135,"current_range_meters":0,"station_id":"ce4bh192rcd13ifvqdb0","pricing_plan_id":"free"},{"bike_id":"f1d5d859-4e90-4cc5-ad78-c75ab5b981e2","system_id":"levelo_inurba_marseille","lat":43.292311,"lon":5.360731,"is_reserved":false,"is_disabled":false,"rental_uris":{"android":"levelo://app?vid=f1d5d859-4e90-4cc5-ad78-c75ab5b981e2","ios":"levelo://app?vid=f1d5d859-4e90-4cc5-ad78-c75ab5b981e2"},"vehicle_type_id":"4","last_reported":1705691135,"current_range_meters":22400,"station_id":"ce4bhbh2rcd13ifvqeqg","pricing_plan_id":"free"},{"bike_id":"8b43fe6e-0b6c-4fff-a9b0-0a0dd93a9183","system_id":"levelo_inurba_marseille","lat":43.292311,"lon":5.360731,"is_reserved":false,"is_disabled":false,"rental_uris":{"android":"levelo://app?vid=8b43fe6e-0b6c-4fff-a9b0-0a0dd93a9183","ios":"levelo://app?vid=8b43fe6e-0b6c-4fff-a9b0-0a0dd93a9183"},"vehicle_type_id":"4","last_reported":1705691135,"current_range_meters":20400,"station_id":"ce4bhbh2rcd13ifvqeqg","pricing_plan_id":"free"},{"bike_id":"c7e0567c-2f1b-434c-bb62-ccaf400bf612","system_id":"levelo_inurba_marseille","lat":43.291675,"lon":5.371583,"is_reserved":false,"is_disabled":false,"rental_uris":{"android":"levelo://app?vid=c7e0567c-2f1b-434c-bb62-ccaf400bf612","ios":"levelo://app?vid=c7e0567c-2f1b-434c-bb62-ccaf400bf612"},"vehicle_type_id":"4","last_reported":1705691135,"current_range_meters":0,"station_id":"ce4bha92rcd13ifvqeh0","pricing_plan_id":"free"},{"bike_id":"747b3163-5de2-4783-8b2c-de49ade33d52","system_id":"levelo_inurba_marseille","lat":43.292092,"lon":5.358566,"is_reserved":false,"is_disabled":false,"rental_uris":{"android":"levelo://app?vid=747b3163-5de2-4783-8b2c-de49ade33d52","ios":"levelo://app?vid=747b3163-5de2-4783-8b2c-de49ade33d52"},"vehicle_type_id":"4","last_reported":1705691135,"current_range_meters":13600,"station_id":"ce4bhb12rcd13ifvqel0","pricing_plan_id":"free"},{"bike_id":"7147d5a9-8503-4ba3-869f-d225857fa107","system_id":"levelo_inurba_marseille","lat":43.317557,"lon":5.390173,"is_reserved":false,"is_disabled":false,"rental_uris":{"android":"levelo://app?vid=7147d5a9-8503-4ba3-869f-d225857fa107","ios":"levelo://app?vid=7147d5a9-8503-4ba3-869f-d225857fa107"},"vehicle_type_id":"4","last_reported":1705691135,"current_range_meters":20800,"station_id":"ce4bhqp2rcd13ifvqhng","pricing_plan_id":"free"},{"bike_id":"b080bbc2-480b-4ee3-98c4-e74bfdcf0958","system_id":"levelo_inurba_marseille","lat":43.291994,"lon":5.357886,"is_reserved":false,"is_disabled":false,"rental_uris":{"android":"levelo://app?vid=b080bbc2-480b-4ee3-98c4-e74bfdcf0958","ios":"levelo://app?vid=b080bbc2-480b-4ee3-98c4-e74bfdcf0958"},"vehicle_type_id":"4","last_reported":1705691135,"current_range_meters":26000,"station_id":"ce4bhb12rcd13ifvqel0","pricing_plan_id":"free"},{"bike_id":"4b65bbb6-3ac7-4277-918e-50c4f99c687c","system_id":"levelo_inurba_marseille","lat":43.291994,"lon":5.357886,"is_reserved":false,"is_disabled":false,"rental_uris":{"android":"levelo://app?vid=4b65bbb6-3ac7-4277-918e-50c4f99c687c","ios":"levelo://app?vid=4b65bbb6-3ac7-4277-918e-50c4f99c687c"},"vehicle_type_id":"4","last_reported":1705691135,"current_range_meters":12400,"station_id":"ce4bhb12rcd13ifvqel0","pricing_plan_id":"free"},{"bike_id":"9d32c371-b55b-4420-9f5a-b8aa35bcb5fc","system_id":"levelo_inurba_marseille","lat":43.291994,"lon":5.357886,"is_reserved":false,"is_disabled":false,"rental_uris":{"android":"levelo://app?vid=9d32c371-b55b-4420-9f5a-b8aa35bcb5fc","ios":"levelo://app?vid=9d32c371-b55b-4420-9f5a-b8aa35bcb5fc"},"vehicle_type_id":"4","last_reported":1705691135,"current_range_meters":15600,"station_id":"ce4bhb12rcd13ifvqel0","pricing_plan_id":"free"},{"bike_id":"36e1005c-ad94-432b-8b06-7f8157bcedd5","system_id":"levelo_inurba_marseille","lat":43.291994,"lon":5.357886,"is_reserved":false,"is_disabled":false,"rental_uris":{"android":"levelo://app?vid=36e1005c-ad94-432b-8b06-7f8157bcedd5","ios":"levelo://app?vid=36e1005c-ad94-432b-8b06-7f8157bcedd5"},"vehicle_type_id":"4","last_reported":1705691135,"current_range_meters":23200,"station_id":"ce4bhb12rcd13ifvqel0","pricing_plan_id":"free"},{"bike_id":"f25b2d2a-4115-4672-a498-3e9a58c6ca97","system_id":"levelo_inurba_marseille","lat":43.309038,"lon":5.396546,"is_reserved":false,"is_disabled":false,"rental_uris":{"android":"levelo://app?vid=f25b2d2a-4115-4672-a498-3e9a58c6ca97","ios":"levelo://app?vid=f25b2d2a-4115-4672-a498-3e9a58c6ca97"},"vehicle_type_id":"4","last_reported":1705691135,"current_range_meters":15600,"station_id":"ce4bh012rcd13ifvqcv0","pricing_plan_id":"free"},{"bike_id":"85fc844e-642e-4ef7-9a87-b6ffbe9d236c","system_id":"levelo_inurba_marseille","lat":43.313291,"lon":5.396838,"is_reserved":false,"is_disabled":false,"rental_uris":{"android":"levelo://app?vid=85fc844e-642e-4ef7-9a87-b6ffbe9d236c","ios":"levelo://app?vid=85fc844e-642e-4ef7-9a87-b6ffbe9d236c"},"vehicle_type_id":"4","last_reported":1705691135,"current_range_meters":20800,"station_id":"ce4bgvp2rcd13ifvqcu0","pricing_plan_id":"free"},{"bike_id":"3518ab4d-2d90-4a7a-b5dc-9b8a506087f3","system_id":"levelo_inurba_marseille","lat":43.31331,"lon":5.39691,"is_reserved":false,"is_disabled":false,"rental_uris":{"android":"levelo://app?vid=3518ab4d-2d90-4a7a-b5dc-9b8a506087f3","ios":"levelo://app?vid=3518ab4d-2d90-4a7a-b5dc-9b8a506087f3"},"vehicle_type_id":"4","last_reported":1705691135,"current_range_meters":11200,"station_id":"ce4bgvp2rcd13ifvqcu0","pricing_plan_id":"free"},{"bike_id":"8d970af5-ce59-41e3-aab1-7f90858e8457","system_id":"levelo_inurba_marseille","lat":43.291994,"lon":5.357886,"is_reserved":false,"is_disabled":false,"rental_uris":{"android":"levelo://app?vid=8d970af5-ce59-41e3-aab1-7f90858e8457","ios":"levelo://app?vid=8d970af5-ce59-41e3-aab1-7f90858e8457"},"vehicle_type_id":"4","last_reported":1705691135,"current_range_meters":17600,"station_id":"ce4bhb12rcd13ifvqel0","pricing_plan_id":"free"},{"bike_id":"1fc53a60-7295-4020-9c40-310f59a3ec0d","system_id":"levelo_inurba_marseille","lat":43.309047,"lon":5.396551,"is_reserved":false,"is_disabled":false,"rental_uris":{"android":"levelo://app?vid=1fc53a60-7295-4020-9c40-310f59a3ec0d","ios":"levelo://app?vid=1fc53a60-7295-4020-9c40-310f59a3ec0d"},"vehicle_type_id":"4","last_reported":1705691135,"current_range_meters":16800,"station_id":"ce4bh012rcd13ifvqcv0","pricing_plan_id":"free"},{"bike_id":"df9b79f9-7124-4711-bd9e-33ce04f48cc8","system_id":"levelo_inurba_marseille","lat":43.291619,"lon":5.374963,"is_reserved":false,"is_disabled":false,"rental_uris":{"android":"levelo://app?vid=df9b79f9-7124-4711-bd9e-33ce04f48cc8","ios":"levelo://app?vid=df9b79f9-7124-4711-bd9e-33ce04f48cc8"},"vehicle_type_id":"4","last_reported":1705691135,"current_range_meters":0,"station_id":"","pricing_plan_id":"free"},{"bike_id":"abe23233-09f5-4669-b8a1-55db7d2d4d81","system_id":"levelo_inurba_marseille","lat":43.29529,"lon":5.385581,"is_reserved":false,"is_disabled":false,"rental_uris":{"android":"levelo://app?vid=abe23233-09f5-4669-b8a1-55db7d2d4d81","ios":"levelo://app?vid=abe23233-09f5-4669-b8a1-55db7d2d4d81"},"vehicle_type_id":"4","last_reported":1705691135,"current_range_meters":7200,"station_id":"ce4bgih2rcd13ifvqba0","pricing_plan_id":"free"},{"bike_id":"274272b6-6baa-464f-90eb-b0382c5b0531","system_id":"levelo_inurba_marseille","lat":43.29529,"lon":5.385581,"is_reserved":false,"is_disabled":false,"rental_uris":{"android":"levelo://app?vid=274272b6-6baa-464f-90eb-b0382c5b0531","ios":"levelo://app?vid=274272b6-6baa-464f-90eb-b0382c5b0531"},"vehicle_type_id":"4","last_reported":1705691135,"current_range_meters":20400,"station_id":"ce4bgih2rcd13ifvqba0","pricing_plan_id":"free"},{"bike_id":"35b4db8c-01d1-4085-bb34-199b0fd673ba","system_id":"levelo_inurba_marseille","lat":43.29529,"lon":5.385581,"is_reserved":false,"is_disabled":false,"rental_uris":{"android":"levelo://app?vid=35b4db8c-01d1-4085-bb34-199b0fd673ba","ios":"levelo://app?vid=35b4db8c-01d1-4085-bb34-199b0fd673ba"},"vehicle_type_id":"4","last_reported":1705691135,"current_range_meters":16800,"station_id":"ce4bgih2rcd13ifvqba0","pricing_plan_id":"free"},{"bike_id":"7f0834cf-d296-40e5-bc79-99287b08a26b","system_id":"levelo_inurba_marseille","lat":43.29011,"lon":5.3685,"is_reserved":false,"is_disabled":false,"rental_uris":{"android":"levelo://app?vid=7f0834cf-d296-40e5-bc79-99287b08a26b","ios":"levelo://app?vid=7f0834cf-d296-40e5-bc79-99287b08a26b"},"vehicle_type_id":"4","last_reported":1705691135,"current_range_meters":8000,"station_id":"ce4bhb92rcd13ifvqen0","pricing_plan_id":"free"},{"bike_id":"1058293d-1cc0-454d-907c-85f49191d277","system_id":"levelo_inurba_marseille","lat":43.290624,"lon":5.359245,"is_reserved":false,"is_disabled":false,"rental_uris":{"android":"levelo://app?vid=1058293d-1cc0-454d-907c-85f49191d277","ios":"levelo://app?vid=1058293d-1cc0-454d-907c-85f49191d277"},"vehicle_type_id":"4","last_reported":1705691135,"current_range_meters":19600,"station_id":"ce4bha92rcd13ifvqeg0","pricing_plan_id":"free"},{"bike_id":"d6419dce-a4a3-41c2-8246-d67d2654d27e","system_id":"levelo_inurba_marseille","lat":43.290624,"lon":5.359245,"is_reserved":false,"is_disabled":false,"rental_uris":{"android":"levelo://app?vid=d6419dce-a4a3-41c2-8246-d67d2654d27e","ios":"levelo://app?vid=d6419dce-a4a3-41c2-8246-d67d2654d27e"},"vehicle_type_id":"4","last_reported":1705691135,"current_range_meters":27200,"station_id":"ce4bha92rcd13ifvqeg0","pricing_plan_id":"free"},{"bike_id":"92fb8769-c089-41c3-bbf8-25e0da518343","system_id":"levelo_inurba_marseille","lat":43.289184,"lon":5.366408,"is_reserved":false,"is_disabled":false,"rental_uris":{"android":"levelo://app?vid=92fb8769-c089-41c3-bbf8-25e0da518343","ios":"levelo://app?vid=92fb8769-c089-41c3-bbf8-25e0da518343"},"vehicle_type_id":"4","last_reported":1705691135,"current_range_meters":16000,"station_id":"ce4bhap2rcd13ifvqek0","pricing_plan_id":"free"},{"bike_id":"43024024-eedd-410b-b74d-e675fafd8277","system_id":"levelo_inurba_marseille","lat":43.290624,"lon":5.359245,"is_reserved":false,"is_disabled":false,"rental_uris":{"android":"levelo://app?vid=43024024-eedd-410b-b74d-e675fafd8277","ios":"levelo://app?vid=43024024-eedd-410b-b74d-e675fafd8277"},"vehicle_type_id":"4","last_reported":1705691135,"current_range_meters":30400,"station_id":"ce4bha92rcd13ifvqeg0","pricing_plan_id":"free"},{"bike_id":"598ee8cd-2419-4339-928b-eff37230d085","system_id":"levelo_inurba_marseille","lat":43.290428,"lon":5.358994,"is_reserved":false,"is_disabled":false,"rental_uris":{"android":"levelo://app?vid=598ee8cd-2419-4339-928b-eff37230d085","ios":"levelo://app?vid=598ee8cd-2419-4339-928b-eff37230d085"},"vehicle_type_id":"4","last_reported":1705691135,"current_range_meters":14000,"station_id":"ce4bha92rcd13ifvqeg0","pricing_plan_id":"free"},{"bike_id":"2a02fd67-35f8-41cf-9a4c-324fe24389a8","system_id":"levelo_inurba_marseille","lat":43.290631,"lon":5.359244,"is_reserved":false,"is_disabled":false,"rental_uris":{"android":"levelo://app?vid=2a02fd67-35f8-41cf-9a4c-324fe24389a8","ios":"levelo://app?vid=2a02fd67-35f8-41cf-9a4c-324fe24389a8"},"vehicle_type_id":"4","last_reported":1705691135,"current_range_meters":22800,"station_id":"ce4bha92rcd13ifvqeg0","pricing_plan_id":"free"},{"bike_id":"a37e98cd-05aa-4824-b466-5ce128613900","system_id":"levelo_inurba_marseille","lat":43.290327,"lon":5.375711,"is_reserved":false,"is_disabled":false,"rental_uris":{"android":"levelo://app?vid=a37e98cd-05aa-4824-b466-5ce128613900","ios":"levelo://app?vid=a37e98cd-05aa-4824-b466-5ce128613900"},"vehicle_type_id":"4","last_reported":1705691135,"current_range_meters":21600,"station_id":"ce4bh692rcd13ifvqe90","pricing_plan_id":"free"},{"bike_id":"0aed766e-9bf2-4da5-8f6e-e74c77f6af62","system_id":"levelo_inurba_marseille","lat":43.294162,"lon":5.386292,"is_reserved":false,"is_disabled":false,"rental_uris":{"android":"levelo://app?vid=0aed766e-9bf2-4da5-8f6e-e74c77f6af62","ios":"levelo://app?vid=0aed766e-9bf2-4da5-8f6e-e74c77f6af62"},"vehicle_type_id":"4","last_reported":1705691135,"current_range_meters":26400,"station_id":"ce4bh2h2rcd13ifvqdh0","pricing_plan_id":"free"},{"bike_id":"e13a3e95-0933-43cb-b731-bdd4d86fb7b3","system_id":"levelo_inurba_marseille","lat":43.289184,"lon":5.366408,"is_reserved":false,"is_disabled":false,"rental_uris":{"android":"levelo://app?vid=e13a3e95-0933-43cb-b731-bdd4d86fb7b3","ios":"levelo://app?vid=e13a3e95-0933-43cb-b731-bdd4d86fb7b3"},"vehicle_type_id":"4","last_reported":1705691135,"current_range_meters":9600,"station_id":"ce4bhap2rcd13ifvqek0","pricing_plan_id":"free"},{"bike_id":"ef5a88a3-f593-4582-9efc-927795664d5a","system_id":"levelo_inurba_marseille","lat":43.294162,"lon":5.386292,"is_reserved":false,"is_disabled":false,"rental_uris":{"android":"levelo://app?vid=ef5a88a3-f593-4582-9efc-927795664d5a","ios":"levelo://app?vid=ef5a88a3-f593-4582-9efc-927795664d5a"},"vehicle_type_id":"4","last_reported":1705691135,"current_range_meters":15200,"station_id":"ce4bh2h2rcd13ifvqdh0","pricing_plan_id":"free"},{"bike_id":"710ca7a3-019b-42bc-b3f9-819874c22aee","system_id":"levelo_inurba_marseille","lat":43.29418,"lon":5.38619,"is_reserved":false,"is_disabled":false,"rental_uris":{"android":"levelo://app?vid=710ca7a3-019b-42bc-b3f9-819874c22aee","ios":"levelo://app?vid=710ca7a3-019b-42bc-b3f9-819874c22aee"},"vehicle_type_id":"4","last_reported":1705691135,"current_range_meters":1200,"station_id":"ce4bh2h2rcd13ifvqdh0","pricing_plan_id":"free"},{"bike_id":"56e2d27e-54b4-4fd5-a846-5b41b8fb7d25","system_id":"levelo_inurba_marseille","lat":43.294162,"lon":5.386292,"is_reserved":false,"is_disabled":false,"rental_uris":{"android":"levelo://app?vid=56e2d27e-54b4-4fd5-a846-5b41b8fb7d25","ios":"levelo://app?vid=56e2d27e-54b4-4fd5-a846-5b41b8fb7d25"},"vehicle_type_id":"4","last_reported":1705691135,"current_range_meters":16400,"station_id":"ce4bh2h2rcd13ifvqdh0","pricing_plan_id":"free"},{"bike_id":"f96b4fc0-9748-4dfa-b308-e7d763ad955a","system_id":"levelo_inurba_marseille","lat":43.294162,"lon":5.386292,"is_reserved":false,"is_disabled":false,"rental_uris":{"android":"levelo://app?vid=f96b4fc0-9748-4dfa-b308-e7d763ad955a","ios":"levelo://app?vid=f96b4fc0-9748-4dfa-b308-e7d763ad955a"},"vehicle_type_id":"4","last_reported":1705691135,"current_range_meters":8800,"station_id":"ce4bh2h2rcd13ifvqdh0","pricing_plan_id":"free"},{"bike_id":"500a161f-276d-43c9-8b7c-edc23f143e43","system_id":"levelo_inurba_marseille","lat":43.294162,"lon":5.386292,"is_reserved":false,"is_disabled":false,"rental_uris":{"android":"levelo://app?vid=500a161f-276d-43c9-8b7c-edc23f143e43","ios":"levelo://app?vid=500a161f-276d-43c9-8b7c-edc23f143e43"},"vehicle_type_id":"4","last_reported":1705691135,"current_range_meters":20400,"station_id":"ce4bh2h2rcd13ifvqdh0","pricing_plan_id":"free"},{"bike_id":"55aa915e-1812-480c-b9b3-41af8b6e8480","system_id":"levelo_inurba_marseille","lat":43.294162,"lon":5.386292,"is_reserved":false,"is_disabled":false,"rental_uris":{"android":"levelo://app?vid=55aa915e-1812-480c-b9b3-41af8b6e8480","ios":"levelo://app?vid=55aa915e-1812-480c-b9b3-41af8b6e8480"},"vehicle_type_id":"4","last_reported":1705691135,"current_range_meters":4000,"station_id":"ce4bh2h2rcd13ifvqdh0","pricing_plan_id":"free"},{"bike_id":"59402b50-53fb-478a-a2de-130628b9bf8b","system_id":"levelo_inurba_marseille","lat":43.294162,"lon":5.386292,"is_reserved":false,"is_disabled":false,"rental_uris":{"android":"levelo://app?vid=59402b50-53fb-478a-a2de-130628b9bf8b","ios":"levelo://app?vid=59402b50-53fb-478a-a2de-130628b9bf8b"},"vehicle_type_id":"4","last_reported":1705691135,"current_range_meters":13200,"station_id":"ce4bh2h2rcd13ifvqdh0","pricing_plan_id":"free"},{"bike_id":"5a1724ca-0a91-44c0-a2a1-c400dfb8ce42","system_id":"levelo_inurba_marseille","lat":43.28943,"lon":5.36642,"is_reserved":false,"is_disabled":false,"rental_uris":{"android":"levelo://app?vid=5a1724ca-0a91-44c0-a2a1-c400dfb8ce42","ios":"levelo://app?vid=5a1724ca-0a91-44c0-a2a1-c400dfb8ce42"},"vehicle_type_id":"4","last_reported":1705691135,"current_range_meters":22000,"station_id":"ce4bhap2rcd13ifvqek0","pricing_plan_id":"free"},{"bike_id":"7f45a409-35fe-40cc-adcf-2b621e08f8b5","system_id":"levelo_inurba_marseille","lat":43.289184,"lon":5.366408,"is_reserved":false,"is_disabled":false,"rental_uris":{"android":"levelo://app?vid=7f45a409-35fe-40cc-adcf-2b621e08f8b5","ios":"levelo://app?vid=7f45a409-35fe-40cc-adcf-2b621e08f8b5"},"vehicle_type_id":"4","last_reported":1705691135,"current_range_meters":30000,"station_id":"ce4bhap2rcd13ifvqek0","pricing_plan_id":"free"},{"bike_id":"24c30c8b-2ce6-4e87-9e8c-44e9802618e0","system_id":"levelo_inurba_marseille","lat":43.289468,"lon":5.363719,"is_reserved":false,"is_disabled":false,"rental_uris":{"android":"levelo://app?vid=24c30c8b-2ce6-4e87-9e8c-44e9802618e0","ios":"levelo://app?vid=24c30c8b-2ce6-4e87-9e8c-44e9802618e0"},"vehicle_type_id":"4","last_reported":1705691135,"current_range_meters":29600,"station_id":"ce4bhc92rcd13ifvqetg","pricing_plan_id":"free"},{"bike_id":"4c583eba-5060-435d-99a3-c503d3a4346b","system_id":"levelo_inurba_marseille","lat":43.289184,"lon":5.366408,"is_reserved":false,"is_disabled":false,"rental_uris":{"android":"levelo://app?vid=4c583eba-5060-435d-99a3-c503d3a4346b","ios":"levelo://app?vid=4c583eba-5060-435d-99a3-c503d3a4346b"},"vehicle_type_id":"4","last_reported":1705691135,"current_range_meters":28400,"station_id":"ce4bhap2rcd13ifvqek0","pricing_plan_id":"free"},{"bike_id":"3cf570b8-056a-41c1-9206-6313eac8b81d","system_id":"levelo_inurba_marseille","lat":43.289184,"lon":5.366408,"is_reserved":false,"is_disabled":false,"rental_uris":{"android":"levelo://app?vid=3cf570b8-056a-41c1-9206-6313eac8b81d","ios":"levelo://app?vid=3cf570b8-056a-41c1-9206-6313eac8b81d"},"vehicle_type_id":"4","last_reported":1705691135,"current_range_meters":29600,"station_id":"ce4bhap2rcd13ifvqek0","pricing_plan_id":"free"},{"bike_id":"409129a2-cfb2-4557-9006-4c0e849fb40b","system_id":"levelo_inurba_marseille","lat":43.28935,"lon":5.36646,"is_reserved":false,"is_disabled":false,"rental_uris":{"android":"levelo://app?vid=409129a2-cfb2-4557-9006-4c0e849fb40b","ios":"levelo://app?vid=409129a2-cfb2-4557-9006-4c0e849fb40b"},"vehicle_type_id":"4","last_reported":1705691135,"current_range_meters":17600,"station_id":"ce4bhap2rcd13ifvqek0","pricing_plan_id":"free"},{"bike_id":"47c30fb2-7ee4-4454-90bd-35eb40c04880","system_id":"levelo_inurba_marseille","lat":43.289317,"lon":5.366414,"is_reserved":false,"is_disabled":false,"rental_uris":{"android":"levelo://app?vid=47c30fb2-7ee4-4454-90bd-35eb40c04880","ios":"levelo://app?vid=47c30fb2-7ee4-4454-90bd-35eb40c04880"},"vehicle_type_id":"4","last_reported":1705691135,"current_range_meters":17200,"station_id":"ce4bhap2rcd13ifvqek0","pricing_plan_id":"free"},{"bike_id":"383c1177-cc0b-45dc-b107-94aa618a6733","system_id":"levelo_inurba_marseille","lat":43.289468,"lon":5.363719,"is_reserved":false,"is_disabled":false,"rental_uris":{"android":"levelo://app?vid=383c1177-cc0b-45dc-b107-94aa618a6733","ios":"levelo://app?vid=383c1177-cc0b-45dc-b107-94aa618a6733"},"vehicle_type_id":"4","last_reported":1705691135,"current_range_meters":12000,"station_id":"ce4bhc92rcd13ifvqetg","pricing_plan_id":"free"},{"bike_id":"89d7faa4-4638-4e2c-aa2d-0cacf4e8b62f","system_id":"levelo_inurba_marseille","lat":43.294153,"lon":5.386305,"is_reserved":false,"is_disabled":false,"rental_uris":{"android":"levelo://app?vid=89d7faa4-4638-4e2c-aa2d-0cacf4e8b62f","ios":"levelo://app?vid=89d7faa4-4638-4e2c-aa2d-0cacf4e8b62f"},"vehicle_type_id":"4","last_reported":1705691135,"current_range_meters":20000,"station_id":"ce4bh2h2rcd13ifvqdh0","pricing_plan_id":"free"},{"bike_id":"6ee75e1d-da51-4a0f-9727-f4c737488a0a","system_id":"levelo_inurba_marseille","lat":43.289468,"lon":5.363719,"is_reserved":false,"is_disabled":false,"rental_uris":{"android":"levelo://app?vid=6ee75e1d-da51-4a0f-9727-f4c737488a0a","ios":"levelo://app?vid=6ee75e1d-da51-4a0f-9727-f4c737488a0a"},"vehicle_type_id":"4","last_reported":1705691135,"current_range_meters":10800,"station_id":"ce4bhc92rcd13ifvqetg","pricing_plan_id":"free"},{"bike_id":"725dd3a7-c05c-47df-ae72-50bb2972ef49","system_id":"levelo_inurba_marseille","lat":43.292644,"lon":5.384257,"is_reserved":false,"is_disabled":false,"rental_uris":{"android":"levelo://app?vid=725dd3a7-c05c-47df-ae72-50bb2972ef49","ios":"levelo://app?vid=725dd3a7-c05c-47df-ae72-50bb2972ef49"},"vehicle_type_id":"4","last_reported":1705691135,"current_range_meters":10400,"station_id":"ce4bh692rcd13ifvqea0","pricing_plan_id":"free"},{"bike_id":"6b1327ac-2a1f-49e5-ae58-3155e79a4d27","system_id":"levelo_inurba_marseille","lat":43.292644,"lon":5.384257,"is_reserved":false,"is_disabled":false,"rental_uris":{"android":"levelo://app?vid=6b1327ac-2a1f-49e5-ae58-3155e79a4d27","ios":"levelo://app?vid=6b1327ac-2a1f-49e5-ae58-3155e79a4d27"},"vehicle_type_id":"4","last_reported":1705691135,"current_range_meters":13600,"station_id":"ce4bh692rcd13ifvqea0","pricing_plan_id":"free"},{"bike_id":"05f810f0-1cb8-4374-9347-c78d6898bb5e","system_id":"levelo_inurba_marseille","lat":43.292644,"lon":5.384257,"is_reserved":false,"is_disabled":false,"rental_uris":{"android":"levelo://app?vid=05f810f0-1cb8-4374-9347-c78d6898bb5e","ios":"levelo://app?vid=05f810f0-1cb8-4374-9347-c78d6898bb5e"},"vehicle_type_id":"4","last_reported":1705691135,"current_range_meters":1200,"station_id":"ce4bh692rcd13ifvqea0","pricing_plan_id":"free"},{"bike_id":"9bef4c48-1a63-464f-9cf6-292b824c7dcf","system_id":"levelo_inurba_marseille","lat":43.292644,"lon":5.384257,"is_reserved":false,"is_disabled":false,"rental_uris":{"android":"levelo://app?vid=9bef4c48-1a63-464f-9cf6-292b824c7dcf","ios":"levelo://app?vid=9bef4c48-1a63-464f-9cf6-292b824c7dcf"},"vehicle_type_id":"4","last_reported":1705691135,"current_range_meters":14000,"station_id":"ce4bh692rcd13ifvqea0","pricing_plan_id":"free"},{"bike_id":"aad7864d-aafb-4376-8267-26d62419d494","system_id":"levelo_inurba_marseille","lat":43.304274,"lon":5.397513,"is_reserved":false,"is_disabled":false,"rental_uris":{"android":"levelo://app?vid=aad7864d-aafb-4376-8267-26d62419d494","ios":"levelo://app?vid=aad7864d-aafb-4376-8267-26d62419d494"},"vehicle_type_id":"4","last_reported":1705691135,"current_range_meters":24400,"station_id":"ce4bh092rcd13ifvqd20","pricing_plan_id":"free"},{"bike_id":"36157e87-5e87-4ad7-a64c-486fe3f8fddc","system_id":"levelo_inurba_marseille","lat":43.29271,"lon":5.38426,"is_reserved":false,"is_disabled":false,"rental_uris":{"android":"levelo://app?vid=36157e87-5e87-4ad7-a64c-486fe3f8fddc","ios":"levelo://app?vid=36157e87-5e87-4ad7-a64c-486fe3f8fddc"},"vehicle_type_id":"4","last_reported":1705691135,"current_range_meters":4800,"station_id":"ce4bh692rcd13ifvqea0","pricing_plan_id":"free"},{"bike_id":"499ad1b5-44a6-4229-b190-06723d6111d3","system_id":"levelo_inurba_marseille","lat":43.29274,"lon":5.38433,"is_reserved":false,"is_disabled":false,"rental_uris":{"android":"levelo://app?vid=499ad1b5-44a6-4229-b190-06723d6111d3","ios":"levelo://app?vid=499ad1b5-44a6-4229-b190-06723d6111d3"},"vehicle_type_id":"4","last_reported":1705691135,"current_range_meters":12400,"station_id":"ce4bh692rcd13ifvqea0","pricing_plan_id":"free"},{"bike_id":"b48e8b71-7789-40f6-bd5d-94cb1d35eba3","system_id":"levelo_inurba_marseille","lat":43.29271,"lon":5.38433,"is_reserved":false,"is_disabled":false,"rental_uris":{"android":"levelo://app?vid=b48e8b71-7789-40f6-bd5d-94cb1d35eba3","ios":"levelo://app?vid=b48e8b71-7789-40f6-bd5d-94cb1d35eba3"},"vehicle_type_id":"4","last_reported":1705691135,"current_range_meters":6800,"station_id":"ce4bh692rcd13ifvqea0","pricing_plan_id":"free"},{"bike_id":"5e4cfa9a-8488-4416-920f-a6ffe80fe396","system_id":"levelo_inurba_marseille","lat":43.292644,"lon":5.384257,"is_reserved":false,"is_disabled":false,"rental_uris":{"android":"levelo://app?vid=5e4cfa9a-8488-4416-920f-a6ffe80fe396","ios":"levelo://app?vid=5e4cfa9a-8488-4416-920f-a6ffe80fe396"},"vehicle_type_id":"4","last_reported":1705691135,"current_range_meters":2400,"station_id":"ce4bh692rcd13ifvqea0","pricing_plan_id":"free"},{"bike_id":"a7e9ba23-7f82-4ff6-9e62-32d688361a2f","system_id":"levelo_inurba_marseille","lat":43.292644,"lon":5.384257,"is_reserved":false,"is_disabled":false,"rental_uris":{"android":"levelo://app?vid=a7e9ba23-7f82-4ff6-9e62-32d688361a2f","ios":"levelo://app?vid=a7e9ba23-7f82-4ff6-9e62-32d688361a2f"},"vehicle_type_id":"4","last_reported":1705691135,"current_range_meters":0,"station_id":"ce4bh692rcd13ifvqea0","pricing_plan_id":"free"},{"bike_id":"43afcc09-fee0-4c71-8044-b6206f7c6bf6","system_id":"levelo_inurba_marseille","lat":43.292644,"lon":5.384257,"is_reserved":false,"is_disabled":false,"rental_uris":{"android":"levelo://app?vid=43afcc09-fee0-4c71-8044-b6206f7c6bf6","ios":"levelo://app?vid=43afcc09-fee0-4c71-8044-b6206f7c6bf6"},"vehicle_type_id":"4","last_reported":1705691135,"current_range_meters":13200,"station_id":"ce4bh692rcd13ifvqea0","pricing_plan_id":"free"},{"bike_id":"45c42d16-3f9b-41b2-8bd4-9f556f2aaca7","system_id":"levelo_inurba_marseille","lat":43.292695,"lon":5.384339,"is_reserved":false,"is_disabled":false,"rental_uris":{"android":"levelo://app?vid=45c42d16-3f9b-41b2-8bd4-9f556f2aaca7","ios":"levelo://app?vid=45c42d16-3f9b-41b2-8bd4-9f556f2aaca7"},"vehicle_type_id":"4","last_reported":1705691135,"current_range_meters":14000,"station_id":"ce4bh692rcd13ifvqea0","pricing_plan_id":"free"},{"bike_id":"286f481f-e0bb-483f-bcb0-747f21f4a980","system_id":"levelo_inurba_marseille","lat":43.292644,"lon":5.384257,"is_reserved":false,"is_disabled":false,"rental_uris":{"android":"levelo://app?vid=286f481f-e0bb-483f-bcb0-747f21f4a980","ios":"levelo://app?vid=286f481f-e0bb-483f-bcb0-747f21f4a980"},"vehicle_type_id":"4","last_reported":1705691135,"current_range_meters":0,"station_id":"ce4bh692rcd13ifvqea0","pricing_plan_id":"free"},{"bike_id":"4008cbad-6af3-410f-bd7b-21002ae609d9","system_id":"levelo_inurba_marseille","lat":43.292644,"lon":5.384257,"is_reserved":false,"is_disabled":false,"rental_uris":{"android":"levelo://app?vid=4008cbad-6af3-410f-bd7b-21002ae609d9","ios":"levelo://app?vid=4008cbad-6af3-410f-bd7b-21002ae609d9"},"vehicle_type_id":"4","last_reported":1705691135,"current_range_meters":24000,"station_id":"ce4bh692rcd13ifvqea0","pricing_plan_id":"free"},{"bike_id":"389fcd65-7543-44c7-8a78-14c36d838345","system_id":"levelo_inurba_marseille","lat":43.29266,"lon":5.38429,"is_reserved":false,"is_disabled":false,"rental_uris":{"android":"levelo://app?vid=389fcd65-7543-44c7-8a78-14c36d838345","ios":"levelo://app?vid=389fcd65-7543-44c7-8a78-14c36d838345"},"vehicle_type_id":"4","last_reported":1705691135,"current_range_meters":12800,"station_id":"ce4bh692rcd13ifvqea0","pricing_plan_id":"free"},{"bike_id":"79da2fee-7231-4182-9ce9-f94a83392f19","system_id":"levelo_inurba_marseille","lat":43.292644,"lon":5.384257,"is_reserved":false,"is_disabled":false,"rental_uris":{"android":"levelo://app?vid=79da2fee-7231-4182-9ce9-f94a83392f19","ios":"levelo://app?vid=79da2fee-7231-4182-9ce9-f94a83392f19"},"vehicle_type_id":"4","last_reported":1705691135,"current_range_meters":22800,"station_id":"ce4bh692rcd13ifvqea0","pricing_plan_id":"free"},{"bike_id":"7bbfef98-eaa4-4e51-8a16-30051434f7cd","system_id":"levelo_inurba_marseille","lat":43.2927,"lon":5.38443,"is_reserved":false,"is_disabled":false,"rental_uris":{"android":"levelo://app?vid=7bbfef98-eaa4-4e51-8a16-30051434f7cd","ios":"levelo://app?vid=7bbfef98-eaa4-4e51-8a16-30051434f7cd"},"vehicle_type_id":"4","last_reported":1705691135,"current_range_meters":18800,"station_id":"ce4bh692rcd13ifvqea0","pricing_plan_id":"free"},{"bike_id":"fc042615-9fa4-488f-b400-bf98258e9dba","system_id":"levelo_inurba_marseille","lat":43.292644,"lon":5.384257,"is_reserved":false,"is_disabled":false,"rental_uris":{"android":"levelo://app?vid=fc042615-9fa4-488f-b400-bf98258e9dba","ios":"levelo://app?vid=fc042615-9fa4-488f-b400-bf98258e9dba"},"vehicle_type_id":"4","last_reported":1705691135,"current_range_meters":9200,"station_id":"ce4bh692rcd13ifvqea0","pricing_plan_id":"free"},{"bike_id":"0c9f6953-b207-4c64-ba1c-2359280ac972","system_id":"levelo_inurba_marseille","lat":43.292644,"lon":5.384257,"is_reserved":false,"is_disabled":false,"rental_uris":{"android":"levelo://app?vid=0c9f6953-b207-4c64-ba1c-2359280ac972","ios":"levelo://app?vid=0c9f6953-b207-4c64-ba1c-2359280ac972"},"vehicle_type_id":"4","last_reported":1705691135,"current_range_meters":23600,"station_id":"ce4bh692rcd13ifvqea0","pricing_plan_id":"free"},{"bike_id":"fb846e0f-d8cf-4ce7-8bb6-b794eacb6cf0","system_id":"levelo_inurba_marseille","lat":43.29263,"lon":5.38438,"is_reserved":false,"is_disabled":false,"rental_uris":{"android":"levelo://app?vid=fb846e0f-d8cf-4ce7-8bb6-b794eacb6cf0","ios":"levelo://app?vid=fb846e0f-d8cf-4ce7-8bb6-b794eacb6cf0"},"vehicle_type_id":"4","last_reported":1705691135,"current_range_meters":6800,"station_id":"ce4bh692rcd13ifvqea0","pricing_plan_id":"free"},{"bike_id":"a4a0946d-fd53-4462-9598-8f8d7c32c9af","system_id":"levelo_inurba_marseille","lat":43.29256,"lon":5.38442,"is_reserved":false,"is_disabled":false,"rental_uris":{"android":"levelo://app?vid=a4a0946d-fd53-4462-9598-8f8d7c32c9af","ios":"levelo://app?vid=a4a0946d-fd53-4462-9598-8f8d7c32c9af"},"vehicle_type_id":"4","last_reported":1705691135,"current_range_meters":5600,"station_id":"ce4bh692rcd13ifvqea0","pricing_plan_id":"free"},{"bike_id":"82938fe7-5b62-4875-a506-88cfe4c61669","system_id":"levelo_inurba_marseille","lat":43.29014,"lon":5.35607,"is_reserved":false,"is_disabled":false,"rental_uris":{"android":"levelo://app?vid=82938fe7-5b62-4875-a506-88cfe4c61669","ios":"levelo://app?vid=82938fe7-5b62-4875-a506-88cfe4c61669"},"vehicle_type_id":"4","last_reported":1705691135,"current_range_meters":10800,"station_id":"ce4bhb92rcd13ifvqen0","pricing_plan_id":"free"},{"bike_id":"a27b202a-071a-4f0a-820d-e4e2650c2fdd","system_id":"levelo_inurba_marseille","lat":43.2901,"lon":5.35617,"is_reserved":false,"is_disabled":false,"rental_uris":{"android":"levelo://app?vid=a27b202a-071a-4f0a-820d-e4e2650c2fdd","ios":"levelo://app?vid=a27b202a-071a-4f0a-820d-e4e2650c2fdd"},"vehicle_type_id":"4","last_reported":1705691135,"current_range_meters":23600,"station_id":"ce4bhb92rcd13ifvqen0","pricing_plan_id":"free"},{"bike_id":"2e87b425-a87d-46c0-b253-4265f7a2ec48","system_id":"levelo_inurba_marseille","lat":43.29009,"lon":5.35613,"is_reserved":false,"is_disabled":false,"rental_uris":{"android":"levelo://app?vid=2e87b425-a87d-46c0-b253-4265f7a2ec48","ios":"levelo://app?vid=2e87b425-a87d-46c0-b253-4265f7a2ec48"},"vehicle_type_id":"4","last_reported":1705691135,"current_range_meters":12800,"station_id":"ce4bhb92rcd13ifvqen0","pricing_plan_id":"free"},{"bike_id":"f4c7b3d0-0fa0-4475-8b7a-9e921314a3ab","system_id":"levelo_inurba_marseille","lat":43.290103,"lon":5.356114,"is_reserved":false,"is_disabled":false,"rental_uris":{"android":"levelo://app?vid=f4c7b3d0-0fa0-4475-8b7a-9e921314a3ab","ios":"levelo://app?vid=f4c7b3d0-0fa0-4475-8b7a-9e921314a3ab"},"vehicle_type_id":"4","last_reported":1705691135,"current_range_meters":31200,"station_id":"ce4bhb92rcd13ifvqen0","pricing_plan_id":"free"},{"bike_id":"585a84f8-6222-440d-862e-c8acaa69c620","system_id":"levelo_inurba_marseille","lat":43.29008,"lon":5.35609,"is_reserved":false,"is_disabled":false,"rental_uris":{"android":"levelo://app?vid=585a84f8-6222-440d-862e-c8acaa69c620","ios":"levelo://app?vid=585a84f8-6222-440d-862e-c8acaa69c620"},"vehicle_type_id":"4","last_reported":1705691135,"current_range_meters":16400,"station_id":"ce4bhb92rcd13ifvqen0","pricing_plan_id":"free"},{"bike_id":"22b36fb3-d38c-4cc1-872a-977e34a0bf99","system_id":"levelo_inurba_marseille","lat":43.29005,"lon":5.35616,"is_reserved":false,"is_disabled":false,"rental_uris":{"android":"levelo://app?vid=22b36fb3-d38c-4cc1-872a-977e34a0bf99","ios":"levelo://app?vid=22b36fb3-d38c-4cc1-872a-977e34a0bf99"},"vehicle_type_id":"4","last_reported":1705691135,"current_range_meters":9600,"station_id":"ce4bhb92rcd13ifvqen0","pricing_plan_id":"free"},{"bike_id":"9759c711-fa91-4e02-8178-1ff49ce4b493","system_id":"levelo_inurba_marseille","lat":43.29004,"lon":5.35611,"is_reserved":false,"is_disabled":false,"rental_uris":{"android":"levelo://app?vid=9759c711-fa91-4e02-8178-1ff49ce4b493","ios":"levelo://app?vid=9759c711-fa91-4e02-8178-1ff49ce4b493"},"vehicle_type_id":"4","last_reported":1705691135,"current_range_meters":18000,"station_id":"ce4bhb92rcd13ifvqen0","pricing_plan_id":"free"},{"bike_id":"f2181406-0e42-4ee6-8dc1-b5d2dceab3cc","system_id":"levelo_inurba_marseille","lat":43.29,"lon":5.3561,"is_reserved":false,"is_disabled":false,"rental_uris":{"android":"levelo://app?vid=f2181406-0e42-4ee6-8dc1-b5d2dceab3cc","ios":"levelo://app?vid=f2181406-0e42-4ee6-8dc1-b5d2dceab3cc"},"vehicle_type_id":"4","last_reported":1705691135,"current_range_meters":16000,"station_id":"ce4bhb92rcd13ifvqen0","pricing_plan_id":"free"},{"bike_id":"789be749-3d35-401f-a572-8dd2192319c8","system_id":"levelo_inurba_marseille","lat":43.290995,"lon":5.381361,"is_reserved":false,"is_disabled":false,"rental_uris":{"android":"levelo://app?vid=789be749-3d35-401f-a572-8dd2192319c8","ios":"levelo://app?vid=789be749-3d35-401f-a572-8dd2192319c8"},"vehicle_type_id":"4","last_reported":1705691135,"current_range_meters":14400,"station_id":"ce4bh512rcd13ifvqe2g","pricing_plan_id":"free"},{"bike_id":"31431685-5fd8-4b64-b12a-9eeacc17f8c0","system_id":"levelo_inurba_marseille","lat":43.290995,"lon":5.381361,"is_reserved":false,"is_disabled":false,"rental_uris":{"android":"levelo://app?vid=31431685-5fd8-4b64-b12a-9eeacc17f8c0","ios":"levelo://app?vid=31431685-5fd8-4b64-b12a-9eeacc17f8c0"},"vehicle_type_id":"4","last_reported":1705691135,"current_range_meters":17200,"station_id":"ce4bh512rcd13ifvqe2g","pricing_plan_id":"free"},{"bike_id":"419f8668-030d-4291-a636-7acecc944a8f","system_id":"levelo_inurba_marseille","lat":43.290995,"lon":5.381361,"is_reserved":false,"is_disabled":false,"rental_uris":{"android":"levelo://app?vid=419f8668-030d-4291-a636-7acecc944a8f","ios":"levelo://app?vid=419f8668-030d-4291-a636-7acecc944a8f"},"vehicle_type_id":"4","last_reported":1705691135,"current_range_meters":11600,"station_id":"ce4bh512rcd13ifvqe2g","pricing_plan_id":"free"},{"bike_id":"08a0467a-f107-4fe5-b360-ea277e214c58","system_id":"levelo_inurba_marseille","lat":43.295169,"lon":5.390426,"is_reserved":false,"is_disabled":false,"rental_uris":{"android":"levelo://app?vid=08a0467a-f107-4fe5-b360-ea277e214c58","ios":"levelo://app?vid=08a0467a-f107-4fe5-b360-ea277e214c58"},"vehicle_type_id":"4","last_reported":1705691135,"current_range_meters":12000,"station_id":"ce4bh3p2rcd13ifvqdp0","pricing_plan_id":"free"},{"bike_id":"ebdbe23c-7a88-4949-bd30-5d76234b4b0a","system_id":"levelo_inurba_marseille","lat":43.295169,"lon":5.390426,"is_reserved":false,"is_disabled":false,"rental_uris":{"android":"levelo://app?vid=ebdbe23c-7a88-4949-bd30-5d76234b4b0a","ios":"levelo://app?vid=ebdbe23c-7a88-4949-bd30-5d76234b4b0a"},"vehicle_type_id":"4","last_reported":1705691135,"current_range_meters":23600,"station_id":"ce4bh3p2rcd13ifvqdp0","pricing_plan_id":"free"},{"bike_id":"686a6a22-125c-4478-a3f4-8dddc5e687bb","system_id":"levelo_inurba_marseille","lat":43.330442,"lon":5.389148,"is_reserved":false,"is_disabled":false,"rental_uris":{"android":"levelo://app?vid=686a6a22-125c-4478-a3f4-8dddc5e687bb","ios":"levelo://app?vid=686a6a22-125c-4478-a3f4-8dddc5e687bb"},"vehicle_type_id":"4","last_reported":1705691135,"current_range_meters":15200,"station_id":"ce4bhr92rcd13ifvqhrg","pricing_plan_id":"free"},{"bike_id":"97d11c67-6612-488b-8fe6-9a5d24e72d53","system_id":"levelo_inurba_marseille","lat":43.330442,"lon":5.389148,"is_reserved":false,"is_disabled":false,"rental_uris":{"android":"levelo://app?vid=97d11c67-6612-488b-8fe6-9a5d24e72d53","ios":"levelo://app?vid=97d11c67-6612-488b-8fe6-9a5d24e72d53"},"vehicle_type_id":"4","last_reported":1705691135,"current_range_meters":0,"station_id":"ce4bhr92rcd13ifvqhrg","pricing_plan_id":"free"},{"bike_id":"dd503621-c61d-4cf9-bbf9-928c5a704bd0","system_id":"levelo_inurba_marseille","lat":43.33029,"lon":5.39041,"is_reserved":false,"is_disabled":false,"rental_uris":{"android":"levelo://app?vid=dd503621-c61d-4cf9-bbf9-928c5a704bd0","ios":"levelo://app?vid=dd503621-c61d-4cf9-bbf9-928c5a704bd0"},"vehicle_type_id":"4","last_reported":1705691135,"current_range_meters":6400,"station_id":"ce4bhr92rcd13ifvqhrg","pricing_plan_id":"free"},{"bike_id":"e91bb6f2-4068-43b9-97fd-f1dd587ab929","system_id":"levelo_inurba_marseille","lat":43.295169,"lon":5.390426,"is_reserved":false,"is_disabled":false,"rental_uris":{"android":"levelo://app?vid=e91bb6f2-4068-43b9-97fd-f1dd587ab929","ios":"levelo://app?vid=e91bb6f2-4068-43b9-97fd-f1dd587ab929"},"vehicle_type_id":"4","last_reported":1705691135,"current_range_meters":27200,"station_id":"ce4bh3p2rcd13ifvqdp0","pricing_plan_id":"free"},