{"last_updated":1761898470,"ttl":60,"version":"2.2","data":{"bikes":[{"bike_id":"aacc01e3-6d9f-491a-b1ed-d10f639e29e2","system_id":"levelo_inurba_marseille","lat":43.337444,"lon":5.374475,"is_reserved":false,"is_disabled":false,"rental_uris":{"android":"levelo://app?vid=aacc01e3-6d9f-491a-b1ed-d10f639e29e2","ios":"levelo://app?vid=aacc01e3-6d9f-491a-b1ed-d10f639e29e2"},"vehicle_type_id":"4","last_reported":1761898470,"current_range_meters":0,"station_id":"","pricing_plan_id":"cebpf4jnsgd1na2vs0mg"},{"bike_id":"4dbab57a-b708-409a-b815-3b9a5d92f753","system_id":"levelo_inurba_marseille","lat":43.337444,"lon":5.374475,"is_reserved":false,"is_disabled":false,"rental_uris":{"android":"levelo://app?vid=4dbab57a-b708-409a-b815-3b9a5d92f753","ios":"levelo://app?vid=4dbab57a-b708-409a-b815-3b9a5d92f753"},"vehicle_type_id":"4","last_reported":1761898470,"current_range_meters":0,"station_id":"","pricing_plan_id":"cebpf4jnsgd1na2vs0mg"},{"bike_id":"b06c4997-7e4f-467a-922f-92f2f2e27e9d","system_id":"levelo_inurba_marseille","lat":43.337444,"lon":5.374475,"is_reserved":false,"is_disabled":false,"rental_uris":{"android":"levelo://app?vid=b06c4997-7e4f-467a-922f-92f2f2e27e9d","ios":"levelo://app?vid=b06c4997-7e4f-467a-922f-92f2f2e27e9d"},"vehicle_type_id":"4","last_reported":1761898470,"current_range_meters":0,"station_id":"","pricing_plan_id":"cebpf4jnsgd1na2vs0mg"},{"bike_id":"bb49b980-4cfb-49a5-9add-f3f9d4fc6db5","system_id":"levelo_inurba_marseille","lat":43.337444,"lon":5.374475,"is_reserved":false,"is_disabled":false,"rental_uris":{"android":"levelo://app?vid=bb49b980-4cfb-49a5-9add-f3f9d4fc6db5","ios":"levelo://app?vid=bb49b980-4cfb-49a5-9add-f3f9d4fc6db5"},"vehicle_type_id":"4","last_reported":1761898470,"current_range_meters":0,"station_id":"","pricing_plan_id":"cebpf4jnsgd1na2vs0mg"},{"bike_id":"b97206fc-6c94-4378-926a-a788d4f71c09","system_id":"levelo_inurba_marseille","lat":43.337444,"lon":5.374475,"is_reserved":false,"is_disabled":false,"rental_uris":{"android":"levelo://app?vid=b97206fc-6c94-4378-926a-a788d4f71c09","ios":"levelo://app?vid=b97206fc-6c94-4378-926a-a788d4f71c09"},"vehicle_type_id":"4","last_reported":1761898470,"current_range_meters":0,"station_id":"","pricing_plan_id":"cebpf4jnsgd1na2vs0mg"},{"bike_id":"37d7ebf5-2b3d-4af3-a7cd-4f29f464d5a0","system_id":"levelo_inurba_marseille","lat":43.337444,"lon":5.374475,"is_reserved":false,"is_disabled":false,"rental_uris":{"android":"levelo://app?vid=37d7ebf5-2b3d-4af3-a7cd-4f29f464d5a0","ios":"levelo://app?vid=37d7ebf5-2b3d-4af3-a7cd-4f29f464d5a0"},"vehicle_type_id":"4","last_reported":1761898470,"current_range_meters":0,"station_id":"","pricing_plan_id":"cebpf4jnsgd1na2vs0mg"},{"bike_id":"4ce4318f-b763-4325-8589-2aecbcc80add","system_id":"levelo_inurba_marseille","lat":43.337444,"lon":5.374475,"is_reserved":false,"is_disabled":false,"rental_uris":{"android":"levelo://app?vid=4ce4318f-b763-4325-8589-2aecbcc80add","ios":"levelo://app?vid=4ce4318f-b763-4325-8589-2aecbcc80add"},"vehicle_type_id":"4","last_reported":1761898470,"current_range_meters":0,"station_id":"","pricing_plan_id":"cebpf4jnsgd1na2vs0mg"},{"bike_id":"b85120f1-bb36-4950-b98b-e1bc39b70416","system_id":"levelo_inurba_marseille","lat":43.30149,"lon":5.38091,"is_reserved":false,"is_disabled":false,"rental_uris":{"android":"levelo://app?vid=b85120f1-bb36-4950-b98b-e1bc39b70416","ios":"levelo://app?vid=b85120f1-bb36-4950-b98b-e1bc39b70416"},"vehicle_type_id":"4","last_reported":1761898470,"current_range_meters":2800,"station_id":"ce4bgjp2rcd13ifvqbh0","pricing_plan_id":"cebpf4jnsgd1na2vs0mg"},{"bike_id":"8293800e-0cdb-4280-8c15-8cf0b47afcc7","system_id":"levelo_inurba_marseille","lat":43.23151,"lon":5.43728,"is_reserved":false,"is_disabled":false,"rental_uris":{"android":"levelo://app?vid=8293800e-0cdb-4280-8c15-8cf0b47afcc7","ios":"levelo://app?vid=8293800e-0cdb-4280-8c15-8cf0b47afcc7"},"vehicle_type_id":"4","last_reported":1761898470,"current_range_meters":2800,"station_id":"ce4bhmp2rcd13ifvqgog","pricing_plan_id":"cebpf4jnsgd1na2vs0mg"},{"bike_id":"b07e6c54-778e-41c3-a161-9e07ef330032","system_id":"levelo_inurba_marseille","lat":43.30462,"lon":5.37918,"is_reserved":false,"is_disabled":false,"rental_uris":{"android":"levelo://app?vid=b07e6c54-778e-41c3-a161-9e07ef330032","ios":"levelo://app?vid=b07e6c54-778e-41c3-a161-9e07ef330032"},"vehicle_type_id":"4","last_reported":1761898470,"current_range_meters":2800,"station_id":"ce4bgup2rcd13ifvqcn0","pricing_plan_id":"cebpf4jnsgd1na2vs0mg"},{"bike_id":"e2e35269-30a5-4900-acfa-b3db6a523382","system_id":"levelo_inurba_marseille","lat":43.28138,"lon":5.37418,"is_reserved":false,"is_disabled":false,"rental_uris":{"android":"levelo://app?vid=e2e35269-30a5-4900-acfa-b3db6a523382","ios":"levelo://app?vid=e2e35269-30a5-4900-acfa-b3db6a523382"},"vehicle_type_id":"4","last_reported":1761898470,"current_range_meters":3200,"station_id":"","pricing_plan_id":"cebpf4jnsgd1na2vs0mg"},{"bike_id":"713db0e7-9b61-4938-8773-05412138369f","system_id":"levelo_inurba_marseille","lat":43.30133,"lon":5.38788,"is_reserved":false,"is_disabled":false,"rental_uris":{"android":"levelo://app?vid=713db0e7-9b61-4938-8773-05412138369f","ios":"levelo://app?vid=713db0e7-9b61-4938-8773-05412138369f"},"vehicle_type_id":"4","last_reported":1761898470,"current_range_meters":3600,"station_id":"ce4bghh2rcd13ifvqb60","pricing_plan_id":"cebpf4jnsgd1na2vs0mg"},{"bike_id":"b31dcb3a-d083-4d3c-8d8f-45116b744b00","system_id":"levelo_inurba_marseille","lat":43.30458,"lon":5.37898,"is_reserved":false,"is_disabled":false,"rental_uris":{"android":"levelo://app?vid=b31dcb3a-d083-4d3c-8d8f-45116b744b00","ios":"levelo://app?vid=b31dcb3a-d083-4d3c-8d8f-45116b744b00"},"vehicle_type_id":"4","last_reported":1761898470,"current_range_meters":3600,"station_id":"ce4bgup2rcd13ifvqcn0","pricing_plan_id":"cebpf4jnsgd1na2vs0mg"},{"bike_id":"52b447bf-cd81-4ab8-864c-7dd6e5d96181","system_id":"levelo_inurba_marseille","lat":43.29029,"lon":5.39983,"is_reserved":false,"is_disabled":false,"rental_uris":{"android":"levelo://app?vid=52b447bf-cd81-4ab8-864c-7dd6e5d96181","ios":"levelo://app?vid=52b447bf-cd81-4ab8-864c-7dd6e5d96181"},"vehicle_type_id":"4","last_reported":1761898470,"current_range_meters":3600,"station_id":"ce4bh392rcd13ifvqdm0","pricing_plan_id":"cebpf4jnsgd1na2vs0mg"},{"bike_id":"e85dc3bf-df6a-446b-914b-75189d622bbb","system_id":"levelo_inurba_marseille","lat":43.301709,"lon":5.386034,"is_reserved":false,"is_disabled":false,"rental_uris":{"android":"levelo://app?vid=e85dc3bf-df6a-446b-914b-75189d622bbb","ios":"levelo://app?vid=e85dc3bf-df6a-446b-914b-75189d622bbb"},"vehicle_type_id":"4","last_reported":1761898470,"current_range_meters":3600,"station_id":"","pricing_plan_id":"cebpf4jnsgd1na2vs0mg"},{"bike_id":"c6698ab8-b9c1-4ef6-8d1d-6b190a79e8e9","system_id":"levelo_inurba_marseille","lat":43.30954,"lon":5.37253,"is_reserved":false,"is_disabled":false,"rental_uris":{"android":"levelo://app?vid=c6698ab8-b9c1-4ef6-8d1d-6b190a79e8e9","ios":"levelo://app?vid=c6698ab8-b9c1-4ef6-8d1d-6b190a79e8e9"},"vehicle_type_id":"4","last_reported":1761898470,"current_range_meters":4000,"station_id":"","pricing_plan_id":"cebpf4jnsgd1na2vs0mg"},{"bike_id":"7632d16b-d979-4d51-bdc3-d7a8dfdd012b","system_id":"levelo_inurba_marseille","lat":43.33006,"lon":5.39036,"is_reserved":false,"is_disabled":false,"rental_uris":{"android":"levelo://app?vid=7632d16b-d979-4d51-bdc3-d7a8dfdd012b","ios":"levelo://app?vid=7632d16b-d979-4d51-bdc3-d7a8dfdd012b"},"vehicle_type_id":"4","last_reported":1761898470,"current_range_meters":4000,"station_id":"ce4bhr92rcd13ifvqhrg","pricing_plan_id":"cebpf4jnsgd1na2vs0mg"},{"bike_id":"baeea4d6-b0b3-4e83-af9b-0fb2379be4c2","system_id":"levelo_inurba_marseille","lat":43.23958,"lon":5.36629,"is_reserved":false,"is_disabled":false,"rental_uris":{"android":"levelo://app?vid=baeea4d6-b0b3-4e83-af9b-0fb2379be4c2","ios":"levelo://app?vid=baeea4d6-b0b3-4e83-af9b-0fb2379be4c2"},"vehicle_type_id":"4","last_reported":1761898470,"current_range_meters":4400,"station_id":"ce4bhi12rcd13ifvqfp0","pricing_plan_id":"cebpf4jnsgd1na2vs0mg"},{"bike_id":"f4f0b6f0-fcec-4fe0-84b3-974860e0b4c8","system_id":"levelo_inurba_marseille","lat":43.27665,"lon":5.38882,"is_reserved":false,"is_disabled":false,"rental_uris":{"android":"levelo://app?vid=f4f0b6f0-fcec-4fe0-84b3-974860e0b4c8","ios":"levelo://app?vid=f4f0b6f0-fcec-4fe0-84b3-974860e0b4c8"},"vehicle_type_id":"4","last_reported":1761898470,"current_range_meters":4400,"station_id":"ce4bhi12rcd13ifvqfo0","pricing_plan_id":"cebpf4jnsgd1na2vs0mg"},{"bike_id":"b75a9b13-9285-49f1-8bee-0a8660c16d10","system_id":"levelo_inurba_marseille","lat":43.28263,"lon":5.35071,"is_reserved":false,"is_disabled":true,"rental_uris":{"android":"levelo://app?vid=b75a9b13-9285-49f1-8bee-0a8660c16d10","ios":"levelo://app?vid=b75a9b13-9285-49f1-8bee-0a8660c16d10"},"vehicle_type_id":"4","last_reported":1761898470,"current_range_meters":4400,"station_id":"ce4bhbp2rcd13ifvqerg","pricing_plan_id":"cebpf4jnsgd1na2vs0mg"},{"bike_id":"d907c087-bdae-4244-924a-85c9d93022f4","system_id":"levelo_inurba_marseille","lat":43.25937,"lon":5.40911,"is_reserved":false,"is_disabled":false,"rental_uris":{"android":"levelo://app?vid=d907c087-bdae-4244-924a-85c9d93022f4","ios":"levelo://app?vid=d907c087-bdae-4244-924a-85c9d93022f4"},"vehicle_type_id":"4","last_reported":1761898470,"current_range_meters":4800,"station_id":"ce4bhm92rcd13ifvqglg","pricing_plan_id":"cebpf4jnsgd1na2vs0mg"},{"bike_id":"f19b3c0e-e6d0-472b-8962-3c0bbcf583d0","system_id":"levelo_inurba_marseille","lat":43.250713,"lon":5.389422,"is_reserved":false,"is_disabled":false,"rental_uris":{"android":"levelo://app?vid=f19b3c0e-e6d0-472b-8962-3c0bbcf583d0","ios":"levelo://app?vid=f19b3c0e-e6d0-472b-8962-3c0bbcf583d0"},"vehicle_type_id":"4","last_reported":1761898470,"current_range_meters":4800,"station_id":"ce4bhgp2rcd13ifvqfd0","pricing_plan_id":"cebpf4jnsgd1na2vs0mg"},{"bike_id":"4a8f6ca7-df5d-4722-9092-bdaff0cfbb8d","system_id":"levelo_inurba_marseille","lat":43.24175,"lon":5.39717,"is_reserved":false,"is_disabled":false,"rental_uris":{"android":"levelo://app?vid=4a8f6ca7-df5d-4722-9092-bdaff0cfbb8d","ios":"levelo://app?vid=4a8f6ca7-df5d-4722-9092-bdaff0cfbb8d"},"vehicle_type_id":"4","last_reported":1761898470,"current_range_meters":4800,"station_id":"ce4bhn12rcd13ifvqgpg","pricing_plan_id":"cebpf4jnsgd1na2vs0mg"},{"bike_id":"acdd1653-5bbc-4144-b329-40eb0428bf50","system_id":"levelo_inurba_marseille","lat":43.282654,"lon":5.411847,"is_reserved":false,"is_disabled":false,"rental_uris":{"android":"levelo://app?vid=acdd1653-5bbc-4144-b329-40eb0428bf50","ios":"levelo://app?vid=acdd1653-5bbc-4144-b329-40eb0428bf50"},"vehicle_type_id":"4","last_reported":1761898470,"current_range_meters":5600,"station_id":"","pricing_plan_id":"cebpf4jnsgd1na2vs0mg"},{"bike_id":"7b51bccb-aa3a-49a8-af03-30f18a101fa3","system_id":"levelo_inurba_marseille","lat":43.24074,"lon":5.37758,"is_reserved":false,"is_disabled":false,"rental_uris":{"android":"levelo://app?vid=7b51bccb-aa3a-49a8-af03-30f18a101fa3","ios":"levelo://app?vid=7b51bccb-aa3a-49a8-af03-30f18a101fa3"},"vehicle_type_id":"4","last_reported":1761898470,"current_range_meters":5600,"station_id":"ce4bhnp2rcd13ifvqgvg","pricing_plan_id":"cebpf4jnsgd1na2vs0mg"},{"bike_id":"4d8aba50-2c39-485d-8c49-760b0fa46451","system_id":"levelo_inurba_marseille","lat":43.29765,"lon":5.37111,"is_reserved":false,"is_disabled":false,"rental_uris":{"android":"levelo://app?vid=4d8aba50-2c39-485d-8c49-760b0fa46451","ios":"levelo://app?vid=4d8aba50-2c39-485d-8c49-760b0fa46451"},"vehicle_type_id":"4","last_reported":1761898470,"current_range_meters":6000,"station_id":"ce4bgop2rcd13ifvqc1g","pricing_plan_id":"cebpf4jnsgd1na2vs0mg"},{"bike_id":"faee4aed-34d1-4e59-9f3e-bc2337688920","system_id":"levelo_inurba_marseille","lat":43.317064,"lon":5.436973,"is_reserved":false,"is_disabled":true,"rental_uris":{"android":"levelo://app?vid=faee4aed-34d1-4e59-9f3e-bc2337688920","ios":"levelo://app?vid=faee4aed-34d1-4e59-9f3e-bc2337688920"},"vehicle_type_id":"4","last_reported":1761898470,"current_range_meters":6000,"station_id":"ce4bhp92rcd13ifvqhcg","pricing_plan_id":"cebpf4jnsgd1na2vs0mg"},{"bike_id":"3d1bcef6-11a9-4a30-b07f-457d06121844","system_id":"levelo_inurba_marseille","lat":43.30958,"lon":5.3904,"is_reserved":false,"is_disabled":false,"rental_uris":{"android":"levelo://app?vid=3d1bcef6-11a9-4a30-b07f-457d06121844","ios":"levelo://app?vid=3d1bcef6-11a9-4a30-b07f-457d06121844"},"vehicle_type_id":"4","last_reported":1761898470,"current_range_meters":6000,"station_id":"ce4bgup2rcd13ifvqco0","pricing_plan_id":"cebpf4jnsgd1na2vs0mg"},{"bike_id":"f3feeff6-d410-4cea-8ba1-9870dc4ec990","system_id":"levelo_inurba_marseille","lat":43.31043,"lon":5.37916,"is_reserved":false,"is_disabled":false,"rental_uris":{"android":"levelo://app?vid=f3feeff6-d410-4cea-8ba1-9870dc4ec990","ios":"levelo://app?vid=f3feeff6-d410-4cea-8ba1-9870dc4ec990"},"vehicle_type_id":"4","last_reported":1761898470,"current_range_meters":6800,"station_id":"","pricing_plan_id":"cebpf4jnsgd1na2vs0mg"},{"bike_id":"bcd9a1a9-ff16-443d-8036-0ab75121f5d7","system_id":"levelo_inurba_marseille","lat":43.29571,"lon":5.37513,"is_reserved":false,"is_disabled":false,"rental_uris":{"android":"levelo://app?vid=bcd9a1a9-ff16-443d-8036-0ab75121f5d7","ios":"levelo://app?vid=bcd9a1a9-ff16-443d-8036-0ab75121f5d7"},"vehicle_type_id":"4","last_reported":1761898470,"current_range_meters":7200,"station_id":"ce4bgh92rcd13ifvqb50","pricing_plan_id":"cebpf4jnsgd1na2vs0mg"},{"bike_id":"a50e1ca8-8a50-48e7-b1a6-d9f3049d51c5","system_id":"levelo_inurba_marseille","lat":43.28268,"lon":5.35065,"is_reserved":false,"is_disabled":false,"rental_uris":{"android":"levelo://app?vid=a50e1ca8-8a50-48e7-b1a6-d9f3049d51c5","ios":"levelo://app?vid=a50e1ca8-8a50-48e7-b1a6-d9f3049d51c5"},"vehicle_type_id":"4","last_reported":1761898470,"current_range_meters":7200,"station_id":"ce4bhbp2rcd13ifvqerg","pricing_plan_id":"cebpf4jnsgd1na2vs0mg"},{"bike_id":"42916365-b8a4-4415-afd7-e07dbcf3226e","system_id":"levelo_inurba_marseille","lat":43.29845,"lon":5.36274,"is_reserved":false,"is_disabled":false,"rental_uris":{"android":"levelo://app?vid=42916365-b8a4-4415-afd7-e07dbcf3226e","ios":"levelo://app?vid=42916365-b8a4-4415-afd7-e07dbcf3226e"},"vehicle_type_id":"4","last_reported":1761898470,"current_range_meters":7200,"station_id":"ce4bgpp2rcd13ifvqc3g","pricing_plan_id":"cebpf4jnsgd1na2vs0mg"},{"bike_id":"59c8dc23-6a88-453c-9305-cf11fe5fdcf0","system_id":"levelo_inurba_marseille","lat":43.231588,"lon":5.437115,"is_reserved":false,"is_disabled":false,"rental_uris":{"android":"levelo://app?vid=59c8dc23-6a88-453c-9305-cf11fe5fdcf0","ios":"levelo://app?vid=59c8dc23-6a88-453c-9305-cf11fe5fdcf0"},"vehicle_type_id":"4","last_reported":1761898470,"current_range_meters":7200,"station_id":"ce4bhmp2rcd13ifvqgog","pricing_plan_id":"cebpf4jnsgd1na2vs0mg"},{"bike_id":"46f3e991-c55b-4d9d-9a37-f9e3e15f4f3f","system_id":"levelo_inurba_marseille","lat":43.21189,"lon":5.35083,"is_reserved":false,"is_disabled":false,"rental_uris":{"android":"levelo://app?vid=46f3e991-c55b-4d9d-9a37-f9e3e15f4f3f","ios":"levelo://app?vid=46f3e991-c55b-4d9d-9a37-f9e3e15f4f3f"},"vehicle_type_id":"4","last_reported":1761898470,"current_range_meters":7200,"station_id":"st_cvj6sg6p6f1abm77japg","pricing_plan_id":"cebpf4jnsgd1na2vs0mg"},{"bike_id":"3a217d2d-0c7e-4d79-a702-b9135e90946e","system_id":"levelo_inurba_marseille","lat":43.28152,"lon":5.4264,"is_reserved":false,"is_disabled":true,"rental_uris":{"android":"levelo://app?vid=3a217d2d-0c7e-4d79-a702-b9135e90946e","ios":"levelo://app?vid=3a217d2d-0c7e-4d79-a702-b9135e90946e"},"vehicle_type_id":"4","last_reported":1761898470,"current_range_meters":7200,"station_id":"ce4bhnh2rcd13ifvqgug","pricing_plan_id":"cebpf4jnsgd1na2vs0mg"},{"bike_id":"4042a8e6-9f9d-4750-97a0-8691b363476d","system_id":"levelo_inurba_marseille","lat":43.28842,"lon":5.39664,"is_reserved":false,"is_disabled":false,"rental_uris":{"android":"levelo://app?vid=4042a8e6-9f9d-4750-97a0-8691b363476d","ios":"levelo://app?vid=4042a8e6-9f9d-4750-97a0-8691b363476d"},"vehicle_type_id":"4","last_reported":1761898470,"current_range_meters":8000,"station_id":"","pricing_plan_id":"cebpf4jnsgd1na2vs0mg"},{"bike_id":"b9f74423-aa79-4748-b80a-22d4a2dba692","system_id":"levelo_inurba_marseille","lat":43.31306,"lon":5.36762,"is_reserved":false,"is_disabled":false,"rental_uris":{"android":"levelo://app?vid=b9f74423-aa79-4748-b80a-22d4a2dba692","ios":"levelo://app?vid=b9f74423-aa79-4748-b80a-22d4a2dba692"},"vehicle_type_id":"4","last_reported":1761898470,"current_range_meters":8000,"station_id":"","pricing_plan_id":"cebpf4jnsgd1na2vs0mg"},{"bike_id":"53c1e4c1-be5b-45c9-b2c7-e603e7ed276a","system_id":"levelo_inurba_marseille","lat":43.257217,"lon":5.411128,"is_reserved":false,"is_disabled":false,"rental_uris":{"android":"levelo://app?vid=53c1e4c1-be5b-45c9-b2c7-e603e7ed276a","ios":"levelo://app?vid=53c1e4c1-be5b-45c9-b2c7-e603e7ed276a"},"vehicle_type_id":"4","last_reported":1761898470,"current_range_meters":8000,"station_id":"ce4bhkp2rcd13ifvqgd0","pricing_plan_id":"cebpf4jnsgd1na2vs0mg"},{"bike_id":"73905a82-c9c2-4ee2-8e94-756ec10078fa","system_id":"levelo_inurba_marseille","lat":43.26559,"lon":5.37282,"is_reserved":false,"is_disabled":false,"rental_uris":{"android":"levelo://app?vid=73905a82-c9c2-4ee2-8e94-756ec10078fa","ios":"levelo://app?vid=73905a82-c9c2-4ee2-8e94-756ec10078fa"},"vehicle_type_id":"4","last_reported":1761898470,"current_range_meters":8000,"station_id":"ce4bhg12rcd13ifvqf70","pricing_plan_id":"cebpf4jnsgd1na2vs0mg"},{"bike_id":"95085d82-855b-4dad-bf49-ab0525e7b191","system_id":"levelo_inurba_marseille","lat":43.23152,"lon":5.4374,"is_reserved":false,"is_disabled":false,"rental_uris":{"android":"levelo://app?vid=95085d82-855b-4dad-bf49-ab0525e7b191","ios":"levelo://app?vid=95085d82-855b-4dad-bf49-ab0525e7b191"},"vehicle_type_id":"4","last_reported":1761898470,"current_range_meters":8400,"station_id":"ce4bhmp2rcd13ifvqgog","pricing_plan_id":"cebpf4jnsgd1na2vs0mg"},{"bike_id":"003dc589-afc6-47c4-a84a-e90cd5f91109","system_id":"levelo_inurba_marseille","lat":43.29535,"lon":5.3902,"is_reserved":false,"is_disabled":false,"rental_uris":{"android":"levelo://app?vid=003dc589-afc6-47c4-a84a-e90cd5f91109","ios":"levelo://app?vid=003dc589-afc6-47c4-a84a-e90cd5f91109"},"vehicle_type_id":"4","last_reported":1761898470,"current_range_meters":8400,"station_id":"","pricing_plan_id":"cebpf4jnsgd1na2vs0mg"},{"bike_id":"6fff56e2-dc33-4322-9554-e738206d1bc0","system_id":"levelo_inurba_marseille","lat":43.211927,"lon":5.350739,"is_reserved":false,"is_disabled":false,"rental_uris":{"android":"levelo://app?vid=6fff56e2-dc33-4322-9554-e738206d1bc0","ios":"levelo://app?vid=6fff56e2-dc33-4322-9554-e738206d1bc0"},"vehicle_type_id":"4","last_reported":1761898470,"current_range_meters":8400,"station_id":"st_cvj6sg6p6f1abm77japg","pricing_plan_id":"cebpf4jnsgd1na2vs0mg"},{"bike_id":"299b6d25-0432-40b3-b88d-599bdb7cfc7b","system_id":"levelo_inurba_marseille","lat":43.295222,"lon":5.39032,"is_reserved":false,"is_disabled":true,"rental_uris":{"android":"levelo://app?vid=299b6d25-0432-40b3-b88d-599bdb7cfc7b","ios":"levelo://app?vid=299b6d25-0432-40b3-b88d-599bdb7cfc7b"},"vehicle_type_id":"4","last_reported":1761898470,"current_range_meters":8400,"station_id":"ce4bh3p2rcd13ifvqdp0","pricing_plan_id":"cebpf4jnsgd1na2vs0mg"},{"bike_id":"1bdb0524-fd2f-434a-9e83-4b7a1a09b5bb","system_id":"levelo_inurba_marseille","lat":43.33407,"lon":5.41115,"is_reserved":false,"is_disabled":false,"rental_uris":{"android":"levelo://app?vid=1bdb0524-fd2f-434a-9e83-4b7a1a09b5bb","ios":"levelo://app?vid=1bdb0524-fd2f-434a-9e83-4b7a1a09b5bb"},"vehicle_type_id":"4","last_reported":1761898470,"current_range_meters":8400,"station_id":"","pricing_plan_id":"cebpf4jnsgd1na2vs0mg"},{"bike_id":"cf8322dc-dfa2-4e27-ad1d-b9895b7d1acf","system_id":"levelo_inurba_marseille","lat":43.25584,"lon":5.38238,"is_reserved":false,"is_disabled":false,"rental_uris":{"android":"levelo://app?vid=cf8322dc-dfa2-4e27-ad1d-b9895b7d1acf","ios":"levelo://app?vid=cf8322dc-dfa2-4e27-ad1d-b9895b7d1acf"},"vehicle_type_id":"4","last_reported":1761898470,"current_range_meters":8400,"station_id":"ce4bhih2rcd13ifvqfs0","pricing_plan_id":"cebpf4jnsgd1na2vs0mg"},{"bike_id":"e1e2a457-df19-4b98-90a8-25aeb1c4995a","system_id":"levelo_inurba_marseille","lat":43.26024,"lon":5.41735,"is_reserved":false,"is_disabled":false,"rental_uris":{"android":"levelo://app?vid=e1e2a457-df19-4b98-90a8-25aeb1c4995a","ios":"levelo://app?vid=e1e2a457-df19-4b98-90a8-25aeb1c4995a"},"vehicle_type_id":"4","last_reported":1761898470,"current_range_meters":8800,"station_id":"","pricing_plan_id":"cebpf4jnsgd1na2vs0mg"},{"bike_id":"22878d24-6d09-4c78-8701-97568c72061f","system_id":"levelo_inurba_marseille","lat":43.30795,"lon":5.3766,"is_reserved":false,"is_disabled":false,"rental_uris":{"android":"levelo://app?vid=22878d24-6d09-4c78-8701-97568c72061f","ios":"levelo://app?vid=22878d24-6d09-4c78-8701-97568c72061f"},"vehicle_type_id":"4","last_reported":1761898470,"current_range_meters":8800,"station_id":"ce4bgv92rcd13ifvqcq0","pricing_plan_id":"cebpf4jnsgd1na2vs0mg"},{"bike_id":"81f0d162-b88c-4c48-ac3a-5de6e63d58f3","system_id":"levelo_inurba_marseille","lat":43.29875,"lon":5.3844,"is_reserved":false,"is_disabled":false,"rental_uris":{"android":"levelo://app?vid=81f0d162-b88c-4c48-ac3a-5de6e63d58f3","ios":"levelo://app?vid=81f0d162-b88c-4c48-ac3a-5de6e63d58f3"},"vehicle_type_id":"4","last_reported":1761898470,"current_range_meters":8800,"station_id":"","pricing_plan_id":"cebpf4jnsgd1na2vs0mg"},{"bike_id":"2db2a9a1-d059-4ac4-9b86-ca30546cc040","system_id":"levelo_inurba_marseille","lat":43.2985,"lon":5.3627,"is_reserved":false,"is_disabled":false,"rental_uris":{"android":"levelo://app?vid=2db2a9a1-d059-4ac4-9b86-ca30546cc040","ios":"levelo://app?vid=2db2a9a1-d059-4ac4-9b86-ca30546cc040"},"vehicle_type_id":"4","last_reported":1761898470,"current_range_meters":8800,"station_id":"ce4bgpp2rcd13ifvqc3g","pricing_plan_id":"cebpf4jnsgd1na2vs0mg"},{"bike_id":"3126ce35-4101-4b06-a7b2-19548fb25089","system_id":"levelo_inurba_marseille","lat":43.211932,"lon":5.350652,"is_reserved":false,"is_disabled":false,"rental_uris":{"android":"levelo://app?vid=3126ce35-4101-4b06-a7b2-19548fb25089","ios":"levelo://app?vid=3126ce35-4101-4b06-a7b2-19548fb25089"},"vehicle_type_id":"4","last_reported":1761898470,"current_range_meters":8800,"station_id":"st_cvj6sg6p6f1abm77japg","pricing_plan_id":"cebpf4jnsgd1na2vs0mg"},{"bike_id":"942cb668-9ab0-4e5e-8a02-78f93e17c71e","system_id":"levelo_inurba_marseille","lat":43.3003,"lon":5.38335,"is_reserved":false,"is_disabled":false,"rental_uris":{"android":"levelo://app?vid=942cb668-9ab0-4e5e-8a02-78f93e17c71e","ios":"levelo://app?vid=942cb668-9ab0-4e5e-8a02-78f93e17c71e"},"vehicle_type_id":"4","last_reported":1761898470,"current_range_meters":9200,"station_id":"","pricing_plan_id":"cebpf4jnsgd1na2vs0mg"},{"bike_id":"22219237-c8df-4ea1-8cfc-d971c5dcd449","system_id":"levelo_inurba_marseille","lat":43.24079,"lon":5.37752,"is_reserved":false,"is_disabled":false,"rental_uris":{"android":"levelo://app?vid=22219237-c8df-4ea1-8cfc-d971c5dcd449","ios":"levelo://app?vid=22219237-c8df-4ea1-8cfc-d971c5dcd449"},"vehicle_type_id":"4","last_reported":1761898470,"current_range_meters":9200,"station_id":"ce4bhnp2rcd13ifvqgvg","pricing_plan_id":"cebpf4jnsgd1na2vs0mg"},{"bike_id":"cee9a211-d377-4cea-ab88-99e67d177cfe","system_id":"levelo_inurba_marseille","lat":43.23163,"lon":5.4001,"is_reserved":false,"is_disabled":false,"rental_uris":{"android":"levelo://app?vid=cee9a211-d377-4cea-ab88-99e67d177cfe","ios":"levelo://app?vid=cee9a211-d377-4cea-ab88-99e67d177cfe"},"vehicle_type_id":"4","last_reported":1761898470,"current_range_meters":9200,"station_id":"ce4bhn12rcd13ifvqgqg","pricing_plan_id":"cebpf4jnsgd1na2vs0mg"},{"bike_id":"688e0991-23bb-4f67-a97d-b9bb7704a66a","system_id":"levelo_inurba_marseille","lat":43.29255,"lon":5.39101,"is_reserved":false,"is_disabled":false,"rental_uris":{"android":"levelo://app?vid=688e0991-23bb-4f67-a97d-b9bb7704a66a","ios":"levelo://app?vid=688e0991-23bb-4f67-a97d-b9bb7704a66a"},"vehicle_type_id":"4","last_reported":1761898470,"current_range_meters":9200,"station_id":"","pricing_plan_id":"cebpf4jnsgd1na2vs0mg"},{"bike_id":"6000a690-d94a-4c7f-8fe7-44bb05707884","system_id":"levelo_inurba_marseille","lat":43.312058,"lon":5.368171,"is_reserved":false,"is_disabled":false,"rental_uris":{"android":"levelo://app?vid=6000a690-d94a-4c7f-8fe7-44bb05707884","ios":"levelo://app?vid=6000a690-d94a-4c7f-8fe7-44bb05707884"},"vehicle_type_id":"4","last_reported":1761898470,"current_range_meters":9200,"station_id":"ce4bgl92rcd13ifvqbq0","pricing_plan_id":"cebpf4jnsgd1na2vs0mg"},{"bike_id":"007896d7-a74d-4bb8-b312-9f7c544e6281","system_id":"levelo_inurba_marseille","lat":43.29187,"lon":5.35794,"is_reserved":false,"is_disabled":false,"rental_uris":{"android":"levelo://app?vid=007896d7-a74d-4bb8-b312-9f7c544e6281","ios":"levelo://app?vid=007896d7-a74d-4bb8-b312-9f7c544e6281"},"vehicle_type_id":"4","last_reported":1761898470,"current_range_meters":9200,"station_id":"ce4bhb12rcd13ifvqel0","pricing_plan_id":"cebpf4jnsgd1na2vs0mg"},{"bike_id":"52de06bb-5799-4b04-8555-7cb637a2897a","system_id":"levelo_inurba_marseille","lat":43.2846,"lon":5.38423,"is_reserved":false,"is_disabled":false,"rental_uris":{"android":"levelo://app?vid=52de06bb-5799-4b04-8555-7cb637a2897a","ios":"levelo://app?vid=52de06bb-5799-4b04-8555-7cb637a2897a"},"vehicle_type_id":"4","last_reported":1761898470,"current_range_meters":9200,"station_id":"ce4bh512rcd13ifvqe3g","pricing_plan_id":"cebpf4jnsgd1na2vs0mg"},{"bike_id":"6c3f8b32-c115-4971-ab70-7ce53698f0ed","system_id":"levelo_inurba_marseille","lat":43.281673,"lon":5.426702,"is_reserved":false,"is_disabled":true,"rental_uris":{"android":"levelo://app?vid=6c3f8b32-c115-4971-ab70-7ce53698f0ed","ios":"levelo://app?vid=6c3f8b32-c115-4971-ab70-7ce53698f0ed"},"vehicle_type_id":"4","last_reported":1761898470,"current_range_meters":9200,"station_id":"ce4bhnh2rcd13ifvqgug","pricing_plan_id":"cebpf4jnsgd1na2vs0mg"},{"bike_id":"ef077506-ad53-48c6-96ed-57184394616c","system_id":"levelo_inurba_marseille","lat":43.30883,"lon":5.372064,"is_reserved":false,"is_disabled":false,"rental_uris":{"android":"levelo://app?vid=ef077506-ad53-48c6-96ed-57184394616c","ios":"levelo://app?vid=ef077506-ad53-48c6-96ed-57184394616c"},"vehicle_type_id":"4","last_reported":1761898470,"current_range_meters":9600,"station_id":"ce4bguh2rcd13ifvqckg","pricing_plan_id":"cebpf4jnsgd1na2vs0mg"},{"bike_id":"e7fbda8d-e4b1-4d1d-8e59-650ead40058d","system_id":"levelo_inurba_marseille","lat":43.24632,"lon":5.43152,"is_reserved":false,"is_disabled":false,"rental_uris":{"android":"levelo://app?vid=e7fbda8d-e4b1-4d1d-8e59-650ead40058d","ios":"levelo://app?vid=e7fbda8d-e4b1-4d1d-8e59-650ead40058d"},"vehicle_type_id":"4","last_reported":1761898470,"current_range_meters":9600,"station_id":"st_d2m6c4gdas8pm72e190g","pricing_plan_id":"cebpf4jnsgd1na2vs0mg"},{"bike_id":"5d1570fc-dae2-4d05-b087-b910244ee48b","system_id":"levelo_inurba_marseille","lat":43.30089,"lon":5.39074,"is_reserved":false,"is_disabled":false,"rental_uris":{"android":"levelo://app?vid=5d1570fc-dae2-4d05-b087-b910244ee48b","ios":"levelo://app?vid=5d1570fc-dae2-4d05-b087-b910244ee48b"},"vehicle_type_id":"4","last_reported":1761898470,"current_range_meters":9600,"station_id":"ce4bh192rcd13ifvqdb0","pricing_plan_id":"cebpf4jnsgd1na2vs0mg"},{"bike_id":"329dc68c-8fce-4d36-8b8c-ca3cfabe35a5","system_id":"levelo_inurba_marseille","lat":43.29362,"lon":5.37847,"is_reserved":false,"is_disabled":false,"rental_uris":{"android":"levelo://app?vid=329dc68c-8fce-4d36-8b8c-ca3cfabe35a5","ios":"levelo://app?vid=329dc68c-8fce-4d36-8b8c-ca3cfabe35a5"},"vehicle_type_id":"4","last_reported":1761898470,"current_range_meters":9600,"station_id":"ce4bgjh2rcd13ifvqbf0","pricing_plan_id":"cebpf4jnsgd1na2vs0mg"},{"bike_id":"4c1b2049-b590-4ae2-a090-9d731b00e193","system_id":"levelo_inurba_marseille","lat":43.27074,"lon":5.42285,"is_reserved":false,"is_disabled":false,"rental_uris":{"android":"levelo://app?vid=4c1b2049-b590-4ae2-a090-9d731b00e193","ios":"levelo://app?vid=4c1b2049-b590-4ae2-a090-9d731b00e193"},"vehicle_type_id":"4","last_reported":1761898470,"current_range_meters":9600,"station_id":"ce4bhk92rcd13ifvqgb0","pricing_plan_id":"cebpf4jnsgd1na2vs0mg"},{"bike_id":"dc8a04d7-a705-4817-b25b-f83a36eb3e56","system_id":"levelo_inurba_marseille","lat":43.27419,"lon":5.39417,"is_reserved":false,"is_disabled":false,"rental_uris":{"android":"levelo://app?vid=dc8a04d7-a705-4817-b25b-f83a36eb3e56","ios":"levelo://app?vid=dc8a04d7-a705-4817-b25b-f83a36eb3e56"},"vehicle_type_id":"4","last_reported":1761898470,"current_range_meters":9600,"station_id":"ce4bhdp2rcd13ifvqf20","pricing_plan_id":"cebpf4jnsgd1na2vs0mg"},{"bike_id":"0b1b4eb2-08ad-4740-b0ed-46827b0ff964","system_id":"levelo_inurba_marseille","lat":43.307797,"lon":5.376484,"is_reserved":false,"is_disabled":false,"rental_uris":{"android":"levelo://app?vid=0b1b4eb2-08ad-4740-b0ed-46827b0ff964","ios":"levelo://app?vid=0b1b4eb2-08ad-4740-b0ed-46827b0ff964"},"vehicle_type_id":"4","last_reported":1761898470,"current_range_meters":9600,"station_id":"ce4bgv92rcd13ifvqcq0","pricing_plan_id":"cebpf4jnsgd1na2vs0mg"},{"bike_id":"299437b7-9388-4b32-abad-6d65c0d126b9","system_id":"levelo_inurba_marseille","lat":43.31216,"lon":5.36873,"is_reserved":false,"is_disabled":false,"rental_uris":{"android":"levelo://app?vid=299437b7-9388-4b32-abad-6d65c0d126b9","ios":"levelo://app?vid=299437b7-9388-4b32-abad-6d65c0d126b9"},"vehicle_type_id":"4","last_reported":1761898470,"current_range_meters":10000,"station_id":"ce4bgl92rcd13ifvqbq0","pricing_plan_id":"cebpf4jnsgd1na2vs0mg"},{"bike_id":"f6946de9-6fd5-486c-846e-6aac0ac8e59f","system_id":"levelo_inurba_marseille","lat":43.211909,"lon":5.350717,"is_reserved":false,"is_disabled":false,"rental_uris":{"android":"levelo://app?vid=f6946de9-6fd5-486c-846e-6aac0ac8e59f","ios":"levelo://app?vid=f6946de9-6fd5-486c-846e-6aac0ac8e59f"},"vehicle_type_id":"4","last_reported":1761898470,"current_range_meters":10000,"station_id":"st_cvj6sg6p6f1abm77japg","pricing_plan_id":"cebpf4jnsgd1na2vs0mg"},{"bike_id":"52493eca-0768-4afb-877c-fe9b6ad302cf","system_id":"levelo_inurba_marseille","lat":43.3134,"lon":5.36728,"is_reserved":false,"is_disabled":false,"rental_uris":{"android":"levelo://app?vid=52493eca-0768-4afb-877c-fe9b6ad302cf","ios":"levelo://app?vid=52493eca-0768-4afb-877c-fe9b6ad302cf"},"vehicle_type_id":"4","last_reported":1761898470,"current_range_meters":10000,"station_id":"ce4bgr92rcd13ifvqc6g","pricing_plan_id":"cebpf4jnsgd1na2vs0mg"},{"bike_id":"d99505fe-d7a7-4e44-b7f5-f0065cd01a03","system_id":"levelo_inurba_marseille","lat":43.33377,"lon":5.429,"is_reserved":false,"is_disabled":false,"rental_uris":{"android":"levelo://app?vid=d99505fe-d7a7-4e44-b7f5-f0065cd01a03","ios":"levelo://app?vid=d99505fe-d7a7-4e44-b7f5-f0065cd01a03"},"vehicle_type_id":"4","last_reported":1761898470,"current_range_meters":10800,"station_id":"","pricing_plan_id":"cebpf4jnsgd1na2vs0mg"},{"bike_id":"196a7d4a-05f1-40ba-beda-a1fd200da649","system_id":"levelo_inurba_marseille","lat":43.28429,"lon":5.37529,"is_reserved":false,"is_disabled":false,"rental_uris":{"android":"levelo://app?vid=196a7d4a-05f1-40ba-beda-a1fd200da649","ios":"levelo://app?vid=196a7d4a-05f1-40ba-beda-a1fd200da649"},"vehicle_type_id":"4","last_reported":1761898470,"current_range_meters":10800,"station_id":"ce4bh412rcd13ifvqds0","pricing_plan_id":"cebpf4jnsgd1na2vs0mg"},{"bike_id":"117ae17e-ef15-4bc2-ae40-d75a93066efd","system_id":"levelo_inurba_marseille","lat":43.3092,"lon":5.40134,"is_reserved":false,"is_disabled":true,"rental_uris":{"android":"levelo://app?vid=117ae17e-ef15-4bc2-ae40-d75a93066efd","ios":"levelo://app?vid=117ae17e-ef15-4bc2-ae40-d75a93066efd"},"vehicle_type_id":"4","last_reported":1761898470,"current_range_meters":10800,"station_id":"ce4bgvp2rcd13ifvqct0","pricing_plan_id":"cebpf4jnsgd1na2vs0mg"},{"bike_id":"f1ebec42-de39-49cb-aa79-a7d00cd08ff7","system_id":"levelo_inurba_marseille","lat":43.330163,"lon":5.390398,"is_reserved":false,"is_disabled":false,"rental_uris":{"android":"levelo://app?vid=f1ebec42-de39-49cb-aa79-a7d00cd08ff7","ios":"levelo://app?vid=f1ebec42-de39-49cb-aa79-a7d00cd08ff7"},"vehicle_type_id":"4","last_reported":1761898470,"current_range_meters":10800,"station_id":"ce4bhr92rcd13ifvqhrg","pricing_plan_id":"cebpf4jnsgd1na2vs0mg"},{"bike_id":"9b93b5e1-c939-4745-bf85-2d21945442dc","system_id":"levelo_inurba_marseille","lat":43.29991,"lon":5.36399,"is_reserved":false,"is_disabled":false,"rental_uris":{"android":"levelo://app?vid=9b93b5e1-c939-4745-bf85-2d21945442dc","ios":"levelo://app?vid=9b93b5e1-c939-4745-bf85-2d21945442dc"},"vehicle_type_id":"4","last_reported":1761898470,"current_range_meters":11200,"station_id":"","pricing_plan_id":"cebpf4jnsgd1na2vs0mg"},{"bike_id":"926593f6-579b-4bc9-b774-62aba5138a9f","system_id":"levelo_inurba_marseille","lat":43.313563,"lon":5.385076,"is_reserved":false,"is_disabled":false,"rental_uris":{"android":"levelo://app?vid=926593f6-579b-4bc9-b774-62aba5138a9f","ios":"levelo://app?vid=926593f6-579b-4bc9-b774-62aba5138a9f"},"vehicle_type_id":"4","last_reported":1761898470,"current_range_meters":11200,"station_id":"ce4bgt92rcd13ifvqcf0","pricing_plan_id":"cebpf4jnsgd1na2vs0mg"},{"bike_id":"69daedd1-e532-426c-b096-24cfed29fb24","system_id":"levelo_inurba_marseille","lat":43.27936,"lon":5.41051,"is_reserved":false,"is_disabled":false,"rental_uris":{"android":"levelo://app?vid=69daedd1-e532-426c-b096-24cfed29fb24","ios":"levelo://app?vid=69daedd1-e532-426c-b096-24cfed29fb24"},"vehicle_type_id":"4","last_reported":1761898470,"current_range_meters":11200,"station_id":"ce4bhnp2rcd13ifvqh0g","pricing_plan_id":"cebpf4jnsgd1na2vs0mg"},{"bike_id":"a18dbf48-2c4d-4fa4-a4c5-c9871d73c9a0","system_id":"levelo_inurba_marseille","lat":43.301994,"lon":5.383462,"is_reserved":false,"is_disabled":false,"rental_uris":{"android":"levelo://app?vid=a18dbf48-2c4d-4fa4-a4c5-c9871d73c9a0","ios":"levelo://app?vid=a18dbf48-2c4d-4fa4-a4c5-c9871d73c9a0"},"vehicle_type_id":"4","last_reported":1761898470,"current_range_meters":11200,"station_id":"ce4bgup2rcd13ifvqcn0","pricing_plan_id":"cebpf4jnsgd1na2vs0mg"},{"bike_id":"4d7d62ab-4ac7-4f11-a006-c751970e74e0","system_id":"levelo_inurba_marseille","lat":43.253356,"lon":5.421672,"is_reserved":false,"is_disabled":false,"rental_uris":{"android":"levelo://app?vid=4d7d62ab-4ac7-4f11-a006-c751970e74e0","ios":"levelo://app?vid=4d7d62ab-4ac7-4f11-a006-c751970e74e0"},"vehicle_type_id":"4","last_reported":1761898470,"current_range_meters":11200,"station_id":"st_d2m65c5bi1j21697t3ng","pricing_plan_id":"cebpf4jnsgd1na2vs0mg"},{"bike_id":"aff1941b-155a-439c-b6d1-9cd7afc356cf","system_id":"levelo_inurba_marseille","lat":43.23965,"lon":5.36626,"is_reserved":false,"is_disabled":false,"rental_uris":{"android":"levelo://app?vid=aff1941b-155a-439c-b6d1-9cd7afc356cf","ios":"levelo://app?vid=aff1941b-155a-439c-b6d1-9cd7afc356cf"},"vehicle_type_id":"4","last_reported":1761898470,"current_range_meters":11200,"station_id":"ce4bhi12rcd13ifvqfp0","pricing_plan_id":"cebpf4jnsgd1na2vs0mg"},{"bike_id":"917c7cf8-f6a9-404f-b9c2-35276abaea43","system_id":"levelo_inurba_marseille","lat":43.32368,"lon":5.38879,"is_reserved":false,"is_disabled":false,"rental_uris":{"android":"levelo://app?vid=917c7cf8-f6a9-404f-b9c2-35276abaea43","ios":"levelo://app?vid=917c7cf8-f6a9-404f-b9c2-35276abaea43"},"vehicle_type_id":"4","last_reported":1761898470,"current_range_meters":11200,"station_id":"ce4bhqp2rcd13ifvqhog","pricing_plan_id":"cebpf4jnsgd1na2vs0mg"},{"bike_id":"b61e1e59-261f-4781-9885-10fc3dd1eaf7","system_id":"levelo_inurba_marseille","lat":43.304815,"lon":5.369,"is_reserved":false,"is_disabled":false,"rental_uris":{"android":"levelo://app?vid=b61e1e59-261f-4781-9885-10fc3dd1eaf7","ios":"levelo://app?vid=b61e1e59-261f-4781-9885-10fc3dd1eaf7"},"vehicle_type_id":"4","last_reported":1761898470,"current_range_meters":11200,"station_id":"","pricing_plan_id":"cebpf4jnsgd1na2vs0mg"},{"bike_id":"dd457ba3-9e07-42fa-81ff-1ce7b1782007","system_id":"levelo_inurba_marseille","lat":43.29823,"lon":5.38101,"is_reserved":false,"is_disabled":false,"rental_uris":{"android":"levelo://app?vid=dd457ba3-9e07-42fa-81ff-1ce7b1782007","ios":"levelo://app?vid=dd457ba3-9e07-42fa-81ff-1ce7b1782007"},"vehicle_type_id":"4","last_reported":1761898470,"current_range_meters":11200,"station_id":"ce4bgip2rcd13ifvqbb0","pricing_plan_id":"cebpf4jnsgd1na2vs0mg"},{"bike_id":"c0a1ab8d-72ff-4114-b274-fdab8f1c3cb0","system_id":"levelo_inurba_marseille","lat":43.246858,"lon":5.381829,"is_reserved":false,"is_disabled":false,"rental_uris":{"android":"levelo://app?vid=c0a1ab8d-72ff-4114-b274-fdab8f1c3cb0","ios":"levelo://app?vid=c0a1ab8d-72ff-4114-b274-fdab8f1c3cb0"},"vehicle_type_id":"4","last_reported":1761898470,"current_range_meters":11600,"station_id":"ce4bhih2rcd13ifvqfr0","pricing_plan_id":"cebpf4jnsgd1na2vs0mg"},{"bike_id":"e4a89cb7-047a-41e6-b89b-0173a786622a","system_id":"levelo_inurba_marseille","lat":43.309103,"lon":5.368447,"is_reserved":false,"is_disabled":false,"rental_uris":{"android":"levelo://app?vid=e4a89cb7-047a-41e6-b89b-0173a786622a","ios":"levelo://app?vid=e4a89cb7-047a-41e6-b89b-0173a786622a"},"vehicle_type_id":"4","last_reported":1761898470,"current_range_meters":11600,"station_id":"ce4bgn92rcd13ifvqbvg","pricing_plan_id":"cebpf4jnsgd1na2vs0mg"},{"bike_id":"fb2a965b-2372-405d-a458-766be3b50c2a","system_id":"levelo_inurba_marseille","lat":43.302277,"lon":5.395111,"is_reserved":false,"is_disabled":false,"rental_uris":{"android":"levelo://app?vid=fb2a965b-2372-405d-a458-766be3b50c2a","ios":"levelo://app?vid=fb2a965b-2372-405d-a458-766be3b50c2a"},"vehicle_type_id":"4","last_reported":1761898470,"current_range_meters":11600,"station_id":"","pricing_plan_id":"cebpf4jnsgd1na2vs0mg"},{"bike_id":"6031e130-bc2f-4945-be2d-739bc30e9d8e","system_id":"levelo_inurba_marseille","lat":43.2853,"lon":5.44119,"is_reserved":false,"is_disabled":false,"rental_uris":{"android":"levelo://app?vid=6031e130-bc2f-4945-be2d-739bc30e9d8e","ios":"levelo://app?vid=6031e130-bc2f-4945-be2d-739bc30e9d8e"},"vehicle_type_id":"4","last_reported":1761898470,"current_range_meters":11600,"station_id":"st_d3j3df2ikq2c7380ej80","pricing_plan_id":"cebpf4jnsgd1na2vs0mg"},{"bike_id":"88d246be-34df-47d7-8a1c-1fe4dbcd9da7","system_id":"levelo_inurba_marseille","lat":43.26689,"lon":5.38274,"is_reserved":false,"is_disabled":false,"rental_uris":{"android":"levelo://app?vid=88d246be-34df-47d7-8a1c-1fe4dbcd9da7","ios":"levelo://app?vid=88d246be-34df-47d7-8a1c-1fe4dbcd9da7"},"vehicle_type_id":"4","last_reported":1761898470,"current_range_meters":11600,"station_id":"ce4bhg92rcd13ifvqf90","pricing_plan_id":"cebpf4jnsgd1na2vs0mg"},{"bike_id":"c2b29e2a-9ddf-4599-9569-ebeda3771708","system_id":"levelo_inurba_marseille","lat":43.21201,"lon":5.35088,"is_reserved":false,"is_disabled":false,"rental_uris":{"android":"levelo://app?vid=c2b29e2a-9ddf-4599-9569-ebeda3771708","ios":"levelo://app?vid=c2b29e2a-9ddf-4599-9569-ebeda3771708"},"vehicle_type_id":"4","last_reported":1761898470,"current_range_meters":11600,"station_id":"st_cvj6sg6p6f1abm77japg","pricing_plan_id":"cebpf4jnsgd1na2vs0mg"},{"bike_id":"958f7bba-1524-4e23-a3bc-21449a728a6c","system_id":"levelo_inurba_marseille","lat":43.25722,"lon":5.41112,"is_reserved":false,"is_disabled":false,"rental_uris":{"android":"levelo://app?vid=958f7bba-1524-4e23-a3bc-21449a728a6c","ios":"levelo://app?vid=958f7bba-1524-4e23-a3bc-21449a728a6c"},"vehicle_type_id":"4","last_reported":1761898470,"current_range_meters":11600,"station_id":"ce4bhkp2rcd13ifvqgd0","pricing_plan_id":"cebpf4jnsgd1na2vs0mg"},{"bike_id":"4419364e-7081-420e-bc7a-995a1e367772","system_id":"levelo_inurba_marseille","lat":43.251,"lon":5.40341,"is_reserved":false,"is_disabled":false,"rental_uris":{"android":"levelo://app?vid=4419364e-7081-420e-bc7a-995a1e367772","ios":"levelo://app?vid=4419364e-7081-420e-bc7a-995a1e367772"},"vehicle_type_id":"4","last_reported":1761898470,"current_range_meters":12000,"station_id":"ce4bhlh2rcd13ifvqgig","pricing_plan_id":"cebpf4jnsgd1na2vs0mg"},{"bike_id":"9b6f1737-0eb4-49e8-8914-98857f591f67","system_id":"levelo_inurba_marseille","lat":43.28418,"lon":5.34985,"is_reserved":false,"is_disabled":false,"rental_uris":{"android":"levelo://app?vid=9b6f1737-0eb4-49e8-8914-98857f591f67","ios":"levelo://app?vid=9b6f1737-0eb4-49e8-8914-98857f591f67"},"vehicle_type_id":"4","last_reported":1761898470,"current_range_meters":12000,"station_id":"ce4bhbh2rcd13ifvqepg","pricing_plan_id":"cebpf4jnsgd1na2vs0mg"},{"bike_id":"13b5bebc-2277-4643-9efc-b419c3a09bbd","system_id":"levelo_inurba_marseille","lat":43.229251,"lon":5.353935,"is_reserved":false,"is_disabled":false,"rental_uris":{"android":"levelo://app?vid=13b5bebc-2277-4643-9efc-b419c3a09bbd","ios":"levelo://app?vid=13b5bebc-2277-4643-9efc-b419c3a09bbd"},"vehicle_type_id":"4","last_reported":1761898470,"current_range_meters":12000,"station_id":"cpo3532slgdg3j2ikp40","pricing_plan_id":"cebpf4jnsgd1na2vs0mg"},{"bike_id":"d3e4191f-8708-4957-a7db-efe93d73dc66","system_id":"levelo_inurba_marseille","lat":43.28538,"lon":5.44102,"is_reserved":false,"is_disabled":false,"rental_uris":{"android":"levelo://app?vid=d3e4191f-8708-4957-a7db-efe93d73dc66","ios":"levelo://app?vid=d3e4191f-8708-4957-a7db-efe93d73dc66"},"vehicle_type_id":"4","last_reported":1761898470,"current_range_meters":12000,"station_id":"st_d3j3df2ikq2c7380ej80","pricing_plan_id":"cebpf4jnsgd1na2vs0mg"},{"bike_id":"f9f5725b-4420-4974-8696-29f60feee800","system_id":"levelo_inurba_marseille","lat":43.33603,"lon":5.41,"is_reserved":false,"is_disabled":false,"rental_uris":{"android":"levelo://app?vid=f9f5725b-4420-4974-8696-29f60feee800","ios":"levelo://app?vid=f9f5725b-4420-4974-8696-29f60feee800"},"vehicle_type_id":"4","last_reported":1761898470,"current_range_meters":12000,"station_id":"ce4bhqh2rcd13ifvqhmg","pricing_plan_id":"cebpf4jnsgd1na2vs0mg"},{"bike_id":"dd718b40-ac09-4712-a92c-cb36d641da7f","system_id":"levelo_inurba_marseille","lat":43.30543,"lon":5.36688,"is_reserved":false,"is_disabled":false,"rental_uris":{"android":"levelo://app?vid=dd718b40-ac09-4712-a92c-cb36d641da7f","ios":"levelo://app?vid=dd718b40-ac09-4712-a92c-cb36d641da7f"},"vehicle_type_id":"4","last_reported":1761898470,"current_range_meters":12000,"station_id":"ce4bgrp2rcd13ifvqc9g","pricing_plan_id":"cebpf4jnsgd1na2vs0mg"},{"bike_id":"a0d564f2-5ac0-4238-b3be-1fed830781ea","system_id":"levelo_inurba_marseille","lat":43.273801,"lon":5.362358,"is_reserved":false,"is_disabled":false,"rental_uris":{"android":"levelo://app?vid=a0d564f2-5ac0-4238-b3be-1fed830781ea","ios":"levelo://app?vid=a0d564f2-5ac0-4238-b3be-1fed830781ea"},"vehicle_type_id":"4","last_reported":1761898470,"current_range_meters":12000,"station_id":"","pricing_plan_id":"cebpf4jnsgd1na2vs0mg"},{"bike_id":"516995d3-31b4-460f-8436-1dc3fc004b9c","system_id":"levelo_inurba_marseille","lat":43.29238,"lon":5.40913,"is_reserved":false,"is_disabled":false,"rental_uris":{"android":"levelo://app?vid=516995d3-31b4-460f-8436-1dc3fc004b9c","ios":"levelo://app?vid=516995d3-31b4-460f-8436-1dc3fc004b9c"},"vehicle_type_id":"4","last_reported":1761898470,"current_range_meters":12000,"station_id":"ce4bh192rcd13ifvqdc0","pricing_plan_id":"cebpf4jnsgd1na2vs0mg"},{"bike_id":"75b2ab03-b6f9-4537-834b-b438df40fe86","system_id":"levelo_inurba_marseille","lat":43.29564,"lon":5.40069,"is_reserved":false,"is_disabled":false,"rental_uris":{"android":"levelo://app?vid=75b2ab03-b6f9-4537-834b-b438df40fe86","ios":"levelo://app?vid=75b2ab03-b6f9-4537-834b-b438df40fe86"},"vehicle_type_id":"4","last_reported":1761898470,"current_range_meters":12000,"station_id":"","pricing_plan_id":"cebpf4jnsgd1na2vs0mg"},{"bike_id":"2662fe9b-aa47-4e6a-8505-64d896678582","system_id":"levelo_inurba_marseille","lat":43.22572,"lon":5.41616,"is_reserved":false,"is_disabled":false,"rental_uris":{"android":"levelo://app?vid=2662fe9b-aa47-4e6a-8505-64d896678582","ios":"levelo://app?vid=2662fe9b-aa47-4e6a-8505-64d896678582"},"vehicle_type_id":"4","last_reported":1761898470,"current_range_meters":12400,"station_id":"st_d2o4gvlbi1j2169b742g","pricing_plan_id":"cebpf4jnsgd1na2vs0mg"},{"bike_id":"eaef80a6-8562-4379-8226-7d7a9ee5a612","system_id":"levelo_inurba_marseille","lat":43.30904,"lon":5.36842,"is_reserved":false,"is_disabled":false,"rental_uris":{"android":"levelo://app?vid=eaef80a6-8562-4379-8226-7d7a9ee5a612","ios":"levelo://app?vid=eaef80a6-8562-4379-8226-7d7a9ee5a612"},"vehicle_type_id":"4","last_reported":1761898470,"current_range_meters":12400,"station_id":"ce4bgn92rcd13ifvqbvg","pricing_plan_id":"cebpf4jnsgd1na2vs0mg"},{"bike_id":"9cb08936-82d3-468d-bc9f-2ddd857856aa","system_id":"levelo_inurba_marseille","lat":43.31216,"lon":5.36847,"is_reserved":false,"is_disabled":false,"rental_uris":{"android":"levelo://app?vid=9cb08936-82d3-468d-bc9f-2ddd857856aa","ios":"levelo://app?vid=9cb08936-82d3-468d-bc9f-2ddd857856aa"},"vehicle_type_id":"4","last_reported":1761898470,"current_range_meters":12400,"station_id":"ce4bgl92rcd13ifvqbq0","pricing_plan_id":"cebpf4jnsgd1na2vs0mg"},{"bike_id":"295630bf-1601-4e05-bb95-22279b896c67","system_id":"levelo_inurba_marseille","lat":43.308144,"lon":5.388268,"is_reserved":false,"is_disabled":false,"rental_uris":{"android":"levelo://app?vid=295630bf-1601-4e05-bb95-22279b896c67","ios":"levelo://app?vid=295630bf-1601-4e05-bb95-22279b896c67"},"vehicle_type_id":"4","last_reported":1761898470,"current_range_meters":12400,"station_id":"ce4bgup2rcd13ifvqco0","pricing_plan_id":"cebpf4jnsgd1na2vs0mg"},{"bike_id":"0e8e0a18-4139-452e-bab3-cb99f058b247","system_id":"levelo_inurba_marseille","lat":43.2948,"lon":5.41995,"is_reserved":false,"is_disabled":true,"rental_uris":{"android":"levelo://app?vid=0e8e0a18-4139-452e-bab3-cb99f058b247","ios":"levelo://app?vid=0e8e0a18-4139-452e-bab3-cb99f058b247"},"vehicle_type_id":"4","last_reported":1761898470,"current_range_meters":12800,"station_id":"","pricing_plan_id":"cebpf4jnsgd1na2vs0mg"},{"bike_id":"a3ba9ae1-19bb-4e14-8a8f-cd2d005b5815","system_id":"levelo_inurba_marseille","lat":43.28708,"lon":5.38818,"is_reserved":false,"is_disabled":false,"rental_uris":{"android":"levelo://app?vid=a3ba9ae1-19bb-4e14-8a8f-cd2d005b5815","ios":"levelo://app?vid=a3ba9ae1-19bb-4e14-8a8f-cd2d005b5815"},"vehicle_type_id":"4","last_reported":1761898470,"current_range_meters":12800,"station_id":"","pricing_plan_id":"cebpf4jnsgd1na2vs0mg"},{"bike_id":"88327406-ba65-4ce0-831c-3da476dbb691","system_id":"levelo_inurba_marseille","lat":43.237832,"lon":5.366274,"is_reserved":false,"is_disabled":false,"rental_uris":{"android":"levelo://app?vid=88327406-ba65-4ce0-831c-3da476dbb691","ios":"levelo://app?vid=88327406-ba65-4ce0-831c-3da476dbb691"},"vehicle_type_id":"4","last_reported":1761898470,"current_range_meters":12800,"station_id":"st_d3nk18o9ro0c73en2l3g","pricing_plan_id":"cebpf4jnsgd1na2vs0mg"},{"bike_id":"7afafebc-9388-4b96-826a-eb1746b15f9a","system_id":"levelo_inurba_marseille","lat":43.2707,"lon":5.42282,"is_reserved":false,"is_disabled":false,"rental_uris":{"android":"levelo://app?vid=7afafebc-9388-4b96-826a-eb1746b15f9a","ios":"levelo://app?vid=7afafebc-9388-4b96-826a-eb1746b15f9a"},"vehicle_type_id":"4","last_reported":1761898470,"current_range_meters":12800,"station_id":"ce4bhk92rcd13ifvqgb0","pricing_plan_id":"cebpf4jnsgd1na2vs0mg"},{"bike_id":"8a0ff850-cf9f-4e75-bc3f-994489f28f31","system_id":"levelo_inurba_marseille","lat":43.22574,"lon":5.41632,"is_reserved":false,"is_disabled":false,"rental_uris":{"android":"levelo://app?vid=8a0ff850-cf9f-4e75-bc3f-994489f28f31","ios":"levelo://app?vid=8a0ff850-cf9f-4e75-bc3f-994489f28f31"},"vehicle_type_id":"4","last_reported":1761898470,"current_range_meters":12800,"station_id":"st_d2o4gvlbi1j2169b742g","pricing_plan_id":"cebpf4jnsgd1na2vs0mg"},{"bike_id":"b8f404d3-62c4-4489-a471-d37212346558","system_id":"levelo_inurba_marseille","lat":43.31069,"lon":5.37862,"is_reserved":false,"is_disabled":false,"rental_uris":{"android":"levelo://app?vid=b8f404d3-62c4-4489-a471-d37212346558","ios":"levelo://app?vid=b8f404d3-62c4-4489-a471-d37212346558"},"vehicle_type_id":"4","last_reported":1761898470,"current_range_meters":12800,"station_id":"","pricing_plan_id":"cebpf4jnsgd1na2vs0mg"},{"bike_id":"003faa1f-f8bd-4096-9bb8-be54345964b6","system_id":"levelo_inurba_marseille","lat":43.23792,"lon":5.36635,"is_reserved":false,"is_disabled":false,"rental_uris":{"android":"levelo://app?vid=003faa1f-f8bd-4096-9bb8-be54345964b6","ios":"levelo://app?vid=003faa1f-f8bd-4096-9bb8-be54345964b6"},"vehicle_type_id":"4","last_reported":1761898470,"current_range_meters":12800,"station_id":"st_d3nk18o9ro0c73en2l3g","pricing_plan_id":"cebpf4jnsgd1na2vs0mg"},{"bike_id":"2f477f8f-972b-406c-841a-14096d9c76ee","system_id":"levelo_inurba_marseille","lat":43.29752,"lon":5.42782,"is_reserved":false,"is_disabled":false,"rental_uris":{"android":"levelo://app?vid=2f477f8f-972b-406c-841a-14096d9c76ee","ios":"levelo://app?vid=2f477f8f-972b-406c-841a-14096d9c76ee"},"vehicle_type_id":"4","last_reported":1761898470,"current_range_meters":13600,"station_id":"st_d3md5207bmas73dh9klg","pricing_plan_id":"cebpf4jnsgd1na2vs0mg"},{"bike_id":"80c53fab-d9fd-4b9a-94e7-e3f3183e35da","system_id":"levelo_inurba_marseille","lat":43.33023,"lon":5.390454,"is_reserved":false,"is_disabled":false,"rental_uris":{"android":"levelo://app?vid=80c53fab-d9fd-4b9a-94e7-e3f3183e35da","ios":"levelo://app?vid=80c53fab-d9fd-4b9a-94e7-e3f3183e35da"},"vehicle_type_id":"4","last_reported":1761898470,"current_range_meters":13600,"station_id":"ce4bhr92rcd13ifvqhrg","pricing_plan_id":"cebpf4jnsgd1na2vs0mg"},{"bike_id":"d3173905-3c9f-4639-b7f0-7933d51eab66","system_id":"levelo_inurba_marseille","lat":43.25333,"lon":5.42165,"is_reserved":false,"is_disabled":false,"rental_uris":{"android":"levelo://app?vid=d3173905-3c9f-4639-b7f0-7933d51eab66","ios":"levelo://app?vid=d3173905-3c9f-4639-b7f0-7933d51eab66"},"vehicle_type_id":"4","last_reported":1761898470,"current_range_meters":13600,"station_id":"st_d2m65c5bi1j21697t3ng","pricing_plan_id":"cebpf4jnsgd1na2vs0mg"},{"bike_id":"2cfa874f-dc6d-4dd8-9701-01932c0aaea7","system_id":"levelo_inurba_marseille","lat":43.30154,"lon":5.38089,"is_reserved":false,"is_disabled":false,"rental_uris":{"android":"levelo://app?vid=2cfa874f-dc6d-4dd8-9701-01932c0aaea7","ios":"levelo://app?vid=2cfa874f-dc6d-4dd8-9701-01932c0aaea7"},"vehicle_type_id":"4","last_reported":1761898470,"current_range_meters":13600,"station_id":"ce4bgjp2rcd13ifvqbh0","pricing_plan_id":"cebpf4jnsgd1na2vs0mg"},{"bike_id":"60005590-1391-4ba0-8a8d-2850400f9e0d","system_id":"levelo_inurba_marseille","lat":43.30931,"lon":5.40138,"is_reserved":false,"is_disabled":false,"rental_uris":{"android":"levelo://app?vid=60005590-1391-4ba0-8a8d-2850400f9e0d","ios":"levelo://app?vid=60005590-1391-4ba0-8a8d-2850400f9e0d"},"vehicle_type_id":"4","last_reported":1761898470,"current_range_meters":13600,"station_id":"ce4bgvp2rcd13ifvqct0","pricing_plan_id":"cebpf4jnsgd1na2vs0mg"},{"bike_id":"60ef5c64-5d03-41c7-afc2-aafc3eb32b64","system_id":"levelo_inurba_marseille","lat":43.26232,"lon":5.40453,"is_reserved":false,"is_disabled":false,"rental_uris":{"android":"levelo://app?vid=60ef5c64-5d03-41c7-afc2-aafc3eb32b64","ios":"levelo://app?vid=60ef5c64-5d03-41c7-afc2-aafc3eb32b64"},"vehicle_type_id":"4","last_reported":1761898470,"current_range_meters":14000,"station_id":"ce4bhmh2rcd13ifvqgmg","pricing_plan_id":"cebpf4jnsgd1na2vs0mg"},{"bike_id":"79ab418a-79c0-4a6e-993b-761280f132d6","system_id":"levelo_inurba_marseille","lat":43.284804,"lon":5.484101,"is_reserved":false,"is_disabled":false,"rental_uris":{"android":"levelo://app?vid=79ab418a-79c0-4a6e-993b-761280f132d6","ios":"levelo://app?vid=79ab418a-79c0-4a6e-993b-761280f132d6"},"vehicle_type_id":"4","last_reported":1761898470,"current_range_meters":14000,"station_id":"st_d3svhcjqgbts73a3dn0g","pricing_plan_id":"cebpf4jnsgd1na2vs0mg"},{"bike_id":"1213ff01-604d-4b83-b3a2-60440c4b245e","system_id":"levelo_inurba_marseille","lat":43.23783,"lon":5.36621,"is_reserved":false,"is_disabled":false,"rental_uris":{"android":"levelo://app?vid=1213ff01-604d-4b83-b3a2-60440c4b245e","ios":"levelo://app?vid=1213ff01-604d-4b83-b3a2-60440c4b245e"},"vehicle_type_id":"4","last_reported":1761898470,"current_range_meters":14000,"station_id":"st_d3nk18o9ro0c73en2l3g","pricing_plan_id":"cebpf4jnsgd1na2vs0mg"},{"bike_id":"96ad2f8e-1ff0-415a-a84a-9186f2a5baf6","system_id":"levelo_inurba_marseille","lat":43.29606,"lon":5.37672,"is_reserved":false,"is_disabled":false,"rental_uris":{"android":"levelo://app?vid=96ad2f8e-1ff0-415a-a84a-9186f2a5baf6","ios":"levelo://app?vid=96ad2f8e-1ff0-415a-a84a-9186f2a5baf6"},"vehicle_type_id":"4","last_reported":1761898470,"current_range_meters":14000,"station_id":"ce4bgi12rcd13ifvqb80","pricing_plan_id":"cebpf4jnsgd1na2vs0mg"},{"bike_id":"46835159-5dd5-4fc9-a732-591f6a5307e4","system_id":"levelo_inurba_marseille","lat":43.31351,"lon":5.37912,"is_reserved":false,"is_disabled":false,"rental_uris":{"android":"levelo://app?vid=46835159-5dd5-4fc9-a732-591f6a5307e4","ios":"levelo://app?vid=46835159-5dd5-4fc9-a732-591f6a5307e4"},"vehicle_type_id":"4","last_reported":1761898470,"current_range_meters":14000,"station_id":"","pricing_plan_id":"cebpf4jnsgd1na2vs0mg"},{"bike_id":"2a99e6de-82a9-4bbf-99c8-57c42edf91b0","system_id":"levelo_inurba_marseille","lat":43.30152,"lon":5.38093,"is_reserved":false,"is_disabled":false,"rental_uris":{"android":"levelo://app?vid=2a99e6de-82a9-4bbf-99c8-57c42edf91b0","ios":"levelo://app?vid=2a99e6de-82a9-4bbf-99c8-57c42edf91b0"},"vehicle_type_id":"4","last_reported":1761898470,"current_range_meters":14000,"station_id":"ce4bgjp2rcd13ifvqbh0","pricing_plan_id":"cebpf4jnsgd1na2vs0mg"},{"bike_id":"77956432-0892-496e-abaa-7b7ac2057203","system_id":"levelo_inurba_marseille","lat":43.303078,"lon":5.369006,"is_reserved":false,"is_disabled":true,"rental_uris":{"android":"levelo://app?vid=77956432-0892-496e-abaa-7b7ac2057203","ios":"levelo://app?vid=77956432-0892-496e-abaa-7b7ac2057203"},"vehicle_type_id":"4","last_reported":1761898470,"current_range_meters":14400,"station_id":"","pricing_plan_id":"cebpf4jnsgd1na2vs0mg"},{"bike_id":"dc3e5efa-0abc-4957-95b5-0f247370dca6","system_id":"levelo_inurba_marseille","lat":43.29979,"lon":5.37174,"is_reserved":false,"is_disabled":false,"rental_uris":{"android":"levelo://app?vid=dc3e5efa-0abc-4957-95b5-0f247370dca6","ios":"levelo://app?vid=dc3e5efa-0abc-4957-95b5-0f247370dca6"},"vehicle_type_id":"4","last_reported":1761898470,"current_range_meters":14400,"station_id":"ce4bgr92rcd13ifvqc7g","pricing_plan_id":"cebpf4jnsgd1na2vs0mg"},{"bike_id":"007b2dd9-bfef-4186-8b46-ab11fc5dfc0e","system_id":"levelo_inurba_marseille","lat":43.30539,"lon":5.36551,"is_reserved":false,"is_disabled":false,"rental_uris":{"android":"levelo://app?vid=007b2dd9-bfef-4186-8b46-ab11fc5dfc0e","ios":"levelo://app?vid=007b2dd9-bfef-4186-8b46-ab11fc5dfc0e"},"vehicle_type_id":"4","last_reported":1761898470,"current_range_meters":14400,"station_id":"ce4bgs12rcd13ifvqcag","pricing_plan_id":"cebpf4jnsgd1na2vs0mg"},{"bike_id":"1282d74a-548d-440e-84c8-e15be2e1b590","system_id":"levelo_inurba_marseille","lat":43.26202,"lon":5.37932,"is_reserved":false,"is_disabled":false,"rental_uris":{"android":"levelo://app?vid=1282d74a-548d-440e-84c8-e15be2e1b590","ios":"levelo://app?vid=1282d74a-548d-440e-84c8-e15be2e1b590"},"vehicle_type_id":"4","last_reported":1761898470,"current_range_meters":14800,"station_id":"ce4bhjp2rcd13ifvqg90","pricing_plan_id":"cebpf4jnsgd1na2vs0mg"},{"bike_id":"a4dac4fa-66e6-48be-a654-6e17cdc7ca0b","system_id":"levelo_inurba_marseille","lat":43.337571,"lon":5.374323,"is_reserved":false,"is_disabled":false,"rental_uris":{"android":"levelo://app?vid=a4dac4fa-66e6-48be-a654-6e17cdc7ca0b","ios":"levelo://app?vid=a4dac4fa-66e6-48be-a654-6e17cdc7ca0b"},"vehicle_type_id":"4","last_reported":1761898470,"current_range_meters":14800,"station_id":"","pricing_plan_id":"cebpf4jnsgd1na2vs0mg"},{"bike_id":"ee261a32-9de1-4b9e-a923-6c91e1e26176","system_id":"levelo_inurba_marseille","lat":43.28475,"lon":5.48388,"is_reserved":false,"is_disabled":false,"rental_uris":{"android":"levelo://app?vid=ee261a32-9de1-4b9e-a923-6c91e1e26176","ios":"levelo://app?vid=ee261a32-9de1-4b9e-a923-6c91e1e26176"},"vehicle_type_id":"4","last_reported":1761898470,"current_range_meters":14800,"station_id":"st_d3svhcjqgbts73a3dn0g","pricing_plan_id":"cebpf4jnsgd1na2vs0mg"},{"bike_id":"1df5acf8-2868-442d-ac6b-a716815719c4","system_id":"levelo_inurba_marseille","lat":43.24178,"lon":5.39745,"is_reserved":false,"is_disabled":false,"rental_uris":{"android":"levelo://app?vid=1df5acf8-2868-442d-ac6b-a716815719c4","ios":"levelo://app?vid=1df5acf8-2868-442d-ac6b-a716815719c4"},"vehicle_type_id":"4","last_reported":1761898470,"current_range_meters":14800,"station_id":"ce4bhn12rcd13ifvqgpg","pricing_plan_id":"cebpf4jnsgd1na2vs0mg"},{"bike_id":"10550d20-c29a-421a-ad3c-0acbf44c0aaf","system_id":"levelo_inurba_marseille","lat":43.248018,"lon":5.374674,"is_reserved":false,"is_disabled":false,"rental_uris":{"android":"levelo://app?vid=10550d20-c29a-421a-ad3c-0acbf44c0aaf","ios":"levelo://app?vid=10550d20-c29a-421a-ad3c-0acbf44c0aaf"},"vehicle_type_id":"4","last_reported":1761898470,"current_range_meters":15200,"station_id":"ce4bhgh2rcd13ifvqfb0","pricing_plan_id":"cebpf4jnsgd1na2vs0mg"},{"bike_id":"9e616a1f-080b-4bfc-b976-40ec117c7812","system_id":"levelo_inurba_marseille","lat":43.265626,"lon":5.390235,"is_reserved":false,"is_disabled":true,"rental_uris":{"android":"levelo://app?vid=9e616a1f-080b-4bfc-b976-40ec117c7812","ios":"levelo://app?vid=9e616a1f-080b-4bfc-b976-40ec117c7812"},"vehicle_type_id":"4","last_reported":1761898470,"current_range_meters":15200,"station_id":"","pricing_plan_id":"cebpf4jnsgd1na2vs0mg"},{"bike_id":"57eee411-e5e3-47c5-8454-02b34dfc88c4","system_id":"levelo_inurba_marseille","lat":43.313575,"lon":5.384973,"is_reserved":false,"is_disabled":false,"rental_uris":{"android":"levelo://app?vid=57eee411-e5e3-47c5-8454-02b34dfc88c4","ios":"levelo://app?vid=57eee411-e5e3-47c5-8454-02b34dfc88c4"},"vehicle_type_id":"4","last_reported":1761898470,"current_range_meters":15200,"station_id":"ce4bgt92rcd13ifvqcf0","pricing_plan_id":"cebpf4jnsgd1na2vs0mg"},{"bike_id":"d367e803-0cc0-433f-bfa1-60ffe7c595bd","system_id":"levelo_inurba_marseille","lat":43.307388,"lon":5.424418,"is_reserved":false,"is_disabled":false,"rental_uris":{"android":"levelo://app?vid=d367e803-0cc0-433f-bfa1-60ffe7c595bd","ios":"levelo://app?vid=d367e803-0cc0-433f-bfa1-60ffe7c595bd"},"vehicle_type_id":"4","last_reported":1761898470,"current_range_meters":15200,"station_id":"st_cvj6ca6bvosntc0bfgr0","pricing_plan_id":"cebpf4jnsgd1na2vs0mg"},{"bike_id":"b79c829a-4f0c-4640-98f4-a74f60bf3247","system_id":"levelo_inurba_marseille","lat":43.24664,"lon":5.3816,"is_reserved":false,"is_disabled":false,"rental_uris":{"android":"levelo://app?vid=b79c829a-4f0c-4640-98f4-a74f60bf3247","ios":"levelo://app?vid=b79c829a-4f0c-4640-98f4-a74f60bf3247"},"vehicle_type_id":"4","last_reported":1761898470,"current_range_meters":15200,"station_id":"ce4bhih2rcd13ifvqfr0","pricing_plan_id":"cebpf4jnsgd1na2vs0mg"},{"bike_id":"467ad5f0-709e-4541-bd1b-d85c8a863052","system_id":"levelo_inurba_marseille","lat":43.30138,"lon":5.3741,"is_reserved":false,"is_disabled":false,"rental_uris":{"android":"levelo://app?vid=467ad5f0-709e-4541-bd1b-d85c8a863052","ios":"levelo://app?vid=467ad5f0-709e-4541-bd1b-d85c8a863052"},"vehicle_type_id":"4","last_reported":1761898470,"current_range_meters":16000,"station_id":"ce4bgs92rcd13ifvqcc0","pricing_plan_id":"cebpf4jnsgd1na2vs0mg"},{"bike_id":"aad6a064-c048-4ba9-a156-1745b89548aa","system_id":"levelo_inurba_marseille","lat":43.283148,"lon":5.411065,"is_reserved":false,"is_disabled":false,"rental_uris":{"android":"levelo://app?vid=aad6a064-c048-4ba9-a156-1745b89548aa","ios":"levelo://app?vid=aad6a064-c048-4ba9-a156-1745b89548aa"},"vehicle_type_id":"4","last_reported":1761898470,"current_range_meters":16000,"station_id":"","pricing_plan_id":"cebpf4jnsgd1na2vs0mg"},{"bike_id":"827b32d1-70cd-4440-b02b-1abe653af200","system_id":"levelo_inurba_marseille","lat":43.30459,"lon":5.37903,"is_reserved":false,"is_disabled":false,"rental_uris":{"android":"levelo://app?vid=827b32d1-70cd-4440-b02b-1abe653af200","ios":"levelo://app?vid=827b32d1-70cd-4440-b02b-1abe653af200"},"vehicle_type_id":"4","last_reported":1761898470,"current_range_meters":16000,"station_id":"ce4bgup2rcd13ifvqcn0","pricing_plan_id":"cebpf4jnsgd1na2vs0mg"},{"bike_id":"ec8e4f97-d500-4b79-b9f1-140344d7f670","system_id":"levelo_inurba_marseille","lat":43.23137,"lon":5.4375,"is_reserved":false,"is_disabled":false,"rental_uris":{"android":"levelo://app?vid=ec8e4f97-d500-4b79-b9f1-140344d7f670","ios":"levelo://app?vid=ec8e4f97-d500-4b79-b9f1-140344d7f670"},"vehicle_type_id":"4","last_reported":1761898470,"current_range_meters":16000,"station_id":"ce4bhmp2rcd13ifvqgog","pricing_plan_id":"cebpf4jnsgd1na2vs0mg"},{"bike_id":"8165f6ad-0457-4c12-8182-2c24600da263","system_id":"levelo_inurba_marseille","lat":43.26672,"lon":5.38264,"is_reserved":false,"is_disabled":false,"rental_uris":{"android":"levelo://app?vid=8165f6ad-0457-4c12-8182-2c24600da263","ios":"levelo://app?vid=8165f6ad-0457-4c12-8182-2c24600da263"},"vehicle_type_id":"4","last_reported":1761898470,"current_range_meters":16400,"station_id":"ce4bhg92rcd13ifvqf90","pricing_plan_id":"cebpf4jnsgd1na2vs0mg"},{"bike_id":"6cd59db7-cb12-4301-8385-22b87d7a5cfd","system_id":"levelo_inurba_marseille","lat":43.285367,"lon":5.440983,"is_reserved":false,"is_disabled":true,"rental_uris":{"android":"levelo://app?vid=6cd59db7-cb12-4301-8385-22b87d7a5cfd","ios":"levelo://app?vid=6cd59db7-cb12-4301-8385-22b87d7a5cfd"},"vehicle_type_id":"4","last_reported":1761898470,"current_range_meters":16400,"station_id":"st_d3j3df2ikq2c7380ej80","pricing_plan_id":"cebpf4jnsgd1na2vs0mg"},{"bike_id":"718f373e-eae7-4038-aa89-08808e83aa4a","system_id":"levelo_inurba_marseille","lat":43.31332,"lon":5.36752,"is_reserved":false,"is_disabled":false,"rental_uris":{"android":"levelo://app?vid=718f373e-eae7-4038-aa89-08808e83aa4a","ios":"levelo://app?vid=718f373e-eae7-4038-aa89-08808e83aa4a"},"vehicle_type_id":"4","last_reported":1761898470,"current_range_meters":16400,"station_id":"ce4bgr92rcd13ifvqc6g","pricing_plan_id":"cebpf4jnsgd1na2vs0mg"},{"bike_id":"3b8d8128-20c3-4189-8013-ffc8bbfec252","system_id":"levelo_inurba_marseille","lat":43.28607,"lon":5.35115,"is_reserved":false,"is_disabled":false,"rental_uris":{"android":"levelo://app?vid=3b8d8128-20c3-4189-8013-ffc8bbfec252","ios":"levelo://app?vid=3b8d8128-20c3-4189-8013-ffc8bbfec252"},"vehicle_type_id":"4","last_reported":1761898470,"current_range_meters":16400,"station_id":"ce4bhch2rcd13ifvqeug","pricing_plan_id":"cebpf4jnsgd1na2vs0mg"},{"bike_id":"90cc4e35-1e9a-4d48-878d-a3997094c0ce","system_id":"levelo_inurba_marseille","lat":43.246379,"lon":5.431478,"is_reserved":false,"is_disabled":false,"rental_uris":{"android":"levelo://app?vid=90cc4e35-1e9a-4d48-878d-a3997094c0ce","ios":"levelo://app?vid=90cc4e35-1e9a-4d48-878d-a3997094c0ce"},"vehicle_type_id":"4","last_reported":1761898470,"current_range_meters":16400,"station_id":"st_d2m6c4gdas8pm72e190g","pricing_plan_id":"cebpf4jnsgd1na2vs0mg"},{"bike_id":"319b8584-93f2-449c-b056-ea3f20ebc971","system_id":"levelo_inurba_marseille","lat":43.28537,"lon":5.43045,"is_reserved":false,"is_disabled":false,"rental_uris":{"android":"levelo://app?vid=319b8584-93f2-449c-b056-ea3f20ebc971","ios":"levelo://app?vid=319b8584-93f2-449c-b056-ea3f20ebc971"},"vehicle_type_id":"4","last_reported":1761898470,"current_range_meters":16400,"station_id":"","pricing_plan_id":"cebpf4jnsgd1na2vs0mg"},{"bike_id":"0dc930ae-88e6-493c-ab95-8df0b3ac1f8b","system_id":"levelo_inurba_marseille","lat":43.29902,"lon":5.43647,"is_reserved":false,"is_disabled":false,"rental_uris":{"android":"levelo://app?vid=0dc930ae-88e6-493c-ab95-8df0b3ac1f8b","ios":"levelo://app?vid=0dc930ae-88e6-493c-ab95-8df0b3ac1f8b"},"vehicle_type_id":"4","last_reported":1761898470,"current_range_meters":16800,"station_id":"ce4bhpp2rcd13ifvqhfg","pricing_plan_id":"cebpf4jnsgd1na2vs0mg"},{"bike_id":"e194b660-d5d7-4c82-a773-e5d9bc91a79b","system_id":"levelo_inurba_marseille","lat":43.337444,"lon":5.374475,"is_reserved":false,"is_disabled":false,"rental_uris":{"android":"levelo://app?vid=e194b660-d5d7-4c82-a773-e5d9bc91a79b","ios":"levelo://app?vid=e194b660-d5d7-4c82-a773-e5d9bc91a79b"},"vehicle_type_id":"4","last_reported":1761898470,"current_range_meters":16800,"station_id":"","pricing_plan_id":"cebpf4jnsgd1na2vs0mg"},{"bike_id":"e974006c-e3c8-4c1a-9a8d-ea5c7e7acb49","system_id":"levelo_inurba_marseille","lat":43.28535,"lon":5.44089,"is_reserved":false,"is_disabled":false,"rental_uris":{"android":"levelo://app?vid=e974006c-e3c8-4c1a-9a8d-ea5c7e7acb49","ios":"levelo://app?vid=e974006c-e3c8-4c1a-9a8d-ea5c7e7acb49"},"vehicle_type_id":"4","last_reported":1761898470,"current_range_meters":16800,"station_id":"st_d3j3df2ikq2c7380ej80","pricing_plan_id":"cebpf4jnsgd1na2vs0mg"},{"bike_id":"a74ca4e6-9019-4ce4-a364-7a22bd8e206a","system_id":"levelo_inurba_marseille","lat":43.264968,"lon":5.385233,"is_reserved":false,"is_disabled":false,"rental_uris":{"android":"levelo://app?vid=a74ca4e6-9019-4ce4-a364-7a22bd8e206a","ios":"levelo://app?vid=a74ca4e6-9019-4ce4-a364-7a22bd8e206a"},"vehicle_type_id":"4","last_reported":1761898470,"current_range_meters":16800,"station_id":"","pricing_plan_id":"cebpf4jnsgd1na2vs0mg"},{"bike_id":"c015c7a2-82a9-4665-ab56-4c69e7c6c92c","system_id":"levelo_inurba_marseille","lat":43.27911,"lon":5.39585,"is_reserved":false,"is_disabled":false,"rental_uris":{"android":"levelo://app?vid=c015c7a2-82a9-4665-ab56-4c69e7c6c92c","ios":"levelo://app?vid=c015c7a2-82a9-4665-ab56-4c69e7c6c92c"},"vehicle_type_id":"4","last_reported":1761898470,"current_range_meters":16800,"station_id":"ce4bhf92rcd13ifvqf40","pricing_plan_id":"cebpf4jnsgd1na2vs0mg"},{"bike_id":"653e2983-3936-471c-9120-a2fc4d2aff97","system_id":"levelo_inurba_marseille","lat":43.2866,"lon":5.36357,"is_reserved":false,"is_disabled":false,"rental_uris":{"android":"levelo://app?vid=653e2983-3936-471c-9120-a2fc4d2aff97","ios":"levelo://app?vid=653e2983-3936-471c-9120-a2fc4d2aff97"},"vehicle_type_id":"4","last_reported":1761898470,"current_range_meters":17200,"station_id":"ce4bhah2rcd13ifvqej0","pricing_plan_id":"cebpf4jnsgd1na2vs0mg"},{"bike_id":"a9cdbb07-222c-4ae2-b8a0-add1896b5ebf","system_id":"levelo_inurba_marseille","lat":43.26067,"lon":5.39389,"is_reserved":false,"is_disabled":false,"rental_uris":{"android":"levelo://app?vid=a9cdbb07-222c-4ae2-b8a0-add1896b5ebf","ios":"levelo://app?vid=a9cdbb07-222c-4ae2-b8a0-add1896b5ebf"},"vehicle_type_id":"4","last_reported":1761898470,"current_range_meters":17200,"station_id":"ce4bhh92rcd13ifvqfj0","pricing_plan_id":"cebpf4jnsgd1na2vs0mg"},{"bike_id":"856797ce-229e-4cfe-be8b-1d125da1c74b","system_id":"levelo_inurba_marseille","lat":43.24952,"lon":5.40481,"is_reserved":false,"is_disabled":false,"rental_uris":{"android":"levelo://app?vid=856797ce-229e-4cfe-be8b-1d125da1c74b","ios":"levelo://app?vid=856797ce-229e-4cfe-be8b-1d125da1c74b"},"vehicle_type_id":"4","last_reported":1761898470,"current_range_meters":17200,"station_id":"st_d2ngiaodas8pm72gd1h0","pricing_plan_id":"cebpf4jnsgd1na2vs0mg"},{"bike_id":"f6d6a3c0-783e-4004-bcd8-b0e716945230","system_id":"levelo_inurba_marseille","lat":43.30885,"lon":5.37192,"is_reserved":false,"is_disabled":false,"rental_uris":{"android":"levelo://app?vid=f6d6a3c0-783e-4004-bcd8-b0e716945230","ios":"levelo://app?vid=f6d6a3c0-783e-4004-bcd8-b0e716945230"},"vehicle_type_id":"4","last_reported":1761898470,"current_range_meters":17200,"station_id":"ce4bguh2rcd13ifvqckg","pricing_plan_id":"cebpf4jnsgd1na2vs0mg"},{"bike_id":"ebd93f21-bec2-4983-9bca-2ebb19fffa04","system_id":"levelo_inurba_marseille","lat":43.251068,"lon":5.403244,"is_reserved":false,"is_disabled":false,"rental_uris":{"android":"levelo://app?vid=ebd93f21-bec2-4983-9bca-2ebb19fffa04","ios":"levelo://app?vid=ebd93f21-bec2-4983-9bca-2ebb19fffa04"},"vehicle_type_id":"4","last_reported":1761898470,"current_range_meters":17200,"station_id":"ce4bhlh2rcd13ifvqgig","pricing_plan_id":"cebpf4jnsgd1na2vs0mg"},{"bike_id":"e7ead618-cc2b-4c53-bc61-330caff21889","system_id":"levelo_inurba_marseille","lat":43.25338,"lon":5.42171,"is_reserved":false,"is_disabled":false,"rental_uris":{"android":"levelo://app?vid=e7ead618-cc2b-4c53-bc61-330caff21889","ios":"levelo://app?vid=e7ead618-cc2b-4c53-bc61-330caff21889"},"vehicle_type_id":"4","last_reported":1761898470,"current_range_meters":17200,"station_id":"st_d2m65c5bi1j21697t3ng","pricing_plan_id":"cebpf4jnsgd1na2vs0mg"},{"bike_id":"efab51bb-2873-49b5-8a21-1850eb33cbaf","system_id":"levelo_inurba_marseille","lat":43.24085,"lon":5.37762,"is_reserved":false,"is_disabled":false,"rental_uris":{"android":"levelo://app?vid=efab51bb-2873-49b5-8a21-1850eb33cbaf","ios":"levelo://app?vid=efab51bb-2873-49b5-8a21-1850eb33cbaf"},"vehicle_type_id":"4","last_reported":1761898470,"current_range_meters":17200,"station_id":"ce4bhnp2rcd13ifvqgvg","pricing_plan_id":"cebpf4jnsgd1na2vs0mg"},{"bike_id":"ea4d1a0e-1bf9-49b6-ac1e-1a7c3a4023a0","system_id":"levelo_inurba_marseille","lat":43.25001,"lon":5.38923,"is_reserved":false,"is_disabled":false,"rental_uris":{"android":"levelo://app?vid=ea4d1a0e-1bf9-49b6-ac1e-1a7c3a4023a0","ios":"levelo://app?vid=ea4d1a0e-1bf9-49b6-ac1e-1a7c3a4023a0"},"vehicle_type_id":"4","last_reported":1761898470,"current_range_meters":17200,"station_id":"ce4bhgp2rcd13ifvqfd0","pricing_plan_id":"cebpf4jnsgd1na2vs0mg"},{"bike_id":"7225c224-7be4-46ec-80c9-e0f25e21296d","system_id":"levelo_inurba_marseille","lat":43.337444,"lon":5.374475,"is_reserved":false,"is_disabled":false,"rental_uris":{"android":"levelo://app?vid=7225c224-7be4-46ec-80c9-e0f25e21296d","ios":"levelo://app?vid=7225c224-7be4-46ec-80c9-e0f25e21296d"},"vehicle_type_id":"4","last_reported":1761898470,"current_range_meters":17200,"station_id":"ce4bhl12rcd13ifvqgf0","pricing_plan_id":"cebpf4jnsgd1na2vs0mg"},{"bike_id":"74c92432-071a-4cbc-9f12-0b0b3a01b2a6","system_id":"levelo_inurba_marseille","lat":43.282028,"lon":5.39055,"is_reserved":false,"is_disabled":false,"rental_uris":{"android":"levelo://app?vid=74c92432-071a-4cbc-9f12-0b0b3a01b2a6","ios":"levelo://app?vid=74c92432-071a-4cbc-9f12-0b0b3a01b2a6"},"vehicle_type_id":"4","last_reported":1761898470,"current_range_meters":17200,"station_id":"ce4bhn92rcd13ifvqgsg","pricing_plan_id":"cebpf4jnsgd1na2vs0mg"},{"bike_id":"e0d54695-e2e6-4a7d-b4ff-43fb26bfe078","system_id":"levelo_inurba_marseille","lat":43.30555,"lon":5.3655,"is_reserved":false,"is_disabled":false,"rental_uris":{"android":"levelo://app?vid=e0d54695-e2e6-4a7d-b4ff-43fb26bfe078","ios":"levelo://app?vid=e0d54695-e2e6-4a7d-b4ff-43fb26bfe078"},"vehicle_type_id":"4","last_reported":1761898470,"current_range_meters":17200,"station_id":"ce4bgs12rcd13ifvqcag","pricing_plan_id":"cebpf4jnsgd1na2vs0mg"},{"bike_id":"1bb4852f-ebed-45bc-a351-def12da172f6","system_id":"levelo_inurba_marseille","lat":43.25928,"lon":5.4091,"is_reserved":false,"is_disabled":false,"rental_uris":{"android":"levelo://app?vid=1bb4852f-ebed-45bc-a351-def12da172f6","ios":"levelo://app?vid=1bb4852f-ebed-45bc-a351-def12da172f6"},"vehicle_type_id":"4","last_reported":1761898470,"current_range_meters":17200,"station_id":"ce4bhm92rcd13ifvqglg","pricing_plan_id":"cebpf4jnsgd1na2vs0mg"},{"bike_id":"5520c76b-01be-41fc-bd60-376896635d08","system_id":"levelo_inurba_marseille","lat":43.28416,"lon":5.37531,"is_reserved":false,"is_disabled":false,"rental_uris":{"android":"levelo://app?vid=5520c76b-01be-41fc-bd60-376896635d08","ios":"levelo://app?vid=5520c76b-01be-41fc-bd60-376896635d08"},"vehicle_type_id":"4","last_reported":1761898470,"current_range_meters":17600,"station_id":"ce4bh412rcd13ifvqds0","pricing_plan_id":"cebpf4jnsgd1na2vs0mg"},{"bike_id":"6a7b76f0-c0cf-440a-bbbe-885964a77a88","system_id":"levelo_inurba_marseille","lat":43.25337,"lon":5.42169,"is_reserved":false,"is_disabled":false,"rental_uris":{"android":"levelo://app?vid=6a7b76f0-c0cf-440a-bbbe-885964a77a88","ios":"levelo://app?vid=6a7b76f0-c0cf-440a-bbbe-885964a77a88"},"vehicle_type_id":"4","last_reported":1761898470,"current_range_meters":17600,"station_id":"st_d2m65c5bi1j21697t3ng","pricing_plan_id":"cebpf4jnsgd1na2vs0mg"},{"bike_id":"12c24c1a-5f34-4e4f-b6c0-f07cd6755b8d","system_id":"levelo_inurba_marseille","lat":43.249494,"lon":5.405091,"is_reserved":false,"is_disabled":false,"rental_uris":{"android":"levelo://app?vid=12c24c1a-5f34-4e4f-b6c0-f07cd6755b8d","ios":"levelo://app?vid=12c24c1a-5f34-4e4f-b6c0-f07cd6755b8d"},"vehicle_type_id":"4","last_reported":1761898470,"current_range_meters":17600,"station_id":"st_d2ngiaodas8pm72gd1h0","pricing_plan_id":"cebpf4jnsgd1na2vs0mg"},{"bike_id":"b9d2a6bf-bf3c-4f93-9477-0a76cf804f60","system_id":"levelo_inurba_marseille","lat":43.27913,"lon":5.39583,"is_reserved":false,"is_disabled":false,"rental_uris":{"android":"levelo://app?vid=b9d2a6bf-bf3c-4f93-9477-0a76cf804f60","ios":"levelo://app?vid=b9d2a6bf-bf3c-4f93-9477-0a76cf804f60"},"vehicle_type_id":"4","last_reported":1761898470,"current_range_meters":17600,"station_id":"ce4bhf92rcd13ifvqf40","pricing_plan_id":"cebpf4jnsgd1na2vs0mg"},{"bike_id":"b1e81361-2b17-4ef1-8a58-6def5753471b","system_id":"levelo_inurba_marseille","lat":43.33753,"lon":5.37484,"is_reserved":false,"is_disabled":false,"rental_uris":{"android":"levelo://app?vid=b1e81361-2b17-4ef1-8a58-6def5753471b","ios":"levelo://app?vid=b1e81361-2b17-4ef1-8a58-6def5753471b"},"vehicle_type_id":"4","last_reported":1761898470,"current_range_meters":17600,"station_id":"","pricing_plan_id":"cebpf4jnsgd1na2vs0mg"},{"bike_id":"52b117f2-4c01-4f66-887d-006722496528","system_id":"levelo_inurba_marseille","lat":43.308706,"lon":5.371387,"is_reserved":false,"is_disabled":false,"rental_uris":{"android":"levelo://app?vid=52b117f2-4c01-4f66-887d-006722496528","ios":"levelo://app?vid=52b117f2-4c01-4f66-887d-006722496528"},"vehicle_type_id":"4","last_reported":1761898470,"current_range_meters":17600,"station_id":"ce4bguh2rcd13ifvqckg","pricing_plan_id":"cebpf4jnsgd1na2vs0mg"},{"bike_id":"a9bd6156-5973-4728-a560-5afb8e593a6c","system_id":"levelo_inurba_marseille","lat":43.30464,"lon":5.37914,"is_reserved":false,"is_disabled":false,"rental_uris":{"android":"levelo://app?vid=a9bd6156-5973-4728-a560-5afb8e593a6c","ios":"levelo://app?vid=a9bd6156-5973-4728-a560-5afb8e593a6c"},"vehicle_type_id":"4","last_reported":1761898470,"current_range_meters":17600,"station_id":"ce4bgup2rcd13ifvqcn0","pricing_plan_id":"cebpf4jnsgd1na2vs0mg"},{"bike_id":"933ed787-74a5-45ae-8d47-34a1b88d6813","system_id":"levelo_inurba_marseille","lat":43.23159,"lon":5.43713,"is_reserved":false,"is_disabled":false,"rental_uris":{"android":"levelo://app?vid=933ed787-74a5-45ae-8d47-34a1b88d6813","ios":"levelo://app?vid=933ed787-74a5-45ae-8d47-34a1b88d6813"},"vehicle_type_id":"4","last_reported":1761898470,"current_range_meters":17600,"station_id":"ce4bhmp2rcd13ifvqgog","pricing_plan_id":"cebpf4jnsgd1na2vs0mg"},{"bike_id":"b1529460-35c1-49c7-a059-1efcb986b42d","system_id":"levelo_inurba_marseille","lat":43.287656,"lon":5.384312,"is_reserved":false,"is_disabled":false,"rental_uris":{"android":"levelo://app?vid=b1529460-35c1-49c7-a059-1efcb986b42d","ios":"levelo://app?vid=b1529460-35c1-49c7-a059-1efcb986b42d"},"vehicle_type_id":"4","last_reported":1761898470,"current_range_meters":18000,"station_id":"","pricing_plan_id":"cebpf4jnsgd1na2vs0mg"},{"bike_id":"86f79429-0301-49ed-a161-08d0403b7392","system_id":"levelo_inurba_marseille","lat":43.288043,"lon":5.352421,"is_reserved":false,"is_disabled":true,"rental_uris":{"android":"levelo://app?vid=86f79429-0301-49ed-a161-08d0403b7392","ios":"levelo://app?vid=86f79429-0301-49ed-a161-08d0403b7392"},"vehicle_type_id":"4","last_reported":1761898470,"current_range_meters":18000,"station_id":"","pricing_plan_id":"cebpf4jnsgd1na2vs0mg"},{"bike_id":"81ddfa84-8a38-4992-b757-66a5e1097b2f","system_id":"levelo_inurba_marseille","lat":43.29912,"lon":5.43666,"is_reserved":false,"is_disabled":true,"rental_uris":{"android":"levelo://app?vid=81ddfa84-8a38-4992-b757-66a5e1097b2f","ios":"levelo://app?vid=81ddfa84-8a38-4992-b757-66a5e1097b2f"},"vehicle_type_id":"4","last_reported":1761898470,"current_range_meters":18000,"station_id":"ce4bhpp2rcd13ifvqhfg","pricing_plan_id":"cebpf4jnsgd1na2vs0mg"},{"bike_id":"3fdd4075-2d2f-41f7-b068-ea13f83763a0","system_id":"levelo_inurba_marseille","lat":43.329713,"lon":5.39004,"is_reserved":false,"is_disabled":false,"rental_uris":{"android":"levelo://app?vid=3fdd4075-2d2f-41f7-b068-ea13f83763a0","ios":"levelo://app?vid=3fdd4075-2d2f-41f7-b068-ea13f83763a0"},"vehicle_type_id":"4","last_reported":1761898470,"current_range_meters":18000,"station_id":"","pricing_plan_id":"cebpf4jnsgd1na2vs0mg"},{"bike_id":"1b650ca0-5735-437b-9942-95c69998766b","system_id":"levelo_inurba_marseille","lat":43.25,"lon":5.38925,"is_reserved":false,"is_disabled":false,"rental_uris":{"android":"levelo://app?vid=1b650ca0-5735-437b-9942-95c69998766b","ios":"levelo://app?vid=1b650ca0-5735-437b-9942-95c69998766b"},"vehicle_type_id":"4","last_reported":1761898470,"current_range_meters":18000,"station_id":"ce4bhgp2rcd13ifvqfd0","pricing_plan_id":"cebpf4jnsgd1na2vs0mg"},{"bike_id":"d14a2a0b-f3d8-4e2e-b76b-b11ce4a631d8","system_id":"levelo_inurba_marseille","lat":43.26785,"lon":5.39414,"is_reserved":false,"is_disabled":false,"rental_uris":{"android":"levelo://app?vid=d14a2a0b-f3d8-4e2e-b76b-b11ce4a631d8","ios":"levelo://app?vid=d14a2a0b-f3d8-4e2e-b76b-b11ce4a631d8"},"vehicle_type_id":"4","last_reported":1761898470,"current_range_meters":18000,"station_id":"ce4bhh12rcd13ifvqfg0","pricing_plan_id":"cebpf4jnsgd1na2vs0mg"},{"bike_id":"6daff1b2-0ad6-4766-9539-d584aea6793d","system_id":"levelo_inurba_marseille","lat":43.28418,"lon":5.37526,"is_reserved":false,"is_disabled":false,"rental_uris":{"android":"levelo://app?vid=6daff1b2-0ad6-4766-9539-d584aea6793d","ios":"levelo://app?vid=6daff1b2-0ad6-4766-9539-d584aea6793d"},"vehicle_type_id":"4","last_reported":1761898470,"current_range_meters":18000,"station_id":"ce4bh412rcd13ifvqds0","pricing_plan_id":"cebpf4jnsgd1na2vs0mg"},{"bike_id":"66d1b883-a295-45c2-baab-6afdc884354b","system_id":"levelo_inurba_marseille","lat":43.33025,"lon":5.39035,"is_reserved":false,"is_disabled":false,"rental_uris":{"android":"levelo://app?vid=66d1b883-a295-45c2-baab-6afdc884354b","ios":"levelo://app?vid=66d1b883-a295-45c2-baab-6afdc884354b"},"vehicle_type_id":"4","last_reported":1761898470,"current_range_meters":18000,"station_id":"ce4bhr92rcd13ifvqhrg","pricing_plan_id":"cebpf4jnsgd1na2vs0mg"},{"bike_id":"f1bfa7ee-e707-4bf3-b3ac-efd4e54c16f5","system_id":"levelo_inurba_marseille","lat":43.249511,"lon":5.404929,"is_reserved":false,"is_disabled":false,"rental_uris":{"android":"levelo://app?vid=f1bfa7ee-e707-4bf3-b3ac-efd4e54c16f5","ios":"levelo://app?vid=f1bfa7ee-e707-4bf3-b3ac-efd4e54c16f5"},"vehicle_type_id":"4","last_reported":1761898470,"current_range_meters":18000,"station_id":"st_d2ngiaodas8pm72gd1h0","pricing_plan_id":"cebpf4jnsgd1na2vs0mg"},{"bike_id":"02d869e4-5856-4b89-b4f7-83a21afde51d","system_id":"levelo_inurba_marseille","lat":43.211979,"lon":5.350712,"is_reserved":false,"is_disabled":false,"rental_uris":{"android":"levelo://app?vid=02d869e4-5856-4b89-b4f7-83a21afde51d","ios":"levelo://app?vid=02d869e4-5856-4b89-b4f7-83a21afde51d"},"vehicle_type_id":"4","last_reported":1761898470,"current_range_meters":18000,"station_id":"st_cvj6sg6p6f1abm77japg","pricing_plan_id":"cebpf4jnsgd1na2vs0mg"},{"bike_id":"5329277d-b696-4f32-9412-95d13ccb7cbb","system_id":"levelo_inurba_marseille","lat":43.298109,"lon":5.440608,"is_reserved":false,"is_disabled":false,"rental_uris":{"android":"levelo://app?vid=5329277d-b696-4f32-9412-95d13ccb7cbb","ios":"levelo://app?vid=5329277d-b696-4f32-9412-95d13ccb7cbb"},"vehicle_type_id":"4","last_reported":1761898470,"current_range_meters":18800,"station_id":"st_d3jp68qikq2c7381ktn0","pricing_plan_id":"cebpf4jnsgd1na2vs0mg"},{"bike_id":"2ad98fbe-d51b-4d04-a793-bb4d7c332ba6","system_id":"levelo_inurba_marseille","lat":43.27918,"lon":5.39574,"is_reserved":false,"is_disabled":false,"rental_uris":{"android":"levelo://app?vid=2ad98fbe-d51b-4d04-a793-bb4d7c332ba6","ios":"levelo://app?vid=2ad98fbe-d51b-4d04-a793-bb4d7c332ba6"},"vehicle_type_id":"4","last_reported":1761898470,"current_range_meters":18800,"station_id":"ce4bhf92rcd13ifvqf40","pricing_plan_id":"cebpf4jnsgd1na2vs0mg"},{"bike_id":"98bf14ae-2ea3-45e7-bc07-5b3131510cca","system_id":"levelo_inurba_marseille","lat":43.255785,"lon":5.382414,"is_reserved":false,"is_disabled":false,"rental_uris":{"android":"levelo://app?vid=98bf14ae-2ea3-45e7-bc07-5b3131510cca","ios":"levelo://app?vid=98bf14ae-2ea3-45e7-bc07-5b3131510cca"},"vehicle_type_id":"4","last_reported":1761898470,"current_range_meters":18800,"station_id":"ce4bhih2rcd13ifvqfs0","pricing_plan_id":"cebpf4jnsgd1na2vs0mg"},{"bike_id":"940a4f66-3fe2-481c-8713-06488fcd7bd2","system_id":"levelo_inurba_marseille","lat":43.305997,"lon":5.393733,"is_reserved":false,"is_disabled":false,"rental_uris":{"android":"levelo://app?vid=940a4f66-3fe2-481c-8713-06488fcd7bd2","ios":"levelo://app?vid=940a4f66-3fe2-481c-8713-06488fcd7bd2"},"vehicle_type_id":"4","last_reported":1761898470,"current_range_meters":18800,"station_id":"ce4bh0p2rcd13ifvqd80","pricing_plan_id":"cebpf4jnsgd1na2vs0mg"},{"bike_id":"433835cd-5931-471d-9ba5-be7f9eb82e56","system_id":"levelo_inurba_marseille","lat":43.249878,"lon":5.389406,"is_reserved":false,"is_disabled":false,"rental_uris":{"android":"levelo://app?vid=433835cd-5931-471d-9ba5-be7f9eb82e56","ios":"levelo://app?vid=433835cd-5931-471d-9ba5-be7f9eb82e56"},"vehicle_type_id":"4","last_reported":1761898470,"current_range_meters":19200,"station_id":"ce4bhgp2rcd13ifvqfd0","pricing_plan_id":"cebpf4jnsgd1na2vs0mg"},{"bike_id":"2819da96-e74b-4499-817d-c62867e34f4e","system_id":"levelo_inurba_marseille","lat":43.29846,"lon":5.36273,"is_reserved":false,"is_disabled":false,"rental_uris":{"android":"levelo://app?vid=2819da96-e74b-4499-817d-c62867e34f4e","ios":"levelo://app?vid=2819da96-e74b-4499-817d-c62867e34f4e"},"vehicle_type_id":"4","last_reported":1761898470,"current_range_meters":19200,"station_id":"ce4bgpp2rcd13ifvqc3g","pricing_plan_id":"cebpf4jnsgd1na2vs0mg"},{"bike_id":"609eccca-b55b-4605-87cd-a8fbec0dfdd6","system_id":"levelo_inurba_marseille","lat":43.296328,"lon":5.406003,"is_reserved":false,"is_disabled":false,"rental_uris":{"android":"levelo://app?vid=609eccca-b55b-4605-87cd-a8fbec0dfdd6","ios":"levelo://app?vid=609eccca-b55b-4605-87cd-a8fbec0dfdd6"},"vehicle_type_id":"4","last_reported":1761898470,"current_range_meters":19200,"station_id":"ce4bh0h2rcd13ifvqd60","pricing_plan_id":"cebpf4jnsgd1na2vs0mg"},{"bike_id":"e04f332d-b41c-47fd-b12f-6fdc7d63f429","system_id":"levelo_inurba_marseille","lat":43.30827,"lon":5.3826,"is_reserved":false,"is_disabled":false,"rental_uris":{"android":"levelo://app?vid=e04f332d-b41c-47fd-b12f-6fdc7d63f429","ios":"levelo://app?vid=e04f332d-b41c-47fd-b12f-6fdc7d63f429"},"vehicle_type_id":"4","last_reported":1761898470,"current_range_meters":19200,"station_id":"","pricing_plan_id":"cebpf4jnsgd1na2vs0mg"},{"bike_id":"a392bf9c-c69f-4d5a-a05c-ffa81f4baff4","system_id":"levelo_inurba_marseille","lat":43.30132,"lon":5.3879,"is_reserved":false,"is_disabled":false,"rental_uris":{"android":"levelo://app?vid=a392bf9c-c69f-4d5a-a05c-ffa81f4baff4","ios":"levelo://app?vid=a392bf9c-c69f-4d5a-a05c-ffa81f4baff4"},"vehicle_type_id":"4","last_reported":1761898470,"current_range_meters":19200,"station_id":"ce4bghh2rcd13ifvqb60","pricing_plan_id":"cebpf4jnsgd1na2vs0mg"},{"bike_id":"4637449d-daaf-4e87-b7f5-54ac3f0d3bc0","system_id":"levelo_inurba_marseille","lat":43.24179,"lon":5.39726,"is_reserved":false,"is_disabled":false,"rental_uris":{"android":"levelo://app?vid=4637449d-daaf-4e87-b7f5-54ac3f0d3bc0","ios":"levelo://app?vid=4637449d-daaf-4e87-b7f5-54ac3f0d3bc0"},"vehicle_type_id":"4","last_reported":1761898470,"current_range_meters":19200,"station_id":"ce4bhn12rcd13ifvqgpg","pricing_plan_id":"cebpf4jnsgd1na2vs0mg"},{"bike_id":"82ce3364-cc52-46c8-af40-f241f4a5e78d","system_id":"levelo_inurba_marseille","lat":43.31346,"lon":5.36734,"is_reserved":false,"is_disabled":false,"rental_uris":{"android":"levelo://app?vid=82ce3364-cc52-46c8-af40-f241f4a5e78d","ios":"levelo://app?vid=82ce3364-cc52-46c8-af40-f241f4a5e78d"},"vehicle_type_id":"4","last_reported":1761898470,"current_range_meters":19200,"station_id":"ce4bgr92rcd13ifvqc6g","pricing_plan_id":"cebpf4jnsgd1na2vs0mg"},{"bike_id":"7512929f-5f1c-4e15-aaa8-63bfbc4a2eb6","system_id":"levelo_inurba_marseille","lat":43.24998,"lon":5.3893,"is_reserved":false,"is_disabled":false,"rental_uris":{"android":"levelo://app?vid=7512929f-5f1c-4e15-aaa8-63bfbc4a2eb6","ios":"levelo://app?vid=7512929f-5f1c-4e15-aaa8-63bfbc4a2eb6"},"vehicle_type_id":"4","last_reported":1761898470,"current_range_meters":19200,"station_id":"ce4bhgp2rcd13ifvqfd0","pricing_plan_id":"cebpf4jnsgd1na2vs0mg"},{"bike_id":"8a2717b0-8201-4a2c-97f5-8550c8169eb3","system_id":"levelo_inurba_marseille","lat":43.25086,"lon":5.39517,"is_reserved":false,"is_disabled":false,"rental_uris":{"android":"levelo://app?vid=8a2717b0-8201-4a2c-97f5-8550c8169eb3","ios":"levelo://app?vid=8a2717b0-8201-4a2c-97f5-8550c8169eb3"},"vehicle_type_id":"4","last_reported":1761898470,"current_range_meters":19200,"station_id":"ce4bhm12rcd13ifvqgkg","pricing_plan_id":"cebpf4jnsgd1na2vs0mg"},{"bike_id":"384e46a9-c4fa-40c2-8155-fbec4bdf6911","system_id":"levelo_inurba_marseille","lat":43.25817,"lon":5.39432,"is_reserved":false,"is_disabled":false,"rental_uris":{"android":"levelo://app?vid=384e46a9-c4fa-40c2-8155-fbec4bdf6911","ios":"levelo://app?vid=384e46a9-c4fa-40c2-8155-fbec4bdf6911"},"vehicle_type_id":"4","last_reported":1761898470,"current_range_meters":19600,"station_id":"ce4bhip2rcd13ifvqft0","pricing_plan_id":"cebpf4jnsgd1na2vs0mg"},{"bike_id":"4476fb93-b41b-429c-b66e-779ffc5aabd1","system_id":"levelo_inurba_marseille","lat":43.253286,"lon":5.421795,"is_reserved":false,"is_disabled":false,"rental_uris":{"android":"levelo://app?vid=4476fb93-b41b-429c-b66e-779ffc5aabd1","ios":"levelo://app?vid=4476fb93-b41b-429c-b66e-779ffc5aabd1"},"vehicle_type_id":"4","last_reported":1761898470,"current_range_meters":19600,"station_id":"st_d2m65c5bi1j21697t3ng","pricing_plan_id":"cebpf4jnsgd1na2vs0mg"},{"bike_id":"0ef9099e-a949-4417-976b-3cc771300783","system_id":"levelo_inurba_marseille","lat":43.28477,"lon":5.48392,"is_reserved":false,"is_disabled":false,"rental_uris":{"android":"levelo://app?vid=0ef9099e-a949-4417-976b-3cc771300783","ios":"levelo://app?vid=0ef9099e-a949-4417-976b-3cc771300783"},"vehicle_type_id":"4","last_reported":1761898470,"current_range_meters":19600,"station_id":"st_d3svhcjqgbts73a3dn0g","pricing_plan_id":"cebpf4jnsgd1na2vs0mg"},{"bike_id":"fb5bbde1-17ca-45a2-871a-75bfcf71f4c3","system_id":"levelo_inurba_marseille","lat":43.285296,"lon":5.441039,"is_reserved":false,"is_disabled":false,"rental_uris":{"android":"levelo://app?vid=fb5bbde1-17ca-45a2-871a-75bfcf71f4c3","ios":"levelo://app?vid=fb5bbde1-17ca-45a2-871a-75bfcf71f4c3"},"vehicle_type_id":"4","last_reported":1761898470,"current_range_meters":19600,"station_id":"st_d3j3df2ikq2c7380ej80","pricing_plan_id":"cebpf4jnsgd1na2vs0mg"},{"bike_id":"c04ea6ec-c85d-4b9a-aa74-f0de2415a6d2","system_id":"levelo_inurba_marseille","lat":43.315443,"lon":5.382384,"is_reserved":false,"is_disabled":false,"rental_uris":{"android":"levelo://app?vid=c04ea6ec-c85d-4b9a-aa74-f0de2415a6d2","ios":"levelo://app?vid=c04ea6ec-c85d-4b9a-aa74-f0de2415a6d2"},"vehicle_type_id":"4","last_reported":1761898470,"current_range_meters":19600,"station_id":"","pricing_plan_id":"cebpf4jnsgd1na2vs0mg"},{"bike_id":"fbcc5886-69e3-488f-96fd-e45314a075e6","system_id":"levelo_inurba_marseille","lat":43.28886,"lon":5.42515,"is_reserved":false,"is_disabled":true,"rental_uris":{"android":"levelo://app?vid=fbcc5886-69e3-488f-96fd-e45314a075e6","ios":"levelo://app?vid=fbcc5886-69e3-488f-96fd-e45314a075e6"},"vehicle_type_id":"4","last_reported":1761898470,"current_range_meters":19600,"station_id":"st_d3b462108ojc7389ooeg","pricing_plan_id":"cebpf4jnsgd1na2vs0mg"},{"bike_id":"c02f69db-db51-45e1-8658-2daed4bc3458","system_id":"levelo_inurba_marseille","lat":43.30273,"lon":5.37718,"is_reserved":false,"is_disabled":false,"rental_uris":{"android":"levelo://app?vid=c02f69db-db51-45e1-8658-2daed4bc3458","ios":"levelo://app?vid=c02f69db-db51-45e1-8658-2daed4bc3458"},"vehicle_type_id":"4","last_reported":1761898470,"current_range_meters":19600,"station_id":"ce4bguh2rcd13ifvqcj0","pricing_plan_id":"cebpf4jnsgd1na2vs0mg"},{"bike_id":"a5d08a2b-3be6-4c97-bceb-9f8beea509b3","system_id":"levelo_inurba_marseille","lat":43.29632,"lon":5.40473,"is_reserved":false,"is_disabled":false,"rental_uris":{"android":"levelo://app?vid=a5d08a2b-3be6-4c97-bceb-9f8beea509b3","ios":"levelo://app?vid=a5d08a2b-3be6-4c97-bceb-9f8beea509b3"},"vehicle_type_id":"4","last_reported":1761898470,"current_range_meters":20000,"station_id":"","pricing_plan_id":"cebpf4jnsgd1na2vs0mg"},{"bike_id":"3c7839de-f735-4a0b-9f80-1e40baaca8df","system_id":"levelo_inurba_marseille","lat":43.27964,"lon":5.38733,"is_reserved":false,"is_disabled":false,"rental_uris":{"android":"levelo://app?vid=3c7839de-f735-4a0b-9f80-1e40baaca8df","ios":"levelo://app?vid=3c7839de-f735-4a0b-9f80-1e40baaca8df"},"vehicle_type_id":"4","last_reported":1761898470,"current_range_meters":20000,"station_id":"ce4bhg12rcd13ifvqf80","pricing_plan_id":"cebpf4jnsgd1na2vs0mg"},{"bike_id":"ce6cef8d-1cff-4e0e-b8f5-34e48a719f59","system_id":"levelo_inurba_marseille","lat":43.25937,"lon":5.40908,"is_reserved":false,"is_disabled":false,"rental_uris":{"android":"levelo://app?vid=ce6cef8d-1cff-4e0e-b8f5-34e48a719f59","ios":"levelo://app?vid=ce6cef8d-1cff-4e0e-b8f5-34e48a719f59"},"vehicle_type_id":"4","last_reported":1761898470,"current_range_meters":20000,"station_id":"ce4bhm92rcd13ifvqglg","pricing_plan_id":"cebpf4jnsgd1na2vs0mg"},{"bike_id":"0179aad9-8cf1-4065-b886-e1fdc3f62a49","system_id":"levelo_inurba_marseille","lat":43.24949,"lon":5.40492,"is_reserved":false,"is_disabled":false,"rental_uris":{"android":"levelo://app?vid=0179aad9-8cf1-4065-b886-e1fdc3f62a49","ios":"levelo://app?vid=0179aad9-8cf1-4065-b886-e1fdc3f62a49"},"vehicle_type_id":"4","last_reported":1761898470,"current_range_meters":20000,"station_id":"st_d2ngiaodas8pm72gd1h0","pricing_plan_id":"cebpf4jnsgd1na2vs0mg"},{"bike_id":"fd8432c5-a33b-404e-b90a-e83cae963779","system_id":"levelo_inurba_marseille","lat":43.29265,"lon":5.40899,"is_reserved":false,"is_disabled":false,"rental_uris":{"android":"levelo://app?vid=fd8432c5-a33b-404e-b90a-e83cae963779","ios":"levelo://app?vid=fd8432c5-a33b-404e-b90a-e83cae963779"},"vehicle_type_id":"4","last_reported":1761898470,"current_range_meters":20400,"station_id":"ce4bh192rcd13ifvqdc0","pricing_plan_id":"cebpf4jnsgd1na2vs0mg"},{"bike_id":"6a390678-a799-420e-8b61-cd4a653cce87","system_id":"levelo_inurba_marseille","lat":43.32115,"lon":5.36752,"is_reserved":false,"is_disabled":false,"rental_uris":{"android":"levelo://app?vid=6a390678-a799-420e-8b61-cd4a653cce87","ios":"levelo://app?vid=6a390678-a799-420e-8b61-cd4a653cce87"},"vehicle_type_id":"4","last_reported":1761898470,"current_range_meters":20400,"station_id":"ce4bhrh2rcd13ifvqhug","pricing_plan_id":"cebpf4jnsgd1na2vs0mg"},{"bike_id":"609a1759-eeac-403f-a169-d54f14162f8b","system_id":"levelo_inurba_marseille","lat":43.337444,"lon":5.374475,"is_reserved":false,"is_disabled":false,"rental_uris":{"android":"levelo://app?vid=609a1759-eeac-403f-a169-d54f14162f8b","ios":"levelo://app?vid=609a1759-eeac-403f-a169-d54f14162f8b"},"vehicle_type_id":"4","last_reported":1761898470,"current_range_meters":20400,"station_id":"","pricing_plan_id":"cebpf4jnsgd1na2vs0mg"},{"bike_id":"9fde9bd7-c309-4d91-92ab-60de2c6834b4","system_id":"levelo_inurba_marseille","lat":43.266835,"lon":5.38274,"is_reserved":false,"is_disabled":true,"rental_uris":{"android":"levelo://app?vid=9fde9bd7-c309-4d91-92ab-60de2c6834b4","ios":"levelo://app?vid=9fde9bd7-c309-4d91-92ab-60de2c6834b4"},"vehicle_type_id":"4","last_reported":1761898470,"current_range_meters":20400,"station_id":"ce4bhh12rcd13ifvqfg0","pricing_plan_id":"cebpf4jnsgd1na2vs0mg"},{"bike_id":"6b49f50e-59a3-414e-91b9-ca2241d6d11f","system_id":"levelo_inurba_marseille","lat":43.285293,"lon":5.440979,"is_reserved":false,"is_disabled":false,"rental_uris":{"android":"levelo://app?vid=6b49f50e-59a3-414e-91b9-ca2241d6d11f","ios":"levelo://app?vid=6b49f50e-59a3-414e-91b9-ca2241d6d11f"},"vehicle_type_id":"4","last_reported":1761898470,"current_range_meters":20400,"station_id":"st_d3j3df2ikq2c7380ej80","pricing_plan_id":"cebpf4jnsgd1na2vs0mg"},{"bike_id":"17ba5ddb-f5c9-4b5d-a0b3-f825096490c7","system_id":"levelo_inurba_marseille","lat":43.31108,"lon":5.38368,"is_reserved":false,"is_disabled":true,"rental_uris":{"android":"levelo://app?vid=17ba5ddb-f5c9-4b5d-a0b3-f825096490c7","ios":"levelo://app?vid=17ba5ddb-f5c9-4b5d-a0b3-f825096490c7"},"vehicle_type_id":"4","last_reported":1761898470,"current_range_meters":20800,"station_id":"ce4bgv92rcd13ifvqcr0","pricing_plan_id":"cebpf4jnsgd1na2vs0mg"},{"bike_id":"108dea45-3df5-4f12-8782-498bd0ef672e","system_id":"levelo_inurba_marseille","lat":43.295381,"lon":5.385483,"is_reserved":false,"is_disabled":false,"rental_uris":{"android":"levelo://app?vid=108dea45-3df5-4f12-8782-498bd0ef672e","ios":"levelo://app?vid=108dea45-3df5-4f12-8782-498bd0ef672e"},"vehicle_type_id":"4","last_reported":1761898470,"current_range_meters":20800,"station_id":"ce4bgih2rcd13ifvqba0","pricing_plan_id":"cebpf4jnsgd1na2vs0mg"},{"bike_id":"a5f9d115-2eb0-463d-bf65-9070eaddf3fb","system_id":"levelo_inurba_marseille","lat":43.23952,"lon":5.3665,"is_reserved":false,"is_disabled":false,"rental_uris":{"android":"levelo://app?vid=a5f9d115-2eb0-463d-bf65-9070eaddf3fb","ios":"levelo://app?vid=a5f9d115-2eb0-463d-bf65-9070eaddf3fb"},"vehicle_type_id":"4","last_reported":1761898470,"current_range_meters":20800,"station_id":"ce4bhi12rcd13ifvqfp0","pricing_plan_id":"cebpf4jnsgd1na2vs0mg"},{"bike_id":"20f5c051-0bf5-49c6-8d5d-56c0d3cb77c3","system_id":"levelo_inurba_marseille","lat":43.31585,"lon":5.38952,"is_reserved":false,"is_disabled":false,"rental_uris":{"android":"levelo://app?vid=20f5c051-0bf5-49c6-8d5d-56c0d3cb77c3","ios":"levelo://app?vid=20f5c051-0bf5-49c6-8d5d-56c0d3cb77c3"},"vehicle_type_id":"4","last_reported":1761898470,"current_range_meters":20800,"station_id":"","pricing_plan_id":"cebpf4jnsgd1na2vs0mg"},{"bike_id":"5fa8ee7f-1085-4f4a-a6b1-04681a50abe5","system_id":"levelo_inurba_marseille","lat":43.31688,"lon":5.4048,"is_reserved":false,"is_disabled":false,"rental_uris":{"android":"levelo://app?vid=5fa8ee7f-1085-4f4a-a6b1-04681a50abe5","ios":"levelo://app?vid=5fa8ee7f-1085-4f4a-a6b1-04681a50abe5"},"vehicle_type_id":"4","last_reported":1761898470,"current_range_meters":20800,"station_id":"ce4bh012rcd13ifvqd00","pricing_plan_id":"cebpf4jnsgd1na2vs0mg"},{"bike_id":"c70092f2-0c79-4cb9-bcaa-3ff8270992b7","system_id":"levelo_inurba_marseille","lat":43.33719,"lon":5.37474,"is_reserved":false,"is_disabled":false,"rental_uris":{"android":"levelo://app?vid=c70092f2-0c79-4cb9-bcaa-3ff8270992b7","ios":"levelo://app?vid=c70092f2-0c79-4cb9-bcaa-3ff8270992b7"},"vehicle_type_id":"4","last_reported":1761898470,"current_range_meters":20800,"station_id":"","pricing_plan_id":"cebpf4jnsgd1na2vs0mg"},{"bike_id":"0f1a8f15-f276-44cd-84b8-13ad7751e224","system_id":"levelo_inurba_marseille","lat":43.26701,"lon":5.41213,"is_reserved":false,"is_disabled":false,"rental_uris":{"android":"levelo://app?vid=0f1a8f15-f276-44cd-84b8-13ad7751e224","ios":"levelo://app?vid=0f1a8f15-f276-44cd-84b8-13ad7751e224"},"vehicle_type_id":"4","last_reported":1761898470,"current_range_meters":21600,"station_id":"","pricing_plan_id":"cebpf4jnsgd1na2vs0mg"},{"bike_id":"9ea9f5b7-d963-4546-b85c-1d443d48cac7","system_id":"levelo_inurba_marseille","lat":43.27213,"lon":5.39178,"is_reserved":false,"is_disabled":false,"rental_uris":{"android":"levelo://app?vid=9ea9f5b7-d963-4546-b85c-1d443d48cac7","ios":"levelo://app?vid=9ea9f5b7-d963-4546-b85c-1d443d48cac7"},"vehicle_type_id":"4","last_reported":1761898470,"current_range_meters":21600,"station_id":"ce4bhhp2rcd13ifvqfm0","pricing_plan_id":"cebpf4jnsgd1na2vs0mg"},{"bike_id":"5bec0f2b-db2f-42b1-9a22-d227ac5efecd","system_id":"levelo_inurba_marseille","lat":43.31301,"lon":5.38176,"is_reserved":false,"is_disabled":false,"rental_uris":{"android":"levelo://app?vid=5bec0f2b-db2f-42b1-9a22-d227ac5efecd","ios":"levelo://app?vid=5bec0f2b-db2f-42b1-9a22-d227ac5efecd"},"vehicle_type_id":"4","last_reported":1761898470,"current_range_meters":21600,"station_id":"","pricing_plan_id":"cebpf4jnsgd1na2vs0mg"},{"bike_id":"3ae33a65-f6ef-4e0e-af59-d42800e6202b","system_id":"levelo_inurba_marseille","lat":43.25112,"lon":5.40342,"is_reserved":false,"is_disabled":false,"rental_uris":{"android":"levelo://app?vid=3ae33a65-f6ef-4e0e-af59-d42800e6202b","ios":"levelo://app?vid=3ae33a65-f6ef-4e0e-af59-d42800e6202b"},"vehicle_type_id":"4","last_reported":1761898470,"current_range_meters":21600,"station_id":"ce4bhlh2rcd13ifvqgig","pricing_plan_id":"cebpf4jnsgd1na2vs0mg"},{"bike_id":"32632625-b281-4348-990f-071d78c42b84","system_id":"levelo_inurba_marseille","lat":43.26569,"lon":5.39014,"is_reserved":false,"is_disabled":false,"rental_uris":{"android":"levelo://app?vid=32632625-b281-4348-990f-071d78c42b84","ios":"levelo://app?vid=32632625-b281-4348-990f-071d78c42b84"},"vehicle_type_id":"4","last_reported":1761898470,"current_range_meters":21600,"station_id":"","pricing_plan_id":"cebpf4jnsgd1na2vs0mg"},{"bike_id":"3150b169-6d8b-4786-81cd-4b890da98702","system_id":"levelo_inurba_marseille","lat":43.23786,"lon":5.36625,"is_reserved":false,"is_disabled":false,"rental_uris":{"android":"levelo://app?vid=3150b169-6d8b-4786-81cd-4b890da98702","ios":"levelo://app?vid=3150b169-6d8b-4786-81cd-4b890da98702"},"vehicle_type_id":"4","last_reported":1761898470,"current_range_meters":21600,"station_id":"st_d3nk18o9ro0c73en2l3g","pricing_plan_id":"cebpf4jnsgd1na2vs0mg"},{"bike_id":"41598790-345d-414f-9e87-720cb432f278","system_id":"levelo_inurba_marseille","lat":43.29477,"lon":5.36227,"is_reserved":false,"is_disabled":false,"rental_uris":{"android":"levelo://app?vid=41598790-345d-414f-9e87-720cb432f278","ios":"levelo://app?vid=41598790-345d-414f-9e87-720cb432f278"},"vehicle_type_id":"4","last_reported":1761898470,"current_range_meters":21600,"station_id":"","pricing_plan_id":"cebpf4jnsgd1na2vs0mg"},{"bike_id":"a8965f60-4e89-4337-944a-363020cacfa7","system_id":"levelo_inurba_marseille","lat":43.28116,"lon":5.40348,"is_reserved":false,"is_disabled":true,"rental_uris":{"android":"levelo://app?vid=a8965f60-4e89-4337-944a-363020cacfa7","ios":"levelo://app?vid=a8965f60-4e89-4337-944a-363020cacfa7"},"vehicle_type_id":"4","last_reported":1761898470,"current_range_meters":21600,"station_id":"","pricing_plan_id":"cebpf4jnsgd1na2vs0mg"},{"bike_id":"28aa1f4a-e5ba-46af-be1c-d9836d8fe705","system_id":"levelo_inurba_marseille","lat":43.309143,"lon":5.368469,"is_reserved":false,"is_disabled":false,"rental_uris":{"android":"levelo://app?vid=28aa1f4a-e5ba-46af-be1c-d9836d8fe705","ios":"levelo://app?vid=28aa1f4a-e5ba-46af-be1c-d9836d8fe705"},"vehicle_type_id":"4","last_reported":1761898470,"current_range_meters":21600,"station_id":"ce4bgn92rcd13ifvqbvg","pricing_plan_id":"cebpf4jnsgd1na2vs0mg"},{"bike_id":"50c2c89c-4a9b-41f6-af05-b4e430e07029","system_id":"levelo_inurba_marseille","lat":43.246294,"lon":5.43146,"is_reserved":false,"is_disabled":false,"rental_uris":{"android":"levelo://app?vid=50c2c89c-4a9b-41f6-af05-b4e430e07029","ios":"levelo://app?vid=50c2c89c-4a9b-41f6-af05-b4e430e07029"},