{"last_updated":1753042332,"ttl":60,"version":"2.2","data":{"bikes":[{"bike_id":"53b742a7-31ae-4272-9bba-7740339e2a2f","system_id":"levelo_inurba_marseille","lat":43.33747,"lon":5.37463,"is_reserved":false,"is_disabled":false,"rental_uris":{"android":"levelo://app?vid=53b742a7-31ae-4272-9bba-7740339e2a2f","ios":"levelo://app?vid=53b742a7-31ae-4272-9bba-7740339e2a2f"},"vehicle_type_id":"1","last_reported":1753042332,"current_range_meters":9600,"station_id":"","pricing_plan_id":"cebpf4jnsgd1na2vs0mg"},{"bike_id":"9654607f-cf21-4e60-a1a8-447134468340","system_id":"levelo_inurba_marseille","lat":43.26554,"lon":5.37291,"is_reserved":false,"is_disabled":false,"rental_uris":{"android":"levelo://app?vid=9654607f-cf21-4e60-a1a8-447134468340","ios":"levelo://app?vid=9654607f-cf21-4e60-a1a8-447134468340"},"vehicle_type_id":"4","last_reported":1753042332,"current_range_meters":2800,"station_id":"ce4bhg12rcd13ifvqf70","pricing_plan_id":"cebpf4jnsgd1na2vs0mg"},{"bike_id":"09f96f56-5650-4542-b368-c1ee6abd8ee5","system_id":"levelo_inurba_marseille","lat":43.28601,"lon":5.35082,"is_reserved":false,"is_disabled":false,"rental_uris":{"android":"levelo://app?vid=09f96f56-5650-4542-b368-c1ee6abd8ee5","ios":"levelo://app?vid=09f96f56-5650-4542-b368-c1ee6abd8ee5"},"vehicle_type_id":"4","last_reported":1753042332,"current_range_meters":2800,"station_id":"ce4bhch2rcd13ifvqeug","pricing_plan_id":"cebpf4jnsgd1na2vs0mg"},{"bike_id":"d1d1aa17-c4c4-4c7b-a028-7ba34458fe3f","system_id":"levelo_inurba_marseille","lat":43.29275,"lon":5.36815,"is_reserved":false,"is_disabled":false,"rental_uris":{"android":"levelo://app?vid=d1d1aa17-c4c4-4c7b-a028-7ba34458fe3f","ios":"levelo://app?vid=d1d1aa17-c4c4-4c7b-a028-7ba34458fe3f"},"vehicle_type_id":"4","last_reported":1753042332,"current_range_meters":2800,"station_id":"","pricing_plan_id":"cebpf4jnsgd1na2vs0mg"},{"bike_id":"be854ba8-3152-4420-97c2-b279c17ba1d1","system_id":"levelo_inurba_marseille","lat":43.26206,"lon":5.37446,"is_reserved":false,"is_disabled":true,"rental_uris":{"android":"levelo://app?vid=be854ba8-3152-4420-97c2-b279c17ba1d1","ios":"levelo://app?vid=be854ba8-3152-4420-97c2-b279c17ba1d1"},"vehicle_type_id":"4","last_reported":1753042332,"current_range_meters":2800,"station_id":"ce4bhgp2rcd13ifvqfc0","pricing_plan_id":"cebpf4jnsgd1na2vs0mg"},{"bike_id":"7f7e3c65-627c-41a6-88e6-b00c69d32767","system_id":"levelo_inurba_marseille","lat":43.274231,"lon":5.394179,"is_reserved":false,"is_disabled":false,"rental_uris":{"android":"levelo://app?vid=7f7e3c65-627c-41a6-88e6-b00c69d32767","ios":"levelo://app?vid=7f7e3c65-627c-41a6-88e6-b00c69d32767"},"vehicle_type_id":"4","last_reported":1753042332,"current_range_meters":3200,"station_id":"ce4bhdp2rcd13ifvqf20","pricing_plan_id":"cebpf4jnsgd1na2vs0mg"},{"bike_id":"1563c840-975f-4559-a1f8-efda0c9424c6","system_id":"levelo_inurba_marseille","lat":43.29874,"lon":5.39732,"is_reserved":false,"is_disabled":false,"rental_uris":{"android":"levelo://app?vid=1563c840-975f-4559-a1f8-efda0c9424c6","ios":"levelo://app?vid=1563c840-975f-4559-a1f8-efda0c9424c6"},"vehicle_type_id":"4","last_reported":1753042332,"current_range_meters":1200,"station_id":"ce4bh0h2rcd13ifvqd50","pricing_plan_id":"cebpf4jnsgd1na2vs0mg"},{"bike_id":"4156f823-9996-4298-bb5b-7c59c9d164b5","system_id":"levelo_inurba_marseille","lat":43.29175,"lon":5.37155,"is_reserved":false,"is_disabled":true,"rental_uris":{"android":"levelo://app?vid=4156f823-9996-4298-bb5b-7c59c9d164b5","ios":"levelo://app?vid=4156f823-9996-4298-bb5b-7c59c9d164b5"},"vehicle_type_id":"4","last_reported":1753042332,"current_range_meters":3600,"station_id":"ce4bha92rcd13ifvqeh0","pricing_plan_id":"cebpf4jnsgd1na2vs0mg"},{"bike_id":"c6db0f6a-96fe-4e1d-8ded-c2ef38c9bab4","system_id":"levelo_inurba_marseille","lat":43.305688,"lon":5.418387,"is_reserved":false,"is_disabled":true,"rental_uris":{"android":"levelo://app?vid=c6db0f6a-96fe-4e1d-8ded-c2ef38c9bab4","ios":"levelo://app?vid=c6db0f6a-96fe-4e1d-8ded-c2ef38c9bab4"},"vehicle_type_id":"4","last_reported":1753042332,"current_range_meters":3600,"station_id":"ce4bht12rcd13ifvqi60","pricing_plan_id":"cebpf4jnsgd1na2vs0mg"},{"bike_id":"dc56b77c-7905-45bd-8439-3b3538eb6e0a","system_id":"levelo_inurba_marseille","lat":43.29502,"lon":5.382,"is_reserved":false,"is_disabled":false,"rental_uris":{"android":"levelo://app?vid=dc56b77c-7905-45bd-8439-3b3538eb6e0a","ios":"levelo://app?vid=dc56b77c-7905-45bd-8439-3b3538eb6e0a"},"vehicle_type_id":"4","last_reported":1753042332,"current_range_meters":3600,"station_id":"","pricing_plan_id":"cebpf4jnsgd1na2vs0mg"},{"bike_id":"2e532954-91d6-45d0-820d-bd93ef877e83","system_id":"levelo_inurba_marseille","lat":43.303243,"lon":5.394574,"is_reserved":false,"is_disabled":true,"rental_uris":{"android":"levelo://app?vid=2e532954-91d6-45d0-820d-bd93ef877e83","ios":"levelo://app?vid=2e532954-91d6-45d0-820d-bd93ef877e83"},"vehicle_type_id":"4","last_reported":1753042332,"current_range_meters":3600,"station_id":"","pricing_plan_id":"cebpf4jnsgd1na2vs0mg"},{"bike_id":"89c47704-4b90-4193-8020-47247eb53cdd","system_id":"levelo_inurba_marseille","lat":43.31691,"lon":5.40479,"is_reserved":false,"is_disabled":false,"rental_uris":{"android":"levelo://app?vid=89c47704-4b90-4193-8020-47247eb53cdd","ios":"levelo://app?vid=89c47704-4b90-4193-8020-47247eb53cdd"},"vehicle_type_id":"4","last_reported":1753042332,"current_range_meters":3600,"station_id":"ce4bh012rcd13ifvqd00","pricing_plan_id":"cebpf4jnsgd1na2vs0mg"},{"bike_id":"bc71386f-1818-4471-9687-ebbd8fde0dd7","system_id":"levelo_inurba_marseille","lat":43.26939,"lon":5.36654,"is_reserved":false,"is_disabled":false,"rental_uris":{"android":"levelo://app?vid=bc71386f-1818-4471-9687-ebbd8fde0dd7","ios":"levelo://app?vid=bc71386f-1818-4471-9687-ebbd8fde0dd7"},"vehicle_type_id":"4","last_reported":1753042332,"current_range_meters":3600,"station_id":"","pricing_plan_id":"cebpf4jnsgd1na2vs0mg"},{"bike_id":"e9ffb578-0c12-408d-8e8d-d3e57d48438f","system_id":"levelo_inurba_marseille","lat":43.299311,"lon":5.374739,"is_reserved":false,"is_disabled":false,"rental_uris":{"android":"levelo://app?vid=e9ffb578-0c12-408d-8e8d-d3e57d48438f","ios":"levelo://app?vid=e9ffb578-0c12-408d-8e8d-d3e57d48438f"},"vehicle_type_id":"4","last_reported":1753042332,"current_range_meters":4000,"station_id":"ce4bgjh2rcd13ifvqbg0","pricing_plan_id":"cebpf4jnsgd1na2vs0mg"},{"bike_id":"57bb565d-2136-465a-803d-648474c4a3a7","system_id":"levelo_inurba_marseille","lat":43.3311,"lon":5.35504,"is_reserved":false,"is_disabled":false,"rental_uris":{"android":"levelo://app?vid=57bb565d-2136-465a-803d-648474c4a3a7","ios":"levelo://app?vid=57bb565d-2136-465a-803d-648474c4a3a7"},"vehicle_type_id":"4","last_reported":1753042332,"current_range_meters":4000,"station_id":"","pricing_plan_id":"cebpf4jnsgd1na2vs0mg"},{"bike_id":"cb43108f-a30e-4b33-b663-833fb59b6872","system_id":"levelo_inurba_marseille","lat":43.2792,"lon":5.3958,"is_reserved":false,"is_disabled":false,"rental_uris":{"android":"levelo://app?vid=cb43108f-a30e-4b33-b663-833fb59b6872","ios":"levelo://app?vid=cb43108f-a30e-4b33-b663-833fb59b6872"},"vehicle_type_id":"4","last_reported":1753042332,"current_range_meters":4000,"station_id":"ce4bhf92rcd13ifvqf40","pricing_plan_id":"cebpf4jnsgd1na2vs0mg"},{"bike_id":"408cde63-466b-4aeb-8cd1-d23de31d8be2","system_id":"levelo_inurba_marseille","lat":43.29718,"lon":5.37694,"is_reserved":false,"is_disabled":false,"rental_uris":{"android":"levelo://app?vid=408cde63-466b-4aeb-8cd1-d23de31d8be2","ios":"levelo://app?vid=408cde63-466b-4aeb-8cd1-d23de31d8be2"},"vehicle_type_id":"4","last_reported":1753042332,"current_range_meters":4400,"station_id":"ce4bgkh2rcd13ifvqbl0","pricing_plan_id":"cebpf4jnsgd1na2vs0mg"},{"bike_id":"6bb9ed77-86bb-4cf8-92fe-1f01574d96cf","system_id":"levelo_inurba_marseille","lat":43.23953,"lon":5.36648,"is_reserved":false,"is_disabled":false,"rental_uris":{"android":"levelo://app?vid=6bb9ed77-86bb-4cf8-92fe-1f01574d96cf","ios":"levelo://app?vid=6bb9ed77-86bb-4cf8-92fe-1f01574d96cf"},"vehicle_type_id":"4","last_reported":1753042332,"current_range_meters":4400,"station_id":"ce4bhi12rcd13ifvqfp0","pricing_plan_id":"cebpf4jnsgd1na2vs0mg"},{"bike_id":"78cf64b6-550a-44f0-8152-cbd9443a024f","system_id":"levelo_inurba_marseille","lat":43.30045,"lon":5.36608,"is_reserved":false,"is_disabled":false,"rental_uris":{"android":"levelo://app?vid=78cf64b6-550a-44f0-8152-cbd9443a024f","ios":"levelo://app?vid=78cf64b6-550a-44f0-8152-cbd9443a024f"},"vehicle_type_id":"4","last_reported":1753042332,"current_range_meters":5600,"station_id":"","pricing_plan_id":"cebpf4jnsgd1na2vs0mg"},{"bike_id":"6bf23fca-2aad-4303-a7b6-cef7914c7ee6","system_id":"levelo_inurba_marseille","lat":43.28626,"lon":5.36182,"is_reserved":false,"is_disabled":false,"rental_uris":{"android":"levelo://app?vid=6bf23fca-2aad-4303-a7b6-cef7914c7ee6","ios":"levelo://app?vid=6bf23fca-2aad-4303-a7b6-cef7914c7ee6"},"vehicle_type_id":"4","last_reported":1753042332,"current_range_meters":5600,"station_id":"ce4bhah2rcd13ifvqei0","pricing_plan_id":"cebpf4jnsgd1na2vs0mg"},{"bike_id":"6f18ab1b-0c74-47b1-bed8-837677176207","system_id":"levelo_inurba_marseille","lat":43.32047,"lon":5.40944,"is_reserved":false,"is_disabled":true,"rental_uris":{"android":"levelo://app?vid=6f18ab1b-0c74-47b1-bed8-837677176207","ios":"levelo://app?vid=6f18ab1b-0c74-47b1-bed8-837677176207"},"vehicle_type_id":"4","last_reported":1753042332,"current_range_meters":5600,"station_id":"","pricing_plan_id":"cebpf4jnsgd1na2vs0mg"},{"bike_id":"2d5426b7-c5ef-4761-9a4a-28e19dac621a","system_id":"levelo_inurba_marseille","lat":43.30442,"lon":5.41278,"is_reserved":false,"is_disabled":true,"rental_uris":{"android":"levelo://app?vid=2d5426b7-c5ef-4761-9a4a-28e19dac621a","ios":"levelo://app?vid=2d5426b7-c5ef-4761-9a4a-28e19dac621a"},"vehicle_type_id":"4","last_reported":1753042332,"current_range_meters":6000,"station_id":"ce4bhop2rcd13ifvqh8g","pricing_plan_id":"cebpf4jnsgd1na2vs0mg"},{"bike_id":"475b9799-8c28-49d7-a2bd-b989a871d401","system_id":"levelo_inurba_marseille","lat":43.240742,"lon":5.377536,"is_reserved":false,"is_disabled":true,"rental_uris":{"android":"levelo://app?vid=475b9799-8c28-49d7-a2bd-b989a871d401","ios":"levelo://app?vid=475b9799-8c28-49d7-a2bd-b989a871d401"},"vehicle_type_id":"4","last_reported":1753042332,"current_range_meters":6400,"station_id":"ce4bhnp2rcd13ifvqgvg","pricing_plan_id":"cebpf4jnsgd1na2vs0mg"},{"bike_id":"21298d24-a76a-4fd6-88f9-bc3c3feeeed6","system_id":"levelo_inurba_marseille","lat":43.246582,"lon":5.381634,"is_reserved":false,"is_disabled":true,"rental_uris":{"android":"levelo://app?vid=21298d24-a76a-4fd6-88f9-bc3c3feeeed6","ios":"levelo://app?vid=21298d24-a76a-4fd6-88f9-bc3c3feeeed6"},"vehicle_type_id":"4","last_reported":1753042332,"current_range_meters":6400,"station_id":"ce4bhih2rcd13ifvqfr0","pricing_plan_id":"cebpf4jnsgd1na2vs0mg"},{"bike_id":"5db51203-d7ae-4701-9fdb-daedf48106ba","system_id":"levelo_inurba_marseille","lat":43.24802,"lon":5.37464,"is_reserved":false,"is_disabled":false,"rental_uris":{"android":"levelo://app?vid=5db51203-d7ae-4701-9fdb-daedf48106ba","ios":"levelo://app?vid=5db51203-d7ae-4701-9fdb-daedf48106ba"},"vehicle_type_id":"4","last_reported":1753042332,"current_range_meters":6400,"station_id":"ce4bhgh2rcd13ifvqfb0","pricing_plan_id":"cebpf4jnsgd1na2vs0mg"},{"bike_id":"bb1cd7a1-464c-4c8c-b894-6306d52075e4","system_id":"levelo_inurba_marseille","lat":43.34823,"lon":5.35783,"is_reserved":false,"is_disabled":false,"rental_uris":{"android":"levelo://app?vid=bb1cd7a1-464c-4c8c-b894-6306d52075e4","ios":"levelo://app?vid=bb1cd7a1-464c-4c8c-b894-6306d52075e4"},"vehicle_type_id":"4","last_reported":1753042332,"current_range_meters":8000,"station_id":"","pricing_plan_id":"cebpf4jnsgd1na2vs0mg"},{"bike_id":"06fcaf41-a3b3-4096-a515-28545e82af83","system_id":"levelo_inurba_marseille","lat":43.22694,"lon":5.34821,"is_reserved":false,"is_disabled":false,"rental_uris":{"android":"levelo://app?vid=06fcaf41-a3b3-4096-a515-28545e82af83","ios":"levelo://app?vid=06fcaf41-a3b3-4096-a515-28545e82af83"},"vehicle_type_id":"4","last_reported":1753042332,"current_range_meters":6800,"station_id":"","pricing_plan_id":"cebpf4jnsgd1na2vs0mg"},{"bike_id":"458dbe54-90ba-47d9-9281-aa2670d2cb63","system_id":"levelo_inurba_marseille","lat":43.25497,"lon":5.37656,"is_reserved":false,"is_disabled":false,"rental_uris":{"android":"levelo://app?vid=458dbe54-90ba-47d9-9281-aa2670d2cb63","ios":"levelo://app?vid=458dbe54-90ba-47d9-9281-aa2670d2cb63"},"vehicle_type_id":"4","last_reported":1753042332,"current_range_meters":6400,"station_id":"ce4bhh12rcd13ifvqff0","pricing_plan_id":"cebpf4jnsgd1na2vs0mg"},{"bike_id":"7744937f-113f-4e2d-8c66-fb75c06cdb78","system_id":"levelo_inurba_marseille","lat":43.27833,"lon":5.40627,"is_reserved":false,"is_disabled":false,"rental_uris":{"android":"levelo://app?vid=7744937f-113f-4e2d-8c66-fb75c06cdb78","ios":"levelo://app?vid=7744937f-113f-4e2d-8c66-fb75c06cdb78"},"vehicle_type_id":"4","last_reported":1753042332,"current_range_meters":6800,"station_id":"","pricing_plan_id":"cebpf4jnsgd1na2vs0mg"},{"bike_id":"1fb46a66-c105-4aab-b379-15a019e1d2d6","system_id":"levelo_inurba_marseille","lat":43.29534,"lon":5.37459,"is_reserved":false,"is_disabled":false,"rental_uris":{"android":"levelo://app?vid=1fb46a66-c105-4aab-b379-15a019e1d2d6","ios":"levelo://app?vid=1fb46a66-c105-4aab-b379-15a019e1d2d6"},"vehicle_type_id":"4","last_reported":1753042332,"current_range_meters":8000,"station_id":"","pricing_plan_id":"cebpf4jnsgd1na2vs0mg"},{"bike_id":"4bb97a97-a133-48a8-b243-3ea45d323506","system_id":"levelo_inurba_marseille","lat":43.279931,"lon":5.400096,"is_reserved":false,"is_disabled":false,"rental_uris":{"android":"levelo://app?vid=4bb97a97-a133-48a8-b243-3ea45d323506","ios":"levelo://app?vid=4bb97a97-a133-48a8-b243-3ea45d323506"},"vehicle_type_id":"4","last_reported":1753042332,"current_range_meters":6800,"station_id":"ce4bho92rcd13ifvqh4g","pricing_plan_id":"cebpf4jnsgd1na2vs0mg"},{"bike_id":"11a43a3e-2d75-4df3-ba59-43e1875d5f3e","system_id":"levelo_inurba_marseille","lat":43.24165,"lon":5.3641,"is_reserved":false,"is_disabled":true,"rental_uris":{"android":"levelo://app?vid=11a43a3e-2d75-4df3-ba59-43e1875d5f3e","ios":"levelo://app?vid=11a43a3e-2d75-4df3-ba59-43e1875d5f3e"},"vehicle_type_id":"4","last_reported":1753042332,"current_range_meters":7200,"station_id":"cpo36qri1sfpv3e86is0","pricing_plan_id":"cebpf4jnsgd1na2vs0mg"},{"bike_id":"94c07cb2-0943-4d24-99f2-97bdab47aa3f","system_id":"levelo_inurba_marseille","lat":43.337444,"lon":5.374475,"is_reserved":false,"is_disabled":false,"rental_uris":{"android":"levelo://app?vid=94c07cb2-0943-4d24-99f2-97bdab47aa3f","ios":"levelo://app?vid=94c07cb2-0943-4d24-99f2-97bdab47aa3f"},"vehicle_type_id":"4","last_reported":1753042332,"current_range_meters":7200,"station_id":"","pricing_plan_id":"cebpf4jnsgd1na2vs0mg"},{"bike_id":"cbf7688c-5904-42fe-9716-66198165ad92","system_id":"levelo_inurba_marseille","lat":43.29366,"lon":5.37856,"is_reserved":false,"is_disabled":false,"rental_uris":{"android":"levelo://app?vid=cbf7688c-5904-42fe-9716-66198165ad92","ios":"levelo://app?vid=cbf7688c-5904-42fe-9716-66198165ad92"},"vehicle_type_id":"4","last_reported":1753042332,"current_range_meters":8000,"station_id":"ce4bgjh2rcd13ifvqbf0","pricing_plan_id":"cebpf4jnsgd1na2vs0mg"},{"bike_id":"192c0fa5-c826-4847-bdd0-11edb7180ff9","system_id":"levelo_inurba_marseille","lat":43.30648,"lon":5.40095,"is_reserved":false,"is_disabled":true,"rental_uris":{"android":"levelo://app?vid=192c0fa5-c826-4847-bdd0-11edb7180ff9","ios":"levelo://app?vid=192c0fa5-c826-4847-bdd0-11edb7180ff9"},"vehicle_type_id":"4","last_reported":1753042332,"current_range_meters":8000,"station_id":"ce4bh112rcd13ifvqda0","pricing_plan_id":"cebpf4jnsgd1na2vs0mg"},{"bike_id":"89496290-e941-438c-9e9a-7b7d35e3ee63","system_id":"levelo_inurba_marseille","lat":43.26555,"lon":5.3728,"is_reserved":false,"is_disabled":false,"rental_uris":{"android":"levelo://app?vid=89496290-e941-438c-9e9a-7b7d35e3ee63","ios":"levelo://app?vid=89496290-e941-438c-9e9a-7b7d35e3ee63"},"vehicle_type_id":"4","last_reported":1753042332,"current_range_meters":8000,"station_id":"ce4bhg12rcd13ifvqf70","pricing_plan_id":"cebpf4jnsgd1na2vs0mg"},{"bike_id":"ac141403-2eff-454e-8bd1-3d400d40ed2b","system_id":"levelo_inurba_marseille","lat":43.33107,"lon":5.40014,"is_reserved":false,"is_disabled":false,"rental_uris":{"android":"levelo://app?vid=ac141403-2eff-454e-8bd1-3d400d40ed2b","ios":"levelo://app?vid=ac141403-2eff-454e-8bd1-3d400d40ed2b"},"vehicle_type_id":"4","last_reported":1753042332,"current_range_meters":8400,"station_id":"","pricing_plan_id":"cebpf4jnsgd1na2vs0mg"},{"bike_id":"e9ab069e-5754-4c37-9446-394033ca80f0","system_id":"levelo_inurba_marseille","lat":43.29921,"lon":5.37491,"is_reserved":false,"is_disabled":false,"rental_uris":{"android":"levelo://app?vid=e9ab069e-5754-4c37-9446-394033ca80f0","ios":"levelo://app?vid=e9ab069e-5754-4c37-9446-394033ca80f0"},"vehicle_type_id":"4","last_reported":1753042332,"current_range_meters":6800,"station_id":"ce4bgjh2rcd13ifvqbg0","pricing_plan_id":"cebpf4jnsgd1na2vs0mg"},{"bike_id":"dbe3f53f-5cf1-428e-b135-1e976ecdd9e1","system_id":"levelo_inurba_marseille","lat":43.229295,"lon":5.353761,"is_reserved":false,"is_disabled":true,"rental_uris":{"android":"levelo://app?vid=dbe3f53f-5cf1-428e-b135-1e976ecdd9e1","ios":"levelo://app?vid=dbe3f53f-5cf1-428e-b135-1e976ecdd9e1"},"vehicle_type_id":"4","last_reported":1753042332,"current_range_meters":8400,"station_id":"","pricing_plan_id":"cebpf4jnsgd1na2vs0mg"},{"bike_id":"b44f3bfd-b726-490f-88ee-74c4f711d2f7","system_id":"levelo_inurba_marseille","lat":43.29437,"lon":5.39758,"is_reserved":false,"is_disabled":false,"rental_uris":{"android":"levelo://app?vid=b44f3bfd-b726-490f-88ee-74c4f711d2f7","ios":"levelo://app?vid=b44f3bfd-b726-490f-88ee-74c4f711d2f7"},"vehicle_type_id":"4","last_reported":1753042332,"current_range_meters":8000,"station_id":"ce4bh3h2rcd13ifvqdo0","pricing_plan_id":"cebpf4jnsgd1na2vs0mg"},{"bike_id":"46a59e2c-3aad-48f2-a477-6c7370b53490","system_id":"levelo_inurba_marseille","lat":43.27901,"lon":5.38016,"is_reserved":false,"is_disabled":false,"rental_uris":{"android":"levelo://app?vid=46a59e2c-3aad-48f2-a477-6c7370b53490","ios":"levelo://app?vid=46a59e2c-3aad-48f2-a477-6c7370b53490"},"vehicle_type_id":"4","last_reported":1753042332,"current_range_meters":8800,"station_id":"ce4bhf92rcd13ifvqf50","pricing_plan_id":"cebpf4jnsgd1na2vs0mg"},{"bike_id":"7e0b0bf3-e14d-431f-bc0e-5f664c47887c","system_id":"levelo_inurba_marseille","lat":43.29022,"lon":5.38137,"is_reserved":false,"is_disabled":false,"rental_uris":{"android":"levelo://app?vid=7e0b0bf3-e14d-431f-bc0e-5f664c47887c","ios":"levelo://app?vid=7e0b0bf3-e14d-431f-bc0e-5f664c47887c"},"vehicle_type_id":"4","last_reported":1753042332,"current_range_meters":8800,"station_id":"ce4bh4p2rcd13ifvqe1g","pricing_plan_id":"cebpf4jnsgd1na2vs0mg"},{"bike_id":"412aa830-9db5-4295-9690-8e185ed475b5","system_id":"levelo_inurba_marseille","lat":43.30806,"lon":5.381522,"is_reserved":false,"is_disabled":false,"rental_uris":{"android":"levelo://app?vid=412aa830-9db5-4295-9690-8e185ed475b5","ios":"levelo://app?vid=412aa830-9db5-4295-9690-8e185ed475b5"},"vehicle_type_id":"4","last_reported":1753042332,"current_range_meters":8400,"station_id":"ce4bgt12rcd13ifvqce0","pricing_plan_id":"cebpf4jnsgd1na2vs0mg"},{"bike_id":"1ba26118-1bab-4d32-ab55-f61b7fa15bf1","system_id":"levelo_inurba_marseille","lat":43.303276,"lon":5.379143,"is_reserved":false,"is_disabled":false,"rental_uris":{"android":"levelo://app?vid=1ba26118-1bab-4d32-ab55-f61b7fa15bf1","ios":"levelo://app?vid=1ba26118-1bab-4d32-ab55-f61b7fa15bf1"},"vehicle_type_id":"4","last_reported":1753042332,"current_range_meters":8400,"station_id":"ce4bgup2rcd13ifvqcn0","pricing_plan_id":"cebpf4jnsgd1na2vs0mg"},{"bike_id":"0fd02cf6-67fb-4589-807f-241dd50b7e1a","system_id":"levelo_inurba_marseille","lat":43.29893,"lon":5.43688,"is_reserved":false,"is_disabled":true,"rental_uris":{"android":"levelo://app?vid=0fd02cf6-67fb-4589-807f-241dd50b7e1a","ios":"levelo://app?vid=0fd02cf6-67fb-4589-807f-241dd50b7e1a"},"vehicle_type_id":"4","last_reported":1753042332,"current_range_meters":9200,"station_id":"ce4bhpp2rcd13ifvqhfg","pricing_plan_id":"cebpf4jnsgd1na2vs0mg"},{"bike_id":"cbd7089c-9d2d-42db-a268-faaaa69d7343","system_id":"levelo_inurba_marseille","lat":43.26232,"lon":5.37444,"is_reserved":false,"is_disabled":true,"rental_uris":{"android":"levelo://app?vid=cbd7089c-9d2d-42db-a268-faaaa69d7343","ios":"levelo://app?vid=cbd7089c-9d2d-42db-a268-faaaa69d7343"},"vehicle_type_id":"4","last_reported":1753042332,"current_range_meters":9200,"station_id":"","pricing_plan_id":"cebpf4jnsgd1na2vs0mg"},{"bike_id":"e125fdbe-a417-4eba-9ce1-56cbeb6ee1cb","system_id":"levelo_inurba_marseille","lat":43.29912,"lon":5.37473,"is_reserved":false,"is_disabled":false,"rental_uris":{"android":"levelo://app?vid=e125fdbe-a417-4eba-9ce1-56cbeb6ee1cb","ios":"levelo://app?vid=e125fdbe-a417-4eba-9ce1-56cbeb6ee1cb"},"vehicle_type_id":"4","last_reported":1753042332,"current_range_meters":9200,"station_id":"ce4bgjh2rcd13ifvqbg0","pricing_plan_id":"cebpf4jnsgd1na2vs0mg"},{"bike_id":"b9c70efc-6881-4053-a539-fe56684246f3","system_id":"levelo_inurba_marseille","lat":43.29618,"lon":5.37319,"is_reserved":false,"is_disabled":false,"rental_uris":{"android":"levelo://app?vid=b9c70efc-6881-4053-a539-fe56684246f3","ios":"levelo://app?vid=b9c70efc-6881-4053-a539-fe56684246f3"},"vehicle_type_id":"4","last_reported":1753042332,"current_range_meters":9600,"station_id":"","pricing_plan_id":"cebpf4jnsgd1na2vs0mg"},{"bike_id":"4e9696fe-7756-45b7-88eb-a5d84daed757","system_id":"levelo_inurba_marseille","lat":43.315545,"lon":5.380547,"is_reserved":false,"is_disabled":false,"rental_uris":{"android":"levelo://app?vid=4e9696fe-7756-45b7-88eb-a5d84daed757","ios":"levelo://app?vid=4e9696fe-7756-45b7-88eb-a5d84daed757"},"vehicle_type_id":"4","last_reported":1753042332,"current_range_meters":9600,"station_id":"ce4bhsp2rcd13ifvqi50","pricing_plan_id":"cebpf4jnsgd1na2vs0mg"},{"bike_id":"b170fbfc-6246-4e47-8fb5-b4fe2d3d1ab2","system_id":"levelo_inurba_marseille","lat":43.30539,"lon":5.38426,"is_reserved":false,"is_disabled":false,"rental_uris":{"android":"levelo://app?vid=b170fbfc-6246-4e47-8fb5-b4fe2d3d1ab2","ios":"levelo://app?vid=b170fbfc-6246-4e47-8fb5-b4fe2d3d1ab2"},"vehicle_type_id":"4","last_reported":1753042332,"current_range_meters":9600,"station_id":"ce4bgg92rcd13ifvqb30","pricing_plan_id":"cebpf4jnsgd1na2vs0mg"},{"bike_id":"cf9f7b6f-b252-45aa-bd41-e7b8a5947e88","system_id":"levelo_inurba_marseille","lat":43.26939,"lon":5.40269,"is_reserved":false,"is_disabled":true,"rental_uris":{"android":"levelo://app?vid=cf9f7b6f-b252-45aa-bd41-e7b8a5947e88","ios":"levelo://app?vid=cf9f7b6f-b252-45aa-bd41-e7b8a5947e88"},"vehicle_type_id":"4","last_reported":1753042332,"current_range_meters":9600,"station_id":"cjm6bp8fraef2m0cb0m0","pricing_plan_id":"cebpf4jnsgd1na2vs0mg"},{"bike_id":"2f7b9cdf-b6c7-4492-81a2-2bd894f35745","system_id":"levelo_inurba_marseille","lat":43.2306,"lon":5.35475,"is_reserved":false,"is_disabled":true,"rental_uris":{"android":"levelo://app?vid=2f7b9cdf-b6c7-4492-81a2-2bd894f35745","ios":"levelo://app?vid=2f7b9cdf-b6c7-4492-81a2-2bd894f35745"},"vehicle_type_id":"4","last_reported":1753042332,"current_range_meters":9600,"station_id":"cpo3342slgdg3j2ifvpg","pricing_plan_id":"cebpf4jnsgd1na2vs0mg"},{"bike_id":"0c30a478-5f72-46e2-92f2-76e7d7e25f84","system_id":"levelo_inurba_marseille","lat":43.29782,"lon":5.39351,"is_reserved":false,"is_disabled":false,"rental_uris":{"android":"levelo://app?vid=0c30a478-5f72-46e2-92f2-76e7d7e25f84","ios":"levelo://app?vid=0c30a478-5f72-46e2-92f2-76e7d7e25f84"},"vehicle_type_id":"4","last_reported":1753042332,"current_range_meters":9600,"station_id":"chh1huq6cuj3fo74tm60","pricing_plan_id":"cebpf4jnsgd1na2vs0mg"},{"bike_id":"f38658ec-27f1-4ce2-a3f4-593223fa4554","system_id":"levelo_inurba_marseille","lat":43.22931,"lon":5.35388,"is_reserved":false,"is_disabled":false,"rental_uris":{"android":"levelo://app?vid=f38658ec-27f1-4ce2-a3f4-593223fa4554","ios":"levelo://app?vid=f38658ec-27f1-4ce2-a3f4-593223fa4554"},"vehicle_type_id":"4","last_reported":1753042332,"current_range_meters":9600,"station_id":"cpo3532slgdg3j2ikp40","pricing_plan_id":"cebpf4jnsgd1na2vs0mg"},{"bike_id":"ff4d55d2-06e1-4a89-ba66-8dfb99920e85","system_id":"levelo_inurba_marseille","lat":43.28928,"lon":5.364,"is_reserved":false,"is_disabled":true,"rental_uris":{"android":"levelo://app?vid=ff4d55d2-06e1-4a89-ba66-8dfb99920e85","ios":"levelo://app?vid=ff4d55d2-06e1-4a89-ba66-8dfb99920e85"},"vehicle_type_id":"4","last_reported":1753042332,"current_range_meters":9600,"station_id":"ce4bhc92rcd13ifvqetg","pricing_plan_id":"cebpf4jnsgd1na2vs0mg"},{"bike_id":"91f87779-a506-4863-b439-e9a7fbd11661","system_id":"levelo_inurba_marseille","lat":43.29024,"lon":5.38135,"is_reserved":false,"is_disabled":false,"rental_uris":{"android":"levelo://app?vid=91f87779-a506-4863-b439-e9a7fbd11661","ios":"levelo://app?vid=91f87779-a506-4863-b439-e9a7fbd11661"},"vehicle_type_id":"4","last_reported":1753042332,"current_range_meters":9600,"station_id":"ce4bh4p2rcd13ifvqe1g","pricing_plan_id":"cebpf4jnsgd1na2vs0mg"},{"bike_id":"892e06aa-05f6-415f-96f6-13455b0802de","system_id":"levelo_inurba_marseille","lat":43.29573,"lon":5.3749,"is_reserved":false,"is_disabled":true,"rental_uris":{"android":"levelo://app?vid=892e06aa-05f6-415f-96f6-13455b0802de","ios":"levelo://app?vid=892e06aa-05f6-415f-96f6-13455b0802de"},"vehicle_type_id":"4","last_reported":1753042332,"current_range_meters":10000,"station_id":"ce4bgh92rcd13ifvqb50","pricing_plan_id":"cebpf4jnsgd1na2vs0mg"},{"bike_id":"940ce351-8b2a-41eb-9a5e-24bbfb8592ba","system_id":"levelo_inurba_marseille","lat":43.30887,"lon":5.37207,"is_reserved":false,"is_disabled":false,"rental_uris":{"android":"levelo://app?vid=940ce351-8b2a-41eb-9a5e-24bbfb8592ba","ios":"levelo://app?vid=940ce351-8b2a-41eb-9a5e-24bbfb8592ba"},"vehicle_type_id":"4","last_reported":1753042332,"current_range_meters":10000,"station_id":"ce4bguh2rcd13ifvqckg","pricing_plan_id":"cebpf4jnsgd1na2vs0mg"},{"bike_id":"08505463-aef2-4861-acf9-f91af89dc5ab","system_id":"levelo_inurba_marseille","lat":43.30795,"lon":5.38157,"is_reserved":false,"is_disabled":false,"rental_uris":{"android":"levelo://app?vid=08505463-aef2-4861-acf9-f91af89dc5ab","ios":"levelo://app?vid=08505463-aef2-4861-acf9-f91af89dc5ab"},"vehicle_type_id":"4","last_reported":1753042332,"current_range_meters":9600,"station_id":"ce4bgt12rcd13ifvqce0","pricing_plan_id":"cebpf4jnsgd1na2vs0mg"},{"bike_id":"f18952d9-de72-4b00-ac50-ca46d1bc16b9","system_id":"levelo_inurba_marseille","lat":43.21191,"lon":5.35076,"is_reserved":false,"is_disabled":false,"rental_uris":{"android":"levelo://app?vid=f18952d9-de72-4b00-ac50-ca46d1bc16b9","ios":"levelo://app?vid=f18952d9-de72-4b00-ac50-ca46d1bc16b9"},"vehicle_type_id":"4","last_reported":1753042332,"current_range_meters":10000,"station_id":"st_cvj6sg6p6f1abm77japg","pricing_plan_id":"cebpf4jnsgd1na2vs0mg"},{"bike_id":"d25b3b74-1eb0-48d4-998a-10d14228da57","system_id":"levelo_inurba_marseille","lat":43.29703,"lon":5.36617,"is_reserved":false,"is_disabled":true,"rental_uris":{"android":"levelo://app?vid=d25b3b74-1eb0-48d4-998a-10d14228da57","ios":"levelo://app?vid=d25b3b74-1eb0-48d4-998a-10d14228da57"},"vehicle_type_id":"4","last_reported":1753042332,"current_range_meters":10800,"station_id":"ce4bgn12rcd13ifvqbt0","pricing_plan_id":"cebpf4jnsgd1na2vs0mg"},{"bike_id":"a6de290b-5c15-427b-bc37-8301607e1735","system_id":"levelo_inurba_marseille","lat":43.337444,"lon":5.374475,"is_reserved":false,"is_disabled":false,"rental_uris":{"android":"levelo://app?vid=a6de290b-5c15-427b-bc37-8301607e1735","ios":"levelo://app?vid=a6de290b-5c15-427b-bc37-8301607e1735"},"vehicle_type_id":"4","last_reported":1753042332,"current_range_meters":10800,"station_id":"","pricing_plan_id":"cebpf4jnsgd1na2vs0mg"},{"bike_id":"ed415a14-b4b4-4caf-8a06-7fd1c907bac5","system_id":"levelo_inurba_marseille","lat":43.217436,"lon":5.346034,"is_reserved":false,"is_disabled":false,"rental_uris":{"android":"levelo://app?vid=ed415a14-b4b4-4caf-8a06-7fd1c907bac5","ios":"levelo://app?vid=ed415a14-b4b4-4caf-8a06-7fd1c907bac5"},"vehicle_type_id":"4","last_reported":1753042332,"current_range_meters":10800,"station_id":"st_cvj6r9ubvosntc0bgbag","pricing_plan_id":"cebpf4jnsgd1na2vs0mg"},{"bike_id":"7f7c773c-89c7-4474-b9ba-9373822aea52","system_id":"levelo_inurba_marseille","lat":43.25868,"lon":5.39898,"is_reserved":false,"is_disabled":true,"rental_uris":{"android":"levelo://app?vid=7f7c773c-89c7-4474-b9ba-9373822aea52","ios":"levelo://app?vid=7f7c773c-89c7-4474-b9ba-9373822aea52"},"vehicle_type_id":"4","last_reported":1753042332,"current_range_meters":10800,"station_id":"ce4bhl92rcd13ifvqghg","pricing_plan_id":"cebpf4jnsgd1na2vs0mg"},{"bike_id":"e18f88b6-15b4-4e4a-9406-9f69475e8e21","system_id":"levelo_inurba_marseille","lat":43.305397,"lon":5.389978,"is_reserved":false,"is_disabled":false,"rental_uris":{"android":"levelo://app?vid=e18f88b6-15b4-4e4a-9406-9f69475e8e21","ios":"levelo://app?vid=e18f88b6-15b4-4e4a-9406-9f69475e8e21"},"vehicle_type_id":"4","last_reported":1753042332,"current_range_meters":10800,"station_id":"ce4bh0p2rcd13ifvqd80","pricing_plan_id":"cebpf4jnsgd1na2vs0mg"},{"bike_id":"bdd969c3-9e0a-4f25-9eb0-adc05f5732c3","system_id":"levelo_inurba_marseille","lat":43.26196,"lon":5.37476,"is_reserved":false,"is_disabled":true,"rental_uris":{"android":"levelo://app?vid=bdd969c3-9e0a-4f25-9eb0-adc05f5732c3","ios":"levelo://app?vid=bdd969c3-9e0a-4f25-9eb0-adc05f5732c3"},"vehicle_type_id":"4","last_reported":1753042332,"current_range_meters":10800,"station_id":"ce4bhgp2rcd13ifvqfc0","pricing_plan_id":"cebpf4jnsgd1na2vs0mg"},{"bike_id":"8989d5d3-8c00-4d42-97ea-53430459d88d","system_id":"levelo_inurba_marseille","lat":43.30138,"lon":5.38063,"is_reserved":false,"is_disabled":false,"rental_uris":{"android":"levelo://app?vid=8989d5d3-8c00-4d42-97ea-53430459d88d","ios":"levelo://app?vid=8989d5d3-8c00-4d42-97ea-53430459d88d"},"vehicle_type_id":"4","last_reported":1753042332,"current_range_meters":10800,"station_id":"ce4bgjp2rcd13ifvqbh0","pricing_plan_id":"cebpf4jnsgd1na2vs0mg"},{"bike_id":"b8f7cf62-e3b4-4806-9700-b52a9c6b5442","system_id":"levelo_inurba_marseille","lat":43.29771,"lon":5.39348,"is_reserved":false,"is_disabled":false,"rental_uris":{"android":"levelo://app?vid=b8f7cf62-e3b4-4806-9700-b52a9c6b5442","ios":"levelo://app?vid=b8f7cf62-e3b4-4806-9700-b52a9c6b5442"},"vehicle_type_id":"4","last_reported":1753042332,"current_range_meters":10800,"station_id":"chh1huq6cuj3fo74tm60","pricing_plan_id":"cebpf4jnsgd1na2vs0mg"},{"bike_id":"6f487aa9-64df-4433-adac-ddee73d3666c","system_id":"levelo_inurba_marseille","lat":43.28563,"lon":5.39502,"is_reserved":false,"is_disabled":false,"rental_uris":{"android":"levelo://app?vid=6f487aa9-64df-4433-adac-ddee73d3666c","ios":"levelo://app?vid=6f487aa9-64df-4433-adac-ddee73d3666c"},"vehicle_type_id":"4","last_reported":1753042332,"current_range_meters":10800,"station_id":"ce4bh292rcd13ifvqdg0","pricing_plan_id":"cebpf4jnsgd1na2vs0mg"},{"bike_id":"1df011d8-c865-4620-8a06-3b0d09c7f986","system_id":"levelo_inurba_marseille","lat":43.29266,"lon":5.38448,"is_reserved":false,"is_disabled":false,"rental_uris":{"android":"levelo://app?vid=1df011d8-c865-4620-8a06-3b0d09c7f986","ios":"levelo://app?vid=1df011d8-c865-4620-8a06-3b0d09c7f986"},"vehicle_type_id":"4","last_reported":1753042332,"current_range_meters":11200,"station_id":"ce4bh692rcd13ifvqea0","pricing_plan_id":"cebpf4jnsgd1na2vs0mg"},{"bike_id":"20597f8e-6c1b-4a51-9e3f-8ecf88381375","system_id":"levelo_inurba_marseille","lat":43.30301,"lon":5.39204,"is_reserved":false,"is_disabled":true,"rental_uris":{"android":"levelo://app?vid=20597f8e-6c1b-4a51-9e3f-8ecf88381375","ios":"levelo://app?vid=20597f8e-6c1b-4a51-9e3f-8ecf88381375"},"vehicle_type_id":"4","last_reported":1753042332,"current_range_meters":11200,"station_id":"ce4bgkh2rcd13ifvqbk0","pricing_plan_id":"cebpf4jnsgd1na2vs0mg"},{"bike_id":"b9d2f6b1-2316-4e08-a5d8-0d15d3bb3c6d","system_id":"levelo_inurba_marseille","lat":43.27417,"lon":5.38828,"is_reserved":false,"is_disabled":false,"rental_uris":{"android":"levelo://app?vid=b9d2f6b1-2316-4e08-a5d8-0d15d3bb3c6d","ios":"levelo://app?vid=b9d2f6b1-2316-4e08-a5d8-0d15d3bb3c6d"},"vehicle_type_id":"4","last_reported":1753042332,"current_range_meters":11200,"station_id":"","pricing_plan_id":"cebpf4jnsgd1na2vs0mg"},{"bike_id":"6a3d7c78-79a9-459d-9300-696e7920ae8c","system_id":"levelo_inurba_marseille","lat":43.29368,"lon":5.39868,"is_reserved":false,"is_disabled":false,"rental_uris":{"android":"levelo://app?vid=6a3d7c78-79a9-459d-9300-696e7920ae8c","ios":"levelo://app?vid=6a3d7c78-79a9-459d-9300-696e7920ae8c"},"vehicle_type_id":"4","last_reported":1753042332,"current_range_meters":11200,"station_id":"","pricing_plan_id":"cebpf4jnsgd1na2vs0mg"},{"bike_id":"f68d8254-db0b-46a2-a69f-3e1967ab6abf","system_id":"levelo_inurba_marseille","lat":43.30142,"lon":5.38777,"is_reserved":false,"is_disabled":false,"rental_uris":{"android":"levelo://app?vid=f68d8254-db0b-46a2-a69f-3e1967ab6abf","ios":"levelo://app?vid=f68d8254-db0b-46a2-a69f-3e1967ab6abf"},"vehicle_type_id":"4","last_reported":1753042332,"current_range_meters":11200,"station_id":"ce4bghh2rcd13ifvqb60","pricing_plan_id":"cebpf4jnsgd1na2vs0mg"},{"bike_id":"fa06e38c-58b9-4aea-bcf5-74a645703fd3","system_id":"levelo_inurba_marseille","lat":43.28726,"lon":5.39993,"is_reserved":false,"is_disabled":true,"rental_uris":{"android":"levelo://app?vid=fa06e38c-58b9-4aea-bcf5-74a645703fd3","ios":"levelo://app?vid=fa06e38c-58b9-4aea-bcf5-74a645703fd3"},"vehicle_type_id":"4","last_reported":1753042332,"current_range_meters":11600,"station_id":"ce4bho92rcd13ifvqh3g","pricing_plan_id":"cebpf4jnsgd1na2vs0mg"},{"bike_id":"beb14892-a851-4f8e-b873-cbd3d15ad0a9","system_id":"levelo_inurba_marseille","lat":43.2375,"lon":5.36203,"is_reserved":false,"is_disabled":false,"rental_uris":{"android":"levelo://app?vid=beb14892-a851-4f8e-b873-cbd3d15ad0a9","ios":"levelo://app?vid=beb14892-a851-4f8e-b873-cbd3d15ad0a9"},"vehicle_type_id":"4","last_reported":1753042332,"current_range_meters":11600,"station_id":"","pricing_plan_id":"cebpf4jnsgd1na2vs0mg"},{"bike_id":"4505f6b7-6ff4-4178-8278-62348175a8bb","system_id":"levelo_inurba_marseille","lat":43.25107,"lon":5.40327,"is_reserved":false,"is_disabled":false,"rental_uris":{"android":"levelo://app?vid=4505f6b7-6ff4-4178-8278-62348175a8bb","ios":"levelo://app?vid=4505f6b7-6ff4-4178-8278-62348175a8bb"},"vehicle_type_id":"4","last_reported":1753042332,"current_range_meters":11600,"station_id":"ce4bhlh2rcd13ifvqgig","pricing_plan_id":"cebpf4jnsgd1na2vs0mg"},{"bike_id":"1c73d57b-8ea1-45cf-89cf-c6c96315b119","system_id":"levelo_inurba_marseille","lat":43.2293,"lon":5.35399,"is_reserved":false,"is_disabled":false,"rental_uris":{"android":"levelo://app?vid=1c73d57b-8ea1-45cf-89cf-c6c96315b119","ios":"levelo://app?vid=1c73d57b-8ea1-45cf-89cf-c6c96315b119"},"vehicle_type_id":"4","last_reported":1753042332,"current_range_meters":11600,"station_id":"cpo3532slgdg3j2ikp40","pricing_plan_id":"cebpf4jnsgd1na2vs0mg"},{"bike_id":"590f4077-86f6-403a-9813-b406512a7a2d","system_id":"levelo_inurba_marseille","lat":43.29784,"lon":5.37104,"is_reserved":false,"is_disabled":false,"rental_uris":{"android":"levelo://app?vid=590f4077-86f6-403a-9813-b406512a7a2d","ios":"levelo://app?vid=590f4077-86f6-403a-9813-b406512a7a2d"},"vehicle_type_id":"4","last_reported":1753042332,"current_range_meters":11600,"station_id":"ce4bgop2rcd13ifvqc1g","pricing_plan_id":"cebpf4jnsgd1na2vs0mg"},{"bike_id":"747a9921-9b97-445c-9bab-2721d1fdcbc0","system_id":"levelo_inurba_marseille","lat":43.28711,"lon":5.37959,"is_reserved":false,"is_disabled":false,"rental_uris":{"android":"levelo://app?vid=747a9921-9b97-445c-9bab-2721d1fdcbc0","ios":"levelo://app?vid=747a9921-9b97-445c-9bab-2721d1fdcbc0"},"vehicle_type_id":"4","last_reported":1753042332,"current_range_meters":11600,"station_id":"ce4bh9p2rcd13ifvqec0","pricing_plan_id":"cebpf4jnsgd1na2vs0mg"},{"bike_id":"ec56498c-7315-46d2-8779-4f1d12c61dba","system_id":"levelo_inurba_marseille","lat":43.26757,"lon":5.37791,"is_reserved":false,"is_disabled":false,"rental_uris":{"android":"levelo://app?vid=ec56498c-7315-46d2-8779-4f1d12c61dba","ios":"levelo://app?vid=ec56498c-7315-46d2-8779-4f1d12c61dba"},"vehicle_type_id":"4","last_reported":1753042332,"current_range_meters":12000,"station_id":"","pricing_plan_id":"cebpf4jnsgd1na2vs0mg"},{"bike_id":"e00ce506-3076-474d-93bd-071948f431ca","system_id":"levelo_inurba_marseille","lat":43.28102,"lon":5.37867,"is_reserved":false,"is_disabled":false,"rental_uris":{"android":"levelo://app?vid=e00ce506-3076-474d-93bd-071948f431ca","ios":"levelo://app?vid=e00ce506-3076-474d-93bd-071948f431ca"},"vehicle_type_id":"4","last_reported":1753042332,"current_range_meters":12000,"station_id":"ce4bha12rcd13ifvqee0","pricing_plan_id":"cebpf4jnsgd1na2vs0mg"},{"bike_id":"1e8b1880-264c-4b77-bf82-6c996a6dc688","system_id":"levelo_inurba_marseille","lat":43.21186,"lon":5.35088,"is_reserved":false,"is_disabled":false,"rental_uris":{"android":"levelo://app?vid=1e8b1880-264c-4b77-bf82-6c996a6dc688","ios":"levelo://app?vid=1e8b1880-264c-4b77-bf82-6c996a6dc688"},"vehicle_type_id":"4","last_reported":1753042332,"current_range_meters":12000,"station_id":"st_cvj6sg6p6f1abm77japg","pricing_plan_id":"cebpf4jnsgd1na2vs0mg"},{"bike_id":"ebdc5e13-1b62-40ba-abd3-99ace5e17310","system_id":"levelo_inurba_marseille","lat":43.28446,"lon":5.35886,"is_reserved":false,"is_disabled":false,"rental_uris":{"android":"levelo://app?vid=ebdc5e13-1b62-40ba-abd3-99ace5e17310","ios":"levelo://app?vid=ebdc5e13-1b62-40ba-abd3-99ace5e17310"},"vehicle_type_id":"4","last_reported":1753042332,"current_range_meters":12000,"station_id":"ce4bhah2rcd13ifvqei0","pricing_plan_id":"cebpf4jnsgd1na2vs0mg"},{"bike_id":"95b5bcfa-54af-48c0-bd18-8f73f959ce2b","system_id":"levelo_inurba_marseille","lat":43.31935,"lon":5.37313,"is_reserved":false,"is_disabled":true,"rental_uris":{"android":"levelo://app?vid=95b5bcfa-54af-48c0-bd18-8f73f959ce2b","ios":"levelo://app?vid=95b5bcfa-54af-48c0-bd18-8f73f959ce2b"},"vehicle_type_id":"4","last_reported":1753042332,"current_range_meters":12000,"station_id":"","pricing_plan_id":"cebpf4jnsgd1na2vs0mg"},{"bike_id":"f2f2bd19-b121-41cd-ae99-815e39e06ebd","system_id":"levelo_inurba_marseille","lat":43.32108,"lon":5.36774,"is_reserved":false,"is_disabled":false,"rental_uris":{"android":"levelo://app?vid=f2f2bd19-b121-41cd-ae99-815e39e06ebd","ios":"levelo://app?vid=f2f2bd19-b121-41cd-ae99-815e39e06ebd"},"vehicle_type_id":"4","last_reported":1753042332,"current_range_meters":12000,"station_id":"ce4bhrh2rcd13ifvqhug","pricing_plan_id":"cebpf4jnsgd1na2vs0mg"},{"bike_id":"299ec8a6-d5a7-41ea-8121-1c7f792257d2","system_id":"levelo_inurba_marseille","lat":43.27369,"lon":5.36252,"is_reserved":false,"is_disabled":true,"rental_uris":{"android":"levelo://app?vid=299ec8a6-d5a7-41ea-8121-1c7f792257d2","ios":"levelo://app?vid=299ec8a6-d5a7-41ea-8121-1c7f792257d2"},"vehicle_type_id":"4","last_reported":1753042332,"current_range_meters":12400,"station_id":"ce4bhbh2rcd13ifvqeo0","pricing_plan_id":"cebpf4jnsgd1na2vs0mg"},{"bike_id":"218a227e-c64f-4f98-8a22-59cb1cdfd846","system_id":"levelo_inurba_marseille","lat":43.24064,"lon":5.37737,"is_reserved":false,"is_disabled":true,"rental_uris":{"android":"levelo://app?vid=218a227e-c64f-4f98-8a22-59cb1cdfd846","ios":"levelo://app?vid=218a227e-c64f-4f98-8a22-59cb1cdfd846"},"vehicle_type_id":"4","last_reported":1753042332,"current_range_meters":12400,"station_id":"ce4bhnp2rcd13ifvqgvg","pricing_plan_id":"cebpf4jnsgd1na2vs0mg"},{"bike_id":"475b43c1-36e1-43aa-a826-97036a5cee7b","system_id":"levelo_inurba_marseille","lat":43.25718,"lon":5.4112,"is_reserved":false,"is_disabled":false,"rental_uris":{"android":"levelo://app?vid=475b43c1-36e1-43aa-a826-97036a5cee7b","ios":"levelo://app?vid=475b43c1-36e1-43aa-a826-97036a5cee7b"},"vehicle_type_id":"4","last_reported":1753042332,"current_range_meters":12400,"station_id":"ce4bhkp2rcd13ifvqgd0","pricing_plan_id":"cebpf4jnsgd1na2vs0mg"},{"bike_id":"7988183c-a382-4df8-bfe0-44c34ab63148","system_id":"levelo_inurba_marseille","lat":43.24617,"lon":5.38191,"is_reserved":false,"is_disabled":false,"rental_uris":{"android":"levelo://app?vid=7988183c-a382-4df8-bfe0-44c34ab63148","ios":"levelo://app?vid=7988183c-a382-4df8-bfe0-44c34ab63148"},"vehicle_type_id":"4","last_reported":1753042332,"current_range_meters":12400,"station_id":"","pricing_plan_id":"cebpf4jnsgd1na2vs0mg"},{"bike_id":"2a82b3bf-7824-40b0-b3f8-42be02f8eacb","system_id":"levelo_inurba_marseille","lat":43.31072,"lon":5.38357,"is_reserved":false,"is_disabled":false,"rental_uris":{"android":"levelo://app?vid=2a82b3bf-7824-40b0-b3f8-42be02f8eacb","ios":"levelo://app?vid=2a82b3bf-7824-40b0-b3f8-42be02f8eacb"},"vehicle_type_id":"4","last_reported":1753042332,"current_range_meters":12800,"station_id":"ce4bgv92rcd13ifvqcr0","pricing_plan_id":"cebpf4jnsgd1na2vs0mg"},{"bike_id":"3c612d33-b46b-45b5-9dc2-3d6c81b25914","system_id":"levelo_inurba_marseille","lat":43.29239,"lon":5.38455,"is_reserved":false,"is_disabled":false,"rental_uris":{"android":"levelo://app?vid=3c612d33-b46b-45b5-9dc2-3d6c81b25914","ios":"levelo://app?vid=3c612d33-b46b-45b5-9dc2-3d6c81b25914"},"vehicle_type_id":"4","last_reported":1753042332,"current_range_meters":12800,"station_id":"ce4bh692rcd13ifvqea0","pricing_plan_id":"cebpf4jnsgd1na2vs0mg"},{"bike_id":"86c3422c-5828-4ec9-8c82-7bec17ac3699","system_id":"levelo_inurba_marseille","lat":43.23187,"lon":5.39982,"is_reserved":false,"is_disabled":false,"rental_uris":{"android":"levelo://app?vid=86c3422c-5828-4ec9-8c82-7bec17ac3699","ios":"levelo://app?vid=86c3422c-5828-4ec9-8c82-7bec17ac3699"},"vehicle_type_id":"4","last_reported":1753042332,"current_range_meters":12800,"station_id":"ce4bhn12rcd13ifvqgqg","pricing_plan_id":"cebpf4jnsgd1na2vs0mg"},{"bike_id":"96793585-b370-4499-97b5-55297e845c8f","system_id":"levelo_inurba_marseille","lat":43.21748,"lon":5.34607,"is_reserved":false,"is_disabled":true,"rental_uris":{"android":"levelo://app?vid=96793585-b370-4499-97b5-55297e845c8f","ios":"levelo://app?vid=96793585-b370-4499-97b5-55297e845c8f"},"vehicle_type_id":"4","last_reported":1753042332,"current_range_meters":12800,"station_id":"st_cvj6r9ubvosntc0bgbag","pricing_plan_id":"cebpf4jnsgd1na2vs0mg"},{"bike_id":"dee6628b-f370-478a-a4db-32c84542aee7","system_id":"levelo_inurba_marseille","lat":43.33299,"lon":5.39026,"is_reserved":false,"is_disabled":false,"rental_uris":{"android":"levelo://app?vid=dee6628b-f370-478a-a4db-32c84542aee7","ios":"levelo://app?vid=dee6628b-f370-478a-a4db-32c84542aee7"},"vehicle_type_id":"4","last_reported":1753042332,"current_range_meters":12800,"station_id":"","pricing_plan_id":"cebpf4jnsgd1na2vs0mg"},{"bike_id":"28b93f25-4009-4190-9f0b-776f40c9d086","system_id":"levelo_inurba_marseille","lat":43.28699,"lon":5.39984,"is_reserved":false,"is_disabled":false,"rental_uris":{"android":"levelo://app?vid=28b93f25-4009-4190-9f0b-776f40c9d086","ios":"levelo://app?vid=28b93f25-4009-4190-9f0b-776f40c9d086"},"vehicle_type_id":"4","last_reported":1753042332,"current_range_meters":12800,"station_id":"ce4bho92rcd13ifvqh3g","pricing_plan_id":"cebpf4jnsgd1na2vs0mg"},{"bike_id":"c9695da4-3048-4cfc-83f0-62c3fac1ccbe","system_id":"levelo_inurba_marseille","lat":43.230586,"lon":5.354866,"is_reserved":false,"is_disabled":true,"rental_uris":{"android":"levelo://app?vid=c9695da4-3048-4cfc-83f0-62c3fac1ccbe","ios":"levelo://app?vid=c9695da4-3048-4cfc-83f0-62c3fac1ccbe"},"vehicle_type_id":"4","last_reported":1753042332,"current_range_meters":13600,"station_id":"cpo3342slgdg3j2ifvpg","pricing_plan_id":"cebpf4jnsgd1na2vs0mg"},{"bike_id":"23f63ba4-47a8-4698-8541-86e9793f0c4d","system_id":"levelo_inurba_marseille","lat":43.29783,"lon":5.38094,"is_reserved":false,"is_disabled":false,"rental_uris":{"android":"levelo://app?vid=23f63ba4-47a8-4698-8541-86e9793f0c4d","ios":"levelo://app?vid=23f63ba4-47a8-4698-8541-86e9793f0c4d"},"vehicle_type_id":"4","last_reported":1753042332,"current_range_meters":13600,"station_id":"ce4bgip2rcd13ifvqbb0","pricing_plan_id":"cebpf4jnsgd1na2vs0mg"},{"bike_id":"25ba3407-5a3a-4241-bff3-f1bbd1fc5162","system_id":"levelo_inurba_marseille","lat":43.29252,"lon":5.40917,"is_reserved":false,"is_disabled":false,"rental_uris":{"android":"levelo://app?vid=25ba3407-5a3a-4241-bff3-f1bbd1fc5162","ios":"levelo://app?vid=25ba3407-5a3a-4241-bff3-f1bbd1fc5162"},"vehicle_type_id":"4","last_reported":1753042332,"current_range_meters":13600,"station_id":"ce4bh192rcd13ifvqdc0","pricing_plan_id":"cebpf4jnsgd1na2vs0mg"},{"bike_id":"dc102aa4-04d1-41d0-8ea6-57da1898bfee","system_id":"levelo_inurba_marseille","lat":43.26218,"lon":5.40455,"is_reserved":false,"is_disabled":false,"rental_uris":{"android":"levelo://app?vid=dc102aa4-04d1-41d0-8ea6-57da1898bfee","ios":"levelo://app?vid=dc102aa4-04d1-41d0-8ea6-57da1898bfee"},"vehicle_type_id":"4","last_reported":1753042332,"current_range_meters":13600,"station_id":"ce4bhmh2rcd13ifvqgmg","pricing_plan_id":"cebpf4jnsgd1na2vs0mg"},{"bike_id":"03635c92-c916-417c-a6f6-78b349df6203","system_id":"levelo_inurba_marseille","lat":43.29913,"lon":5.36514,"is_reserved":false,"is_disabled":false,"rental_uris":{"android":"levelo://app?vid=03635c92-c916-417c-a6f6-78b349df6203","ios":"levelo://app?vid=03635c92-c916-417c-a6f6-78b349df6203"},"vehicle_type_id":"4","last_reported":1753042332,"current_range_meters":13600,"station_id":"ce4bgm92rcd13ifvqbr0","pricing_plan_id":"cebpf4jnsgd1na2vs0mg"},{"bike_id":"d3aca52a-4e64-461a-8fd1-e9a035bafbdf","system_id":"levelo_inurba_marseille","lat":43.257213,"lon":5.411019,"is_reserved":false,"is_disabled":false,"rental_uris":{"android":"levelo://app?vid=d3aca52a-4e64-461a-8fd1-e9a035bafbdf","ios":"levelo://app?vid=d3aca52a-4e64-461a-8fd1-e9a035bafbdf"},"vehicle_type_id":"4","last_reported":1753042332,"current_range_meters":13600,"station_id":"","pricing_plan_id":"cebpf4jnsgd1na2vs0mg"},{"bike_id":"9ceba5fd-8765-4185-b831-caa56073c506","system_id":"levelo_inurba_marseille","lat":43.29577,"lon":5.39977,"is_reserved":false,"is_disabled":false,"rental_uris":{"android":"levelo://app?vid=9ceba5fd-8765-4185-b831-caa56073c506","ios":"levelo://app?vid=9ceba5fd-8765-4185-b831-caa56073c506"},"vehicle_type_id":"4","last_reported":1753042332,"current_range_meters":12800,"station_id":"ce4bh312rcd13ifvqdj0","pricing_plan_id":"cebpf4jnsgd1na2vs0mg"},{"bike_id":"053762ef-2967-4c03-83aa-9c21c06b9aed","system_id":"levelo_inurba_marseille","lat":43.24063,"lon":5.37709,"is_reserved":false,"is_disabled":false,"rental_uris":{"android":"levelo://app?vid=053762ef-2967-4c03-83aa-9c21c06b9aed","ios":"levelo://app?vid=053762ef-2967-4c03-83aa-9c21c06b9aed"},"vehicle_type_id":"4","last_reported":1753042332,"current_range_meters":13600,"station_id":"ce4bhnp2rcd13ifvqgvg","pricing_plan_id":"cebpf4jnsgd1na2vs0mg"},{"bike_id":"b8770ee5-6932-449a-a0a4-494e3fb105e9","system_id":"levelo_inurba_marseille","lat":43.23194,"lon":5.35556,"is_reserved":false,"is_disabled":false,"rental_uris":{"android":"levelo://app?vid=b8770ee5-6932-449a-a0a4-494e3fb105e9","ios":"levelo://app?vid=b8770ee5-6932-449a-a0a4-494e3fb105e9"},"vehicle_type_id":"4","last_reported":1753042332,"current_range_meters":14000,"station_id":"ce4bhu92rcd13ifvqi70","pricing_plan_id":"cebpf4jnsgd1na2vs0mg"},{"bike_id":"02c734a1-449a-4577-93cf-d6c608c78150","system_id":"levelo_inurba_marseille","lat":43.287147,"lon":5.379427,"is_reserved":false,"is_disabled":false,"rental_uris":{"android":"levelo://app?vid=02c734a1-449a-4577-93cf-d6c608c78150","ios":"levelo://app?vid=02c734a1-449a-4577-93cf-d6c608c78150"},"vehicle_type_id":"4","last_reported":1753042332,"current_range_meters":14000,"station_id":"ce4bh9p2rcd13ifvqec0","pricing_plan_id":"cebpf4jnsgd1na2vs0mg"},{"bike_id":"bb8b05fe-0148-42a3-ae04-e8811f46c7b2","system_id":"levelo_inurba_marseille","lat":43.30461,"lon":5.37904,"is_reserved":false,"is_disabled":false,"rental_uris":{"android":"levelo://app?vid=bb8b05fe-0148-42a3-ae04-e8811f46c7b2","ios":"levelo://app?vid=bb8b05fe-0148-42a3-ae04-e8811f46c7b2"},"vehicle_type_id":"4","last_reported":1753042332,"current_range_meters":13600,"station_id":"ce4bgup2rcd13ifvqcn0","pricing_plan_id":"cebpf4jnsgd1na2vs0mg"},{"bike_id":"0cb2c80a-7457-4a4a-ad92-f0361b5225d6","system_id":"levelo_inurba_marseille","lat":43.24408,"lon":5.37429,"is_reserved":false,"is_disabled":false,"rental_uris":{"android":"levelo://app?vid=0cb2c80a-7457-4a4a-ad92-f0361b5225d6","ios":"levelo://app?vid=0cb2c80a-7457-4a4a-ad92-f0361b5225d6"},"vehicle_type_id":"4","last_reported":1753042332,"current_range_meters":14000,"station_id":"","pricing_plan_id":"cebpf4jnsgd1na2vs0mg"},{"bike_id":"d9ffc317-5093-4b79-a3ac-b6a04220854f","system_id":"levelo_inurba_marseille","lat":43.287201,"lon":5.379444,"is_reserved":false,"is_disabled":false,"rental_uris":{"android":"levelo://app?vid=d9ffc317-5093-4b79-a3ac-b6a04220854f","ios":"levelo://app?vid=d9ffc317-5093-4b79-a3ac-b6a04220854f"},"vehicle_type_id":"4","last_reported":1753042332,"current_range_meters":14000,"station_id":"ce4bh9p2rcd13ifvqec0","pricing_plan_id":"cebpf4jnsgd1na2vs0mg"},{"bike_id":"3c960266-acbd-4f7b-85f3-453e4626e9b9","system_id":"levelo_inurba_marseille","lat":43.296982,"lon":5.376705,"is_reserved":false,"is_disabled":false,"rental_uris":{"android":"levelo://app?vid=3c960266-acbd-4f7b-85f3-453e4626e9b9","ios":"levelo://app?vid=3c960266-acbd-4f7b-85f3-453e4626e9b9"},"vehicle_type_id":"4","last_reported":1753042332,"current_range_meters":14000,"station_id":"ce4bgkh2rcd13ifvqbl0","pricing_plan_id":"cebpf4jnsgd1na2vs0mg"},{"bike_id":"ff2c165e-5b5b-40b7-9ef9-0c664fd09a94","system_id":"levelo_inurba_marseille","lat":43.29022,"lon":5.38652,"is_reserved":false,"is_disabled":true,"rental_uris":{"android":"levelo://app?vid=ff2c165e-5b5b-40b7-9ef9-0c664fd09a94","ios":"levelo://app?vid=ff2c165e-5b5b-40b7-9ef9-0c664fd09a94"},"vehicle_type_id":"4","last_reported":1753042332,"current_range_meters":14000,"station_id":"ce4bh4p2rcd13ifvqe0g","pricing_plan_id":"cebpf4jnsgd1na2vs0mg"},{"bike_id":"a61dcce2-1eb3-444f-8c30-fdb609e21138","system_id":"levelo_inurba_marseille","lat":43.23578,"lon":5.36136,"is_reserved":false,"is_disabled":false,"rental_uris":{"android":"levelo://app?vid=a61dcce2-1eb3-444f-8c30-fdb609e21138","ios":"levelo://app?vid=a61dcce2-1eb3-444f-8c30-fdb609e21138"},"vehicle_type_id":"4","last_reported":1753042332,"current_range_meters":14400,"station_id":"","pricing_plan_id":"cebpf4jnsgd1na2vs0mg"},{"bike_id":"8af4ec46-0e3d-4672-8f3f-e4983f9d320c","system_id":"levelo_inurba_marseille","lat":43.29866,"lon":5.39731,"is_reserved":false,"is_disabled":false,"rental_uris":{"android":"levelo://app?vid=8af4ec46-0e3d-4672-8f3f-e4983f9d320c","ios":"levelo://app?vid=8af4ec46-0e3d-4672-8f3f-e4983f9d320c"},"vehicle_type_id":"4","last_reported":1753042332,"current_range_meters":14400,"station_id":"ce4bh0h2rcd13ifvqd50","pricing_plan_id":"cebpf4jnsgd1na2vs0mg"},{"bike_id":"6bf26bb8-cf49-416e-b074-40f89efd526c","system_id":"levelo_inurba_marseille","lat":43.29281,"lon":5.36851,"is_reserved":false,"is_disabled":false,"rental_uris":{"android":"levelo://app?vid=6bf26bb8-cf49-416e-b074-40f89efd526c","ios":"levelo://app?vid=6bf26bb8-cf49-416e-b074-40f89efd526c"},"vehicle_type_id":"4","last_reported":1753042332,"current_range_meters":14400,"station_id":"ce4bhbp2rcd13ifvqesg","pricing_plan_id":"cebpf4jnsgd1na2vs0mg"},{"bike_id":"482f6641-abe7-4780-9bcd-2e246966a766","system_id":"levelo_inurba_marseille","lat":43.28722,"lon":5.37951,"is_reserved":false,"is_disabled":false,"rental_uris":{"android":"levelo://app?vid=482f6641-abe7-4780-9bcd-2e246966a766","ios":"levelo://app?vid=482f6641-abe7-4780-9bcd-2e246966a766"},"vehicle_type_id":"4","last_reported":1753042332,"current_range_meters":14400,"station_id":"ce4bh9p2rcd13ifvqec0","pricing_plan_id":"cebpf4jnsgd1na2vs0mg"},{"bike_id":"bc734f6a-9d57-4890-aea1-b2ed0da20d96","system_id":"levelo_inurba_marseille","lat":43.29254,"lon":5.38445,"is_reserved":false,"is_disabled":false,"rental_uris":{"android":"levelo://app?vid=bc734f6a-9d57-4890-aea1-b2ed0da20d96","ios":"levelo://app?vid=bc734f6a-9d57-4890-aea1-b2ed0da20d96"},"vehicle_type_id":"4","last_reported":1753042332,"current_range_meters":14400,"station_id":"ce4bh692rcd13ifvqea0","pricing_plan_id":"cebpf4jnsgd1na2vs0mg"},{"bike_id":"07fb1559-bb03-4902-a00a-f9dcbdfe6cfb","system_id":"levelo_inurba_marseille","lat":43.28701,"lon":5.37406,"is_reserved":false,"is_disabled":false,"rental_uris":{"android":"levelo://app?vid=07fb1559-bb03-4902-a00a-f9dcbdfe6cfb","ios":"levelo://app?vid=07fb1559-bb03-4902-a00a-f9dcbdfe6cfb"},"vehicle_type_id":"4","last_reported":1753042332,"current_range_meters":14800,"station_id":"ce4bh3p2rcd13ifvqdq0","pricing_plan_id":"cebpf4jnsgd1na2vs0mg"},{"bike_id":"f335eb8b-f2b0-48df-963c-2425602f9038","system_id":"levelo_inurba_marseille","lat":43.270044,"lon":5.401204,"is_reserved":false,"is_disabled":true,"rental_uris":{"android":"levelo://app?vid=f335eb8b-f2b0-48df-963c-2425602f9038","ios":"levelo://app?vid=f335eb8b-f2b0-48df-963c-2425602f9038"},"vehicle_type_id":"4","last_reported":1753042332,"current_range_meters":14800,"station_id":"","pricing_plan_id":"cebpf4jnsgd1na2vs0mg"},{"bike_id":"eb240428-00e7-472b-91f5-4bf4c52fb633","system_id":"levelo_inurba_marseille","lat":43.26211,"lon":5.37917,"is_reserved":false,"is_disabled":true,"rental_uris":{"android":"levelo://app?vid=eb240428-00e7-472b-91f5-4bf4c52fb633","ios":"levelo://app?vid=eb240428-00e7-472b-91f5-4bf4c52fb633"},"vehicle_type_id":"4","last_reported":1753042332,"current_range_meters":14800,"station_id":"ce4bhjp2rcd13ifvqg90","pricing_plan_id":"cebpf4jnsgd1na2vs0mg"},{"bike_id":"c1e6057c-ff5a-4477-a9f1-93444a633642","system_id":"levelo_inurba_marseille","lat":43.2718,"lon":5.39006,"is_reserved":false,"is_disabled":false,"rental_uris":{"android":"levelo://app?vid=c1e6057c-ff5a-4477-a9f1-93444a633642","ios":"levelo://app?vid=c1e6057c-ff5a-4477-a9f1-93444a633642"},"vehicle_type_id":"4","last_reported":1753042332,"current_range_meters":14800,"station_id":"","pricing_plan_id":"cebpf4jnsgd1na2vs0mg"},{"bike_id":"cb331a89-56a6-4651-9865-7241cd4ca587","system_id":"levelo_inurba_marseille","lat":43.324796,"lon":5.365723,"is_reserved":false,"is_disabled":false,"rental_uris":{"android":"levelo://app?vid=cb331a89-56a6-4651-9865-7241cd4ca587","ios":"levelo://app?vid=cb331a89-56a6-4651-9865-7241cd4ca587"},"vehicle_type_id":"4","last_reported":1753042332,"current_range_meters":14800,"station_id":"ce4bhs12rcd13ifvqhvg","pricing_plan_id":"cebpf4jnsgd1na2vs0mg"},{"bike_id":"0c9fda16-8b10-4ddb-83f6-57b94a90b3c1","system_id":"levelo_inurba_marseille","lat":43.27996,"lon":5.40012,"is_reserved":false,"is_disabled":false,"rental_uris":{"android":"levelo://app?vid=0c9fda16-8b10-4ddb-83f6-57b94a90b3c1","ios":"levelo://app?vid=0c9fda16-8b10-4ddb-83f6-57b94a90b3c1"},"vehicle_type_id":"4","last_reported":1753042332,"current_range_meters":14800,"station_id":"ce4bho92rcd13ifvqh4g","pricing_plan_id":"cebpf4jnsgd1na2vs0mg"},{"bike_id":"c297701c-c5e4-4588-bc94-b2867a1562aa","system_id":"levelo_inurba_marseille","lat":43.299191,"lon":5.38143,"is_reserved":false,"is_disabled":false,"rental_uris":{"android":"levelo://app?vid=c297701c-c5e4-4588-bc94-b2867a1562aa","ios":"levelo://app?vid=c297701c-c5e4-4588-bc94-b2867a1562aa"},"vehicle_type_id":"4","last_reported":1753042332,"current_range_meters":14800,"station_id":"ce4bgj12rcd13ifvqbc0","pricing_plan_id":"cebpf4jnsgd1na2vs0mg"},{"bike_id":"8b70e333-db95-4dad-9f25-3f58617e52f2","system_id":"levelo_inurba_marseille","lat":43.299051,"lon":5.436625,"is_reserved":false,"is_disabled":false,"rental_uris":{"android":"levelo://app?vid=8b70e333-db95-4dad-9f25-3f58617e52f2","ios":"levelo://app?vid=8b70e333-db95-4dad-9f25-3f58617e52f2"},"vehicle_type_id":"4","last_reported":1753042332,"current_range_meters":14800,"station_id":"ce4bhpp2rcd13ifvqhfg","pricing_plan_id":"cebpf4jnsgd1na2vs0mg"},{"bike_id":"e7789d1c-4eae-4083-8210-16bdf8536f7a","system_id":"levelo_inurba_marseille","lat":43.29271,"lon":5.38452,"is_reserved":false,"is_disabled":false,"rental_uris":{"android":"levelo://app?vid=e7789d1c-4eae-4083-8210-16bdf8536f7a","ios":"levelo://app?vid=e7789d1c-4eae-4083-8210-16bdf8536f7a"},"vehicle_type_id":"4","last_reported":1753042332,"current_range_meters":15200,"station_id":"ce4bh692rcd13ifvqea0","pricing_plan_id":"cebpf4jnsgd1na2vs0mg"},{"bike_id":"ff304561-c8ce-4ac1-9008-9c7fa7a2d85b","system_id":"levelo_inurba_marseille","lat":43.292593,"lon":5.3843,"is_reserved":false,"is_disabled":true,"rental_uris":{"android":"levelo://app?vid=ff304561-c8ce-4ac1-9008-9c7fa7a2d85b","ios":"levelo://app?vid=ff304561-c8ce-4ac1-9008-9c7fa7a2d85b"},"vehicle_type_id":"4","last_reported":1753042332,"current_range_meters":15200,"station_id":"ce4bh692rcd13ifvqea0","pricing_plan_id":"cebpf4jnsgd1na2vs0mg"},{"bike_id":"6d9a9c88-df96-4871-8c5e-a347b9fcabc1","system_id":"levelo_inurba_marseille","lat":43.29104,"lon":5.38157,"is_reserved":false,"is_disabled":false,"rental_uris":{"android":"levelo://app?vid=6d9a9c88-df96-4871-8c5e-a347b9fcabc1","ios":"levelo://app?vid=6d9a9c88-df96-4871-8c5e-a347b9fcabc1"},"vehicle_type_id":"4","last_reported":1753042332,"current_range_meters":15200,"station_id":"ce4bh512rcd13ifvqe2g","pricing_plan_id":"cebpf4jnsgd1na2vs0mg"},{"bike_id":"aa7039ed-31a0-4747-a640-e94f3558d15e","system_id":"levelo_inurba_marseille","lat":43.22503,"lon":5.34774,"is_reserved":false,"is_disabled":true,"rental_uris":{"android":"levelo://app?vid=aa7039ed-31a0-4747-a640-e94f3558d15e","ios":"levelo://app?vid=aa7039ed-31a0-4747-a640-e94f3558d15e"},"vehicle_type_id":"4","last_reported":1753042332,"current_range_meters":15200,"station_id":"","pricing_plan_id":"cebpf4jnsgd1na2vs0mg"},{"bike_id":"bdc1fd4b-3be2-43ec-8490-24512b54e93c","system_id":"levelo_inurba_marseille","lat":43.28858,"lon":5.39309,"is_reserved":false,"is_disabled":false,"rental_uris":{"android":"levelo://app?vid=bdc1fd4b-3be2-43ec-8490-24512b54e93c","ios":"levelo://app?vid=bdc1fd4b-3be2-43ec-8490-24512b54e93c"},"vehicle_type_id":"4","last_reported":1753042332,"current_range_meters":15200,"station_id":"ce4bh2p2rcd13ifvqdi0","pricing_plan_id":"cebpf4jnsgd1na2vs0mg"},{"bike_id":"9f7ea2d6-53a5-431f-8290-da483f6d97a1","system_id":"levelo_inurba_marseille","lat":43.29796,"lon":5.4041,"is_reserved":false,"is_disabled":false,"rental_uris":{"android":"levelo://app?vid=9f7ea2d6-53a5-431f-8290-da483f6d97a1","ios":"levelo://app?vid=9f7ea2d6-53a5-431f-8290-da483f6d97a1"},"vehicle_type_id":"4","last_reported":1753042332,"current_range_meters":14800,"station_id":"ce4bh112rcd13ifvqd90","pricing_plan_id":"cebpf4jnsgd1na2vs0mg"},{"bike_id":"53cb4f43-b1af-4efe-9f40-e0338804f4d4","system_id":"levelo_inurba_marseille","lat":43.31272,"lon":5.39039,"is_reserved":false,"is_disabled":false,"rental_uris":{"android":"levelo://app?vid=53cb4f43-b1af-4efe-9f40-e0338804f4d4","ios":"levelo://app?vid=53cb4f43-b1af-4efe-9f40-e0338804f4d4"},"vehicle_type_id":"4","last_reported":1753042332,"current_range_meters":15200,"station_id":"","pricing_plan_id":"cebpf4jnsgd1na2vs0mg"},{"bike_id":"712b2c19-dff5-49aa-b43e-5783a98f2ef5","system_id":"levelo_inurba_marseille","lat":43.28976,"lon":5.378358,"is_reserved":false,"is_disabled":false,"rental_uris":{"android":"levelo://app?vid=712b2c19-dff5-49aa-b43e-5783a98f2ef5","ios":"levelo://app?vid=712b2c19-dff5-49aa-b43e-5783a98f2ef5"},"vehicle_type_id":"4","last_reported":1753042332,"current_range_meters":14800,"station_id":"ce4bh9p2rcd13ifvqed0","pricing_plan_id":"cebpf4jnsgd1na2vs0mg"},{"bike_id":"5ccf6fcb-646f-4acf-9fbc-c7f16de7c973","system_id":"levelo_inurba_marseille","lat":43.326521,"lon":5.42334,"is_reserved":false,"is_disabled":false,"rental_uris":{"android":"levelo://app?vid=5ccf6fcb-646f-4acf-9fbc-c7f16de7c973","ios":"levelo://app?vid=5ccf6fcb-646f-4acf-9fbc-c7f16de7c973"},"vehicle_type_id":"4","last_reported":1753042332,"current_range_meters":15200,"station_id":"","pricing_plan_id":"cebpf4jnsgd1na2vs0mg"},{"bike_id":"07cdfafc-f31d-475e-b196-66c066928703","system_id":"levelo_inurba_marseille","lat":43.25581,"lon":5.38224,"is_reserved":false,"is_disabled":false,"rental_uris":{"android":"levelo://app?vid=07cdfafc-f31d-475e-b196-66c066928703","ios":"levelo://app?vid=07cdfafc-f31d-475e-b196-66c066928703"},"vehicle_type_id":"4","last_reported":1753042332,"current_range_meters":15200,"station_id":"ce4bhih2rcd13ifvqfs0","pricing_plan_id":"cebpf4jnsgd1na2vs0mg"},{"bike_id":"b6380031-1931-4b9b-95e3-9731b8b81348","system_id":"levelo_inurba_marseille","lat":43.29789,"lon":5.371987,"is_reserved":false,"is_disabled":true,"rental_uris":{"android":"levelo://app?vid=b6380031-1931-4b9b-95e3-9731b8b81348","ios":"levelo://app?vid=b6380031-1931-4b9b-95e3-9731b8b81348"},"vehicle_type_id":"4","last_reported":1753042332,"current_range_meters":15200,"station_id":"","pricing_plan_id":"cebpf4jnsgd1na2vs0mg"},{"bike_id":"93d88ba9-9cc8-4c82-9669-62f3756a8012","system_id":"levelo_inurba_marseille","lat":43.30887,"lon":5.37208,"is_reserved":false,"is_disabled":false,"rental_uris":{"android":"levelo://app?vid=93d88ba9-9cc8-4c82-9669-62f3756a8012","ios":"levelo://app?vid=93d88ba9-9cc8-4c82-9669-62f3756a8012"},"vehicle_type_id":"4","last_reported":1753042332,"current_range_meters":15200,"station_id":"ce4bguh2rcd13ifvqckg","pricing_plan_id":"cebpf4jnsgd1na2vs0mg"},{"bike_id":"9cc371a2-7c5d-4315-8fb5-724e3f50e0e8","system_id":"levelo_inurba_marseille","lat":43.23059,"lon":5.35492,"is_reserved":false,"is_disabled":false,"rental_uris":{"android":"levelo://app?vid=9cc371a2-7c5d-4315-8fb5-724e3f50e0e8","ios":"levelo://app?vid=9cc371a2-7c5d-4315-8fb5-724e3f50e0e8"},"vehicle_type_id":"4","last_reported":1753042332,"current_range_meters":15200,"station_id":"cpo3342slgdg3j2ifvpg","pricing_plan_id":"cebpf4jnsgd1na2vs0mg"},{"bike_id":"6e9a1427-dc9c-43d9-92e2-3c03a7d4d52f","system_id":"levelo_inurba_marseille","lat":43.33138,"lon":5.38182,"is_reserved":false,"is_disabled":false,"rental_uris":{"android":"levelo://app?vid=6e9a1427-dc9c-43d9-92e2-3c03a7d4d52f","ios":"levelo://app?vid=6e9a1427-dc9c-43d9-92e2-3c03a7d4d52f"},"vehicle_type_id":"4","last_reported":1753042332,"current_range_meters":16400,"station_id":"","pricing_plan_id":"cebpf4jnsgd1na2vs0mg"},{"bike_id":"341eec4e-ddcf-4f75-95c6-ecd84ef432ec","system_id":"levelo_inurba_marseille","lat":43.22937,"lon":5.35398,"is_reserved":false,"is_disabled":false,"rental_uris":{"android":"levelo://app?vid=341eec4e-ddcf-4f75-95c6-ecd84ef432ec","ios":"levelo://app?vid=341eec4e-ddcf-4f75-95c6-ecd84ef432ec"},"vehicle_type_id":"4","last_reported":1753042332,"current_range_meters":16000,"station_id":"cpo3532slgdg3j2ikp40","pricing_plan_id":"cebpf4jnsgd1na2vs0mg"},{"bike_id":"4c8283f7-9214-4f90-b93f-b371d5ff3abb","system_id":"levelo_inurba_marseille","lat":43.21195,"lon":5.35071,"is_reserved":false,"is_disabled":false,"rental_uris":{"android":"levelo://app?vid=4c8283f7-9214-4f90-b93f-b371d5ff3abb","ios":"levelo://app?vid=4c8283f7-9214-4f90-b93f-b371d5ff3abb"},"vehicle_type_id":"4","last_reported":1753042332,"current_range_meters":16000,"station_id":"st_cvj6sg6p6f1abm77japg","pricing_plan_id":"cebpf4jnsgd1na2vs0mg"},{"bike_id":"f3f581c3-7fd6-46b6-b25c-df950de01306","system_id":"levelo_inurba_marseille","lat":43.28712,"lon":5.40002,"is_reserved":false,"is_disabled":true,"rental_uris":{"android":"levelo://app?vid=f3f581c3-7fd6-46b6-b25c-df950de01306","ios":"levelo://app?vid=f3f581c3-7fd6-46b6-b25c-df950de01306"},"vehicle_type_id":"4","last_reported":1753042332,"current_range_meters":16000,"station_id":"ce4bho92rcd13ifvqh3g","pricing_plan_id":"cebpf4jnsgd1na2vs0mg"},{"bike_id":"0ffd3c7b-1067-403b-97b9-abb83be40727","system_id":"levelo_inurba_marseille","lat":43.29447,"lon":5.39751,"is_reserved":false,"is_disabled":false,"rental_uris":{"android":"levelo://app?vid=0ffd3c7b-1067-403b-97b9-abb83be40727","ios":"levelo://app?vid=0ffd3c7b-1067-403b-97b9-abb83be40727"},"vehicle_type_id":"4","last_reported":1753042332,"current_range_meters":16000,"station_id":"ce4bh3h2rcd13ifvqdo0","pricing_plan_id":"cebpf4jnsgd1na2vs0mg"},{"bike_id":"ab8c511a-6481-4d3a-8469-191a883191ab","system_id":"levelo_inurba_marseille","lat":43.28396,"lon":5.37544,"is_reserved":false,"is_disabled":false,"rental_uris":{"android":"levelo://app?vid=ab8c511a-6481-4d3a-8469-191a883191ab","ios":"levelo://app?vid=ab8c511a-6481-4d3a-8469-191a883191ab"},"vehicle_type_id":"4","last_reported":1753042332,"current_range_meters":15200,"station_id":"ce4bh412rcd13ifvqds0","pricing_plan_id":"cebpf4jnsgd1na2vs0mg"},{"bike_id":"8979afbb-d831-492b-8bd1-2b5d774796f7","system_id":"levelo_inurba_marseille","lat":43.27045,"lon":5.42268,"is_reserved":false,"is_disabled":false,"rental_uris":{"android":"levelo://app?vid=8979afbb-d831-492b-8bd1-2b5d774796f7","ios":"levelo://app?vid=8979afbb-d831-492b-8bd1-2b5d774796f7"},"vehicle_type_id":"4","last_reported":1753042332,"current_range_meters":16000,"station_id":"ce4bhk92rcd13ifvqgb0","pricing_plan_id":"cebpf4jnsgd1na2vs0mg"},{"bike_id":"7230cb4d-8cd2-4957-9d99-c27265ab6ce1","system_id":"levelo_inurba_marseille","lat":43.29299,"lon":5.37168,"is_reserved":false,"is_disabled":false,"rental_uris":{"android":"levelo://app?vid=7230cb4d-8cd2-4957-9d99-c27265ab6ce1","ios":"levelo://app?vid=7230cb4d-8cd2-4957-9d99-c27265ab6ce1"},"vehicle_type_id":"4","last_reported":1753042332,"current_range_meters":16000,"station_id":"","pricing_plan_id":"cebpf4jnsgd1na2vs0mg"},{"bike_id":"38188964-4978-44c1-8278-3d99d01337ed","system_id":"levelo_inurba_marseille","lat":43.29274,"lon":5.38448,"is_reserved":false,"is_disabled":false,"rental_uris":{"android":"levelo://app?vid=38188964-4978-44c1-8278-3d99d01337ed","ios":"levelo://app?vid=38188964-4978-44c1-8278-3d99d01337ed"},"vehicle_type_id":"4","last_reported":1753042332,"current_range_meters":16000,"station_id":"ce4bh692rcd13ifvqea0","pricing_plan_id":"cebpf4jnsgd1na2vs0mg"},{"bike_id":"4e5823ac-9313-4e20-81da-720a18c2dac7","system_id":"levelo_inurba_marseille","lat":43.32106,"lon":5.368,"is_reserved":false,"is_disabled":false,"rental_uris":{"android":"levelo://app?vid=4e5823ac-9313-4e20-81da-720a18c2dac7","ios":"levelo://app?vid=4e5823ac-9313-4e20-81da-720a18c2dac7"},"vehicle_type_id":"4","last_reported":1753042332,"current_range_meters":16000,"station_id":"ce4bhrh2rcd13ifvqhug","pricing_plan_id":"cebpf4jnsgd1na2vs0mg"},{"bike_id":"37d8cb1b-1988-4390-9e4c-4eca73c82c19","system_id":"levelo_inurba_marseille","lat":43.2619,"lon":5.37453,"is_reserved":false,"is_disabled":true,"rental_uris":{"android":"levelo://app?vid=37d8cb1b-1988-4390-9e4c-4eca73c82c19","ios":"levelo://app?vid=37d8cb1b-1988-4390-9e4c-4eca73c82c19"},"vehicle_type_id":"4","last_reported":1753042332,"current_range_meters":16000,"station_id":"ce4bhgp2rcd13ifvqfc0","pricing_plan_id":"cebpf4jnsgd1na2vs0mg"},{"bike_id":"63b0b856-af33-4970-b22e-c07117f2395e","system_id":"levelo_inurba_marseille","lat":43.21167,"lon":5.35124,"is_reserved":false,"is_disabled":false,"rental_uris":{"android":"levelo://app?vid=63b0b856-af33-4970-b22e-c07117f2395e","ios":"levelo://app?vid=63b0b856-af33-4970-b22e-c07117f2395e"},"vehicle_type_id":"4","last_reported":1753042332,"current_range_meters":16000,"station_id":"st_cvj6sg6p6f1abm77japg","pricing_plan_id":"cebpf4jnsgd1na2vs0mg"},{"bike_id":"03772b11-05f4-48cd-b352-479340b3f53c","system_id":"levelo_inurba_marseille","lat":43.2847,"lon":5.38456,"is_reserved":false,"is_disabled":true,"rental_uris":{"android":"levelo://app?vid=03772b11-05f4-48cd-b352-479340b3f53c","ios":"levelo://app?vid=03772b11-05f4-48cd-b352-479340b3f53c"},"vehicle_type_id":"4","last_reported":1753042332,"current_range_meters":16000,"station_id":"ce4bh512rcd13ifvqe3g","pricing_plan_id":"cebpf4jnsgd1na2vs0mg"},{"bike_id":"7e2fa4b1-6111-4d2a-89b5-f724f16e410e","system_id":"levelo_inurba_marseille","lat":43.28129,"lon":5.4264,"is_reserved":false,"is_disabled":false,"rental_uris":{"android":"levelo://app?vid=7e2fa4b1-6111-4d2a-89b5-f724f16e410e","ios":"levelo://app?vid=7e2fa4b1-6111-4d2a-89b5-f724f16e410e"},"vehicle_type_id":"4","last_reported":1753042332,"current_range_meters":16000,"station_id":"ce4bhnh2rcd13ifvqgug","pricing_plan_id":"cebpf4jnsgd1na2vs0mg"},{"bike_id":"99fc23ec-b6cf-4e9d-a90a-627cc90aa9b7","system_id":"levelo_inurba_marseille","lat":43.29261,"lon":5.38433,"is_reserved":false,"is_disabled":false,"rental_uris":{"android":"levelo://app?vid=99fc23ec-b6cf-4e9d-a90a-627cc90aa9b7","ios":"levelo://app?vid=99fc23ec-b6cf-4e9d-a90a-627cc90aa9b7"},"vehicle_type_id":"4","last_reported":1753042332,"current_range_meters":16000,"station_id":"ce4bh692rcd13ifvqea0","pricing_plan_id":"cebpf4jnsgd1na2vs0mg"},{"bike_id":"42752829-3ee2-4e84-849d-429017304915","system_id":"levelo_inurba_marseille","lat":43.28453,"lon":5.35971,"is_reserved":false,"is_disabled":true,"rental_uris":{"android":"levelo://app?vid=42752829-3ee2-4e84-849d-429017304915","ios":"levelo://app?vid=42752829-3ee2-4e84-849d-429017304915"},"vehicle_type_id":"4","last_reported":1753042332,"current_range_meters":16000,"station_id":"ce4bhah2rcd13ifvqei0","pricing_plan_id":"cebpf4jnsgd1na2vs0mg"},{"bike_id":"3a0ad0b3-730c-4b6f-afc8-d25401cb7d69","system_id":"levelo_inurba_marseille","lat":43.24685,"lon":5.38178,"is_reserved":false,"is_disabled":false,"rental_uris":{"android":"levelo://app?vid=3a0ad0b3-730c-4b6f-afc8-d25401cb7d69","ios":"levelo://app?vid=3a0ad0b3-730c-4b6f-afc8-d25401cb7d69"},"vehicle_type_id":"4","last_reported":1753042332,"current_range_meters":16000,"station_id":"ce4bhih2rcd13ifvqfr0","pricing_plan_id":"cebpf4jnsgd1na2vs0mg"},{"bike_id":"4825f572-5606-4699-8c58-8ed13b8f359f","system_id":"levelo_inurba_marseille","lat":43.24169,"lon":5.36407,"is_reserved":false,"is_disabled":true,"rental_uris":{"android":"levelo://app?vid=4825f572-5606-4699-8c58-8ed13b8f359f","ios":"levelo://app?vid=4825f572-5606-4699-8c58-8ed13b8f359f"},"vehicle_type_id":"4","last_reported":1753042332,"current_range_meters":16400,"station_id":"cpo36qri1sfpv3e86is0","pricing_plan_id":"cebpf4jnsgd1na2vs0mg"},{"bike_id":"4355836e-ae99-4039-b85f-c4e239c9dca5","system_id":"levelo_inurba_marseille","lat":43.29892,"lon":5.4364,"is_reserved":false,"is_disabled":false,"rental_uris":{"android":"levelo://app?vid=4355836e-ae99-4039-b85f-c4e239c9dca5","ios":"levelo://app?vid=4355836e-ae99-4039-b85f-c4e239c9dca5"},"vehicle_type_id":"4","last_reported":1753042332,"current_range_meters":16400,"station_id":"ce4bhpp2rcd13ifvqhfg","pricing_plan_id":"cebpf4jnsgd1na2vs0mg"},{"bike_id":"b1c7f2f0-1a0a-4a9d-8ee6-abe3950a939e","system_id":"levelo_inurba_marseille","lat":43.28844,"lon":5.39313,"is_reserved":false,"is_disabled":false,"rental_uris":{"android":"levelo://app?vid=b1c7f2f0-1a0a-4a9d-8ee6-abe3950a939e","ios":"levelo://app?vid=b1c7f2f0-1a0a-4a9d-8ee6-abe3950a939e"},"vehicle_type_id":"4","last_reported":1753042332,"current_range_meters":16400,"station_id":"ce4bh2p2rcd13ifvqdi0","pricing_plan_id":"cebpf4jnsgd1na2vs0mg"},{"bike_id":"e0785b12-a3f3-4d52-8157-2005b5688f24","system_id":"levelo_inurba_marseille","lat":43.310743,"lon":5.383556,"is_reserved":false,"is_disabled":false,"rental_uris":{"android":"levelo://app?vid=e0785b12-a3f3-4d52-8157-2005b5688f24","ios":"levelo://app?vid=e0785b12-a3f3-4d52-8157-2005b5688f24"},"vehicle_type_id":"4","last_reported":1753042332,"current_range_meters":16400,"station_id":"","pricing_plan_id":"cebpf4jnsgd1na2vs0mg"},{"bike_id":"61544ea3-a0b6-4fb1-9f76-fa48ec8fc6a3","system_id":"levelo_inurba_marseille","lat":43.30281,"lon":5.37726,"is_reserved":false,"is_disabled":true,"rental_uris":{"android":"levelo://app?vid=61544ea3-a0b6-4fb1-9f76-fa48ec8fc6a3","ios":"levelo://app?vid=61544ea3-a0b6-4fb1-9f76-fa48ec8fc6a3"},"vehicle_type_id":"4","last_reported":1753042332,"current_range_meters":16400,"station_id":"ce4bguh2rcd13ifvqcj0","pricing_plan_id":"cebpf4jnsgd1na2vs0mg"},{"bike_id":"91f3f1b7-ec72-46d1-a603-4babab5fd129","system_id":"levelo_inurba_marseille","lat":43.28693,"lon":5.37391,"is_reserved":false,"is_disabled":false,"rental_uris":{"android":"levelo://app?vid=91f3f1b7-ec72-46d1-a603-4babab5fd129","ios":"levelo://app?vid=91f3f1b7-ec72-46d1-a603-4babab5fd129"},"vehicle_type_id":"4","last_reported":1753042332,"current_range_meters":16400,"station_id":"ce4bh3p2rcd13ifvqdq0","pricing_plan_id":"cebpf4jnsgd1na2vs0mg"},{"bike_id":"257a7b0b-4aa6-4c43-a30c-bb31780f1925","system_id":"levelo_inurba_marseille","lat":43.29594,"lon":5.38091,"is_reserved":false,"is_disabled":false,"rental_uris":{"android":"levelo://app?vid=257a7b0b-4aa6-4c43-a30c-bb31780f1925","ios":"levelo://app?vid=257a7b0b-4aa6-4c43-a30c-bb31780f1925"},"vehicle_type_id":"4","last_reported":1753042332,"current_range_meters":16400,"station_id":"ce4bgl12rcd13ifvqbo0","pricing_plan_id":"cebpf4jnsgd1na2vs0mg"},{"bike_id":"c82a52a4-3569-456f-8537-5f2257772393","system_id":"levelo_inurba_marseille","lat":43.28352,"lon":5.38622,"is_reserved":false,"is_disabled":false,"rental_uris":{"android":"levelo://app?vid=c82a52a4-3569-456f-8537-5f2257772393","ios":"levelo://app?vid=c82a52a4-3569-456f-8537-5f2257772393"},"vehicle_type_id":"4","last_reported":1753042332,"current_range_meters":16400,"station_id":"ce4bh492rcd13ifvqdvg","pricing_plan_id":"cebpf4jnsgd1na2vs0mg"},{"bike_id":"927a0097-72cd-48bb-8181-8d94a42a01bd","system_id":"levelo_inurba_marseille","lat":43.29854,"lon":5.36271,"is_reserved":false,"is_disabled":false,"rental_uris":{"android":"levelo://app?vid=927a0097-72cd-48bb-8181-8d94a42a01bd","ios":"levelo://app?vid=927a0097-72cd-48bb-8181-8d94a42a01bd"},"vehicle_type_id":"4","last_reported":1753042332,"current_range_meters":16800,"station_id":"ce4bgpp2rcd13ifvqc3g","pricing_plan_id":"cebpf4jnsgd1na2vs0mg"},{"bike_id":"ed1f74e4-d527-419b-811f-d9c06e7b1eda","system_id":"levelo_inurba_marseille","lat":43.23186,"lon":5.39987,"is_reserved":false,"is_disabled":false,"rental_uris":{"android":"levelo://app?vid=ed1f74e4-d527-419b-811f-d9c06e7b1eda","ios":"levelo://app?vid=ed1f74e4-d527-419b-811f-d9c06e7b1eda"},"vehicle_type_id":"4","last_reported":1753042332,"current_range_meters":16800,"station_id":"ce4bhn12rcd13ifvqgqg","pricing_plan_id":"cebpf4jnsgd1na2vs0mg"},{"bike_id":"6a6b2ff3-cee3-4205-bb5e-82a0645ef825","system_id":"levelo_inurba_marseille","lat":43.29871,"lon":5.39713,"is_reserved":false,"is_disabled":false,"rental_uris":{"android":"levelo://app?vid=6a6b2ff3-cee3-4205-bb5e-82a0645ef825","ios":"levelo://app?vid=6a6b2ff3-cee3-4205-bb5e-82a0645ef825"},"vehicle_type_id":"4","last_reported":1753042332,"current_range_meters":16800,"station_id":"ce4bh0h2rcd13ifvqd50","pricing_plan_id":"cebpf4jnsgd1na2vs0mg"},{"bike_id":"01ef6f38-0cb9-4831-9c9a-0f76f326e484","system_id":"levelo_inurba_marseille","lat":43.28981,"lon":5.35635,"is_reserved":false,"is_disabled":true,"rental_uris":{"android":"levelo://app?vid=01ef6f38-0cb9-4831-9c9a-0f76f326e484","ios":"levelo://app?vid=01ef6f38-0cb9-4831-9c9a-0f76f326e484"},"vehicle_type_id":"4","last_reported":1753042332,"current_range_meters":16800,"station_id":"ce4bhb92rcd13ifvqen0","pricing_plan_id":"cebpf4jnsgd1na2vs0mg"},{"bike_id":"3d36c590-bfb3-4f3d-a821-3b0275041fa7","system_id":"levelo_inurba_marseille","lat":43.30384,"lon":5.41287,"is_reserved":false,"is_disabled":false,"rental_uris":{"android":"levelo://app?vid=3d36c590-bfb3-4f3d-a821-3b0275041fa7","ios":"levelo://app?vid=3d36c590-bfb3-4f3d-a821-3b0275041fa7"},"vehicle_type_id":"4","last_reported":1753042332,"current_range_meters":16800,"station_id":"ce4bhop2rcd13ifvqh8g","pricing_plan_id":"cebpf4jnsgd1na2vs0mg"},{"bike_id":"0430a59b-ff2a-400b-bfe2-a92f1d3bf233","system_id":"levelo_inurba_marseille","lat":43.29361,"lon":5.37864,"is_reserved":false,"is_disabled":false,"rental_uris":{"android":"levelo://app?vid=0430a59b-ff2a-400b-bfe2-a92f1d3bf233","ios":"levelo://app?vid=0430a59b-ff2a-400b-bfe2-a92f1d3bf233"},"vehicle_type_id":"4","last_reported":1753042332,"current_range_meters":16800,"station_id":"ce4bgjh2rcd13ifvqbf0","pricing_plan_id":"cebpf4jnsgd1na2vs0mg"},{"bike_id":"467330b1-db29-4f7c-9996-7d9d9b90c877","system_id":"levelo_inurba_marseille","lat":43.29019,"lon":5.38108,"is_reserved":false,"is_disabled":false,"rental_uris":{"android":"levelo://app?vid=467330b1-db29-4f7c-9996-7d9d9b90c877","ios":"levelo://app?vid=467330b1-db29-4f7c-9996-7d9d9b90c877"},"vehicle_type_id":"4","last_reported":1753042332,"current_range_meters":16800,"station_id":"ce4bh4p2rcd13ifvqe1g","pricing_plan_id":"cebpf4jnsgd1na2vs0mg"},{"bike_id":"428abd34-efd3-468f-8690-edd428d4e84d","system_id":"levelo_inurba_marseille","lat":43.28146,"lon":5.42644,"is_reserved":false,"is_disabled":false,"rental_uris":{"android":"levelo://app?vid=428abd34-efd3-468f-8690-edd428d4e84d","ios":"levelo://app?vid=428abd34-efd3-468f-8690-edd428d4e84d"},"vehicle_type_id":"4","last_reported":1753042332,"current_range_meters":16800,"station_id":"ce4bhnh2rcd13ifvqgug","pricing_plan_id":"cebpf4jnsgd1na2vs0mg"},{"bike_id":"d2a9ef2a-3ecf-454e-ac8d-c81b3a196753","system_id":"levelo_inurba_marseille","lat":43.28623,"lon":5.3822,"is_reserved":false,"is_disabled":false,"rental_uris":{"android":"levelo://app?vid=d2a9ef2a-3ecf-454e-ac8d-c81b3a196753","ios":"levelo://app?vid=d2a9ef2a-3ecf-454e-ac8d-c81b3a196753"},"vehicle_type_id":"4","last_reported":1753042332,"current_range_meters":16800,"station_id":"","pricing_plan_id":"cebpf4jnsgd1na2vs0mg"},{"bike_id":"97af3312-6a5f-4b04-9619-202874ae8295","system_id":"levelo_inurba_marseille","lat":43.29422,"lon":5.38594,"is_reserved":false,"is_disabled":false,"rental_uris":{"android":"levelo://app?vid=97af3312-6a5f-4b04-9619-202874ae8295","ios":"levelo://app?vid=97af3312-6a5f-4b04-9619-202874ae8295"},"vehicle_type_id":"4","last_reported":1753042332,"current_range_meters":16800,"station_id":"ce4bh2h2rcd13ifvqdh0","pricing_plan_id":"cebpf4jnsgd1na2vs0mg"},{"bike_id":"841226dc-d800-4af0-adb4-d3fc7c7cf8e8","system_id":"levelo_inurba_marseille","lat":43.29552,"lon":5.42298,"is_reserved":false,"is_disabled":true,"rental_uris":{"android":"levelo://app?vid=841226dc-d800-4af0-adb4-d3fc7c7cf8e8","ios":"levelo://app?vid=841226dc-d800-4af0-adb4-d3fc7c7cf8e8"},"vehicle_type_id":"4","last_reported":1753042332,"current_range_meters":16800,"station_id":"ce4bhph2rcd13ifvqhdg","pricing_plan_id":"cebpf4jnsgd1na2vs0mg"},{"bike_id":"1705f469-72b3-4b6b-a3ab-684dfcba22ca","system_id":"levelo_inurba_marseille","lat":43.26566,"lon":5.39028,"is_reserved":false,"is_disabled":true,"rental_uris":{"android":"levelo://app?vid=1705f469-72b3-4b6b-a3ab-684dfcba22ca","ios":"levelo://app?vid=1705f469-72b3-4b6b-a3ab-684dfcba22ca"},"vehicle_type_id":"4","last_reported":1753042332,"current_range_meters":16800,"station_id":"ce4bhe12rcd13ifvqf30","pricing_plan_id":"cebpf4jnsgd1na2vs0mg"},{"bike_id":"43e703c6-9907-49a0-ac06-2809026f4383","system_id":"levelo_inurba_marseille","lat":43.22499,"lon":5.34777,"is_reserved":false,"is_disabled":false,"rental_uris":{"android":"levelo://app?vid=43e703c6-9907-49a0-ac06-2809026f4383","ios":"levelo://app?vid=43e703c6-9907-49a0-ac06-2809026f4383"},"vehicle_type_id":"4","last_reported":1753042332,"current_range_meters":16800,"station_id":"st_cvj5dfep6f1abm77gieg","pricing_plan_id":"cebpf4jnsgd1na2vs0mg"},{"bike_id":"8a56a1fa-3b31-48a4-8c96-36e0e38e1642","system_id":"levelo_inurba_marseille","lat":43.30436,"lon":5.38892,"is_reserved":false,"is_disabled":false,"rental_uris":{"android":"levelo://app?vid=8a56a1fa-3b31-48a4-8c96-36e0e38e1642","ios":"levelo://app?vid=8a56a1fa-3b31-48a4-8c96-36e0e38e1642"},"vehicle_type_id":"4","last_reported":1753042332,"current_range_meters":17200,"station_id":"ce4bgk12rcd13ifvqbi0","pricing_plan_id":"cebpf4jnsgd1na2vs0mg"},{"bike_id":"8606d0fa-a3fd-4454-aa6a-5d3ce204aad0","system_id":"levelo_inurba_marseille","lat":43.29597,"lon":5.38115,"is_reserved":false,"is_disabled":false,"rental_uris":{"android":"levelo://app?vid=8606d0fa-a3fd-4454-aa6a-5d3ce204aad0","ios":"levelo://app?vid=8606d0fa-a3fd-4454-aa6a-5d3ce204aad0"},"vehicle_type_id":"4","last_reported":1753042332,"current_range_meters":17200,"station_id":"ce4bgl12rcd13ifvqbo0","pricing_plan_id":"cebpf4jnsgd1na2vs0mg"},{"bike_id":"f0cc2e5c-03da-463d-8f90-d58405d84b6c","system_id":"levelo_inurba_marseille","lat":43.3107,"lon":5.38362,"is_reserved":false,"is_disabled":false,"rental_uris":{"android":"levelo://app?vid=f0cc2e5c-03da-463d-8f90-d58405d84b6c","ios":"levelo://app?vid=f0cc2e5c-03da-463d-8f90-d58405d84b6c"},"vehicle_type_id":"4","last_reported":1753042332,"current_range_meters":17200,"station_id":"ce4bgv92rcd13ifvqcr0","pricing_plan_id":"cebpf4jnsgd1na2vs0mg"},{"bike_id":"9122425b-c5cf-427e-9633-739726b096af","system_id":"levelo_inurba_marseille","lat":43.29422,"lon":5.386006,"is_reserved":false,"is_disabled":false,"rental_uris":{"android":"levelo://app?vid=9122425b-c5cf-427e-9633-739726b096af","ios":"levelo://app?vid=9122425b-c5cf-427e-9633-739726b096af"},"vehicle_type_id":"4","last_reported":1753042332,"current_range_meters":17200,"station_id":"ce4bho92rcd13ifvqh3g","pricing_plan_id":"cebpf4jnsgd1na2vs0mg"},{"bike_id":"736c363b-3641-43dd-b890-bd43d8fd5283","system_id":"levelo_inurba_marseille","lat":43.21188,"lon":5.35079,"is_reserved":false,"is_disabled":false,"rental_uris":{"android":"levelo://app?vid=736c363b-3641-43dd-b890-bd43d8fd5283","ios":"levelo://app?vid=736c363b-3641-43dd-b890-bd43d8fd5283"},"vehicle_type_id":"4","last_reported":1753042332,"current_range_meters":17200,"station_id":"st_cvj6sg6p6f1abm77japg","pricing_plan_id":"cebpf4jnsgd1na2vs0mg"},{"bike_id":"52fc553f-1e8c-4701-a604-31e90c76b1d4","system_id":"levelo_inurba_marseille","lat":43.31485,"lon":5.37321,"is_reserved":false,"is_disabled":false,"rental_uris":{"android":"levelo://app?vid=52fc553f-1e8c-4701-a604-31e90c76b1d4","ios":"levelo://app?vid=52fc553f-1e8c-4701-a604-31e90c76b1d4"},"vehicle_type_id":"4","last_reported":1753042332,"current_range_meters":17200,"station_id":"ce4bgt12rcd13ifvqcd0","pricing_plan_id":"cebpf4jnsgd1na2vs0mg"},{"bike_id":"c74e87d7-a89a-4a27-913b-c6f5fc65f90c","system_id":"levelo_inurba_marseille","lat":43.28571,"lon":5.39499,"is_reserved":false,"is_disabled":false,"rental_uris":{"android":"levelo://app?vid=c74e87d7-a89a-4a27-913b-c6f5fc65f90c","ios":"levelo://app?vid=c74e87d7-a89a-4a27-913b-c6f5fc65f90c"},"vehicle_type_id":"4","last_reported":1753042332,"current_range_meters":17200,"station_id":"ce4bh292rcd13ifvqdg0","pricing_plan_id":"cebpf4jnsgd1na2vs0mg"},{"bike_id":"d100812f-9e77-4b3a-a11b-18211b570584","system_id":"levelo_inurba_marseille","lat":43.32494,"lon":5.36556,"is_reserved":false,"is_disabled":false,"rental_uris":{"android":"levelo://app?vid=d100812f-9e77-4b3a-a11b-18211b570584","ios":"levelo://app?vid=d100812f-9e77-4b3a-a11b-18211b570584"},"vehicle_type_id":"4","last_reported":1753042332,"current_range_meters":17200,"station_id":"ce4bhs12rcd13ifvqhvg","pricing_plan_id":"cebpf4jnsgd1na2vs0mg"},{"bike_id":"ecdfd721-9355-47ec-bb72-adc3ee5af59a","system_id":"levelo_inurba_marseille","lat":43.27183,"lon":5.40995,"is_reserved":false,"is_disabled":false,"rental_uris":{"android":"levelo://app?vid=ecdfd721-9355-47ec-bb72-adc3ee5af59a","ios":"levelo://app?vid=ecdfd721-9355-47ec-bb72-adc3ee5af59a"},"vehicle_type_id":"4","last_reported":1753042332,"current_range_meters":17200,"station_id":"ce4bhl12rcd13ifvqgf0","pricing_plan_id":"cebpf4jnsgd1na2vs0mg"},{"bike_id":"b2450978-2353-4d4d-93bd-ec44ae81fd08","system_id":"levelo_inurba_marseille","lat":43.28853,"lon":5.39319,"is_reserved":false,"is_disabled":false,"rental_uris":{"android":"levelo://app?vid=b2450978-2353-4d4d-93bd-ec44ae81fd08","ios":"levelo://app?vid=b2450978-2353-4d4d-93bd-ec44ae81fd08"},"vehicle_type_id":"4","last_reported":1753042332,"current_range_meters":17600,"station_id":"ce4bh2p2rcd13ifvqdi0","pricing_plan_id":"cebpf4jnsgd1na2vs0mg"},{"bike_id":"3527e5ec-8e88-4544-ab6a-55654224d928","system_id":"levelo_inurba_marseille","lat":43.23058,"lon":5.35485,"is_reserved":false,"is_disabled":false,"rental_uris":{"android":"levelo://app?vid=3527e5ec-8e88-4544-ab6a-55654224d928","ios":"levelo://app?vid=3527e5ec-8e88-4544-ab6a-55654224d928"},"vehicle_type_id":"4","last_reported":1753042332,"current_range_meters":17200,"station_id":"cpo3342slgdg3j2ifvpg","pricing_plan_id":"cebpf4jnsgd1na2vs0mg"},{"bike_id":"c47c4612-aa9a-40e0-9a78-5da247b20688","system_id":"levelo_inurba_marseille","lat":43.22505,"lon":5.34779,"is_reserved":false,"is_disabled":false,"rental_uris":{"android":"levelo://app?vid=c47c4612-aa9a-40e0-9a78-5da247b20688","ios":"levelo://app?vid=c47c4612-aa9a-40e0-9a78-5da247b20688"},"vehicle_type_id":"4","last_reported":1753042332,"current_range_meters":17200,"station_id":"st_cvj5dfep6f1abm77gieg","pricing_plan_id":"cebpf4jnsgd1na2vs0mg"},{"bike_id":"a500829a-0327-4b9e-908c-a1a350c1ed23","system_id":"levelo_inurba_marseille","lat":43.29264,"lon":5.38462,"is_reserved":false,"is_disabled":false,"rental_uris":{"android":"levelo://app?vid=a500829a-0327-4b9e-908c-a1a350c1ed23","ios":"levelo://app?vid=a500829a-0327-4b9e-908c-a1a350c1ed23"},"vehicle_type_id":"4","last_reported":1753042332,"current_range_meters":17200,"station_id":"ce4bh692rcd13ifvqea0","pricing_plan_id":"cebpf4jnsgd1na2vs0mg"},{"bike_id":"1c37a6c0-7fed-49e2-8fd4-2d775c26b7b0","system_id":"levelo_inurba_marseille","lat":43.23185,"lon":5.35555,"is_reserved":false,"is_disabled":false,"rental_uris":{"android":"levelo://app?vid=1c37a6c0-7fed-49e2-8fd4-2d775c26b7b0","ios":"levelo://app?vid=1c37a6c0-7fed-49e2-8fd4-2d775c26b7b0"},"vehicle_type_id":"4","last_reported":1753042332,"current_range_meters":17600,"station_id":"ce4bhu92rcd13ifvqi70","pricing_plan_id":"cebpf4jnsgd1na2vs0mg"},{"bike_id":"474ac65d-bd8b-4629-a217-92eff3842408","system_id":"levelo_inurba_marseille","lat":43.29395,"lon":5.37862,"is_reserved":false,"is_disabled":true,"rental_uris":{"android":"levelo://app?vid=474ac65d-bd8b-4629-a217-92eff3842408","ios":"levelo://app?vid=474ac65d-bd8b-4629-a217-92eff3842408"},"vehicle_type_id":"4","last_reported":1753042332,"current_range_meters":17600,"station_id":"ce4bgjh2rcd13ifvqbf0","pricing_plan_id":"cebpf4jnsgd1na2vs0mg"},{"bike_id":"9c4b1d9f-0c1d-4a53-99cf-578893c26f91","system_id":"levelo_inurba_marseille","lat":43.29033,"lon":5.39962,"is_reserved":false,"is_disabled":false,"rental_uris":{"android":"levelo://app?vid=9c4b1d9f-0c1d-4a53-99cf-578893c26f91","ios":"levelo://app?vid=9c4b1d9f-0c1d-4a53-99cf-578893c26f91"},"vehicle_type_id":"4","last_reported":1753042332,"current_range_meters":17200,"station_id":"ce4bh392rcd13ifvqdm0","pricing_plan_id":"cebpf4jnsgd1na2vs0mg"},{"bike_id":"bd17c5e2-df8a-4e58-83d8-5143938829aa","system_id":"levelo_inurba_marseille","lat":43.2978,"lon":5.37109,"is_reserved":false,"is_disabled":false,"rental_uris":{"android":"levelo://app?vid=bd17c5e2-df8a-4e58-83d8-5143938829aa","ios":"levelo://app?vid=bd17c5e2-df8a-4e58-83d8-5143938829aa"},"vehicle_type_id":"4","last_reported":1753042332,"current_range_meters":17600,"station_id":"ce4bgop2rcd13ifvqc1g","pricing_plan_id":"cebpf4jnsgd1na2vs0mg"},{"bike_id":"311c76cd-f13c-47e5-90ab-1faf25cf3458","system_id":"levelo_inurba_marseille","lat":43.301452,"lon":5.37374,"is_reserved":false,"is_disabled":false,"rental_uris":{"android":"levelo://app?vid=311c76cd-f13c-47e5-90ab-1faf25cf3458","ios":"levelo://app?vid=311c76cd-f13c-47e5-90ab-1faf25cf3458"},"vehicle_type_id":"4","last_reported":1753042332,"current_range_meters":17600,"station_id":"ce4bgs92rcd13ifvqcc0","pricing_plan_id":"cebpf4jnsgd1na2vs0mg"},{"bike_id":"263d4ced-6e04-4169-ac4b-7fa733c92fa6","system_id":"levelo_inurba_marseille","lat":43.32358,"lon":5.36762,"is_reserved":false,"is_disabled":false,"rental_uris":{"android":"levelo://app?vid=263d4ced-6e04-4169-ac4b-7fa733c92fa6","ios":"levelo://app?vid=263d4ced-6e04-4169-ac4b-7fa733c92fa6"},"vehicle_type_id":"4","last_reported":1753042332,"current_range_meters":17600,"station_id":"ce4bhsh2rcd13ifvqi2g","pricing_plan_id":"cebpf4jnsgd1na2vs0mg"},{"bike_id":"c86dc404-7f10-4f08-a031-782181030842","system_id":"levelo_inurba_marseille","lat":43.23197,"lon":5.39987,"is_reserved":false,"is_disabled":false,"rental_uris":{"android":"levelo://app?vid=c86dc404-7f10-4f08-a031-782181030842","ios":"levelo://app?vid=c86dc404-7f10-4f08-a031-782181030842"},"vehicle_type_id":"4","last_reported":1753042332,"current_range_meters":17600,"station_id":"ce4bhn12rcd13ifvqgqg","pricing_plan_id":"cebpf4jnsgd1na2vs0mg"},{"bike_id":"ac49738a-4d4f-43d3-9c67-46980e61ae95","system_id":"levelo_inurba_marseille","lat":43.31717,"lon":5.37709,"is_reserved":false,"is_disabled":false,"rental_uris":{"android":"levelo://app?vid=ac49738a-4d4f-43d3-9c67-46980e61ae95","ios":"levelo://app?vid=ac49738a-4d4f-43d3-9c67-46980e61ae95"},"vehicle_type_id":"4","last_reported":1753042332,"current_range_meters":17600,"station_id":"ce4bgth2rcd13ifvqch0","pricing_plan_id":"cebpf4jnsgd1na2vs0mg"},{"bike_id":"1bff2a07-f5ea-43a5-9113-6ab29a6a6cf8","system_id":"levelo_inurba_marseille","lat":43.31284,"lon":5.40132,"is_reserved":false,"is_disabled":false,"rental_uris":{"android":"levelo://app?vid=1bff2a07-f5ea-43a5-9113-6ab29a6a6cf8","ios":"levelo://app?vid=1bff2a07-f5ea-43a5-9113-6ab29a6a6cf8"},"vehicle_type_id":"4","last_reported":1753042332,"current_range_meters":18000,"station_id":"ce4bh092rcd13ifvqd30","pricing_plan_id":"cebpf4jnsgd1na2vs0mg"},{"bike_id":"ff5bba57-6d14-4f97-bab2-4d71c3e63161","system_id":"levelo_inurba_marseille","lat":43.21188,"lon":5.3508,"is_reserved":false,"is_disabled":false,"rental_uris":{"android":"levelo://app?vid=ff5bba57-6d14-4f97-bab2-4d71c3e63161","ios":"levelo://app?vid=ff5bba57-6d14-4f97-bab2-4d71c3e63161"},"vehicle_type_id":"4","last_reported":1753042332,"current_range_meters":18000,"station_id":"st_cvj6sg6p6f1abm77japg","pricing_plan_id":"cebpf4jnsgd1na2vs0mg"},{"bike_id":"551976cf-01df-4655-b8b6-f004d6681f19","system_id":"levelo_inurba_marseille","lat":43.27076,"lon":5.40268,"is_reserved":false,"is_disabled":true,"rental_uris":{"android":"levelo://app?vid=551976cf-01df-4655-b8b6-f004d6681f19","ios":"levelo://app?vid=551976cf-01df-4655-b8b6-f004d6681f19"},"vehicle_type_id":"4","last_reported":1753042332,"current_range_meters":18000,"station_id":"ce4bhk92rcd13ifvqgc0","pricing_plan_id":"cebpf4jnsgd1na2vs0mg"},{"bike_id":"91b5ab4f-1f58-43a2-8db9-93c240732132","system_id":"levelo_inurba_marseille","lat":43.308925,"lon":5.371878,"is_reserved":false,"is_disabled":false,"rental_uris":{"android":"levelo://app?vid=91b5ab4f-1f58-43a2-8db9-93c240732132","ios":"levelo://app?vid=91b5ab4f-1f58-43a2-8db9-93c240732132"},"vehicle_type_id":"4","last_reported":1753042332,"current_range_meters":18000,"station_id":"ce4bguh2rcd13ifvqckg","pricing_plan_id":"cebpf4jnsgd1na2vs0mg"},{"bike_id":"19665075-1169-45a7-af41-9f1c346d2c17","system_id":"levelo_inurba_marseille","lat":43.23955,"lon":5.36626,"is_reserved":false,"is_disabled":true,"rental_uris":{"android":"levelo://app?vid=19665075-1169-45a7-af41-9f1c346d2c17","ios":"levelo://app?vid=19665075-1169-45a7-af41-9f1c346d2c17"},"vehicle_type_id":"4","last_reported":1753042332,"current_range_meters":18000,"station_id":"ce4bhi12rcd13ifvqfp0","pricing_plan_id":"cebpf4jnsgd1na2vs0mg"},{"bike_id":"5c7cfd38-807b-4bef-9c5d-c2f0c95ce8df","system_id":"levelo_inurba_marseille","lat":43.23052,"lon":5.35505,"is_reserved":false,"is_disabled":false,"rental_uris":{"android":"levelo://app?vid=5c7cfd38-807b-4bef-9c5d-c2f0c95ce8df","ios":"levelo://app?vid=5c7cfd38-807b-4bef-9c5d-c2f0c95ce8df"},"vehicle_type_id":"4","last_reported":1753042332,"current_range_meters":18000,"station_id":"cpo3342slgdg3j2ifvpg","pricing_plan_id":"cebpf4jnsgd1na2vs0mg"},{"bike_id":"a0d354d7-2bf5-4aec-8013-b95deff3ae53","system_id":"levelo_inurba_marseille","lat":43.211921,"lon":5.350749,"is_reserved":false,"is_disabled":false,"rental_uris":{"android":"levelo://app?vid=a0d354d7-2bf5-4aec-8013-b95deff3ae53","ios":"levelo://app?vid=a0d354d7-2bf5-4aec-8013-b95deff3ae53"},"vehicle_type_id":"4","last_reported":1753042332,"current_range_meters":18000,"station_id":"","pricing_plan_id":"cebpf4jnsgd1na2vs0mg"},{"bike_id":"b1a3b294-ea2a-4c46-a49c-10c5adf9a563","system_id":"levelo_inurba_marseille","lat":43.299377,"lon":5.365563,"is_reserved":false,"is_disabled":false,"rental_uris":{"android":"levelo://app?vid=b1a3b294-ea2a-4c46-a49c-10c5adf9a563","ios":"levelo://app?vid=b1a3b294-ea2a-4c46-a49c-10c5adf9a563"},"vehicle_type_id":"4","last_reported":1753042332,"current_range_meters":18000,"station_id":"ce4bgm92rcd13ifvqbr0","pricing_plan_id":"cebpf4jnsgd1na2vs0mg"},{"bike_id":"3117258b-a0b2-4038-960e-7505313a6719","system_id":"levelo_inurba_marseille","lat":43.32108,"lon":5.36775,"is_reserved":false,"is_disabled":false,"rental_uris":{"android":"levelo://app?vid=3117258b-a0b2-4038-960e-7505313a6719","ios":"levelo://app?vid=3117258b-a0b2-4038-960e-7505313a6719"},"vehicle_type_id":"4","last_reported":1753042332,"current_range_meters":18000,"station_id":"ce4bhrh2rcd13ifvqhug","pricing_plan_id":"cebpf4jnsgd1na2vs0mg"},{"bike_id":"9b228c8d-8917-4e50-9768-16f2e73cc6ad","system_id":"levelo_inurba_marseille","lat":43.30594,"lon":5.39357,"is_reserved":false,"is_disabled":false,"rental_uris":{"android":"levelo://app?vid=9b228c8d-8917-4e50-9768-16f2e73cc6ad","ios":"levelo://app?vid=9b228c8d-8917-4e50-9768-16f2e73cc6ad"},"vehicle_type_id":"4","last_reported":1753042332,"current_range_meters":17200,"station_id":"ce4bh0p2rcd13ifvqd80","pricing_plan_id":"cebpf4jnsgd1na2vs0mg"},{"bike_id":"02bda465-5730-4d42-a0d1-5ffc89217a3f","system_id":"levelo_inurba_marseille","lat":43.28258,"lon":5.35066,"is_reserved":false,"is_disabled":false,"rental_uris":{"android":"levelo://app?vid=02bda465-5730-4d42-a0d1-5ffc89217a3f","ios":"levelo://app?vid=02bda465-5730-4d42-a0d1-5ffc89217a3f"},"vehicle_type_id":"4","last_reported":1753042332,"current_range_meters":18000,"station_id":"","pricing_plan_id":"cebpf4jnsgd1na2vs0mg"},{"bike_id":"5f487063-440d-442f-a123-b409e074a428","system_id":"levelo_inurba_marseille","lat":43.265497,"lon":5.372855,"is_reserved":false,"is_disabled":false,"rental_uris":{"android":"levelo://app?vid=5f487063-440d-442f-a123-b409e074a428","ios":"levelo://app?vid=5f487063-440d-442f-a123-b409e074a428"},"vehicle_type_id":"4","last_reported":1753042332,"current_range_meters":18000,"station_id":"","pricing_plan_id":"cebpf4jnsgd1na2vs0mg"},{"bike_id":"6a6e418a-76f1-494e-a1a1-ad0b4ec76e75","system_id":"levelo_inurba_marseille","lat":43.29026,"lon":5.3865,"is_reserved":false,"is_disabled":false,"rental_uris":{"android":"levelo://app?vid=6a6e418a-76f1-494e-a1a1-ad0b4ec76e75","ios":"levelo://app?vid=6a6e418a-76f1-494e-a1a1-ad0b4ec76e75"},"vehicle_type_id":"4","last_reported":1753042332,"current_range_meters":18000,"station_id":"ce4bh4p2rcd13ifvqe0g","pricing_plan_id":"cebpf4jnsgd1na2vs0mg"},{"bike_id":"57abbde9-9ee5-483b-8063-641c82b7c2e7","system_id":"levelo_inurba_marseille","lat":43.23183,"lon":5.39987,"is_reserved":false,"is_disabled":false,"rental_uris":{"android":"levelo://app?vid=57abbde9-9ee5-483b-8063-641c82b7c2e7","ios":"levelo://app?vid=57abbde9-9ee5-483b-8063-641c82b7c2e7"},"vehicle_type_id":"4","last_reported":1753042332,"current_range_meters":18000,"station_id":"ce4bhn12rcd13ifvqgqg","pricing_plan_id":"cebpf4jnsgd1na2vs0mg"},{"bike_id":"f69f5847-7ef4-4111-b448-8564f10656eb","system_id":"levelo_inurba_marseille","lat":43.28851,"lon":5.39308,"is_reserved":false,"is_disabled":false,"rental_uris":{"android":"levelo://app?vid=f69f5847-7ef4-4111-b448-8564f10656eb","ios":"levelo://app?vid=f69f5847-7ef4-4111-b448-8564f10656eb"},"vehicle_type_id":"4","last_reported":1753042332,"current_range_meters":18000,"station_id":"ce4bh2p2rcd13ifvqdi0","pricing_plan_id":"cebpf4jnsgd1na2vs0mg"},{"bike_id":"50d16da1-39af-48c8-9080-8fc1a2184959","system_id":"levelo_inurba_marseille","lat":43.211873,"lon":5.350712,"is_reserved":false,"is_disabled":false,"rental_uris":{"android":"levelo://app?vid=50d16da1-39af-48c8-9080-8fc1a2184959","ios":"levelo://app?vid=50d16da1-39af-48c8-9080-8fc1a2184959"},"vehicle_type_id":"4","last_reported":1753042332,"current_range_meters":18000,"station_id":"st_cvj6sg6p6f1abm77japg","pricing_plan_id":"cebpf4jnsgd1na2vs0mg"},{"bike_id":"2b47b056-c5ec-47ea-84d4-c5e4a02de71f","system_id":"levelo_inurba_marseille","lat":43.29556,"lon":5.42291,"is_reserved":false,"is_disabled":false,"rental_uris":{"android":"levelo://app?vid=2b47b056-c5ec-47ea-84d4-c5e4a02de71f","ios":"levelo://app?vid=2b47b056-c5ec-47ea-84d4-c5e4a02de71f"},"vehicle_type_id":"4","last_reported":1753042332,"current_range_meters":18000,"station_id":"ce4bhph2rcd13ifvqhdg","pricing_plan_id":"cebpf4jnsgd1na2vs0mg"},{"bike_id":"72529cae-3f3c-4b7d-bbb8-594b9baae14f","system_id":"levelo_inurba_marseille","lat":43.30421,"lon":5.38794,"is_reserved":false,"is_disabled":false,"rental_uris":{"android":"levelo://app?vid=72529cae-3f3c-4b7d-bbb8-594b9baae14f","ios":"levelo://app?vid=72529cae-3f3c-4b7d-bbb8-594b9baae14f"},"vehicle_type_id":"4","last_reported":1753042332,"current_range_meters":18000,"station_id":"","pricing_plan_id":"cebpf4jnsgd1na2vs0mg"},{"bike_id":"6e3762f8-ad72-4e27-898d-3b8e10ac5007","system_id":"levelo_inurba_marseille","lat":43.29254,"lon":5.38443,"is_reserved":false,"is_disabled":false,"rental_uris":{"android":"levelo://app?vid=6e3762f8-ad72-4e27-898d-3b8e10ac5007","ios":"levelo://app?vid=6e3762f8-ad72-4e27-898d-3b8e10ac5007"},"vehicle_type_id":"4","last_reported":1753042332,"current_range_meters":18000,"station_id":"ce4bh692rcd13ifvqea0","pricing_plan_id":"cebpf4jnsgd1na2vs0mg"},{"bike_id":"c4258e07-e2f7-4cae-8a5e-819a3fc46bcb","system_id":"levelo_inurba_marseille","lat":43.28614,"lon":5.370664,"is_reserved":false,"is_disabled":false,"rental_uris":{"android":"levelo://app?vid=c4258e07-e2f7-4cae-8a5e-819a3fc46bcb","ios":"levelo://app?vid=c4258e07-e2f7-4cae-8a5e-819a3fc46bcb"},"vehicle_type_id":"4","last_reported":1753042332,"current_range_meters":18800,"station_id":"ce4bht12rcd13ifvqi60","pricing_plan_id":"cebpf4jnsgd1na2vs0mg"},{"bike_id":"f7bdf980-c8f6-48ad-805b-3aabd31a0cfc","system_id":"levelo_inurba_marseille","lat":43.301342,"lon":5.398634,"is_reserved":false,"is_disabled":false,"rental_uris":{"android":"levelo://app?vid=f7bdf980-c8f6-48ad-805b-3aabd31a0cfc","ios":"levelo://app?vid=f7bdf980-c8f6-48ad-805b-3aabd31a0cfc"},"vehicle_type_id":"4","last_reported":1753042332,"current_range_meters":18800,"station_id":"ce4bh0h2rcd13ifvqd40","pricing_plan_id":"cebpf4jnsgd1na2vs0mg"},{"bike_id":"79d1d74e-60aa-4fd1-bd06-56f514b1335c","system_id":"levelo_inurba_marseille","lat":43.2993,"lon":5.36556,"is_reserved":false,"is_disabled":false,"rental_uris":{"android":"levelo://app?vid=79d1d74e-60aa-4fd1-bd06-56f514b1335c","ios":"levelo://app?vid=79d1d74e-60aa-4fd1-bd06-56f514b1335c"},"vehicle_type_id":"4","last_reported":1753042332,"current_range_meters":18800,"station_id":"ce4bgm92rcd13ifvqbr0","pricing_plan_id":"cebpf4jnsgd1na2vs0mg"},{"bike_id":"c695f162-6b42-40d7-8780-ed224e75f8e8","system_id":"levelo_inurba_marseille","lat":43.22793,"lon":5.34967,"is_reserved":false,"is_disabled":false,"rental_uris":{"android":"levelo://app?vid=c695f162-6b42-40d7-8780-ed224e75f8e8","ios":"levelo://app?vid=c695f162-6b42-40d7-8780-ed224e75f8e8"},"vehicle_type_id":"4","last_reported":1753042332,"current_range_meters":18800,"station_id":"","pricing_plan_id":"cebpf4jnsgd1na2vs0mg"},{"bike_id":"7f65ce50-53c3-4a03-9179-831deed16192","system_id":"levelo_inurba_marseille","lat":43.2316,"lon":5.35592,"is_reserved":false,"is_disabled":false,"rental_uris":{"android":"levelo://app?vid=7f65ce50-53c3-4a03-9179-831deed16192","ios":"levelo://app?vid=7f65ce50-53c3-4a03-9179-831deed16192"},"vehicle_type_id":"4","last_reported":1753042332,"current_range_meters":18800,"station_id":"ce4bhu92rcd13ifvqi70","pricing_plan_id":"cebpf4jnsgd1na2vs0mg"},