{"last_updated":1773466655,"ttl":60,"version":"2.2","data":{"bikes":[{"bike_id":"0ad92778-0405-4162-92fa-faf21d3b3fbb","system_id":"levelo_inurba_marseille","lat":43.30121,"lon":5.38804,"is_reserved":false,"is_disabled":false,"rental_uris":{"android":"levelo://app?vid=0ad92778-0405-4162-92fa-faf21d3b3fbb","ios":"levelo://app?vid=0ad92778-0405-4162-92fa-faf21d3b3fbb"},"vehicle_type_id":"4","last_reported":1773466656,"current_range_meters":38800,"station_id":"ce4bghh2rcd13ifvqb60","pricing_plan_id":"cebpf4jnsgd1na2vs0mg"},{"bike_id":"84258842-b27c-44d2-a3e3-a8ab065af084","system_id":"levelo_inurba_marseille","lat":43.26042,"lon":5.39404,"is_reserved":false,"is_disabled":false,"rental_uris":{"android":"levelo://app?vid=84258842-b27c-44d2-a3e3-a8ab065af084","ios":"levelo://app?vid=84258842-b27c-44d2-a3e3-a8ab065af084"},"vehicle_type_id":"4","last_reported":1773466656,"current_range_meters":35200,"station_id":"ce4bhh92rcd13ifvqfj0","pricing_plan_id":"cebpf4jnsgd1na2vs0mg"},{"bike_id":"4ee1719e-9828-41ad-ab0e-ac501a6f8dcb","system_id":"levelo_inurba_marseille","lat":43.26041,"lon":5.39395,"is_reserved":false,"is_disabled":false,"rental_uris":{"android":"levelo://app?vid=4ee1719e-9828-41ad-ab0e-ac501a6f8dcb","ios":"levelo://app?vid=4ee1719e-9828-41ad-ab0e-ac501a6f8dcb"},"vehicle_type_id":"4","last_reported":1773466656,"current_range_meters":10800,"station_id":"ce4bhh92rcd13ifvqfj0","pricing_plan_id":"cebpf4jnsgd1na2vs0mg"},{"bike_id":"e4c6d513-0f75-4d36-ab87-e09b44465632","system_id":"levelo_inurba_marseille","lat":43.27381,"lon":5.36253,"is_reserved":false,"is_disabled":true,"rental_uris":{"android":"levelo://app?vid=e4c6d513-0f75-4d36-ab87-e09b44465632","ios":"levelo://app?vid=e4c6d513-0f75-4d36-ab87-e09b44465632"},"vehicle_type_id":"4","last_reported":1773466656,"current_range_meters":38000,"station_id":"ce4bhbh2rcd13ifvqeo0","pricing_plan_id":"cebpf4jnsgd1na2vs0mg"},{"bike_id":"7e14bc2e-55c7-4a67-9771-c3ccbb379574","system_id":"levelo_inurba_marseille","lat":43.28435,"lon":5.39216,"is_reserved":false,"is_disabled":false,"rental_uris":{"android":"levelo://app?vid=7e14bc2e-55c7-4a67-9771-c3ccbb379574","ios":"levelo://app?vid=7e14bc2e-55c7-4a67-9771-c3ccbb379574"},"vehicle_type_id":"4","last_reported":1773466656,"current_range_meters":4000,"station_id":"ce4bhoh2rcd13ifvqh5g","pricing_plan_id":"cebpf4jnsgd1na2vs0mg"},{"bike_id":"7cd8e685-20fa-48e6-a56e-5519ae4dff63","system_id":"levelo_inurba_marseille","lat":43.30299,"lon":5.39198,"is_reserved":false,"is_disabled":false,"rental_uris":{"android":"levelo://app?vid=7cd8e685-20fa-48e6-a56e-5519ae4dff63","ios":"levelo://app?vid=7cd8e685-20fa-48e6-a56e-5519ae4dff63"},"vehicle_type_id":"4","last_reported":1773466656,"current_range_meters":10800,"station_id":"ce4bgkh2rcd13ifvqbk0","pricing_plan_id":"cebpf4jnsgd1na2vs0mg"},{"bike_id":"3ea5179b-699d-45b5-a6d1-f3b54a0b1f97","system_id":"levelo_inurba_marseille","lat":43.29262,"lon":5.40185,"is_reserved":false,"is_disabled":false,"rental_uris":{"android":"levelo://app?vid=3ea5179b-699d-45b5-a6d1-f3b54a0b1f97","ios":"levelo://app?vid=3ea5179b-699d-45b5-a6d1-f3b54a0b1f97"},"vehicle_type_id":"4","last_reported":1773466656,"current_range_meters":22800,"station_id":"ce4bh312rcd13ifvqdk0","pricing_plan_id":"cebpf4jnsgd1na2vs0mg"},{"bike_id":"dfd0a0f6-5285-4bd7-80a4-14fead877d67","system_id":"levelo_inurba_marseille","lat":43.25065,"lon":5.39549,"is_reserved":false,"is_disabled":false,"rental_uris":{"android":"levelo://app?vid=dfd0a0f6-5285-4bd7-80a4-14fead877d67","ios":"levelo://app?vid=dfd0a0f6-5285-4bd7-80a4-14fead877d67"},"vehicle_type_id":"4","last_reported":1773466656,"current_range_meters":34800,"station_id":"ce4bhm12rcd13ifvqgkg","pricing_plan_id":"cebpf4jnsgd1na2vs0mg"},{"bike_id":"10131142-51d3-48eb-9d71-f77ee928720f","system_id":"levelo_inurba_marseille","lat":43.28383,"lon":5.37513,"is_reserved":false,"is_disabled":false,"rental_uris":{"android":"levelo://app?vid=10131142-51d3-48eb-9d71-f77ee928720f","ios":"levelo://app?vid=10131142-51d3-48eb-9d71-f77ee928720f"},"vehicle_type_id":"4","last_reported":1773466656,"current_range_meters":17600,"station_id":"ce4bh412rcd13ifvqds0","pricing_plan_id":"cebpf4jnsgd1na2vs0mg"},{"bike_id":"18f35d94-7133-4b4b-a629-0bec9d48af36","system_id":"levelo_inurba_marseille","lat":43.28486,"lon":5.48389,"is_reserved":false,"is_disabled":false,"rental_uris":{"android":"levelo://app?vid=18f35d94-7133-4b4b-a629-0bec9d48af36","ios":"levelo://app?vid=18f35d94-7133-4b4b-a629-0bec9d48af36"},"vehicle_type_id":"4","last_reported":1773466656,"current_range_meters":26800,"station_id":"","pricing_plan_id":"cebpf4jnsgd1na2vs0mg"},{"bike_id":"058a40ef-aca0-46a1-b31e-3c5dc3514929","system_id":"levelo_inurba_marseille","lat":43.28414,"lon":5.34967,"is_reserved":false,"is_disabled":false,"rental_uris":{"android":"levelo://app?vid=058a40ef-aca0-46a1-b31e-3c5dc3514929","ios":"levelo://app?vid=058a40ef-aca0-46a1-b31e-3c5dc3514929"},"vehicle_type_id":"4","last_reported":1773466656,"current_range_meters":38000,"station_id":"ce4bhbh2rcd13ifvqepg","pricing_plan_id":"cebpf4jnsgd1na2vs0mg"},{"bike_id":"7db92065-fd6e-4014-982f-daf9b3e1e88d","system_id":"levelo_inurba_marseille","lat":43.2583,"lon":5.39475,"is_reserved":false,"is_disabled":false,"rental_uris":{"android":"levelo://app?vid=7db92065-fd6e-4014-982f-daf9b3e1e88d","ios":"levelo://app?vid=7db92065-fd6e-4014-982f-daf9b3e1e88d"},"vehicle_type_id":"4","last_reported":1773466656,"current_range_meters":16400,"station_id":"ce4bhip2rcd13ifvqft0","pricing_plan_id":"cebpf4jnsgd1na2vs0mg"},{"bike_id":"e9452547-8574-4812-96f1-f33748884613","system_id":"levelo_inurba_marseille","lat":43.30534,"lon":5.36535,"is_reserved":false,"is_disabled":false,"rental_uris":{"android":"levelo://app?vid=e9452547-8574-4812-96f1-f33748884613","ios":"levelo://app?vid=e9452547-8574-4812-96f1-f33748884613"},"vehicle_type_id":"4","last_reported":1773466656,"current_range_meters":39200,"station_id":"ce4bgs12rcd13ifvqcag","pricing_plan_id":"cebpf4jnsgd1na2vs0mg"},{"bike_id":"2160cf90-c2ed-4bac-8d60-36bbdf94fd16","system_id":"levelo_inurba_marseille","lat":43.31497,"lon":5.37304,"is_reserved":false,"is_disabled":false,"rental_uris":{"android":"levelo://app?vid=2160cf90-c2ed-4bac-8d60-36bbdf94fd16","ios":"levelo://app?vid=2160cf90-c2ed-4bac-8d60-36bbdf94fd16"},"vehicle_type_id":"4","last_reported":1773466656,"current_range_meters":37600,"station_id":"ce4bgt12rcd13ifvqcd0","pricing_plan_id":"cebpf4jnsgd1na2vs0mg"},{"bike_id":"23ec502b-0c7b-403d-91cb-1fdb6af13d42","system_id":"levelo_inurba_marseille","lat":43.29937,"lon":5.37434,"is_reserved":false,"is_disabled":true,"rental_uris":{"android":"levelo://app?vid=23ec502b-0c7b-403d-91cb-1fdb6af13d42","ios":"levelo://app?vid=23ec502b-0c7b-403d-91cb-1fdb6af13d42"},"vehicle_type_id":"4","last_reported":1773466656,"current_range_meters":34800,"station_id":"ce4bgjh2rcd13ifvqbg0","pricing_plan_id":"cebpf4jnsgd1na2vs0mg"},{"bike_id":"f00b1bd6-d85b-44de-a4c6-5c9a15e5adc2","system_id":"levelo_inurba_marseille","lat":43.29981,"lon":5.38488,"is_reserved":false,"is_disabled":false,"rental_uris":{"android":"levelo://app?vid=f00b1bd6-d85b-44de-a4c6-5c9a15e5adc2","ios":"levelo://app?vid=f00b1bd6-d85b-44de-a4c6-5c9a15e5adc2"},"vehicle_type_id":"4","last_reported":1773466656,"current_range_meters":38000,"station_id":"ce4bgj92rcd13ifvqbd0","pricing_plan_id":"cebpf4jnsgd1na2vs0mg"},{"bike_id":"4a6e962b-de22-4ab6-993c-2385ed69dadf","system_id":"levelo_inurba_marseille","lat":43.26554,"lon":5.37278,"is_reserved":false,"is_disabled":false,"rental_uris":{"android":"levelo://app?vid=4a6e962b-de22-4ab6-993c-2385ed69dadf","ios":"levelo://app?vid=4a6e962b-de22-4ab6-993c-2385ed69dadf"},"vehicle_type_id":"4","last_reported":1773466656,"current_range_meters":11200,"station_id":"ce4bhg12rcd13ifvqf70","pricing_plan_id":"cebpf4jnsgd1na2vs0mg"},{"bike_id":"85cd8cb8-1572-4483-8d2e-ca06fd40ed7c","system_id":"levelo_inurba_marseille","lat":43.32293,"lon":5.38256,"is_reserved":false,"is_disabled":false,"rental_uris":{"android":"levelo://app?vid=85cd8cb8-1572-4483-8d2e-ca06fd40ed7c","ios":"levelo://app?vid=85cd8cb8-1572-4483-8d2e-ca06fd40ed7c"},"vehicle_type_id":"4","last_reported":1773466656,"current_range_meters":38400,"station_id":"ce4bhr12rcd13ifvqhqg","pricing_plan_id":"cebpf4jnsgd1na2vs0mg"},{"bike_id":"27f268ee-e071-4a10-adb4-7bce0c9a531f","system_id":"levelo_inurba_marseille","lat":43.29261,"lon":5.40894,"is_reserved":false,"is_disabled":false,"rental_uris":{"android":"levelo://app?vid=27f268ee-e071-4a10-adb4-7bce0c9a531f","ios":"levelo://app?vid=27f268ee-e071-4a10-adb4-7bce0c9a531f"},"vehicle_type_id":"4","last_reported":1773466656,"current_range_meters":35600,"station_id":"ce4bh192rcd13ifvqdc0","pricing_plan_id":"cebpf4jnsgd1na2vs0mg"},{"bike_id":"1aed14f1-e52d-4e6e-b29b-cd4b82bd2364","system_id":"levelo_inurba_marseille","lat":43.26668,"lon":5.38279,"is_reserved":false,"is_disabled":false,"rental_uris":{"android":"levelo://app?vid=1aed14f1-e52d-4e6e-b29b-cd4b82bd2364","ios":"levelo://app?vid=1aed14f1-e52d-4e6e-b29b-cd4b82bd2364"},"vehicle_type_id":"4","last_reported":1773466656,"current_range_meters":37600,"station_id":"ce4bhg92rcd13ifvqf90","pricing_plan_id":"cebpf4jnsgd1na2vs0mg"},{"bike_id":"1c63ee0c-ff6f-42e1-a853-8ec9f0d7e6d1","system_id":"levelo_inurba_marseille","lat":43.30457,"lon":5.38876,"is_reserved":false,"is_disabled":false,"rental_uris":{"android":"levelo://app?vid=1c63ee0c-ff6f-42e1-a853-8ec9f0d7e6d1","ios":"levelo://app?vid=1c63ee0c-ff6f-42e1-a853-8ec9f0d7e6d1"},"vehicle_type_id":"4","last_reported":1773466656,"current_range_meters":30000,"station_id":"ce4bgk12rcd13ifvqbi0","pricing_plan_id":"cebpf4jnsgd1na2vs0mg"},{"bike_id":"a922fe28-c7a8-4324-b6b3-a3df84724c67","system_id":"levelo_inurba_marseille","lat":43.30627,"lon":5.3718,"is_reserved":false,"is_disabled":false,"rental_uris":{"android":"levelo://app?vid=a922fe28-c7a8-4324-b6b3-a3df84724c67","ios":"levelo://app?vid=a922fe28-c7a8-4324-b6b3-a3df84724c67"},"vehicle_type_id":"4","last_reported":1773466656,"current_range_meters":26000,"station_id":"ce4bgqh2rcd13ifvqc4g","pricing_plan_id":"cebpf4jnsgd1na2vs0mg"},{"bike_id":"20227760-d1e8-4bc6-adbe-87d2220534b5","system_id":"levelo_inurba_marseille","lat":43.28504,"lon":5.38585,"is_reserved":false,"is_disabled":false,"rental_uris":{"android":"levelo://app?vid=20227760-d1e8-4bc6-adbe-87d2220534b5","ios":"levelo://app?vid=20227760-d1e8-4bc6-adbe-87d2220534b5"},"vehicle_type_id":"4","last_reported":1773466656,"current_range_meters":17200,"station_id":"ce4bh8p2rcd13ifvqeb0","pricing_plan_id":"cebpf4jnsgd1na2vs0mg"},{"bike_id":"4c63f1d9-9451-4786-a088-d6aef0011e7e","system_id":"levelo_inurba_marseille","lat":43.29271,"lon":5.36832,"is_reserved":false,"is_disabled":false,"rental_uris":{"android":"levelo://app?vid=4c63f1d9-9451-4786-a088-d6aef0011e7e","ios":"levelo://app?vid=4c63f1d9-9451-4786-a088-d6aef0011e7e"},"vehicle_type_id":"4","last_reported":1773466656,"current_range_meters":25200,"station_id":"ce4bhbp2rcd13ifvqesg","pricing_plan_id":"cebpf4jnsgd1na2vs0mg"},{"bike_id":"924c8abd-06a9-4ab6-b637-74a1029d2683","system_id":"levelo_inurba_marseille","lat":43.30429,"lon":5.3976,"is_reserved":false,"is_disabled":false,"rental_uris":{"android":"levelo://app?vid=924c8abd-06a9-4ab6-b637-74a1029d2683","ios":"levelo://app?vid=924c8abd-06a9-4ab6-b637-74a1029d2683"},"vehicle_type_id":"4","last_reported":1773466656,"current_range_meters":30000,"station_id":"ce4bh092rcd13ifvqd20","pricing_plan_id":"cebpf4jnsgd1na2vs0mg"},{"bike_id":"480a954f-db3c-4cd5-acb5-179ba9006c67","system_id":"levelo_inurba_marseille","lat":43.28522,"lon":5.44138,"is_reserved":false,"is_disabled":false,"rental_uris":{"android":"levelo://app?vid=480a954f-db3c-4cd5-acb5-179ba9006c67","ios":"levelo://app?vid=480a954f-db3c-4cd5-acb5-179ba9006c67"},"vehicle_type_id":"4","last_reported":1773466656,"current_range_meters":30000,"station_id":"st_d3j3df2ikq2c7380ej80","pricing_plan_id":"cebpf4jnsgd1na2vs0mg"},{"bike_id":"719f14e6-0b0b-47de-a198-d0325eeb6b12","system_id":"levelo_inurba_marseille","lat":43.28433,"lon":5.35913,"is_reserved":false,"is_disabled":false,"rental_uris":{"android":"levelo://app?vid=719f14e6-0b0b-47de-a198-d0325eeb6b12","ios":"levelo://app?vid=719f14e6-0b0b-47de-a198-d0325eeb6b12"},"vehicle_type_id":"4","last_reported":1773466656,"current_range_meters":28800,"station_id":"ce4bhah2rcd13ifvqei0","pricing_plan_id":"cebpf4jnsgd1na2vs0mg"},{"bike_id":"071351a7-eea7-4a49-8d71-a9ecadb9cf45","system_id":"levelo_inurba_marseille","lat":43.29273,"lon":5.40124,"is_reserved":false,"is_disabled":false,"rental_uris":{"android":"levelo://app?vid=071351a7-eea7-4a49-8d71-a9ecadb9cf45","ios":"levelo://app?vid=071351a7-eea7-4a49-8d71-a9ecadb9cf45"},"vehicle_type_id":"4","last_reported":1773466656,"current_range_meters":30400,"station_id":"ce4bh312rcd13ifvqdk0","pricing_plan_id":"cebpf4jnsgd1na2vs0mg"},{"bike_id":"591726e2-1ee0-414a-babf-c40a853c2ca5","system_id":"levelo_inurba_marseille","lat":43.28,"lon":5.40024,"is_reserved":false,"is_disabled":false,"rental_uris":{"android":"levelo://app?vid=591726e2-1ee0-414a-babf-c40a853c2ca5","ios":"levelo://app?vid=591726e2-1ee0-414a-babf-c40a853c2ca5"},"vehicle_type_id":"4","last_reported":1773466656,"current_range_meters":11200,"station_id":"ce4bho92rcd13ifvqh4g","pricing_plan_id":"cebpf4jnsgd1na2vs0mg"},{"bike_id":"04f1721f-1a2a-4a46-bb2d-543bfbf22fd1","system_id":"levelo_inurba_marseille","lat":43.28468,"lon":5.35872,"is_reserved":false,"is_disabled":false,"rental_uris":{"android":"levelo://app?vid=04f1721f-1a2a-4a46-bb2d-543bfbf22fd1","ios":"levelo://app?vid=04f1721f-1a2a-4a46-bb2d-543bfbf22fd1"},"vehicle_type_id":"4","last_reported":1773466656,"current_range_meters":38400,"station_id":"ce4bhah2rcd13ifvqei0","pricing_plan_id":"cebpf4jnsgd1na2vs0mg"},{"bike_id":"1f49797c-2eb0-4b96-9bc7-2370c7c23180","system_id":"levelo_inurba_marseille","lat":43.27366,"lon":5.36248,"is_reserved":false,"is_disabled":false,"rental_uris":{"android":"levelo://app?vid=1f49797c-2eb0-4b96-9bc7-2370c7c23180","ios":"levelo://app?vid=1f49797c-2eb0-4b96-9bc7-2370c7c23180"},"vehicle_type_id":"4","last_reported":1773466656,"current_range_meters":33200,"station_id":"ce4bhbh2rcd13ifvqeo0","pricing_plan_id":"cebpf4jnsgd1na2vs0mg"},{"bike_id":"b308e7af-e586-420b-b9a4-425c9b9ae1c7","system_id":"levelo_inurba_marseille","lat":43.30525,"lon":5.36726,"is_reserved":false,"is_disabled":false,"rental_uris":{"android":"levelo://app?vid=b308e7af-e586-420b-b9a4-425c9b9ae1c7","ios":"levelo://app?vid=b308e7af-e586-420b-b9a4-425c9b9ae1c7"},"vehicle_type_id":"4","last_reported":1773466656,"current_range_meters":38800,"station_id":"ce4bgrp2rcd13ifvqc9g","pricing_plan_id":"cebpf4jnsgd1na2vs0mg"},{"bike_id":"39e5dfee-f031-4742-ad5f-b826fb519621","system_id":"levelo_inurba_marseille","lat":43.29025,"lon":5.39996,"is_reserved":false,"is_disabled":false,"rental_uris":{"android":"levelo://app?vid=39e5dfee-f031-4742-ad5f-b826fb519621","ios":"levelo://app?vid=39e5dfee-f031-4742-ad5f-b826fb519621"},"vehicle_type_id":"4","last_reported":1773466656,"current_range_meters":38400,"station_id":"ce4bh392rcd13ifvqdm0","pricing_plan_id":"cebpf4jnsgd1na2vs0mg"},{"bike_id":"106b5c17-3a4d-41d5-888b-1edf1f351e6e","system_id":"levelo_inurba_marseille","lat":43.2582,"lon":5.39444,"is_reserved":false,"is_disabled":false,"rental_uris":{"android":"levelo://app?vid=106b5c17-3a4d-41d5-888b-1edf1f351e6e","ios":"levelo://app?vid=106b5c17-3a4d-41d5-888b-1edf1f351e6e"},"vehicle_type_id":"4","last_reported":1773466656,"current_range_meters":39200,"station_id":"ce4bhip2rcd13ifvqft0","pricing_plan_id":"cebpf4jnsgd1na2vs0mg"},{"bike_id":"ced05e86-2551-48cf-8692-7f3559e5deac","system_id":"levelo_inurba_marseille","lat":43.29484,"lon":5.43323,"is_reserved":false,"is_disabled":false,"rental_uris":{"android":"levelo://app?vid=ced05e86-2551-48cf-8692-7f3559e5deac","ios":"levelo://app?vid=ced05e86-2551-48cf-8692-7f3559e5deac"},"vehicle_type_id":"4","last_reported":1773466656,"current_range_meters":10000,"station_id":"st_d3j5ugp08ojc73fj9d10","pricing_plan_id":"cebpf4jnsgd1na2vs0mg"},{"bike_id":"e36f51d5-555c-42dc-9287-6286fcbaa2a5","system_id":"levelo_inurba_marseille","lat":43.28686,"lon":5.38677,"is_reserved":false,"is_disabled":false,"rental_uris":{"android":"levelo://app?vid=e36f51d5-555c-42dc-9287-6286fcbaa2a5","ios":"levelo://app?vid=e36f51d5-555c-42dc-9287-6286fcbaa2a5"},"vehicle_type_id":"4","last_reported":1773466656,"current_range_meters":39200,"station_id":"ce4bh492rcd13ifvqdug","pricing_plan_id":"cebpf4jnsgd1na2vs0mg"},{"bike_id":"f0d33cb0-ca86-44f5-bab8-698feff9bbb2","system_id":"levelo_inurba_marseille","lat":43.31278,"lon":5.40178,"is_reserved":false,"is_disabled":false,"rental_uris":{"android":"levelo://app?vid=f0d33cb0-ca86-44f5-bab8-698feff9bbb2","ios":"levelo://app?vid=f0d33cb0-ca86-44f5-bab8-698feff9bbb2"},"vehicle_type_id":"4","last_reported":1773466656,"current_range_meters":38400,"station_id":"ce4bh092rcd13ifvqd30","pricing_plan_id":"cebpf4jnsgd1na2vs0mg"},{"bike_id":"e5725ce8-50a2-40ca-b011-9888ac1cf133","system_id":"levelo_inurba_marseille","lat":43.27371,"lon":5.36264,"is_reserved":false,"is_disabled":false,"rental_uris":{"android":"levelo://app?vid=e5725ce8-50a2-40ca-b011-9888ac1cf133","ios":"levelo://app?vid=e5725ce8-50a2-40ca-b011-9888ac1cf133"},"vehicle_type_id":"4","last_reported":1773466656,"current_range_meters":39200,"station_id":"ce4bhbh2rcd13ifvqeo0","pricing_plan_id":"cebpf4jnsgd1na2vs0mg"},{"bike_id":"41ae287c-9cc1-430a-84ca-70506bc523b6","system_id":"levelo_inurba_marseille","lat":43.22556,"lon":5.41631,"is_reserved":false,"is_disabled":false,"rental_uris":{"android":"levelo://app?vid=41ae287c-9cc1-430a-84ca-70506bc523b6","ios":"levelo://app?vid=41ae287c-9cc1-430a-84ca-70506bc523b6"},"vehicle_type_id":"4","last_reported":1773466656,"current_range_meters":38400,"station_id":"st_d2o4gvlbi1j2169b742g","pricing_plan_id":"cebpf4jnsgd1na2vs0mg"},{"bike_id":"fe8dfa27-62f0-46d6-ba43-c3127399aaa0","system_id":"levelo_inurba_marseille","lat":43.29614,"lon":5.42142,"is_reserved":false,"is_disabled":false,"rental_uris":{"android":"levelo://app?vid=fe8dfa27-62f0-46d6-ba43-c3127399aaa0","ios":"levelo://app?vid=fe8dfa27-62f0-46d6-ba43-c3127399aaa0"},"vehicle_type_id":"4","last_reported":1773466656,"current_range_meters":27200,"station_id":"","pricing_plan_id":"cebpf4jnsgd1na2vs0mg"},{"bike_id":"5c0630ed-bd2b-4642-b36b-ddb6b84186db","system_id":"levelo_inurba_marseille","lat":43.30698,"lon":5.42493,"is_reserved":false,"is_disabled":false,"rental_uris":{"android":"levelo://app?vid=5c0630ed-bd2b-4642-b36b-ddb6b84186db","ios":"levelo://app?vid=5c0630ed-bd2b-4642-b36b-ddb6b84186db"},"vehicle_type_id":"4","last_reported":1773466656,"current_range_meters":26800,"station_id":"st_cvj6ca6bvosntc0bfgr0","pricing_plan_id":"cebpf4jnsgd1na2vs0mg"},{"bike_id":"38e5107a-fdc2-431b-892a-488d0107acb0","system_id":"levelo_inurba_marseille","lat":43.30622,"lon":5.37261,"is_reserved":false,"is_disabled":false,"rental_uris":{"android":"levelo://app?vid=38e5107a-fdc2-431b-892a-488d0107acb0","ios":"levelo://app?vid=38e5107a-fdc2-431b-892a-488d0107acb0"},"vehicle_type_id":"4","last_reported":1773466656,"current_range_meters":34000,"station_id":"ce4bgqh2rcd13ifvqc4g","pricing_plan_id":"cebpf4jnsgd1na2vs0mg"},{"bike_id":"404948f2-1ab6-4aaf-bcb9-47b492f58113","system_id":"levelo_inurba_marseille","lat":43.29503,"lon":5.3751,"is_reserved":false,"is_disabled":false,"rental_uris":{"android":"levelo://app?vid=404948f2-1ab6-4aaf-bcb9-47b492f58113","ios":"levelo://app?vid=404948f2-1ab6-4aaf-bcb9-47b492f58113"},"vehicle_type_id":"4","last_reported":1773466656,"current_range_meters":38000,"station_id":"ce4bgkp2rcd13ifvqbmg","pricing_plan_id":"cebpf4jnsgd1na2vs0mg"},{"bike_id":"1faa01e2-edd3-4ac7-b477-a225bc019925","system_id":"levelo_inurba_marseille","lat":43.30794,"lon":5.38154,"is_reserved":false,"is_disabled":false,"rental_uris":{"android":"levelo://app?vid=1faa01e2-edd3-4ac7-b477-a225bc019925","ios":"levelo://app?vid=1faa01e2-edd3-4ac7-b477-a225bc019925"},"vehicle_type_id":"4","last_reported":1773466656,"current_range_meters":26000,"station_id":"ce4bgt12rcd13ifvqce0","pricing_plan_id":"cebpf4jnsgd1na2vs0mg"},{"bike_id":"bbd01454-2423-4218-8a6f-60bf3a414075","system_id":"levelo_inurba_marseille","lat":43.28683,"lon":5.37393,"is_reserved":false,"is_disabled":false,"rental_uris":{"android":"levelo://app?vid=bbd01454-2423-4218-8a6f-60bf3a414075","ios":"levelo://app?vid=bbd01454-2423-4218-8a6f-60bf3a414075"},"vehicle_type_id":"4","last_reported":1773466656,"current_range_meters":5600,"station_id":"ce4bh3p2rcd13ifvqdq0","pricing_plan_id":"cebpf4jnsgd1na2vs0mg"},{"bike_id":"e4ba382c-7c51-4960-ab81-2ed3cc4d9a20","system_id":"levelo_inurba_marseille","lat":43.30889,"lon":5.39616,"is_reserved":false,"is_disabled":false,"rental_uris":{"android":"levelo://app?vid=e4ba382c-7c51-4960-ab81-2ed3cc4d9a20","ios":"levelo://app?vid=e4ba382c-7c51-4960-ab81-2ed3cc4d9a20"},"vehicle_type_id":"4","last_reported":1773466656,"current_range_meters":21600,"station_id":"ce4bh012rcd13ifvqcv0","pricing_plan_id":"cebpf4jnsgd1na2vs0mg"},{"bike_id":"1fa66c7c-5bbe-4c72-8397-ac5bb2c15dc7","system_id":"levelo_inurba_marseille","lat":43.32361,"lon":5.38898,"is_reserved":false,"is_disabled":false,"rental_uris":{"android":"levelo://app?vid=1fa66c7c-5bbe-4c72-8397-ac5bb2c15dc7","ios":"levelo://app?vid=1fa66c7c-5bbe-4c72-8397-ac5bb2c15dc7"},"vehicle_type_id":"4","last_reported":1773466656,"current_range_meters":38000,"station_id":"ce4bhqp2rcd13ifvqhog","pricing_plan_id":"cebpf4jnsgd1na2vs0mg"},{"bike_id":"2a20dae4-4942-4cea-8836-7502801572c7","system_id":"levelo_inurba_marseille","lat":43.27912,"lon":5.39576,"is_reserved":false,"is_disabled":true,"rental_uris":{"android":"levelo://app?vid=2a20dae4-4942-4cea-8836-7502801572c7","ios":"levelo://app?vid=2a20dae4-4942-4cea-8836-7502801572c7"},"vehicle_type_id":"4","last_reported":1773466656,"current_range_meters":0,"station_id":"ce4bhf92rcd13ifvqf40","pricing_plan_id":"cebpf4jnsgd1na2vs0mg"},{"bike_id":"210de9b4-3033-4c95-a839-e4b62a601c40","system_id":"levelo_inurba_marseille","lat":43.27763,"lon":5.40795,"is_reserved":false,"is_disabled":false,"rental_uris":{"android":"levelo://app?vid=210de9b4-3033-4c95-a839-e4b62a601c40","ios":"levelo://app?vid=210de9b4-3033-4c95-a839-e4b62a601c40"},"vehicle_type_id":"4","last_reported":1773466656,"current_range_meters":8000,"station_id":"","pricing_plan_id":"cebpf4jnsgd1na2vs0mg"},{"bike_id":"ee97d76b-d430-4b45-b3b0-dd8a973c7e77","system_id":"levelo_inurba_marseille","lat":43.23951,"lon":5.36648,"is_reserved":false,"is_disabled":false,"rental_uris":{"android":"levelo://app?vid=ee97d76b-d430-4b45-b3b0-dd8a973c7e77","ios":"levelo://app?vid=ee97d76b-d430-4b45-b3b0-dd8a973c7e77"},"vehicle_type_id":"4","last_reported":1773466656,"current_range_meters":18800,"station_id":"ce4bhi12rcd13ifvqfp0","pricing_plan_id":"cebpf4jnsgd1na2vs0mg"},{"bike_id":"3af7df18-3735-4378-872e-321d771d6193","system_id":"levelo_inurba_marseille","lat":43.30244,"lon":5.40081,"is_reserved":false,"is_disabled":false,"rental_uris":{"android":"levelo://app?vid=3af7df18-3735-4378-872e-321d771d6193","ios":"levelo://app?vid=3af7df18-3735-4378-872e-321d771d6193"},"vehicle_type_id":"4","last_reported":1773466656,"current_range_meters":39200,"station_id":"ce4bgvh2rcd13ifvqcs0","pricing_plan_id":"cebpf4jnsgd1na2vs0mg"},{"bike_id":"d614b50d-6540-48cb-b405-eb6da0677b33","system_id":"levelo_inurba_marseille","lat":43.30238,"lon":5.40078,"is_reserved":false,"is_disabled":false,"rental_uris":{"android":"levelo://app?vid=d614b50d-6540-48cb-b405-eb6da0677b33","ios":"levelo://app?vid=d614b50d-6540-48cb-b405-eb6da0677b33"},"vehicle_type_id":"4","last_reported":1773466656,"current_range_meters":38800,"station_id":"ce4bgvh2rcd13ifvqcs0","pricing_plan_id":"cebpf4jnsgd1na2vs0mg"},{"bike_id":"79483cf5-647d-48ac-aac7-04b4eee60681","system_id":"levelo_inurba_marseille","lat":43.31366,"lon":5.36706,"is_reserved":false,"is_disabled":true,"rental_uris":{"android":"levelo://app?vid=79483cf5-647d-48ac-aac7-04b4eee60681","ios":"levelo://app?vid=79483cf5-647d-48ac-aac7-04b4eee60681"},"vehicle_type_id":"4","last_reported":1773466656,"current_range_meters":36800,"station_id":"","pricing_plan_id":"cebpf4jnsgd1na2vs0mg"},{"bike_id":"a32106be-375b-4a35-92db-7951151fd382","system_id":"levelo_inurba_marseille","lat":43.29626,"lon":5.37142,"is_reserved":false,"is_disabled":true,"rental_uris":{"android":"levelo://app?vid=a32106be-375b-4a35-92db-7951151fd382","ios":"levelo://app?vid=a32106be-375b-4a35-92db-7951151fd382"},"vehicle_type_id":"4","last_reported":1773466656,"current_range_meters":28400,"station_id":"ce4bgnh2rcd13ifvqc0g","pricing_plan_id":"cebpf4jnsgd1na2vs0mg"},{"bike_id":"1456d7b8-e2f9-4205-9584-20f6abe58a4d","system_id":"levelo_inurba_marseille","lat":43.30059,"lon":5.4374,"is_reserved":false,"is_disabled":false,"rental_uris":{"android":"levelo://app?vid=1456d7b8-e2f9-4205-9584-20f6abe58a4d","ios":"levelo://app?vid=1456d7b8-e2f9-4205-9584-20f6abe58a4d"},"vehicle_type_id":"4","last_reported":1773466656,"current_range_meters":30000,"station_id":"","pricing_plan_id":"cebpf4jnsgd1na2vs0mg"},{"bike_id":"114e304d-e20d-4f8a-9525-1a164e809dee","system_id":"levelo_inurba_marseille","lat":43.23962,"lon":5.36618,"is_reserved":false,"is_disabled":false,"rental_uris":{"android":"levelo://app?vid=114e304d-e20d-4f8a-9525-1a164e809dee","ios":"levelo://app?vid=114e304d-e20d-4f8a-9525-1a164e809dee"},"vehicle_type_id":"4","last_reported":1773466656,"current_range_meters":28000,"station_id":"ce4bhi12rcd13ifvqfp0","pricing_plan_id":"cebpf4jnsgd1na2vs0mg"},{"bike_id":"ed805e5c-c91a-41a9-a21f-ce0355ac464f","system_id":"levelo_inurba_marseille","lat":43.28462,"lon":5.35901,"is_reserved":false,"is_disabled":true,"rental_uris":{"android":"levelo://app?vid=ed805e5c-c91a-41a9-a21f-ce0355ac464f","ios":"levelo://app?vid=ed805e5c-c91a-41a9-a21f-ce0355ac464f"},"vehicle_type_id":"4","last_reported":1773466656,"current_range_meters":18000,"station_id":"ce4bhah2rcd13ifvqei0","pricing_plan_id":"cebpf4jnsgd1na2vs0mg"},{"bike_id":"a29ef319-c201-4a0d-88b8-75666b991d70","system_id":"levelo_inurba_marseille","lat":43.30207,"lon":5.39438,"is_reserved":false,"is_disabled":false,"rental_uris":{"android":"levelo://app?vid=a29ef319-c201-4a0d-88b8-75666b991d70","ios":"levelo://app?vid=a29ef319-c201-4a0d-88b8-75666b991d70"},"vehicle_type_id":"4","last_reported":1773466656,"current_range_meters":12000,"station_id":"ce4bh0p2rcd13ifvqd70","pricing_plan_id":"cebpf4jnsgd1na2vs0mg"},{"bike_id":"eca4d226-7986-44c0-8ad6-4865b10df144","system_id":"levelo_inurba_marseille","lat":43.25111,"lon":5.40332,"is_reserved":false,"is_disabled":false,"rental_uris":{"android":"levelo://app?vid=eca4d226-7986-44c0-8ad6-4865b10df144","ios":"levelo://app?vid=eca4d226-7986-44c0-8ad6-4865b10df144"},"vehicle_type_id":"4","last_reported":1773466656,"current_range_meters":37600,"station_id":"ce4bhlh2rcd13ifvqgig","pricing_plan_id":"cebpf4jnsgd1na2vs0mg"},{"bike_id":"bfecdb4a-3dfe-4b59-8c44-2c5ecdab9200","system_id":"levelo_inurba_marseille","lat":43.28918,"lon":5.36425,"is_reserved":false,"is_disabled":false,"rental_uris":{"android":"levelo://app?vid=bfecdb4a-3dfe-4b59-8c44-2c5ecdab9200","ios":"levelo://app?vid=bfecdb4a-3dfe-4b59-8c44-2c5ecdab9200"},"vehicle_type_id":"4","last_reported":1773466656,"current_range_meters":20800,"station_id":"","pricing_plan_id":"cebpf4jnsgd1na2vs0mg"},{"bike_id":"a64fd749-da53-4223-b873-757b3f4d5f8c","system_id":"levelo_inurba_marseille","lat":43.28432,"lon":5.39203,"is_reserved":false,"is_disabled":false,"rental_uris":{"android":"levelo://app?vid=a64fd749-da53-4223-b873-757b3f4d5f8c","ios":"levelo://app?vid=a64fd749-da53-4223-b873-757b3f4d5f8c"},"vehicle_type_id":"4","last_reported":1773466656,"current_range_meters":37600,"station_id":"ce4bhoh2rcd13ifvqh5g","pricing_plan_id":"cebpf4jnsgd1na2vs0mg"},{"bike_id":"84f4a2bf-2617-4f6d-b5b2-52999d43fb4f","system_id":"levelo_inurba_marseille","lat":43.27363,"lon":5.3626,"is_reserved":false,"is_disabled":false,"rental_uris":{"android":"levelo://app?vid=84f4a2bf-2617-4f6d-b5b2-52999d43fb4f","ios":"levelo://app?vid=84f4a2bf-2617-4f6d-b5b2-52999d43fb4f"},"vehicle_type_id":"4","last_reported":1773466656,"current_range_meters":39200,"station_id":"ce4bhbh2rcd13ifvqeo0","pricing_plan_id":"cebpf4jnsgd1na2vs0mg"},{"bike_id":"a4d729de-3d2d-4203-bf12-898251f0871e","system_id":"levelo_inurba_marseille","lat":43.31179,"lon":5.38736,"is_reserved":false,"is_disabled":false,"rental_uris":{"android":"levelo://app?vid=a4d729de-3d2d-4203-bf12-898251f0871e","ios":"levelo://app?vid=a4d729de-3d2d-4203-bf12-898251f0871e"},"vehicle_type_id":"4","last_reported":1773466656,"current_range_meters":3600,"station_id":"ce4bgv12rcd13ifvqcp0","pricing_plan_id":"cebpf4jnsgd1na2vs0mg"},{"bike_id":"012bb7fa-e4d0-4138-9c92-350c5c6b2640","system_id":"levelo_inurba_marseille","lat":43.28536,"lon":5.44106,"is_reserved":false,"is_disabled":false,"rental_uris":{"android":"levelo://app?vid=012bb7fa-e4d0-4138-9c92-350c5c6b2640","ios":"levelo://app?vid=012bb7fa-e4d0-4138-9c92-350c5c6b2640"},"vehicle_type_id":"4","last_reported":1773466656,"current_range_meters":28000,"station_id":"st_d3j3df2ikq2c7380ej80","pricing_plan_id":"cebpf4jnsgd1na2vs0mg"},{"bike_id":"33248cdb-5a12-47c2-a5a5-eaf5b9099ba0","system_id":"levelo_inurba_marseille","lat":43.29272,"lon":5.402,"is_reserved":false,"is_disabled":false,"rental_uris":{"android":"levelo://app?vid=33248cdb-5a12-47c2-a5a5-eaf5b9099ba0","ios":"levelo://app?vid=33248cdb-5a12-47c2-a5a5-eaf5b9099ba0"},"vehicle_type_id":"4","last_reported":1773466656,"current_range_meters":39200,"station_id":"ce4bh312rcd13ifvqdk0","pricing_plan_id":"cebpf4jnsgd1na2vs0mg"},{"bike_id":"959cb468-adf5-492c-a8a7-a3170c99be64","system_id":"levelo_inurba_marseille","lat":43.2705,"lon":5.38313,"is_reserved":false,"is_disabled":false,"rental_uris":{"android":"levelo://app?vid=959cb468-adf5-492c-a8a7-a3170c99be64","ios":"levelo://app?vid=959cb468-adf5-492c-a8a7-a3170c99be64"},"vehicle_type_id":"4","last_reported":1773466656,"current_range_meters":12000,"station_id":"st_d3n2fo6cfp8s73cte1j0","pricing_plan_id":"cebpf4jnsgd1na2vs0mg"},{"bike_id":"f32212cf-6d01-43e1-9d28-c332d31396c9","system_id":"levelo_inurba_marseille","lat":43.2467,"lon":5.43318,"is_reserved":false,"is_disabled":false,"rental_uris":{"android":"levelo://app?vid=f32212cf-6d01-43e1-9d28-c332d31396c9","ios":"levelo://app?vid=f32212cf-6d01-43e1-9d28-c332d31396c9"},"vehicle_type_id":"4","last_reported":1773466656,"current_range_meters":19600,"station_id":"","pricing_plan_id":"cebpf4jnsgd1na2vs0mg"},{"bike_id":"cb7d2b92-dad7-4f1e-9d76-144bae66f1eb","system_id":"levelo_inurba_marseille","lat":43.2118,"lon":5.35094,"is_reserved":false,"is_disabled":true,"rental_uris":{"android":"levelo://app?vid=cb7d2b92-dad7-4f1e-9d76-144bae66f1eb","ios":"levelo://app?vid=cb7d2b92-dad7-4f1e-9d76-144bae66f1eb"},"vehicle_type_id":"4","last_reported":1773466656,"current_range_meters":0,"station_id":"st_cvj6sg6p6f1abm77japg","pricing_plan_id":"cebpf4jnsgd1na2vs0mg"},{"bike_id":"6acc6294-778e-4389-ae09-ea37b9c06714","system_id":"levelo_inurba_marseille","lat":43.29727,"lon":5.41059,"is_reserved":false,"is_disabled":false,"rental_uris":{"android":"levelo://app?vid=6acc6294-778e-4389-ae09-ea37b9c06714","ios":"levelo://app?vid=6acc6294-778e-4389-ae09-ea37b9c06714"},"vehicle_type_id":"4","last_reported":1773466656,"current_range_meters":16800,"station_id":"","pricing_plan_id":"cebpf4jnsgd1na2vs0mg"},{"bike_id":"545eaa59-7c68-4d5f-81f7-b94276209659","system_id":"levelo_inurba_marseille","lat":43.2722,"lon":5.392,"is_reserved":false,"is_disabled":false,"rental_uris":{"android":"levelo://app?vid=545eaa59-7c68-4d5f-81f7-b94276209659","ios":"levelo://app?vid=545eaa59-7c68-4d5f-81f7-b94276209659"},"vehicle_type_id":"4","last_reported":1773466656,"current_range_meters":38400,"station_id":"ce4bhhp2rcd13ifvqfm0","pricing_plan_id":"cebpf4jnsgd1na2vs0mg"},{"bike_id":"968e0752-94e3-4427-8693-dccfb2dc93c6","system_id":"levelo_inurba_marseille","lat":43.32359,"lon":5.38865,"is_reserved":false,"is_disabled":false,"rental_uris":{"android":"levelo://app?vid=968e0752-94e3-4427-8693-dccfb2dc93c6","ios":"levelo://app?vid=968e0752-94e3-4427-8693-dccfb2dc93c6"},"vehicle_type_id":"4","last_reported":1773466656,"current_range_meters":39200,"station_id":"ce4bhqp2rcd13ifvqhog","pricing_plan_id":"cebpf4jnsgd1na2vs0mg"},{"bike_id":"48752a35-84d5-41f4-a4fc-fe7d40fd9bc9","system_id":"levelo_inurba_marseille","lat":43.30792,"lon":5.38152,"is_reserved":false,"is_disabled":false,"rental_uris":{"android":"levelo://app?vid=48752a35-84d5-41f4-a4fc-fe7d40fd9bc9","ios":"levelo://app?vid=48752a35-84d5-41f4-a4fc-fe7d40fd9bc9"},"vehicle_type_id":"4","last_reported":1773466656,"current_range_meters":39200,"station_id":"ce4bgt12rcd13ifvqce0","pricing_plan_id":"cebpf4jnsgd1na2vs0mg"},{"bike_id":"f5f9d765-f826-42ed-9505-dd1e9a7c4491","system_id":"levelo_inurba_marseille","lat":43.25865,"lon":5.39913,"is_reserved":false,"is_disabled":false,"rental_uris":{"android":"levelo://app?vid=f5f9d765-f826-42ed-9505-dd1e9a7c4491","ios":"levelo://app?vid=f5f9d765-f826-42ed-9505-dd1e9a7c4491"},"vehicle_type_id":"4","last_reported":1773466656,"current_range_meters":37600,"station_id":"ce4bhl92rcd13ifvqghg","pricing_plan_id":"cebpf4jnsgd1na2vs0mg"},{"bike_id":"40cdf2e8-76b5-43fa-bd2e-1a8eb6026b51","system_id":"levelo_inurba_marseille","lat":43.28979,"lon":5.42582,"is_reserved":false,"is_disabled":false,"rental_uris":{"android":"levelo://app?vid=40cdf2e8-76b5-43fa-bd2e-1a8eb6026b51","ios":"levelo://app?vid=40cdf2e8-76b5-43fa-bd2e-1a8eb6026b51"},"vehicle_type_id":"4","last_reported":1773466656,"current_range_meters":23200,"station_id":"","pricing_plan_id":"cebpf4jnsgd1na2vs0mg"},{"bike_id":"885c5720-f8e3-4815-a477-98ae4026ad54","system_id":"levelo_inurba_marseille","lat":43.29027,"lon":5.39972,"is_reserved":false,"is_disabled":false,"rental_uris":{"android":"levelo://app?vid=885c5720-f8e3-4815-a477-98ae4026ad54","ios":"levelo://app?vid=885c5720-f8e3-4815-a477-98ae4026ad54"},"vehicle_type_id":"4","last_reported":1773466656,"current_range_meters":36000,"station_id":"ce4bh392rcd13ifvqdm0","pricing_plan_id":"cebpf4jnsgd1na2vs0mg"},{"bike_id":"5dbc8de5-1746-40c6-890f-29dadb98e0ce","system_id":"levelo_inurba_marseille","lat":43.28419,"lon":5.34998,"is_reserved":false,"is_disabled":false,"rental_uris":{"android":"levelo://app?vid=5dbc8de5-1746-40c6-890f-29dadb98e0ce","ios":"levelo://app?vid=5dbc8de5-1746-40c6-890f-29dadb98e0ce"},"vehicle_type_id":"4","last_reported":1773466656,"current_range_meters":35200,"station_id":"ce4bhbh2rcd13ifvqepg","pricing_plan_id":"cebpf4jnsgd1na2vs0mg"},{"bike_id":"c5cd6bee-ff6a-4f9b-9fb4-3be2cd8497cf","system_id":"levelo_inurba_marseille","lat":43.24381,"lon":5.37103,"is_reserved":false,"is_disabled":false,"rental_uris":{"android":"levelo://app?vid=c5cd6bee-ff6a-4f9b-9fb4-3be2cd8497cf","ios":"levelo://app?vid=c5cd6bee-ff6a-4f9b-9fb4-3be2cd8497cf"},"vehicle_type_id":"4","last_reported":1773466656,"current_range_meters":6400,"station_id":"ce4bhhh2rcd13ifvqfk0","pricing_plan_id":"cebpf4jnsgd1na2vs0mg"},{"bike_id":"39bf7651-64a1-43fc-be77-9fc0eab9cfed","system_id":"levelo_inurba_marseille","lat":43.25707,"lon":5.41114,"is_reserved":false,"is_disabled":false,"rental_uris":{"android":"levelo://app?vid=39bf7651-64a1-43fc-be77-9fc0eab9cfed","ios":"levelo://app?vid=39bf7651-64a1-43fc-be77-9fc0eab9cfed"},"vehicle_type_id":"4","last_reported":1773466656,"current_range_meters":39200,"station_id":"ce4bhkp2rcd13ifvqgd0","pricing_plan_id":"cebpf4jnsgd1na2vs0mg"},{"bike_id":"72e16886-e6be-40d7-9db6-717ac812c857","system_id":"levelo_inurba_marseille","lat":43.30204,"lon":5.40073,"is_reserved":false,"is_disabled":true,"rental_uris":{"android":"levelo://app?vid=72e16886-e6be-40d7-9db6-717ac812c857","ios":"levelo://app?vid=72e16886-e6be-40d7-9db6-717ac812c857"},"vehicle_type_id":"4","last_reported":1773466656,"current_range_meters":18800,"station_id":"","pricing_plan_id":"cebpf4jnsgd1na2vs0mg"},{"bike_id":"d5455e83-72e4-4ef4-9233-f07b53171cfa","system_id":"levelo_inurba_marseille","lat":43.24949,"lon":5.40472,"is_reserved":false,"is_disabled":false,"rental_uris":{"android":"levelo://app?vid=d5455e83-72e4-4ef4-9233-f07b53171cfa","ios":"levelo://app?vid=d5455e83-72e4-4ef4-9233-f07b53171cfa"},"vehicle_type_id":"4","last_reported":1773466656,"current_range_meters":7200,"station_id":"st_d2ngiaodas8pm72gd1h0","pricing_plan_id":"cebpf4jnsgd1na2vs0mg"},{"bike_id":"4b3e344f-d5f5-47ea-a0e1-c3ff7ab3ba9f","system_id":"levelo_inurba_marseille","lat":43.23344,"lon":5.41272,"is_reserved":false,"is_disabled":false,"rental_uris":{"android":"levelo://app?vid=4b3e344f-d5f5-47ea-a0e1-c3ff7ab3ba9f","ios":"levelo://app?vid=4b3e344f-d5f5-47ea-a0e1-c3ff7ab3ba9f"},"vehicle_type_id":"4","last_reported":1773466656,"current_range_meters":30800,"station_id":"","pricing_plan_id":"cebpf4jnsgd1na2vs0mg"},{"bike_id":"73a3a2e2-ad08-4100-a709-dad3d58213af","system_id":"levelo_inurba_marseille","lat":43.30417,"lon":5.41285,"is_reserved":false,"is_disabled":false,"rental_uris":{"android":"levelo://app?vid=73a3a2e2-ad08-4100-a709-dad3d58213af","ios":"levelo://app?vid=73a3a2e2-ad08-4100-a709-dad3d58213af"},"vehicle_type_id":"4","last_reported":1773466656,"current_range_meters":39200,"station_id":"ce4bhop2rcd13ifvqh8g","pricing_plan_id":"cebpf4jnsgd1na2vs0mg"},{"bike_id":"f3427802-5878-400c-8520-966a18283862","system_id":"levelo_inurba_marseille","lat":43.25119,"lon":5.4036,"is_reserved":false,"is_disabled":false,"rental_uris":{"android":"levelo://app?vid=f3427802-5878-400c-8520-966a18283862","ios":"levelo://app?vid=f3427802-5878-400c-8520-966a18283862"},"vehicle_type_id":"4","last_reported":1773466656,"current_range_meters":27200,"station_id":"ce4bhlh2rcd13ifvqgig","pricing_plan_id":"cebpf4jnsgd1na2vs0mg"},{"bike_id":"b4e7db43-0bcb-420a-8a8e-7147b4affb13","system_id":"levelo_inurba_marseille","lat":43.28555,"lon":5.39497,"is_reserved":false,"is_disabled":false,"rental_uris":{"android":"levelo://app?vid=b4e7db43-0bcb-420a-8a8e-7147b4affb13","ios":"levelo://app?vid=b4e7db43-0bcb-420a-8a8e-7147b4affb13"},"vehicle_type_id":"4","last_reported":1773466656,"current_range_meters":32400,"station_id":"ce4bh292rcd13ifvqdg0","pricing_plan_id":"cebpf4jnsgd1na2vs0mg"},{"bike_id":"1b76ca95-f18f-46ad-b5e2-115c03b09dc0","system_id":"levelo_inurba_marseille","lat":43.29766,"lon":5.42777,"is_reserved":false,"is_disabled":false,"rental_uris":{"android":"levelo://app?vid=1b76ca95-f18f-46ad-b5e2-115c03b09dc0","ios":"levelo://app?vid=1b76ca95-f18f-46ad-b5e2-115c03b09dc0"},"vehicle_type_id":"4","last_reported":1773466656,"current_range_meters":22800,"station_id":"st_d3md5207bmas73dh9klg","pricing_plan_id":"cebpf4jnsgd1na2vs0mg"},{"bike_id":"aa1ea814-effc-4a82-a7ce-fc6b0be25510","system_id":"levelo_inurba_marseille","lat":43.31833,"lon":5.36983,"is_reserved":false,"is_disabled":false,"rental_uris":{"android":"levelo://app?vid=aa1ea814-effc-4a82-a7ce-fc6b0be25510","ios":"levelo://app?vid=aa1ea814-effc-4a82-a7ce-fc6b0be25510"},"vehicle_type_id":"4","last_reported":1773466656,"current_range_meters":35600,"station_id":"","pricing_plan_id":"cebpf4jnsgd1na2vs0mg"},{"bike_id":"7704b38f-82bd-49cd-9941-f2baf8ee666d","system_id":"levelo_inurba_marseille","lat":43.27589,"lon":5.36143,"is_reserved":false,"is_disabled":false,"rental_uris":{"android":"levelo://app?vid=7704b38f-82bd-49cd-9941-f2baf8ee666d","ios":"levelo://app?vid=7704b38f-82bd-49cd-9941-f2baf8ee666d"},"vehicle_type_id":"4","last_reported":1773466656,"current_range_meters":28000,"station_id":"ce4bgj92rcd13ifvqbe0","pricing_plan_id":"cebpf4jnsgd1na2vs0mg"},{"bike_id":"93b038d9-2cb8-45d1-acbc-dd4e629d63a0","system_id":"levelo_inurba_marseille","lat":43.25488,"lon":5.37658,"is_reserved":false,"is_disabled":false,"rental_uris":{"android":"levelo://app?vid=93b038d9-2cb8-45d1-acbc-dd4e629d63a0","ios":"levelo://app?vid=93b038d9-2cb8-45d1-acbc-dd4e629d63a0"},"vehicle_type_id":"4","last_reported":1773466656,"current_range_meters":3200,"station_id":"ce4bhh12rcd13ifvqff0","pricing_plan_id":"cebpf4jnsgd1na2vs0mg"},{"bike_id":"d56a339b-e9be-4c0e-8fb0-47a3c82fbeb6","system_id":"levelo_inurba_marseille","lat":43.30294,"lon":5.36911,"is_reserved":false,"is_disabled":false,"rental_uris":{"android":"levelo://app?vid=d56a339b-e9be-4c0e-8fb0-47a3c82fbeb6","ios":"levelo://app?vid=d56a339b-e9be-4c0e-8fb0-47a3c82fbeb6"},"vehicle_type_id":"4","last_reported":1773466656,"current_range_meters":32000,"station_id":"ce4bgqh2rcd13ifvqc5g","pricing_plan_id":"cebpf4jnsgd1na2vs0mg"},{"bike_id":"55d039aa-2da4-472c-af44-f2c1c8703972","system_id":"levelo_inurba_marseille","lat":43.27969,"lon":5.38702,"is_reserved":false,"is_disabled":false,"rental_uris":{"android":"levelo://app?vid=55d039aa-2da4-472c-af44-f2c1c8703972","ios":"levelo://app?vid=55d039aa-2da4-472c-af44-f2c1c8703972"},"vehicle_type_id":"4","last_reported":1773466656,"current_range_meters":6400,"station_id":"ce4bhg12rcd13ifvqf80","pricing_plan_id":"cebpf4jnsgd1na2vs0mg"},{"bike_id":"b4fe92c8-b3c2-44e9-bdb5-2fba64f9b4ff","system_id":"levelo_inurba_marseille","lat":43.27807,"lon":5.40718,"is_reserved":false,"is_disabled":false,"rental_uris":{"android":"levelo://app?vid=b4fe92c8-b3c2-44e9-bdb5-2fba64f9b4ff","ios":"levelo://app?vid=b4fe92c8-b3c2-44e9-bdb5-2fba64f9b4ff"},"vehicle_type_id":"4","last_reported":1773466656,"current_range_meters":39200,"station_id":"ce4bhnh2rcd13ifvqgtg","pricing_plan_id":"cebpf4jnsgd1na2vs0mg"},{"bike_id":"8d1d6e8b-5750-4bc4-847c-d5a2d80e3e6b","system_id":"levelo_inurba_marseille","lat":43.31491,"lon":5.37292,"is_reserved":false,"is_disabled":false,"rental_uris":{"android":"levelo://app?vid=8d1d6e8b-5750-4bc4-847c-d5a2d80e3e6b","ios":"levelo://app?vid=8d1d6e8b-5750-4bc4-847c-d5a2d80e3e6b"},"vehicle_type_id":"4","last_reported":1773466656,"current_range_meters":39200,"station_id":"ce4bgt12rcd13ifvqcd0","pricing_plan_id":"cebpf4jnsgd1na2vs0mg"},{"bike_id":"eb2f308c-8a12-4604-91b5-c6e7beca1962","system_id":"levelo_inurba_marseille","lat":43.25568,"lon":5.38251,"is_reserved":false,"is_disabled":false,"rental_uris":{"android":"levelo://app?vid=eb2f308c-8a12-4604-91b5-c6e7beca1962","ios":"levelo://app?vid=eb2f308c-8a12-4604-91b5-c6e7beca1962"},"vehicle_type_id":"4","last_reported":1773466656,"current_range_meters":26800,"station_id":"ce4bhih2rcd13ifvqfs0","pricing_plan_id":"cebpf4jnsgd1na2vs0mg"},{"bike_id":"9275d7e0-6f92-4728-99cc-26ef8f5159ad","system_id":"levelo_inurba_marseille","lat":43.29116,"lon":5.43276,"is_reserved":false,"is_disabled":false,"rental_uris":{"android":"levelo://app?vid=9275d7e0-6f92-4728-99cc-26ef8f5159ad","ios":"levelo://app?vid=9275d7e0-6f92-4728-99cc-26ef8f5159ad"},"vehicle_type_id":"4","last_reported":1773466656,"current_range_meters":32400,"station_id":"","pricing_plan_id":"cebpf4jnsgd1na2vs0mg"},{"bike_id":"0129e82f-23e7-41dc-b218-2c46214b3ed1","system_id":"levelo_inurba_marseille","lat":43.31271,"lon":5.40203,"is_reserved":false,"is_disabled":false,"rental_uris":{"android":"levelo://app?vid=0129e82f-23e7-41dc-b218-2c46214b3ed1","ios":"levelo://app?vid=0129e82f-23e7-41dc-b218-2c46214b3ed1"},"vehicle_type_id":"4","last_reported":1773466656,"current_range_meters":21600,"station_id":"ce4bh092rcd13ifvqd30","pricing_plan_id":"cebpf4jnsgd1na2vs0mg"},{"bike_id":"95d4f6aa-da6e-48d3-ad60-c8e1890448a4","system_id":"levelo_inurba_marseille","lat":43.27963,"lon":5.4167,"is_reserved":false,"is_disabled":false,"rental_uris":{"android":"levelo://app?vid=95d4f6aa-da6e-48d3-ad60-c8e1890448a4","ios":"levelo://app?vid=95d4f6aa-da6e-48d3-ad60-c8e1890448a4"},"vehicle_type_id":"4","last_reported":1773466656,"current_range_meters":11200,"station_id":"ce4bho12rcd13ifvqh1g","pricing_plan_id":"cebpf4jnsgd1na2vs0mg"},{"bike_id":"be4b33f3-f666-4b28-9e53-550c3c6e8b23","system_id":"levelo_inurba_marseille","lat":43.28477,"lon":5.48399,"is_reserved":false,"is_disabled":false,"rental_uris":{"android":"levelo://app?vid=be4b33f3-f666-4b28-9e53-550c3c6e8b23","ios":"levelo://app?vid=be4b33f3-f666-4b28-9e53-550c3c6e8b23"},"vehicle_type_id":"4","last_reported":1773466656,"current_range_meters":23200,"station_id":"","pricing_plan_id":"cebpf4jnsgd1na2vs0mg"},{"bike_id":"4ef74ac3-dc16-45e9-a334-c402616101c7","system_id":"levelo_inurba_marseille","lat":43.27941,"lon":5.41039,"is_reserved":false,"is_disabled":false,"rental_uris":{"android":"levelo://app?vid=4ef74ac3-dc16-45e9-a334-c402616101c7","ios":"levelo://app?vid=4ef74ac3-dc16-45e9-a334-c402616101c7"},"vehicle_type_id":"4","last_reported":1773466656,"current_range_meters":37600,"station_id":"ce4bhnp2rcd13ifvqh0g","pricing_plan_id":"cebpf4jnsgd1na2vs0mg"},{"bike_id":"18b94e32-c0fc-4f34-a2a9-cd156ee3282a","system_id":"levelo_inurba_marseille","lat":43.30584,"lon":5.37219,"is_reserved":false,"is_disabled":false,"rental_uris":{"android":"levelo://app?vid=18b94e32-c0fc-4f34-a2a9-cd156ee3282a","ios":"levelo://app?vid=18b94e32-c0fc-4f34-a2a9-cd156ee3282a"},"vehicle_type_id":"4","last_reported":1773466656,"current_range_meters":37600,"station_id":"ce4bgqh2rcd13ifvqc4g","pricing_plan_id":"cebpf4jnsgd1na2vs0mg"},{"bike_id":"45ab8758-cb84-41aa-8059-0012d460eb55","system_id":"levelo_inurba_marseille","lat":43.25112,"lon":5.40332,"is_reserved":false,"is_disabled":false,"rental_uris":{"android":"levelo://app?vid=45ab8758-cb84-41aa-8059-0012d460eb55","ios":"levelo://app?vid=45ab8758-cb84-41aa-8059-0012d460eb55"},"vehicle_type_id":"4","last_reported":1773466656,"current_range_meters":25600,"station_id":"ce4bhlh2rcd13ifvqgig","pricing_plan_id":"cebpf4jnsgd1na2vs0mg"},{"bike_id":"193cbe9d-b7d2-421e-9f76-9c8c86aebb4a","system_id":"levelo_inurba_marseille","lat":43.33512,"lon":5.37477,"is_reserved":false,"is_disabled":false,"rental_uris":{"android":"levelo://app?vid=193cbe9d-b7d2-421e-9f76-9c8c86aebb4a","ios":"levelo://app?vid=193cbe9d-b7d2-421e-9f76-9c8c86aebb4a"},"vehicle_type_id":"4","last_reported":1773466656,"current_range_meters":14400,"station_id":"","pricing_plan_id":"cebpf4jnsgd1na2vs0mg"},{"bike_id":"9f555977-ed84-4e25-9c81-1c0c6fccc8b6","system_id":"levelo_inurba_marseille","lat":43.24369,"lon":5.44082,"is_reserved":false,"is_disabled":true,"rental_uris":{"android":"levelo://app?vid=9f555977-ed84-4e25-9c81-1c0c6fccc8b6","ios":"levelo://app?vid=9f555977-ed84-4e25-9c81-1c0c6fccc8b6"},"vehicle_type_id":"4","last_reported":1773466656,"current_range_meters":4000,"station_id":"","pricing_plan_id":"cebpf4jnsgd1na2vs0mg"},{"bike_id":"69bcc04d-1262-470e-8c27-7da8ae96d177","system_id":"levelo_inurba_marseille","lat":43.2958,"lon":5.37738,"is_reserved":false,"is_disabled":false,"rental_uris":{"android":"levelo://app?vid=69bcc04d-1262-470e-8c27-7da8ae96d177","ios":"levelo://app?vid=69bcc04d-1262-470e-8c27-7da8ae96d177"},"vehicle_type_id":"4","last_reported":1773466656,"current_range_meters":36000,"station_id":"","pricing_plan_id":"cebpf4jnsgd1na2vs0mg"},{"bike_id":"769b02b1-1a96-43ec-8c81-9e5d509333a4","system_id":"levelo_inurba_marseille","lat":43.30941,"lon":5.39099,"is_reserved":false,"is_disabled":true,"rental_uris":{"android":"levelo://app?vid=769b02b1-1a96-43ec-8c81-9e5d509333a4","ios":"levelo://app?vid=769b02b1-1a96-43ec-8c81-9e5d509333a4"},"vehicle_type_id":"4","last_reported":1773466656,"current_range_meters":0,"station_id":"","pricing_plan_id":"cebpf4jnsgd1na2vs0mg"},{"bike_id":"df9c427f-d9f6-41e4-94b5-4bd4e80747a7","system_id":"levelo_inurba_marseille","lat":43.29254,"lon":5.40937,"is_reserved":false,"is_disabled":false,"rental_uris":{"android":"levelo://app?vid=df9c427f-d9f6-41e4-94b5-4bd4e80747a7","ios":"levelo://app?vid=df9c427f-d9f6-41e4-94b5-4bd4e80747a7"},"vehicle_type_id":"4","last_reported":1773466656,"current_range_meters":21600,"station_id":"ce4bh192rcd13ifvqdc0","pricing_plan_id":"cebpf4jnsgd1na2vs0mg"},{"bike_id":"0ad3db41-8196-43e9-b68f-6de9087e8aab","system_id":"levelo_inurba_marseille","lat":43.26498,"lon":5.395,"is_reserved":false,"is_disabled":false,"rental_uris":{"android":"levelo://app?vid=0ad3db41-8196-43e9-b68f-6de9087e8aab","ios":"levelo://app?vid=0ad3db41-8196-43e9-b68f-6de9087e8aab"},"vehicle_type_id":"4","last_reported":1773466656,"current_range_meters":39200,"station_id":"ce4bhi12rcd13ifvqfq0","pricing_plan_id":"cebpf4jnsgd1na2vs0mg"},{"bike_id":"58284b8d-4564-474e-ad19-2f38a205c343","system_id":"levelo_inurba_marseille","lat":43.29391,"lon":5.37838,"is_reserved":false,"is_disabled":false,"rental_uris":{"android":"levelo://app?vid=58284b8d-4564-474e-ad19-2f38a205c343","ios":"levelo://app?vid=58284b8d-4564-474e-ad19-2f38a205c343"},"vehicle_type_id":"4","last_reported":1773466656,"current_range_meters":38400,"station_id":"ce4bgjh2rcd13ifvqbf0","pricing_plan_id":"cebpf4jnsgd1na2vs0mg"},{"bike_id":"641cab82-5627-4c24-a3b6-dfa17af8941b","system_id":"levelo_inurba_marseille","lat":43.24547,"lon":5.39499,"is_reserved":false,"is_disabled":false,"rental_uris":{"android":"levelo://app?vid=641cab82-5627-4c24-a3b6-dfa17af8941b","ios":"levelo://app?vid=641cab82-5627-4c24-a3b6-dfa17af8941b"},"vehicle_type_id":"4","last_reported":1773466656,"current_range_meters":28000,"station_id":"ce4bhlp2rcd13ifvqgjg","pricing_plan_id":"cebpf4jnsgd1na2vs0mg"},{"bike_id":"3115ec2c-0e1c-40e3-beba-8ab26217ce9f","system_id":"levelo_inurba_marseille","lat":43.28193,"lon":5.39068,"is_reserved":false,"is_disabled":true,"rental_uris":{"android":"levelo://app?vid=3115ec2c-0e1c-40e3-beba-8ab26217ce9f","ios":"levelo://app?vid=3115ec2c-0e1c-40e3-beba-8ab26217ce9f"},"vehicle_type_id":"4","last_reported":1773466656,"current_range_meters":33200,"station_id":"ce4bhn92rcd13ifvqgsg","pricing_plan_id":"cebpf4jnsgd1na2vs0mg"},{"bike_id":"c507ad31-13a8-4812-86d2-979e4a29518c","system_id":"levelo_inurba_marseille","lat":43.26939,"lon":5.38928,"is_reserved":false,"is_disabled":false,"rental_uris":{"android":"levelo://app?vid=c507ad31-13a8-4812-86d2-979e4a29518c","ios":"levelo://app?vid=c507ad31-13a8-4812-86d2-979e4a29518c"},"vehicle_type_id":"4","last_reported":1773466656,"current_range_meters":12000,"station_id":"ce4bhhh2rcd13ifvqfl0","pricing_plan_id":"cebpf4jnsgd1na2vs0mg"},{"bike_id":"deceb409-de96-4868-a1af-aada17f23b56","system_id":"levelo_inurba_marseille","lat":43.27977,"lon":5.41657,"is_reserved":false,"is_disabled":true,"rental_uris":{"android":"levelo://app?vid=deceb409-de96-4868-a1af-aada17f23b56","ios":"levelo://app?vid=deceb409-de96-4868-a1af-aada17f23b56"},"vehicle_type_id":"4","last_reported":1773466656,"current_range_meters":400,"station_id":"ce4bho12rcd13ifvqh1g","pricing_plan_id":"cebpf4jnsgd1na2vs0mg"},{"bike_id":"72025f50-d750-489d-95ad-9aa0f9ecf812","system_id":"levelo_inurba_marseille","lat":43.28237,"lon":5.35092,"is_reserved":false,"is_disabled":false,"rental_uris":{"android":"levelo://app?vid=72025f50-d750-489d-95ad-9aa0f9ecf812","ios":"levelo://app?vid=72025f50-d750-489d-95ad-9aa0f9ecf812"},"vehicle_type_id":"4","last_reported":1773466656,"current_range_meters":36000,"station_id":"","pricing_plan_id":"cebpf4jnsgd1na2vs0mg"},{"bike_id":"83ac7713-e611-403f-b939-28f7d5a673ff","system_id":"levelo_inurba_marseille","lat":43.31464,"lon":5.38761,"is_reserved":false,"is_disabled":false,"rental_uris":{"android":"levelo://app?vid=83ac7713-e611-403f-b939-28f7d5a673ff","ios":"levelo://app?vid=83ac7713-e611-403f-b939-28f7d5a673ff"},"vehicle_type_id":"4","last_reported":1773466656,"current_range_meters":26000,"station_id":"","pricing_plan_id":"cebpf4jnsgd1na2vs0mg"},{"bike_id":"3e7c4266-be7b-4c37-abd9-485e291405dd","system_id":"levelo_inurba_marseille","lat":43.22562,"lon":5.41646,"is_reserved":false,"is_disabled":false,"rental_uris":{"android":"levelo://app?vid=3e7c4266-be7b-4c37-abd9-485e291405dd","ios":"levelo://app?vid=3e7c4266-be7b-4c37-abd9-485e291405dd"},"vehicle_type_id":"4","last_reported":1773466656,"current_range_meters":4800,"station_id":"st_d2o4gvlbi1j2169b742g","pricing_plan_id":"cebpf4jnsgd1na2vs0mg"},{"bike_id":"cec9ed91-d236-4550-8a1b-e4a966f730a4","system_id":"levelo_inurba_marseille","lat":43.30114,"lon":5.36693,"is_reserved":false,"is_disabled":false,"rental_uris":{"android":"levelo://app?vid=cec9ed91-d236-4550-8a1b-e4a966f730a4","ios":"levelo://app?vid=cec9ed91-d236-4550-8a1b-e4a966f730a4"},"vehicle_type_id":"4","last_reported":1773466656,"current_range_meters":21600,"station_id":"","pricing_plan_id":"cebpf4jnsgd1na2vs0mg"},{"bike_id":"e082d5df-265c-42c2-b4b5-86660567b022","system_id":"levelo_inurba_marseille","lat":43.32645,"lon":5.41003,"is_reserved":false,"is_disabled":false,"rental_uris":{"android":"levelo://app?vid=e082d5df-265c-42c2-b4b5-86660567b022","ios":"levelo://app?vid=e082d5df-265c-42c2-b4b5-86660567b022"},"vehicle_type_id":"4","last_reported":1773466656,"current_range_meters":39200,"station_id":"ce4bhpp2rcd13ifvqhgg","pricing_plan_id":"cebpf4jnsgd1na2vs0mg"},{"bike_id":"cc5b0885-42c5-4a4d-b627-a530813f9138","system_id":"levelo_inurba_marseille","lat":43.30849,"lon":5.42347,"is_reserved":false,"is_disabled":false,"rental_uris":{"android":"levelo://app?vid=cc5b0885-42c5-4a4d-b627-a530813f9138","ios":"levelo://app?vid=cc5b0885-42c5-4a4d-b627-a530813f9138"},"vehicle_type_id":"4","last_reported":1773466656,"current_range_meters":28000,"station_id":"st_cvj6ca6bvosntc0bfgr0","pricing_plan_id":"cebpf4jnsgd1na2vs0mg"},{"bike_id":"77fcad5b-4358-407d-8083-ca7782e4e7da","system_id":"levelo_inurba_marseille","lat":43.30317,"lon":5.40436,"is_reserved":false,"is_disabled":false,"rental_uris":{"android":"levelo://app?vid=77fcad5b-4358-407d-8083-ca7782e4e7da","ios":"levelo://app?vid=77fcad5b-4358-407d-8083-ca7782e4e7da"},"vehicle_type_id":"4","last_reported":1773466656,"current_range_meters":26800,"station_id":"ce4bh012rcd13ifvqd10","pricing_plan_id":"cebpf4jnsgd1na2vs0mg"},{"bike_id":"545f3a79-87bf-4cad-b7dc-def28c2dec96","system_id":"levelo_inurba_marseille","lat":43.28572,"lon":5.39503,"is_reserved":false,"is_disabled":false,"rental_uris":{"android":"levelo://app?vid=545f3a79-87bf-4cad-b7dc-def28c2dec96","ios":"levelo://app?vid=545f3a79-87bf-4cad-b7dc-def28c2dec96"},"vehicle_type_id":"4","last_reported":1773466656,"current_range_meters":39200,"station_id":"ce4bh292rcd13ifvqdg0","pricing_plan_id":"cebpf4jnsgd1na2vs0mg"},{"bike_id":"64069c02-c977-4af0-a752-efe4502ec874","system_id":"levelo_inurba_marseille","lat":43.28478,"lon":5.48389,"is_reserved":false,"is_disabled":false,"rental_uris":{"android":"levelo://app?vid=64069c02-c977-4af0-a752-efe4502ec874","ios":"levelo://app?vid=64069c02-c977-4af0-a752-efe4502ec874"},"vehicle_type_id":"4","last_reported":1773466656,"current_range_meters":8400,"station_id":"","pricing_plan_id":"cebpf4jnsgd1na2vs0mg"},{"bike_id":"030d87a5-4fd6-406c-97be-8b1d2c082c10","system_id":"levelo_inurba_marseille","lat":43.24543,"lon":5.39536,"is_reserved":false,"is_disabled":false,"rental_uris":{"android":"levelo://app?vid=030d87a5-4fd6-406c-97be-8b1d2c082c10","ios":"levelo://app?vid=030d87a5-4fd6-406c-97be-8b1d2c082c10"},"vehicle_type_id":"4","last_reported":1773466656,"current_range_meters":38400,"station_id":"ce4bhlp2rcd13ifvqgjg","pricing_plan_id":"cebpf4jnsgd1na2vs0mg"},{"bike_id":"6632ac0d-f937-4d4b-bfd5-25a67477775d","system_id":"levelo_inurba_marseille","lat":43.2902,"lon":5.39992,"is_reserved":false,"is_disabled":false,"rental_uris":{"android":"levelo://app?vid=6632ac0d-f937-4d4b-bfd5-25a67477775d","ios":"levelo://app?vid=6632ac0d-f937-4d4b-bfd5-25a67477775d"},"vehicle_type_id":"4","last_reported":1773466656,"current_range_meters":6800,"station_id":"ce4bh392rcd13ifvqdm0","pricing_plan_id":"cebpf4jnsgd1na2vs0mg"},{"bike_id":"57b4f028-c223-4c21-8fd1-2092c1d27d12","system_id":"levelo_inurba_marseille","lat":43.3027,"lon":5.4188,"is_reserved":false,"is_disabled":false,"rental_uris":{"android":"levelo://app?vid=57b4f028-c223-4c21-8fd1-2092c1d27d12","ios":"levelo://app?vid=57b4f028-c223-4c21-8fd1-2092c1d27d12"},"vehicle_type_id":"4","last_reported":1773466656,"current_range_meters":26000,"station_id":"","pricing_plan_id":"cebpf4jnsgd1na2vs0mg"},{"bike_id":"052537dd-3ef5-4ad2-8ce0-2b9fa593a2a7","system_id":"levelo_inurba_marseille","lat":43.30444,"lon":5.38881,"is_reserved":false,"is_disabled":false,"rental_uris":{"android":"levelo://app?vid=052537dd-3ef5-4ad2-8ce0-2b9fa593a2a7","ios":"levelo://app?vid=052537dd-3ef5-4ad2-8ce0-2b9fa593a2a7"},"vehicle_type_id":"4","last_reported":1773466656,"current_range_meters":38800,"station_id":"ce4bgk12rcd13ifvqbi0","pricing_plan_id":"cebpf4jnsgd1na2vs0mg"},{"bike_id":"7bf0a830-d498-457c-a030-91c3bd84fed4","system_id":"levelo_inurba_marseille","lat":43.23202,"lon":5.35607,"is_reserved":false,"is_disabled":false,"rental_uris":{"android":"levelo://app?vid=7bf0a830-d498-457c-a030-91c3bd84fed4","ios":"levelo://app?vid=7bf0a830-d498-457c-a030-91c3bd84fed4"},"vehicle_type_id":"4","last_reported":1773466656,"current_range_meters":36400,"station_id":"ce4bhu92rcd13ifvqi70","pricing_plan_id":"cebpf4jnsgd1na2vs0mg"},{"bike_id":"db5fc025-f609-443b-b481-2f6cefb137d4","system_id":"levelo_inurba_marseille","lat":43.28478,"lon":5.48393,"is_reserved":false,"is_disabled":false,"rental_uris":{"android":"levelo://app?vid=db5fc025-f609-443b-b481-2f6cefb137d4","ios":"levelo://app?vid=db5fc025-f609-443b-b481-2f6cefb137d4"},"vehicle_type_id":"4","last_reported":1773466656,"current_range_meters":31200,"station_id":"","pricing_plan_id":"cebpf4jnsgd1na2vs0mg"},{"bike_id":"3b85e9e8-4938-4ae7-a83e-c8e2526a550f","system_id":"levelo_inurba_marseille","lat":43.24142,"lon":5.36445,"is_reserved":false,"is_disabled":false,"rental_uris":{"android":"levelo://app?vid=3b85e9e8-4938-4ae7-a83e-c8e2526a550f","ios":"levelo://app?vid=3b85e9e8-4938-4ae7-a83e-c8e2526a550f"},"vehicle_type_id":"4","last_reported":1773466656,"current_range_meters":24800,"station_id":"","pricing_plan_id":"cebpf4jnsgd1na2vs0mg"},{"bike_id":"3c1a31b5-1e72-4c95-95c6-affdb8221f31","system_id":"levelo_inurba_marseille","lat":43.29032,"lon":5.39976,"is_reserved":false,"is_disabled":false,"rental_uris":{"android":"levelo://app?vid=3c1a31b5-1e72-4c95-95c6-affdb8221f31","ios":"levelo://app?vid=3c1a31b5-1e72-4c95-95c6-affdb8221f31"},"vehicle_type_id":"4","last_reported":1773466656,"current_range_meters":39200,"station_id":"ce4bh392rcd13ifvqdm0","pricing_plan_id":"cebpf4jnsgd1na2vs0mg"},{"bike_id":"57aa564f-18d7-4da2-b67c-e3aff3bc078f","system_id":"levelo_inurba_marseille","lat":43.30544,"lon":5.36725,"is_reserved":false,"is_disabled":false,"rental_uris":{"android":"levelo://app?vid=57aa564f-18d7-4da2-b67c-e3aff3bc078f","ios":"levelo://app?vid=57aa564f-18d7-4da2-b67c-e3aff3bc078f"},"vehicle_type_id":"4","last_reported":1773466656,"current_range_meters":39200,"station_id":"ce4bgrp2rcd13ifvqc9g","pricing_plan_id":"cebpf4jnsgd1na2vs0mg"},{"bike_id":"d24ddeef-9278-443f-903c-dce36f2aff8f","system_id":"levelo_inurba_marseille","lat":43.28474,"lon":5.35886,"is_reserved":false,"is_disabled":false,"rental_uris":{"android":"levelo://app?vid=d24ddeef-9278-443f-903c-dce36f2aff8f","ios":"levelo://app?vid=d24ddeef-9278-443f-903c-dce36f2aff8f"},"vehicle_type_id":"4","last_reported":1773466656,"current_range_meters":39200,"station_id":"ce4bhah2rcd13ifvqei0","pricing_plan_id":"cebpf4jnsgd1na2vs0mg"},{"bike_id":"2c6a2cc6-c851-4e88-afa4-be17bb846b49","system_id":"levelo_inurba_marseille","lat":43.30519,"lon":5.3654,"is_reserved":false,"is_disabled":false,"rental_uris":{"android":"levelo://app?vid=2c6a2cc6-c851-4e88-afa4-be17bb846b49","ios":"levelo://app?vid=2c6a2cc6-c851-4e88-afa4-be17bb846b49"},"vehicle_type_id":"4","last_reported":1773466656,"current_range_meters":38800,"station_id":"ce4bgs12rcd13ifvqcag","pricing_plan_id":"cebpf4jnsgd1na2vs0mg"},{"bike_id":"ab7d9189-2568-4974-829e-49dee9a447d5","system_id":"levelo_inurba_marseille","lat":43.23191,"lon":5.35551,"is_reserved":false,"is_disabled":false,"rental_uris":{"android":"levelo://app?vid=ab7d9189-2568-4974-829e-49dee9a447d5","ios":"levelo://app?vid=ab7d9189-2568-4974-829e-49dee9a447d5"},"vehicle_type_id":"4","last_reported":1773466656,"current_range_meters":39200,"station_id":"ce4bhu92rcd13ifvqi70","pricing_plan_id":"cebpf4jnsgd1na2vs0mg"},{"bike_id":"734e018e-369b-4e22-8448-013f77c4e902","system_id":"levelo_inurba_marseille","lat":43.28714,"lon":5.36079,"is_reserved":false,"is_disabled":false,"rental_uris":{"android":"levelo://app?vid=734e018e-369b-4e22-8448-013f77c4e902","ios":"levelo://app?vid=734e018e-369b-4e22-8448-013f77c4e902"},"vehicle_type_id":"4","last_reported":1773466656,"current_range_meters":40000,"station_id":"cki0cbj6b192h4jlfktg","pricing_plan_id":"cebpf4jnsgd1na2vs0mg"},{"bike_id":"c0c5d9dc-928d-48b1-bc04-fe5d71707694","system_id":"levelo_inurba_marseille","lat":43.32345,"lon":5.36715,"is_reserved":false,"is_disabled":false,"rental_uris":{"android":"levelo://app?vid=c0c5d9dc-928d-48b1-bc04-fe5d71707694","ios":"levelo://app?vid=c0c5d9dc-928d-48b1-bc04-fe5d71707694"},"vehicle_type_id":"4","last_reported":1773466656,"current_range_meters":38000,"station_id":"ce4bhsh2rcd13ifvqi2g","pricing_plan_id":"cebpf4jnsgd1na2vs0mg"},{"bike_id":"c1477131-caab-43d7-95bb-c758b4857c85","system_id":"levelo_inurba_marseille","lat":43.30811,"lon":5.38135,"is_reserved":false,"is_disabled":false,"rental_uris":{"android":"levelo://app?vid=c1477131-caab-43d7-95bb-c758b4857c85","ios":"levelo://app?vid=c1477131-caab-43d7-95bb-c758b4857c85"},"vehicle_type_id":"4","last_reported":1773466656,"current_range_meters":28000,"station_id":"ce4bgt12rcd13ifvqce0","pricing_plan_id":"cebpf4jnsgd1na2vs0mg"},{"bike_id":"492a4db4-1b6b-496f-950a-74722999c85c","system_id":"levelo_inurba_marseille","lat":43.29632,"lon":5.40607,"is_reserved":false,"is_disabled":false,"rental_uris":{"android":"levelo://app?vid=492a4db4-1b6b-496f-950a-74722999c85c","ios":"levelo://app?vid=492a4db4-1b6b-496f-950a-74722999c85c"},"vehicle_type_id":"4","last_reported":1773466656,"current_range_meters":40000,"station_id":"ce4bh0h2rcd13ifvqd60","pricing_plan_id":"cebpf4jnsgd1na2vs0mg"},{"bike_id":"475f6229-3b8f-4eab-b8fd-2fbd86f0fb75","system_id":"levelo_inurba_marseille","lat":43.24177,"lon":5.36399,"is_reserved":false,"is_disabled":false,"rental_uris":{"android":"levelo://app?vid=475f6229-3b8f-4eab-b8fd-2fbd86f0fb75","ios":"levelo://app?vid=475f6229-3b8f-4eab-b8fd-2fbd86f0fb75"},"vehicle_type_id":"4","last_reported":1773466656,"current_range_meters":38400,"station_id":"cpo36qri1sfpv3e86is0","pricing_plan_id":"cebpf4jnsgd1na2vs0mg"},{"bike_id":"aaf56433-ee77-470c-b7b6-221e680ae993","system_id":"levelo_inurba_marseille","lat":43.22559,"lon":5.41642,"is_reserved":false,"is_disabled":false,"rental_uris":{"android":"levelo://app?vid=aaf56433-ee77-470c-b7b6-221e680ae993","ios":"levelo://app?vid=aaf56433-ee77-470c-b7b6-221e680ae993"},"vehicle_type_id":"4","last_reported":1773466656,"current_range_meters":9200,"station_id":"st_d2o4gvlbi1j2169b742g","pricing_plan_id":"cebpf4jnsgd1na2vs0mg"},{"bike_id":"3ff3df78-eee4-4716-9de4-5e86fa44030b","system_id":"levelo_inurba_marseille","lat":43.30139,"lon":5.37451,"is_reserved":false,"is_disabled":false,"rental_uris":{"android":"levelo://app?vid=3ff3df78-eee4-4716-9de4-5e86fa44030b","ios":"levelo://app?vid=3ff3df78-eee4-4716-9de4-5e86fa44030b"},"vehicle_type_id":"4","last_reported":1773466656,"current_range_meters":40000,"station_id":"ce4bgs92rcd13ifvqcc0","pricing_plan_id":"cebpf4jnsgd1na2vs0mg"},{"bike_id":"3a3e1c85-dbae-420f-b6d9-3a4969e8b66e","system_id":"levelo_inurba_marseille","lat":43.24471,"lon":5.42544,"is_reserved":false,"is_disabled":false,"rental_uris":{"android":"levelo://app?vid=3a3e1c85-dbae-420f-b6d9-3a4969e8b66e","ios":"levelo://app?vid=3a3e1c85-dbae-420f-b6d9-3a4969e8b66e"},"vehicle_type_id":"4","last_reported":1773466656,"current_range_meters":6800,"station_id":"st_d4a3vfp97mjs738cd8kg","pricing_plan_id":"cebpf4jnsgd1na2vs0mg"},{"bike_id":"eb566e58-31ed-4f69-8ead-9fd9fd55d1d0","system_id":"levelo_inurba_marseille","lat":43.29607,"lon":5.37737,"is_reserved":false,"is_disabled":false,"rental_uris":{"android":"levelo://app?vid=eb566e58-31ed-4f69-8ead-9fd9fd55d1d0","ios":"levelo://app?vid=eb566e58-31ed-4f69-8ead-9fd9fd55d1d0"},"vehicle_type_id":"4","last_reported":1773466656,"current_range_meters":26000,"station_id":"ce4bgi92rcd13ifvqb90","pricing_plan_id":"cebpf4jnsgd1na2vs0mg"},{"bike_id":"eb259eb3-17cb-4932-bfd9-164bb2aaf2fe","system_id":"levelo_inurba_marseille","lat":43.23185,"lon":5.35561,"is_reserved":false,"is_disabled":false,"rental_uris":{"android":"levelo://app?vid=eb259eb3-17cb-4932-bfd9-164bb2aaf2fe","ios":"levelo://app?vid=eb259eb3-17cb-4932-bfd9-164bb2aaf2fe"},"vehicle_type_id":"4","last_reported":1773466656,"current_range_meters":38000,"station_id":"ce4bhu92rcd13ifvqi70","pricing_plan_id":"cebpf4jnsgd1na2vs0mg"},{"bike_id":"65ee7645-9dc8-4c4c-9423-3cd7d3bf25e9","system_id":"levelo_inurba_marseille","lat":43.2988,"lon":5.38145,"is_reserved":false,"is_disabled":false,"rental_uris":{"android":"levelo://app?vid=65ee7645-9dc8-4c4c-9423-3cd7d3bf25e9","ios":"levelo://app?vid=65ee7645-9dc8-4c4c-9423-3cd7d3bf25e9"},"vehicle_type_id":"4","last_reported":1773466656,"current_range_meters":32000,"station_id":"ce4bgj12rcd13ifvqbc0","pricing_plan_id":"cebpf4jnsgd1na2vs0mg"},{"bike_id":"41b16539-d93d-4e64-a8e4-b7d380ab4e3b","system_id":"levelo_inurba_marseille","lat":43.25012,"lon":5.3892,"is_reserved":false,"is_disabled":false,"rental_uris":{"android":"levelo://app?vid=41b16539-d93d-4e64-a8e4-b7d380ab4e3b","ios":"levelo://app?vid=41b16539-d93d-4e64-a8e4-b7d380ab4e3b"},"vehicle_type_id":"4","last_reported":1773466656,"current_range_meters":16400,"station_id":"ce4bhgp2rcd13ifvqfd0","pricing_plan_id":"cebpf4jnsgd1na2vs0mg"},{"bike_id":"f099973d-7c3c-4c24-a96d-66e53b1f4f14","system_id":"levelo_inurba_marseille","lat":43.30096,"lon":5.39206,"is_reserved":false,"is_disabled":true,"rental_uris":{"android":"levelo://app?vid=f099973d-7c3c-4c24-a96d-66e53b1f4f14","ios":"levelo://app?vid=f099973d-7c3c-4c24-a96d-66e53b1f4f14"},"vehicle_type_id":"4","last_reported":1773466656,"current_range_meters":36400,"station_id":"","pricing_plan_id":"cebpf4jnsgd1na2vs0mg"},{"bike_id":"6270512c-8d64-4296-8963-f67e68cf1af8","system_id":"levelo_inurba_marseille","lat":43.28633,"lon":5.36126,"is_reserved":false,"is_disabled":false,"rental_uris":{"android":"levelo://app?vid=6270512c-8d64-4296-8963-f67e68cf1af8","ios":"levelo://app?vid=6270512c-8d64-4296-8963-f67e68cf1af8"},"vehicle_type_id":"4","last_reported":1773466656,"current_range_meters":38800,"station_id":"cki0cbj6b192h4jlfktg","pricing_plan_id":"cebpf4jnsgd1na2vs0mg"},{"bike_id":"b3bddb16-0149-44e8-bd3a-8a9efd5a9794","system_id":"levelo_inurba_marseille","lat":43.26929,"lon":5.40259,"is_reserved":false,"is_disabled":false,"rental_uris":{"android":"levelo://app?vid=b3bddb16-0149-44e8-bd3a-8a9efd5a9794","ios":"levelo://app?vid=b3bddb16-0149-44e8-bd3a-8a9efd5a9794"},"vehicle_type_id":"4","last_reported":1773466656,"current_range_meters":39200,"station_id":"cjm6bp8fraef2m0cb0m0","pricing_plan_id":"cebpf4jnsgd1na2vs0mg"},{"bike_id":"dfc5a661-2493-4d07-9383-46a9ee5d3d02","system_id":"levelo_inurba_marseille","lat":43.29685,"lon":5.36611,"is_reserved":false,"is_disabled":false,"rental_uris":{"android":"levelo://app?vid=dfc5a661-2493-4d07-9383-46a9ee5d3d02","ios":"levelo://app?vid=dfc5a661-2493-4d07-9383-46a9ee5d3d02"},"vehicle_type_id":"4","last_reported":1773466656,"current_range_meters":40000,"station_id":"ce4bgn12rcd13ifvqbt0","pricing_plan_id":"cebpf4jnsgd1na2vs0mg"},{"bike_id":"af04683b-e462-44be-8018-569fb65efcf0","system_id":"levelo_inurba_marseille","lat":43.29041,"lon":5.39965,"is_reserved":false,"is_disabled":false,"rental_uris":{"android":"levelo://app?vid=af04683b-e462-44be-8018-569fb65efcf0","ios":"levelo://app?vid=af04683b-e462-44be-8018-569fb65efcf0"},"vehicle_type_id":"4","last_reported":1773466656,"current_range_meters":30400,"station_id":"ce4bh392rcd13ifvqdm0","pricing_plan_id":"cebpf4jnsgd1na2vs0mg"},{"bike_id":"e305725b-6b92-46c5-a744-6991250b3bf0","system_id":"levelo_inurba_marseille","lat":43.2844,"lon":5.35867,"is_reserved":false,"is_disabled":false,"rental_uris":{"android":"levelo://app?vid=e305725b-6b92-46c5-a744-6991250b3bf0","ios":"levelo://app?vid=e305725b-6b92-46c5-a744-6991250b3bf0"},"vehicle_type_id":"4","last_reported":1773466656,"current_range_meters":12400,"station_id":"ce4bhah2rcd13ifvqei0","pricing_plan_id":"cebpf4jnsgd1na2vs0mg"},{"bike_id":"92f42bc1-a735-43a4-906a-779551f2e4c8","system_id":"levelo_inurba_marseille","lat":43.29776,"lon":5.38113,"is_reserved":false,"is_disabled":true,"rental_uris":{"android":"levelo://app?vid=92f42bc1-a735-43a4-906a-779551f2e4c8","ios":"levelo://app?vid=92f42bc1-a735-43a4-906a-779551f2e4c8"},"vehicle_type_id":"4","last_reported":1773466656,"current_range_meters":24000,"station_id":"ce4bgip2rcd13ifvqbb0","pricing_plan_id":"cebpf4jnsgd1na2vs0mg"},{"bike_id":"88cb8c7f-0ccd-4a01-91f9-3a530d0e94ef","system_id":"levelo_inurba_marseille","lat":43.28634,"lon":5.35099,"is_reserved":false,"is_disabled":false,"rental_uris":{"android":"levelo://app?vid=88cb8c7f-0ccd-4a01-91f9-3a530d0e94ef","ios":"levelo://app?vid=88cb8c7f-0ccd-4a01-91f9-3a530d0e94ef"},"vehicle_type_id":"4","last_reported":1773466656,"current_range_meters":39200,"station_id":"ce4bhch2rcd13ifvqeug","pricing_plan_id":"cebpf4jnsgd1na2vs0mg"},{"bike_id":"b8e4a082-e575-4e61-954c-39afec02b4b4","system_id":"levelo_inurba_marseille","lat":43.28664,"lon":5.3638,"is_reserved":false,"is_disabled":false,"rental_uris":{"android":"levelo://app?vid=b8e4a082-e575-4e61-954c-39afec02b4b4","ios":"levelo://app?vid=b8e4a082-e575-4e61-954c-39afec02b4b4"},"vehicle_type_id":"4","last_reported":1773466656,"current_range_meters":27200,"station_id":"ce4bhah2rcd13ifvqej0","pricing_plan_id":"cebpf4jnsgd1na2vs0mg"},{"bike_id":"32358ead-44ff-491d-882b-0c4122b7d796","system_id":"levelo_inurba_marseille","lat":43.21187,"lon":5.35071,"is_reserved":false,"is_disabled":false,"rental_uris":{"android":"levelo://app?vid=32358ead-44ff-491d-882b-0c4122b7d796","ios":"levelo://app?vid=32358ead-44ff-491d-882b-0c4122b7d796"},"vehicle_type_id":"4","last_reported":1773466656,"current_range_meters":6800,"station_id":"st_cvj6sg6p6f1abm77japg","pricing_plan_id":"cebpf4jnsgd1na2vs0mg"},{"bike_id":"bc673af1-2063-4281-9abc-51fecdfbafc7","system_id":"levelo_inurba_marseille","lat":43.28013,"lon":5.40003,"is_reserved":false,"is_disabled":false,"rental_uris":{"android":"levelo://app?vid=bc673af1-2063-4281-9abc-51fecdfbafc7","ios":"levelo://app?vid=bc673af1-2063-4281-9abc-51fecdfbafc7"},"vehicle_type_id":"4","last_reported":1773466656,"current_range_meters":22800,"station_id":"ce4bho92rcd13ifvqh4g","pricing_plan_id":"cebpf4jnsgd1na2vs0mg"},{"bike_id":"88baf1fe-4b9b-4c52-81f7-dd067c921a9f","system_id":"levelo_inurba_marseille","lat":43.29814,"lon":5.44088,"is_reserved":false,"is_disabled":false,"rental_uris":{"android":"levelo://app?vid=88baf1fe-4b9b-4c52-81f7-dd067c921a9f","ios":"levelo://app?vid=88baf1fe-4b9b-4c52-81f7-dd067c921a9f"},"vehicle_type_id":"4","last_reported":1773466656,"current_range_meters":14800,"station_id":"st_d3jp68qikq2c7381ktn0","pricing_plan_id":"cebpf4jnsgd1na2vs0mg"},{"bike_id":"9809ed74-801c-4fe4-9601-8064fccc6e3e","system_id":"levelo_inurba_marseille","lat":43.26863,"lon":5.37032,"is_reserved":false,"is_disabled":false,"rental_uris":{"android":"levelo://app?vid=9809ed74-801c-4fe4-9601-8064fccc6e3e","ios":"levelo://app?vid=9809ed74-801c-4fe4-9601-8064fccc6e3e"},"vehicle_type_id":"4","last_reported":1773466656,"current_range_meters":38000,"station_id":"","pricing_plan_id":"cebpf4jnsgd1na2vs0mg"},{"bike_id":"7ee8a3da-f976-4cf6-b806-88152fab5512","system_id":"levelo_inurba_marseille","lat":43.29498,"lon":5.39055,"is_reserved":false,"is_disabled":false,"rental_uris":{"android":"levelo://app?vid=7ee8a3da-f976-4cf6-b806-88152fab5512","ios":"levelo://app?vid=7ee8a3da-f976-4cf6-b806-88152fab5512"},"vehicle_type_id":"4","last_reported":1773466656,"current_range_meters":27200,"station_id":"ce4bh3p2rcd13ifvqdp0","pricing_plan_id":"cebpf4jnsgd1na2vs0mg"},{"bike_id":"0f0d92f0-3031-4109-9545-b12e61aeb8ea","system_id":"levelo_inurba_marseille","lat":43.25487,"lon":5.37652,"is_reserved":false,"is_disabled":false,"rental_uris":{"android":"levelo://app?vid=0f0d92f0-3031-4109-9545-b12e61aeb8ea","ios":"levelo://app?vid=0f0d92f0-3031-4109-9545-b12e61aeb8ea"},"vehicle_type_id":"4","last_reported":1773466656,"current_range_meters":39200,"station_id":"ce4bhh12rcd13ifvqff0","pricing_plan_id":"cebpf4jnsgd1na2vs0mg"},{"bike_id":"60e5ee64-23dd-4b76-ba43-a71a00813c74","system_id":"levelo_inurba_marseille","lat":43.29647,"lon":5.37672,"is_reserved":false,"is_disabled":true,"rental_uris":{"android":"levelo://app?vid=60e5ee64-23dd-4b76-ba43-a71a00813c74","ios":"levelo://app?vid=60e5ee64-23dd-4b76-ba43-a71a00813c74"},"vehicle_type_id":"4","last_reported":1773466656,"current_range_meters":4400,"station_id":"ce4bgi92rcd13ifvqb90","pricing_plan_id":"cebpf4jnsgd1na2vs0mg"},{"bike_id":"5ac94716-44b8-4ae4-8f63-01aed3be190f","system_id":"levelo_inurba_marseille","lat":43.23964,"lon":5.36623,"is_reserved":false,"is_disabled":false,"rental_uris":{"android":"levelo://app?vid=5ac94716-44b8-4ae4-8f63-01aed3be190f","ios":"levelo://app?vid=5ac94716-44b8-4ae4-8f63-01aed3be190f"},"vehicle_type_id":"4","last_reported":1773466656,"current_range_meters":9600,"station_id":"ce4bhi12rcd13ifvqfp0","pricing_plan_id":"cebpf4jnsgd1na2vs0mg"},{"bike_id":"574389cd-d5f7-4bb8-8e81-3a3b9218fbef","system_id":"levelo_inurba_marseille","lat":43.24164,"lon":5.36405,"is_reserved":false,"is_disabled":false,"rental_uris":{"android":"levelo://app?vid=574389cd-d5f7-4bb8-8e81-3a3b9218fbef","ios":"levelo://app?vid=574389cd-d5f7-4bb8-8e81-3a3b9218fbef"},"vehicle_type_id":"4","last_reported":1773466656,"current_range_meters":13600,"station_id":"cpo36qri1sfpv3e86is0","pricing_plan_id":"cebpf4jnsgd1na2vs0mg"},{"bike_id":"4b89016e-4162-40fe-a211-e0b3a395484a","system_id":"levelo_inurba_marseille","lat":43.31327,"lon":5.39697,"is_reserved":false,"is_disabled":false,"rental_uris":{"android":"levelo://app?vid=4b89016e-4162-40fe-a211-e0b3a395484a","ios":"levelo://app?vid=4b89016e-4162-40fe-a211-e0b3a395484a"},"vehicle_type_id":"4","last_reported":1773466656,"current_range_meters":8400,"station_id":"ce4bgvp2rcd13ifvqcu0","pricing_plan_id":"cebpf4jnsgd1na2vs0mg"},{"bike_id":"d008a3ca-bdab-43f7-957e-465391a2d48d","system_id":"levelo_inurba_marseille","lat":43.31719,"lon":5.42412,"is_reserved":false,"is_disabled":false,"rental_uris":{"android":"levelo://app?vid=d008a3ca-bdab-43f7-957e-465391a2d48d","ios":"levelo://app?vid=d008a3ca-bdab-43f7-957e-465391a2d48d"},"vehicle_type_id":"4","last_reported":1773466656,"current_range_meters":37600,"station_id":"ce4bhp92rcd13ifvqhbg","pricing_plan_id":"cebpf4jnsgd1na2vs0mg"},{"bike_id":"1e56537e-8220-45c2-bf2a-9b133d7e2992","system_id":"levelo_inurba_marseille","lat":43.30116,"lon":5.3986,"is_reserved":false,"is_disabled":false,"rental_uris":{"android":"levelo://app?vid=1e56537e-8220-45c2-bf2a-9b133d7e2992","ios":"levelo://app?vid=1e56537e-8220-45c2-bf2a-9b133d7e2992"},"vehicle_type_id":"4","last_reported":1773466656,"current_range_meters":35600,"station_id":"ce4bh0h2rcd13ifvqd40","pricing_plan_id":"cebpf4jnsgd1na2vs0mg"},{"bike_id":"0d65bdd3-172a-487e-aa74-021b0871a788","system_id":"levelo_inurba_marseille","lat":43.2884,"lon":5.39325,"is_reserved":false,"is_disabled":false,"rental_uris":{"android":"levelo://app?vid=0d65bdd3-172a-487e-aa74-021b0871a788","ios":"levelo://app?vid=0d65bdd3-172a-487e-aa74-021b0871a788"},"vehicle_type_id":"4","last_reported":1773466656,"current_range_meters":28400,"station_id":"ce4bh2p2rcd13ifvqdi0","pricing_plan_id":"cebpf4jnsgd1na2vs0mg"},{"bike_id":"58b1a143-9d58-4dc1-9275-f615ceb10ad2","system_id":"levelo_inurba_marseille","lat":43.28409,"lon":5.37522,"is_reserved":false,"is_disabled":false,"rental_uris":{"android":"levelo://app?vid=58b1a143-9d58-4dc1-9275-f615ceb10ad2","ios":"levelo://app?vid=58b1a143-9d58-4dc1-9275-f615ceb10ad2"},"vehicle_type_id":"4","last_reported":1773466656,"current_range_meters":20400,"station_id":"ce4bh412rcd13ifvqds0","pricing_plan_id":"cebpf4jnsgd1na2vs0mg"},{"bike_id":"9596f94a-278a-429c-a324-f3e305c15fe7","system_id":"levelo_inurba_marseille","lat":43.28247,"lon":5.35105,"is_reserved":false,"is_disabled":false,"rental_uris":{"android":"levelo://app?vid=9596f94a-278a-429c-a324-f3e305c15fe7","ios":"levelo://app?vid=9596f94a-278a-429c-a324-f3e305c15fe7"},"vehicle_type_id":"4","last_reported":1773466656,"current_range_meters":27200,"station_id":"","pricing_plan_id":"cebpf4jnsgd1na2vs0mg"},{"bike_id":"5dc68016-e723-4d55-a806-f89366f89466","system_id":"levelo_inurba_marseille","lat":43.28339,"lon":5.38117,"is_reserved":false,"is_disabled":false,"rental_uris":{"android":"levelo://app?vid=5dc68016-e723-4d55-a806-f89366f89466","ios":"levelo://app?vid=5dc68016-e723-4d55-a806-f89366f89466"},"vehicle_type_id":"4","last_reported":1773466656,"current_range_meters":33600,"station_id":"ce4bh412rcd13ifvqdr0","pricing_plan_id":"cebpf4jnsgd1na2vs0mg"},{"bike_id":"40c27b0e-4f22-4745-bcd8-0841599fb5ad","system_id":"levelo_inurba_marseille","lat":43.30309,"lon":5.40462,"is_reserved":false,"is_disabled":false,"rental_uris":{"android":"levelo://app?vid=40c27b0e-4f22-4745-bcd8-0841599fb5ad","ios":"levelo://app?vid=40c27b0e-4f22-4745-bcd8-0841599fb5ad"},"vehicle_type_id":"4","last_reported":1773466656,"current_range_meters":39200,"station_id":"ce4bh012rcd13ifvqd10","pricing_plan_id":"cebpf4jnsgd1na2vs0mg"},{"bike_id":"59ef9583-837f-44d2-9f57-366ee632f285","system_id":"levelo_inurba_marseille","lat":43.28468,"lon":5.38419,"is_reserved":false,"is_disabled":false,"rental_uris":{"android":"levelo://app?vid=59ef9583-837f-44d2-9f57-366ee632f285","ios":"levelo://app?vid=59ef9583-837f-44d2-9f57-366ee632f285"},"vehicle_type_id":"4","last_reported":1773466656,"current_range_meters":39200,"station_id":"ce4bh512rcd13ifvqe3g","pricing_plan_id":"cebpf4jnsgd1na2vs0mg"},{"bike_id":"9a2fbe44-96fa-42fa-b7e7-679196e3a792","system_id":"levelo_inurba_marseille","lat":43.30916,"lon":5.40213,"is_reserved":false,"is_disabled":false,"rental_uris":{"android":"levelo://app?vid=9a2fbe44-96fa-42fa-b7e7-679196e3a792","ios":"levelo://app?vid=9a2fbe44-96fa-42fa-b7e7-679196e3a792"},"vehicle_type_id":"4","last_reported":1773466656,"current_range_meters":39200,"station_id":"ce4bgvp2rcd13ifvqct0","pricing_plan_id":"cebpf4jnsgd1na2vs0mg"},{"bike_id":"18a0fb9e-e224-426e-8d68-1c285ec71ac8","system_id":"levelo_inurba_marseille","lat":43.29165,"lon":5.38443,"is_reserved":false,"is_disabled":false,"rental_uris":{"android":"levelo://app?vid=18a0fb9e-e224-426e-8d68-1c285ec71ac8","ios":"levelo://app?vid=18a0fb9e-e224-426e-8d68-1c285ec71ac8"},"vehicle_type_id":"4","last_reported":1773466656,"current_range_meters":25200,"station_id":"","pricing_plan_id":"cebpf4jnsgd1na2vs0mg"},{"bike_id":"f4e00244-8c5a-40a0-8e1a-7e53723c5906","system_id":"levelo_inurba_marseille","lat":43.25,"lon":5.38942,"is_reserved":false,"is_disabled":false,"rental_uris":{"android":"levelo://app?vid=f4e00244-8c5a-40a0-8e1a-7e53723c5906","ios":"levelo://app?vid=f4e00244-8c5a-40a0-8e1a-7e53723c5906"},"vehicle_type_id":"4","last_reported":1773466656,"current_range_meters":30400,"station_id":"ce4bhgp2rcd13ifvqfd0","pricing_plan_id":"cebpf4jnsgd1na2vs0mg"},{"bike_id":"ef364c26-b12f-4ac2-8385-acdb623c591d","system_id":"levelo_inurba_marseille","lat":43.22553,"lon":5.41627,"is_reserved":false,"is_disabled":true,"rental_uris":{"android":"levelo://app?vid=ef364c26-b12f-4ac2-8385-acdb623c591d","ios":"levelo://app?vid=ef364c26-b12f-4ac2-8385-acdb623c591d"},"vehicle_type_id":"4","last_reported":1773466656,"current_range_meters":15200,"station_id":"st_d2o4gvlbi1j2169b742g","pricing_plan_id":"cebpf4jnsgd1na2vs0mg"},{"bike_id":"1f6349b5-213e-4c70-8847-e120f033f762","system_id":"levelo_inurba_marseille","lat":43.31889,"lon":5.40733,"is_reserved":false,"is_disabled":false,"rental_uris":{"android":"levelo://app?vid=1f6349b5-213e-4c70-8847-e120f033f762","ios":"levelo://app?vid=1f6349b5-213e-4c70-8847-e120f033f762"},"vehicle_type_id":"4","last_reported":1773466656,"current_range_meters":39200,"station_id":"ce4bhq12rcd13ifvqhig","pricing_plan_id":"cebpf4jnsgd1na2vs0mg"},{"bike_id":"9d00b031-cc76-410b-814e-d2c081f804dc","system_id":"levelo_inurba_marseille","lat":43.3025,"lon":5.40047,"is_reserved":false,"is_disabled":false,"rental_uris":{"android":"levelo://app?vid=9d00b031-cc76-410b-814e-d2c081f804dc","ios":"levelo://app?vid=9d00b031-cc76-410b-814e-d2c081f804dc"},"vehicle_type_id":"4","last_reported":1773466656,"current_range_meters":11200,"station_id":"ce4bgvh2rcd13ifvqcs0","pricing_plan_id":"cebpf4jnsgd1na2vs0mg"},{"bike_id":"0caef11f-bbfb-4366-8e8c-be825fa3903a","system_id":"levelo_inurba_marseille","lat":43.31114,"lon":5.37769,"is_reserved":false,"is_disabled":false,"rental_uris":{"android":"levelo://app?vid=0caef11f-bbfb-4366-8e8c-be825fa3903a","ios":"levelo://app?vid=0caef11f-bbfb-4366-8e8c-be825fa3903a"},"vehicle_type_id":"4","last_reported":1773466656,"current_range_meters":28400,"station_id":"ce4bgt92rcd13ifvqcg0","pricing_plan_id":"cebpf4jnsgd1na2vs0mg"},{"bike_id":"8617b24d-bdd2-49e3-beda-5d74fc474252","system_id":"levelo_inurba_marseille","lat":43.28447,"lon":5.48413,"is_reserved":false,"is_disabled":false,"rental_uris":{"android":"levelo://app?vid=8617b24d-bdd2-49e3-beda-5d74fc474252","ios":"levelo://app?vid=8617b24d-bdd2-49e3-beda-5d74fc474252"},"vehicle_type_id":"4","last_reported":1773466656,"current_range_meters":28000,"station_id":"","pricing_plan_id":"cebpf4jnsgd1na2vs0mg"},{"bike_id":"220d894a-f644-4c83-8dff-27c56f0eea16","system_id":"levelo_inurba_marseille","lat":43.24784,"lon":5.37465,"is_reserved":false,"is_disabled":true,"rental_uris":{"android":"levelo://app?vid=220d894a-f644-4c83-8dff-27c56f0eea16","ios":"levelo://app?vid=220d894a-f644-4c83-8dff-27c56f0eea16"},"vehicle_type_id":"4","last_reported":1773466656,"current_range_meters":22400,"station_id":"ce4bhgh2rcd13ifvqfb0","pricing_plan_id":"cebpf4jnsgd1na2vs0mg"},{"bike_id":"75f14208-a968-40dc-80f8-68b063e0d714","system_id":"levelo_inurba_marseille","lat":43.23136,"lon":5.43722,"is_reserved":false,"is_disabled":false,"rental_uris":{"android":"levelo://app?vid=75f14208-a968-40dc-80f8-68b063e0d714","ios":"levelo://app?vid=75f14208-a968-40dc-80f8-68b063e0d714"},"vehicle_type_id":"4","last_reported":1773466656,"current_range_meters":11600,"station_id":"ce4bhmp2rcd13ifvqgog","pricing_plan_id":"cebpf4jnsgd1na2vs0mg"},{"bike_id":"0bfe2ab1-93ee-440e-8ff9-e86f02a6369b","system_id":"levelo_inurba_marseille","lat":43.29521,"lon":5.39072,"is_reserved":false,"is_disabled":false,"rental_uris":{"android":"levelo://app?vid=0bfe2ab1-93ee-440e-8ff9-e86f02a6369b","ios":"levelo://app?vid=0bfe2ab1-93ee-440e-8ff9-e86f02a6369b"},"vehicle_type_id":"4","last_reported":1773466656,"current_range_meters":4400,"station_id":"ce4bh3p2rcd13ifvqdp0","pricing_plan_id":"cebpf4jnsgd1na2vs0mg"},{"bike_id":"2c4b9baa-150c-43c0-9983-79477495e674","system_id":"levelo_inurba_marseille","lat":43.31585,"lon":5.38883,"is_reserved":false,"is_disabled":false,"rental_uris":{"android":"levelo://app?vid=2c4b9baa-150c-43c0-9983-79477495e674","ios":"levelo://app?vid=2c4b9baa-150c-43c0-9983-79477495e674"},"vehicle_type_id":"4","last_reported":1773466656,"current_range_meters":6400,"station_id":"","pricing_plan_id":"cebpf4jnsgd1na2vs0mg"},{"bike_id":"4a09330b-b9bf-424e-8693-aafe00acb3cd","system_id":"levelo_inurba_marseille","lat":43.29559,"lon":5.42292,"is_reserved":false,"is_disabled":false,"rental_uris":{"android":"levelo://app?vid=4a09330b-b9bf-424e-8693-aafe00acb3cd","ios":"levelo://app?vid=4a09330b-b9bf-424e-8693-aafe00acb3cd"},"vehicle_type_id":"4","last_reported":1773466656,"current_range_meters":37600,"station_id":"ce4bhph2rcd13ifvqhdg","pricing_plan_id":"cebpf4jnsgd1na2vs0mg"},{"bike_id":"e0f4c726-c891-4b59-a727-5f7bf2fb4325","system_id":"levelo_inurba_marseille","lat":43.28532,"lon":5.4409,"is_reserved":false,"is_disabled":false,"rental_uris":{"android":"levelo://app?vid=e0f4c726-c891-4b59-a727-5f7bf2fb4325","ios":"levelo://app?vid=e0f4c726-c891-4b59-a727-5f7bf2fb4325"},"vehicle_type_id":"4","last_reported":1773466656,"current_range_meters":39200,"station_id":"st_d3j3df2ikq2c7380ej80","pricing_plan_id":"cebpf4jnsgd1na2vs0mg"},{"bike_id":"af2e80dc-23a8-428f-b0f6-a691171e6533","system_id":"levelo_inurba_marseille","lat":43.24672,"lon":5.3818,"is_reserved":false,"is_disabled":false,"rental_uris":{"android":"levelo://app?vid=af2e80dc-23a8-428f-b0f6-a691171e6533","ios":"levelo://app?vid=af2e80dc-23a8-428f-b0f6-a691171e6533"},"vehicle_type_id":"4","last_reported":1773466656,"current_range_meters":9600,"station_id":"ce4bhih2rcd13ifvqfr0","pricing_plan_id":"cebpf4jnsgd1na2vs0mg"},{"bike_id":"3d4208c2-815f-40bf-8bb0-f78b87ee07d6","system_id":"levelo_inurba_marseille","lat":43.28401,"lon":5.34986,"is_reserved":false,"is_disabled":false,"rental_uris":{"android":"levelo://app?vid=3d4208c2-815f-40bf-8bb0-f78b87ee07d6","ios":"levelo://app?vid=3d4208c2-815f-40bf-8bb0-f78b87ee07d6"},"vehicle_type_id":"4","last_reported":1773466656,"current_range_meters":38000,"station_id":"ce4bhbh2rcd13ifvqepg","pricing_plan_id":"cebpf4jnsgd1na2vs0mg"},{"bike_id":"b129dd58-1611-46d1-8998-00763fbad8df","system_id":"levelo_inurba_marseille","lat":43.30067,"lon":5.41695,"is_reserved":false,"is_disabled":false,"rental_uris":{"android":"levelo://app?vid=b129dd58-1611-46d1-8998-00763fbad8df","ios":"levelo://app?vid=b129dd58-1611-46d1-8998-00763fbad8df"},"vehicle_type_id":"4","last_reported":1773466656,"current_range_meters":36000,"station_id":"","pricing_plan_id":"cebpf4jnsgd1na2vs0mg"},{"bike_id":"4a128c70-7b4b-4754-8f4f-e3724c3c9838","system_id":"levelo_inurba_marseille","lat":43.30932,"lon":5.40161,"is_reserved":false,"is_disabled":false,"rental_uris":{"android":"levelo://app?vid=4a128c70-7b4b-4754-8f4f-e3724c3c9838","ios":"levelo://app?vid=4a128c70-7b4b-4754-8f4f-e3724c3c9838"},"vehicle_type_id":"4","last_reported":1773466656,"current_range_meters":8400,"station_id":"ce4bgvp2rcd13ifvqct0","pricing_plan_id":"cebpf4jnsgd1na2vs0mg"},{"bike_id":"2e688729-ac68-4c27-b018-2f7101bf4426","system_id":"levelo_inurba_marseille","lat":43.32483,"lon":5.36562,"is_reserved":false,"is_disabled":false,"rental_uris":{"android":"levelo://app?vid=2e688729-ac68-4c27-b018-2f7101bf4426","ios":"levelo://app?vid=2e688729-ac68-4c27-b018-2f7101bf4426"},"vehicle_type_id":"4","last_reported":1773466656,"current_range_meters":36400,"station_id":"ce4bhs12rcd13ifvqhvg","pricing_plan_id":"cebpf4jnsgd1na2vs0mg"},{"bike_id":"56fddcda-c541-44a5-8391-f7fbf087f4ed","system_id":"levelo_inurba_marseille","lat":43.22564,"lon":5.41632,"is_reserved":false,"is_disabled":false,"rental_uris":{"android":"levelo://app?vid=56fddcda-c541-44a5-8391-f7fbf087f4ed","ios":"levelo://app?vid=56fddcda-c541-44a5-8391-f7fbf087f4ed"},"vehicle_type_id":"4","last_reported":1773466656,"current_range_meters":39200,"station_id":"st_d2o4gvlbi1j2169b742g","pricing_plan_id":"cebpf4jnsgd1na2vs0mg"},{"bike_id":"6de2338b-bc98-4ec6-8f36-63911b8deee6","system_id":"levelo_inurba_marseille","lat":43.30155,"lon":5.38094,"is_reserved":false,"is_disabled":false,"rental_uris":{"android":"levelo://app?vid=6de2338b-bc98-4ec6-8f36-63911b8deee6","ios":"levelo://app?vid=6de2338b-bc98-4ec6-8f36-63911b8deee6"},"vehicle_type_id":"4","last_reported":1773466656,"current_range_meters":10000,"station_id":"ce4bgjp2rcd13ifvqbh0","pricing_plan_id":"cebpf4jnsgd1na2vs0mg"},{"bike_id":"04d16ef4-39d1-4e51-b75d-bfa218adb8ad","system_id":"levelo_inurba_marseille","lat":43.30511,"lon":5.36785,"is_reserved":false,"is_disabled":false,"rental_uris":{"android":"levelo://app?vid=04d16ef4-39d1-4e51-b75d-bfa218adb8ad","ios":"levelo://app?vid=04d16ef4-39d1-4e51-b75d-bfa218adb8ad"},"vehicle_type_id":"4","last_reported":1773466656,"current_range_meters":26000,"station_id":"ce4bgrp2rcd13ifvqc9g","pricing_plan_id":"cebpf4jnsgd1na2vs0mg"},{"bike_id":"7b39c3ab-1ec2-4a85-b74e-65bc5157e762","system_id":"levelo_inurba_marseille","lat":43.24368,"lon":5.37074,"is_reserved":false,"is_disabled":false,"rental_uris":{"android":"levelo://app?vid=7b39c3ab-1ec2-4a85-b74e-65bc5157e762","ios":"levelo://app?vid=7b39c3ab-1ec2-4a85-b74e-65bc5157e762"},"vehicle_type_id":"4","last_reported":1773466656,"current_range_meters":27600,"station_id":"ce4bhhh2rcd13ifvqfk0","pricing_plan_id":"cebpf4jnsgd1na2vs0mg"},{"bike_id":"0e78647e-6d33-42c7-a2f0-4bfeca262543","system_id":"levelo_inurba_marseille","lat":43.27893,"lon":5.39584,"is_reserved":false,"is_disabled":false,"rental_uris":{"android":"levelo://app?vid=0e78647e-6d33-42c7-a2f0-4bfeca262543","ios":"levelo://app?vid=0e78647e-6d33-42c7-a2f0-4bfeca262543"},"vehicle_type_id":"4","last_reported":1773466656,"current_range_meters":26800,"station_id":"ce4bhf92rcd13ifvqf40","pricing_plan_id":"cebpf4jnsgd1na2vs0mg"},{"bike_id":"8bea8868-7b3a-44b3-a04d-f8c5896cd9e9","system_id":"levelo_inurba_marseille","lat":43.27984,"lon":5.39603,"is_reserved":false,"is_disabled":false,"rental_uris":{"android":"levelo://app?vid=8bea8868-7b3a-44b3-a04d-f8c5896cd9e9","ios":"levelo://app?vid=8bea8868-7b3a-44b3-a04d-f8c5896cd9e9"},"vehicle_type_id":"4","last_reported":1773466656,"current_range_meters":17200,"station_id":"","pricing_plan_id":"cebpf4jnsgd1na2vs0mg"},{"bike_id":"58415336-807f-4794-b3d0-9aa1b720b2ef","system_id":"levelo_inurba_marseille","lat":43.28955,"lon":5.36391,"is_reserved":false,"is_disabled":false,"rental_uris":{"android":"levelo://app?vid=58415336-807f-4794-b3d0-9aa1b720b2ef","ios":"levelo://app?vid=58415336-807f-4794-b3d0-9aa1b720b2ef"},"vehicle_type_id":"4","last_reported":1773466656,"current_range_meters":8400,"station_id":"ce4bhc92rcd13ifvqetg","pricing_plan_id":"cebpf4jnsgd1na2vs0mg"},{"bike_id":"d213d92d-5289-4183-93be-f84e36b07244","system_id":"levelo_inurba_marseille","lat":43.28972,"lon":5.35598,"is_reserved":false,"is_disabled":true,"rental_uris":{"android":"levelo://app?vid=d213d92d-5289-4183-93be-f84e36b07244","ios":"levelo://app?vid=d213d92d-5289-4183-93be-f84e36b07244"},"vehicle_type_id":"4","last_reported":1773466656,"current_range_meters":28000,"station_id":"ce4bhb92rcd13ifvqen0","pricing_plan_id":"cebpf4jnsgd1na2vs0mg"},{"bike_id":"45178e07-c6f9-4de8-aed6-22bf1ae4e812","system_id":"levelo_inurba_marseille","lat":43.3055,"lon":5.36726,"is_reserved":false,"is_disabled":false,"rental_uris":{"android":"levelo://app?vid=45178e07-c6f9-4de8-aed6-22bf1ae4e812","ios":"levelo://app?vid=45178e07-c6f9-4de8-aed6-22bf1ae4e812"},"vehicle_type_id":"4","last_reported":1773466656,"current_range_meters":39200,"station_id":"ce4bgrp2rcd13ifvqc9g","pricing_plan_id":"cebpf4jnsgd1na2vs0mg"},{"bike_id":"575e4aa6-8368-403a-a3c6-35c0ff2136b3","system_id":"levelo_inurba_marseille","lat":43.2848,"lon":5.38454,"is_reserved":false,"is_disabled":false,"rental_uris":{"android":"levelo://app?vid=575e4aa6-8368-403a-a3c6-35c0ff2136b3","ios":"levelo://app?vid=575e4aa6-8368-403a-a3c6-35c0ff2136b3"},"vehicle_type_id":"4","last_reported":1773466656,"current_range_meters":38000,"station_id":"ce4bh512rcd13ifvqe3g","pricing_plan_id":"cebpf4jnsgd1na2vs0mg"},{"bike_id":"aea6c993-6728-44cf-981b-cb3a9bd01459","system_id":"levelo_inurba_marseille","lat":43.29207,"lon":5.39316,"is_reserved":false,"is_disabled":false,"rental_uris":{"android":"levelo://app?vid=aea6c993-6728-44cf-981b-cb3a9bd01459","ios":"levelo://app?vid=aea6c993-6728-44cf-981b-cb3a9bd01459"},"vehicle_type_id":"4","last_reported":1773466656,"current_range_meters":37600,"station_id":"ce4bh192rcd13ifvqdd0","pricing_plan_id":"cebpf4jnsgd1na2vs0mg"},{"bike_id":"1072a2a8-0c4d-4e1d-a618-9cb5fde068bb","system_id":"levelo_inurba_marseille","lat":43.24395,"lon":5.37058,"is_reserved":false,"is_disabled":false,"rental_uris":{"android":"levelo://app?vid=1072a2a8-0c4d-4e1d-a618-9cb5fde068bb","ios":"levelo://app?vid=1072a2a8-0c4d-4e1d-a618-9cb5fde068bb"},"vehicle_type_id":"4","last_reported":1773466656,"current_range_meters":38800,"station_id":"ce4bhhh2rcd13ifvqfk0","pricing_plan_id":"cebpf4jnsgd1na2vs0mg"},{"bike_id":"9a127c17-ae93-453c-9375-8a63f3a2c95d","system_id":"levelo_inurba_marseille","lat":43.29556,"lon":5.39989,"is_reserved":false,"is_disabled":false,"rental_uris":{"android":"levelo://app?vid=9a127c17-ae93-453c-9375-8a63f3a2c95d","ios":"levelo://app?vid=9a127c17-ae93-453c-9375-8a63f3a2c95d"},"vehicle_type_id":"4","last_reported":1773466656,"current_range_meters":39200,"station_id":"ce4bh312rcd13ifvqdj0","pricing_plan_id":"cebpf4jnsgd1na2vs0mg"},{"bike_id":"ac325101-b5a7-4f5d-9bc7-aba501847b2e","system_id":"levelo_inurba_marseille","lat":43.2735,"lon":5.36269,"is_reserved":false,"is_disabled":true,"rental_uris":{"android":"levelo://app?vid=ac325101-b5a7-4f5d-9bc7-aba501847b2e","ios":"levelo://app?vid=ac325101-b5a7-4f5d-9bc7-aba501847b2e"},"vehicle_type_id":"4","last_reported":1773466656,"current_range_meters":39200,"station_id":"ce4bhbh2rcd13ifvqeo0","pricing_plan_id":"cebpf4jnsgd1na2vs0mg"},{"bike_id":"1026a843-5ad2-4108-8ed8-7e0baa3350eb","system_id":"levelo_inurba_marseille","lat":43.30256,"lon":5.40043,"is_reserved":false,"is_disabled":false,"rental_uris":{"android":"levelo://app?vid=1026a843-5ad2-4108-8ed8-7e0baa3350eb","ios":"levelo://app?vid=1026a843-5ad2-4108-8ed8-7e0baa3350eb"},"vehicle_type_id":"4","last_reported":1773466656,"current_range_meters":9600,"station_id":"ce4bgvh2rcd13ifvqcs0","pricing_plan_id":"cebpf4jnsgd1na2vs0mg"},{"bike_id":"a3cf30b9-f902-4c99-929e-f6f1f129977a","system_id":"levelo_inurba_marseille","lat":43.31119,"lon":5.37758,"is_reserved":false,"is_disabled":false,"rental_uris":{"android":"levelo://app?vid=a3cf30b9-f902-4c99-929e-f6f1f129977a","ios":"levelo://app?vid=a3cf30b9-f902-4c99-929e-f6f1f129977a"},"vehicle_type_id":"4","last_reported":1773466656,"current_range_meters":32400,"station_id":"ce4bgt92rcd13ifvqcg0","pricing_plan_id":"cebpf4jnsgd1na2vs0mg"},{"bike_id":"6840f6df-3461-42c8-98d7-357f6584e26f","system_id":"levelo_inurba_marseille","lat":43.27376,"lon":5.36256,"is_reserved":false,"is_disabled":false,"rental_uris":{"android":"levelo://app?vid=6840f6df-3461-42c8-98d7-357f6584e26f","ios":"levelo://app?vid=6840f6df-3461-42c8-98d7-357f6584e26f"},"vehicle_type_id":"4","last_reported":1773466656,"current_range_meters":36800,"station_id":"ce4bhbh2rcd13ifvqeo0","pricing_plan_id":"cebpf4jnsgd1na2vs0mg"},{"bike_id":"59296b60-8738-43eb-86a2-6cb0e148b1cc","system_id":"levelo_inurba_marseille","lat":43.29774,"lon":5.38122,"is_reserved":false,"is_disabled":false,"rental_uris":{"android":"levelo://app?vid=59296b60-8738-43eb-86a2-6cb0e148b1cc","ios":"levelo://app?vid=59296b60-8738-43eb-86a2-6cb0e148b1cc"},"vehicle_type_id":"4","last_reported":1773466656,"current_range_meters":39200,"station_id":"ce4bgip2rcd13ifvqbb0","pricing_plan_id":"cebpf4jnsgd1na2vs0mg"},{"bike_id":"13b759af-9f39-4385-b233-8157f102d0b7","system_id":"levelo_inurba_marseille","lat":43.23965,"lon":5.36615,"is_reserved":false,"is_disabled":false,"rental_uris":{"android":"levelo://app?vid=13b759af-9f39-4385-b233-8157f102d0b7","ios":"levelo://app?vid=13b759af-9f39-4385-b233-8157f102d0b7"},"vehicle_type_id":"4","last_reported":1773466656,"current_range_meters":6400,"station_id":"ce4bhi12rcd13ifvqfp0","pricing_plan_id":"cebpf4jnsgd1na2vs0mg"},{"bike_id":"8d26108e-d04b-409c-b92d-95d05d743e03","system_id":"levelo_inurba_marseille","lat":43.29896,"lon":5.38121,"is_reserved":false,"is_disabled":false,"rental_uris":{"android":"levelo://app?vid=8d26108e-d04b-409c-b92d-95d05d743e03","ios":"levelo://app?vid=8d26108e-d04b-409c-b92d-95d05d743e03"},"vehicle_type_id":"4","last_reported":1773466656,"current_range_meters":34800,"station_id":"ce4bgj12rcd13ifvqbc0","pricing_plan_id":"cebpf4jnsgd1na2vs0mg"},{"bike_id":"252a5d80-6607-454c-ba50-bf5f3c088b90","system_id":"levelo_inurba_marseille","lat":43.30905,"lon":5.39502,"is_reserved":false,"is_disabled":false,"rental_uris":{"android":"levelo://app?vid=252a5d80-6607-454c-ba50-bf5f3c088b90","ios":"levelo://app?vid=252a5d80-6607-454c-ba50-bf5f3c088b90"},"vehicle_type_id":"4","last_reported":1773466656,"current_range_meters":39200,"station_id":"ce4bh012rcd13ifvqcv0","pricing_plan_id":"cebpf4jnsgd1na2vs0mg"},{"bike_id":"93c8107a-44d9-4b92-a485-08cbd24bb80c","system_id":"levelo_inurba_marseille","lat":43.28632,"lon":5.35116,"is_reserved":false,"is_disabled":false,"rental_uris":{"android":"levelo://app?vid=93c8107a-44d9-4b92-a485-08cbd24bb80c","ios":"levelo://app?vid=93c8107a-44d9-4b92-a485-08cbd24bb80c"},"vehicle_type_id":"4","last_reported":1773466656,"current_range_meters":16400,"station_id":"ce4bhch2rcd13ifvqeug","pricing_plan_id":"cebpf4jnsgd1na2vs0mg"},{"bike_id":"4605d0eb-aef4-494c-b103-fe3cbd9a939f","system_id":"levelo_inurba_marseille","lat":43.26069,"lon":5.39401,"is_reserved":false,"is_disabled":false,"rental_uris":{"android":"levelo://app?vid=4605d0eb-aef4-494c-b103-fe3cbd9a939f","ios":"levelo://app?vid=4605d0eb-aef4-494c-b103-fe3cbd9a939f"},"vehicle_type_id":"4","last_reported":1773466656,"current_range_meters":20800,"station_id":"ce4bhh92rcd13ifvqfj0","pricing_plan_id":"cebpf4jnsgd1na2vs0mg"},{"bike_id":"e2ff8fbe-6ee0-4693-94cc-f4a9ec9cf6bf","system_id":"levelo_inurba_marseille","lat":43.31261,"lon":5.40153,"is_reserved":false,"is_disabled":false,"rental_uris":{"android":"levelo://app?vid=e2ff8fbe-6ee0-4693-94cc-f4a9ec9cf6bf","ios":"levelo://app?vid=e2ff8fbe-6ee0-4693-94cc-f4a9ec9cf6bf"},"vehicle_type_id":"4","last_reported":1773466656,"current_range_meters":12800,"station_id":"ce4bh092rcd13ifvqd30","pricing_plan_id":"cebpf4jnsgd1na2vs0mg"},{"bike_id":"c4bc4c4b-1b65-4f1c-9292-7dbc626f973c","system_id":"levelo_inurba_marseille","lat":43.33779,"lon":5.37461,"is_reserved":false,"is_disabled":false,"rental_uris":{"android":"levelo://app?vid=c4bc4c4b-1b65-4f1c-9292-7dbc626f973c","ios":"levelo://app?vid=c4bc4c4b-1b65-4f1c-9292-7dbc626f973c"},"vehicle_type_id":"4","last_reported":1773466656,"current_range_meters":35600,"station_id":"","pricing_plan_id":"cebpf4jnsgd1na2vs0mg"},{"bike_id":"a4e1eda7-e339-4e89-aeab-5ba3de0c460b","system_id":"levelo_inurba_marseille","lat":43.28325,"lon":5.38114,"is_reserved":false,"is_disabled":true,"rental_uris":{"android":"levelo://app?vid=a4e1eda7-e339-4e89-aeab-5ba3de0c460b","ios":"levelo://app?vid=a4e1eda7-e339-4e89-aeab-5ba3de0c460b"},"vehicle_type_id":"4","last_reported":1773466656,"current_range_meters":36400,"station_id":"ce4bh412rcd13ifvqdr0","pricing_plan_id":"cebpf4jnsgd1na2vs0mg"},{"bike_id":"36d46123-1b41-417b-9791-17a81620f364","system_id":"levelo_inurba_marseille","lat":43.3236,"lon":5.36776,"is_reserved":false,"is_disabled":false,"rental_uris":{"android":"levelo://app?vid=36d46123-1b41-417b-9791-17a81620f364","ios":"levelo://app?vid=36d46123-1b41-417b-9791-17a81620f364"},"vehicle_type_id":"4","last_reported":1773466656,"current_range_meters":38400,"station_id":"ce4bhsh2rcd13ifvqi2g","pricing_plan_id":"cebpf4jnsgd1na2vs0mg"},{"bike_id":"9b7bd50e-d313-4414-a4e9-8f8061b541b4","system_id":"levelo_inurba_marseille","lat":43.28619,"lon":5.35094,"is_reserved":false,"is_disabled":false,"rental_uris":{"android":"levelo://app?vid=9b7bd50e-d313-4414-a4e9-8f8061b541b4","ios":"levelo://app?vid=9b7bd50e-d313-4414-a4e9-8f8061b541b4"},"vehicle_type_id":"4","last_reported":1773466656,"current_range_meters":8400,"station_id":"ce4bhch2rcd13ifvqeug","pricing_plan_id":"cebpf4jnsgd1na2vs0mg"},{"bike_id":"e26332e9-8cf4-4785-89ef-6d1504ad7385","system_id":"levelo_inurba_marseille","lat":43.28258,"lon":5.35078,"is_reserved":false,"is_disabled":false,"rental_uris":{"android":"levelo://app?vid=e26332e9-8cf4-4785-89ef-6d1504ad7385","ios":"levelo://app?vid=e26332e9-8cf4-4785-89ef-6d1504ad7385"},"vehicle_type_id":"4","last_reported":1773466656,"current_range_meters":19200,"station_id":"ce4bhbp2rcd13ifvqerg","pricing_plan_id":"cebpf4jnsgd1na2vs0mg"},{"bike_id":"da7f86cf-e44a-4069-ac5a-c0af0d80fd2c","system_id":"levelo_inurba_marseille","lat":43.24784,"lon":5.37474,"is_reserved":false,"is_disabled":true,"rental_uris":{"android":"levelo://app?vid=da7f86cf-e44a-4069-ac5a-c0af0d80fd2c","ios":"levelo://app?vid=da7f86cf-e44a-4069-ac5a-c0af0d80fd2c"},"vehicle_type_id":"4","last_reported":1773466656,"current_range_meters":36400,"station_id":"ce4bhgh2rcd13ifvqfb0","pricing_plan_id":"cebpf4jnsgd1na2vs0mg"},