{"last_updated":1752678759,"ttl":60,"version":"2.2","data":{"bikes":[{"bike_id":"53b742a7-31ae-4272-9bba-7740339e2a2f","system_id":"levelo_inurba_marseille","lat":43.33747,"lon":5.37463,"is_reserved":false,"is_disabled":false,"rental_uris":{"android":"levelo://app?vid=53b742a7-31ae-4272-9bba-7740339e2a2f","ios":"levelo://app?vid=53b742a7-31ae-4272-9bba-7740339e2a2f"},"vehicle_type_id":"1","last_reported":1752678759,"current_range_meters":28400,"station_id":"","pricing_plan_id":"cebpf4jnsgd1na2vs0mg"},{"bike_id":"eba3effc-a8e2-461c-9d49-56ba44ef5783","system_id":"levelo_inurba_marseille","lat":43.306613,"lon":5.401209,"is_reserved":false,"is_disabled":false,"rental_uris":{"android":"levelo://app?vid=eba3effc-a8e2-461c-9d49-56ba44ef5783","ios":"levelo://app?vid=eba3effc-a8e2-461c-9d49-56ba44ef5783"},"vehicle_type_id":"4","last_reported":1752678759,"current_range_meters":2800,"station_id":"ce4bh112rcd13ifvqda0","pricing_plan_id":"cebpf4jnsgd1na2vs0mg"},{"bike_id":"17376371-1ed1-426f-b358-0286fd1c0b95","system_id":"levelo_inurba_marseille","lat":43.25581,"lon":5.38233,"is_reserved":false,"is_disabled":false,"rental_uris":{"android":"levelo://app?vid=17376371-1ed1-426f-b358-0286fd1c0b95","ios":"levelo://app?vid=17376371-1ed1-426f-b358-0286fd1c0b95"},"vehicle_type_id":"4","last_reported":1752678759,"current_range_meters":2000,"station_id":"ce4bhih2rcd13ifvqfs0","pricing_plan_id":"cebpf4jnsgd1na2vs0mg"},{"bike_id":"2ecc4f9e-2b47-47d9-8313-518cca8a5cd3","system_id":"levelo_inurba_marseille","lat":43.267449,"lon":5.397966,"is_reserved":false,"is_disabled":false,"rental_uris":{"android":"levelo://app?vid=2ecc4f9e-2b47-47d9-8313-518cca8a5cd3","ios":"levelo://app?vid=2ecc4f9e-2b47-47d9-8313-518cca8a5cd3"},"vehicle_type_id":"4","last_reported":1752678759,"current_range_meters":2800,"station_id":"","pricing_plan_id":"cebpf4jnsgd1na2vs0mg"},{"bike_id":"0517f226-9c35-473e-b2c6-52179b326362","system_id":"levelo_inurba_marseille","lat":43.282639,"lon":5.350543,"is_reserved":false,"is_disabled":false,"rental_uris":{"android":"levelo://app?vid=0517f226-9c35-473e-b2c6-52179b326362","ios":"levelo://app?vid=0517f226-9c35-473e-b2c6-52179b326362"},"vehicle_type_id":"4","last_reported":1752678759,"current_range_meters":3200,"station_id":"","pricing_plan_id":"cebpf4jnsgd1na2vs0mg"},{"bike_id":"6368de16-d144-4f73-833e-ca19d2aeee12","system_id":"levelo_inurba_marseille","lat":43.22531,"lon":5.34767,"is_reserved":false,"is_disabled":false,"rental_uris":{"android":"levelo://app?vid=6368de16-d144-4f73-833e-ca19d2aeee12","ios":"levelo://app?vid=6368de16-d144-4f73-833e-ca19d2aeee12"},"vehicle_type_id":"4","last_reported":1752678759,"current_range_meters":3600,"station_id":"st_cvj5dfep6f1abm77gieg","pricing_plan_id":"cebpf4jnsgd1na2vs0mg"},{"bike_id":"17c934c0-f0d3-4eb2-aeff-ba8dd88e16b8","system_id":"levelo_inurba_marseille","lat":43.292534,"lon":5.376396,"is_reserved":false,"is_disabled":false,"rental_uris":{"android":"levelo://app?vid=17c934c0-f0d3-4eb2-aeff-ba8dd88e16b8","ios":"levelo://app?vid=17c934c0-f0d3-4eb2-aeff-ba8dd88e16b8"},"vehicle_type_id":"4","last_reported":1752678759,"current_range_meters":4000,"station_id":"","pricing_plan_id":"cebpf4jnsgd1na2vs0mg"},{"bike_id":"7f0b4682-9afa-431e-ae00-979497abbbb6","system_id":"levelo_inurba_marseille","lat":43.29171,"lon":5.37155,"is_reserved":false,"is_disabled":false,"rental_uris":{"android":"levelo://app?vid=7f0b4682-9afa-431e-ae00-979497abbbb6","ios":"levelo://app?vid=7f0b4682-9afa-431e-ae00-979497abbbb6"},"vehicle_type_id":"4","last_reported":1752678759,"current_range_meters":4400,"station_id":"ce4bha92rcd13ifvqeh0","pricing_plan_id":"cebpf4jnsgd1na2vs0mg"},{"bike_id":"72bf19b6-5d58-42ae-8210-09d1221fa8c4","system_id":"levelo_inurba_marseille","lat":43.25581,"lon":5.38229,"is_reserved":false,"is_disabled":false,"rental_uris":{"android":"levelo://app?vid=72bf19b6-5d58-42ae-8210-09d1221fa8c4","ios":"levelo://app?vid=72bf19b6-5d58-42ae-8210-09d1221fa8c4"},"vehicle_type_id":"4","last_reported":1752678759,"current_range_meters":5600,"station_id":"ce4bhih2rcd13ifvqfs0","pricing_plan_id":"cebpf4jnsgd1na2vs0mg"},{"bike_id":"10081d85-8455-427b-bf07-766eb62ca60b","system_id":"levelo_inurba_marseille","lat":43.25584,"lon":5.3823,"is_reserved":false,"is_disabled":false,"rental_uris":{"android":"levelo://app?vid=10081d85-8455-427b-bf07-766eb62ca60b","ios":"levelo://app?vid=10081d85-8455-427b-bf07-766eb62ca60b"},"vehicle_type_id":"4","last_reported":1752678759,"current_range_meters":5600,"station_id":"ce4bhih2rcd13ifvqfs0","pricing_plan_id":"cebpf4jnsgd1na2vs0mg"},{"bike_id":"4d27893e-043c-49c8-9a25-8e74e82652fb","system_id":"levelo_inurba_marseille","lat":43.26559,"lon":5.37286,"is_reserved":false,"is_disabled":false,"rental_uris":{"android":"levelo://app?vid=4d27893e-043c-49c8-9a25-8e74e82652fb","ios":"levelo://app?vid=4d27893e-043c-49c8-9a25-8e74e82652fb"},"vehicle_type_id":"4","last_reported":1752678759,"current_range_meters":5600,"station_id":"ce4bhg12rcd13ifvqf70","pricing_plan_id":"cebpf4jnsgd1na2vs0mg"},{"bike_id":"0bb797ad-c3f1-440d-91e2-04666b453b51","system_id":"levelo_inurba_marseille","lat":43.33614,"lon":5.41025,"is_reserved":false,"is_disabled":false,"rental_uris":{"android":"levelo://app?vid=0bb797ad-c3f1-440d-91e2-04666b453b51","ios":"levelo://app?vid=0bb797ad-c3f1-440d-91e2-04666b453b51"},"vehicle_type_id":"4","last_reported":1752678759,"current_range_meters":5600,"station_id":"ce4bhqh2rcd13ifvqhmg","pricing_plan_id":"cebpf4jnsgd1na2vs0mg"},{"bike_id":"c5ce68bd-bdf4-429b-b7bd-34a07452e5e4","system_id":"levelo_inurba_marseille","lat":43.26059,"lon":5.39387,"is_reserved":false,"is_disabled":false,"rental_uris":{"android":"levelo://app?vid=c5ce68bd-bdf4-429b-b7bd-34a07452e5e4","ios":"levelo://app?vid=c5ce68bd-bdf4-429b-b7bd-34a07452e5e4"},"vehicle_type_id":"4","last_reported":1752678759,"current_range_meters":6400,"station_id":"ce4bhh92rcd13ifvqfj0","pricing_plan_id":"cebpf4jnsgd1na2vs0mg"},{"bike_id":"5d8c54b6-f935-4965-a2f7-8c1767a0c171","system_id":"levelo_inurba_marseille","lat":43.29419,"lon":5.38599,"is_reserved":false,"is_disabled":true,"rental_uris":{"android":"levelo://app?vid=5d8c54b6-f935-4965-a2f7-8c1767a0c171","ios":"levelo://app?vid=5d8c54b6-f935-4965-a2f7-8c1767a0c171"},"vehicle_type_id":"4","last_reported":1752678759,"current_range_meters":6400,"station_id":"ce4bh2h2rcd13ifvqdh0","pricing_plan_id":"cebpf4jnsgd1na2vs0mg"},{"bike_id":"1e602be5-f3e5-4264-a11f-69e58e054dfc","system_id":"levelo_inurba_marseille","lat":43.27378,"lon":5.36251,"is_reserved":false,"is_disabled":false,"rental_uris":{"android":"levelo://app?vid=1e602be5-f3e5-4264-a11f-69e58e054dfc","ios":"levelo://app?vid=1e602be5-f3e5-4264-a11f-69e58e054dfc"},"vehicle_type_id":"4","last_reported":1752678759,"current_range_meters":6400,"station_id":"ce4bhbh2rcd13ifvqeo0","pricing_plan_id":"cebpf4jnsgd1na2vs0mg"},{"bike_id":"e2f2f893-16c7-42e5-8c51-893940a1136e","system_id":"levelo_inurba_marseille","lat":43.30136,"lon":5.36853,"is_reserved":false,"is_disabled":false,"rental_uris":{"android":"levelo://app?vid=e2f2f893-16c7-42e5-8c51-893940a1136e","ios":"levelo://app?vid=e2f2f893-16c7-42e5-8c51-893940a1136e"},"vehicle_type_id":"4","last_reported":1752678759,"current_range_meters":6800,"station_id":"","pricing_plan_id":"cebpf4jnsgd1na2vs0mg"},{"bike_id":"892165f6-25a5-4f0a-a9a6-cf4efe50c3be","system_id":"levelo_inurba_marseille","lat":43.24853,"lon":5.42527,"is_reserved":false,"is_disabled":false,"rental_uris":{"android":"levelo://app?vid=892165f6-25a5-4f0a-a9a6-cf4efe50c3be","ios":"levelo://app?vid=892165f6-25a5-4f0a-a9a6-cf4efe50c3be"},"vehicle_type_id":"4","last_reported":1752678759,"current_range_meters":6800,"station_id":"","pricing_plan_id":"cebpf4jnsgd1na2vs0mg"},{"bike_id":"5ff06d2e-1fcb-4f7f-b26f-494ef01051e2","system_id":"levelo_inurba_marseille","lat":43.26587,"lon":5.39483,"is_reserved":false,"is_disabled":true,"rental_uris":{"android":"levelo://app?vid=5ff06d2e-1fcb-4f7f-b26f-494ef01051e2","ios":"levelo://app?vid=5ff06d2e-1fcb-4f7f-b26f-494ef01051e2"},"vehicle_type_id":"4","last_reported":1752678759,"current_range_meters":6800,"station_id":"","pricing_plan_id":"cebpf4jnsgd1na2vs0mg"},{"bike_id":"5c45cf5e-22b0-4bf5-83b5-366fccb7856f","system_id":"levelo_inurba_marseille","lat":43.29603,"lon":5.36739,"is_reserved":false,"is_disabled":false,"rental_uris":{"android":"levelo://app?vid=5c45cf5e-22b0-4bf5-83b5-366fccb7856f","ios":"levelo://app?vid=5c45cf5e-22b0-4bf5-83b5-366fccb7856f"},"vehicle_type_id":"4","last_reported":1752678759,"current_range_meters":7200,"station_id":"ce4bgph2rcd13ifvqc2g","pricing_plan_id":"cebpf4jnsgd1na2vs0mg"},{"bike_id":"e53b3c0b-8c33-4d47-ba77-d3ac85394bb3","system_id":"levelo_inurba_marseille","lat":43.23171,"lon":5.43675,"is_reserved":false,"is_disabled":false,"rental_uris":{"android":"levelo://app?vid=e53b3c0b-8c33-4d47-ba77-d3ac85394bb3","ios":"levelo://app?vid=e53b3c0b-8c33-4d47-ba77-d3ac85394bb3"},"vehicle_type_id":"4","last_reported":1752678759,"current_range_meters":8000,"station_id":"ce4bhmp2rcd13ifvqgog","pricing_plan_id":"cebpf4jnsgd1na2vs0mg"},{"bike_id":"0f15411b-18d0-44ad-948c-27470bbd79c8","system_id":"levelo_inurba_marseille","lat":43.26194,"lon":5.37451,"is_reserved":false,"is_disabled":false,"rental_uris":{"android":"levelo://app?vid=0f15411b-18d0-44ad-948c-27470bbd79c8","ios":"levelo://app?vid=0f15411b-18d0-44ad-948c-27470bbd79c8"},"vehicle_type_id":"4","last_reported":1752678759,"current_range_meters":8000,"station_id":"ce4bhgp2rcd13ifvqfc0","pricing_plan_id":"cebpf4jnsgd1na2vs0mg"},{"bike_id":"e5ec4b25-dbcc-42eb-bf86-2cca309a0b15","system_id":"levelo_inurba_marseille","lat":43.264945,"lon":5.395365,"is_reserved":false,"is_disabled":true,"rental_uris":{"android":"levelo://app?vid=e5ec4b25-dbcc-42eb-bf86-2cca309a0b15","ios":"levelo://app?vid=e5ec4b25-dbcc-42eb-bf86-2cca309a0b15"},"vehicle_type_id":"4","last_reported":1752678759,"current_range_meters":8000,"station_id":"","pricing_plan_id":"cebpf4jnsgd1na2vs0mg"},{"bike_id":"beeaf3e7-7062-4d97-ae3e-34875b41ba95","system_id":"levelo_inurba_marseille","lat":43.29307,"lon":5.37166,"is_reserved":false,"is_disabled":false,"rental_uris":{"android":"levelo://app?vid=beeaf3e7-7062-4d97-ae3e-34875b41ba95","ios":"levelo://app?vid=beeaf3e7-7062-4d97-ae3e-34875b41ba95"},"vehicle_type_id":"4","last_reported":1752678759,"current_range_meters":8400,"station_id":"ce4bgh92rcd13ifvqb40","pricing_plan_id":"cebpf4jnsgd1na2vs0mg"},{"bike_id":"a91aae7a-761a-4da1-8c9b-23d2d98253e0","system_id":"levelo_inurba_marseille","lat":43.23196,"lon":5.35546,"is_reserved":false,"is_disabled":false,"rental_uris":{"android":"levelo://app?vid=a91aae7a-761a-4da1-8c9b-23d2d98253e0","ios":"levelo://app?vid=a91aae7a-761a-4da1-8c9b-23d2d98253e0"},"vehicle_type_id":"4","last_reported":1752678759,"current_range_meters":8400,"station_id":"ce4bhu92rcd13ifvqi70","pricing_plan_id":"cebpf4jnsgd1na2vs0mg"},{"bike_id":"54aebb3c-2289-4534-9343-dfce55fb9974","system_id":"levelo_inurba_marseille","lat":43.30439,"lon":5.38877,"is_reserved":false,"is_disabled":false,"rental_uris":{"android":"levelo://app?vid=54aebb3c-2289-4534-9343-dfce55fb9974","ios":"levelo://app?vid=54aebb3c-2289-4534-9343-dfce55fb9974"},"vehicle_type_id":"4","last_reported":1752678759,"current_range_meters":8400,"station_id":"ce4bgk12rcd13ifvqbi0","pricing_plan_id":"cebpf4jnsgd1na2vs0mg"},{"bike_id":"2678bdf0-e0df-4b22-ba66-d8b80825463e","system_id":"levelo_inurba_marseille","lat":43.24167,"lon":5.36401,"is_reserved":false,"is_disabled":false,"rental_uris":{"android":"levelo://app?vid=2678bdf0-e0df-4b22-ba66-d8b80825463e","ios":"levelo://app?vid=2678bdf0-e0df-4b22-ba66-d8b80825463e"},"vehicle_type_id":"4","last_reported":1752678759,"current_range_meters":8400,"station_id":"cpo36qri1sfpv3e86is0","pricing_plan_id":"cebpf4jnsgd1na2vs0mg"},{"bike_id":"a8ce6efe-50ae-4699-a953-570b09452efb","system_id":"levelo_inurba_marseille","lat":43.250097,"lon":5.389147,"is_reserved":false,"is_disabled":true,"rental_uris":{"android":"levelo://app?vid=a8ce6efe-50ae-4699-a953-570b09452efb","ios":"levelo://app?vid=a8ce6efe-50ae-4699-a953-570b09452efb"},"vehicle_type_id":"4","last_reported":1752678759,"current_range_meters":8400,"station_id":"ce4bhgp2rcd13ifvqfd0","pricing_plan_id":"cebpf4jnsgd1na2vs0mg"},{"bike_id":"23d33fdc-72b9-42bb-ab30-2a32618d91e1","system_id":"levelo_inurba_marseille","lat":43.27999,"lon":5.41661,"is_reserved":false,"is_disabled":false,"rental_uris":{"android":"levelo://app?vid=23d33fdc-72b9-42bb-ab30-2a32618d91e1","ios":"levelo://app?vid=23d33fdc-72b9-42bb-ab30-2a32618d91e1"},"vehicle_type_id":"4","last_reported":1752678759,"current_range_meters":8800,"station_id":"ce4bho12rcd13ifvqh1g","pricing_plan_id":"cebpf4jnsgd1na2vs0mg"},{"bike_id":"080b0f22-14dd-4044-a18f-ee7f74366cea","system_id":"levelo_inurba_marseille","lat":43.31996,"lon":5.38144,"is_reserved":false,"is_disabled":true,"rental_uris":{"android":"levelo://app?vid=080b0f22-14dd-4044-a18f-ee7f74366cea","ios":"levelo://app?vid=080b0f22-14dd-4044-a18f-ee7f74366cea"},"vehicle_type_id":"4","last_reported":1752678759,"current_range_meters":8800,"station_id":"ce4bhr12rcd13ifvqhpg","pricing_plan_id":"cebpf4jnsgd1na2vs0mg"},{"bike_id":"e6104bf4-d301-4b5c-bc81-2cd757eed2da","system_id":"levelo_inurba_marseille","lat":43.230856,"lon":5.35487,"is_reserved":false,"is_disabled":false,"rental_uris":{"android":"levelo://app?vid=e6104bf4-d301-4b5c-bc81-2cd757eed2da","ios":"levelo://app?vid=e6104bf4-d301-4b5c-bc81-2cd757eed2da"},"vehicle_type_id":"4","last_reported":1752678759,"current_range_meters":8800,"station_id":"ce4bhu92rcd13ifvqi70","pricing_plan_id":"cebpf4jnsgd1na2vs0mg"},{"bike_id":"f3be0cb3-d133-4851-a1f0-a04efb585ab7","system_id":"levelo_inurba_marseille","lat":43.31251,"lon":5.36852,"is_reserved":false,"is_disabled":false,"rental_uris":{"android":"levelo://app?vid=f3be0cb3-d133-4851-a1f0-a04efb585ab7","ios":"levelo://app?vid=f3be0cb3-d133-4851-a1f0-a04efb585ab7"},"vehicle_type_id":"4","last_reported":1752678759,"current_range_meters":9200,"station_id":"ce4bgl92rcd13ifvqbq0","pricing_plan_id":"cebpf4jnsgd1na2vs0mg"},{"bike_id":"38193aff-d8cf-464e-98b9-b38895efd882","system_id":"levelo_inurba_marseille","lat":43.21761,"lon":5.34615,"is_reserved":false,"is_disabled":false,"rental_uris":{"android":"levelo://app?vid=38193aff-d8cf-464e-98b9-b38895efd882","ios":"levelo://app?vid=38193aff-d8cf-464e-98b9-b38895efd882"},"vehicle_type_id":"4","last_reported":1752678759,"current_range_meters":9200,"station_id":"","pricing_plan_id":"cebpf4jnsgd1na2vs0mg"},{"bike_id":"51396765-9ad0-4d1d-a813-68fff86b2907","system_id":"levelo_inurba_marseille","lat":43.30466,"lon":5.36678,"is_reserved":false,"is_disabled":false,"rental_uris":{"android":"levelo://app?vid=51396765-9ad0-4d1d-a813-68fff86b2907","ios":"levelo://app?vid=51396765-9ad0-4d1d-a813-68fff86b2907"},"vehicle_type_id":"4","last_reported":1752678759,"current_range_meters":9200,"station_id":"","pricing_plan_id":"cebpf4jnsgd1na2vs0mg"},{"bike_id":"bb18b0d3-0d57-4697-92a3-de7a2acdf30b","system_id":"levelo_inurba_marseille","lat":43.29964,"lon":5.38498,"is_reserved":false,"is_disabled":false,"rental_uris":{"android":"levelo://app?vid=bb18b0d3-0d57-4697-92a3-de7a2acdf30b","ios":"levelo://app?vid=bb18b0d3-0d57-4697-92a3-de7a2acdf30b"},"vehicle_type_id":"4","last_reported":1752678759,"current_range_meters":9200,"station_id":"ce4bgj92rcd13ifvqbd0","pricing_plan_id":"cebpf4jnsgd1na2vs0mg"},{"bike_id":"63352cbb-ab13-4643-be00-5fc26cb4d2c3","system_id":"levelo_inurba_marseille","lat":43.22937,"lon":5.35373,"is_reserved":false,"is_disabled":true,"rental_uris":{"android":"levelo://app?vid=63352cbb-ab13-4643-be00-5fc26cb4d2c3","ios":"levelo://app?vid=63352cbb-ab13-4643-be00-5fc26cb4d2c3"},"vehicle_type_id":"4","last_reported":1752678759,"current_range_meters":9200,"station_id":"cpo3532slgdg3j2ikp40","pricing_plan_id":"cebpf4jnsgd1na2vs0mg"},{"bike_id":"d98ef30e-38a0-41ef-a00a-304afa979a1e","system_id":"levelo_inurba_marseille","lat":43.298943,"lon":5.436629,"is_reserved":false,"is_disabled":true,"rental_uris":{"android":"levelo://app?vid=d98ef30e-38a0-41ef-a00a-304afa979a1e","ios":"levelo://app?vid=d98ef30e-38a0-41ef-a00a-304afa979a1e"},"vehicle_type_id":"4","last_reported":1752678759,"current_range_meters":9600,"station_id":"ce4bhpp2rcd13ifvqhfg","pricing_plan_id":"cebpf4jnsgd1na2vs0mg"},{"bike_id":"207b7a8a-0a64-456e-be5e-f3f1d764a0f7","system_id":"levelo_inurba_marseille","lat":43.2827,"lon":5.35062,"is_reserved":false,"is_disabled":false,"rental_uris":{"android":"levelo://app?vid=207b7a8a-0a64-456e-be5e-f3f1d764a0f7","ios":"levelo://app?vid=207b7a8a-0a64-456e-be5e-f3f1d764a0f7"},"vehicle_type_id":"4","last_reported":1752678759,"current_range_meters":9600,"station_id":"ce4bhbp2rcd13ifvqerg","pricing_plan_id":"cebpf4jnsgd1na2vs0mg"},{"bike_id":"63655c90-9841-4101-a75f-597a6830a90e","system_id":"levelo_inurba_marseille","lat":43.29178,"lon":5.37147,"is_reserved":false,"is_disabled":false,"rental_uris":{"android":"levelo://app?vid=63655c90-9841-4101-a75f-597a6830a90e","ios":"levelo://app?vid=63655c90-9841-4101-a75f-597a6830a90e"},"vehicle_type_id":"4","last_reported":1752678759,"current_range_meters":9200,"station_id":"ce4bha92rcd13ifvqeh0","pricing_plan_id":"cebpf4jnsgd1na2vs0mg"},{"bike_id":"dcced21d-6d80-4713-9923-459fb5eb160b","system_id":"levelo_inurba_marseille","lat":43.26543,"lon":5.39018,"is_reserved":false,"is_disabled":false,"rental_uris":{"android":"levelo://app?vid=dcced21d-6d80-4713-9923-459fb5eb160b","ios":"levelo://app?vid=dcced21d-6d80-4713-9923-459fb5eb160b"},"vehicle_type_id":"4","last_reported":1752678759,"current_range_meters":9600,"station_id":"ce4bhe12rcd13ifvqf30","pricing_plan_id":"cebpf4jnsgd1na2vs0mg"},{"bike_id":"a55f0e7f-659e-42be-9e8c-e2b49264ed5f","system_id":"levelo_inurba_marseille","lat":43.24805,"lon":5.37451,"is_reserved":false,"is_disabled":false,"rental_uris":{"android":"levelo://app?vid=a55f0e7f-659e-42be-9e8c-e2b49264ed5f","ios":"levelo://app?vid=a55f0e7f-659e-42be-9e8c-e2b49264ed5f"},"vehicle_type_id":"4","last_reported":1752678759,"current_range_meters":9600,"station_id":"ce4bhgh2rcd13ifvqfb0","pricing_plan_id":"cebpf4jnsgd1na2vs0mg"},{"bike_id":"0e698d92-c43c-4260-a8f3-00b1515735b6","system_id":"levelo_inurba_marseille","lat":43.28617,"lon":5.35105,"is_reserved":false,"is_disabled":false,"rental_uris":{"android":"levelo://app?vid=0e698d92-c43c-4260-a8f3-00b1515735b6","ios":"levelo://app?vid=0e698d92-c43c-4260-a8f3-00b1515735b6"},"vehicle_type_id":"4","last_reported":1752678759,"current_range_meters":9600,"station_id":"ce4bhch2rcd13ifvqeug","pricing_plan_id":"cebpf4jnsgd1na2vs0mg"},{"bike_id":"fd98485d-d049-4777-ad0b-170381c262c9","system_id":"levelo_inurba_marseille","lat":43.29059,"lon":5.37553,"is_reserved":false,"is_disabled":false,"rental_uris":{"android":"levelo://app?vid=fd98485d-d049-4777-ad0b-170381c262c9","ios":"levelo://app?vid=fd98485d-d049-4777-ad0b-170381c262c9"},"vehicle_type_id":"4","last_reported":1752678759,"current_range_meters":10000,"station_id":"ce4bh692rcd13ifvqe90","pricing_plan_id":"cebpf4jnsgd1na2vs0mg"},{"bike_id":"0011b263-5856-466d-abb3-7dcc94ac73d0","system_id":"levelo_inurba_marseille","lat":43.28955,"lon":5.36381,"is_reserved":false,"is_disabled":true,"rental_uris":{"android":"levelo://app?vid=0011b263-5856-466d-abb3-7dcc94ac73d0","ios":"levelo://app?vid=0011b263-5856-466d-abb3-7dcc94ac73d0"},"vehicle_type_id":"4","last_reported":1752678759,"current_range_meters":10000,"station_id":"ce4bhc92rcd13ifvqetg","pricing_plan_id":"cebpf4jnsgd1na2vs0mg"},{"bike_id":"adfe475e-4fad-42ce-985f-b88b312e5e64","system_id":"levelo_inurba_marseille","lat":43.29456,"lon":5.37536,"is_reserved":false,"is_disabled":false,"rental_uris":{"android":"levelo://app?vid=adfe475e-4fad-42ce-985f-b88b312e5e64","ios":"levelo://app?vid=adfe475e-4fad-42ce-985f-b88b312e5e64"},"vehicle_type_id":"4","last_reported":1752678759,"current_range_meters":10000,"station_id":"","pricing_plan_id":"cebpf4jnsgd1na2vs0mg"},{"bike_id":"518cc4fa-55b5-431b-b760-1096ced7b306","system_id":"levelo_inurba_marseille","lat":43.28416,"lon":5.3498,"is_reserved":false,"is_disabled":false,"rental_uris":{"android":"levelo://app?vid=518cc4fa-55b5-431b-b760-1096ced7b306","ios":"levelo://app?vid=518cc4fa-55b5-431b-b760-1096ced7b306"},"vehicle_type_id":"4","last_reported":1752678759,"current_range_meters":10000,"station_id":"ce4bhbh2rcd13ifvqepg","pricing_plan_id":"cebpf4jnsgd1na2vs0mg"},{"bike_id":"2dea1e72-5f49-4f71-8334-0b7b1b4fb68f","system_id":"levelo_inurba_marseille","lat":43.30537,"lon":5.36537,"is_reserved":false,"is_disabled":false,"rental_uris":{"android":"levelo://app?vid=2dea1e72-5f49-4f71-8334-0b7b1b4fb68f","ios":"levelo://app?vid=2dea1e72-5f49-4f71-8334-0b7b1b4fb68f"},"vehicle_type_id":"4","last_reported":1752678759,"current_range_meters":10000,"station_id":"ce4bgs12rcd13ifvqcag","pricing_plan_id":"cebpf4jnsgd1na2vs0mg"},{"bike_id":"596ed6b0-5536-4cdd-85f2-57b90f493368","system_id":"levelo_inurba_marseille","lat":43.28419,"lon":5.35001,"is_reserved":false,"is_disabled":false,"rental_uris":{"android":"levelo://app?vid=596ed6b0-5536-4cdd-85f2-57b90f493368","ios":"levelo://app?vid=596ed6b0-5536-4cdd-85f2-57b90f493368"},"vehicle_type_id":"4","last_reported":1752678759,"current_range_meters":10800,"station_id":"ce4bhbh2rcd13ifvqepg","pricing_plan_id":"cebpf4jnsgd1na2vs0mg"},{"bike_id":"74b4390d-0242-429b-b32a-0523a3e24ef3","system_id":"levelo_inurba_marseille","lat":43.254459,"lon":5.375989,"is_reserved":false,"is_disabled":false,"rental_uris":{"android":"levelo://app?vid=74b4390d-0242-429b-b32a-0523a3e24ef3","ios":"levelo://app?vid=74b4390d-0242-429b-b32a-0523a3e24ef3"},"vehicle_type_id":"4","last_reported":1752678759,"current_range_meters":10800,"station_id":"","pricing_plan_id":"cebpf4jnsgd1na2vs0mg"},{"bike_id":"85241c6e-e464-4d6a-91de-3fb2c9f2cfab","system_id":"levelo_inurba_marseille","lat":43.32338,"lon":5.40622,"is_reserved":false,"is_disabled":false,"rental_uris":{"android":"levelo://app?vid=85241c6e-e464-4d6a-91de-3fb2c9f2cfab","ios":"levelo://app?vid=85241c6e-e464-4d6a-91de-3fb2c9f2cfab"},"vehicle_type_id":"4","last_reported":1752678759,"current_range_meters":10800,"station_id":"ce4bhq92rcd13ifvqhjg","pricing_plan_id":"cebpf4jnsgd1na2vs0mg"},{"bike_id":"b733d901-5f75-4493-9960-b987b87cd8f7","system_id":"levelo_inurba_marseille","lat":43.22544,"lon":5.34833,"is_reserved":false,"is_disabled":false,"rental_uris":{"android":"levelo://app?vid=b733d901-5f75-4493-9960-b987b87cd8f7","ios":"levelo://app?vid=b733d901-5f75-4493-9960-b987b87cd8f7"},"vehicle_type_id":"4","last_reported":1752678759,"current_range_meters":10800,"station_id":"","pricing_plan_id":"cebpf4jnsgd1na2vs0mg"},{"bike_id":"5421efb0-ae50-415b-b6f7-ca8379c6fe20","system_id":"levelo_inurba_marseille","lat":43.28661,"lon":5.36351,"is_reserved":false,"is_disabled":false,"rental_uris":{"android":"levelo://app?vid=5421efb0-ae50-415b-b6f7-ca8379c6fe20","ios":"levelo://app?vid=5421efb0-ae50-415b-b6f7-ca8379c6fe20"},"vehicle_type_id":"4","last_reported":1752678759,"current_range_meters":10800,"station_id":"ce4bhah2rcd13ifvqej0","pricing_plan_id":"cebpf4jnsgd1na2vs0mg"},{"bike_id":"2bacaccd-1bb2-41bf-ab2e-30b8a5fb7d5d","system_id":"levelo_inurba_marseille","lat":43.27376,"lon":5.36257,"is_reserved":false,"is_disabled":true,"rental_uris":{"android":"levelo://app?vid=2bacaccd-1bb2-41bf-ab2e-30b8a5fb7d5d","ios":"levelo://app?vid=2bacaccd-1bb2-41bf-ab2e-30b8a5fb7d5d"},"vehicle_type_id":"4","last_reported":1752678759,"current_range_meters":10800,"station_id":"ce4bhbh2rcd13ifvqeo0","pricing_plan_id":"cebpf4jnsgd1na2vs0mg"},{"bike_id":"545422c7-fb41-4eb0-ae17-39fcc3f3cfb7","system_id":"levelo_inurba_marseille","lat":43.287,"lon":5.37401,"is_reserved":false,"is_disabled":false,"rental_uris":{"android":"levelo://app?vid=545422c7-fb41-4eb0-ae17-39fcc3f3cfb7","ios":"levelo://app?vid=545422c7-fb41-4eb0-ae17-39fcc3f3cfb7"},"vehicle_type_id":"4","last_reported":1752678759,"current_range_meters":10800,"station_id":"ce4bh3p2rcd13ifvqdq0","pricing_plan_id":"cebpf4jnsgd1na2vs0mg"},{"bike_id":"a8fa3032-6b80-4821-a5a5-27332eeffd22","system_id":"levelo_inurba_marseille","lat":43.28429,"lon":5.34982,"is_reserved":false,"is_disabled":false,"rental_uris":{"android":"levelo://app?vid=a8fa3032-6b80-4821-a5a5-27332eeffd22","ios":"levelo://app?vid=a8fa3032-6b80-4821-a5a5-27332eeffd22"},"vehicle_type_id":"4","last_reported":1752678759,"current_range_meters":10800,"station_id":"ce4bhbh2rcd13ifvqepg","pricing_plan_id":"cebpf4jnsgd1na2vs0mg"},{"bike_id":"5cde9e68-0b1a-4128-bdca-c73db29e24e3","system_id":"levelo_inurba_marseille","lat":43.262256,"lon":5.404568,"is_reserved":false,"is_disabled":false,"rental_uris":{"android":"levelo://app?vid=5cde9e68-0b1a-4128-bdca-c73db29e24e3","ios":"levelo://app?vid=5cde9e68-0b1a-4128-bdca-c73db29e24e3"},"vehicle_type_id":"4","last_reported":1752678759,"current_range_meters":10800,"station_id":"ce4bhmh2rcd13ifvqgmg","pricing_plan_id":"cebpf4jnsgd1na2vs0mg"},{"bike_id":"7cb4a297-3c68-4b65-b521-d924ee8ca4f9","system_id":"levelo_inurba_marseille","lat":43.29374,"lon":5.37862,"is_reserved":false,"is_disabled":false,"rental_uris":{"android":"levelo://app?vid=7cb4a297-3c68-4b65-b521-d924ee8ca4f9","ios":"levelo://app?vid=7cb4a297-3c68-4b65-b521-d924ee8ca4f9"},"vehicle_type_id":"4","last_reported":1752678759,"current_range_meters":11200,"station_id":"ce4bgjh2rcd13ifvqbf0","pricing_plan_id":"cebpf4jnsgd1na2vs0mg"},{"bike_id":"0312c92f-bd58-4902-9b91-574537589615","system_id":"levelo_inurba_marseille","lat":43.28577,"lon":5.3949,"is_reserved":false,"is_disabled":false,"rental_uris":{"android":"levelo://app?vid=0312c92f-bd58-4902-9b91-574537589615","ios":"levelo://app?vid=0312c92f-bd58-4902-9b91-574537589615"},"vehicle_type_id":"4","last_reported":1752678759,"current_range_meters":11200,"station_id":"ce4bh292rcd13ifvqdg0","pricing_plan_id":"cebpf4jnsgd1na2vs0mg"},{"bike_id":"3a70cda7-df27-4374-9399-d7cd7ffc0042","system_id":"levelo_inurba_marseille","lat":43.29097,"lon":5.38121,"is_reserved":false,"is_disabled":false,"rental_uris":{"android":"levelo://app?vid=3a70cda7-df27-4374-9399-d7cd7ffc0042","ios":"levelo://app?vid=3a70cda7-df27-4374-9399-d7cd7ffc0042"},"vehicle_type_id":"4","last_reported":1752678759,"current_range_meters":11600,"station_id":"ce4bh512rcd13ifvqe2g","pricing_plan_id":"cebpf4jnsgd1na2vs0mg"},{"bike_id":"18e63307-2e2f-4b10-807e-7a8ed91df0e5","system_id":"levelo_inurba_marseille","lat":43.30565,"lon":5.36536,"is_reserved":false,"is_disabled":false,"rental_uris":{"android":"levelo://app?vid=18e63307-2e2f-4b10-807e-7a8ed91df0e5","ios":"levelo://app?vid=18e63307-2e2f-4b10-807e-7a8ed91df0e5"},"vehicle_type_id":"4","last_reported":1752678759,"current_range_meters":11600,"station_id":"ce4bgs12rcd13ifvqcag","pricing_plan_id":"cebpf4jnsgd1na2vs0mg"},{"bike_id":"8c7e54a8-0516-42d7-8634-dcb4377e7719","system_id":"levelo_inurba_marseille","lat":43.29969,"lon":5.38491,"is_reserved":false,"is_disabled":false,"rental_uris":{"android":"levelo://app?vid=8c7e54a8-0516-42d7-8634-dcb4377e7719","ios":"levelo://app?vid=8c7e54a8-0516-42d7-8634-dcb4377e7719"},"vehicle_type_id":"4","last_reported":1752678759,"current_range_meters":11600,"station_id":"ce4bgj92rcd13ifvqbd0","pricing_plan_id":"cebpf4jnsgd1na2vs0mg"},{"bike_id":"4409158c-0e42-4505-b036-6f038dda32f6","system_id":"levelo_inurba_marseille","lat":43.30553,"lon":5.3655,"is_reserved":false,"is_disabled":false,"rental_uris":{"android":"levelo://app?vid=4409158c-0e42-4505-b036-6f038dda32f6","ios":"levelo://app?vid=4409158c-0e42-4505-b036-6f038dda32f6"},"vehicle_type_id":"4","last_reported":1752678759,"current_range_meters":12000,"station_id":"ce4bgs12rcd13ifvqcag","pricing_plan_id":"cebpf4jnsgd1na2vs0mg"},{"bike_id":"c3ae7d25-674b-46b7-9c26-eec7812f322f","system_id":"levelo_inurba_marseille","lat":43.30305,"lon":5.36888,"is_reserved":false,"is_disabled":false,"rental_uris":{"android":"levelo://app?vid=c3ae7d25-674b-46b7-9c26-eec7812f322f","ios":"levelo://app?vid=c3ae7d25-674b-46b7-9c26-eec7812f322f"},"vehicle_type_id":"4","last_reported":1752678759,"current_range_meters":12000,"station_id":"ce4bgqh2rcd13ifvqc5g","pricing_plan_id":"cebpf4jnsgd1na2vs0mg"},{"bike_id":"338de1f6-1801-40f5-8252-d637cf4b19c5","system_id":"levelo_inurba_marseille","lat":43.28156,"lon":5.42639,"is_reserved":false,"is_disabled":false,"rental_uris":{"android":"levelo://app?vid=338de1f6-1801-40f5-8252-d637cf4b19c5","ios":"levelo://app?vid=338de1f6-1801-40f5-8252-d637cf4b19c5"},"vehicle_type_id":"4","last_reported":1752678759,"current_range_meters":12000,"station_id":"ce4bhnh2rcd13ifvqgug","pricing_plan_id":"cebpf4jnsgd1na2vs0mg"},{"bike_id":"b2682e2f-29b4-46c3-98a2-bea1e1720405","system_id":"levelo_inurba_marseille","lat":43.29008,"lon":5.35601,"is_reserved":false,"is_disabled":false,"rental_uris":{"android":"levelo://app?vid=b2682e2f-29b4-46c3-98a2-bea1e1720405","ios":"levelo://app?vid=b2682e2f-29b4-46c3-98a2-bea1e1720405"},"vehicle_type_id":"4","last_reported":1752678759,"current_range_meters":12000,"station_id":"ce4bhb92rcd13ifvqen0","pricing_plan_id":"cebpf4jnsgd1na2vs0mg"},{"bike_id":"54b283c6-c314-444c-b492-3e78ed7f2d30","system_id":"levelo_inurba_marseille","lat":43.329274,"lon":5.390541,"is_reserved":false,"is_disabled":false,"rental_uris":{"android":"levelo://app?vid=54b283c6-c314-444c-b492-3e78ed7f2d30","ios":"levelo://app?vid=54b283c6-c314-444c-b492-3e78ed7f2d30"},"vehicle_type_id":"4","last_reported":1752678759,"current_range_meters":12000,"station_id":"","pricing_plan_id":"cebpf4jnsgd1na2vs0mg"},{"bike_id":"63c0a1d0-25f6-4c98-83b9-ca87382579c5","system_id":"levelo_inurba_marseille","lat":43.30511,"lon":5.36644,"is_reserved":false,"is_disabled":false,"rental_uris":{"android":"levelo://app?vid=63c0a1d0-25f6-4c98-83b9-ca87382579c5","ios":"levelo://app?vid=63c0a1d0-25f6-4c98-83b9-ca87382579c5"},"vehicle_type_id":"4","last_reported":1752678759,"current_range_meters":12000,"station_id":"","pricing_plan_id":"cebpf4jnsgd1na2vs0mg"},{"bike_id":"8b82d8ec-5eb0-4c33-8bb4-fca2e972545c","system_id":"levelo_inurba_marseille","lat":43.28624,"lon":5.35103,"is_reserved":false,"is_disabled":false,"rental_uris":{"android":"levelo://app?vid=8b82d8ec-5eb0-4c33-8bb4-fca2e972545c","ios":"levelo://app?vid=8b82d8ec-5eb0-4c33-8bb4-fca2e972545c"},"vehicle_type_id":"4","last_reported":1752678759,"current_range_meters":12400,"station_id":"ce4bhch2rcd13ifvqeug","pricing_plan_id":"cebpf4jnsgd1na2vs0mg"},{"bike_id":"0f47a07f-39c5-4fea-a0ee-56d71688ebb3","system_id":"levelo_inurba_marseille","lat":43.24254,"lon":5.36946,"is_reserved":false,"is_disabled":false,"rental_uris":{"android":"levelo://app?vid=0f47a07f-39c5-4fea-a0ee-56d71688ebb3","ios":"levelo://app?vid=0f47a07f-39c5-4fea-a0ee-56d71688ebb3"},"vehicle_type_id":"4","last_reported":1752678759,"current_range_meters":12400,"station_id":"","pricing_plan_id":"cebpf4jnsgd1na2vs0mg"},{"bike_id":"f8e88d89-c6a8-409c-b0bc-54943a0331bb","system_id":"levelo_inurba_marseille","lat":43.28406,"lon":5.34989,"is_reserved":false,"is_disabled":false,"rental_uris":{"android":"levelo://app?vid=f8e88d89-c6a8-409c-b0bc-54943a0331bb","ios":"levelo://app?vid=f8e88d89-c6a8-409c-b0bc-54943a0331bb"},"vehicle_type_id":"4","last_reported":1752678759,"current_range_meters":12400,"station_id":"ce4bhbh2rcd13ifvqepg","pricing_plan_id":"cebpf4jnsgd1na2vs0mg"},{"bike_id":"52819a39-429f-486a-b8e1-d7dea1c31d5d","system_id":"levelo_inurba_marseille","lat":43.29614,"lon":5.37703,"is_reserved":false,"is_disabled":false,"rental_uris":{"android":"levelo://app?vid=52819a39-429f-486a-b8e1-d7dea1c31d5d","ios":"levelo://app?vid=52819a39-429f-486a-b8e1-d7dea1c31d5d"},"vehicle_type_id":"4","last_reported":1752678759,"current_range_meters":12400,"station_id":"ce4bgi92rcd13ifvqb90","pricing_plan_id":"cebpf4jnsgd1na2vs0mg"},{"bike_id":"2fedaa59-d76c-486b-a308-342525122403","system_id":"levelo_inurba_marseille","lat":43.303167,"lon":5.369105,"is_reserved":false,"is_disabled":false,"rental_uris":{"android":"levelo://app?vid=2fedaa59-d76c-486b-a308-342525122403","ios":"levelo://app?vid=2fedaa59-d76c-486b-a308-342525122403"},"vehicle_type_id":"4","last_reported":1752678759,"current_range_meters":12400,"station_id":"ce4bgqh2rcd13ifvqc5g","pricing_plan_id":"cebpf4jnsgd1na2vs0mg"},{"bike_id":"794b998d-7e45-4d53-b270-ae51136a9420","system_id":"levelo_inurba_marseille","lat":43.31627,"lon":5.38192,"is_reserved":false,"is_disabled":false,"rental_uris":{"android":"levelo://app?vid=794b998d-7e45-4d53-b270-ae51136a9420","ios":"levelo://app?vid=794b998d-7e45-4d53-b270-ae51136a9420"},"vehicle_type_id":"4","last_reported":1752678759,"current_range_meters":12400,"station_id":"","pricing_plan_id":"cebpf4jnsgd1na2vs0mg"},{"bike_id":"0d14f441-7cc4-44b1-abf4-bbb5d100780b","system_id":"levelo_inurba_marseille","lat":43.32104,"lon":5.36761,"is_reserved":false,"is_disabled":false,"rental_uris":{"android":"levelo://app?vid=0d14f441-7cc4-44b1-abf4-bbb5d100780b","ios":"levelo://app?vid=0d14f441-7cc4-44b1-abf4-bbb5d100780b"},"vehicle_type_id":"4","last_reported":1752678759,"current_range_meters":12800,"station_id":"ce4bhrh2rcd13ifvqhug","pricing_plan_id":"cebpf4jnsgd1na2vs0mg"},{"bike_id":"bd08a725-4419-4db9-9856-9e81c78da2b6","system_id":"levelo_inurba_marseille","lat":43.29726,"lon":5.36622,"is_reserved":false,"is_disabled":false,"rental_uris":{"android":"levelo://app?vid=bd08a725-4419-4db9-9856-9e81c78da2b6","ios":"levelo://app?vid=bd08a725-4419-4db9-9856-9e81c78da2b6"},"vehicle_type_id":"4","last_reported":1752678759,"current_range_meters":12800,"station_id":"ce4bgn12rcd13ifvqbt0","pricing_plan_id":"cebpf4jnsgd1na2vs0mg"},{"bike_id":"f53ab926-2de1-4f3c-a7d9-6743ca1bfb1f","system_id":"levelo_inurba_marseille","lat":43.211866,"lon":5.350768,"is_reserved":false,"is_disabled":false,"rental_uris":{"android":"levelo://app?vid=f53ab926-2de1-4f3c-a7d9-6743ca1bfb1f","ios":"levelo://app?vid=f53ab926-2de1-4f3c-a7d9-6743ca1bfb1f"},"vehicle_type_id":"4","last_reported":1752678759,"current_range_meters":13600,"station_id":"st_cvj6sg6p6f1abm77japg","pricing_plan_id":"cebpf4jnsgd1na2vs0mg"},{"bike_id":"7d48cbc4-3c85-4e5c-9bc3-bc1ac815cffa","system_id":"levelo_inurba_marseille","lat":43.30551,"lon":5.36554,"is_reserved":false,"is_disabled":false,"rental_uris":{"android":"levelo://app?vid=7d48cbc4-3c85-4e5c-9bc3-bc1ac815cffa","ios":"levelo://app?vid=7d48cbc4-3c85-4e5c-9bc3-bc1ac815cffa"},"vehicle_type_id":"4","last_reported":1752678759,"current_range_meters":14000,"station_id":"ce4bgs12rcd13ifvqcag","pricing_plan_id":"cebpf4jnsgd1na2vs0mg"},{"bike_id":"61a9e916-b95f-4f2c-8dca-c5b11be80287","system_id":"levelo_inurba_marseille","lat":43.29226,"lon":5.36043,"is_reserved":false,"is_disabled":true,"rental_uris":{"android":"levelo://app?vid=61a9e916-b95f-4f2c-8dca-c5b11be80287","ios":"levelo://app?vid=61a9e916-b95f-4f2c-8dca-c5b11be80287"},"vehicle_type_id":"4","last_reported":1752678759,"current_range_meters":14000,"station_id":"ce4bhbh2rcd13ifvqeqg","pricing_plan_id":"cebpf4jnsgd1na2vs0mg"},{"bike_id":"3be42815-8edc-4ee6-be53-8ab0bec652b2","system_id":"levelo_inurba_marseille","lat":43.28276,"lon":5.35072,"is_reserved":false,"is_disabled":false,"rental_uris":{"android":"levelo://app?vid=3be42815-8edc-4ee6-be53-8ab0bec652b2","ios":"levelo://app?vid=3be42815-8edc-4ee6-be53-8ab0bec652b2"},"vehicle_type_id":"4","last_reported":1752678759,"current_range_meters":14000,"station_id":"ce4bhbp2rcd13ifvqerg","pricing_plan_id":"cebpf4jnsgd1na2vs0mg"},{"bike_id":"d89d9862-33c9-46d6-8ec9-3aab3abc6a20","system_id":"levelo_inurba_marseille","lat":43.28664,"lon":5.36351,"is_reserved":false,"is_disabled":false,"rental_uris":{"android":"levelo://app?vid=d89d9862-33c9-46d6-8ec9-3aab3abc6a20","ios":"levelo://app?vid=d89d9862-33c9-46d6-8ec9-3aab3abc6a20"},"vehicle_type_id":"4","last_reported":1752678759,"current_range_meters":14000,"station_id":"ce4bhah2rcd13ifvqej0","pricing_plan_id":"cebpf4jnsgd1na2vs0mg"},{"bike_id":"1a856d5c-c32e-4d60-a9a5-1d3800b77029","system_id":"levelo_inurba_marseille","lat":43.3361,"lon":5.41033,"is_reserved":false,"is_disabled":false,"rental_uris":{"android":"levelo://app?vid=1a856d5c-c32e-4d60-a9a5-1d3800b77029","ios":"levelo://app?vid=1a856d5c-c32e-4d60-a9a5-1d3800b77029"},"vehicle_type_id":"4","last_reported":1752678759,"current_range_meters":14000,"station_id":"ce4bhqh2rcd13ifvqhmg","pricing_plan_id":"cebpf4jnsgd1na2vs0mg"},{"bike_id":"ca779787-698d-4902-9c86-2533e9a955d5","system_id":"levelo_inurba_marseille","lat":43.24147,"lon":5.36409,"is_reserved":false,"is_disabled":false,"rental_uris":{"android":"levelo://app?vid=ca779787-698d-4902-9c86-2533e9a955d5","ios":"levelo://app?vid=ca779787-698d-4902-9c86-2533e9a955d5"},"vehicle_type_id":"4","last_reported":1752678759,"current_range_meters":14400,"station_id":"cpo36qri1sfpv3e86is0","pricing_plan_id":"cebpf4jnsgd1na2vs0mg"},{"bike_id":"9902d289-745e-423a-a750-1c3d2e283d12","system_id":"levelo_inurba_marseille","lat":43.31331,"lon":5.397,"is_reserved":false,"is_disabled":false,"rental_uris":{"android":"levelo://app?vid=9902d289-745e-423a-a750-1c3d2e283d12","ios":"levelo://app?vid=9902d289-745e-423a-a750-1c3d2e283d12"},"vehicle_type_id":"4","last_reported":1752678759,"current_range_meters":14400,"station_id":"ce4bgvp2rcd13ifvqcu0","pricing_plan_id":"cebpf4jnsgd1na2vs0mg"},{"bike_id":"21008730-7847-4cc5-b0dc-28c3ca892cdb","system_id":"levelo_inurba_marseille","lat":43.29504,"lon":5.37486,"is_reserved":false,"is_disabled":false,"rental_uris":{"android":"levelo://app?vid=21008730-7847-4cc5-b0dc-28c3ca892cdb","ios":"levelo://app?vid=21008730-7847-4cc5-b0dc-28c3ca892cdb"},"vehicle_type_id":"4","last_reported":1752678759,"current_range_meters":14400,"station_id":"ce4bgkp2rcd13ifvqbmg","pricing_plan_id":"cebpf4jnsgd1na2vs0mg"},{"bike_id":"808e4fec-8a0e-44c4-babc-d190f97b1ece","system_id":"levelo_inurba_marseille","lat":43.29585,"lon":5.36738,"is_reserved":false,"is_disabled":false,"rental_uris":{"android":"levelo://app?vid=808e4fec-8a0e-44c4-babc-d190f97b1ece","ios":"levelo://app?vid=808e4fec-8a0e-44c4-babc-d190f97b1ece"},"vehicle_type_id":"4","last_reported":1752678759,"current_range_meters":14400,"station_id":"ce4bgph2rcd13ifvqc2g","pricing_plan_id":"cebpf4jnsgd1na2vs0mg"},{"bike_id":"c4100995-3c01-4ec0-9541-6d3928a99122","system_id":"levelo_inurba_marseille","lat":43.28301,"lon":5.35097,"is_reserved":false,"is_disabled":false,"rental_uris":{"android":"levelo://app?vid=c4100995-3c01-4ec0-9541-6d3928a99122","ios":"levelo://app?vid=c4100995-3c01-4ec0-9541-6d3928a99122"},"vehicle_type_id":"4","last_reported":1752678759,"current_range_meters":14400,"station_id":"ce4bhbp2rcd13ifvqerg","pricing_plan_id":"cebpf4jnsgd1na2vs0mg"},{"bike_id":"2864c626-2c51-4be8-a979-0b7da4a18c01","system_id":"levelo_inurba_marseille","lat":43.295232,"lon":5.394075,"is_reserved":false,"is_disabled":false,"rental_uris":{"android":"levelo://app?vid=2864c626-2c51-4be8-a979-0b7da4a18c01","ios":"levelo://app?vid=2864c626-2c51-4be8-a979-0b7da4a18c01"},"vehicle_type_id":"4","last_reported":1752678759,"current_range_meters":14400,"station_id":"","pricing_plan_id":"cebpf4jnsgd1na2vs0mg"},{"bike_id":"c63c55a5-d135-4495-95ca-612010426f0e","system_id":"levelo_inurba_marseille","lat":43.30322,"lon":5.40438,"is_reserved":false,"is_disabled":false,"rental_uris":{"android":"levelo://app?vid=c63c55a5-d135-4495-95ca-612010426f0e","ios":"levelo://app?vid=c63c55a5-d135-4495-95ca-612010426f0e"},"vehicle_type_id":"4","last_reported":1752678759,"current_range_meters":14400,"station_id":"ce4bh012rcd13ifvqd10","pricing_plan_id":"cebpf4jnsgd1na2vs0mg"},{"bike_id":"bede6666-0efd-4bda-8eb9-e0314545e792","system_id":"levelo_inurba_marseille","lat":43.26941,"lon":5.40256,"is_reserved":false,"is_disabled":false,"rental_uris":{"android":"levelo://app?vid=bede6666-0efd-4bda-8eb9-e0314545e792","ios":"levelo://app?vid=bede6666-0efd-4bda-8eb9-e0314545e792"},"vehicle_type_id":"4","last_reported":1752678759,"current_range_meters":14800,"station_id":"cjm6bp8fraef2m0cb0m0","pricing_plan_id":"cebpf4jnsgd1na2vs0mg"},{"bike_id":"0ebec0cc-f090-4627-8bf6-de7e8a0ea404","system_id":"levelo_inurba_marseille","lat":43.289489,"lon":5.366412,"is_reserved":false,"is_disabled":false,"rental_uris":{"android":"levelo://app?vid=0ebec0cc-f090-4627-8bf6-de7e8a0ea404","ios":"levelo://app?vid=0ebec0cc-f090-4627-8bf6-de7e8a0ea404"},"vehicle_type_id":"4","last_reported":1752678759,"current_range_meters":14800,"station_id":"ce4bhap2rcd13ifvqek0","pricing_plan_id":"cebpf4jnsgd1na2vs0mg"},{"bike_id":"e5bec6b1-43e6-46f2-9810-affd93766dd8","system_id":"levelo_inurba_marseille","lat":43.21752,"lon":5.34612,"is_reserved":false,"is_disabled":true,"rental_uris":{"android":"levelo://app?vid=e5bec6b1-43e6-46f2-9810-affd93766dd8","ios":"levelo://app?vid=e5bec6b1-43e6-46f2-9810-affd93766dd8"},"vehicle_type_id":"4","last_reported":1752678759,"current_range_meters":14800,"station_id":"st_cvj6r9ubvosntc0bgbag","pricing_plan_id":"cebpf4jnsgd1na2vs0mg"},{"bike_id":"f6aa1602-52c9-4808-8645-f00bf2b9e6b6","system_id":"levelo_inurba_marseille","lat":43.21199,"lon":5.35072,"is_reserved":false,"is_disabled":false,"rental_uris":{"android":"levelo://app?vid=f6aa1602-52c9-4808-8645-f00bf2b9e6b6","ios":"levelo://app?vid=f6aa1602-52c9-4808-8645-f00bf2b9e6b6"},"vehicle_type_id":"4","last_reported":1752678759,"current_range_meters":14800,"station_id":"st_cvj6sg6p6f1abm77japg","pricing_plan_id":"cebpf4jnsgd1na2vs0mg"},{"bike_id":"2b35441d-be12-43e5-8f1c-c4924e3cdace","system_id":"levelo_inurba_marseille","lat":43.2484,"lon":5.37423,"is_reserved":false,"is_disabled":false,"rental_uris":{"android":"levelo://app?vid=2b35441d-be12-43e5-8f1c-c4924e3cdace","ios":"levelo://app?vid=2b35441d-be12-43e5-8f1c-c4924e3cdace"},"vehicle_type_id":"4","last_reported":1752678759,"current_range_meters":14800,"station_id":"","pricing_plan_id":"cebpf4jnsgd1na2vs0mg"},{"bike_id":"94958c23-6d3e-434d-8bcd-99949c5b7e5a","system_id":"levelo_inurba_marseille","lat":43.30248,"lon":5.40067,"is_reserved":false,"is_disabled":false,"rental_uris":{"android":"levelo://app?vid=94958c23-6d3e-434d-8bcd-99949c5b7e5a","ios":"levelo://app?vid=94958c23-6d3e-434d-8bcd-99949c5b7e5a"},"vehicle_type_id":"4","last_reported":1752678759,"current_range_meters":14800,"station_id":"ce4bgvh2rcd13ifvqcs0","pricing_plan_id":"cebpf4jnsgd1na2vs0mg"},{"bike_id":"c8108758-328e-4fc8-9f24-40ac63e4fc27","system_id":"levelo_inurba_marseille","lat":43.28266,"lon":5.3506,"is_reserved":false,"is_disabled":false,"rental_uris":{"android":"levelo://app?vid=c8108758-328e-4fc8-9f24-40ac63e4fc27","ios":"levelo://app?vid=c8108758-328e-4fc8-9f24-40ac63e4fc27"},"vehicle_type_id":"4","last_reported":1752678759,"current_range_meters":14800,"station_id":"ce4bhbp2rcd13ifvqerg","pricing_plan_id":"cebpf4jnsgd1na2vs0mg"},{"bike_id":"554b0256-6c83-48a0-b234-b3b35034312f","system_id":"levelo_inurba_marseille","lat":43.2827,"lon":5.35061,"is_reserved":false,"is_disabled":false,"rental_uris":{"android":"levelo://app?vid=554b0256-6c83-48a0-b234-b3b35034312f","ios":"levelo://app?vid=554b0256-6c83-48a0-b234-b3b35034312f"},"vehicle_type_id":"4","last_reported":1752678759,"current_range_meters":14800,"station_id":"ce4bhbp2rcd13ifvqerg","pricing_plan_id":"cebpf4jnsgd1na2vs0mg"},{"bike_id":"dcffc596-d13e-450d-b0a1-9418eec5cbad","system_id":"levelo_inurba_marseille","lat":43.27061,"lon":5.40261,"is_reserved":false,"is_disabled":false,"rental_uris":{"android":"levelo://app?vid=dcffc596-d13e-450d-b0a1-9418eec5cbad","ios":"levelo://app?vid=dcffc596-d13e-450d-b0a1-9418eec5cbad"},"vehicle_type_id":"4","last_reported":1752678759,"current_range_meters":14800,"station_id":"ce4bhk92rcd13ifvqgc0","pricing_plan_id":"cebpf4jnsgd1na2vs0mg"},{"bike_id":"bb9e11e9-43e6-4a2a-898a-db43a7ad8fc2","system_id":"levelo_inurba_marseille","lat":43.29378,"lon":5.37851,"is_reserved":false,"is_disabled":false,"rental_uris":{"android":"levelo://app?vid=bb9e11e9-43e6-4a2a-898a-db43a7ad8fc2","ios":"levelo://app?vid=bb9e11e9-43e6-4a2a-898a-db43a7ad8fc2"},"vehicle_type_id":"4","last_reported":1752678759,"current_range_meters":15200,"station_id":"ce4bgjh2rcd13ifvqbf0","pricing_plan_id":"cebpf4jnsgd1na2vs0mg"},{"bike_id":"229a51b8-d35a-46ef-90d9-099d3d4f556b","system_id":"levelo_inurba_marseille","lat":43.29416,"lon":5.38612,"is_reserved":false,"is_disabled":true,"rental_uris":{"android":"levelo://app?vid=229a51b8-d35a-46ef-90d9-099d3d4f556b","ios":"levelo://app?vid=229a51b8-d35a-46ef-90d9-099d3d4f556b"},"vehicle_type_id":"4","last_reported":1752678759,"current_range_meters":15200,"station_id":"ce4bh2h2rcd13ifvqdh0","pricing_plan_id":"cebpf4jnsgd1na2vs0mg"},{"bike_id":"f5817eae-0567-4a50-9665-23663a2ae4f8","system_id":"levelo_inurba_marseille","lat":43.28419,"lon":5.34989,"is_reserved":false,"is_disabled":false,"rental_uris":{"android":"levelo://app?vid=f5817eae-0567-4a50-9665-23663a2ae4f8","ios":"levelo://app?vid=f5817eae-0567-4a50-9665-23663a2ae4f8"},"vehicle_type_id":"4","last_reported":1752678759,"current_range_meters":15200,"station_id":"ce4bhbh2rcd13ifvqepg","pricing_plan_id":"cebpf4jnsgd1na2vs0mg"},{"bike_id":"32d1218f-165c-441f-ad46-a226bdc8e1de","system_id":"levelo_inurba_marseille","lat":43.28625,"lon":5.35101,"is_reserved":false,"is_disabled":false,"rental_uris":{"android":"levelo://app?vid=32d1218f-165c-441f-ad46-a226bdc8e1de","ios":"levelo://app?vid=32d1218f-165c-441f-ad46-a226bdc8e1de"},"vehicle_type_id":"4","last_reported":1752678759,"current_range_meters":15200,"station_id":"ce4bhch2rcd13ifvqeug","pricing_plan_id":"cebpf4jnsgd1na2vs0mg"},{"bike_id":"64c7d058-dea1-4249-9d8c-3c21ca3a31f7","system_id":"levelo_inurba_marseille","lat":43.265658,"lon":5.390241,"is_reserved":false,"is_disabled":false,"rental_uris":{"android":"levelo://app?vid=64c7d058-dea1-4249-9d8c-3c21ca3a31f7","ios":"levelo://app?vid=64c7d058-dea1-4249-9d8c-3c21ca3a31f7"},"vehicle_type_id":"4","last_reported":1752678759,"current_range_meters":15200,"station_id":"ce4bhe12rcd13ifvqf30","pricing_plan_id":"cebpf4jnsgd1na2vs0mg"},{"bike_id":"d43a01f3-68b8-4651-a4e6-1d32709095f5","system_id":"levelo_inurba_marseille","lat":43.27378,"lon":5.36276,"is_reserved":false,"is_disabled":false,"rental_uris":{"android":"levelo://app?vid=d43a01f3-68b8-4651-a4e6-1d32709095f5","ios":"levelo://app?vid=d43a01f3-68b8-4651-a4e6-1d32709095f5"},"vehicle_type_id":"4","last_reported":1752678759,"current_range_meters":15200,"station_id":"ce4bhbh2rcd13ifvqeo0","pricing_plan_id":"cebpf4jnsgd1na2vs0mg"},{"bike_id":"bb91fdfd-e2e6-4861-a682-9985a5c5d97b","system_id":"levelo_inurba_marseille","lat":43.231876,"lon":5.399902,"is_reserved":false,"is_disabled":false,"rental_uris":{"android":"levelo://app?vid=bb91fdfd-e2e6-4861-a682-9985a5c5d97b","ios":"levelo://app?vid=bb91fdfd-e2e6-4861-a682-9985a5c5d97b"},"vehicle_type_id":"4","last_reported":1752678759,"current_range_meters":15200,"station_id":"ce4bhn12rcd13ifvqgqg","pricing_plan_id":"cebpf4jnsgd1na2vs0mg"},{"bike_id":"7dee92bf-5b07-4927-aa41-9e9493644eeb","system_id":"levelo_inurba_marseille","lat":43.21194,"lon":5.35073,"is_reserved":false,"is_disabled":false,"rental_uris":{"android":"levelo://app?vid=7dee92bf-5b07-4927-aa41-9e9493644eeb","ios":"levelo://app?vid=7dee92bf-5b07-4927-aa41-9e9493644eeb"},"vehicle_type_id":"4","last_reported":1752678759,"current_range_meters":15200,"station_id":"st_cvj6sg6p6f1abm77japg","pricing_plan_id":"cebpf4jnsgd1na2vs0mg"},{"bike_id":"7f78af39-df8c-4b54-b4df-c6f5d97d46f7","system_id":"levelo_inurba_marseille","lat":43.32108,"lon":5.36781,"is_reserved":false,"is_disabled":false,"rental_uris":{"android":"levelo://app?vid=7f78af39-df8c-4b54-b4df-c6f5d97d46f7","ios":"levelo://app?vid=7f78af39-df8c-4b54-b4df-c6f5d97d46f7"},"vehicle_type_id":"4","last_reported":1752678759,"current_range_meters":16000,"station_id":"ce4bhrh2rcd13ifvqhug","pricing_plan_id":"cebpf4jnsgd1na2vs0mg"},{"bike_id":"b18c91ed-1137-464d-b9f6-22606474f7bb","system_id":"levelo_inurba_marseille","lat":43.31651,"lon":5.36774,"is_reserved":false,"is_disabled":false,"rental_uris":{"android":"levelo://app?vid=b18c91ed-1137-464d-b9f6-22606474f7bb","ios":"levelo://app?vid=b18c91ed-1137-464d-b9f6-22606474f7bb"},"vehicle_type_id":"4","last_reported":1752678759,"current_range_meters":16000,"station_id":"","pricing_plan_id":"cebpf4jnsgd1na2vs0mg"},{"bike_id":"d647170c-f548-45c4-bf20-d1db5fe65144","system_id":"levelo_inurba_marseille","lat":43.2623,"lon":5.37433,"is_reserved":false,"is_disabled":false,"rental_uris":{"android":"levelo://app?vid=d647170c-f548-45c4-bf20-d1db5fe65144","ios":"levelo://app?vid=d647170c-f548-45c4-bf20-d1db5fe65144"},"vehicle_type_id":"4","last_reported":1752678759,"current_range_meters":16000,"station_id":"ce4bhgp2rcd13ifvqfc0","pricing_plan_id":"cebpf4jnsgd1na2vs0mg"},{"bike_id":"16c07b31-e78c-4e53-b123-0d1d35db155f","system_id":"levelo_inurba_marseille","lat":43.290394,"lon":5.386536,"is_reserved":false,"is_disabled":false,"rental_uris":{"android":"levelo://app?vid=16c07b31-e78c-4e53-b123-0d1d35db155f","ios":"levelo://app?vid=16c07b31-e78c-4e53-b123-0d1d35db155f"},"vehicle_type_id":"4","last_reported":1752678759,"current_range_meters":16000,"station_id":"ce4bh692rcd13ifvqea0","pricing_plan_id":"cebpf4jnsgd1na2vs0mg"},{"bike_id":"aa6ae9db-dee7-4a9a-bf97-14fd9cddacf5","system_id":"levelo_inurba_marseille","lat":43.30552,"lon":5.36554,"is_reserved":false,"is_disabled":false,"rental_uris":{"android":"levelo://app?vid=aa6ae9db-dee7-4a9a-bf97-14fd9cddacf5","ios":"levelo://app?vid=aa6ae9db-dee7-4a9a-bf97-14fd9cddacf5"},"vehicle_type_id":"4","last_reported":1752678759,"current_range_meters":16000,"station_id":"ce4bgs12rcd13ifvqcag","pricing_plan_id":"cebpf4jnsgd1na2vs0mg"},{"bike_id":"e0c420a5-841c-4308-8e25-92b9269be3a7","system_id":"levelo_inurba_marseille","lat":43.269085,"lon":5.386035,"is_reserved":false,"is_disabled":false,"rental_uris":{"android":"levelo://app?vid=e0c420a5-841c-4308-8e25-92b9269be3a7","ios":"levelo://app?vid=e0c420a5-841c-4308-8e25-92b9269be3a7"},"vehicle_type_id":"4","last_reported":1752678759,"current_range_meters":16000,"station_id":"ce4bhg92rcd13ifvqf90","pricing_plan_id":"cebpf4jnsgd1na2vs0mg"},{"bike_id":"f2b5273e-88ec-4ec3-bf34-9d57642ad4a1","system_id":"levelo_inurba_marseille","lat":43.27989,"lon":5.40014,"is_reserved":false,"is_disabled":false,"rental_uris":{"android":"levelo://app?vid=f2b5273e-88ec-4ec3-bf34-9d57642ad4a1","ios":"levelo://app?vid=f2b5273e-88ec-4ec3-bf34-9d57642ad4a1"},"vehicle_type_id":"4","last_reported":1752678759,"current_range_meters":16400,"station_id":"ce4bho92rcd13ifvqh4g","pricing_plan_id":"cebpf4jnsgd1na2vs0mg"},{"bike_id":"47e84c87-4631-48fa-8064-ac43c2313bba","system_id":"levelo_inurba_marseille","lat":43.29301,"lon":5.37174,"is_reserved":false,"is_disabled":true,"rental_uris":{"android":"levelo://app?vid=47e84c87-4631-48fa-8064-ac43c2313bba","ios":"levelo://app?vid=47e84c87-4631-48fa-8064-ac43c2313bba"},"vehicle_type_id":"4","last_reported":1752678759,"current_range_meters":16400,"station_id":"ce4bgh92rcd13ifvqb40","pricing_plan_id":"cebpf4jnsgd1na2vs0mg"},{"bike_id":"742922c9-1b61-4753-a73c-0d5b4b131484","system_id":"levelo_inurba_marseille","lat":43.28283,"lon":5.35062,"is_reserved":false,"is_disabled":false,"rental_uris":{"android":"levelo://app?vid=742922c9-1b61-4753-a73c-0d5b4b131484","ios":"levelo://app?vid=742922c9-1b61-4753-a73c-0d5b4b131484"},"vehicle_type_id":"4","last_reported":1752678759,"current_range_meters":16400,"station_id":"ce4bhbp2rcd13ifvqerg","pricing_plan_id":"cebpf4jnsgd1na2vs0mg"},{"bike_id":"3127f4d3-2259-439a-b6c9-6b25fd4c5ca0","system_id":"levelo_inurba_marseille","lat":43.25495,"lon":5.37645,"is_reserved":false,"is_disabled":false,"rental_uris":{"android":"levelo://app?vid=3127f4d3-2259-439a-b6c9-6b25fd4c5ca0","ios":"levelo://app?vid=3127f4d3-2259-439a-b6c9-6b25fd4c5ca0"},"vehicle_type_id":"4","last_reported":1752678759,"current_range_meters":16400,"station_id":"ce4bhh12rcd13ifvqff0","pricing_plan_id":"cebpf4jnsgd1na2vs0mg"},{"bike_id":"eeeb1525-8f55-4baa-8c13-97fb7ee269cd","system_id":"levelo_inurba_marseille","lat":43.29939,"lon":5.36547,"is_reserved":false,"is_disabled":false,"rental_uris":{"android":"levelo://app?vid=eeeb1525-8f55-4baa-8c13-97fb7ee269cd","ios":"levelo://app?vid=eeeb1525-8f55-4baa-8c13-97fb7ee269cd"},"vehicle_type_id":"4","last_reported":1752678759,"current_range_meters":16400,"station_id":"ce4bgm92rcd13ifvqbr0","pricing_plan_id":"cebpf4jnsgd1na2vs0mg"},{"bike_id":"c2437f44-59b1-4a11-be4c-45990fc66ea7","system_id":"levelo_inurba_marseille","lat":43.24161,"lon":5.36384,"is_reserved":false,"is_disabled":false,"rental_uris":{"android":"levelo://app?vid=c2437f44-59b1-4a11-be4c-45990fc66ea7","ios":"levelo://app?vid=c2437f44-59b1-4a11-be4c-45990fc66ea7"},"vehicle_type_id":"4","last_reported":1752678759,"current_range_meters":16400,"station_id":"cpo36qri1sfpv3e86is0","pricing_plan_id":"cebpf4jnsgd1na2vs0mg"},{"bike_id":"d697e4f3-cf7d-45e9-b67b-45ee6d3593f5","system_id":"levelo_inurba_marseille","lat":43.28615,"lon":5.350977,"is_reserved":false,"is_disabled":false,"rental_uris":{"android":"levelo://app?vid=d697e4f3-cf7d-45e9-b67b-45ee6d3593f5","ios":"levelo://app?vid=d697e4f3-cf7d-45e9-b67b-45ee6d3593f5"},"vehicle_type_id":"4","last_reported":1752678759,"current_range_meters":16400,"station_id":"ce4bhch2rcd13ifvqeug","pricing_plan_id":"cebpf4jnsgd1na2vs0mg"},{"bike_id":"1a7efd10-9b2d-4f3d-974d-245d75d272b2","system_id":"levelo_inurba_marseille","lat":43.2608,"lon":5.39387,"is_reserved":false,"is_disabled":false,"rental_uris":{"android":"levelo://app?vid=1a7efd10-9b2d-4f3d-974d-245d75d272b2","ios":"levelo://app?vid=1a7efd10-9b2d-4f3d-974d-245d75d272b2"},"vehicle_type_id":"4","last_reported":1752678759,"current_range_meters":16800,"station_id":"ce4bhh92rcd13ifvqfj0","pricing_plan_id":"cebpf4jnsgd1na2vs0mg"},{"bike_id":"46b084b0-eb8b-4075-9346-f1061f12ac7a","system_id":"levelo_inurba_marseille","lat":43.292719,"lon":5.368377,"is_reserved":false,"is_disabled":false,"rental_uris":{"android":"levelo://app?vid=46b084b0-eb8b-4075-9346-f1061f12ac7a","ios":"levelo://app?vid=46b084b0-eb8b-4075-9346-f1061f12ac7a"},"vehicle_type_id":"4","last_reported":1752678759,"current_range_meters":16800,"station_id":"","pricing_plan_id":"cebpf4jnsgd1na2vs0mg"},{"bike_id":"0c6caf42-ed17-4761-93fb-22499446b1ab","system_id":"levelo_inurba_marseille","lat":43.28155,"lon":5.42647,"is_reserved":false,"is_disabled":false,"rental_uris":{"android":"levelo://app?vid=0c6caf42-ed17-4761-93fb-22499446b1ab","ios":"levelo://app?vid=0c6caf42-ed17-4761-93fb-22499446b1ab"},"vehicle_type_id":"4","last_reported":1752678759,"current_range_meters":16800,"station_id":"ce4bhnh2rcd13ifvqgug","pricing_plan_id":"cebpf4jnsgd1na2vs0mg"},{"bike_id":"9090e647-a713-44ba-b392-5ac73cd154dd","system_id":"levelo_inurba_marseille","lat":43.23062,"lon":5.35496,"is_reserved":false,"is_disabled":false,"rental_uris":{"android":"levelo://app?vid=9090e647-a713-44ba-b392-5ac73cd154dd","ios":"levelo://app?vid=9090e647-a713-44ba-b392-5ac73cd154dd"},"vehicle_type_id":"4","last_reported":1752678759,"current_range_meters":16800,"station_id":"cpo3342slgdg3j2ifvpg","pricing_plan_id":"cebpf4jnsgd1na2vs0mg"},{"bike_id":"84fc2d50-0d54-4765-a48c-e9332016db19","system_id":"levelo_inurba_marseille","lat":43.26211,"lon":5.37439,"is_reserved":false,"is_disabled":false,"rental_uris":{"android":"levelo://app?vid=84fc2d50-0d54-4765-a48c-e9332016db19","ios":"levelo://app?vid=84fc2d50-0d54-4765-a48c-e9332016db19"},"vehicle_type_id":"4","last_reported":1752678759,"current_range_meters":16800,"station_id":"ce4bhgp2rcd13ifvqfc0","pricing_plan_id":"cebpf4jnsgd1na2vs0mg"},{"bike_id":"fe5f64a8-8d77-4dbc-a496-d21eadf969c2","system_id":"levelo_inurba_marseille","lat":43.29003,"lon":5.35599,"is_reserved":false,"is_disabled":false,"rental_uris":{"android":"levelo://app?vid=fe5f64a8-8d77-4dbc-a496-d21eadf969c2","ios":"levelo://app?vid=fe5f64a8-8d77-4dbc-a496-d21eadf969c2"},"vehicle_type_id":"4","last_reported":1752678759,"current_range_meters":16800,"station_id":"ce4bhb92rcd13ifvqen0","pricing_plan_id":"cebpf4jnsgd1na2vs0mg"},{"bike_id":"285aaa26-07be-4c4a-9be9-3c0873597bc5","system_id":"levelo_inurba_marseille","lat":43.295892,"lon":5.367524,"is_reserved":false,"is_disabled":false,"rental_uris":{"android":"levelo://app?vid=285aaa26-07be-4c4a-9be9-3c0873597bc5","ios":"levelo://app?vid=285aaa26-07be-4c4a-9be9-3c0873597bc5"},"vehicle_type_id":"4","last_reported":1752678759,"current_range_meters":16800,"station_id":"ce4bgph2rcd13ifvqc2g","pricing_plan_id":"cebpf4jnsgd1na2vs0mg"},{"bike_id":"b399da78-cf63-4de2-b505-0740a1d1e170","system_id":"levelo_inurba_marseille","lat":43.22535,"lon":5.34796,"is_reserved":false,"is_disabled":false,"rental_uris":{"android":"levelo://app?vid=b399da78-cf63-4de2-b505-0740a1d1e170","ios":"levelo://app?vid=b399da78-cf63-4de2-b505-0740a1d1e170"},"vehicle_type_id":"4","last_reported":1752678759,"current_range_meters":16800,"station_id":"st_cvj5dfep6f1abm77gieg","pricing_plan_id":"cebpf4jnsgd1na2vs0mg"},{"bike_id":"39c6203f-25ee-487c-9399-b36ef495fc6b","system_id":"levelo_inurba_marseille","lat":43.24108,"lon":5.37715,"is_reserved":false,"is_disabled":false,"rental_uris":{"android":"levelo://app?vid=39c6203f-25ee-487c-9399-b36ef495fc6b","ios":"levelo://app?vid=39c6203f-25ee-487c-9399-b36ef495fc6b"},"vehicle_type_id":"4","last_reported":1752678759,"current_range_meters":16800,"station_id":"ce4bhnp2rcd13ifvqgvg","pricing_plan_id":"cebpf4jnsgd1na2vs0mg"},{"bike_id":"e43e688d-e47b-4d21-b1bd-d9477fddd065","system_id":"levelo_inurba_marseille","lat":43.33027,"lon":5.39036,"is_reserved":false,"is_disabled":false,"rental_uris":{"android":"levelo://app?vid=e43e688d-e47b-4d21-b1bd-d9477fddd065","ios":"levelo://app?vid=e43e688d-e47b-4d21-b1bd-d9477fddd065"},"vehicle_type_id":"4","last_reported":1752678759,"current_range_meters":16800,"station_id":"ce4bhr92rcd13ifvqhrg","pricing_plan_id":"cebpf4jnsgd1na2vs0mg"},{"bike_id":"b19ba177-7aca-4002-b440-4e2b9a122791","system_id":"levelo_inurba_marseille","lat":43.29945,"lon":5.36538,"is_reserved":false,"is_disabled":false,"rental_uris":{"android":"levelo://app?vid=b19ba177-7aca-4002-b440-4e2b9a122791","ios":"levelo://app?vid=b19ba177-7aca-4002-b440-4e2b9a122791"},"vehicle_type_id":"4","last_reported":1752678759,"current_range_meters":16800,"station_id":"ce4bgm92rcd13ifvqbr0","pricing_plan_id":"cebpf4jnsgd1na2vs0mg"},{"bike_id":"992636f1-2772-4270-ad86-6c9715eff7b4","system_id":"levelo_inurba_marseille","lat":43.28649,"lon":5.35132,"is_reserved":false,"is_disabled":false,"rental_uris":{"android":"levelo://app?vid=992636f1-2772-4270-ad86-6c9715eff7b4","ios":"levelo://app?vid=992636f1-2772-4270-ad86-6c9715eff7b4"},"vehicle_type_id":"4","last_reported":1752678759,"current_range_meters":16800,"station_id":"ce4bhch2rcd13ifvqeug","pricing_plan_id":"cebpf4jnsgd1na2vs0mg"},{"bike_id":"0398468c-6c0f-49fd-b525-08c45b6a4cd9","system_id":"levelo_inurba_marseille","lat":43.22503,"lon":5.3477,"is_reserved":false,"is_disabled":false,"rental_uris":{"android":"levelo://app?vid=0398468c-6c0f-49fd-b525-08c45b6a4cd9","ios":"levelo://app?vid=0398468c-6c0f-49fd-b525-08c45b6a4cd9"},"vehicle_type_id":"4","last_reported":1752678759,"current_range_meters":17200,"station_id":"st_cvj5dfep6f1abm77gieg","pricing_plan_id":"cebpf4jnsgd1na2vs0mg"},{"bike_id":"50e152cf-edc9-4bc9-8232-19cb41a00858","system_id":"levelo_inurba_marseille","lat":43.28431,"lon":5.34994,"is_reserved":false,"is_disabled":false,"rental_uris":{"android":"levelo://app?vid=50e152cf-edc9-4bc9-8232-19cb41a00858","ios":"levelo://app?vid=50e152cf-edc9-4bc9-8232-19cb41a00858"},"vehicle_type_id":"4","last_reported":1752678759,"current_range_meters":17200,"station_id":"ce4bhbh2rcd13ifvqepg","pricing_plan_id":"cebpf4jnsgd1na2vs0mg"},{"bike_id":"69434ec4-e59f-4f38-8bc6-a12447faca29","system_id":"levelo_inurba_marseille","lat":43.30545,"lon":5.36536,"is_reserved":false,"is_disabled":false,"rental_uris":{"android":"levelo://app?vid=69434ec4-e59f-4f38-8bc6-a12447faca29","ios":"levelo://app?vid=69434ec4-e59f-4f38-8bc6-a12447faca29"},"vehicle_type_id":"4","last_reported":1752678759,"current_range_meters":17200,"station_id":"ce4bgs12rcd13ifvqcag","pricing_plan_id":"cebpf4jnsgd1na2vs0mg"},{"bike_id":"bd2dd70b-717d-4074-8732-63b52ffa4f47","system_id":"levelo_inurba_marseille","lat":43.30607,"lon":5.39239,"is_reserved":false,"is_disabled":false,"rental_uris":{"android":"levelo://app?vid=bd2dd70b-717d-4074-8732-63b52ffa4f47","ios":"levelo://app?vid=bd2dd70b-717d-4074-8732-63b52ffa4f47"},"vehicle_type_id":"4","last_reported":1752678759,"current_range_meters":17200,"station_id":"","pricing_plan_id":"cebpf4jnsgd1na2vs0mg"},{"bike_id":"3444bdc6-514a-4ba6-9650-f9073305e33d","system_id":"levelo_inurba_marseille","lat":43.29682,"lon":5.3698,"is_reserved":false,"is_disabled":false,"rental_uris":{"android":"levelo://app?vid=3444bdc6-514a-4ba6-9650-f9073305e33d","ios":"levelo://app?vid=3444bdc6-514a-4ba6-9650-f9073305e33d"},"vehicle_type_id":"4","last_reported":1752678759,"current_range_meters":17200,"station_id":"","pricing_plan_id":"cebpf4jnsgd1na2vs0mg"},{"bike_id":"9c03d140-d592-45b5-8197-a2d68db89f56","system_id":"levelo_inurba_marseille","lat":43.262147,"lon":5.374419,"is_reserved":false,"is_disabled":false,"rental_uris":{"android":"levelo://app?vid=9c03d140-d592-45b5-8197-a2d68db89f56","ios":"levelo://app?vid=9c03d140-d592-45b5-8197-a2d68db89f56"},"vehicle_type_id":"4","last_reported":1752678759,"current_range_meters":17200,"station_id":"ce4bhgp2rcd13ifvqfc0","pricing_plan_id":"cebpf4jnsgd1na2vs0mg"},{"bike_id":"34e62ee5-3131-428c-842a-9ad03de94ba5","system_id":"levelo_inurba_marseille","lat":43.22508,"lon":5.34784,"is_reserved":false,"is_disabled":false,"rental_uris":{"android":"levelo://app?vid=34e62ee5-3131-428c-842a-9ad03de94ba5","ios":"levelo://app?vid=34e62ee5-3131-428c-842a-9ad03de94ba5"},"vehicle_type_id":"4","last_reported":1752678759,"current_range_meters":17200,"station_id":"st_cvj5dfep6f1abm77gieg","pricing_plan_id":"cebpf4jnsgd1na2vs0mg"},{"bike_id":"f037781a-08bc-4746-8a4c-4bc939a127ba","system_id":"levelo_inurba_marseille","lat":43.262119,"lon":5.374384,"is_reserved":false,"is_disabled":false,"rental_uris":{"android":"levelo://app?vid=f037781a-08bc-4746-8a4c-4bc939a127ba","ios":"levelo://app?vid=f037781a-08bc-4746-8a4c-4bc939a127ba"},"vehicle_type_id":"4","last_reported":1752678759,"current_range_meters":17200,"station_id":"ce4bhgp2rcd13ifvqfc0","pricing_plan_id":"cebpf4jnsgd1na2vs0mg"},{"bike_id":"ede78f57-c381-404d-970b-0ebfde762310","system_id":"levelo_inurba_marseille","lat":43.217541,"lon":5.345954,"is_reserved":false,"is_disabled":false,"rental_uris":{"android":"levelo://app?vid=ede78f57-c381-404d-970b-0ebfde762310","ios":"levelo://app?vid=ede78f57-c381-404d-970b-0ebfde762310"},"vehicle_type_id":"4","last_reported":1752678759,"current_range_meters":17200,"station_id":"st_cvj6r9ubvosntc0bgbag","pricing_plan_id":"cebpf4jnsgd1na2vs0mg"},{"bike_id":"a12f6da9-04fc-4e48-9103-7ba957dc9d91","system_id":"levelo_inurba_marseille","lat":43.255821,"lon":5.382333,"is_reserved":false,"is_disabled":false,"rental_uris":{"android":"levelo://app?vid=a12f6da9-04fc-4e48-9103-7ba957dc9d91","ios":"levelo://app?vid=a12f6da9-04fc-4e48-9103-7ba957dc9d91"},"vehicle_type_id":"4","last_reported":1752678759,"current_range_meters":17200,"station_id":"ce4bh9p2rcd13ifvqec0","pricing_plan_id":"cebpf4jnsgd1na2vs0mg"},{"bike_id":"3254cc72-aa46-457b-8bf5-160321f143e9","system_id":"levelo_inurba_marseille","lat":43.28264,"lon":5.35057,"is_reserved":false,"is_disabled":false,"rental_uris":{"android":"levelo://app?vid=3254cc72-aa46-457b-8bf5-160321f143e9","ios":"levelo://app?vid=3254cc72-aa46-457b-8bf5-160321f143e9"},"vehicle_type_id":"4","last_reported":1752678759,"current_range_meters":17200,"station_id":"ce4bhbp2rcd13ifvqerg","pricing_plan_id":"cebpf4jnsgd1na2vs0mg"},{"bike_id":"def589f8-1927-40c7-bbb8-81631032d093","system_id":"levelo_inurba_marseille","lat":43.22496,"lon":5.34796,"is_reserved":false,"is_disabled":false,"rental_uris":{"android":"levelo://app?vid=def589f8-1927-40c7-bbb8-81631032d093","ios":"levelo://app?vid=def589f8-1927-40c7-bbb8-81631032d093"},"vehicle_type_id":"4","last_reported":1752678759,"current_range_meters":17200,"station_id":"st_cvj5dfep6f1abm77gieg","pricing_plan_id":"cebpf4jnsgd1na2vs0mg"},{"bike_id":"07f5ae19-0925-43ef-aab4-48ec58bc62b9","system_id":"levelo_inurba_marseille","lat":43.314553,"lon":5.374454,"is_reserved":false,"is_disabled":false,"rental_uris":{"android":"levelo://app?vid=07f5ae19-0925-43ef-aab4-48ec58bc62b9","ios":"levelo://app?vid=07f5ae19-0925-43ef-aab4-48ec58bc62b9"},"vehicle_type_id":"4","last_reported":1752678759,"current_range_meters":17200,"station_id":"","pricing_plan_id":"cebpf4jnsgd1na2vs0mg"},{"bike_id":"243ff24d-c224-4f6c-8766-a9a443123038","system_id":"levelo_inurba_marseille","lat":43.23957,"lon":5.366285,"is_reserved":false,"is_disabled":false,"rental_uris":{"android":"levelo://app?vid=243ff24d-c224-4f6c-8766-a9a443123038","ios":"levelo://app?vid=243ff24d-c224-4f6c-8766-a9a443123038"},"vehicle_type_id":"4","last_reported":1752678759,"current_range_meters":17200,"station_id":"ce4bhi12rcd13ifvqfp0","pricing_plan_id":"cebpf4jnsgd1na2vs0mg"},{"bike_id":"77b6f4cb-8112-49f7-9491-07088d351969","system_id":"levelo_inurba_marseille","lat":43.28707,"lon":5.37379,"is_reserved":false,"is_disabled":false,"rental_uris":{"android":"levelo://app?vid=77b6f4cb-8112-49f7-9491-07088d351969","ios":"levelo://app?vid=77b6f4cb-8112-49f7-9491-07088d351969"},"vehicle_type_id":"4","last_reported":1752678759,"current_range_meters":17200,"station_id":"ce4bh3p2rcd13ifvqdq0","pricing_plan_id":"cebpf4jnsgd1na2vs0mg"},{"bike_id":"b0913f93-a684-4140-9689-82edfbc4235d","system_id":"levelo_inurba_marseille","lat":43.21181,"lon":5.35115,"is_reserved":false,"is_disabled":false,"rental_uris":{"android":"levelo://app?vid=b0913f93-a684-4140-9689-82edfbc4235d","ios":"levelo://app?vid=b0913f93-a684-4140-9689-82edfbc4235d"},"vehicle_type_id":"4","last_reported":1752678759,"current_range_meters":17600,"station_id":"st_cvj6sg6p6f1abm77japg","pricing_plan_id":"cebpf4jnsgd1na2vs0mg"},{"bike_id":"8acdf02c-787e-4a1e-956a-5c94a3dff06a","system_id":"levelo_inurba_marseille","lat":43.28502,"lon":5.40579,"is_reserved":false,"is_disabled":false,"rental_uris":{"android":"levelo://app?vid=8acdf02c-787e-4a1e-956a-5c94a3dff06a","ios":"levelo://app?vid=8acdf02c-787e-4a1e-956a-5c94a3dff06a"},"vehicle_type_id":"4","last_reported":1752678759,"current_range_meters":17600,"station_id":"","pricing_plan_id":"cebpf4jnsgd1na2vs0mg"},{"bike_id":"81f522cb-97be-4947-9705-84fda6832d4c","system_id":"levelo_inurba_marseille","lat":43.337444,"lon":5.374475,"is_reserved":false,"is_disabled":false,"rental_uris":{"android":"levelo://app?vid=81f522cb-97be-4947-9705-84fda6832d4c","ios":"levelo://app?vid=81f522cb-97be-4947-9705-84fda6832d4c"},"vehicle_type_id":"4","last_reported":1752678759,"current_range_meters":17600,"station_id":"ce4bhh92rcd13ifvqfj0","pricing_plan_id":"cebpf4jnsgd1na2vs0mg"},{"bike_id":"e63b5917-344c-4168-9164-c939ef3e589e","system_id":"levelo_inurba_marseille","lat":43.29307,"lon":5.37167,"is_reserved":false,"is_disabled":false,"rental_uris":{"android":"levelo://app?vid=e63b5917-344c-4168-9164-c939ef3e589e","ios":"levelo://app?vid=e63b5917-344c-4168-9164-c939ef3e589e"},"vehicle_type_id":"4","last_reported":1752678759,"current_range_meters":17600,"station_id":"ce4bgh92rcd13ifvqb40","pricing_plan_id":"cebpf4jnsgd1na2vs0mg"},{"bike_id":"5a77745c-ea9e-4123-94ff-9a59c877a2f9","system_id":"levelo_inurba_marseille","lat":43.29625,"lon":5.37162,"is_reserved":false,"is_disabled":false,"rental_uris":{"android":"levelo://app?vid=5a77745c-ea9e-4123-94ff-9a59c877a2f9","ios":"levelo://app?vid=5a77745c-ea9e-4123-94ff-9a59c877a2f9"},"vehicle_type_id":"4","last_reported":1752678759,"current_range_meters":17600,"station_id":"ce4bgnh2rcd13ifvqc0g","pricing_plan_id":"cebpf4jnsgd1na2vs0mg"},{"bike_id":"29438803-d409-4b66-b08a-f7d4a1fb2d7d","system_id":"levelo_inurba_marseille","lat":43.27919,"lon":5.39576,"is_reserved":false,"is_disabled":false,"rental_uris":{"android":"levelo://app?vid=29438803-d409-4b66-b08a-f7d4a1fb2d7d","ios":"levelo://app?vid=29438803-d409-4b66-b08a-f7d4a1fb2d7d"},"vehicle_type_id":"4","last_reported":1752678759,"current_range_meters":17600,"station_id":"ce4bhf92rcd13ifvqf40","pricing_plan_id":"cebpf4jnsgd1na2vs0mg"},{"bike_id":"96011392-f348-4771-9fad-d43e460a9c38","system_id":"levelo_inurba_marseille","lat":43.24168,"lon":5.36403,"is_reserved":false,"is_disabled":false,"rental_uris":{"android":"levelo://app?vid=96011392-f348-4771-9fad-d43e460a9c38","ios":"levelo://app?vid=96011392-f348-4771-9fad-d43e460a9c38"},"vehicle_type_id":"4","last_reported":1752678759,"current_range_meters":18000,"station_id":"cpo36qri1sfpv3e86is0","pricing_plan_id":"cebpf4jnsgd1na2vs0mg"},{"bike_id":"8f9a7061-782a-48ba-8b01-4e109bf4f590","system_id":"levelo_inurba_marseille","lat":43.25001,"lon":5.38922,"is_reserved":false,"is_disabled":false,"rental_uris":{"android":"levelo://app?vid=8f9a7061-782a-48ba-8b01-4e109bf4f590","ios":"levelo://app?vid=8f9a7061-782a-48ba-8b01-4e109bf4f590"},"vehicle_type_id":"4","last_reported":1752678759,"current_range_meters":18000,"station_id":"ce4bhgp2rcd13ifvqfd0","pricing_plan_id":"cebpf4jnsgd1na2vs0mg"},{"bike_id":"75203b7a-4b9e-4b6b-9201-44c4e1860c09","system_id":"levelo_inurba_marseille","lat":43.28621,"lon":5.35106,"is_reserved":false,"is_disabled":false,"rental_uris":{"android":"levelo://app?vid=75203b7a-4b9e-4b6b-9201-44c4e1860c09","ios":"levelo://app?vid=75203b7a-4b9e-4b6b-9201-44c4e1860c09"},"vehicle_type_id":"4","last_reported":1752678759,"current_range_meters":18000,"station_id":"ce4bhch2rcd13ifvqeug","pricing_plan_id":"cebpf4jnsgd1na2vs0mg"},{"bike_id":"0113d280-522b-4679-bde9-135a6a8591f2","system_id":"levelo_inurba_marseille","lat":43.21189,"lon":5.35071,"is_reserved":false,"is_disabled":false,"rental_uris":{"android":"levelo://app?vid=0113d280-522b-4679-bde9-135a6a8591f2","ios":"levelo://app?vid=0113d280-522b-4679-bde9-135a6a8591f2"},"vehicle_type_id":"4","last_reported":1752678759,"current_range_meters":18000,"station_id":"st_cvj6sg6p6f1abm77japg","pricing_plan_id":"cebpf4jnsgd1na2vs0mg"},{"bike_id":"296b1609-c663-4352-96f5-5b41541d782a","system_id":"levelo_inurba_marseille","lat":43.29877,"lon":5.39731,"is_reserved":false,"is_disabled":false,"rental_uris":{"android":"levelo://app?vid=296b1609-c663-4352-96f5-5b41541d782a","ios":"levelo://app?vid=296b1609-c663-4352-96f5-5b41541d782a"},"vehicle_type_id":"4","last_reported":1752678759,"current_range_meters":18000,"station_id":"ce4bh0h2rcd13ifvqd50","pricing_plan_id":"cebpf4jnsgd1na2vs0mg"},{"bike_id":"f7947e96-4d95-4c2a-b94f-12bda140a7ff","system_id":"levelo_inurba_marseille","lat":43.28429,"lon":5.34983,"is_reserved":false,"is_disabled":false,"rental_uris":{"android":"levelo://app?vid=f7947e96-4d95-4c2a-b94f-12bda140a7ff","ios":"levelo://app?vid=f7947e96-4d95-4c2a-b94f-12bda140a7ff"},"vehicle_type_id":"4","last_reported":1752678759,"current_range_meters":18000,"station_id":"ce4bhbh2rcd13ifvqepg","pricing_plan_id":"cebpf4jnsgd1na2vs0mg"},{"bike_id":"1da7929e-d1d9-4147-a7cc-6a8b3faa7341","system_id":"levelo_inurba_marseille","lat":43.303722,"lon":5.424909,"is_reserved":false,"is_disabled":false,"rental_uris":{"android":"levelo://app?vid=1da7929e-d1d9-4147-a7cc-6a8b3faa7341","ios":"levelo://app?vid=1da7929e-d1d9-4147-a7cc-6a8b3faa7341"},"vehicle_type_id":"4","last_reported":1752678759,"current_range_meters":18000,"station_id":"ce4bhoh2rcd13ifvqh6g","pricing_plan_id":"cebpf4jnsgd1na2vs0mg"},{"bike_id":"3b4a2838-c5dc-4963-9eb2-0ed264a6f8ac","system_id":"levelo_inurba_marseille","lat":43.32086,"lon":5.41548,"is_reserved":false,"is_disabled":false,"rental_uris":{"android":"levelo://app?vid=3b4a2838-c5dc-4963-9eb2-0ed264a6f8ac","ios":"levelo://app?vid=3b4a2838-c5dc-4963-9eb2-0ed264a6f8ac"},"vehicle_type_id":"4","last_reported":1752678759,"current_range_meters":18000,"station_id":"ce4bhq92rcd13ifvqhkg","pricing_plan_id":"cebpf4jnsgd1na2vs0mg"},{"bike_id":"0feca23e-d248-45b9-b676-8aec975a6ea0","system_id":"levelo_inurba_marseille","lat":43.28406,"lon":5.3499,"is_reserved":false,"is_disabled":false,"rental_uris":{"android":"levelo://app?vid=0feca23e-d248-45b9-b676-8aec975a6ea0","ios":"levelo://app?vid=0feca23e-d248-45b9-b676-8aec975a6ea0"},"vehicle_type_id":"4","last_reported":1752678759,"current_range_meters":18000,"station_id":"ce4bhbh2rcd13ifvqepg","pricing_plan_id":"cebpf4jnsgd1na2vs0mg"},{"bike_id":"1a1de22c-864f-4087-990e-227151d55abc","system_id":"levelo_inurba_marseille","lat":43.21186,"lon":5.35073,"is_reserved":false,"is_disabled":false,"rental_uris":{"android":"levelo://app?vid=1a1de22c-864f-4087-990e-227151d55abc","ios":"levelo://app?vid=1a1de22c-864f-4087-990e-227151d55abc"},"vehicle_type_id":"4","last_reported":1752678759,"current_range_meters":18800,"station_id":"st_cvj6sg6p6f1abm77japg","pricing_plan_id":"cebpf4jnsgd1na2vs0mg"},{"bike_id":"15e281ac-ac0d-4b6f-b426-fa5c002bd7ee","system_id":"levelo_inurba_marseille","lat":43.27673,"lon":5.38903,"is_reserved":false,"is_disabled":true,"rental_uris":{"android":"levelo://app?vid=15e281ac-ac0d-4b6f-b426-fa5c002bd7ee","ios":"levelo://app?vid=15e281ac-ac0d-4b6f-b426-fa5c002bd7ee"},"vehicle_type_id":"4","last_reported":1752678759,"current_range_meters":18800,"station_id":"ce4bhi12rcd13ifvqfo0","pricing_plan_id":"cebpf4jnsgd1na2vs0mg"},{"bike_id":"f6e67167-3686-4cae-82da-4610049996dc","system_id":"levelo_inurba_marseille","lat":43.26956,"lon":5.38536,"is_reserved":false,"is_disabled":false,"rental_uris":{"android":"levelo://app?vid=f6e67167-3686-4cae-82da-4610049996dc","ios":"levelo://app?vid=f6e67167-3686-4cae-82da-4610049996dc"},"vehicle_type_id":"4","last_reported":1752678759,"current_range_meters":18800,"station_id":"","pricing_plan_id":"cebpf4jnsgd1na2vs0mg"},{"bike_id":"0a27f13d-d6dd-47fd-80ce-419c7457af94","system_id":"levelo_inurba_marseille","lat":43.2904,"lon":5.35928,"is_reserved":false,"is_disabled":false,"rental_uris":{"android":"levelo://app?vid=0a27f13d-d6dd-47fd-80ce-419c7457af94","ios":"levelo://app?vid=0a27f13d-d6dd-47fd-80ce-419c7457af94"},"vehicle_type_id":"4","last_reported":1752678759,"current_range_meters":18800,"station_id":"ce4bha92rcd13ifvqeg0","pricing_plan_id":"cebpf4jnsgd1na2vs0mg"},{"bike_id":"7889b704-b301-4414-b00b-fe99422cbed4","system_id":"levelo_inurba_marseille","lat":43.3234,"lon":5.40632,"is_reserved":false,"is_disabled":false,"rental_uris":{"android":"levelo://app?vid=7889b704-b301-4414-b00b-fe99422cbed4","ios":"levelo://app?vid=7889b704-b301-4414-b00b-fe99422cbed4"},"vehicle_type_id":"4","last_reported":1752678759,"current_range_meters":18800,"station_id":"ce4bhq92rcd13ifvqhjg","pricing_plan_id":"cebpf4jnsgd1na2vs0mg"},{"bike_id":"f5bf7f24-c6ba-4b60-892d-d0f7a8f26b77","system_id":"levelo_inurba_marseille","lat":43.254943,"lon":5.376457,"is_reserved":false,"is_disabled":false,"rental_uris":{"android":"levelo://app?vid=f5bf7f24-c6ba-4b60-892d-d0f7a8f26b77","ios":"levelo://app?vid=f5bf7f24-c6ba-4b60-892d-d0f7a8f26b77"},"vehicle_type_id":"4","last_reported":1752678759,"current_range_meters":18800,"station_id":"ce4bhh12rcd13ifvqff0","pricing_plan_id":"cebpf4jnsgd1na2vs0mg"},{"bike_id":"3e5bf894-f1aa-4028-9a38-419897b68ac3","system_id":"levelo_inurba_marseille","lat":43.230739,"lon":5.354775,"is_reserved":false,"is_disabled":false,"rental_uris":{"android":"levelo://app?vid=3e5bf894-f1aa-4028-9a38-419897b68ac3","ios":"levelo://app?vid=3e5bf894-f1aa-4028-9a38-419897b68ac3"},"vehicle_type_id":"4","last_reported":1752678759,"current_range_meters":18800,"station_id":"cpo3342slgdg3j2ifvpg","pricing_plan_id":"cebpf4jnsgd1na2vs0mg"},{"bike_id":"c4d7c0d3-3fa0-42f9-a775-3626a94c8e22","system_id":"levelo_inurba_marseille","lat":43.27367,"lon":5.36246,"is_reserved":false,"is_disabled":false,"rental_uris":{"android":"levelo://app?vid=c4d7c0d3-3fa0-42f9-a775-3626a94c8e22","ios":"levelo://app?vid=c4d7c0d3-3fa0-42f9-a775-3626a94c8e22"},"vehicle_type_id":"4","last_reported":1752678759,"current_range_meters":18800,"station_id":"ce4bhbh2rcd13ifvqeo0","pricing_plan_id":"cebpf4jnsgd1na2vs0mg"},{"bike_id":"79806c3a-6c29-4913-9ec9-93da135cc77d","system_id":"levelo_inurba_marseille","lat":43.33789,"lon":5.3743,"is_reserved":false,"is_disabled":false,"rental_uris":{"android":"levelo://app?vid=79806c3a-6c29-4913-9ec9-93da135cc77d","ios":"levelo://app?vid=79806c3a-6c29-4913-9ec9-93da135cc77d"},"vehicle_type_id":"4","last_reported":1752678759,"current_range_meters":18800,"station_id":"","pricing_plan_id":"cebpf4jnsgd1na2vs0mg"},{"bike_id":"597a7848-1263-403d-aa9d-e28176310e4d","system_id":"levelo_inurba_marseille","lat":43.23196,"lon":5.35552,"is_reserved":false,"is_disabled":false,"rental_uris":{"android":"levelo://app?vid=597a7848-1263-403d-aa9d-e28176310e4d","ios":"levelo://app?vid=597a7848-1263-403d-aa9d-e28176310e4d"},"vehicle_type_id":"4","last_reported":1752678759,"current_range_meters":18800,"station_id":"ce4bhu92rcd13ifvqi70","pricing_plan_id":"cebpf4jnsgd1na2vs0mg"},{"bike_id":"f8389e23-9aab-44ba-8036-c0cc40d59865","system_id":"levelo_inurba_marseille","lat":43.28358,"lon":5.38101,"is_reserved":false,"is_disabled":false,"rental_uris":{"android":"levelo://app?vid=f8389e23-9aab-44ba-8036-c0cc40d59865","ios":"levelo://app?vid=f8389e23-9aab-44ba-8036-c0cc40d59865"},"vehicle_type_id":"4","last_reported":1752678759,"current_range_meters":18800,"station_id":"ce4bh412rcd13ifvqdr0","pricing_plan_id":"cebpf4jnsgd1na2vs0mg"},{"bike_id":"e0b5d196-2f71-49fb-8402-6f9e1c0ab9fb","system_id":"levelo_inurba_marseille","lat":43.27383,"lon":5.36262,"is_reserved":false,"is_disabled":false,"rental_uris":{"android":"levelo://app?vid=e0b5d196-2f71-49fb-8402-6f9e1c0ab9fb","ios":"levelo://app?vid=e0b5d196-2f71-49fb-8402-6f9e1c0ab9fb"},"vehicle_type_id":"4","last_reported":1752678759,"current_range_meters":18800,"station_id":"ce4bhbh2rcd13ifvqeo0","pricing_plan_id":"cebpf4jnsgd1na2vs0mg"},{"bike_id":"9bc14192-09d5-4496-8902-0df02c871cb7","system_id":"levelo_inurba_marseille","lat":43.30135,"lon":5.39856,"is_reserved":false,"is_disabled":false,"rental_uris":{"android":"levelo://app?vid=9bc14192-09d5-4496-8902-0df02c871cb7","ios":"levelo://app?vid=9bc14192-09d5-4496-8902-0df02c871cb7"},"vehicle_type_id":"4","last_reported":1752678759,"current_range_meters":18800,"station_id":"ce4bh0h2rcd13ifvqd40","pricing_plan_id":"cebpf4jnsgd1na2vs0mg"},{"bike_id":"6e310782-3431-490c-b1b7-7a164b170a0c","system_id":"levelo_inurba_marseille","lat":43.298819,"lon":5.363263,"is_reserved":false,"is_disabled":false,"rental_uris":{"android":"levelo://app?vid=6e310782-3431-490c-b1b7-7a164b170a0c","ios":"levelo://app?vid=6e310782-3431-490c-b1b7-7a164b170a0c"},"vehicle_type_id":"4","last_reported":1752678759,"current_range_meters":18800,"station_id":"","pricing_plan_id":"cebpf4jnsgd1na2vs0mg"},{"bike_id":"fb525274-8547-4e3a-b56c-c24363ba8d3c","system_id":"levelo_inurba_marseille","lat":43.25501,"lon":5.37654,"is_reserved":false,"is_disabled":false,"rental_uris":{"android":"levelo://app?vid=fb525274-8547-4e3a-b56c-c24363ba8d3c","ios":"levelo://app?vid=fb525274-8547-4e3a-b56c-c24363ba8d3c"},"vehicle_type_id":"4","last_reported":1752678759,"current_range_meters":18800,"station_id":"ce4bhh12rcd13ifvqff0","pricing_plan_id":"cebpf4jnsgd1na2vs0mg"},{"bike_id":"8716a6dc-edc9-4ce8-b2db-da4e68c247be","system_id":"levelo_inurba_marseille","lat":43.29541,"lon":5.38544,"is_reserved":false,"is_disabled":true,"rental_uris":{"android":"levelo://app?vid=8716a6dc-edc9-4ce8-b2db-da4e68c247be","ios":"levelo://app?vid=8716a6dc-edc9-4ce8-b2db-da4e68c247be"},"vehicle_type_id":"4","last_reported":1752678759,"current_range_meters":19200,"station_id":"ce4bgih2rcd13ifvqba0","pricing_plan_id":"cebpf4jnsgd1na2vs0mg"},{"bike_id":"51d323e7-ee42-4714-968e-a598df9005c5","system_id":"levelo_inurba_marseille","lat":43.2971,"lon":5.36589,"is_reserved":false,"is_disabled":false,"rental_uris":{"android":"levelo://app?vid=51d323e7-ee42-4714-968e-a598df9005c5","ios":"levelo://app?vid=51d323e7-ee42-4714-968e-a598df9005c5"},"vehicle_type_id":"4","last_reported":1752678759,"current_range_meters":19200,"station_id":"ce4bgn12rcd13ifvqbt0","pricing_plan_id":"cebpf4jnsgd1na2vs0mg"},{"bike_id":"fd2d3058-1bfd-4d01-8f1a-659277b7a258","system_id":"levelo_inurba_marseille","lat":43.299348,"lon":5.365584,"is_reserved":false,"is_disabled":false,"rental_uris":{"android":"levelo://app?vid=fd2d3058-1bfd-4d01-8f1a-659277b7a258","ios":"levelo://app?vid=fd2d3058-1bfd-4d01-8f1a-659277b7a258"},"vehicle_type_id":"4","last_reported":1752678759,"current_range_meters":19200,"station_id":"ce4bgm92rcd13ifvqbr0","pricing_plan_id":"cebpf4jnsgd1na2vs0mg"},{"bike_id":"601d63f5-45ba-444b-ae10-7d4ee6339f76","system_id":"levelo_inurba_marseille","lat":43.29895,"lon":5.43655,"is_reserved":false,"is_disabled":false,"rental_uris":{"android":"levelo://app?vid=601d63f5-45ba-444b-ae10-7d4ee6339f76","ios":"levelo://app?vid=601d63f5-45ba-444b-ae10-7d4ee6339f76"},"vehicle_type_id":"4","last_reported":1752678759,"current_range_meters":19200,"station_id":"ce4bhpp2rcd13ifvqhfg","pricing_plan_id":"cebpf4jnsgd1na2vs0mg"},{"bike_id":"855ff8f9-641c-41af-8e00-5d71e1a04e0f","system_id":"levelo_inurba_marseille","lat":43.22522,"lon":5.34761,"is_reserved":false,"is_disabled":false,"rental_uris":{"android":"levelo://app?vid=855ff8f9-641c-41af-8e00-5d71e1a04e0f","ios":"levelo://app?vid=855ff8f9-641c-41af-8e00-5d71e1a04e0f"},"vehicle_type_id":"4","last_reported":1752678759,"current_range_meters":19200,"station_id":"st_cvj5dfep6f1abm77gieg","pricing_plan_id":"cebpf4jnsgd1na2vs0mg"},{"bike_id":"1afda29e-13a3-44a3-9ad6-8d8618247a86","system_id":"levelo_inurba_marseille","lat":43.30126,"lon":5.38785,"is_reserved":false,"is_disabled":false,"rental_uris":{"android":"levelo://app?vid=1afda29e-13a3-44a3-9ad6-8d8618247a86","ios":"levelo://app?vid=1afda29e-13a3-44a3-9ad6-8d8618247a86"},"vehicle_type_id":"4","last_reported":1752678759,"current_range_meters":19200,"station_id":"ce4bghh2rcd13ifvqb60","pricing_plan_id":"cebpf4jnsgd1na2vs0mg"},{"bike_id":"9bafdc35-d4f9-4adf-b430-76595cda9ed5","system_id":"levelo_inurba_marseille","lat":43.24818,"lon":5.37459,"is_reserved":false,"is_disabled":false,"rental_uris":{"android":"levelo://app?vid=9bafdc35-d4f9-4adf-b430-76595cda9ed5","ios":"levelo://app?vid=9bafdc35-d4f9-4adf-b430-76595cda9ed5"},"vehicle_type_id":"4","last_reported":1752678759,"current_range_meters":19200,"station_id":"ce4bhgh2rcd13ifvqfb0","pricing_plan_id":"cebpf4jnsgd1na2vs0mg"},{"bike_id":"63362215-e6b0-499c-9a27-42bef6c7836f","system_id":"levelo_inurba_marseille","lat":43.21746,"lon":5.34597,"is_reserved":false,"is_disabled":false,"rental_uris":{"android":"levelo://app?vid=63362215-e6b0-499c-9a27-42bef6c7836f","ios":"levelo://app?vid=63362215-e6b0-499c-9a27-42bef6c7836f"},"vehicle_type_id":"4","last_reported":1752678759,"current_range_meters":19200,"station_id":"st_cvj6r9ubvosntc0bgbag","pricing_plan_id":"cebpf4jnsgd1na2vs0mg"},{"bike_id":"0def44e1-c1e0-408b-bc83-72838c29c860","system_id":"levelo_inurba_marseille","lat":43.282573,"lon":5.350677,"is_reserved":false,"is_disabled":false,"rental_uris":{"android":"levelo://app?vid=0def44e1-c1e0-408b-bc83-72838c29c860","ios":"levelo://app?vid=0def44e1-c1e0-408b-bc83-72838c29c860"},"vehicle_type_id":"4","last_reported":1752678759,"current_range_meters":19200,"station_id":"ce4bhbp2rcd13ifvqerg","pricing_plan_id":"cebpf4jnsgd1na2vs0mg"},{"bike_id":"2ac93549-5c94-4228-8eea-782a21384d10","system_id":"levelo_inurba_marseille","lat":43.29634,"lon":5.37793,"is_reserved":false,"is_disabled":false,"rental_uris":{"android":"levelo://app?vid=2ac93549-5c94-4228-8eea-782a21384d10","ios":"levelo://app?vid=2ac93549-5c94-4228-8eea-782a21384d10"},"vehicle_type_id":"4","last_reported":1752678759,"current_range_meters":19200,"station_id":"","pricing_plan_id":"cebpf4jnsgd1na2vs0mg"},{"bike_id":"a0266c46-1add-49ad-922f-eadd0e201401","system_id":"levelo_inurba_marseille","lat":43.29374,"lon":5.37824,"is_reserved":false,"is_disabled":false,"rental_uris":{"android":"levelo://app?vid=a0266c46-1add-49ad-922f-eadd0e201401","ios":"levelo://app?vid=a0266c46-1add-49ad-922f-eadd0e201401"},"vehicle_type_id":"4","last_reported":1752678759,"current_range_meters":19200,"station_id":"ce4bgjh2rcd13ifvqbf0","pricing_plan_id":"cebpf4jnsgd1na2vs0mg"},{"bike_id":"33cfb75e-0a10-4832-bd8a-58f02f8f14f8","system_id":"levelo_inurba_marseille","lat":43.26232,"lon":5.37898,"is_reserved":false,"is_disabled":false,"rental_uris":{"android":"levelo://app?vid=33cfb75e-0a10-4832-bd8a-58f02f8f14f8","ios":"levelo://app?vid=33cfb75e-0a10-4832-bd8a-58f02f8f14f8"},"vehicle_type_id":"4","last_reported":1752678759,"current_range_meters":19600,"station_id":"ce4bhjp2rcd13ifvqg90","pricing_plan_id":"cebpf4jnsgd1na2vs0mg"},{"bike_id":"2e52c340-5a15-427d-9501-98b544c14876","system_id":"levelo_inurba_marseille","lat":43.2957,"lon":5.399637,"is_reserved":false,"is_disabled":true,"rental_uris":{"android":"levelo://app?vid=2e52c340-5a15-427d-9501-98b544c14876","ios":"levelo://app?vid=2e52c340-5a15-427d-9501-98b544c14876"},"vehicle_type_id":"4","last_reported":1752678759,"current_range_meters":19600,"station_id":"ce4bh312rcd13ifvqdj0","pricing_plan_id":"cebpf4jnsgd1na2vs0mg"},{"bike_id":"cb52901d-d6e3-4f1d-a17f-49c6b6d219f9","system_id":"levelo_inurba_marseille","lat":43.30206,"lon":5.39452,"is_reserved":false,"is_disabled":false,"rental_uris":{"android":"levelo://app?vid=cb52901d-d6e3-4f1d-a17f-49c6b6d219f9","ios":"levelo://app?vid=cb52901d-d6e3-4f1d-a17f-49c6b6d219f9"},"vehicle_type_id":"4","last_reported":1752678759,"current_range_meters":19600,"station_id":"ce4bh0p2rcd13ifvqd70","pricing_plan_id":"cebpf4jnsgd1na2vs0mg"},{"bike_id":"1dee3045-62aa-4e3c-8e0e-cd35af9324b2","system_id":"levelo_inurba_marseille","lat":43.23067,"lon":5.35495,"is_reserved":false,"is_disabled":false,"rental_uris":{"android":"levelo://app?vid=1dee3045-62aa-4e3c-8e0e-cd35af9324b2","ios":"levelo://app?vid=1dee3045-62aa-4e3c-8e0e-cd35af9324b2"},"vehicle_type_id":"4","last_reported":1752678759,"current_range_meters":19600,"station_id":"cpo3342slgdg3j2ifvpg","pricing_plan_id":"cebpf4jnsgd1na2vs0mg"},{"bike_id":"da24c495-bf0f-494f-9521-4e687db6d329","system_id":"levelo_inurba_marseille","lat":43.22524,"lon":5.34761,"is_reserved":false,"is_disabled":false,"rental_uris":{"android":"levelo://app?vid=da24c495-bf0f-494f-9521-4e687db6d329","ios":"levelo://app?vid=da24c495-bf0f-494f-9521-4e687db6d329"},"vehicle_type_id":"4","last_reported":1752678759,"current_range_meters":19600,"station_id":"st_cvj5dfep6f1abm77gieg","pricing_plan_id":"cebpf4jnsgd1na2vs0mg"},{"bike_id":"58f12626-7763-4c49-b2e3-71b1a185f4e1","system_id":"levelo_inurba_marseille","lat":43.27381,"lon":5.36262,"is_reserved":false,"is_disabled":false,"rental_uris":{"android":"levelo://app?vid=58f12626-7763-4c49-b2e3-71b1a185f4e1","ios":"levelo://app?vid=58f12626-7763-4c49-b2e3-71b1a185f4e1"},"vehicle_type_id":"4","last_reported":1752678759,"current_range_meters":19600,"station_id":"ce4bhbh2rcd13ifvqeo0","pricing_plan_id":"cebpf4jnsgd1na2vs0mg"},{"bike_id":"1af876d9-6e0a-45cc-bed9-deae0b87ca9c","system_id":"levelo_inurba_marseille","lat":43.21181,"lon":5.35066,"is_reserved":false,"is_disabled":false,"rental_uris":{"android":"levelo://app?vid=1af876d9-6e0a-45cc-bed9-deae0b87ca9c","ios":"levelo://app?vid=1af876d9-6e0a-45cc-bed9-deae0b87ca9c"},"vehicle_type_id":"4","last_reported":1752678759,"current_range_meters":19600,"station_id":"st_cvj6sg6p6f1abm77japg","pricing_plan_id":"cebpf4jnsgd1na2vs0mg"},{"bike_id":"531dca68-8617-41b0-a6cd-abffc94e1d45","system_id":"levelo_inurba_marseille","lat":43.31205,"lon":5.37317,"is_reserved":false,"is_disabled":false,"rental_uris":{"android":"levelo://app?vid=531dca68-8617-41b0-a6cd-abffc94e1d45","ios":"levelo://app?vid=531dca68-8617-41b0-a6cd-abffc94e1d45"},"vehicle_type_id":"4","last_reported":1752678759,"current_range_meters":19600,"station_id":"","pricing_plan_id":"cebpf4jnsgd1na2vs0mg"},{"bike_id":"e5f51449-327c-4a36-b1e4-9180e51f9b99","system_id":"levelo_inurba_marseille","lat":43.21747,"lon":5.34612,"is_reserved":false,"is_disabled":false,"rental_uris":{"android":"levelo://app?vid=e5f51449-327c-4a36-b1e4-9180e51f9b99","ios":"levelo://app?vid=e5f51449-327c-4a36-b1e4-9180e51f9b99"},"vehicle_type_id":"4","last_reported":1752678759,"current_range_meters":19600,"station_id":"st_cvj6r9ubvosntc0bgbag","pricing_plan_id":"cebpf4jnsgd1na2vs0mg"},{"bike_id":"6004c112-f520-4dfe-a512-dd493f1d1b57","system_id":"levelo_inurba_marseille","lat":43.28264,"lon":5.35055,"is_reserved":false,"is_disabled":false,"rental_uris":{"android":"levelo://app?vid=6004c112-f520-4dfe-a512-dd493f1d1b57","ios":"levelo://app?vid=6004c112-f520-4dfe-a512-dd493f1d1b57"},"vehicle_type_id":"4","last_reported":1752678759,"current_range_meters":19600,"station_id":"ce4bhbp2rcd13ifvqerg","pricing_plan_id":"cebpf4jnsgd1na2vs0mg"},{"bike_id":"2779a935-705c-4593-9426-693fa1d4b8c6","system_id":"levelo_inurba_marseille","lat":43.21195,"lon":5.35064,"is_reserved":false,"is_disabled":false,"rental_uris":{"android":"levelo://app?vid=2779a935-705c-4593-9426-693fa1d4b8c6","ios":"levelo://app?vid=2779a935-705c-4593-9426-693fa1d4b8c6"},"vehicle_type_id":"4","last_reported":1752678759,"current_range_meters":19600,"station_id":"st_cvj6sg6p6f1abm77japg","pricing_plan_id":"cebpf4jnsgd1na2vs0mg"},{"bike_id":"b778da7d-e461-450d-96d3-142fe76fe4ff","system_id":"levelo_inurba_marseille","lat":43.25496,"lon":5.37647,"is_reserved":false,"is_disabled":false,"rental_uris":{"android":"levelo://app?vid=b778da7d-e461-450d-96d3-142fe76fe4ff","ios":"levelo://app?vid=b778da7d-e461-450d-96d3-142fe76fe4ff"},"vehicle_type_id":"4","last_reported":1752678759,"current_range_meters":20000,"station_id":"ce4bhh12rcd13ifvqff0","pricing_plan_id":"cebpf4jnsgd1na2vs0mg"},{"bike_id":"80f24f7c-2f60-44c1-984d-9e9e9000c36b","system_id":"levelo_inurba_marseille","lat":43.23967,"lon":5.36641,"is_reserved":false,"is_disabled":false,"rental_uris":{"android":"levelo://app?vid=80f24f7c-2f60-44c1-984d-9e9e9000c36b","ios":"levelo://app?vid=80f24f7c-2f60-44c1-984d-9e9e9000c36b"},"vehicle_type_id":"4","last_reported":1752678759,"current_range_meters":20000,"station_id":"ce4bhi12rcd13ifvqfp0","pricing_plan_id":"cebpf4jnsgd1na2vs0mg"},{"bike_id":"e2dd5751-fc8b-4ea7-bd42-1f86e18aea2a","system_id":"levelo_inurba_marseille","lat":43.27917,"lon":5.39577,"is_reserved":false,"is_disabled":false,"rental_uris":{"android":"levelo://app?vid=e2dd5751-fc8b-4ea7-bd42-1f86e18aea2a","ios":"levelo://app?vid=e2dd5751-fc8b-4ea7-bd42-1f86e18aea2a"},"vehicle_type_id":"4","last_reported":1752678759,"current_range_meters":20000,"station_id":"ce4bhf92rcd13ifvqf40","pricing_plan_id":"cebpf4jnsgd1na2vs0mg"},{"bike_id":"370b5495-4112-49cd-80ba-c31203562c50","system_id":"levelo_inurba_marseille","lat":43.303167,"lon":5.379227,"is_reserved":false,"is_disabled":false,"rental_uris":{"android":"levelo://app?vid=370b5495-4112-49cd-80ba-c31203562c50","ios":"levelo://app?vid=370b5495-4112-49cd-80ba-c31203562c50"},"vehicle_type_id":"4","last_reported":1752678759,"current_range_meters":20000,"station_id":"","pricing_plan_id":"cebpf4jnsgd1na2vs0mg"},{"bike_id":"a092d05c-8017-44f5-ba8a-35792463d6a3","system_id":"levelo_inurba_marseille","lat":43.22524,"lon":5.34783,"is_reserved":false,"is_disabled":false,"rental_uris":{"android":"levelo://app?vid=a092d05c-8017-44f5-ba8a-35792463d6a3","ios":"levelo://app?vid=a092d05c-8017-44f5-ba8a-35792463d6a3"},"vehicle_type_id":"4","last_reported":1752678759,"current_range_meters":20000,"station_id":"st_cvj5dfep6f1abm77gieg","pricing_plan_id":"cebpf4jnsgd1na2vs0mg"},{"bike_id":"9c40433c-c45a-4892-ab67-22c88d8b5dac","system_id":"levelo_inurba_marseille","lat":43.28156,"lon":5.42643,"is_reserved":false,"is_disabled":false,"rental_uris":{"android":"levelo://app?vid=9c40433c-c45a-4892-ab67-22c88d8b5dac","ios":"levelo://app?vid=9c40433c-c45a-4892-ab67-22c88d8b5dac"},"vehicle_type_id":"4","last_reported":1752678759,"current_range_meters":20000,"station_id":"ce4bhnh2rcd13ifvqgug","pricing_plan_id":"cebpf4jnsgd1na2vs0mg"},{"bike_id":"da891840-0cec-4ccc-961c-48903736c6fa","system_id":"levelo_inurba_marseille","lat":43.31139,"lon":5.37692,"is_reserved":false,"is_disabled":false,"rental_uris":{"android":"levelo://app?vid=da891840-0cec-4ccc-961c-48903736c6fa","ios":"levelo://app?vid=da891840-0cec-4ccc-961c-48903736c6fa"},"vehicle_type_id":"4","last_reported":1752678759,"current_range_meters":20000,"station_id":"","pricing_plan_id":"cebpf4jnsgd1na2vs0mg"},{"bike_id":"ea3b0350-7574-4aaf-b8b9-db1a524fc48b","system_id":"levelo_inurba_marseille","lat":43.29945,"lon":5.36544,"is_reserved":false,"is_disabled":false,"rental_uris":{"android":"levelo://app?vid=ea3b0350-7574-4aaf-b8b9-db1a524fc48b","ios":"levelo://app?vid=ea3b0350-7574-4aaf-b8b9-db1a524fc48b"},"vehicle_type_id":"4","last_reported":1752678759,"current_range_meters":20000,"station_id":"ce4bgm92rcd13ifvqbr0","pricing_plan_id":"cebpf4jnsgd1na2vs0mg"},{"bike_id":"38264f39-519e-431d-a8e7-327e430cfc9f","system_id":"levelo_inurba_marseille","lat":43.25566,"lon":5.37261,"is_reserved":false,"is_disabled":false,"rental_uris":{"android":"levelo://app?vid=38264f39-519e-431d-a8e7-327e430cfc9f","ios":"levelo://app?vid=38264f39-519e-431d-a8e7-327e430cfc9f"},"vehicle_type_id":"4","last_reported":1752678759,"current_range_meters":20000,"station_id":"","pricing_plan_id":"cebpf4jnsgd1na2vs0mg"},{"bike_id":"e02bf6aa-747e-493c-b6d2-76965ea485ef","system_id":"levelo_inurba_marseille","lat":43.295723,"lon":5.375196,"is_reserved":false,"is_disabled":false,"rental_uris":{"android":"levelo://app?vid=e02bf6aa-747e-493c-b6d2-76965ea485ef","ios":"levelo://app?vid=e02bf6aa-747e-493c-b6d2-76965ea485ef"},"vehicle_type_id":"4","last_reported":1752678759,"current_range_meters":20000,"station_id":"","pricing_plan_id":"cebpf4jnsgd1na2vs0mg"},{"bike_id":"661e84fc-0a09-4456-9a81-eb895822c3c8","system_id":"levelo_inurba_marseille","lat":43.24072,"lon":5.37764,"is_reserved":false,"is_disabled":false,"rental_uris":{"android":"levelo://app?vid=661e84fc-0a09-4456-9a81-eb895822c3c8","ios":"levelo://app?vid=661e84fc-0a09-4456-9a81-eb895822c3c8"},"vehicle_type_id":"4","last_reported":1752678759,"current_range_meters":20000,"station_id":"ce4bhnp2rcd13ifvqgvg","pricing_plan_id":"cebpf4jnsgd1na2vs0mg"},{"bike_id":"a691021c-178d-46a5-b21b-44262239ed6f","system_id":"levelo_inurba_marseille","lat":43.28731,"lon":5.37925,"is_reserved":false,"is_disabled":false,"rental_uris":{"android":"levelo://app?vid=a691021c-178d-46a5-b21b-44262239ed6f","ios":"levelo://app?vid=a691021c-178d-46a5-b21b-44262239ed6f"},"vehicle_type_id":"4","last_reported":1752678759,"current_range_meters":20000,"station_id":"ce4bh9p2rcd13ifvqec0","pricing_plan_id":"cebpf4jnsgd1na2vs0mg"},{"bike_id":"582d5e63-4946-44ff-8da5-cdf3e52be7b6","system_id":"levelo_inurba_marseille","lat":43.27027,"lon":5.4026,"is_reserved":false,"is_disabled":false,"rental_uris":{"android":"levelo://app?vid=582d5e63-4946-44ff-8da5-cdf3e52be7b6","ios":"levelo://app?vid=582d5e63-4946-44ff-8da5-cdf3e52be7b6"},"vehicle_type_id":"4","last_reported":1752678759,"current_range_meters":20000,"station_id":"ce4bhk92rcd13ifvqgc0","pricing_plan_id":"cebpf4jnsgd1na2vs0mg"},{"bike_id":"0ab8b451-ef4c-490f-a332-35d570e13ad1","system_id":"levelo_inurba_marseille","lat":43.30436,"lon":5.38872,"is_reserved":false,"is_disabled":false,"rental_uris":{"android":"levelo://app?vid=0ab8b451-ef4c-490f-a332-35d570e13ad1","ios":"levelo://app?vid=0ab8b451-ef4c-490f-a332-35d570e13ad1"},"vehicle_type_id":"4","last_reported":1752678759,"current_range_meters":20000,"station_id":"ce4bgk12rcd13ifvqbi0","pricing_plan_id":"cebpf4jnsgd1na2vs0mg"},{"bike_id":"81f88721-00d0-431c-83bf-446e11578408","system_id":"levelo_inurba_marseille","lat":43.22498,"lon":5.34777,"is_reserved":false,"is_disabled":false,"rental_uris":{"android":"levelo://app?vid=81f88721-00d0-431c-83bf-446e11578408","ios":"levelo://app?vid=81f88721-00d0-431c-83bf-446e11578408"},"vehicle_type_id":"4","last_reported":1752678759,"current_range_meters":20000,"station_id":"st_cvj5dfep6f1abm77gieg","pricing_plan_id":"cebpf4jnsgd1na2vs0mg"},{"bike_id":"a75d2eae-2284-4a25-8af0-ebc4b5fb32ca","system_id":"levelo_inurba_marseille","lat":43.21747,"lon":5.34614,"is_reserved":false,"is_disabled":false,"rental_uris":{"android":"levelo://app?vid=a75d2eae-2284-4a25-8af0-ebc4b5fb32ca","ios":"levelo://app?vid=a75d2eae-2284-4a25-8af0-ebc4b5fb32ca"},"vehicle_type_id":"4","last_reported":1752678759,"current_range_meters":20400,"station_id":"st_cvj6r9ubvosntc0bgbag","pricing_plan_id":"cebpf4jnsgd1na2vs0mg"},{"bike_id":"18f7e584-6752-4217-98a4-3afef6c68b28","system_id":"levelo_inurba_marseille","lat":43.309308,"lon":5.401614,"is_reserved":false,"is_disabled":false,"rental_uris":{"android":"levelo://app?vid=18f7e584-6752-4217-98a4-3afef6c68b28","ios":"levelo://app?vid=18f7e584-6752-4217-98a4-3afef6c68b28"},"vehicle_type_id":"4","last_reported":1752678759,"current_range_meters":20400,"station_id":"ce4bgvp2rcd13ifvqct0","pricing_plan_id":"cebpf4jnsgd1na2vs0mg"},{"bike_id":"f1e56bc4-1c26-4209-91bd-7108312105fc","system_id":"levelo_inurba_marseille","lat":43.27072,"lon":5.40254,"is_reserved":false,"is_disabled":false,"rental_uris":{"android":"levelo://app?vid=f1e56bc4-1c26-4209-91bd-7108312105fc","ios":"levelo://app?vid=f1e56bc4-1c26-4209-91bd-7108312105fc"},"vehicle_type_id":"4","last_reported":1752678759,"current_range_meters":20400,"station_id":"ce4bhk92rcd13ifvqgc0","pricing_plan_id":"cebpf4jnsgd1na2vs0mg"},{"bike_id":"c81a46e3-e04e-4311-b645-a786dd2289e9","system_id":"levelo_inurba_marseille","lat":43.29372,"lon":5.37837,"is_reserved":false,"is_disabled":true,"rental_uris":{"android":"levelo://app?vid=c81a46e3-e04e-4311-b645-a786dd2289e9","ios":"levelo://app?vid=c81a46e3-e04e-4311-b645-a786dd2289e9"},"vehicle_type_id":"4","last_reported":1752678759,"current_range_meters":20400,"station_id":"ce4bgjh2rcd13ifvqbf0","pricing_plan_id":"cebpf4jnsgd1na2vs0mg"},{"bike_id":"aadd7372-82bb-4d14-9576-d9a483a5a9ed","system_id":"levelo_inurba_marseille","lat":43.24084,"lon":5.37765,"is_reserved":false,"is_disabled":false,"rental_uris":{"android":"levelo://app?vid=aadd7372-82bb-4d14-9576-d9a483a5a9ed","ios":"levelo://app?vid=aadd7372-82bb-4d14-9576-d9a483a5a9ed"},"vehicle_type_id":"4","last_reported":1752678759,"current_range_meters":20400,"station_id":"ce4bhnp2rcd13ifvqgvg","pricing_plan_id":"cebpf4jnsgd1na2vs0mg"},{"bike_id":"7e5466eb-e538-4487-a9fc-27a4444ad3c1","system_id":"levelo_inurba_marseille","lat":43.217552,"lon":5.345988,"is_reserved":false,"is_disabled":false,"rental_uris":{"android":"levelo://app?vid=7e5466eb-e538-4487-a9fc-27a4444ad3c1","ios":"levelo://app?vid=7e5466eb-e538-4487-a9fc-27a4444ad3c1"},"vehicle_type_id":"4","last_reported":1752678759,"current_range_meters":20400,"station_id":"st_cvj6r9ubvosntc0bgbag","pricing_plan_id":"cebpf4jnsgd1na2vs0mg"},{"bike_id":"e706c0fb-54a0-4328-8e36-914401fd45e2","system_id":"levelo_inurba_marseille","lat":43.21753,"lon":5.34604,"is_reserved":false,"is_disabled":false,"rental_uris":{"android":"levelo://app?vid=e706c0fb-54a0-4328-8e36-914401fd45e2","ios":"levelo://app?vid=e706c0fb-54a0-4328-8e36-914401fd45e2"},"vehicle_type_id":"4","last_reported":1752678759,"current_range_meters":20400,"station_id":"st_cvj6r9ubvosntc0bgbag","pricing_plan_id":"cebpf4jnsgd1na2vs0mg"},{"bike_id":"cd0a0f79-5e03-44ca-a9e2-859252ab70ff","system_id":"levelo_inurba_marseille","lat":43.21195,"lon":5.35071,"is_reserved":false,"is_disabled":false,"rental_uris":{"android":"levelo://app?vid=cd0a0f79-5e03-44ca-a9e2-859252ab70ff","ios":"levelo://app?vid=cd0a0f79-5e03-44ca-a9e2-859252ab70ff"},"vehicle_type_id":"4","last_reported":1752678759,"current_range_meters":20400,"station_id":"st_cvj6sg6p6f1abm77japg","pricing_plan_id":"cebpf4jnsgd1na2vs0mg"},{"bike_id":"37abba60-7422-4eaa-8836-a192b8f2cab9","system_id":"levelo_inurba_marseille","lat":43.25148,"lon":5.40332,"is_reserved":false,"is_disabled":false,"rental_uris":{"android":"levelo://app?vid=37abba60-7422-4eaa-8836-a192b8f2cab9","ios":"levelo://app?vid=37abba60-7422-4eaa-8836-a192b8f2cab9"},"vehicle_type_id":"4","last_reported":1752678759,"current_range_meters":20400,"station_id":"","pricing_plan_id":"cebpf4jnsgd1na2vs0mg"},