{"last_updated":1743289725,"ttl":60,"version":"2.2","data":{"bikes":[{"bike_id":"bf486d29-80ae-43fc-9394-756ed3e2b73e","system_id":"levelo_inurba_marseille","lat":43.28,"lon":5.40016,"is_reserved":false,"is_disabled":true,"rental_uris":{"android":"levelo://app?vid=bf486d29-80ae-43fc-9394-756ed3e2b73e","ios":"levelo://app?vid=bf486d29-80ae-43fc-9394-756ed3e2b73e"},"vehicle_type_id":"4","last_reported":1743289726,"current_range_meters":2800,"station_id":"ce4bho92rcd13ifvqh4g","pricing_plan_id":"cebpf4jnsgd1na2vs0mg"},{"bike_id":"d5423ff2-6fa9-41ae-a503-3cc588067cbc","system_id":"levelo_inurba_marseille","lat":43.29022,"lon":5.38646,"is_reserved":false,"is_disabled":true,"rental_uris":{"android":"levelo://app?vid=d5423ff2-6fa9-41ae-a503-3cc588067cbc","ios":"levelo://app?vid=d5423ff2-6fa9-41ae-a503-3cc588067cbc"},"vehicle_type_id":"4","last_reported":1743289726,"current_range_meters":2800,"station_id":"ce4bh4p2rcd13ifvqe0g","pricing_plan_id":"cebpf4jnsgd1na2vs0mg"},{"bike_id":"21de5a6e-c99a-45ae-aeef-eb801debcb02","system_id":"levelo_inurba_marseille","lat":43.31291,"lon":5.38311,"is_reserved":false,"is_disabled":false,"rental_uris":{"android":"levelo://app?vid=21de5a6e-c99a-45ae-aeef-eb801debcb02","ios":"levelo://app?vid=21de5a6e-c99a-45ae-aeef-eb801debcb02"},"vehicle_type_id":"4","last_reported":1743289726,"current_range_meters":2800,"station_id":"","pricing_plan_id":"cebpf4jnsgd1na2vs0mg"},{"bike_id":"cae95c76-b042-4a8d-88d3-5e31cc4e43c2","system_id":"levelo_inurba_marseille","lat":43.302837,"lon":5.399364,"is_reserved":false,"is_disabled":false,"rental_uris":{"android":"levelo://app?vid=cae95c76-b042-4a8d-88d3-5e31cc4e43c2","ios":"levelo://app?vid=cae95c76-b042-4a8d-88d3-5e31cc4e43c2"},"vehicle_type_id":"4","last_reported":1743289726,"current_range_meters":2800,"station_id":"ce4bgvh2rcd13ifvqcs0","pricing_plan_id":"cebpf4jnsgd1na2vs0mg"},{"bike_id":"91dc9ae2-ef8d-4ab1-84b7-a5d89f736e21","system_id":"levelo_inurba_marseille","lat":43.25604,"lon":5.38226,"is_reserved":false,"is_disabled":true,"rental_uris":{"android":"levelo://app?vid=91dc9ae2-ef8d-4ab1-84b7-a5d89f736e21","ios":"levelo://app?vid=91dc9ae2-ef8d-4ab1-84b7-a5d89f736e21"},"vehicle_type_id":"4","last_reported":1743289726,"current_range_meters":2800,"station_id":"ce4bhih2rcd13ifvqfs0","pricing_plan_id":"cebpf4jnsgd1na2vs0mg"},{"bike_id":"c35f7468-1371-4b51-bf37-de9b928bcd7e","system_id":"levelo_inurba_marseille","lat":43.27912,"lon":5.41257,"is_reserved":false,"is_disabled":false,"rental_uris":{"android":"levelo://app?vid=c35f7468-1371-4b51-bf37-de9b928bcd7e","ios":"levelo://app?vid=c35f7468-1371-4b51-bf37-de9b928bcd7e"},"vehicle_type_id":"4","last_reported":1743289726,"current_range_meters":2800,"station_id":"","pricing_plan_id":"cebpf4jnsgd1na2vs0mg"},{"bike_id":"ef3ab7e4-47aa-4e48-a63f-a437355606eb","system_id":"levelo_inurba_marseille","lat":43.28087,"lon":5.42094,"is_reserved":false,"is_disabled":false,"rental_uris":{"android":"levelo://app?vid=ef3ab7e4-47aa-4e48-a63f-a437355606eb","ios":"levelo://app?vid=ef3ab7e4-47aa-4e48-a63f-a437355606eb"},"vehicle_type_id":"4","last_reported":1743289726,"current_range_meters":3600,"station_id":"","pricing_plan_id":"cebpf4jnsgd1na2vs0mg"},{"bike_id":"2c361083-2782-4c65-bba4-366f1418a72a","system_id":"levelo_inurba_marseille","lat":43.27556,"lon":5.38427,"is_reserved":false,"is_disabled":false,"rental_uris":{"android":"levelo://app?vid=2c361083-2782-4c65-bba4-366f1418a72a","ios":"levelo://app?vid=2c361083-2782-4c65-bba4-366f1418a72a"},"vehicle_type_id":"4","last_reported":1743289726,"current_range_meters":4000,"station_id":"ce4bhh92rcd13ifvqfi0","pricing_plan_id":"cebpf4jnsgd1na2vs0mg"},{"bike_id":"d7c9e49f-9da5-4b2e-bae8-8dbfb05890a7","system_id":"levelo_inurba_marseille","lat":43.33357,"lon":5.40115,"is_reserved":false,"is_disabled":false,"rental_uris":{"android":"levelo://app?vid=d7c9e49f-9da5-4b2e-bae8-8dbfb05890a7","ios":"levelo://app?vid=d7c9e49f-9da5-4b2e-bae8-8dbfb05890a7"},"vehicle_type_id":"4","last_reported":1743289726,"current_range_meters":4400,"station_id":"","pricing_plan_id":"cebpf4jnsgd1na2vs0mg"},{"bike_id":"8e872ca4-3a13-4668-bced-51ad35fc6ced","system_id":"levelo_inurba_marseille","lat":43.294112,"lon":5.386254,"is_reserved":false,"is_disabled":false,"rental_uris":{"android":"levelo://app?vid=8e872ca4-3a13-4668-bced-51ad35fc6ced","ios":"levelo://app?vid=8e872ca4-3a13-4668-bced-51ad35fc6ced"},"vehicle_type_id":"4","last_reported":1743289726,"current_range_meters":4400,"station_id":"ce4bghh2rcd13ifvqb60","pricing_plan_id":"cebpf4jnsgd1na2vs0mg"},{"bike_id":"971c92cb-66df-438d-9a85-e63af939e6ff","system_id":"levelo_inurba_marseille","lat":43.28619,"lon":5.35091,"is_reserved":false,"is_disabled":true,"rental_uris":{"android":"levelo://app?vid=971c92cb-66df-438d-9a85-e63af939e6ff","ios":"levelo://app?vid=971c92cb-66df-438d-9a85-e63af939e6ff"},"vehicle_type_id":"4","last_reported":1743289726,"current_range_meters":4400,"station_id":"ce4bhch2rcd13ifvqeug","pricing_plan_id":"cebpf4jnsgd1na2vs0mg"},{"bike_id":"2d777215-fde2-4eac-83f9-351710712a4c","system_id":"levelo_inurba_marseille","lat":43.27914,"lon":5.41236,"is_reserved":false,"is_disabled":false,"rental_uris":{"android":"levelo://app?vid=2d777215-fde2-4eac-83f9-351710712a4c","ios":"levelo://app?vid=2d777215-fde2-4eac-83f9-351710712a4c"},"vehicle_type_id":"4","last_reported":1743289726,"current_range_meters":4400,"station_id":"","pricing_plan_id":"cebpf4jnsgd1na2vs0mg"},{"bike_id":"7b93b5ac-4dad-46df-b8fb-877e506fbf1c","system_id":"levelo_inurba_marseille","lat":43.286176,"lon":5.351,"is_reserved":false,"is_disabled":false,"rental_uris":{"android":"levelo://app?vid=7b93b5ac-4dad-46df-b8fb-877e506fbf1c","ios":"levelo://app?vid=7b93b5ac-4dad-46df-b8fb-877e506fbf1c"},"vehicle_type_id":"4","last_reported":1743289726,"current_range_meters":4400,"station_id":"ce4bhch2rcd13ifvqeug","pricing_plan_id":"cebpf4jnsgd1na2vs0mg"},{"bike_id":"7f7058c2-8720-4121-b0fa-05babbe32bfb","system_id":"levelo_inurba_marseille","lat":43.29745,"lon":5.37682,"is_reserved":false,"is_disabled":false,"rental_uris":{"android":"levelo://app?vid=7f7058c2-8720-4121-b0fa-05babbe32bfb","ios":"levelo://app?vid=7f7058c2-8720-4121-b0fa-05babbe32bfb"},"vehicle_type_id":"4","last_reported":1743289726,"current_range_meters":4400,"station_id":"ce4bgkh2rcd13ifvqbl0","pricing_plan_id":"cebpf4jnsgd1na2vs0mg"},{"bike_id":"5110505c-5690-44af-bbd0-24562b3108c3","system_id":"levelo_inurba_marseille","lat":43.29541,"lon":5.39004,"is_reserved":false,"is_disabled":true,"rental_uris":{"android":"levelo://app?vid=5110505c-5690-44af-bbd0-24562b3108c3","ios":"levelo://app?vid=5110505c-5690-44af-bbd0-24562b3108c3"},"vehicle_type_id":"4","last_reported":1743289726,"current_range_meters":4800,"station_id":"ce4bh3p2rcd13ifvqdp0","pricing_plan_id":"cebpf4jnsgd1na2vs0mg"},{"bike_id":"5035eaaf-4c4b-4740-b3e0-521452716a6f","system_id":"levelo_inurba_marseille","lat":43.26245,"lon":5.37448,"is_reserved":false,"is_disabled":true,"rental_uris":{"android":"levelo://app?vid=5035eaaf-4c4b-4740-b3e0-521452716a6f","ios":"levelo://app?vid=5035eaaf-4c4b-4740-b3e0-521452716a6f"},"vehicle_type_id":"4","last_reported":1743289726,"current_range_meters":4800,"station_id":"ce4bhgp2rcd13ifvqfc0","pricing_plan_id":"cebpf4jnsgd1na2vs0mg"},{"bike_id":"d13770d9-430a-44f6-89be-5b9492ad0e45","system_id":"levelo_inurba_marseille","lat":43.29728,"lon":5.37709,"is_reserved":false,"is_disabled":false,"rental_uris":{"android":"levelo://app?vid=d13770d9-430a-44f6-89be-5b9492ad0e45","ios":"levelo://app?vid=d13770d9-430a-44f6-89be-5b9492ad0e45"},"vehicle_type_id":"4","last_reported":1743289726,"current_range_meters":4800,"station_id":"ce4bgkh2rcd13ifvqbl0","pricing_plan_id":"cebpf4jnsgd1na2vs0mg"},{"bike_id":"01fc88c5-2547-40eb-920a-dd733fd4bdf9","system_id":"levelo_inurba_marseille","lat":43.28721,"lon":5.37937,"is_reserved":false,"is_disabled":false,"rental_uris":{"android":"levelo://app?vid=01fc88c5-2547-40eb-920a-dd733fd4bdf9","ios":"levelo://app?vid=01fc88c5-2547-40eb-920a-dd733fd4bdf9"},"vehicle_type_id":"4","last_reported":1743289726,"current_range_meters":5600,"station_id":"ce4bh9p2rcd13ifvqec0","pricing_plan_id":"cebpf4jnsgd1na2vs0mg"},{"bike_id":"09938869-da87-44f5-b214-329cc751ae73","system_id":"levelo_inurba_marseille","lat":43.31559,"lon":5.37252,"is_reserved":false,"is_disabled":false,"rental_uris":{"android":"levelo://app?vid=09938869-da87-44f5-b214-329cc751ae73","ios":"levelo://app?vid=09938869-da87-44f5-b214-329cc751ae73"},"vehicle_type_id":"4","last_reported":1743289726,"current_range_meters":5600,"station_id":"","pricing_plan_id":"cebpf4jnsgd1na2vs0mg"},{"bike_id":"2c32d651-f6df-4528-8ff6-14fd6f431503","system_id":"levelo_inurba_marseille","lat":43.29308,"lon":5.37177,"is_reserved":false,"is_disabled":false,"rental_uris":{"android":"levelo://app?vid=2c32d651-f6df-4528-8ff6-14fd6f431503","ios":"levelo://app?vid=2c32d651-f6df-4528-8ff6-14fd6f431503"},"vehicle_type_id":"4","last_reported":1743289726,"current_range_meters":5600,"station_id":"ce4bgh92rcd13ifvqb40","pricing_plan_id":"cebpf4jnsgd1na2vs0mg"},{"bike_id":"477a8a0c-d993-469b-a55f-34a2688f7cf6","system_id":"levelo_inurba_marseille","lat":43.27983,"lon":5.41659,"is_reserved":false,"is_disabled":false,"rental_uris":{"android":"levelo://app?vid=477a8a0c-d993-469b-a55f-34a2688f7cf6","ios":"levelo://app?vid=477a8a0c-d993-469b-a55f-34a2688f7cf6"},"vehicle_type_id":"4","last_reported":1743289726,"current_range_meters":5600,"station_id":"ce4bho12rcd13ifvqh1g","pricing_plan_id":"cebpf4jnsgd1na2vs0mg"},{"bike_id":"ac002179-1276-4d1f-9741-a2094c61a133","system_id":"levelo_inurba_marseille","lat":43.255754,"lon":5.382454,"is_reserved":false,"is_disabled":false,"rental_uris":{"android":"levelo://app?vid=ac002179-1276-4d1f-9741-a2094c61a133","ios":"levelo://app?vid=ac002179-1276-4d1f-9741-a2094c61a133"},"vehicle_type_id":"4","last_reported":1743289726,"current_range_meters":6000,"station_id":"ce4bhih2rcd13ifvqfs0","pricing_plan_id":"cebpf4jnsgd1na2vs0mg"},{"bike_id":"ad9a233d-7fa9-4124-9034-b1a8ddc1c8f3","system_id":"levelo_inurba_marseille","lat":43.23189,"lon":5.39983,"is_reserved":false,"is_disabled":false,"rental_uris":{"android":"levelo://app?vid=ad9a233d-7fa9-4124-9034-b1a8ddc1c8f3","ios":"levelo://app?vid=ad9a233d-7fa9-4124-9034-b1a8ddc1c8f3"},"vehicle_type_id":"4","last_reported":1743289726,"current_range_meters":6000,"station_id":"ce4bhn12rcd13ifvqgqg","pricing_plan_id":"cebpf4jnsgd1na2vs0mg"},{"bike_id":"bfbfca12-d4d2-4d74-b23f-680f24e799d6","system_id":"levelo_inurba_marseille","lat":43.32323,"lon":5.37525,"is_reserved":false,"is_disabled":false,"rental_uris":{"android":"levelo://app?vid=bfbfca12-d4d2-4d74-b23f-680f24e799d6","ios":"levelo://app?vid=bfbfca12-d4d2-4d74-b23f-680f24e799d6"},"vehicle_type_id":"4","last_reported":1743289726,"current_range_meters":6000,"station_id":"","pricing_plan_id":"cebpf4jnsgd1na2vs0mg"},{"bike_id":"43d3f610-2ea9-4eda-a4c8-e3f9706bb87c","system_id":"levelo_inurba_marseille","lat":43.30374,"lon":5.37323,"is_reserved":false,"is_disabled":false,"rental_uris":{"android":"levelo://app?vid=43d3f610-2ea9-4eda-a4c8-e3f9706bb87c","ios":"levelo://app?vid=43d3f610-2ea9-4eda-a4c8-e3f9706bb87c"},"vehicle_type_id":"4","last_reported":1743289726,"current_range_meters":6000,"station_id":"","pricing_plan_id":"cebpf4jnsgd1na2vs0mg"},{"bike_id":"364e6715-f615-4d27-aa55-7baf000ae3ce","system_id":"levelo_inurba_marseille","lat":43.29266,"lon":5.38432,"is_reserved":false,"is_disabled":false,"rental_uris":{"android":"levelo://app?vid=364e6715-f615-4d27-aa55-7baf000ae3ce","ios":"levelo://app?vid=364e6715-f615-4d27-aa55-7baf000ae3ce"},"vehicle_type_id":"4","last_reported":1743289726,"current_range_meters":6000,"station_id":"ce4bh692rcd13ifvqea0","pricing_plan_id":"cebpf4jnsgd1na2vs0mg"},{"bike_id":"28969c0d-7438-4db0-8555-e85ca9c87b63","system_id":"levelo_inurba_marseille","lat":43.2942,"lon":5.38622,"is_reserved":false,"is_disabled":false,"rental_uris":{"android":"levelo://app?vid=28969c0d-7438-4db0-8555-e85ca9c87b63","ios":"levelo://app?vid=28969c0d-7438-4db0-8555-e85ca9c87b63"},"vehicle_type_id":"4","last_reported":1743289726,"current_range_meters":7200,"station_id":"ce4bh2h2rcd13ifvqdh0","pricing_plan_id":"cebpf4jnsgd1na2vs0mg"},{"bike_id":"1e05a867-baa7-4fa7-9daf-0bbe243eb7c5","system_id":"levelo_inurba_marseille","lat":43.29898,"lon":5.38902,"is_reserved":false,"is_disabled":false,"rental_uris":{"android":"levelo://app?vid=1e05a867-baa7-4fa7-9daf-0bbe243eb7c5","ios":"levelo://app?vid=1e05a867-baa7-4fa7-9daf-0bbe243eb7c5"},"vehicle_type_id":"4","last_reported":1743289726,"current_range_meters":6400,"station_id":"ce4bh392rcd13ifvqdl0","pricing_plan_id":"cebpf4jnsgd1na2vs0mg"},{"bike_id":"6eb26923-e073-4455-aad8-b91bc2f91037","system_id":"levelo_inurba_marseille","lat":43.29301,"lon":5.37165,"is_reserved":false,"is_disabled":false,"rental_uris":{"android":"levelo://app?vid=6eb26923-e073-4455-aad8-b91bc2f91037","ios":"levelo://app?vid=6eb26923-e073-4455-aad8-b91bc2f91037"},"vehicle_type_id":"4","last_reported":1743289726,"current_range_meters":6400,"station_id":"ce4bgh92rcd13ifvqb40","pricing_plan_id":"cebpf4jnsgd1na2vs0mg"},{"bike_id":"c82bf580-4ff0-4e08-8c02-2cfdbcdaf680","system_id":"levelo_inurba_marseille","lat":43.248032,"lon":5.374563,"is_reserved":false,"is_disabled":false,"rental_uris":{"android":"levelo://app?vid=c82bf580-4ff0-4e08-8c02-2cfdbcdaf680","ios":"levelo://app?vid=c82bf580-4ff0-4e08-8c02-2cfdbcdaf680"},"vehicle_type_id":"4","last_reported":1743289726,"current_range_meters":6400,"station_id":"ce4bhgh2rcd13ifvqfb0","pricing_plan_id":"cebpf4jnsgd1na2vs0mg"},{"bike_id":"d37a32ca-6814-4486-a139-3ca7be1bf368","system_id":"levelo_inurba_marseille","lat":43.25122,"lon":5.40319,"is_reserved":false,"is_disabled":false,"rental_uris":{"android":"levelo://app?vid=d37a32ca-6814-4486-a139-3ca7be1bf368","ios":"levelo://app?vid=d37a32ca-6814-4486-a139-3ca7be1bf368"},"vehicle_type_id":"4","last_reported":1743289726,"current_range_meters":6000,"station_id":"ce4bhlh2rcd13ifvqgig","pricing_plan_id":"cebpf4jnsgd1na2vs0mg"},{"bike_id":"cd2dc4de-70a1-432b-8900-303cf935d2f7","system_id":"levelo_inurba_marseille","lat":43.24808,"lon":5.37456,"is_reserved":false,"is_disabled":false,"rental_uris":{"android":"levelo://app?vid=cd2dc4de-70a1-432b-8900-303cf935d2f7","ios":"levelo://app?vid=cd2dc4de-70a1-432b-8900-303cf935d2f7"},"vehicle_type_id":"4","last_reported":1743289726,"current_range_meters":6400,"station_id":"ce4bhgh2rcd13ifvqfb0","pricing_plan_id":"cebpf4jnsgd1na2vs0mg"},{"bike_id":"799ccde8-5e80-4174-8457-42229912affd","system_id":"levelo_inurba_marseille","lat":43.2838,"lon":5.36317,"is_reserved":false,"is_disabled":false,"rental_uris":{"android":"levelo://app?vid=799ccde8-5e80-4174-8457-42229912affd","ios":"levelo://app?vid=799ccde8-5e80-4174-8457-42229912affd"},"vehicle_type_id":"4","last_reported":1743289726,"current_range_meters":6800,"station_id":"","pricing_plan_id":"cebpf4jnsgd1na2vs0mg"},{"bike_id":"6082a6d8-29f3-4441-bd82-d0f95ead75d7","system_id":"levelo_inurba_marseille","lat":43.23176,"lon":5.35544,"is_reserved":false,"is_disabled":false,"rental_uris":{"android":"levelo://app?vid=6082a6d8-29f3-4441-bd82-d0f95ead75d7","ios":"levelo://app?vid=6082a6d8-29f3-4441-bd82-d0f95ead75d7"},"vehicle_type_id":"4","last_reported":1743289726,"current_range_meters":6800,"station_id":"ce4bhu92rcd13ifvqi70","pricing_plan_id":"cebpf4jnsgd1na2vs0mg"},{"bike_id":"02ab26d1-cda8-4a6e-b5cd-f0b471ba00de","system_id":"levelo_inurba_marseille","lat":43.23152,"lon":5.43719,"is_reserved":false,"is_disabled":false,"rental_uris":{"android":"levelo://app?vid=02ab26d1-cda8-4a6e-b5cd-f0b471ba00de","ios":"levelo://app?vid=02ab26d1-cda8-4a6e-b5cd-f0b471ba00de"},"vehicle_type_id":"4","last_reported":1743289726,"current_range_meters":6800,"station_id":"ce4bhmp2rcd13ifvqgog","pricing_plan_id":"cebpf4jnsgd1na2vs0mg"},{"bike_id":"d5ffff0a-47db-470d-a1ce-99a37bfcd090","system_id":"levelo_inurba_marseille","lat":43.28637,"lon":5.35103,"is_reserved":false,"is_disabled":false,"rental_uris":{"android":"levelo://app?vid=d5ffff0a-47db-470d-a1ce-99a37bfcd090","ios":"levelo://app?vid=d5ffff0a-47db-470d-a1ce-99a37bfcd090"},"vehicle_type_id":"4","last_reported":1743289726,"current_range_meters":6800,"station_id":"ce4bhch2rcd13ifvqeug","pricing_plan_id":"cebpf4jnsgd1na2vs0mg"},{"bike_id":"f0c94876-4d0d-4ad3-b840-262f0e18580e","system_id":"levelo_inurba_marseille","lat":43.32092,"lon":5.36794,"is_reserved":false,"is_disabled":false,"rental_uris":{"android":"levelo://app?vid=f0c94876-4d0d-4ad3-b840-262f0e18580e","ios":"levelo://app?vid=f0c94876-4d0d-4ad3-b840-262f0e18580e"},"vehicle_type_id":"4","last_reported":1743289726,"current_range_meters":6800,"station_id":"ce4bhrh2rcd13ifvqhug","pricing_plan_id":"cebpf4jnsgd1na2vs0mg"},{"bike_id":"4777850e-a840-44f2-a6a5-fd44a1ac41d3","system_id":"levelo_inurba_marseille","lat":43.28721,"lon":5.3999,"is_reserved":false,"is_disabled":true,"rental_uris":{"android":"levelo://app?vid=4777850e-a840-44f2-a6a5-fd44a1ac41d3","ios":"levelo://app?vid=4777850e-a840-44f2-a6a5-fd44a1ac41d3"},"vehicle_type_id":"4","last_reported":1743289726,"current_range_meters":7200,"station_id":"ce4bho92rcd13ifvqh3g","pricing_plan_id":"cebpf4jnsgd1na2vs0mg"},{"bike_id":"983c4c9f-ee1a-4d13-8ce7-bfd36c479f46","system_id":"levelo_inurba_marseille","lat":43.24159,"lon":5.36411,"is_reserved":false,"is_disabled":false,"rental_uris":{"android":"levelo://app?vid=983c4c9f-ee1a-4d13-8ce7-bfd36c479f46","ios":"levelo://app?vid=983c4c9f-ee1a-4d13-8ce7-bfd36c479f46"},"vehicle_type_id":"4","last_reported":1743289726,"current_range_meters":7200,"station_id":"cpo36qri1sfpv3e86is0","pricing_plan_id":"cebpf4jnsgd1na2vs0mg"},{"bike_id":"f4e98fed-4627-418c-9b64-069240b7571f","system_id":"levelo_inurba_marseille","lat":43.27576,"lon":5.38432,"is_reserved":false,"is_disabled":false,"rental_uris":{"android":"levelo://app?vid=f4e98fed-4627-418c-9b64-069240b7571f","ios":"levelo://app?vid=f4e98fed-4627-418c-9b64-069240b7571f"},"vehicle_type_id":"4","last_reported":1743289726,"current_range_meters":7200,"station_id":"ce4bhh92rcd13ifvqfi0","pricing_plan_id":"cebpf4jnsgd1na2vs0mg"},{"bike_id":"cd47c233-fad7-47f7-a453-7bf1f01de35a","system_id":"levelo_inurba_marseille","lat":43.31717,"lon":5.43711,"is_reserved":false,"is_disabled":false,"rental_uris":{"android":"levelo://app?vid=cd47c233-fad7-47f7-a453-7bf1f01de35a","ios":"levelo://app?vid=cd47c233-fad7-47f7-a453-7bf1f01de35a"},"vehicle_type_id":"4","last_reported":1743289726,"current_range_meters":7200,"station_id":"ce4bhp92rcd13ifvqhcg","pricing_plan_id":"cebpf4jnsgd1na2vs0mg"},{"bike_id":"d110ea9c-afe8-47f1-b008-e66bc6e44a55","system_id":"levelo_inurba_marseille","lat":43.28427,"lon":5.3498,"is_reserved":false,"is_disabled":false,"rental_uris":{"android":"levelo://app?vid=d110ea9c-afe8-47f1-b008-e66bc6e44a55","ios":"levelo://app?vid=d110ea9c-afe8-47f1-b008-e66bc6e44a55"},"vehicle_type_id":"4","last_reported":1743289726,"current_range_meters":7200,"station_id":"ce4bhbh2rcd13ifvqepg","pricing_plan_id":"cebpf4jnsgd1na2vs0mg"},{"bike_id":"0b1692c5-67c0-4a62-b8cb-04ffe0e0e9eb","system_id":"levelo_inurba_marseille","lat":43.28699,"lon":5.37402,"is_reserved":false,"is_disabled":false,"rental_uris":{"android":"levelo://app?vid=0b1692c5-67c0-4a62-b8cb-04ffe0e0e9eb","ios":"levelo://app?vid=0b1692c5-67c0-4a62-b8cb-04ffe0e0e9eb"},"vehicle_type_id":"4","last_reported":1743289726,"current_range_meters":7200,"station_id":"ce4bh3p2rcd13ifvqdq0","pricing_plan_id":"cebpf4jnsgd1na2vs0mg"},{"bike_id":"beb34198-0822-4d43-8731-400fe4a5d553","system_id":"levelo_inurba_marseille","lat":43.29556,"lon":5.42292,"is_reserved":false,"is_disabled":false,"rental_uris":{"android":"levelo://app?vid=beb34198-0822-4d43-8731-400fe4a5d553","ios":"levelo://app?vid=beb34198-0822-4d43-8731-400fe4a5d553"},"vehicle_type_id":"4","last_reported":1743289726,"current_range_meters":7200,"station_id":"ce4bhph2rcd13ifvqhdg","pricing_plan_id":"cebpf4jnsgd1na2vs0mg"},{"bike_id":"e2bd22f6-26db-4ce4-b3f3-5f95b865b065","system_id":"levelo_inurba_marseille","lat":43.284121,"lon":5.375093,"is_reserved":false,"is_disabled":false,"rental_uris":{"android":"levelo://app?vid=e2bd22f6-26db-4ce4-b3f3-5f95b865b065","ios":"levelo://app?vid=e2bd22f6-26db-4ce4-b3f3-5f95b865b065"},"vehicle_type_id":"4","last_reported":1743289726,"current_range_meters":7200,"station_id":"ce4bh692rcd13ifvqe90","pricing_plan_id":"cebpf4jnsgd1na2vs0mg"},{"bike_id":"865a02c7-239d-4c4a-8242-4ce424cbd659","system_id":"levelo_inurba_marseille","lat":43.2982,"lon":5.39735,"is_reserved":false,"is_disabled":false,"rental_uris":{"android":"levelo://app?vid=865a02c7-239d-4c4a-8242-4ce424cbd659","ios":"levelo://app?vid=865a02c7-239d-4c4a-8242-4ce424cbd659"},"vehicle_type_id":"4","last_reported":1743289726,"current_range_meters":7200,"station_id":"","pricing_plan_id":"cebpf4jnsgd1na2vs0mg"},{"bike_id":"b5ace6c6-32e3-486d-9744-efb1ce0dfa9d","system_id":"levelo_inurba_marseille","lat":43.28914,"lon":5.37096,"is_reserved":false,"is_disabled":true,"rental_uris":{"android":"levelo://app?vid=b5ace6c6-32e3-486d-9744-efb1ce0dfa9d","ios":"levelo://app?vid=b5ace6c6-32e3-486d-9744-efb1ce0dfa9d"},"vehicle_type_id":"4","last_reported":1743289726,"current_range_meters":7200,"station_id":"","pricing_plan_id":"cebpf4jnsgd1na2vs0mg"},{"bike_id":"7344ad8f-1d7b-4435-9e46-094745c9f9bf","system_id":"levelo_inurba_marseille","lat":43.29415,"lon":5.38639,"is_reserved":false,"is_disabled":false,"rental_uris":{"android":"levelo://app?vid=7344ad8f-1d7b-4435-9e46-094745c9f9bf","ios":"levelo://app?vid=7344ad8f-1d7b-4435-9e46-094745c9f9bf"},"vehicle_type_id":"4","last_reported":1743289726,"current_range_meters":7200,"station_id":"ce4bh2h2rcd13ifvqdh0","pricing_plan_id":"cebpf4jnsgd1na2vs0mg"},{"bike_id":"8d6abdef-27aa-4d1b-9448-656a6296f19d","system_id":"levelo_inurba_marseille","lat":43.24183,"lon":5.39712,"is_reserved":false,"is_disabled":false,"rental_uris":{"android":"levelo://app?vid=8d6abdef-27aa-4d1b-9448-656a6296f19d","ios":"levelo://app?vid=8d6abdef-27aa-4d1b-9448-656a6296f19d"},"vehicle_type_id":"4","last_reported":1743289726,"current_range_meters":7200,"station_id":"ce4bhn12rcd13ifvqgpg","pricing_plan_id":"cebpf4jnsgd1na2vs0mg"},{"bike_id":"0558bc66-2825-46b4-8c35-dfa19eca05b8","system_id":"levelo_inurba_marseille","lat":43.24391,"lon":5.3706,"is_reserved":false,"is_disabled":false,"rental_uris":{"android":"levelo://app?vid=0558bc66-2825-46b4-8c35-dfa19eca05b8","ios":"levelo://app?vid=0558bc66-2825-46b4-8c35-dfa19eca05b8"},"vehicle_type_id":"4","last_reported":1743289726,"current_range_meters":7200,"station_id":"ce4bhhh2rcd13ifvqfk0","pricing_plan_id":"cebpf4jnsgd1na2vs0mg"},{"bike_id":"456558c8-86d8-4232-98b6-7268668955fb","system_id":"levelo_inurba_marseille","lat":43.23959,"lon":5.36628,"is_reserved":false,"is_disabled":false,"rental_uris":{"android":"levelo://app?vid=456558c8-86d8-4232-98b6-7268668955fb","ios":"levelo://app?vid=456558c8-86d8-4232-98b6-7268668955fb"},"vehicle_type_id":"4","last_reported":1743289726,"current_range_meters":7200,"station_id":"ce4bhi12rcd13ifvqfp0","pricing_plan_id":"cebpf4jnsgd1na2vs0mg"},{"bike_id":"86402da5-f9ef-43b6-a281-06ce7c4c3160","system_id":"levelo_inurba_marseille","lat":43.28621,"lon":5.35102,"is_reserved":false,"is_disabled":false,"rental_uris":{"android":"levelo://app?vid=86402da5-f9ef-43b6-a281-06ce7c4c3160","ios":"levelo://app?vid=86402da5-f9ef-43b6-a281-06ce7c4c3160"},"vehicle_type_id":"4","last_reported":1743289726,"current_range_meters":8000,"station_id":"ce4bhch2rcd13ifvqeug","pricing_plan_id":"cebpf4jnsgd1na2vs0mg"},{"bike_id":"1cab7f14-7c85-48fc-9930-4b82ae6122a6","system_id":"levelo_inurba_marseille","lat":43.29294,"lon":5.36841,"is_reserved":false,"is_disabled":false,"rental_uris":{"android":"levelo://app?vid=1cab7f14-7c85-48fc-9930-4b82ae6122a6","ios":"levelo://app?vid=1cab7f14-7c85-48fc-9930-4b82ae6122a6"},"vehicle_type_id":"4","last_reported":1743289726,"current_range_meters":8000,"station_id":"ce4bhbp2rcd13ifvqesg","pricing_plan_id":"cebpf4jnsgd1na2vs0mg"},{"bike_id":"ef465bf1-9392-4211-b499-ecd2bf1a179f","system_id":"levelo_inurba_marseille","lat":43.28089,"lon":5.44168,"is_reserved":false,"is_disabled":false,"rental_uris":{"android":"levelo://app?vid=ef465bf1-9392-4211-b499-ecd2bf1a179f","ios":"levelo://app?vid=ef465bf1-9392-4211-b499-ecd2bf1a179f"},"vehicle_type_id":"4","last_reported":1743289726,"current_range_meters":8000,"station_id":"","pricing_plan_id":"cebpf4jnsgd1na2vs0mg"},{"bike_id":"a36a9ec1-537e-4091-9d7a-dd0444d14e10","system_id":"levelo_inurba_marseille","lat":43.2481,"lon":5.37458,"is_reserved":false,"is_disabled":false,"rental_uris":{"android":"levelo://app?vid=a36a9ec1-537e-4091-9d7a-dd0444d14e10","ios":"levelo://app?vid=a36a9ec1-537e-4091-9d7a-dd0444d14e10"},"vehicle_type_id":"4","last_reported":1743289726,"current_range_meters":8000,"station_id":"ce4bhgh2rcd13ifvqfb0","pricing_plan_id":"cebpf4jnsgd1na2vs0mg"},{"bike_id":"8146fa8a-bb85-41b3-a961-78ddb70e9b3f","system_id":"levelo_inurba_marseille","lat":43.28618,"lon":5.35108,"is_reserved":false,"is_disabled":false,"rental_uris":{"android":"levelo://app?vid=8146fa8a-bb85-41b3-a961-78ddb70e9b3f","ios":"levelo://app?vid=8146fa8a-bb85-41b3-a961-78ddb70e9b3f"},"vehicle_type_id":"4","last_reported":1743289726,"current_range_meters":8000,"station_id":"ce4bhch2rcd13ifvqeug","pricing_plan_id":"cebpf4jnsgd1na2vs0mg"},{"bike_id":"1a8ec8fe-cd0f-44f4-9a76-dfc354a60ccc","system_id":"levelo_inurba_marseille","lat":43.23967,"lon":5.36625,"is_reserved":false,"is_disabled":false,"rental_uris":{"android":"levelo://app?vid=1a8ec8fe-cd0f-44f4-9a76-dfc354a60ccc","ios":"levelo://app?vid=1a8ec8fe-cd0f-44f4-9a76-dfc354a60ccc"},"vehicle_type_id":"4","last_reported":1743289726,"current_range_meters":8000,"station_id":"ce4bhi12rcd13ifvqfp0","pricing_plan_id":"cebpf4jnsgd1na2vs0mg"},{"bike_id":"d14cdd1e-f0b3-48a5-be5e-77128af69a2d","system_id":"levelo_inurba_marseille","lat":43.28641,"lon":5.35118,"is_reserved":false,"is_disabled":false,"rental_uris":{"android":"levelo://app?vid=d14cdd1e-f0b3-48a5-be5e-77128af69a2d","ios":"levelo://app?vid=d14cdd1e-f0b3-48a5-be5e-77128af69a2d"},"vehicle_type_id":"4","last_reported":1743289726,"current_range_meters":8000,"station_id":"ce4bhch2rcd13ifvqeug","pricing_plan_id":"cebpf4jnsgd1na2vs0mg"},{"bike_id":"e4614adf-59ca-49c9-9f29-fb2629aacd37","system_id":"levelo_inurba_marseille","lat":43.28612,"lon":5.35103,"is_reserved":false,"is_disabled":false,"rental_uris":{"android":"levelo://app?vid=e4614adf-59ca-49c9-9f29-fb2629aacd37","ios":"levelo://app?vid=e4614adf-59ca-49c9-9f29-fb2629aacd37"},"vehicle_type_id":"4","last_reported":1743289726,"current_range_meters":8000,"station_id":"ce4bhch2rcd13ifvqeug","pricing_plan_id":"cebpf4jnsgd1na2vs0mg"},{"bike_id":"96fa1290-e699-40b9-9109-379d3b77c6fb","system_id":"levelo_inurba_marseille","lat":43.33734,"lon":5.39184,"is_reserved":false,"is_disabled":false,"rental_uris":{"android":"levelo://app?vid=96fa1290-e699-40b9-9109-379d3b77c6fb","ios":"levelo://app?vid=96fa1290-e699-40b9-9109-379d3b77c6fb"},"vehicle_type_id":"4","last_reported":1743289726,"current_range_meters":8400,"station_id":"ce4bhr92rcd13ifvqhsg","pricing_plan_id":"cebpf4jnsgd1na2vs0mg"},{"bike_id":"b1ecd358-38ec-4753-8af1-9b87454b444a","system_id":"levelo_inurba_marseille","lat":43.2861,"lon":5.35089,"is_reserved":false,"is_disabled":false,"rental_uris":{"android":"levelo://app?vid=b1ecd358-38ec-4753-8af1-9b87454b444a","ios":"levelo://app?vid=b1ecd358-38ec-4753-8af1-9b87454b444a"},"vehicle_type_id":"4","last_reported":1743289726,"current_range_meters":8400,"station_id":"ce4bhch2rcd13ifvqeug","pricing_plan_id":"cebpf4jnsgd1na2vs0mg"},{"bike_id":"296d0da0-4cc4-40ab-acd1-7c240f5eee02","system_id":"levelo_inurba_marseille","lat":43.30587,"lon":5.37678,"is_reserved":false,"is_disabled":false,"rental_uris":{"android":"levelo://app?vid=296d0da0-4cc4-40ab-acd1-7c240f5eee02","ios":"levelo://app?vid=296d0da0-4cc4-40ab-acd1-7c240f5eee02"},"vehicle_type_id":"4","last_reported":1743289726,"current_range_meters":8400,"station_id":"","pricing_plan_id":"cebpf4jnsgd1na2vs0mg"},{"bike_id":"4b2323ae-94b8-41f7-9062-4d9bd4bd549e","system_id":"levelo_inurba_marseille","lat":43.24177,"lon":5.36389,"is_reserved":false,"is_disabled":false,"rental_uris":{"android":"levelo://app?vid=4b2323ae-94b8-41f7-9062-4d9bd4bd549e","ios":"levelo://app?vid=4b2323ae-94b8-41f7-9062-4d9bd4bd549e"},"vehicle_type_id":"4","last_reported":1743289726,"current_range_meters":8400,"station_id":"cpo36qri1sfpv3e86is0","pricing_plan_id":"cebpf4jnsgd1na2vs0mg"},{"bike_id":"79c45363-0f08-448a-8f38-e6dbf5775a0e","system_id":"levelo_inurba_marseille","lat":43.31116,"lon":5.37767,"is_reserved":false,"is_disabled":false,"rental_uris":{"android":"levelo://app?vid=79c45363-0f08-448a-8f38-e6dbf5775a0e","ios":"levelo://app?vid=79c45363-0f08-448a-8f38-e6dbf5775a0e"},"vehicle_type_id":"4","last_reported":1743289726,"current_range_meters":8000,"station_id":"ce4bgt92rcd13ifvqcg0","pricing_plan_id":"cebpf4jnsgd1na2vs0mg"},{"bike_id":"4586e23a-2d77-446c-8e8c-a15b6ae5de02","system_id":"levelo_inurba_marseille","lat":43.28591,"lon":5.38127,"is_reserved":false,"is_disabled":false,"rental_uris":{"android":"levelo://app?vid=4586e23a-2d77-446c-8e8c-a15b6ae5de02","ios":"levelo://app?vid=4586e23a-2d77-446c-8e8c-a15b6ae5de02"},"vehicle_type_id":"4","last_reported":1743289726,"current_range_meters":8400,"station_id":"","pricing_plan_id":"cebpf4jnsgd1na2vs0mg"},{"bike_id":"fbbc1875-fa51-4ead-91f6-fba5ea924a8b","system_id":"levelo_inurba_marseille","lat":43.30798,"lon":5.3817,"is_reserved":false,"is_disabled":false,"rental_uris":{"android":"levelo://app?vid=fbbc1875-fa51-4ead-91f6-fba5ea924a8b","ios":"levelo://app?vid=fbbc1875-fa51-4ead-91f6-fba5ea924a8b"},"vehicle_type_id":"4","last_reported":1743289726,"current_range_meters":8400,"station_id":"ce4bgt12rcd13ifvqce0","pricing_plan_id":"cebpf4jnsgd1na2vs0mg"},{"bike_id":"002e376d-65b1-4ec9-bfee-78aff2d8798d","system_id":"levelo_inurba_marseille","lat":43.29289,"lon":5.37177,"is_reserved":false,"is_disabled":false,"rental_uris":{"android":"levelo://app?vid=002e376d-65b1-4ec9-bfee-78aff2d8798d","ios":"levelo://app?vid=002e376d-65b1-4ec9-bfee-78aff2d8798d"},"vehicle_type_id":"4","last_reported":1743289726,"current_range_meters":8800,"station_id":"ce4bgh92rcd13ifvqb40","pricing_plan_id":"cebpf4jnsgd1na2vs0mg"},{"bike_id":"e6967797-29d0-4947-88e5-61bc42de65df","system_id":"levelo_inurba_marseille","lat":43.28637,"lon":5.35084,"is_reserved":false,"is_disabled":false,"rental_uris":{"android":"levelo://app?vid=e6967797-29d0-4947-88e5-61bc42de65df","ios":"levelo://app?vid=e6967797-29d0-4947-88e5-61bc42de65df"},"vehicle_type_id":"4","last_reported":1743289726,"current_range_meters":8800,"station_id":"ce4bhch2rcd13ifvqeug","pricing_plan_id":"cebpf4jnsgd1na2vs0mg"},{"bike_id":"e9ced5ff-c8d7-41fa-b1e0-97f54210bcab","system_id":"levelo_inurba_marseille","lat":43.30947,"lon":5.39033,"is_reserved":false,"is_disabled":false,"rental_uris":{"android":"levelo://app?vid=e9ced5ff-c8d7-41fa-b1e0-97f54210bcab","ios":"levelo://app?vid=e9ced5ff-c8d7-41fa-b1e0-97f54210bcab"},"vehicle_type_id":"4","last_reported":1743289726,"current_range_meters":8800,"station_id":"ce4bgup2rcd13ifvqco0","pricing_plan_id":"cebpf4jnsgd1na2vs0mg"},{"bike_id":"8c0f6e3f-b370-4d64-ac55-96b0ff55a395","system_id":"levelo_inurba_marseille","lat":43.24393,"lon":5.37065,"is_reserved":false,"is_disabled":false,"rental_uris":{"android":"levelo://app?vid=8c0f6e3f-b370-4d64-ac55-96b0ff55a395","ios":"levelo://app?vid=8c0f6e3f-b370-4d64-ac55-96b0ff55a395"},"vehicle_type_id":"4","last_reported":1743289726,"current_range_meters":8800,"station_id":"ce4bhhh2rcd13ifvqfk0","pricing_plan_id":"cebpf4jnsgd1na2vs0mg"},{"bike_id":"e13c5804-8cfa-4e19-af0d-8fc5e4ec2833","system_id":"levelo_inurba_marseille","lat":43.31075,"lon":5.3835,"is_reserved":false,"is_disabled":false,"rental_uris":{"android":"levelo://app?vid=e13c5804-8cfa-4e19-af0d-8fc5e4ec2833","ios":"levelo://app?vid=e13c5804-8cfa-4e19-af0d-8fc5e4ec2833"},"vehicle_type_id":"4","last_reported":1743289726,"current_range_meters":8800,"station_id":"ce4bgv92rcd13ifvqcr0","pricing_plan_id":"cebpf4jnsgd1na2vs0mg"},{"bike_id":"f6e780c4-90a9-4c52-bdda-724b78ccf213","system_id":"levelo_inurba_marseille","lat":43.28728,"lon":5.37938,"is_reserved":false,"is_disabled":false,"rental_uris":{"android":"levelo://app?vid=f6e780c4-90a9-4c52-bdda-724b78ccf213","ios":"levelo://app?vid=f6e780c4-90a9-4c52-bdda-724b78ccf213"},"vehicle_type_id":"4","last_reported":1743289726,"current_range_meters":8800,"station_id":"ce4bh9p2rcd13ifvqec0","pricing_plan_id":"cebpf4jnsgd1na2vs0mg"},{"bike_id":"8e1a6108-03c4-4c56-8093-85033cd8d0b6","system_id":"levelo_inurba_marseille","lat":43.29042,"lon":5.3868,"is_reserved":false,"is_disabled":false,"rental_uris":{"android":"levelo://app?vid=8e1a6108-03c4-4c56-8093-85033cd8d0b6","ios":"levelo://app?vid=8e1a6108-03c4-4c56-8093-85033cd8d0b6"},"vehicle_type_id":"4","last_reported":1743289726,"current_range_meters":8400,"station_id":"ce4bh4p2rcd13ifvqe0g","pricing_plan_id":"cebpf4jnsgd1na2vs0mg"},{"bike_id":"5a3307a6-54ca-44bc-a5fd-ab80751e6464","system_id":"levelo_inurba_marseille","lat":43.23192,"lon":5.39992,"is_reserved":false,"is_disabled":true,"rental_uris":{"android":"levelo://app?vid=5a3307a6-54ca-44bc-a5fd-ab80751e6464","ios":"levelo://app?vid=5a3307a6-54ca-44bc-a5fd-ab80751e6464"},"vehicle_type_id":"4","last_reported":1743289726,"current_range_meters":8800,"station_id":"ce4bhn12rcd13ifvqgqg","pricing_plan_id":"cebpf4jnsgd1na2vs0mg"},{"bike_id":"3b9e2dbb-dda4-4ed5-8aef-7e67e6437f0d","system_id":"levelo_inurba_marseille","lat":43.33346,"lon":5.40144,"is_reserved":false,"is_disabled":false,"rental_uris":{"android":"levelo://app?vid=3b9e2dbb-dda4-4ed5-8aef-7e67e6437f0d","ios":"levelo://app?vid=3b9e2dbb-dda4-4ed5-8aef-7e67e6437f0d"},"vehicle_type_id":"4","last_reported":1743289726,"current_range_meters":8800,"station_id":"","pricing_plan_id":"cebpf4jnsgd1na2vs0mg"},{"bike_id":"4b32355b-7cb2-4761-ac10-e7e10aa3ec76","system_id":"levelo_inurba_marseille","lat":43.24812,"lon":5.37432,"is_reserved":false,"is_disabled":false,"rental_uris":{"android":"levelo://app?vid=4b32355b-7cb2-4761-ac10-e7e10aa3ec76","ios":"levelo://app?vid=4b32355b-7cb2-4761-ac10-e7e10aa3ec76"},"vehicle_type_id":"4","last_reported":1743289726,"current_range_meters":9200,"station_id":"ce4bhgh2rcd13ifvqfb0","pricing_plan_id":"cebpf4jnsgd1na2vs0mg"},{"bike_id":"ac5aed9d-80be-4954-a28c-ba1e74508ab0","system_id":"levelo_inurba_marseille","lat":43.25111,"lon":5.40322,"is_reserved":false,"is_disabled":false,"rental_uris":{"android":"levelo://app?vid=ac5aed9d-80be-4954-a28c-ba1e74508ab0","ios":"levelo://app?vid=ac5aed9d-80be-4954-a28c-ba1e74508ab0"},"vehicle_type_id":"4","last_reported":1743289726,"current_range_meters":9200,"station_id":"ce4bhlh2rcd13ifvqgig","pricing_plan_id":"cebpf4jnsgd1na2vs0mg"},{"bike_id":"b98594d7-8128-4bc2-a9d4-f4c330986c65","system_id":"levelo_inurba_marseille","lat":43.23967,"lon":5.36619,"is_reserved":false,"is_disabled":false,"rental_uris":{"android":"levelo://app?vid=b98594d7-8128-4bc2-a9d4-f4c330986c65","ios":"levelo://app?vid=b98594d7-8128-4bc2-a9d4-f4c330986c65"},"vehicle_type_id":"4","last_reported":1743289726,"current_range_meters":9200,"station_id":"ce4bhi12rcd13ifvqfp0","pricing_plan_id":"cebpf4jnsgd1na2vs0mg"},{"bike_id":"16bfc2e5-7d68-4441-b27e-000ccb6a3204","system_id":"levelo_inurba_marseille","lat":43.27909,"lon":5.38005,"is_reserved":false,"is_disabled":false,"rental_uris":{"android":"levelo://app?vid=16bfc2e5-7d68-4441-b27e-000ccb6a3204","ios":"levelo://app?vid=16bfc2e5-7d68-4441-b27e-000ccb6a3204"},"vehicle_type_id":"4","last_reported":1743289726,"current_range_meters":9200,"station_id":"ce4bhf92rcd13ifvqf50","pricing_plan_id":"cebpf4jnsgd1na2vs0mg"},{"bike_id":"390cb306-c74a-46e0-9ebc-463e2de2a414","system_id":"levelo_inurba_marseille","lat":43.30807,"lon":5.43525,"is_reserved":false,"is_disabled":false,"rental_uris":{"android":"levelo://app?vid=390cb306-c74a-46e0-9ebc-463e2de2a414","ios":"levelo://app?vid=390cb306-c74a-46e0-9ebc-463e2de2a414"},"vehicle_type_id":"4","last_reported":1743289726,"current_range_meters":9200,"station_id":"ce4bhph2rcd13ifvqheg","pricing_plan_id":"cebpf4jnsgd1na2vs0mg"},{"bike_id":"97c03575-1a99-42da-ab1d-f359ed466796","system_id":"levelo_inurba_marseille","lat":43.30129,"lon":5.39874,"is_reserved":false,"is_disabled":false,"rental_uris":{"android":"levelo://app?vid=97c03575-1a99-42da-ab1d-f359ed466796","ios":"levelo://app?vid=97c03575-1a99-42da-ab1d-f359ed466796"},"vehicle_type_id":"4","last_reported":1743289726,"current_range_meters":9200,"station_id":"ce4bh0h2rcd13ifvqd40","pricing_plan_id":"cebpf4jnsgd1na2vs0mg"},{"bike_id":"9490d501-65c4-4fc8-b800-d3deebc9e13d","system_id":"levelo_inurba_marseille","lat":43.33035,"lon":5.39033,"is_reserved":false,"is_disabled":false,"rental_uris":{"android":"levelo://app?vid=9490d501-65c4-4fc8-b800-d3deebc9e13d","ios":"levelo://app?vid=9490d501-65c4-4fc8-b800-d3deebc9e13d"},"vehicle_type_id":"4","last_reported":1743289726,"current_range_meters":9200,"station_id":"ce4bhr92rcd13ifvqhrg","pricing_plan_id":"cebpf4jnsgd1na2vs0mg"},{"bike_id":"050d458d-cce9-44b3-9d16-b8a5c2076354","system_id":"levelo_inurba_marseille","lat":43.31764,"lon":5.39015,"is_reserved":false,"is_disabled":false,"rental_uris":{"android":"levelo://app?vid=050d458d-cce9-44b3-9d16-b8a5c2076354","ios":"levelo://app?vid=050d458d-cce9-44b3-9d16-b8a5c2076354"},"vehicle_type_id":"4","last_reported":1743289726,"current_range_meters":9200,"station_id":"ce4bhqp2rcd13ifvqhng","pricing_plan_id":"cebpf4jnsgd1na2vs0mg"},{"bike_id":"a1b5a514-f0ef-42eb-b1a4-22dd30a86324","system_id":"levelo_inurba_marseille","lat":43.31751,"lon":5.39014,"is_reserved":false,"is_disabled":false,"rental_uris":{"android":"levelo://app?vid=a1b5a514-f0ef-42eb-b1a4-22dd30a86324","ios":"levelo://app?vid=a1b5a514-f0ef-42eb-b1a4-22dd30a86324"},"vehicle_type_id":"4","last_reported":1743289726,"current_range_meters":9200,"station_id":"ce4bhqp2rcd13ifvqhng","pricing_plan_id":"cebpf4jnsgd1na2vs0mg"},{"bike_id":"10365f62-ee2b-4687-92a1-782d737acef1","system_id":"levelo_inurba_marseille","lat":43.25932,"lon":5.40914,"is_reserved":false,"is_disabled":false,"rental_uris":{"android":"levelo://app?vid=10365f62-ee2b-4687-92a1-782d737acef1","ios":"levelo://app?vid=10365f62-ee2b-4687-92a1-782d737acef1"},"vehicle_type_id":"4","last_reported":1743289726,"current_range_meters":9600,"station_id":"ce4bhm92rcd13ifvqglg","pricing_plan_id":"cebpf4jnsgd1na2vs0mg"},{"bike_id":"40722439-ac9b-4793-a39a-ed41b3702640","system_id":"levelo_inurba_marseille","lat":43.30527,"lon":5.38421,"is_reserved":false,"is_disabled":false,"rental_uris":{"android":"levelo://app?vid=40722439-ac9b-4793-a39a-ed41b3702640","ios":"levelo://app?vid=40722439-ac9b-4793-a39a-ed41b3702640"},"vehicle_type_id":"4","last_reported":1743289726,"current_range_meters":9600,"station_id":"ce4bgg92rcd13ifvqb30","pricing_plan_id":"cebpf4jnsgd1na2vs0mg"},{"bike_id":"96ac20e8-5840-4579-b371-184ec6253952","system_id":"levelo_inurba_marseille","lat":43.27504,"lon":5.41131,"is_reserved":false,"is_disabled":false,"rental_uris":{"android":"levelo://app?vid=96ac20e8-5840-4579-b371-184ec6253952","ios":"levelo://app?vid=96ac20e8-5840-4579-b371-184ec6253952"},"vehicle_type_id":"4","last_reported":1743289726,"current_range_meters":9600,"station_id":"","pricing_plan_id":"cebpf4jnsgd1na2vs0mg"},{"bike_id":"ead84735-1991-4501-b506-2229ced7058a","system_id":"levelo_inurba_marseille","lat":43.2306,"lon":5.35487,"is_reserved":false,"is_disabled":false,"rental_uris":{"android":"levelo://app?vid=ead84735-1991-4501-b506-2229ced7058a","ios":"levelo://app?vid=ead84735-1991-4501-b506-2229ced7058a"},"vehicle_type_id":"4","last_reported":1743289726,"current_range_meters":9600,"station_id":"cpo3342slgdg3j2ifvpg","pricing_plan_id":"cebpf4jnsgd1na2vs0mg"},{"bike_id":"89b372e0-e34b-4448-a651-9f0d9816c98e","system_id":"levelo_inurba_marseille","lat":43.24182,"lon":5.36386,"is_reserved":false,"is_disabled":false,"rental_uris":{"android":"levelo://app?vid=89b372e0-e34b-4448-a651-9f0d9816c98e","ios":"levelo://app?vid=89b372e0-e34b-4448-a651-9f0d9816c98e"},"vehicle_type_id":"4","last_reported":1743289726,"current_range_meters":9600,"station_id":"cpo36qri1sfpv3e86is0","pricing_plan_id":"cebpf4jnsgd1na2vs0mg"},{"bike_id":"87fc32a8-b064-4884-b590-9fc1ae32af5f","system_id":"levelo_inurba_marseille","lat":43.31696,"lon":5.38223,"is_reserved":false,"is_disabled":false,"rental_uris":{"android":"levelo://app?vid=87fc32a8-b064-4884-b590-9fc1ae32af5f","ios":"levelo://app?vid=87fc32a8-b064-4884-b590-9fc1ae32af5f"},"vehicle_type_id":"4","last_reported":1743289726,"current_range_meters":9600,"station_id":"","pricing_plan_id":"cebpf4jnsgd1na2vs0mg"},{"bike_id":"a8d851cf-5d20-4ee9-95cb-5df4c3c78873","system_id":"levelo_inurba_marseille","lat":43.29273,"lon":5.37619,"is_reserved":false,"is_disabled":false,"rental_uris":{"android":"levelo://app?vid=a8d851cf-5d20-4ee9-95cb-5df4c3c78873","ios":"levelo://app?vid=a8d851cf-5d20-4ee9-95cb-5df4c3c78873"},"vehicle_type_id":"4","last_reported":1743289726,"current_range_meters":9600,"station_id":"ce4bgi12rcd13ifvqb80","pricing_plan_id":"cebpf4jnsgd1na2vs0mg"},{"bike_id":"5dca16b0-0836-4d29-a112-b6ae5585b009","system_id":"levelo_inurba_marseille","lat":43.28641,"lon":5.35152,"is_reserved":false,"is_disabled":false,"rental_uris":{"android":"levelo://app?vid=5dca16b0-0836-4d29-a112-b6ae5585b009","ios":"levelo://app?vid=5dca16b0-0836-4d29-a112-b6ae5585b009"},"vehicle_type_id":"4","last_reported":1743289726,"current_range_meters":9600,"station_id":"ce4bhch2rcd13ifvqeug","pricing_plan_id":"cebpf4jnsgd1na2vs0mg"},{"bike_id":"8406ba74-8a1d-45d0-86b2-95af8bb669f0","system_id":"levelo_inurba_marseille","lat":43.29275,"lon":5.36854,"is_reserved":false,"is_disabled":false,"rental_uris":{"android":"levelo://app?vid=8406ba74-8a1d-45d0-86b2-95af8bb669f0","ios":"levelo://app?vid=8406ba74-8a1d-45d0-86b2-95af8bb669f0"},"vehicle_type_id":"4","last_reported":1743289726,"current_range_meters":10000,"station_id":"ce4bhbp2rcd13ifvqesg","pricing_plan_id":"cebpf4jnsgd1na2vs0mg"},{"bike_id":"d0ed36b4-3c5a-4da6-8fb4-955c321dd03a","system_id":"levelo_inurba_marseille","lat":43.27515,"lon":5.41016,"is_reserved":false,"is_disabled":false,"rental_uris":{"android":"levelo://app?vid=d0ed36b4-3c5a-4da6-8fb4-955c321dd03a","ios":"levelo://app?vid=d0ed36b4-3c5a-4da6-8fb4-955c321dd03a"},"vehicle_type_id":"4","last_reported":1743289726,"current_range_meters":10000,"station_id":"","pricing_plan_id":"cebpf4jnsgd1na2vs0mg"},{"bike_id":"56382eee-a8fa-40dd-bdaa-e22b9db5afbc","system_id":"levelo_inurba_marseille","lat":43.28953,"lon":5.36627,"is_reserved":false,"is_disabled":false,"rental_uris":{"android":"levelo://app?vid=56382eee-a8fa-40dd-bdaa-e22b9db5afbc","ios":"levelo://app?vid=56382eee-a8fa-40dd-bdaa-e22b9db5afbc"},"vehicle_type_id":"4","last_reported":1743289726,"current_range_meters":10000,"station_id":"ce4bhap2rcd13ifvqek0","pricing_plan_id":"cebpf4jnsgd1na2vs0mg"},{"bike_id":"62d7c1a9-786c-4d64-a3eb-a9987f13ae32","system_id":"levelo_inurba_marseille","lat":43.31177,"lon":5.38716,"is_reserved":false,"is_disabled":false,"rental_uris":{"android":"levelo://app?vid=62d7c1a9-786c-4d64-a3eb-a9987f13ae32","ios":"levelo://app?vid=62d7c1a9-786c-4d64-a3eb-a9987f13ae32"},"vehicle_type_id":"4","last_reported":1743289726,"current_range_meters":10000,"station_id":"ce4bgv12rcd13ifvqcp0","pricing_plan_id":"cebpf4jnsgd1na2vs0mg"},{"bike_id":"004ed55f-f985-4268-b523-9ed16ba4ea3b","system_id":"levelo_inurba_marseille","lat":43.29283,"lon":5.36834,"is_reserved":false,"is_disabled":true,"rental_uris":{"android":"levelo://app?vid=004ed55f-f985-4268-b523-9ed16ba4ea3b","ios":"levelo://app?vid=004ed55f-f985-4268-b523-9ed16ba4ea3b"},"vehicle_type_id":"4","last_reported":1743289726,"current_range_meters":10000,"station_id":"ce4bhbp2rcd13ifvqesg","pricing_plan_id":"cebpf4jnsgd1na2vs0mg"},{"bike_id":"2277e583-2f85-4202-9a92-625dc51a133b","system_id":"levelo_inurba_marseille","lat":43.29313,"lon":5.37186,"is_reserved":false,"is_disabled":false,"rental_uris":{"android":"levelo://app?vid=2277e583-2f85-4202-9a92-625dc51a133b","ios":"levelo://app?vid=2277e583-2f85-4202-9a92-625dc51a133b"},"vehicle_type_id":"4","last_reported":1743289726,"current_range_meters":10000,"station_id":"ce4bgh92rcd13ifvqb40","pricing_plan_id":"cebpf4jnsgd1na2vs0mg"},{"bike_id":"92bfe231-1517-47bb-8ba4-94a7113e8089","system_id":"levelo_inurba_marseille","lat":43.23195,"lon":5.35555,"is_reserved":false,"is_disabled":false,"rental_uris":{"android":"levelo://app?vid=92bfe231-1517-47bb-8ba4-94a7113e8089","ios":"levelo://app?vid=92bfe231-1517-47bb-8ba4-94a7113e8089"},"vehicle_type_id":"4","last_reported":1743289726,"current_range_meters":10000,"station_id":"ce4bhu92rcd13ifvqi70","pricing_plan_id":"cebpf4jnsgd1na2vs0mg"},{"bike_id":"4b9bb8a5-1640-41a3-ae3a-f044c62dffe4","system_id":"levelo_inurba_marseille","lat":43.2917,"lon":5.37159,"is_reserved":false,"is_disabled":false,"rental_uris":{"android":"levelo://app?vid=4b9bb8a5-1640-41a3-ae3a-f044c62dffe4","ios":"levelo://app?vid=4b9bb8a5-1640-41a3-ae3a-f044c62dffe4"},"vehicle_type_id":"4","last_reported":1743289726,"current_range_meters":10000,"station_id":"ce4bha92rcd13ifvqeh0","pricing_plan_id":"cebpf4jnsgd1na2vs0mg"},{"bike_id":"488767ae-a52a-41d7-8f9a-e947164469f3","system_id":"levelo_inurba_marseille","lat":43.302167,"lon":5.383951,"is_reserved":false,"is_disabled":true,"rental_uris":{"android":"levelo://app?vid=488767ae-a52a-41d7-8f9a-e947164469f3","ios":"levelo://app?vid=488767ae-a52a-41d7-8f9a-e947164469f3"},"vehicle_type_id":"4","last_reported":1743289726,"current_range_meters":10000,"station_id":"ce4bhr12rcd13ifvqhqg","pricing_plan_id":"cebpf4jnsgd1na2vs0mg"},{"bike_id":"747d2bc2-6706-42d9-8381-8fcc8fac62bd","system_id":"levelo_inurba_marseille","lat":43.2868,"lon":5.37003,"is_reserved":false,"is_disabled":true,"rental_uris":{"android":"levelo://app?vid=747d2bc2-6706-42d9-8381-8fcc8fac62bd","ios":"levelo://app?vid=747d2bc2-6706-42d9-8381-8fcc8fac62bd"},"vehicle_type_id":"4","last_reported":1743289726,"current_range_meters":10000,"station_id":"","pricing_plan_id":"cebpf4jnsgd1na2vs0mg"},{"bike_id":"7699dc8a-14fa-4918-b36a-a478a442365c","system_id":"levelo_inurba_marseille","lat":43.287,"lon":5.37386,"is_reserved":false,"is_disabled":false,"rental_uris":{"android":"levelo://app?vid=7699dc8a-14fa-4918-b36a-a478a442365c","ios":"levelo://app?vid=7699dc8a-14fa-4918-b36a-a478a442365c"},"vehicle_type_id":"4","last_reported":1743289726,"current_range_meters":10000,"station_id":"ce4bh3p2rcd13ifvqdq0","pricing_plan_id":"cebpf4jnsgd1na2vs0mg"},{"bike_id":"949f407f-bc1f-4c9b-a7f3-bfe19b4aa56e","system_id":"levelo_inurba_marseille","lat":43.27942,"lon":5.41047,"is_reserved":false,"is_disabled":false,"rental_uris":{"android":"levelo://app?vid=949f407f-bc1f-4c9b-a7f3-bfe19b4aa56e","ios":"levelo://app?vid=949f407f-bc1f-4c9b-a7f3-bfe19b4aa56e"},"vehicle_type_id":"4","last_reported":1743289726,"current_range_meters":10000,"station_id":"ce4bhnp2rcd13ifvqh0g","pricing_plan_id":"cebpf4jnsgd1na2vs0mg"},{"bike_id":"3f2bcfca-c616-4059-a95b-b1ee7948eb41","system_id":"levelo_inurba_marseille","lat":43.29873,"lon":5.39731,"is_reserved":false,"is_disabled":false,"rental_uris":{"android":"levelo://app?vid=3f2bcfca-c616-4059-a95b-b1ee7948eb41","ios":"levelo://app?vid=3f2bcfca-c616-4059-a95b-b1ee7948eb41"},"vehicle_type_id":"4","last_reported":1743289726,"current_range_meters":10000,"station_id":"ce4bh0h2rcd13ifvqd50","pricing_plan_id":"cebpf4jnsgd1na2vs0mg"},{"bike_id":"96131fa3-eae1-4c76-a5ed-3df85de907fa","system_id":"levelo_inurba_marseille","lat":43.29876,"lon":5.39743,"is_reserved":false,"is_disabled":false,"rental_uris":{"android":"levelo://app?vid=96131fa3-eae1-4c76-a5ed-3df85de907fa","ios":"levelo://app?vid=96131fa3-eae1-4c76-a5ed-3df85de907fa"},"vehicle_type_id":"4","last_reported":1743289726,"current_range_meters":10000,"station_id":"ce4bh0h2rcd13ifvqd50","pricing_plan_id":"cebpf4jnsgd1na2vs0mg"},{"bike_id":"db13f59b-9dfc-42df-88ce-f72febfe7e6a","system_id":"levelo_inurba_marseille","lat":43.31485,"lon":5.37308,"is_reserved":false,"is_disabled":false,"rental_uris":{"android":"levelo://app?vid=db13f59b-9dfc-42df-88ce-f72febfe7e6a","ios":"levelo://app?vid=db13f59b-9dfc-42df-88ce-f72febfe7e6a"},"vehicle_type_id":"4","last_reported":1743289726,"current_range_meters":10000,"station_id":"ce4bgt12rcd13ifvqcd0","pricing_plan_id":"cebpf4jnsgd1na2vs0mg"},{"bike_id":"efff04da-c9e4-43ac-af1d-3d2959bd3159","system_id":"levelo_inurba_marseille","lat":43.23065,"lon":5.3547,"is_reserved":false,"is_disabled":false,"rental_uris":{"android":"levelo://app?vid=efff04da-c9e4-43ac-af1d-3d2959bd3159","ios":"levelo://app?vid=efff04da-c9e4-43ac-af1d-3d2959bd3159"},"vehicle_type_id":"4","last_reported":1743289726,"current_range_meters":10000,"station_id":"cpo3342slgdg3j2ifvpg","pricing_plan_id":"cebpf4jnsgd1na2vs0mg"},{"bike_id":"d7ecebd2-9e49-43ae-916e-d63e5d709fed","system_id":"levelo_inurba_marseille","lat":43.313716,"lon":5.384975,"is_reserved":false,"is_disabled":false,"rental_uris":{"android":"levelo://app?vid=d7ecebd2-9e49-43ae-916e-d63e5d709fed","ios":"levelo://app?vid=d7ecebd2-9e49-43ae-916e-d63e5d709fed"},"vehicle_type_id":"4","last_reported":1743289726,"current_range_meters":10000,"station_id":"ce4bgt92rcd13ifvqcf0","pricing_plan_id":"cebpf4jnsgd1na2vs0mg"},{"bike_id":"d871a26c-bdd3-4190-ae0c-502f524ad221","system_id":"levelo_inurba_marseille","lat":43.23074,"lon":5.355,"is_reserved":false,"is_disabled":false,"rental_uris":{"android":"levelo://app?vid=d871a26c-bdd3-4190-ae0c-502f524ad221","ios":"levelo://app?vid=d871a26c-bdd3-4190-ae0c-502f524ad221"},"vehicle_type_id":"4","last_reported":1743289726,"current_range_meters":10000,"station_id":"cpo3342slgdg3j2ifvpg","pricing_plan_id":"cebpf4jnsgd1na2vs0mg"},{"bike_id":"acf1e1c3-a629-4c7b-a838-cba3f3b54603","system_id":"levelo_inurba_marseille","lat":43.31874,"lon":5.37622,"is_reserved":false,"is_disabled":false,"rental_uris":{"android":"levelo://app?vid=acf1e1c3-a629-4c7b-a838-cba3f3b54603","ios":"levelo://app?vid=acf1e1c3-a629-4c7b-a838-cba3f3b54603"},"vehicle_type_id":"4","last_reported":1743289726,"current_range_meters":10000,"station_id":"","pricing_plan_id":"cebpf4jnsgd1na2vs0mg"},{"bike_id":"25bb5fbc-8229-4010-b703-31f5ee6ac141","system_id":"levelo_inurba_marseille","lat":43.30633,"lon":5.36627,"is_reserved":false,"is_disabled":false,"rental_uris":{"android":"levelo://app?vid=25bb5fbc-8229-4010-b703-31f5ee6ac141","ios":"levelo://app?vid=25bb5fbc-8229-4010-b703-31f5ee6ac141"},"vehicle_type_id":"4","last_reported":1743289726,"current_range_meters":10800,"station_id":"","pricing_plan_id":"cebpf4jnsgd1na2vs0mg"},{"bike_id":"0f9fc322-7a0f-4e30-9d4f-f42e9d546b3b","system_id":"levelo_inurba_marseille","lat":43.305328,"lon":5.384229,"is_reserved":false,"is_disabled":true,"rental_uris":{"android":"levelo://app?vid=0f9fc322-7a0f-4e30-9d4f-f42e9d546b3b","ios":"levelo://app?vid=0f9fc322-7a0f-4e30-9d4f-f42e9d546b3b"},"vehicle_type_id":"4","last_reported":1743289726,"current_range_meters":10800,"station_id":"","pricing_plan_id":"cebpf4jnsgd1na2vs0mg"},{"bike_id":"76d4ed16-8625-4a14-a5f1-d28ac2574c13","system_id":"levelo_inurba_marseille","lat":43.24552,"lon":5.39543,"is_reserved":false,"is_disabled":false,"rental_uris":{"android":"levelo://app?vid=76d4ed16-8625-4a14-a5f1-d28ac2574c13","ios":"levelo://app?vid=76d4ed16-8625-4a14-a5f1-d28ac2574c13"},"vehicle_type_id":"4","last_reported":1743289726,"current_range_meters":10800,"station_id":"","pricing_plan_id":"cebpf4jnsgd1na2vs0mg"},{"bike_id":"6fc2c234-f869-4e96-853e-bd28a6f6744a","system_id":"levelo_inurba_marseille","lat":43.3079,"lon":5.38158,"is_reserved":false,"is_disabled":false,"rental_uris":{"android":"levelo://app?vid=6fc2c234-f869-4e96-853e-bd28a6f6744a","ios":"levelo://app?vid=6fc2c234-f869-4e96-853e-bd28a6f6744a"},"vehicle_type_id":"4","last_reported":1743289726,"current_range_meters":10800,"station_id":"ce4bgt12rcd13ifvqce0","pricing_plan_id":"cebpf4jnsgd1na2vs0mg"},{"bike_id":"906b540e-e920-417f-92b5-0ef35349f644","system_id":"levelo_inurba_marseille","lat":43.31534,"lon":5.39718,"is_reserved":false,"is_disabled":false,"rental_uris":{"android":"levelo://app?vid=906b540e-e920-417f-92b5-0ef35349f644","ios":"levelo://app?vid=906b540e-e920-417f-92b5-0ef35349f644"},"vehicle_type_id":"4","last_reported":1743289726,"current_range_meters":10800,"station_id":"","pricing_plan_id":"cebpf4jnsgd1na2vs0mg"},{"bike_id":"92bfecbf-789d-4c73-ae76-0e5a1e2a6e8a","system_id":"levelo_inurba_marseille","lat":43.25583,"lon":5.38234,"is_reserved":false,"is_disabled":false,"rental_uris":{"android":"levelo://app?vid=92bfecbf-789d-4c73-ae76-0e5a1e2a6e8a","ios":"levelo://app?vid=92bfecbf-789d-4c73-ae76-0e5a1e2a6e8a"},"vehicle_type_id":"4","last_reported":1743289726,"current_range_meters":10800,"station_id":"ce4bhih2rcd13ifvqfs0","pricing_plan_id":"cebpf4jnsgd1na2vs0mg"},{"bike_id":"9e6169ef-5f71-4a72-b3c2-effde3fb2783","system_id":"levelo_inurba_marseille","lat":43.30412,"lon":5.41299,"is_reserved":false,"is_disabled":false,"rental_uris":{"android":"levelo://app?vid=9e6169ef-5f71-4a72-b3c2-effde3fb2783","ios":"levelo://app?vid=9e6169ef-5f71-4a72-b3c2-effde3fb2783"},"vehicle_type_id":"4","last_reported":1743289726,"current_range_meters":10800,"station_id":"ce4bhop2rcd13ifvqh8g","pricing_plan_id":"cebpf4jnsgd1na2vs0mg"},{"bike_id":"fd5a39dd-96b5-442c-99c4-5577adc0b24b","system_id":"levelo_inurba_marseille","lat":43.23182,"lon":5.39977,"is_reserved":false,"is_disabled":false,"rental_uris":{"android":"levelo://app?vid=fd5a39dd-96b5-442c-99c4-5577adc0b24b","ios":"levelo://app?vid=fd5a39dd-96b5-442c-99c4-5577adc0b24b"},"vehicle_type_id":"4","last_reported":1743289726,"current_range_meters":10800,"station_id":"ce4bhn12rcd13ifvqgqg","pricing_plan_id":"cebpf4jnsgd1na2vs0mg"},{"bike_id":"0de4a61d-7cbd-46cd-b57d-5a34b2917f05","system_id":"levelo_inurba_marseille","lat":43.28487,"lon":5.38561,"is_reserved":false,"is_disabled":false,"rental_uris":{"android":"levelo://app?vid=0de4a61d-7cbd-46cd-b57d-5a34b2917f05","ios":"levelo://app?vid=0de4a61d-7cbd-46cd-b57d-5a34b2917f05"},"vehicle_type_id":"4","last_reported":1743289726,"current_range_meters":10800,"station_id":"ce4bh8p2rcd13ifvqeb0","pricing_plan_id":"cebpf4jnsgd1na2vs0mg"},{"bike_id":"9deaa130-8013-45ea-baf5-1fd93ef39f53","system_id":"levelo_inurba_marseille","lat":43.29434,"lon":5.38633,"is_reserved":false,"is_disabled":false,"rental_uris":{"android":"levelo://app?vid=9deaa130-8013-45ea-baf5-1fd93ef39f53","ios":"levelo://app?vid=9deaa130-8013-45ea-baf5-1fd93ef39f53"},"vehicle_type_id":"4","last_reported":1743289726,"current_range_meters":10800,"station_id":"ce4bh2h2rcd13ifvqdh0","pricing_plan_id":"cebpf4jnsgd1na2vs0mg"},{"bike_id":"b5f558d0-9661-4726-a97d-21b3aaf415fb","system_id":"levelo_inurba_marseille","lat":43.24383,"lon":5.37037,"is_reserved":false,"is_disabled":false,"rental_uris":{"android":"levelo://app?vid=b5f558d0-9661-4726-a97d-21b3aaf415fb","ios":"levelo://app?vid=b5f558d0-9661-4726-a97d-21b3aaf415fb"},"vehicle_type_id":"4","last_reported":1743289726,"current_range_meters":11200,"station_id":"ce4bhhh2rcd13ifvqfk0","pricing_plan_id":"cebpf4jnsgd1na2vs0mg"},{"bike_id":"a21358f0-7ac0-4a68-a578-5694d298af82","system_id":"levelo_inurba_marseille","lat":43.3024,"lon":5.40052,"is_reserved":false,"is_disabled":false,"rental_uris":{"android":"levelo://app?vid=a21358f0-7ac0-4a68-a578-5694d298af82","ios":"levelo://app?vid=a21358f0-7ac0-4a68-a578-5694d298af82"},"vehicle_type_id":"4","last_reported":1743289726,"current_range_meters":11200,"station_id":"ce4bgvh2rcd13ifvqcs0","pricing_plan_id":"cebpf4jnsgd1na2vs0mg"},{"bike_id":"42bc7b23-0e2f-4d72-b583-40bcdabb28c7","system_id":"levelo_inurba_marseille","lat":43.29543,"lon":5.3738,"is_reserved":false,"is_disabled":false,"rental_uris":{"android":"levelo://app?vid=42bc7b23-0e2f-4d72-b583-40bcdabb28c7","ios":"levelo://app?vid=42bc7b23-0e2f-4d72-b583-40bcdabb28c7"},"vehicle_type_id":"4","last_reported":1743289726,"current_range_meters":11200,"station_id":"","pricing_plan_id":"cebpf4jnsgd1na2vs0mg"},{"bike_id":"1bf928b2-7ac9-41a7-adcc-77e0f5608510","system_id":"levelo_inurba_marseille","lat":43.32466,"lon":5.36373,"is_reserved":false,"is_disabled":false,"rental_uris":{"android":"levelo://app?vid=1bf928b2-7ac9-41a7-adcc-77e0f5608510","ios":"levelo://app?vid=1bf928b2-7ac9-41a7-adcc-77e0f5608510"},"vehicle_type_id":"4","last_reported":1743289726,"current_range_meters":11200,"station_id":"","pricing_plan_id":"cebpf4jnsgd1na2vs0mg"},{"bike_id":"200b7d31-2db8-45cc-b36d-b9d670de9728","system_id":"levelo_inurba_marseille","lat":43.31457,"lon":5.37359,"is_reserved":false,"is_disabled":false,"rental_uris":{"android":"levelo://app?vid=200b7d31-2db8-45cc-b36d-b9d670de9728","ios":"levelo://app?vid=200b7d31-2db8-45cc-b36d-b9d670de9728"},"vehicle_type_id":"4","last_reported":1743289726,"current_range_meters":11200,"station_id":"ce4bgt12rcd13ifvqcd0","pricing_plan_id":"cebpf4jnsgd1na2vs0mg"},{"bike_id":"246f8ab0-dbd9-46fe-a36f-46a7b29b4487","system_id":"levelo_inurba_marseille","lat":43.30895,"lon":5.39655,"is_reserved":false,"is_disabled":false,"rental_uris":{"android":"levelo://app?vid=246f8ab0-dbd9-46fe-a36f-46a7b29b4487","ios":"levelo://app?vid=246f8ab0-dbd9-46fe-a36f-46a7b29b4487"},"vehicle_type_id":"4","last_reported":1743289726,"current_range_meters":11200,"station_id":"ce4bh012rcd13ifvqcv0","pricing_plan_id":"cebpf4jnsgd1na2vs0mg"},{"bike_id":"e771f0e1-aa00-41e4-967c-ffe1d8820422","system_id":"levelo_inurba_marseille","lat":43.31223,"lon":5.36862,"is_reserved":false,"is_disabled":false,"rental_uris":{"android":"levelo://app?vid=e771f0e1-aa00-41e4-967c-ffe1d8820422","ios":"levelo://app?vid=e771f0e1-aa00-41e4-967c-ffe1d8820422"},"vehicle_type_id":"4","last_reported":1743289726,"current_range_meters":11200,"station_id":"ce4bgl92rcd13ifvqbq0","pricing_plan_id":"cebpf4jnsgd1na2vs0mg"},{"bike_id":"2dd88066-6fcb-490e-85b8-341590006c9b","system_id":"levelo_inurba_marseille","lat":43.29777,"lon":5.3811,"is_reserved":false,"is_disabled":false,"rental_uris":{"android":"levelo://app?vid=2dd88066-6fcb-490e-85b8-341590006c9b","ios":"levelo://app?vid=2dd88066-6fcb-490e-85b8-341590006c9b"},"vehicle_type_id":"4","last_reported":1743289726,"current_range_meters":11200,"station_id":"ce4bgip2rcd13ifvqbb0","pricing_plan_id":"cebpf4jnsgd1na2vs0mg"},{"bike_id":"8cf4f201-930c-4d9c-9146-38a1c2c66eff","system_id":"levelo_inurba_marseille","lat":43.28411,"lon":5.34983,"is_reserved":false,"is_disabled":false,"rental_uris":{"android":"levelo://app?vid=8cf4f201-930c-4d9c-9146-38a1c2c66eff","ios":"levelo://app?vid=8cf4f201-930c-4d9c-9146-38a1c2c66eff"},"vehicle_type_id":"4","last_reported":1743289726,"current_range_meters":11200,"station_id":"ce4bhbh2rcd13ifvqepg","pricing_plan_id":"cebpf4jnsgd1na2vs0mg"},{"bike_id":"21b7dfed-4bf3-42a6-9071-9b2b5259da3c","system_id":"levelo_inurba_marseille","lat":43.29626,"lon":5.37147,"is_reserved":false,"is_disabled":true,"rental_uris":{"android":"levelo://app?vid=21b7dfed-4bf3-42a6-9071-9b2b5259da3c","ios":"levelo://app?vid=21b7dfed-4bf3-42a6-9071-9b2b5259da3c"},"vehicle_type_id":"4","last_reported":1743289726,"current_range_meters":11200,"station_id":"ce4bgnh2rcd13ifvqc0g","pricing_plan_id":"cebpf4jnsgd1na2vs0mg"},{"bike_id":"06961587-eeee-4c70-939f-62338cadcf0a","system_id":"levelo_inurba_marseille","lat":43.29586,"lon":5.38115,"is_reserved":false,"is_disabled":false,"rental_uris":{"android":"levelo://app?vid=06961587-eeee-4c70-939f-62338cadcf0a","ios":"levelo://app?vid=06961587-eeee-4c70-939f-62338cadcf0a"},"vehicle_type_id":"4","last_reported":1743289726,"current_range_meters":11200,"station_id":"ce4bgl12rcd13ifvqbo0","pricing_plan_id":"cebpf4jnsgd1na2vs0mg"},{"bike_id":"83b662ed-dae0-41de-b3cb-c93fdb2dcdf9","system_id":"levelo_inurba_marseille","lat":43.29306,"lon":5.37447,"is_reserved":false,"is_disabled":false,"rental_uris":{"android":"levelo://app?vid=83b662ed-dae0-41de-b3cb-c93fdb2dcdf9","ios":"levelo://app?vid=83b662ed-dae0-41de-b3cb-c93fdb2dcdf9"},"vehicle_type_id":"4","last_reported":1743289726,"current_range_meters":11600,"station_id":"ce4bgi12rcd13ifvqb70","pricing_plan_id":"cebpf4jnsgd1na2vs0mg"},{"bike_id":"211e02b6-c381-4993-a223-66dc669f8c37","system_id":"levelo_inurba_marseille","lat":43.30138,"lon":5.374,"is_reserved":false,"is_disabled":false,"rental_uris":{"android":"levelo://app?vid=211e02b6-c381-4993-a223-66dc669f8c37","ios":"levelo://app?vid=211e02b6-c381-4993-a223-66dc669f8c37"},"vehicle_type_id":"4","last_reported":1743289726,"current_range_meters":11600,"station_id":"ce4bgs92rcd13ifvqcc0","pricing_plan_id":"cebpf4jnsgd1na2vs0mg"},{"bike_id":"9f50066e-01fa-4519-9f61-8109fe65f5d9","system_id":"levelo_inurba_marseille","lat":43.29721,"lon":5.37131,"is_reserved":false,"is_disabled":false,"rental_uris":{"android":"levelo://app?vid=9f50066e-01fa-4519-9f61-8109fe65f5d9","ios":"levelo://app?vid=9f50066e-01fa-4519-9f61-8109fe65f5d9"},"vehicle_type_id":"4","last_reported":1743289726,"current_range_meters":11600,"station_id":"","pricing_plan_id":"cebpf4jnsgd1na2vs0mg"},{"bike_id":"653ea6de-a177-4007-9cfa-5f3f77e975f6","system_id":"levelo_inurba_marseille","lat":43.24808,"lon":5.37462,"is_reserved":false,"is_disabled":false,"rental_uris":{"android":"levelo://app?vid=653ea6de-a177-4007-9cfa-5f3f77e975f6","ios":"levelo://app?vid=653ea6de-a177-4007-9cfa-5f3f77e975f6"},"vehicle_type_id":"4","last_reported":1743289726,"current_range_meters":11600,"station_id":"ce4bhgh2rcd13ifvqfb0","pricing_plan_id":"cebpf4jnsgd1na2vs0mg"},{"bike_id":"5347da3b-4766-4b5f-860e-e5fcb38f3a05","system_id":"levelo_inurba_marseille","lat":43.31369,"lon":5.385,"is_reserved":false,"is_disabled":true,"rental_uris":{"android":"levelo://app?vid=5347da3b-4766-4b5f-860e-e5fcb38f3a05","ios":"levelo://app?vid=5347da3b-4766-4b5f-860e-e5fcb38f3a05"},"vehicle_type_id":"4","last_reported":1743289726,"current_range_meters":11600,"station_id":"ce4bgt92rcd13ifvqcf0","pricing_plan_id":"cebpf4jnsgd1na2vs0mg"},{"bike_id":"487eedb8-b73b-496a-95e6-692366d96cec","system_id":"levelo_inurba_marseille","lat":43.317582,"lon":5.390094,"is_reserved":false,"is_disabled":false,"rental_uris":{"android":"levelo://app?vid=487eedb8-b73b-496a-95e6-692366d96cec","ios":"levelo://app?vid=487eedb8-b73b-496a-95e6-692366d96cec"},"vehicle_type_id":"4","last_reported":1743289726,"current_range_meters":11200,"station_id":"ce4bhqp2rcd13ifvqhng","pricing_plan_id":"cebpf4jnsgd1na2vs0mg"},{"bike_id":"e9ae186f-10dd-4878-894b-ba250efebd55","system_id":"levelo_inurba_marseille","lat":43.29261,"lon":5.40902,"is_reserved":false,"is_disabled":false,"rental_uris":{"android":"levelo://app?vid=e9ae186f-10dd-4878-894b-ba250efebd55","ios":"levelo://app?vid=e9ae186f-10dd-4878-894b-ba250efebd55"},"vehicle_type_id":"4","last_reported":1743289726,"current_range_meters":11600,"station_id":"ce4bh192rcd13ifvqdc0","pricing_plan_id":"cebpf4jnsgd1na2vs0mg"},{"bike_id":"f6925b6c-b8ce-4863-9174-75310d39c7e8","system_id":"levelo_inurba_marseille","lat":43.22927,"lon":5.3538,"is_reserved":false,"is_disabled":false,"rental_uris":{"android":"levelo://app?vid=f6925b6c-b8ce-4863-9174-75310d39c7e8","ios":"levelo://app?vid=f6925b6c-b8ce-4863-9174-75310d39c7e8"},"vehicle_type_id":"4","last_reported":1743289726,"current_range_meters":11600,"station_id":"cpo3532slgdg3j2ikp40","pricing_plan_id":"cebpf4jnsgd1na2vs0mg"},{"bike_id":"7b30d470-9209-4d84-9568-3664fac24105","system_id":"levelo_inurba_marseille","lat":43.30909,"lon":5.37184,"is_reserved":false,"is_disabled":false,"rental_uris":{"android":"levelo://app?vid=7b30d470-9209-4d84-9568-3664fac24105","ios":"levelo://app?vid=7b30d470-9209-4d84-9568-3664fac24105"},"vehicle_type_id":"4","last_reported":1743289726,"current_range_meters":12000,"station_id":"ce4bguh2rcd13ifvqckg","pricing_plan_id":"cebpf4jnsgd1na2vs0mg"},{"bike_id":"6878a757-a44d-448d-b1b4-8fc81f491c28","system_id":"levelo_inurba_marseille","lat":43.27999,"lon":5.4166,"is_reserved":false,"is_disabled":false,"rental_uris":{"android":"levelo://app?vid=6878a757-a44d-448d-b1b4-8fc81f491c28","ios":"levelo://app?vid=6878a757-a44d-448d-b1b4-8fc81f491c28"},"vehicle_type_id":"4","last_reported":1743289726,"current_range_meters":12000,"station_id":"ce4bho12rcd13ifvqh1g","pricing_plan_id":"cebpf4jnsgd1na2vs0mg"},{"bike_id":"bb56de66-76de-427f-abe8-45826fbd4289","system_id":"levelo_inurba_marseille","lat":43.29848,"lon":5.36272,"is_reserved":false,"is_disabled":false,"rental_uris":{"android":"levelo://app?vid=bb56de66-76de-427f-abe8-45826fbd4289","ios":"levelo://app?vid=bb56de66-76de-427f-abe8-45826fbd4289"},"vehicle_type_id":"4","last_reported":1743289726,"current_range_meters":12000,"station_id":"ce4bgpp2rcd13ifvqc3g","pricing_plan_id":"cebpf4jnsgd1na2vs0mg"},{"bike_id":"14c490b6-844b-4566-b5ce-4a1eef9a0745","system_id":"levelo_inurba_marseille","lat":43.27829,"lon":5.40698,"is_reserved":false,"is_disabled":false,"rental_uris":{"android":"levelo://app?vid=14c490b6-844b-4566-b5ce-4a1eef9a0745","ios":"levelo://app?vid=14c490b6-844b-4566-b5ce-4a1eef9a0745"},"vehicle_type_id":"4","last_reported":1743289726,"current_range_meters":12000,"station_id":"ce4bhnh2rcd13ifvqgtg","pricing_plan_id":"cebpf4jnsgd1na2vs0mg"},{"bike_id":"6ffa80c8-a592-4eb7-a73a-4e02b562d2d3","system_id":"levelo_inurba_marseille","lat":43.30131,"lon":5.37451,"is_reserved":false,"is_disabled":false,"rental_uris":{"android":"levelo://app?vid=6ffa80c8-a592-4eb7-a73a-4e02b562d2d3","ios":"levelo://app?vid=6ffa80c8-a592-4eb7-a73a-4e02b562d2d3"},"vehicle_type_id":"4","last_reported":1743289726,"current_range_meters":12400,"station_id":"ce4bgs92rcd13ifvqcc0","pricing_plan_id":"cebpf4jnsgd1na2vs0mg"},{"bike_id":"626d2136-a31c-4224-ba68-9a83c069cd7e","system_id":"levelo_inurba_marseille","lat":43.23199,"lon":5.39986,"is_reserved":false,"is_disabled":false,"rental_uris":{"android":"levelo://app?vid=626d2136-a31c-4224-ba68-9a83c069cd7e","ios":"levelo://app?vid=626d2136-a31c-4224-ba68-9a83c069cd7e"},"vehicle_type_id":"4","last_reported":1743289726,"current_range_meters":12400,"station_id":"ce4bhn12rcd13ifvqgqg","pricing_plan_id":"cebpf4jnsgd1na2vs0mg"},{"bike_id":"bd90bf75-9c99-4619-93c2-7a5fd83388b5","system_id":"levelo_inurba_marseille","lat":43.313603,"lon":5.388284,"is_reserved":false,"is_disabled":false,"rental_uris":{"android":"levelo://app?vid=bd90bf75-9c99-4619-93c2-7a5fd83388b5","ios":"levelo://app?vid=bd90bf75-9c99-4619-93c2-7a5fd83388b5"},"vehicle_type_id":"4","last_reported":1743289726,"current_range_meters":12800,"station_id":"ce4bgt92rcd13ifvqcf0","pricing_plan_id":"cebpf4jnsgd1na2vs0mg"},{"bike_id":"8f76027a-87c1-468c-9f93-a7d7f194ac0f","system_id":"levelo_inurba_marseille","lat":43.23209,"lon":5.35545,"is_reserved":false,"is_disabled":false,"rental_uris":{"android":"levelo://app?vid=8f76027a-87c1-468c-9f93-a7d7f194ac0f","ios":"levelo://app?vid=8f76027a-87c1-468c-9f93-a7d7f194ac0f"},"vehicle_type_id":"4","last_reported":1743289726,"current_range_meters":12800,"station_id":"ce4bhu92rcd13ifvqi70","pricing_plan_id":"cebpf4jnsgd1na2vs0mg"},{"bike_id":"aee74568-7c16-4a5e-9b91-842b1391d0ee","system_id":"levelo_inurba_marseille","lat":43.27563,"lon":5.38431,"is_reserved":false,"is_disabled":false,"rental_uris":{"android":"levelo://app?vid=aee74568-7c16-4a5e-9b91-842b1391d0ee","ios":"levelo://app?vid=aee74568-7c16-4a5e-9b91-842b1391d0ee"},"vehicle_type_id":"4","last_reported":1743289726,"current_range_meters":12800,"station_id":"ce4bhh92rcd13ifvqfi0","pricing_plan_id":"cebpf4jnsgd1na2vs0mg"},{"bike_id":"ea48dbb3-aa99-4cbe-9892-b850033ae7e1","system_id":"levelo_inurba_marseille","lat":43.29406,"lon":5.38612,"is_reserved":false,"is_disabled":false,"rental_uris":{"android":"levelo://app?vid=ea48dbb3-aa99-4cbe-9892-b850033ae7e1","ios":"levelo://app?vid=ea48dbb3-aa99-4cbe-9892-b850033ae7e1"},"vehicle_type_id":"4","last_reported":1743289726,"current_range_meters":12800,"station_id":"ce4bh2h2rcd13ifvqdh0","pricing_plan_id":"cebpf4jnsgd1na2vs0mg"},{"bike_id":"61b93b3e-de2c-498f-9067-20d081913f50","system_id":"levelo_inurba_marseille","lat":43.292,"lon":5.3579,"is_reserved":false,"is_disabled":false,"rental_uris":{"android":"levelo://app?vid=61b93b3e-de2c-498f-9067-20d081913f50","ios":"levelo://app?vid=61b93b3e-de2c-498f-9067-20d081913f50"},"vehicle_type_id":"4","last_reported":1743289726,"current_range_meters":12800,"station_id":"ce4bhb12rcd13ifvqel0","pricing_plan_id":"cebpf4jnsgd1na2vs0mg"},{"bike_id":"5c5b7fa6-c89a-4a5c-ae9d-68399b480756","system_id":"levelo_inurba_marseille","lat":43.31242,"lon":5.36855,"is_reserved":false,"is_disabled":false,"rental_uris":{"android":"levelo://app?vid=5c5b7fa6-c89a-4a5c-ae9d-68399b480756","ios":"levelo://app?vid=5c5b7fa6-c89a-4a5c-ae9d-68399b480756"},"vehicle_type_id":"4","last_reported":1743289726,"current_range_meters":12800,"station_id":"ce4bgl92rcd13ifvqbq0","pricing_plan_id":"cebpf4jnsgd1na2vs0mg"},{"bike_id":"c07a8bb2-ed32-4611-a64d-c702471d508f","system_id":"levelo_inurba_marseille","lat":43.31167,"lon":5.38715,"is_reserved":false,"is_disabled":false,"rental_uris":{"android":"levelo://app?vid=c07a8bb2-ed32-4611-a64d-c702471d508f","ios":"levelo://app?vid=c07a8bb2-ed32-4611-a64d-c702471d508f"},"vehicle_type_id":"4","last_reported":1743289726,"current_range_meters":12800,"station_id":"ce4bgv12rcd13ifvqcp0","pricing_plan_id":"cebpf4jnsgd1na2vs0mg"},{"bike_id":"8bcc045e-f28b-442a-a0af-38457b26197c","system_id":"levelo_inurba_marseille","lat":43.24158,"lon":5.36412,"is_reserved":false,"is_disabled":false,"rental_uris":{"android":"levelo://app?vid=8bcc045e-f28b-442a-a0af-38457b26197c","ios":"levelo://app?vid=8bcc045e-f28b-442a-a0af-38457b26197c"},"vehicle_type_id":"4","last_reported":1743289726,"current_range_meters":12800,"station_id":"cpo36qri1sfpv3e86is0","pricing_plan_id":"cebpf4jnsgd1na2vs0mg"},{"bike_id":"765a2a99-f936-41d8-8d6f-c186caf8bf6d","system_id":"levelo_inurba_marseille","lat":43.29552,"lon":5.42291,"is_reserved":false,"is_disabled":false,"rental_uris":{"android":"levelo://app?vid=765a2a99-f936-41d8-8d6f-c186caf8bf6d","ios":"levelo://app?vid=765a2a99-f936-41d8-8d6f-c186caf8bf6d"},"vehicle_type_id":"4","last_reported":1743289726,"current_range_meters":12800,"station_id":"ce4bhph2rcd13ifvqhdg","pricing_plan_id":"cebpf4jnsgd1na2vs0mg"},{"bike_id":"b8f069ae-10bf-4e9b-9ee0-ae5418daea48","system_id":"levelo_inurba_marseille","lat":43.28049,"lon":5.36945,"is_reserved":false,"is_disabled":false,"rental_uris":{"android":"levelo://app?vid=b8f069ae-10bf-4e9b-9ee0-ae5418daea48","ios":"levelo://app?vid=b8f069ae-10bf-4e9b-9ee0-ae5418daea48"},"vehicle_type_id":"4","last_reported":1743289726,"current_range_meters":12800,"station_id":"ce4bha12rcd13ifvqef0","pricing_plan_id":"cebpf4jnsgd1na2vs0mg"},{"bike_id":"51f634e3-ac61-4928-9ed6-54eb1e30344e","system_id":"levelo_inurba_marseille","lat":43.29686,"lon":5.37292,"is_reserved":false,"is_disabled":true,"rental_uris":{"android":"levelo://app?vid=51f634e3-ac61-4928-9ed6-54eb1e30344e","ios":"levelo://app?vid=51f634e3-ac61-4928-9ed6-54eb1e30344e"},"vehicle_type_id":"4","last_reported":1743289726,"current_range_meters":13600,"station_id":"ce4bgk12rcd13ifvqbj0","pricing_plan_id":"cebpf4jnsgd1na2vs0mg"},{"bike_id":"f90b1b9e-66df-45f5-a40c-b94fb98d912e","system_id":"levelo_inurba_marseille","lat":43.29843,"lon":5.36263,"is_reserved":false,"is_disabled":false,"rental_uris":{"android":"levelo://app?vid=f90b1b9e-66df-45f5-a40c-b94fb98d912e","ios":"levelo://app?vid=f90b1b9e-66df-45f5-a40c-b94fb98d912e"},"vehicle_type_id":"4","last_reported":1743289726,"current_range_meters":13600,"station_id":"ce4bgpp2rcd13ifvqc3g","pricing_plan_id":"cebpf4jnsgd1na2vs0mg"},{"bike_id":"60a5895b-0fc5-483c-85ae-f59ef653f234","system_id":"levelo_inurba_marseille","lat":43.25497,"lon":5.37652,"is_reserved":false,"is_disabled":false,"rental_uris":{"android":"levelo://app?vid=60a5895b-0fc5-483c-85ae-f59ef653f234","ios":"levelo://app?vid=60a5895b-0fc5-483c-85ae-f59ef653f234"},"vehicle_type_id":"4","last_reported":1743289726,"current_range_meters":13600,"station_id":"ce4bhh12rcd13ifvqff0","pricing_plan_id":"cebpf4jnsgd1na2vs0mg"},{"bike_id":"6ef18dd7-1cb9-4ef6-bfdd-052cde57f183","system_id":"levelo_inurba_marseille","lat":43.32132,"lon":5.36769,"is_reserved":false,"is_disabled":false,"rental_uris":{"android":"levelo://app?vid=6ef18dd7-1cb9-4ef6-bfdd-052cde57f183","ios":"levelo://app?vid=6ef18dd7-1cb9-4ef6-bfdd-052cde57f183"},"vehicle_type_id":"4","last_reported":1743289726,"current_range_meters":13600,"station_id":"ce4bhrh2rcd13ifvqhug","pricing_plan_id":"cebpf4jnsgd1na2vs0mg"},{"bike_id":"0e9d92a7-df29-43d8-906d-2a51c6561f7d","system_id":"levelo_inurba_marseille","lat":43.28413,"lon":5.35007,"is_reserved":false,"is_disabled":false,"rental_uris":{"android":"levelo://app?vid=0e9d92a7-df29-43d8-906d-2a51c6561f7d","ios":"levelo://app?vid=0e9d92a7-df29-43d8-906d-2a51c6561f7d"},"vehicle_type_id":"4","last_reported":1743289726,"current_range_meters":13600,"station_id":"ce4bhbh2rcd13ifvqepg","pricing_plan_id":"cebpf4jnsgd1na2vs0mg"},{"bike_id":"5cb8c766-498c-488a-86ec-2317510d9867","system_id":"levelo_inurba_marseille","lat":43.32349,"lon":5.36726,"is_reserved":false,"is_disabled":false,"rental_uris":{"android":"levelo://app?vid=5cb8c766-498c-488a-86ec-2317510d9867","ios":"levelo://app?vid=5cb8c766-498c-488a-86ec-2317510d9867"},"vehicle_type_id":"4","last_reported":1743289726,"current_range_meters":14000,"station_id":"ce4bhsh2rcd13ifvqi2g","pricing_plan_id":"cebpf4jnsgd1na2vs0mg"},{"bike_id":"5c49fc8b-b573-44cd-9da2-767f8f7a765b","system_id":"levelo_inurba_marseille","lat":43.3176,"lon":5.39024,"is_reserved":false,"is_disabled":false,"rental_uris":{"android":"levelo://app?vid=5c49fc8b-b573-44cd-9da2-767f8f7a765b","ios":"levelo://app?vid=5c49fc8b-b573-44cd-9da2-767f8f7a765b"},"vehicle_type_id":"4","last_reported":1743289726,"current_range_meters":14000,"station_id":"ce4bhqp2rcd13ifvqhng","pricing_plan_id":"cebpf4jnsgd1na2vs0mg"},{"bike_id":"7e46e322-27d9-4f9d-b1ce-11741eb7c78f","system_id":"levelo_inurba_marseille","lat":43.31749,"lon":5.39028,"is_reserved":false,"is_disabled":false,"rental_uris":{"android":"levelo://app?vid=7e46e322-27d9-4f9d-b1ce-11741eb7c78f","ios":"levelo://app?vid=7e46e322-27d9-4f9d-b1ce-11741eb7c78f"},"vehicle_type_id":"4","last_reported":1743289726,"current_range_meters":14000,"station_id":"ce4bhqp2rcd13ifvqhng","pricing_plan_id":"cebpf4jnsgd1na2vs0mg"},{"bike_id":"bfcad82b-6acc-493c-b418-93ec0bae17e4","system_id":"levelo_inurba_marseille","lat":43.32055,"lon":5.3678,"is_reserved":false,"is_disabled":false,"rental_uris":{"android":"levelo://app?vid=bfcad82b-6acc-493c-b418-93ec0bae17e4","ios":"levelo://app?vid=bfcad82b-6acc-493c-b418-93ec0bae17e4"},"vehicle_type_id":"4","last_reported":1743289726,"current_range_meters":14000,"station_id":"ce4bhrh2rcd13ifvqhug","pricing_plan_id":"cebpf4jnsgd1na2vs0mg"},{"bike_id":"ba362734-34ca-4bcd-8728-cadb040d6152","system_id":"levelo_inurba_marseille","lat":43.24412,"lon":5.37083,"is_reserved":false,"is_disabled":false,"rental_uris":{"android":"levelo://app?vid=ba362734-34ca-4bcd-8728-cadb040d6152","ios":"levelo://app?vid=ba362734-34ca-4bcd-8728-cadb040d6152"},"vehicle_type_id":"4","last_reported":1743289726,"current_range_meters":14000,"station_id":"ce4bhhh2rcd13ifvqfk0","pricing_plan_id":"cebpf4jnsgd1na2vs0mg"},{"bike_id":"82be5020-df29-4bb6-b821-10f31b9ed89a","system_id":"levelo_inurba_marseille","lat":43.28413,"lon":5.35,"is_reserved":false,"is_disabled":false,"rental_uris":{"android":"levelo://app?vid=82be5020-df29-4bb6-b821-10f31b9ed89a","ios":"levelo://app?vid=82be5020-df29-4bb6-b821-10f31b9ed89a"},"vehicle_type_id":"4","last_reported":1743289726,"current_range_meters":14000,"station_id":"ce4bhbh2rcd13ifvqepg","pricing_plan_id":"cebpf4jnsgd1na2vs0mg"},{"bike_id":"b63eee63-392e-4360-bd35-8f9c5961cdc8","system_id":"levelo_inurba_marseille","lat":43.26034,"lon":5.37549,"is_reserved":false,"is_disabled":false,"rental_uris":{"android":"levelo://app?vid=b63eee63-392e-4360-bd35-8f9c5961cdc8","ios":"levelo://app?vid=b63eee63-392e-4360-bd35-8f9c5961cdc8"},"vehicle_type_id":"4","last_reported":1743289726,"current_range_meters":14000,"station_id":"ce4bhgh2rcd13ifvqfa0","pricing_plan_id":"cebpf4jnsgd1na2vs0mg"},{"bike_id":"8e9afe6a-948c-44bd-a1ec-fc4477b65188","system_id":"levelo_inurba_marseille","lat":43.24807,"lon":5.37451,"is_reserved":false,"is_disabled":false,"rental_uris":{"android":"levelo://app?vid=8e9afe6a-948c-44bd-a1ec-fc4477b65188","ios":"levelo://app?vid=8e9afe6a-948c-44bd-a1ec-fc4477b65188"},"vehicle_type_id":"4","last_reported":1743289726,"current_range_meters":14000,"station_id":"ce4bhgh2rcd13ifvqfb0","pricing_plan_id":"cebpf4jnsgd1na2vs0mg"},{"bike_id":"871f3035-10bb-4a28-afa0-18619600e1a6","system_id":"levelo_inurba_marseille","lat":43.29943,"lon":5.36529,"is_reserved":false,"is_disabled":true,"rental_uris":{"android":"levelo://app?vid=871f3035-10bb-4a28-afa0-18619600e1a6","ios":"levelo://app?vid=871f3035-10bb-4a28-afa0-18619600e1a6"},"vehicle_type_id":"4","last_reported":1743289726,"current_range_meters":14400,"station_id":"ce4bgm92rcd13ifvqbr0","pricing_plan_id":"cebpf4jnsgd1na2vs0mg"},{"bike_id":"8f3300c4-5647-410f-ab91-e9cbcf19e791","system_id":"levelo_inurba_marseille","lat":43.29043,"lon":5.37566,"is_reserved":false,"is_disabled":false,"rental_uris":{"android":"levelo://app?vid=8f3300c4-5647-410f-ab91-e9cbcf19e791","ios":"levelo://app?vid=8f3300c4-5647-410f-ab91-e9cbcf19e791"},"vehicle_type_id":"4","last_reported":1743289726,"current_range_meters":14400,"station_id":"ce4bh692rcd13ifvqe90","pricing_plan_id":"cebpf4jnsgd1na2vs0mg"},{"bike_id":"59359988-faf5-47a1-b5f8-d319a6e1abfa","system_id":"levelo_inurba_marseille","lat":43.28434,"lon":5.34977,"is_reserved":false,"is_disabled":false,"rental_uris":{"android":"levelo://app?vid=59359988-faf5-47a1-b5f8-d319a6e1abfa","ios":"levelo://app?vid=59359988-faf5-47a1-b5f8-d319a6e1abfa"},"vehicle_type_id":"4","last_reported":1743289726,"current_range_meters":14400,"station_id":"ce4bhbh2rcd13ifvqepg","pricing_plan_id":"cebpf4jnsgd1na2vs0mg"},{"bike_id":"caf6b8e0-076d-4537-b91d-9d5cd2bf54de","system_id":"levelo_inurba_marseille","lat":43.29418,"lon":5.38629,"is_reserved":false,"is_disabled":false,"rental_uris":{"android":"levelo://app?vid=caf6b8e0-076d-4537-b91d-9d5cd2bf54de","ios":"levelo://app?vid=caf6b8e0-076d-4537-b91d-9d5cd2bf54de"},"vehicle_type_id":"4","last_reported":1743289726,"current_range_meters":14400,"station_id":"ce4bh2h2rcd13ifvqdh0","pricing_plan_id":"cebpf4jnsgd1na2vs0mg"},{"bike_id":"787c7258-c69e-43ff-a074-7f72d83ad60e","system_id":"levelo_inurba_marseille","lat":43.2869,"lon":5.37414,"is_reserved":false,"is_disabled":true,"rental_uris":{"android":"levelo://app?vid=787c7258-c69e-43ff-a074-7f72d83ad60e","ios":"levelo://app?vid=787c7258-c69e-43ff-a074-7f72d83ad60e"},"vehicle_type_id":"4","last_reported":1743289726,"current_range_meters":14400,"station_id":"ce4bh3p2rcd13ifvqdq0","pricing_plan_id":"cebpf4jnsgd1na2vs0mg"},{"bike_id":"cb8c9ca5-9083-4e86-9e9f-2bc245af5095","system_id":"levelo_inurba_marseille","lat":43.28411,"lon":5.3752,"is_reserved":false,"is_disabled":true,"rental_uris":{"android":"levelo://app?vid=cb8c9ca5-9083-4e86-9e9f-2bc245af5095","ios":"levelo://app?vid=cb8c9ca5-9083-4e86-9e9f-2bc245af5095"},"vehicle_type_id":"4","last_reported":1743289726,"current_range_meters":14400,"station_id":"ce4bh412rcd13ifvqds0","pricing_plan_id":"cebpf4jnsgd1na2vs0mg"},{"bike_id":"8e69e7f9-76b5-4d0a-8b34-45d50fc637f3","system_id":"levelo_inurba_marseille","lat":43.24213,"lon":5.38436,"is_reserved":false,"is_disabled":false,"rental_uris":{"android":"levelo://app?vid=8e69e7f9-76b5-4d0a-8b34-45d50fc637f3","ios":"levelo://app?vid=8e69e7f9-76b5-4d0a-8b34-45d50fc637f3"},"vehicle_type_id":"4","last_reported":1743289726,"current_range_meters":14400,"station_id":"","pricing_plan_id":"cebpf4jnsgd1na2vs0mg"},{"bike_id":"4cecc92c-55c2-47ad-bd4f-c93295a571e1","system_id":"levelo_inurba_marseille","lat":43.3092,"lon":5.4014,"is_reserved":false,"is_disabled":false,"rental_uris":{"android":"levelo://app?vid=4cecc92c-55c2-47ad-bd4f-c93295a571e1","ios":"levelo://app?vid=4cecc92c-55c2-47ad-bd4f-c93295a571e1"},"vehicle_type_id":"4","last_reported":1743289726,"current_range_meters":14400,"station_id":"ce4bgvp2rcd13ifvqct0","pricing_plan_id":"cebpf4jnsgd1na2vs0mg"},{"bike_id":"a84445ff-337f-4fd5-9926-fe316147aff5","system_id":"levelo_inurba_marseille","lat":43.30925,"lon":5.40147,"is_reserved":false,"is_disabled":false,"rental_uris":{"android":"levelo://app?vid=a84445ff-337f-4fd5-9926-fe316147aff5","ios":"levelo://app?vid=a84445ff-337f-4fd5-9926-fe316147aff5"},"vehicle_type_id":"4","last_reported":1743289726,"current_range_meters":14400,"station_id":"ce4bgvp2rcd13ifvqct0","pricing_plan_id":"cebpf4jnsgd1na2vs0mg"},{"bike_id":"678bc6d0-4bd4-40f0-8870-caf577205182","system_id":"levelo_inurba_marseille","lat":43.29803,"lon":5.40394,"is_reserved":false,"is_disabled":false,"rental_uris":{"android":"levelo://app?vid=678bc6d0-4bd4-40f0-8870-caf577205182","ios":"levelo://app?vid=678bc6d0-4bd4-40f0-8870-caf577205182"},"vehicle_type_id":"4","last_reported":1743289726,"current_range_meters":14800,"station_id":"ce4bh112rcd13ifvqd90","pricing_plan_id":"cebpf4jnsgd1na2vs0mg"},{"bike_id":"72d03be8-0900-4d61-86db-197690b6e545","system_id":"levelo_inurba_marseille","lat":43.289346,"lon":5.396663,"is_reserved":false,"is_disabled":false,"rental_uris":{"android":"levelo://app?vid=72d03be8-0900-4d61-86db-197690b6e545","ios":"levelo://app?vid=72d03be8-0900-4d61-86db-197690b6e545"},"vehicle_type_id":"4","last_reported":1743289726,"current_range_meters":14800,"station_id":"ce4bh9p2rcd13ifvqec0","pricing_plan_id":"cebpf4jnsgd1na2vs0mg"},{"bike_id":"e0418843-2ae7-4c69-8557-9b3d7bbbbed3","system_id":"levelo_inurba_marseille","lat":43.291255,"lon":5.384205,"is_reserved":false,"is_disabled":false,"rental_uris":{"android":"levelo://app?vid=e0418843-2ae7-4c69-8557-9b3d7bbbbed3","ios":"levelo://app?vid=e0418843-2ae7-4c69-8557-9b3d7bbbbed3"},"vehicle_type_id":"4","last_reported":1743289726,"current_range_meters":14800,"station_id":"","pricing_plan_id":"cebpf4jnsgd1na2vs0mg"},{"bike_id":"553a0233-cf42-4c71-aca1-9eb17e4f500b","system_id":"levelo_inurba_marseille","lat":43.28443,"lon":5.39167,"is_reserved":false,"is_disabled":false,"rental_uris":{"android":"levelo://app?vid=553a0233-cf42-4c71-aca1-9eb17e4f500b","ios":"levelo://app?vid=553a0233-cf42-4c71-aca1-9eb17e4f500b"},"vehicle_type_id":"4","last_reported":1743289726,"current_range_meters":14800,"station_id":"ce4bhoh2rcd13ifvqh5g","pricing_plan_id":"cebpf4jnsgd1na2vs0mg"},{"bike_id":"1e255476-3d6b-4505-89a5-56b0823e3a26","system_id":"levelo_inurba_marseille","lat":43.31727,"lon":5.42397,"is_reserved":false,"is_disabled":false,"rental_uris":{"android":"levelo://app?vid=1e255476-3d6b-4505-89a5-56b0823e3a26","ios":"levelo://app?vid=1e255476-3d6b-4505-89a5-56b0823e3a26"},"vehicle_type_id":"4","last_reported":1743289726,"current_range_meters":14800,"station_id":"ce4bhp92rcd13ifvqhbg","pricing_plan_id":"cebpf4jnsgd1na2vs0mg"},{"bike_id":"212b4968-68b0-4bf9-ad8a-05c11fbc8795","system_id":"levelo_inurba_marseille","lat":43.2649,"lon":5.39573,"is_reserved":false,"is_disabled":false,"rental_uris":{"android":"levelo://app?vid=212b4968-68b0-4bf9-ad8a-05c11fbc8795","ios":"levelo://app?vid=212b4968-68b0-4bf9-ad8a-05c11fbc8795"},"vehicle_type_id":"4","last_reported":1743289726,"current_range_meters":14800,"station_id":"ce4bhi12rcd13ifvqfq0","pricing_plan_id":"cebpf4jnsgd1na2vs0mg"},{"bike_id":"eef6f198-30e2-4f80-a632-eacff7db78b9","system_id":"levelo_inurba_marseille","lat":43.30891,"lon":5.39645,"is_reserved":false,"is_disabled":false,"rental_uris":{"android":"levelo://app?vid=eef6f198-30e2-4f80-a632-eacff7db78b9","ios":"levelo://app?vid=eef6f198-30e2-4f80-a632-eacff7db78b9"},"vehicle_type_id":"4","last_reported":1743289726,"current_range_meters":15200,"station_id":"ce4bh012rcd13ifvqcv0","pricing_plan_id":"cebpf4jnsgd1na2vs0mg"},{"bike_id":"75b246c3-9b73-468c-8861-c6f26c95cf35","system_id":"levelo_inurba_marseille","lat":43.301667,"lon":5.373718,"is_reserved":false,"is_disabled":false,"rental_uris":{"android":"levelo://app?vid=75b246c3-9b73-468c-8861-c6f26c95cf35","ios":"levelo://app?vid=75b246c3-9b73-468c-8861-c6f26c95cf35"},"vehicle_type_id":"4","last_reported":1743289726,"current_range_meters":15200,"station_id":"ce4bgs92rcd13ifvqcc0","pricing_plan_id":"cebpf4jnsgd1na2vs0mg"},{"bike_id":"d657b6c6-9c98-41e1-a011-dd2a714f5f2c","system_id":"levelo_inurba_marseille","lat":43.28443,"lon":5.39175,"is_reserved":false,"is_disabled":false,"rental_uris":{"android":"levelo://app?vid=d657b6c6-9c98-41e1-a011-dd2a714f5f2c","ios":"levelo://app?vid=d657b6c6-9c98-41e1-a011-dd2a714f5f2c"},"vehicle_type_id":"4","last_reported":1743289726,"current_range_meters":15200,"station_id":"ce4bhoh2rcd13ifvqh5g","pricing_plan_id":"cebpf4jnsgd1na2vs0mg"},{"bike_id":"f536323a-eaac-4757-bc97-e5f66f238cec","system_id":"levelo_inurba_marseille","lat":43.26805,"lon":5.40261,"is_reserved":false,"is_disabled":false,"rental_uris":{"android":"levelo://app?vid=f536323a-eaac-4757-bc97-e5f66f238cec","ios":"levelo://app?vid=f536323a-eaac-4757-bc97-e5f66f238cec"},"vehicle_type_id":"4","last_reported":1743289726,"current_range_meters":15200,"station_id":"ce501612rcd8frsf0b60","pricing_plan_id":"cebpf4jnsgd1na2vs0mg"},{"bike_id":"d4f1bc92-c39b-4021-b157-7685a0ef5139","system_id":"levelo_inurba_marseille","lat":43.29553,"lon":5.42294,"is_reserved":false,"is_disabled":false,"rental_uris":{"android":"levelo://app?vid=d4f1bc92-c39b-4021-b157-7685a0ef5139","ios":"levelo://app?vid=d4f1bc92-c39b-4021-b157-7685a0ef5139"},"vehicle_type_id":"4","last_reported":1743289726,"current_range_meters":15200,"station_id":"ce4bhph2rcd13ifvqhdg","pricing_plan_id":"cebpf4jnsgd1na2vs0mg"},{"bike_id":"649a6830-5742-494a-8ceb-85347bcec024","system_id":"levelo_inurba_marseille","lat":43.29028,"lon":5.3756,"is_reserved":false,"is_disabled":false,"rental_uris":{"android":"levelo://app?vid=649a6830-5742-494a-8ceb-85347bcec024","ios":"levelo://app?vid=649a6830-5742-494a-8ceb-85347bcec024"},"vehicle_type_id":"4","last_reported":1743289726,"current_range_meters":15200,"station_id":"ce4bh692rcd13ifvqe90","pricing_plan_id":"cebpf4jnsgd1na2vs0mg"},{"bike_id":"21f46e5f-9143-42fd-af44-87a5cb4072ed","system_id":"levelo_inurba_marseille","lat":43.30605,"lon":5.37218,"is_reserved":false,"is_disabled":false,"rental_uris":{"android":"levelo://app?vid=21f46e5f-9143-42fd-af44-87a5cb4072ed","ios":"levelo://app?vid=21f46e5f-9143-42fd-af44-87a5cb4072ed"},"vehicle_type_id":"4","last_reported":1743289726,"current_range_meters":15200,"station_id":"ce4bgqh2rcd13ifvqc4g","pricing_plan_id":"cebpf4jnsgd1na2vs0mg"},{"bike_id":"407777fb-60d2-47dc-935e-2af8ba0009b1","system_id":"levelo_inurba_marseille","lat":43.29071,"lon":5.37166,"is_reserved":false,"is_disabled":false,"rental_uris":{"android":"levelo://app?vid=407777fb-60d2-47dc-935e-2af8ba0009b1","ios":"levelo://app?vid=407777fb-60d2-47dc-935e-2af8ba0009b1"},"vehicle_type_id":"4","last_reported":1743289726,"current_range_meters":16000,"station_id":"ce4bh5p2rcd13ifvqe4g","pricing_plan_id":"cebpf4jnsgd1na2vs0mg"},{"bike_id":"5e62341f-443a-4ab2-9093-8f364ed472ed","system_id":"levelo_inurba_marseille","lat":43.31813,"lon":5.38521,"is_reserved":false,"is_disabled":false,"rental_uris":{"android":"levelo://app?vid=5e62341f-443a-4ab2-9093-8f364ed472ed","ios":"levelo://app?vid=5e62341f-443a-4ab2-9093-8f364ed472ed"},"vehicle_type_id":"4","last_reported":1743289726,"current_range_meters":16000,"station_id":"","pricing_plan_id":"cebpf4jnsgd1na2vs0mg"},{"bike_id":"76859129-4009-4843-90a4-dc4d2b65271a","system_id":"levelo_inurba_marseille","lat":43.24163,"lon":5.36382,"is_reserved":false,"is_disabled":false,"rental_uris":{"android":"levelo://app?vid=76859129-4009-4843-90a4-dc4d2b65271a","ios":"levelo://app?vid=76859129-4009-4843-90a4-dc4d2b65271a"},"vehicle_type_id":"4","last_reported":1743289726,"current_range_meters":16000,"station_id":"cpo36qri1sfpv3e86is0","pricing_plan_id":"cebpf4jnsgd1na2vs0mg"},{"bike_id":"5932aea2-ca7e-4bf0-a5fc-30c0ac341a24","system_id":"levelo_inurba_marseille","lat":43.28179,"lon":5.42628,"is_reserved":false,"is_disabled":false,"rental_uris":{"android":"levelo://app?vid=5932aea2-ca7e-4bf0-a5fc-30c0ac341a24","ios":"levelo://app?vid=5932aea2-ca7e-4bf0-a5fc-30c0ac341a24"},"vehicle_type_id":"4","last_reported":1743289726,"current_range_meters":16000,"station_id":"ce4bhnh2rcd13ifvqgug","pricing_plan_id":"cebpf4jnsgd1na2vs0mg"},{"bike_id":"bf8f06f8-9f7a-4ca6-97ef-3f544d07990e","system_id":"levelo_inurba_marseille","lat":43.29927,"lon":5.39412,"is_reserved":false,"is_disabled":false,"rental_uris":{"android":"levelo://app?vid=bf8f06f8-9f7a-4ca6-97ef-3f544d07990e","ios":"levelo://app?vid=bf8f06f8-9f7a-4ca6-97ef-3f544d07990e"},"vehicle_type_id":"4","last_reported":1743289726,"current_range_meters":16000,"station_id":"","pricing_plan_id":"cebpf4jnsgd1na2vs0mg"},{"bike_id":"ba6a2524-0f9b-4281-97a3-f617b967979d","system_id":"levelo_inurba_marseille","lat":43.31092,"lon":5.38352,"is_reserved":false,"is_disabled":false,"rental_uris":{"android":"levelo://app?vid=ba6a2524-0f9b-4281-97a3-f617b967979d","ios":"levelo://app?vid=ba6a2524-0f9b-4281-97a3-f617b967979d"},"vehicle_type_id":"4","last_reported":1743289726,"current_range_meters":16000,"station_id":"ce4bgv92rcd13ifvqcr0","pricing_plan_id":"cebpf4jnsgd1na2vs0mg"},{"bike_id":"b73281d3-4024-4cc2-9467-a02b03434418","system_id":"levelo_inurba_marseille","lat":43.28621,"lon":5.35094,"is_reserved":false,"is_disabled":false,"rental_uris":{"android":"levelo://app?vid=b73281d3-4024-4cc2-9467-a02b03434418","ios":"levelo://app?vid=b73281d3-4024-4cc2-9467-a02b03434418"},"vehicle_type_id":"4","last_reported":1743289726,"current_range_meters":16000,"station_id":"ce4bhch2rcd13ifvqeug","pricing_plan_id":"cebpf4jnsgd1na2vs0mg"},{"bike_id":"d33af3ae-bc40-4777-acfb-c69ad8669c07","system_id":"levelo_inurba_marseille","lat":43.29067,"lon":5.37161,"is_reserved":false,"is_disabled":false,"rental_uris":{"android":"levelo://app?vid=d33af3ae-bc40-4777-acfb-c69ad8669c07","ios":"levelo://app?vid=d33af3ae-bc40-4777-acfb-c69ad8669c07"},"vehicle_type_id":"4","last_reported":1743289726,"current_range_meters":16000,"station_id":"ce4bh5p2rcd13ifvqe4g","pricing_plan_id":"cebpf4jnsgd1na2vs0mg"},{"bike_id":"608f89be-d8f7-4905-90f4-2fcb81c120d3","system_id":"levelo_inurba_marseille","lat":43.29059,"lon":5.37158,"is_reserved":false,"is_disabled":true,"rental_uris":{"android":"levelo://app?vid=608f89be-d8f7-4905-90f4-2fcb81c120d3","ios":"levelo://app?vid=608f89be-d8f7-4905-90f4-2fcb81c120d3"},"vehicle_type_id":"4","last_reported":1743289726,"current_range_meters":16000,"station_id":"ce4bh5p2rcd13ifvqe4g","pricing_plan_id":"cebpf4jnsgd1na2vs0mg"},{"bike_id":"4323b71b-75a4-4344-aa79-0097aefcc021","system_id":"levelo_inurba_marseille","lat":43.28458,"lon":5.35879,"is_reserved":false,"is_disabled":false,"rental_uris":{"android":"levelo://app?vid=4323b71b-75a4-4344-aa79-0097aefcc021","ios":"levelo://app?vid=4323b71b-75a4-4344-aa79-0097aefcc021"},"vehicle_type_id":"4","last_reported":1743289726,"current_range_meters":16000,"station_id":"ce4bhah2rcd13ifvqei0","pricing_plan_id":"cebpf4jnsgd1na2vs0mg"},{"bike_id":"dd3a58d5-80cb-467f-b9f9-cc63be36b3b3","system_id":"levelo_inurba_marseille","lat":43.30813,"lon":5.38139,"is_reserved":false,"is_disabled":false,"rental_uris":{"android":"levelo://app?vid=dd3a58d5-80cb-467f-b9f9-cc63be36b3b3","ios":"levelo://app?vid=dd3a58d5-80cb-467f-b9f9-cc63be36b3b3"},"vehicle_type_id":"4","last_reported":1743289726,"current_range_meters":16000,"station_id":"ce4bgt12rcd13ifvqce0","pricing_plan_id":"cebpf4jnsgd1na2vs0mg"},{"bike_id":"36f86b2e-ea07-4f02-b871-01a8de10175d","system_id":"levelo_inurba_marseille","lat":43.23953,"lon":5.36649,"is_reserved":false,"is_disabled":false,"rental_uris":{"android":"levelo://app?vid=36f86b2e-ea07-4f02-b871-01a8de10175d","ios":"levelo://app?vid=36f86b2e-ea07-4f02-b871-01a8de10175d"},"vehicle_type_id":"4","last_reported":1743289726,"current_range_meters":16400,"station_id":"ce4bhi12rcd13ifvqfp0","pricing_plan_id":"cebpf4jnsgd1na2vs0mg"},{"bike_id":"8800990b-0588-4701-9f9b-d00ff201f1bf","system_id":"levelo_inurba_marseille","lat":43.31761,"lon":5.39006,"is_reserved":false,"is_disabled":false,"rental_uris":{"android":"levelo://app?vid=8800990b-0588-4701-9f9b-d00ff201f1bf","ios":"levelo://app?vid=8800990b-0588-4701-9f9b-d00ff201f1bf"},"vehicle_type_id":"4","last_reported":1743289726,"current_range_meters":16400,"station_id":"ce4bhqp2rcd13ifvqhng","pricing_plan_id":"cebpf4jnsgd1na2vs0mg"},{"bike_id":"c2e94277-389b-4482-ae7e-0f90e44fa1e2","system_id":"levelo_inurba_marseille","lat":43.32107,"lon":5.36774,"is_reserved":false,"is_disabled":false,"rental_uris":{"android":"levelo://app?vid=c2e94277-389b-4482-ae7e-0f90e44fa1e2","ios":"levelo://app?vid=c2e94277-389b-4482-ae7e-0f90e44fa1e2"},"vehicle_type_id":"4","last_reported":1743289726,"current_range_meters":16400,"station_id":"ce4bhrh2rcd13ifvqhug","pricing_plan_id":"cebpf4jnsgd1na2vs0mg"},{"bike_id":"254079da-c6b8-41dd-8e9a-dfc5824c5879","system_id":"levelo_inurba_marseille","lat":43.29031,"lon":5.3863,"is_reserved":false,"is_disabled":false,"rental_uris":{"android":"levelo://app?vid=254079da-c6b8-41dd-8e9a-dfc5824c5879","ios":"levelo://app?vid=254079da-c6b8-41dd-8e9a-dfc5824c5879"},"vehicle_type_id":"4","last_reported":1743289726,"current_range_meters":16400,"station_id":"ce4bh4p2rcd13ifvqe0g","pricing_plan_id":"cebpf4jnsgd1na2vs0mg"},{"bike_id":"e1bf0ade-0cda-489a-b647-daf1b0b8e49a","system_id":"levelo_inurba_marseille","lat":43.29298,"lon":5.37153,"is_reserved":false,"is_disabled":false,"rental_uris":{"android":"levelo://app?vid=e1bf0ade-0cda-489a-b647-daf1b0b8e49a","ios":"levelo://app?vid=e1bf0ade-0cda-489a-b647-daf1b0b8e49a"},"vehicle_type_id":"4","last_reported":1743289726,"current_range_meters":16400,"station_id":"ce4bgh92rcd13ifvqb40","pricing_plan_id":"cebpf4jnsgd1na2vs0mg"},{"bike_id":"12cd2614-5759-4501-9c23-d3351a7cc7df","system_id":"levelo_inurba_marseille","lat":43.30548,"lon":5.38427,"is_reserved":false,"is_disabled":true,"rental_uris":{"android":"levelo://app?vid=12cd2614-5759-4501-9c23-d3351a7cc7df","ios":"levelo://app?vid=12cd2614-5759-4501-9c23-d3351a7cc7df"},"vehicle_type_id":"4","last_reported":1743289726,"current_range_meters":16400,"station_id":"ce4bgg92rcd13ifvqb30","pricing_plan_id":"cebpf4jnsgd1na2vs0mg"},{"bike_id":"d6fa1cf5-aad4-4443-8560-06b90cedba98","system_id":"levelo_inurba_marseille","lat":43.28699,"lon":5.3739,"is_reserved":false,"is_disabled":false,"rental_uris":{"android":"levelo://app?vid=d6fa1cf5-aad4-4443-8560-06b90cedba98","ios":"levelo://app?vid=d6fa1cf5-aad4-4443-8560-06b90cedba98"},"vehicle_type_id":"4","last_reported":1743289726,"current_range_meters":16400,"station_id":"ce4bh3p2rcd13ifvqdq0","pricing_plan_id":"cebpf4jnsgd1na2vs0mg"},{"bike_id":"1bc7cd77-9a11-4126-adfa-cfb607e79a31","system_id":"levelo_inurba_marseille","lat":43.26019,"lon":5.37537,"is_reserved":false,"is_disabled":false,"rental_uris":{"android":"levelo://app?vid=1bc7cd77-9a11-4126-adfa-cfb607e79a31","ios":"levelo://app?vid=1bc7cd77-9a11-4126-adfa-cfb607e79a31"},"vehicle_type_id":"4","last_reported":1743289726,"current_range_meters":16400,"station_id":"ce4bhgh2rcd13ifvqfa0","pricing_plan_id":"cebpf4jnsgd1na2vs0mg"},{"bike_id":"526ac4cb-ea44-49f6-89db-096127d20453","system_id":"levelo_inurba_marseille","lat":43.31265,"lon":5.40167,"is_reserved":false,"is_disabled":false,"rental_uris":{"android":"levelo://app?vid=526ac4cb-ea44-49f6-89db-096127d20453","ios":"levelo://app?vid=526ac4cb-ea44-49f6-89db-096127d20453"},"vehicle_type_id":"4","last_reported":1743289726,"current_range_meters":16400,"station_id":"ce4bh092rcd13ifvqd30","pricing_plan_id":"cebpf4jnsgd1na2vs0mg"},{"bike_id":"6531f5fd-583b-4b0b-a15f-958e6eb67e29","system_id":"levelo_inurba_marseille","lat":43.2869,"lon":5.39994,"is_reserved":false,"is_disabled":false,"rental_uris":{"android":"levelo://app?vid=6531f5fd-583b-4b0b-a15f-958e6eb67e29","ios":"levelo://app?vid=6531f5fd-583b-4b0b-a15f-958e6eb67e29"},"vehicle_type_id":"4","last_reported":1743289726,"current_range_meters":16400,"station_id":"ce4bho92rcd13ifvqh3g","pricing_plan_id":"cebpf4jnsgd1na2vs0mg"},{"bike_id":"ff9bfdab-9bb6-4239-815c-d596d89c5285","system_id":"levelo_inurba_marseille","lat":43.24804,"lon":5.37451,"is_reserved":false,"is_disabled":false,"rental_uris":{"android":"levelo://app?vid=ff9bfdab-9bb6-4239-815c-d596d89c5285","ios":"levelo://app?vid=ff9bfdab-9bb6-4239-815c-d596d89c5285"},"vehicle_type_id":"4","last_reported":1743289726,"current_range_meters":16400,"station_id":"ce4bhgh2rcd13ifvqfb0","pricing_plan_id":"cebpf4jnsgd1na2vs0mg"},{"bike_id":"f80b586e-f44c-41b6-b526-a06cd3999ad5","system_id":"levelo_inurba_marseille","lat":43.24069,"lon":5.37755,"is_reserved":false,"is_disabled":false,"rental_uris":{"android":"levelo://app?vid=f80b586e-f44c-41b6-b526-a06cd3999ad5","ios":"levelo://app?vid=f80b586e-f44c-41b6-b526-a06cd3999ad5"},"vehicle_type_id":"4","last_reported":1743289726,"current_range_meters":16800,"station_id":"ce4bhnp2rcd13ifvqgvg","pricing_plan_id":"cebpf4jnsgd1na2vs0mg"},{"bike_id":"ff6f5a6a-6424-4e10-915e-72b40baa73a9","system_id":"levelo_inurba_marseille","lat":43.28421,"lon":5.37508,"is_reserved":false,"is_disabled":false,"rental_uris":{"android":"levelo://app?vid=ff6f5a6a-6424-4e10-915e-72b40baa73a9","ios":"levelo://app?vid=ff6f5a6a-6424-4e10-915e-72b40baa73a9"},"vehicle_type_id":"4","last_reported":1743289726,"current_range_meters":16800,"station_id":"ce4bh412rcd13ifvqds0","pricing_plan_id":"cebpf4jnsgd1na2vs0mg"},{"bike_id":"7bcef57b-2b32-4033-b8b4-6fd7fe51a930","system_id":"levelo_inurba_marseille","lat":43.28629,"lon":5.35101,"is_reserved":false,"is_disabled":false,"rental_uris":{"android":"levelo://app?vid=7bcef57b-2b32-4033-b8b4-6fd7fe51a930","ios":"levelo://app?vid=7bcef57b-2b32-4033-b8b4-6fd7fe51a930"},"vehicle_type_id":"4","last_reported":1743289726,"current_range_meters":16800,"station_id":"ce4bhch2rcd13ifvqeug","pricing_plan_id":"cebpf4jnsgd1na2vs0mg"},{"bike_id":"7c9283bb-a1de-44ac-b5f2-58ccd9004b36","system_id":"levelo_inurba_marseille","lat":43.29926,"lon":5.36541,"is_reserved":false,"is_disabled":false,"rental_uris":{"android":"levelo://app?vid=7c9283bb-a1de-44ac-b5f2-58ccd9004b36","ios":"levelo://app?vid=7c9283bb-a1de-44ac-b5f2-58ccd9004b36"},"vehicle_type_id":"4","last_reported":1743289726,"current_range_meters":16800,"station_id":"ce4bgm92rcd13ifvqbr0","pricing_plan_id":"cebpf4jnsgd1na2vs0mg"},{"bike_id":"990db929-e72f-401d-9528-0787178a6e20","system_id":"levelo_inurba_marseille","lat":43.318156,"lon":5.423977,"is_reserved":false,"is_disabled":false,"rental_uris":{"android":"levelo://app?vid=990db929-e72f-401d-9528-0787178a6e20","ios":"levelo://app?vid=990db929-e72f-401d-9528-0787178a6e20"},"vehicle_type_id":"4","last_reported":1743289726,"current_range_meters":16800,"station_id":"ce4bhp92rcd13ifvqhbg","pricing_plan_id":"cebpf4jnsgd1na2vs0mg"},{"bike_id":"0b60b6cc-65bb-4e73-8958-1b351c6fdd96","system_id":"levelo_inurba_marseille","lat":43.32117,"lon":5.36769,"is_reserved":false,"is_disabled":false,"rental_uris":{"android":"levelo://app?vid=0b60b6cc-65bb-4e73-8958-1b351c6fdd96","ios":"levelo://app?vid=0b60b6cc-65bb-4e73-8958-1b351c6fdd96"},"vehicle_type_id":"4","last_reported":1743289726,"current_range_meters":16800,"station_id":"ce4bhrh2rcd13ifvqhug","pricing_plan_id":"cebpf4jnsgd1na2vs0mg"},{"bike_id":"7f9edd94-ffe4-4957-b0aa-f35de75dbd08","system_id":"levelo_inurba_marseille","lat":43.30164,"lon":5.3808,"is_reserved":false,"is_disabled":false,"rental_uris":{"android":"levelo://app?vid=7f9edd94-ffe4-4957-b0aa-f35de75dbd08","ios":"levelo://app?vid=7f9edd94-ffe4-4957-b0aa-f35de75dbd08"},"vehicle_type_id":"4","last_reported":1743289726,"current_range_meters":16800,"station_id":"ce4bgjp2rcd13ifvqbh0","pricing_plan_id":"cebpf4jnsgd1na2vs0mg"},