{"last_updated":1730304699,"ttl":60,"version":"2.2","data":{"bikes":[{"bike_id":"e0594c9b-1912-4f09-958a-91f8a4561c29","system_id":"levelo_inurba_marseille","lat":43.2439,"lon":5.37057,"is_reserved":false,"is_disabled":false,"rental_uris":{"android":"levelo://app?vid=e0594c9b-1912-4f09-958a-91f8a4561c29","ios":"levelo://app?vid=e0594c9b-1912-4f09-958a-91f8a4561c29"},"vehicle_type_id":"4","last_reported":1730304699,"current_range_meters":39200,"station_id":"ce4bhhh2rcd13ifvqfk0","pricing_plan_id":"cebpf4jnsgd1na2vs0mg"},{"bike_id":"ed662a7c-8b76-4e36-9c3f-c6e1829ea229","system_id":"levelo_inurba_marseille","lat":43.28684,"lon":5.38657,"is_reserved":false,"is_disabled":false,"rental_uris":{"android":"levelo://app?vid=ed662a7c-8b76-4e36-9c3f-c6e1829ea229","ios":"levelo://app?vid=ed662a7c-8b76-4e36-9c3f-c6e1829ea229"},"vehicle_type_id":"4","last_reported":1730304699,"current_range_meters":30800,"station_id":"ce4bh492rcd13ifvqdug","pricing_plan_id":"cebpf4jnsgd1na2vs0mg"},{"bike_id":"b3edae71-c749-4ec0-81ef-8d3b7292b578","system_id":"levelo_inurba_marseille","lat":43.26785,"lon":5.39421,"is_reserved":false,"is_disabled":false,"rental_uris":{"android":"levelo://app?vid=b3edae71-c749-4ec0-81ef-8d3b7292b578","ios":"levelo://app?vid=b3edae71-c749-4ec0-81ef-8d3b7292b578"},"vehicle_type_id":"4","last_reported":1730304699,"current_range_meters":4800,"station_id":"ce4bhh12rcd13ifvqfg0","pricing_plan_id":"cebpf4jnsgd1na2vs0mg"},{"bike_id":"d889448c-a4ec-49ec-854b-04c950e7ef88","system_id":"levelo_inurba_marseille","lat":43.27949,"lon":5.41047,"is_reserved":false,"is_disabled":false,"rental_uris":{"android":"levelo://app?vid=d889448c-a4ec-49ec-854b-04c950e7ef88","ios":"levelo://app?vid=d889448c-a4ec-49ec-854b-04c950e7ef88"},"vehicle_type_id":"4","last_reported":1730304699,"current_range_meters":29600,"station_id":"ce4bhnp2rcd13ifvqh0g","pricing_plan_id":"cebpf4jnsgd1na2vs0mg"},{"bike_id":"a1bb42ca-48af-4ecf-84af-9ae8e4bb73f6","system_id":"levelo_inurba_marseille","lat":43.28414,"lon":5.34995,"is_reserved":false,"is_disabled":false,"rental_uris":{"android":"levelo://app?vid=a1bb42ca-48af-4ecf-84af-9ae8e4bb73f6","ios":"levelo://app?vid=a1bb42ca-48af-4ecf-84af-9ae8e4bb73f6"},"vehicle_type_id":"4","last_reported":1730304699,"current_range_meters":30400,"station_id":"ce4bhbh2rcd13ifvqepg","pricing_plan_id":"cebpf4jnsgd1na2vs0mg"},{"bike_id":"c70f67f5-fd7c-446b-9e4b-e453ab500421","system_id":"levelo_inurba_marseille","lat":43.28619,"lon":5.35113,"is_reserved":false,"is_disabled":false,"rental_uris":{"android":"levelo://app?vid=c70f67f5-fd7c-446b-9e4b-e453ab500421","ios":"levelo://app?vid=c70f67f5-fd7c-446b-9e4b-e453ab500421"},"vehicle_type_id":"4","last_reported":1730304699,"current_range_meters":24800,"station_id":"ce4bhch2rcd13ifvqeug","pricing_plan_id":"cebpf4jnsgd1na2vs0mg"},{"bike_id":"6351ae34-5bfb-4585-a45e-d5957ee1b2d8","system_id":"levelo_inurba_marseille","lat":43.27815,"lon":5.40721,"is_reserved":false,"is_disabled":false,"rental_uris":{"android":"levelo://app?vid=6351ae34-5bfb-4585-a45e-d5957ee1b2d8","ios":"levelo://app?vid=6351ae34-5bfb-4585-a45e-d5957ee1b2d8"},"vehicle_type_id":"4","last_reported":1730304699,"current_range_meters":32000,"station_id":"ce4bhnh2rcd13ifvqgtg","pricing_plan_id":"cebpf4jnsgd1na2vs0mg"},{"bike_id":"d9b20c4d-0417-46f2-87e2-647322685ef4","system_id":"levelo_inurba_marseille","lat":43.308125,"lon":5.400628,"is_reserved":false,"is_disabled":false,"rental_uris":{"android":"levelo://app?vid=d9b20c4d-0417-46f2-87e2-647322685ef4","ios":"levelo://app?vid=d9b20c4d-0417-46f2-87e2-647322685ef4"},"vehicle_type_id":"4","last_reported":1730304699,"current_range_meters":36000,"station_id":"ce4bh192rcd13ifvqdb0","pricing_plan_id":"cebpf4jnsgd1na2vs0mg"},{"bike_id":"51724b8b-2013-4fc2-952f-9a68b601558f","system_id":"levelo_inurba_marseille","lat":43.26785,"lon":5.39417,"is_reserved":false,"is_disabled":false,"rental_uris":{"android":"levelo://app?vid=51724b8b-2013-4fc2-952f-9a68b601558f","ios":"levelo://app?vid=51724b8b-2013-4fc2-952f-9a68b601558f"},"vehicle_type_id":"4","last_reported":1730304699,"current_range_meters":38000,"station_id":"ce4bhh12rcd13ifvqfg0","pricing_plan_id":"cebpf4jnsgd1na2vs0mg"},{"bike_id":"68489d96-38c0-4efa-b62b-4ae026474202","system_id":"levelo_inurba_marseille","lat":43.26939,"lon":5.40243,"is_reserved":false,"is_disabled":false,"rental_uris":{"android":"levelo://app?vid=68489d96-38c0-4efa-b62b-4ae026474202","ios":"levelo://app?vid=68489d96-38c0-4efa-b62b-4ae026474202"},"vehicle_type_id":"4","last_reported":1730304699,"current_range_meters":24800,"station_id":"cjm6bp8fraef2m0cb0m0","pricing_plan_id":"cebpf4jnsgd1na2vs0mg"},{"bike_id":"3a5ccfcb-a053-47bb-84d3-8df14839e516","system_id":"levelo_inurba_marseille","lat":43.26934,"lon":5.40262,"is_reserved":false,"is_disabled":false,"rental_uris":{"android":"levelo://app?vid=3a5ccfcb-a053-47bb-84d3-8df14839e516","ios":"levelo://app?vid=3a5ccfcb-a053-47bb-84d3-8df14839e516"},"vehicle_type_id":"4","last_reported":1730304699,"current_range_meters":37600,"station_id":"cjm6bp8fraef2m0cb0m0","pricing_plan_id":"cebpf4jnsgd1na2vs0mg"},{"bike_id":"f92613b1-1246-4dd8-8f23-a1ffc0cdc717","system_id":"levelo_inurba_marseille","lat":43.28796,"lon":5.37914,"is_reserved":false,"is_disabled":false,"rental_uris":{"android":"levelo://app?vid=f92613b1-1246-4dd8-8f23-a1ffc0cdc717","ios":"levelo://app?vid=f92613b1-1246-4dd8-8f23-a1ffc0cdc717"},"vehicle_type_id":"4","last_reported":1730304699,"current_range_meters":25200,"station_id":"ce4bh4p2rcd13ifvqe0g","pricing_plan_id":"cebpf4jnsgd1na2vs0mg"},{"bike_id":"3720c0ce-d810-450c-95ee-9ed1e09fad87","system_id":"levelo_inurba_marseille","lat":43.24136,"lon":5.36405,"is_reserved":false,"is_disabled":false,"rental_uris":{"android":"levelo://app?vid=3720c0ce-d810-450c-95ee-9ed1e09fad87","ios":"levelo://app?vid=3720c0ce-d810-450c-95ee-9ed1e09fad87"},"vehicle_type_id":"4","last_reported":1730304699,"current_range_meters":26000,"station_id":"cpo36qri1sfpv3e86is0","pricing_plan_id":"cebpf4jnsgd1na2vs0mg"},{"bike_id":"9ff79633-f1ce-4ea2-85d4-a1491a0acd75","system_id":"levelo_inurba_marseille","lat":43.31264,"lon":5.40182,"is_reserved":false,"is_disabled":false,"rental_uris":{"android":"levelo://app?vid=9ff79633-f1ce-4ea2-85d4-a1491a0acd75","ios":"levelo://app?vid=9ff79633-f1ce-4ea2-85d4-a1491a0acd75"},"vehicle_type_id":"4","last_reported":1730304699,"current_range_meters":31200,"station_id":"ce4bh092rcd13ifvqd30","pricing_plan_id":"cebpf4jnsgd1na2vs0mg"},{"bike_id":"aacd1bcb-ff71-4d29-aacc-40a799391591","system_id":"levelo_inurba_marseille","lat":43.30143,"lon":5.39882,"is_reserved":false,"is_disabled":false,"rental_uris":{"android":"levelo://app?vid=aacd1bcb-ff71-4d29-aacc-40a799391591","ios":"levelo://app?vid=aacd1bcb-ff71-4d29-aacc-40a799391591"},"vehicle_type_id":"4","last_reported":1730304699,"current_range_meters":34000,"station_id":"ce4bh0h2rcd13ifvqd40","pricing_plan_id":"cebpf4jnsgd1na2vs0mg"},{"bike_id":"51614a29-c2d9-45af-bbe3-c75ce7bb8bc7","system_id":"levelo_inurba_marseille","lat":43.28626,"lon":5.35114,"is_reserved":false,"is_disabled":false,"rental_uris":{"android":"levelo://app?vid=51614a29-c2d9-45af-bbe3-c75ce7bb8bc7","ios":"levelo://app?vid=51614a29-c2d9-45af-bbe3-c75ce7bb8bc7"},"vehicle_type_id":"4","last_reported":1730304699,"current_range_meters":16400,"station_id":"ce4bhch2rcd13ifvqeug","pricing_plan_id":"cebpf4jnsgd1na2vs0mg"},{"bike_id":"f0d4a7bd-9cb1-4048-9412-e913de8a7bc5","system_id":"levelo_inurba_marseille","lat":43.29629,"lon":5.37153,"is_reserved":false,"is_disabled":false,"rental_uris":{"android":"levelo://app?vid=f0d4a7bd-9cb1-4048-9412-e913de8a7bc5","ios":"levelo://app?vid=f0d4a7bd-9cb1-4048-9412-e913de8a7bc5"},"vehicle_type_id":"4","last_reported":1730304699,"current_range_meters":39200,"station_id":"ce4bgnh2rcd13ifvqc0g","pricing_plan_id":"cebpf4jnsgd1na2vs0mg"},{"bike_id":"897b9f0e-fdd3-4e93-9255-82d376a1e549","system_id":"levelo_inurba_marseille","lat":43.32107,"lon":5.36777,"is_reserved":false,"is_disabled":false,"rental_uris":{"android":"levelo://app?vid=897b9f0e-fdd3-4e93-9255-82d376a1e549","ios":"levelo://app?vid=897b9f0e-fdd3-4e93-9255-82d376a1e549"},"vehicle_type_id":"4","last_reported":1730304699,"current_range_meters":32000,"station_id":"ce4bhrh2rcd13ifvqhug","pricing_plan_id":"cebpf4jnsgd1na2vs0mg"},{"bike_id":"47e8bbea-4428-4325-b606-c96c2e6f9377","system_id":"levelo_inurba_marseille","lat":43.29023,"lon":5.37566,"is_reserved":false,"is_disabled":false,"rental_uris":{"android":"levelo://app?vid=47e8bbea-4428-4325-b606-c96c2e6f9377","ios":"levelo://app?vid=47e8bbea-4428-4325-b606-c96c2e6f9377"},"vehicle_type_id":"4","last_reported":1730304699,"current_range_meters":26800,"station_id":"ce4bh692rcd13ifvqe90","pricing_plan_id":"cebpf4jnsgd1na2vs0mg"},{"bike_id":"88fe0c90-eedb-4e7c-802b-f13a3ca2ae30","system_id":"levelo_inurba_marseille","lat":43.26568,"lon":5.39021,"is_reserved":false,"is_disabled":false,"rental_uris":{"android":"levelo://app?vid=88fe0c90-eedb-4e7c-802b-f13a3ca2ae30","ios":"levelo://app?vid=88fe0c90-eedb-4e7c-802b-f13a3ca2ae30"},"vehicle_type_id":"4","last_reported":1730304699,"current_range_meters":32000,"station_id":"ce4bhe12rcd13ifvqf30","pricing_plan_id":"cebpf4jnsgd1na2vs0mg"},{"bike_id":"82a16fa2-3542-4820-b609-018ed6790cc4","system_id":"levelo_inurba_marseille","lat":43.25574,"lon":5.38244,"is_reserved":false,"is_disabled":false,"rental_uris":{"android":"levelo://app?vid=82a16fa2-3542-4820-b609-018ed6790cc4","ios":"levelo://app?vid=82a16fa2-3542-4820-b609-018ed6790cc4"},"vehicle_type_id":"4","last_reported":1730304699,"current_range_meters":32800,"station_id":"ce4bhih2rcd13ifvqfs0","pricing_plan_id":"cebpf4jnsgd1na2vs0mg"},{"bike_id":"edc582ac-61f2-4982-b0db-63d5f5a80cc6","system_id":"levelo_inurba_marseille","lat":43.30649,"lon":5.40105,"is_reserved":false,"is_disabled":false,"rental_uris":{"android":"levelo://app?vid=edc582ac-61f2-4982-b0db-63d5f5a80cc6","ios":"levelo://app?vid=edc582ac-61f2-4982-b0db-63d5f5a80cc6"},"vehicle_type_id":"4","last_reported":1730304699,"current_range_meters":29600,"station_id":"ce4bh112rcd13ifvqda0","pricing_plan_id":"cebpf4jnsgd1na2vs0mg"},{"bike_id":"0cc68399-e4c5-4e56-99fe-6218e60aedcd","system_id":"levelo_inurba_marseille","lat":43.26218,"lon":5.37439,"is_reserved":false,"is_disabled":false,"rental_uris":{"android":"levelo://app?vid=0cc68399-e4c5-4e56-99fe-6218e60aedcd","ios":"levelo://app?vid=0cc68399-e4c5-4e56-99fe-6218e60aedcd"},"vehicle_type_id":"4","last_reported":1730304699,"current_range_meters":38800,"station_id":"ce4bhgp2rcd13ifvqfc0","pricing_plan_id":"cebpf4jnsgd1na2vs0mg"},{"bike_id":"42e61598-64ce-4f84-97eb-90c09ebd9abe","system_id":"levelo_inurba_marseille","lat":43.23183,"lon":5.4,"is_reserved":false,"is_disabled":false,"rental_uris":{"android":"levelo://app?vid=42e61598-64ce-4f84-97eb-90c09ebd9abe","ios":"levelo://app?vid=42e61598-64ce-4f84-97eb-90c09ebd9abe"},"vehicle_type_id":"4","last_reported":1730304699,"current_range_meters":21600,"station_id":"ce4bhn12rcd13ifvqgqg","pricing_plan_id":"cebpf4jnsgd1na2vs0mg"},{"bike_id":"3bd430ea-f3a4-406f-95d7-17646a78b140","system_id":"levelo_inurba_marseille","lat":43.28267,"lon":5.35076,"is_reserved":false,"is_disabled":false,"rental_uris":{"android":"levelo://app?vid=3bd430ea-f3a4-406f-95d7-17646a78b140","ios":"levelo://app?vid=3bd430ea-f3a4-406f-95d7-17646a78b140"},"vehicle_type_id":"4","last_reported":1730304699,"current_range_meters":13600,"station_id":"ce4bhbp2rcd13ifvqerg","pricing_plan_id":"cebpf4jnsgd1na2vs0mg"},{"bike_id":"65ffe760-06cd-42a5-8ce7-136619d00b87","system_id":"levelo_inurba_marseille","lat":43.28408,"lon":5.35001,"is_reserved":false,"is_disabled":false,"rental_uris":{"android":"levelo://app?vid=65ffe760-06cd-42a5-8ce7-136619d00b87","ios":"levelo://app?vid=65ffe760-06cd-42a5-8ce7-136619d00b87"},"vehicle_type_id":"4","last_reported":1730304699,"current_range_meters":18800,"station_id":"ce4bhbh2rcd13ifvqepg","pricing_plan_id":"cebpf4jnsgd1na2vs0mg"},{"bike_id":"537fd9f2-6f2b-4685-869c-8e452a6d79b9","system_id":"levelo_inurba_marseille","lat":43.25041,"lon":5.3851,"is_reserved":false,"is_disabled":false,"rental_uris":{"android":"levelo://app?vid=537fd9f2-6f2b-4685-869c-8e452a6d79b9","ios":"levelo://app?vid=537fd9f2-6f2b-4685-869c-8e452a6d79b9"},"vehicle_type_id":"4","last_reported":1730304699,"current_range_meters":38400,"station_id":"ce4bhjp2rcd13ifvqga0","pricing_plan_id":"cebpf4jnsgd1na2vs0mg"},{"bike_id":"0438cead-b36c-4e60-99ad-5967c73423cf","system_id":"levelo_inurba_marseille","lat":43.28724,"lon":5.36098,"is_reserved":false,"is_disabled":false,"rental_uris":{"android":"levelo://app?vid=0438cead-b36c-4e60-99ad-5967c73423cf","ios":"levelo://app?vid=0438cead-b36c-4e60-99ad-5967c73423cf"},"vehicle_type_id":"4","last_reported":1730304699,"current_range_meters":39200,"station_id":"cki0cbj6b192h4jlfktg","pricing_plan_id":"cebpf4jnsgd1na2vs0mg"},{"bike_id":"703a5fe3-623b-4cb9-8a00-fc8df78c2ce7","system_id":"levelo_inurba_marseille","lat":43.27374,"lon":5.36257,"is_reserved":false,"is_disabled":false,"rental_uris":{"android":"levelo://app?vid=703a5fe3-623b-4cb9-8a00-fc8df78c2ce7","ios":"levelo://app?vid=703a5fe3-623b-4cb9-8a00-fc8df78c2ce7"},"vehicle_type_id":"4","last_reported":1730304699,"current_range_meters":32800,"station_id":"ce4bhbh2rcd13ifvqeo0","pricing_plan_id":"cebpf4jnsgd1na2vs0mg"},{"bike_id":"70bb78fe-4bef-4d56-a833-affc0bdfc9f3","system_id":"levelo_inurba_marseille","lat":43.23196,"lon":5.35558,"is_reserved":false,"is_disabled":false,"rental_uris":{"android":"levelo://app?vid=70bb78fe-4bef-4d56-a833-affc0bdfc9f3","ios":"levelo://app?vid=70bb78fe-4bef-4d56-a833-affc0bdfc9f3"},"vehicle_type_id":"4","last_reported":1730304699,"current_range_meters":39200,"station_id":"ce4bhu92rcd13ifvqi70","pricing_plan_id":"cebpf4jnsgd1na2vs0mg"},{"bike_id":"46bc10b7-8de5-4dd0-ae18-e921d5bd8ccc","system_id":"levelo_inurba_marseille","lat":43.297072,"lon":5.366168,"is_reserved":false,"is_disabled":false,"rental_uris":{"android":"levelo://app?vid=46bc10b7-8de5-4dd0-ae18-e921d5bd8ccc","ios":"levelo://app?vid=46bc10b7-8de5-4dd0-ae18-e921d5bd8ccc"},"vehicle_type_id":"4","last_reported":1730304699,"current_range_meters":33200,"station_id":"ce4bgn12rcd13ifvqbt0","pricing_plan_id":"cebpf4jnsgd1na2vs0mg"},{"bike_id":"620b62df-38ed-42be-8085-418b37437f05","system_id":"levelo_inurba_marseille","lat":43.27992,"lon":5.40018,"is_reserved":false,"is_disabled":false,"rental_uris":{"android":"levelo://app?vid=620b62df-38ed-42be-8085-418b37437f05","ios":"levelo://app?vid=620b62df-38ed-42be-8085-418b37437f05"},"vehicle_type_id":"4","last_reported":1730304699,"current_range_meters":20000,"station_id":"ce4bho92rcd13ifvqh4g","pricing_plan_id":"cebpf4jnsgd1na2vs0mg"},{"bike_id":"377c14d3-11c1-4327-9225-750071de52bb","system_id":"levelo_inurba_marseille","lat":43.31492,"lon":5.37305,"is_reserved":false,"is_disabled":false,"rental_uris":{"android":"levelo://app?vid=377c14d3-11c1-4327-9225-750071de52bb","ios":"levelo://app?vid=377c14d3-11c1-4327-9225-750071de52bb"},"vehicle_type_id":"4","last_reported":1730304699,"current_range_meters":23200,"station_id":"ce4bgt12rcd13ifvqcd0","pricing_plan_id":"cebpf4jnsgd1na2vs0mg"},{"bike_id":"dab1b4a4-0ec0-46c4-8305-2d28b98bcf4c","system_id":"levelo_inurba_marseille","lat":43.29912,"lon":5.3814,"is_reserved":false,"is_disabled":false,"rental_uris":{"android":"levelo://app?vid=dab1b4a4-0ec0-46c4-8305-2d28b98bcf4c","ios":"levelo://app?vid=dab1b4a4-0ec0-46c4-8305-2d28b98bcf4c"},"vehicle_type_id":"4","last_reported":1730304699,"current_range_meters":800,"station_id":"ce4bgj12rcd13ifvqbc0","pricing_plan_id":"cebpf4jnsgd1na2vs0mg"},{"bike_id":"5c244c3d-8fd7-4c95-b825-2f7fe2f15994","system_id":"levelo_inurba_marseille","lat":43.23195,"lon":5.35553,"is_reserved":false,"is_disabled":false,"rental_uris":{"android":"levelo://app?vid=5c244c3d-8fd7-4c95-b825-2f7fe2f15994","ios":"levelo://app?vid=5c244c3d-8fd7-4c95-b825-2f7fe2f15994"},"vehicle_type_id":"4","last_reported":1730304699,"current_range_meters":39200,"station_id":"ce4bhu92rcd13ifvqi70","pricing_plan_id":"cebpf4jnsgd1na2vs0mg"},{"bike_id":"7d1fe817-f784-45b3-a7f6-2e79abcfa29c","system_id":"levelo_inurba_marseille","lat":43.337444,"lon":5.374475,"is_reserved":false,"is_disabled":false,"rental_uris":{"android":"levelo://app?vid=7d1fe817-f784-45b3-a7f6-2e79abcfa29c","ios":"levelo://app?vid=7d1fe817-f784-45b3-a7f6-2e79abcfa29c"},"vehicle_type_id":"4","last_reported":1730304699,"current_range_meters":38800,"station_id":"","pricing_plan_id":"cebpf4jnsgd1na2vs0mg"},{"bike_id":"5efd5148-f738-4c82-8164-c1739863b28d","system_id":"levelo_inurba_marseille","lat":43.26937,"lon":5.40255,"is_reserved":false,"is_disabled":false,"rental_uris":{"android":"levelo://app?vid=5efd5148-f738-4c82-8164-c1739863b28d","ios":"levelo://app?vid=5efd5148-f738-4c82-8164-c1739863b28d"},"vehicle_type_id":"4","last_reported":1730304699,"current_range_meters":14400,"station_id":"cjm6bp8fraef2m0cb0m0","pricing_plan_id":"cebpf4jnsgd1na2vs0mg"},{"bike_id":"700e307f-6b80-4136-afa3-abbc30e7e45e","system_id":"levelo_inurba_marseille","lat":43.30807,"lon":5.43525,"is_reserved":false,"is_disabled":false,"rental_uris":{"android":"levelo://app?vid=700e307f-6b80-4136-afa3-abbc30e7e45e","ios":"levelo://app?vid=700e307f-6b80-4136-afa3-abbc30e7e45e"},"vehicle_type_id":"4","last_reported":1730304699,"current_range_meters":8000,"station_id":"ce4bhph2rcd13ifvqheg","pricing_plan_id":"cebpf4jnsgd1na2vs0mg"},{"bike_id":"257ee6a0-928c-46a1-b7e0-4ce4b9ac7c9b","system_id":"levelo_inurba_marseille","lat":43.23191,"lon":5.35555,"is_reserved":false,"is_disabled":false,"rental_uris":{"android":"levelo://app?vid=257ee6a0-928c-46a1-b7e0-4ce4b9ac7c9b","ios":"levelo://app?vid=257ee6a0-928c-46a1-b7e0-4ce4b9ac7c9b"},"vehicle_type_id":"4","last_reported":1730304699,"current_range_meters":8000,"station_id":"ce4bhu92rcd13ifvqi70","pricing_plan_id":"cebpf4jnsgd1na2vs0mg"},{"bike_id":"1352da78-da71-4367-b774-6e458f486c56","system_id":"levelo_inurba_marseille","lat":43.28413,"lon":5.35001,"is_reserved":false,"is_disabled":false,"rental_uris":{"android":"levelo://app?vid=1352da78-da71-4367-b774-6e458f486c56","ios":"levelo://app?vid=1352da78-da71-4367-b774-6e458f486c56"},"vehicle_type_id":"4","last_reported":1730304699,"current_range_meters":14000,"station_id":"ce4bhbh2rcd13ifvqepg","pricing_plan_id":"cebpf4jnsgd1na2vs0mg"},{"bike_id":"d27b62e4-e99a-49d8-87b8-99826b82ab55","system_id":"levelo_inurba_marseille","lat":43.34141,"lon":5.40915,"is_reserved":false,"is_disabled":false,"rental_uris":{"android":"levelo://app?vid=d27b62e4-e99a-49d8-87b8-99826b82ab55","ios":"levelo://app?vid=d27b62e4-e99a-49d8-87b8-99826b82ab55"},"vehicle_type_id":"4","last_reported":1730304699,"current_range_meters":39200,"station_id":"ce4bhqh2rcd13ifvqhlg","pricing_plan_id":"cebpf4jnsgd1na2vs0mg"},{"bike_id":"1daaacb1-3ccb-47db-bca4-8266f2e8d67f","system_id":"levelo_inurba_marseille","lat":43.23184,"lon":5.3999,"is_reserved":false,"is_disabled":false,"rental_uris":{"android":"levelo://app?vid=1daaacb1-3ccb-47db-bca4-8266f2e8d67f","ios":"levelo://app?vid=1daaacb1-3ccb-47db-bca4-8266f2e8d67f"},"vehicle_type_id":"4","last_reported":1730304699,"current_range_meters":7200,"station_id":"ce4bhn12rcd13ifvqgqg","pricing_plan_id":"cebpf4jnsgd1na2vs0mg"},{"bike_id":"1a5d5284-46cf-4207-8167-7bfc47014091","system_id":"levelo_inurba_marseille","lat":43.25831,"lon":5.39438,"is_reserved":false,"is_disabled":false,"rental_uris":{"android":"levelo://app?vid=1a5d5284-46cf-4207-8167-7bfc47014091","ios":"levelo://app?vid=1a5d5284-46cf-4207-8167-7bfc47014091"},"vehicle_type_id":"4","last_reported":1730304699,"current_range_meters":11600,"station_id":"ce4bhip2rcd13ifvqft0","pricing_plan_id":"cebpf4jnsgd1na2vs0mg"},{"bike_id":"42970876-576d-453a-986e-815f7adbcbfb","system_id":"levelo_inurba_marseille","lat":43.3248,"lon":5.36574,"is_reserved":false,"is_disabled":false,"rental_uris":{"android":"levelo://app?vid=42970876-576d-453a-986e-815f7adbcbfb","ios":"levelo://app?vid=42970876-576d-453a-986e-815f7adbcbfb"},"vehicle_type_id":"4","last_reported":1730304699,"current_range_meters":28800,"station_id":"ce4bhs12rcd13ifvqhvg","pricing_plan_id":"cebpf4jnsgd1na2vs0mg"},{"bike_id":"92adf987-4779-4b78-ad9c-8e29ab9175f3","system_id":"levelo_inurba_marseille","lat":43.23192,"lon":5.35558,"is_reserved":false,"is_disabled":false,"rental_uris":{"android":"levelo://app?vid=92adf987-4779-4b78-ad9c-8e29ab9175f3","ios":"levelo://app?vid=92adf987-4779-4b78-ad9c-8e29ab9175f3"},"vehicle_type_id":"4","last_reported":1730304699,"current_range_meters":11600,"station_id":"ce4bhu92rcd13ifvqi70","pricing_plan_id":"cebpf4jnsgd1na2vs0mg"},{"bike_id":"9efbe721-d6ef-43fb-8371-a8b3459cefc2","system_id":"levelo_inurba_marseille","lat":43.30501,"lon":5.3814,"is_reserved":false,"is_disabled":false,"rental_uris":{"android":"levelo://app?vid=9efbe721-d6ef-43fb-8371-a8b3459cefc2","ios":"levelo://app?vid=9efbe721-d6ef-43fb-8371-a8b3459cefc2"},"vehicle_type_id":"4","last_reported":1730304699,"current_range_meters":37600,"station_id":"","pricing_plan_id":"cebpf4jnsgd1na2vs0mg"},{"bike_id":"770b28f3-f0b9-46a8-b03f-943dd74ca3c0","system_id":"levelo_inurba_marseille","lat":43.29252,"lon":5.38453,"is_reserved":false,"is_disabled":false,"rental_uris":{"android":"levelo://app?vid=770b28f3-f0b9-46a8-b03f-943dd74ca3c0","ios":"levelo://app?vid=770b28f3-f0b9-46a8-b03f-943dd74ca3c0"},"vehicle_type_id":"4","last_reported":1730304699,"current_range_meters":23200,"station_id":"ce4bh692rcd13ifvqea0","pricing_plan_id":"cebpf4jnsgd1na2vs0mg"},{"bike_id":"ce2310f1-0848-4180-8bb1-c79c12d253ca","system_id":"levelo_inurba_marseille","lat":43.33757,"lon":5.3745,"is_reserved":false,"is_disabled":false,"rental_uris":{"android":"levelo://app?vid=ce2310f1-0848-4180-8bb1-c79c12d253ca","ios":"levelo://app?vid=ce2310f1-0848-4180-8bb1-c79c12d253ca"},"vehicle_type_id":"4","last_reported":1730304699,"current_range_meters":35600,"station_id":"","pricing_plan_id":"cebpf4jnsgd1na2vs0mg"},{"bike_id":"4dbab922-c894-49dc-8228-63ddfb56a468","system_id":"levelo_inurba_marseille","lat":43.29569,"lon":5.37522,"is_reserved":false,"is_disabled":false,"rental_uris":{"android":"levelo://app?vid=4dbab922-c894-49dc-8228-63ddfb56a468","ios":"levelo://app?vid=4dbab922-c894-49dc-8228-63ddfb56a468"},"vehicle_type_id":"4","last_reported":1730304699,"current_range_meters":38800,"station_id":"ce4bgh92rcd13ifvqb50","pricing_plan_id":"cebpf4jnsgd1na2vs0mg"},{"bike_id":"bf24958d-bc75-451f-87b2-98f1ed091055","system_id":"levelo_inurba_marseille","lat":43.27214,"lon":5.39173,"is_reserved":false,"is_disabled":false,"rental_uris":{"android":"levelo://app?vid=bf24958d-bc75-451f-87b2-98f1ed091055","ios":"levelo://app?vid=bf24958d-bc75-451f-87b2-98f1ed091055"},"vehicle_type_id":"4","last_reported":1730304699,"current_range_meters":3200,"station_id":"ce4bhhp2rcd13ifvqfm0","pricing_plan_id":"cebpf4jnsgd1na2vs0mg"},{"bike_id":"2f1c4426-f310-402d-b1c8-cfa2fb98b436","system_id":"levelo_inurba_marseille","lat":43.28102,"lon":5.37851,"is_reserved":false,"is_disabled":false,"rental_uris":{"android":"levelo://app?vid=2f1c4426-f310-402d-b1c8-cfa2fb98b436","ios":"levelo://app?vid=2f1c4426-f310-402d-b1c8-cfa2fb98b436"},"vehicle_type_id":"4","last_reported":1730304699,"current_range_meters":39200,"station_id":"ce4bha12rcd13ifvqee0","pricing_plan_id":"cebpf4jnsgd1na2vs0mg"},{"bike_id":"269a4193-03a6-4fe1-93c0-2b8610ca1e7f","system_id":"levelo_inurba_marseille","lat":43.24393,"lon":5.37054,"is_reserved":false,"is_disabled":false,"rental_uris":{"android":"levelo://app?vid=269a4193-03a6-4fe1-93c0-2b8610ca1e7f","ios":"levelo://app?vid=269a4193-03a6-4fe1-93c0-2b8610ca1e7f"},"vehicle_type_id":"4","last_reported":1730304699,"current_range_meters":17600,"station_id":"ce4bhhh2rcd13ifvqfk0","pricing_plan_id":"cebpf4jnsgd1na2vs0mg"},{"bike_id":"402ccdbe-675b-4fa5-85ab-25efed180ee5","system_id":"levelo_inurba_marseille","lat":43.262,"lon":5.37934,"is_reserved":false,"is_disabled":false,"rental_uris":{"android":"levelo://app?vid=402ccdbe-675b-4fa5-85ab-25efed180ee5","ios":"levelo://app?vid=402ccdbe-675b-4fa5-85ab-25efed180ee5"},"vehicle_type_id":"4","last_reported":1730304699,"current_range_meters":3600,"station_id":"ce4bhjp2rcd13ifvqg90","pricing_plan_id":"cebpf4jnsgd1na2vs0mg"},{"bike_id":"ec6bf2c6-81ba-4965-828b-92e734ee6e46","system_id":"levelo_inurba_marseille","lat":43.23189,"lon":5.35554,"is_reserved":false,"is_disabled":false,"rental_uris":{"android":"levelo://app?vid=ec6bf2c6-81ba-4965-828b-92e734ee6e46","ios":"levelo://app?vid=ec6bf2c6-81ba-4965-828b-92e734ee6e46"},"vehicle_type_id":"4","last_reported":1730304699,"current_range_meters":28400,"station_id":"ce4bhu92rcd13ifvqi70","pricing_plan_id":"cebpf4jnsgd1na2vs0mg"},{"bike_id":"d7012743-7323-4d36-a6a0-94c8a1e5fc2c","system_id":"levelo_inurba_marseille","lat":43.28414,"lon":5.34994,"is_reserved":false,"is_disabled":false,"rental_uris":{"android":"levelo://app?vid=d7012743-7323-4d36-a6a0-94c8a1e5fc2c","ios":"levelo://app?vid=d7012743-7323-4d36-a6a0-94c8a1e5fc2c"},"vehicle_type_id":"4","last_reported":1730304699,"current_range_meters":39200,"station_id":"ce4bhbh2rcd13ifvqepg","pricing_plan_id":"cebpf4jnsgd1na2vs0mg"},{"bike_id":"f96a038e-b720-4d86-85f0-7b07fdf4e155","system_id":"levelo_inurba_marseille","lat":43.29248,"lon":5.40918,"is_reserved":false,"is_disabled":false,"rental_uris":{"android":"levelo://app?vid=f96a038e-b720-4d86-85f0-7b07fdf4e155","ios":"levelo://app?vid=f96a038e-b720-4d86-85f0-7b07fdf4e155"},"vehicle_type_id":"4","last_reported":1730304699,"current_range_meters":24800,"station_id":"ce4bh192rcd13ifvqdc0","pricing_plan_id":"cebpf4jnsgd1na2vs0mg"},{"bike_id":"fba27f66-cfb0-40ec-b28a-f344d1e04baa","system_id":"levelo_inurba_marseille","lat":43.29707,"lon":5.36626,"is_reserved":false,"is_disabled":false,"rental_uris":{"android":"levelo://app?vid=fba27f66-cfb0-40ec-b28a-f344d1e04baa","ios":"levelo://app?vid=fba27f66-cfb0-40ec-b28a-f344d1e04baa"},"vehicle_type_id":"4","last_reported":1730304699,"current_range_meters":39200,"station_id":"ce4bgn12rcd13ifvqbt0","pricing_plan_id":"cebpf4jnsgd1na2vs0mg"},{"bike_id":"85d846fb-f05f-4d29-a2eb-70e9d81313d5","system_id":"levelo_inurba_marseille","lat":43.28934,"lon":5.38391,"is_reserved":false,"is_disabled":false,"rental_uris":{"android":"levelo://app?vid=85d846fb-f05f-4d29-a2eb-70e9d81313d5","ios":"levelo://app?vid=85d846fb-f05f-4d29-a2eb-70e9d81313d5"},"vehicle_type_id":"4","last_reported":1730304699,"current_range_meters":24400,"station_id":"ce4bh612rcd13ifvqe6g","pricing_plan_id":"cebpf4jnsgd1na2vs0mg"},{"bike_id":"fb16e91b-dc2c-4970-8027-449ddaa27b00","system_id":"levelo_inurba_marseille","lat":43.2943,"lon":5.38618,"is_reserved":false,"is_disabled":false,"rental_uris":{"android":"levelo://app?vid=fb16e91b-dc2c-4970-8027-449ddaa27b00","ios":"levelo://app?vid=fb16e91b-dc2c-4970-8027-449ddaa27b00"},"vehicle_type_id":"4","last_reported":1730304699,"current_range_meters":10800,"station_id":"ce4bh2h2rcd13ifvqdh0","pricing_plan_id":"cebpf4jnsgd1na2vs0mg"},{"bike_id":"38b8d321-8fd9-4111-be22-688ce65298c2","system_id":"levelo_inurba_marseille","lat":43.2657,"lon":5.39024,"is_reserved":false,"is_disabled":false,"rental_uris":{"android":"levelo://app?vid=38b8d321-8fd9-4111-be22-688ce65298c2","ios":"levelo://app?vid=38b8d321-8fd9-4111-be22-688ce65298c2"},"vehicle_type_id":"4","last_reported":1730304699,"current_range_meters":20800,"station_id":"ce4bhe12rcd13ifvqf30","pricing_plan_id":"cebpf4jnsgd1na2vs0mg"},{"bike_id":"fe5a4f25-ed16-41fe-8b56-64c8fd315a7b","system_id":"levelo_inurba_marseille","lat":43.308,"lon":5.43533,"is_reserved":false,"is_disabled":false,"rental_uris":{"android":"levelo://app?vid=fe5a4f25-ed16-41fe-8b56-64c8fd315a7b","ios":"levelo://app?vid=fe5a4f25-ed16-41fe-8b56-64c8fd315a7b"},"vehicle_type_id":"4","last_reported":1730304699,"current_range_meters":38800,"station_id":"ce4bhph2rcd13ifvqheg","pricing_plan_id":"cebpf4jnsgd1na2vs0mg"},{"bike_id":"77435c07-a404-440f-b5dc-eb1e0980b008","system_id":"levelo_inurba_marseille","lat":43.24393,"lon":5.37067,"is_reserved":false,"is_disabled":false,"rental_uris":{"android":"levelo://app?vid=77435c07-a404-440f-b5dc-eb1e0980b008","ios":"levelo://app?vid=77435c07-a404-440f-b5dc-eb1e0980b008"},"vehicle_type_id":"4","last_reported":1730304699,"current_range_meters":8800,"station_id":"ce4bhhh2rcd13ifvqfk0","pricing_plan_id":"cebpf4jnsgd1na2vs0mg"},{"bike_id":"2370a04e-d358-4a29-b67a-890bf50b34fd","system_id":"levelo_inurba_marseille","lat":43.24171,"lon":5.36403,"is_reserved":false,"is_disabled":false,"rental_uris":{"android":"levelo://app?vid=2370a04e-d358-4a29-b67a-890bf50b34fd","ios":"levelo://app?vid=2370a04e-d358-4a29-b67a-890bf50b34fd"},"vehicle_type_id":"4","last_reported":1730304699,"current_range_meters":6000,"station_id":"cpo36qri1sfpv3e86is0","pricing_plan_id":"cebpf4jnsgd1na2vs0mg"},{"bike_id":"d0a2378a-d9bc-415a-ab1a-cd22501add4d","system_id":"levelo_inurba_marseille","lat":43.26784,"lon":5.39424,"is_reserved":false,"is_disabled":false,"rental_uris":{"android":"levelo://app?vid=d0a2378a-d9bc-415a-ab1a-cd22501add4d","ios":"levelo://app?vid=d0a2378a-d9bc-415a-ab1a-cd22501add4d"},"vehicle_type_id":"4","last_reported":1730304699,"current_range_meters":8400,"station_id":"ce4bhh12rcd13ifvqfg0","pricing_plan_id":"cebpf4jnsgd1na2vs0mg"},{"bike_id":"1e5275e1-8624-4786-97f4-5ed80eae3021","system_id":"levelo_inurba_marseille","lat":43.29622,"lon":5.371628,"is_reserved":false,"is_disabled":false,"rental_uris":{"android":"levelo://app?vid=1e5275e1-8624-4786-97f4-5ed80eae3021","ios":"levelo://app?vid=1e5275e1-8624-4786-97f4-5ed80eae3021"},"vehicle_type_id":"4","last_reported":1730304699,"current_range_meters":39200,"station_id":"ce4bgnh2rcd13ifvqc0g","pricing_plan_id":"cebpf4jnsgd1na2vs0mg"},{"bike_id":"77d2a60e-96b1-46dd-b86a-06a65ec25c97","system_id":"levelo_inurba_marseille","lat":43.29054,"lon":5.35924,"is_reserved":false,"is_disabled":false,"rental_uris":{"android":"levelo://app?vid=77d2a60e-96b1-46dd-b86a-06a65ec25c97","ios":"levelo://app?vid=77d2a60e-96b1-46dd-b86a-06a65ec25c97"},"vehicle_type_id":"4","last_reported":1730304699,"current_range_meters":9600,"station_id":"ce4bha92rcd13ifvqeg0","pricing_plan_id":"cebpf4jnsgd1na2vs0mg"},{"bike_id":"538c6c97-8738-4e40-afde-1ced2fc6b778","system_id":"levelo_inurba_marseille","lat":43.33717,"lon":5.39181,"is_reserved":false,"is_disabled":false,"rental_uris":{"android":"levelo://app?vid=538c6c97-8738-4e40-afde-1ced2fc6b778","ios":"levelo://app?vid=538c6c97-8738-4e40-afde-1ced2fc6b778"},"vehicle_type_id":"4","last_reported":1730304699,"current_range_meters":36400,"station_id":"ce4bhr92rcd13ifvqhsg","pricing_plan_id":"cebpf4jnsgd1na2vs0mg"},{"bike_id":"0f6b3a97-49df-402f-92fc-9ef040541e07","system_id":"levelo_inurba_marseille","lat":43.23185,"lon":5.35568,"is_reserved":false,"is_disabled":false,"rental_uris":{"android":"levelo://app?vid=0f6b3a97-49df-402f-92fc-9ef040541e07","ios":"levelo://app?vid=0f6b3a97-49df-402f-92fc-9ef040541e07"},"vehicle_type_id":"4","last_reported":1730304699,"current_range_meters":16400,"station_id":"ce4bhu92rcd13ifvqi70","pricing_plan_id":"cebpf4jnsgd1na2vs0mg"},{"bike_id":"03e26363-1adc-494c-8098-91070571fba5","system_id":"levelo_inurba_marseille","lat":43.23192,"lon":5.35549,"is_reserved":false,"is_disabled":false,"rental_uris":{"android":"levelo://app?vid=03e26363-1adc-494c-8098-91070571fba5","ios":"levelo://app?vid=03e26363-1adc-494c-8098-91070571fba5"},"vehicle_type_id":"4","last_reported":1730304699,"current_range_meters":30000,"station_id":"ce4bhu92rcd13ifvqi70","pricing_plan_id":"cebpf4jnsgd1na2vs0mg"},{"bike_id":"9ef39e10-3ba3-4156-ac4a-7970df6873af","system_id":"levelo_inurba_marseille","lat":43.26984,"lon":5.39879,"is_reserved":false,"is_disabled":false,"rental_uris":{"android":"levelo://app?vid=9ef39e10-3ba3-4156-ac4a-7970df6873af","ios":"levelo://app?vid=9ef39e10-3ba3-4156-ac4a-7970df6873af"},"vehicle_type_id":"4","last_reported":1730304699,"current_range_meters":16800,"station_id":"","pricing_plan_id":"cebpf4jnsgd1na2vs0mg"},{"bike_id":"d16e0ef4-af34-4834-a45a-7b39039ff022","system_id":"levelo_inurba_marseille","lat":43.23189,"lon":5.35554,"is_reserved":false,"is_disabled":false,"rental_uris":{"android":"levelo://app?vid=d16e0ef4-af34-4834-a45a-7b39039ff022","ios":"levelo://app?vid=d16e0ef4-af34-4834-a45a-7b39039ff022"},"vehicle_type_id":"4","last_reported":1730304699,"current_range_meters":11600,"station_id":"ce4bhu92rcd13ifvqi70","pricing_plan_id":"cebpf4jnsgd1na2vs0mg"},{"bike_id":"c3dddc4b-130b-43ca-a4a3-8d09104aa16c","system_id":"levelo_inurba_marseille","lat":43.29227,"lon":5.3608,"is_reserved":false,"is_disabled":false,"rental_uris":{"android":"levelo://app?vid=c3dddc4b-130b-43ca-a4a3-8d09104aa16c","ios":"levelo://app?vid=c3dddc4b-130b-43ca-a4a3-8d09104aa16c"},"vehicle_type_id":"4","last_reported":1730304699,"current_range_meters":4400,"station_id":"ce4bhbh2rcd13ifvqeqg","pricing_plan_id":"cebpf4jnsgd1na2vs0mg"},{"bike_id":"26ea66a3-1682-41d3-816b-3454e793663c","system_id":"levelo_inurba_marseille","lat":43.2465,"lon":5.3889,"is_reserved":false,"is_disabled":false,"rental_uris":{"android":"levelo://app?vid=26ea66a3-1682-41d3-816b-3454e793663c","ios":"levelo://app?vid=26ea66a3-1682-41d3-816b-3454e793663c"},"vehicle_type_id":"4","last_reported":1730304699,"current_range_meters":37600,"station_id":"ce4bhg12rcd13ifvqf60","pricing_plan_id":"cebpf4jnsgd1na2vs0mg"},{"bike_id":"24d5b50b-dc7b-44fe-b2a2-81a1464e623c","system_id":"levelo_inurba_marseille","lat":43.3173,"lon":5.42421,"is_reserved":false,"is_disabled":false,"rental_uris":{"android":"levelo://app?vid=24d5b50b-dc7b-44fe-b2a2-81a1464e623c","ios":"levelo://app?vid=24d5b50b-dc7b-44fe-b2a2-81a1464e623c"},"vehicle_type_id":"4","last_reported":1730304699,"current_range_meters":37600,"station_id":"ce4bhp92rcd13ifvqhbg","pricing_plan_id":"cebpf4jnsgd1na2vs0mg"},{"bike_id":"5883c90b-6107-4017-8ae5-00f68185d6bd","system_id":"levelo_inurba_marseille","lat":43.31362,"lon":5.38498,"is_reserved":false,"is_disabled":false,"rental_uris":{"android":"levelo://app?vid=5883c90b-6107-4017-8ae5-00f68185d6bd","ios":"levelo://app?vid=5883c90b-6107-4017-8ae5-00f68185d6bd"},"vehicle_type_id":"4","last_reported":1730304699,"current_range_meters":38800,"station_id":"ce4bgt92rcd13ifvqcf0","pricing_plan_id":"cebpf4jnsgd1na2vs0mg"},{"bike_id":"a306c469-7544-4489-af82-e9fb1e9b4215","system_id":"levelo_inurba_marseille","lat":43.23182,"lon":5.39989,"is_reserved":false,"is_disabled":false,"rental_uris":{"android":"levelo://app?vid=a306c469-7544-4489-af82-e9fb1e9b4215","ios":"levelo://app?vid=a306c469-7544-4489-af82-e9fb1e9b4215"},"vehicle_type_id":"4","last_reported":1730304699,"current_range_meters":39200,"station_id":"ce4bhn12rcd13ifvqgqg","pricing_plan_id":"cebpf4jnsgd1na2vs0mg"},{"bike_id":"93ba6c92-76d2-41f4-b00e-eb6938cf032b","system_id":"levelo_inurba_marseille","lat":43.26207,"lon":5.37454,"is_reserved":false,"is_disabled":false,"rental_uris":{"android":"levelo://app?vid=93ba6c92-76d2-41f4-b00e-eb6938cf032b","ios":"levelo://app?vid=93ba6c92-76d2-41f4-b00e-eb6938cf032b"},"vehicle_type_id":"4","last_reported":1730304699,"current_range_meters":20400,"station_id":"ce4bhgp2rcd13ifvqfc0","pricing_plan_id":"cebpf4jnsgd1na2vs0mg"},{"bike_id":"8c102c27-a326-4ab5-873a-901bbd42ce9d","system_id":"levelo_inurba_marseille","lat":43.31271,"lon":5.40175,"is_reserved":false,"is_disabled":false,"rental_uris":{"android":"levelo://app?vid=8c102c27-a326-4ab5-873a-901bbd42ce9d","ios":"levelo://app?vid=8c102c27-a326-4ab5-873a-901bbd42ce9d"},"vehicle_type_id":"4","last_reported":1730304699,"current_range_meters":22400,"station_id":"ce4bh092rcd13ifvqd30","pricing_plan_id":"cebpf4jnsgd1na2vs0mg"},{"bike_id":"7e14c046-457f-43da-a995-dfe3825a5f78","system_id":"levelo_inurba_marseille","lat":43.3031,"lon":5.39216,"is_reserved":false,"is_disabled":false,"rental_uris":{"android":"levelo://app?vid=7e14c046-457f-43da-a995-dfe3825a5f78","ios":"levelo://app?vid=7e14c046-457f-43da-a995-dfe3825a5f78"},"vehicle_type_id":"4","last_reported":1730304699,"current_range_meters":28000,"station_id":"ce4bgkh2rcd13ifvqbk0","pricing_plan_id":"cebpf4jnsgd1na2vs0mg"},{"bike_id":"203cdc68-feff-483d-ac1a-996e1a200a5a","system_id":"levelo_inurba_marseille","lat":43.27918,"lon":5.39583,"is_reserved":false,"is_disabled":false,"rental_uris":{"android":"levelo://app?vid=203cdc68-feff-483d-ac1a-996e1a200a5a","ios":"levelo://app?vid=203cdc68-feff-483d-ac1a-996e1a200a5a"},"vehicle_type_id":"4","last_reported":1730304699,"current_range_meters":33600,"station_id":"ce4bhf92rcd13ifvqf40","pricing_plan_id":"cebpf4jnsgd1na2vs0mg"},{"bike_id":"8ec031d5-ad7c-4dd6-875c-53e208a3fb0a","system_id":"levelo_inurba_marseille","lat":43.23195,"lon":5.35552,"is_reserved":false,"is_disabled":false,"rental_uris":{"android":"levelo://app?vid=8ec031d5-ad7c-4dd6-875c-53e208a3fb0a","ios":"levelo://app?vid=8ec031d5-ad7c-4dd6-875c-53e208a3fb0a"},"vehicle_type_id":"4","last_reported":1730304699,"current_range_meters":27600,"station_id":"ce4bhu92rcd13ifvqi70","pricing_plan_id":"cebpf4jnsgd1na2vs0mg"},{"bike_id":"65396925-4ece-4254-8401-6c057cc02ea7","system_id":"levelo_inurba_marseille","lat":43.32364,"lon":5.38896,"is_reserved":false,"is_disabled":false,"rental_uris":{"android":"levelo://app?vid=65396925-4ece-4254-8401-6c057cc02ea7","ios":"levelo://app?vid=65396925-4ece-4254-8401-6c057cc02ea7"},"vehicle_type_id":"4","last_reported":1730304699,"current_range_meters":26800,"station_id":"ce4bhqp2rcd13ifvqhog","pricing_plan_id":"cebpf4jnsgd1na2vs0mg"},{"bike_id":"3f410385-5381-443a-bdc4-e62c55ee066e","system_id":"levelo_inurba_marseille","lat":43.33798,"lon":5.37434,"is_reserved":false,"is_disabled":false,"rental_uris":{"android":"levelo://app?vid=3f410385-5381-443a-bdc4-e62c55ee066e","ios":"levelo://app?vid=3f410385-5381-443a-bdc4-e62c55ee066e"},"vehicle_type_id":"4","last_reported":1730304699,"current_range_meters":28400,"station_id":"","pricing_plan_id":"cebpf4jnsgd1na2vs0mg"},{"bike_id":"ba7945cd-b1c9-49ae-a05d-e3eca1105fac","system_id":"levelo_inurba_marseille","lat":43.29003,"lon":5.35616,"is_reserved":false,"is_disabled":false,"rental_uris":{"android":"levelo://app?vid=ba7945cd-b1c9-49ae-a05d-e3eca1105fac","ios":"levelo://app?vid=ba7945cd-b1c9-49ae-a05d-e3eca1105fac"},"vehicle_type_id":"4","last_reported":1730304699,"current_range_meters":25200,"station_id":"ce4bhb92rcd13ifvqen0","pricing_plan_id":"cebpf4jnsgd1na2vs0mg"},{"bike_id":"a64c4bd1-0283-471c-9ad4-96f8bc63ef8b","system_id":"levelo_inurba_marseille","lat":43.32487,"lon":5.36586,"is_reserved":false,"is_disabled":false,"rental_uris":{"android":"levelo://app?vid=a64c4bd1-0283-471c-9ad4-96f8bc63ef8b","ios":"levelo://app?vid=a64c4bd1-0283-471c-9ad4-96f8bc63ef8b"},"vehicle_type_id":"4","last_reported":1730304699,"current_range_meters":24000,"station_id":"ce4bhs12rcd13ifvqhvg","pricing_plan_id":"cebpf4jnsgd1na2vs0mg"},{"bike_id":"e96e213c-c911-40f6-ad71-5e7ad1bbc3aa","system_id":"levelo_inurba_marseille","lat":43.28611,"lon":5.351,"is_reserved":false,"is_disabled":false,"rental_uris":{"android":"levelo://app?vid=e96e213c-c911-40f6-ad71-5e7ad1bbc3aa","ios":"levelo://app?vid=e96e213c-c911-40f6-ad71-5e7ad1bbc3aa"},"vehicle_type_id":"4","last_reported":1730304699,"current_range_meters":2800,"station_id":"ce4bhch2rcd13ifvqeug","pricing_plan_id":"cebpf4jnsgd1na2vs0mg"},{"bike_id":"eaf25d76-a677-4b2f-a819-408528ef542a","system_id":"levelo_inurba_marseille","lat":43.2293,"lon":5.35377,"is_reserved":false,"is_disabled":false,"rental_uris":{"android":"levelo://app?vid=eaf25d76-a677-4b2f-a819-408528ef542a","ios":"levelo://app?vid=eaf25d76-a677-4b2f-a819-408528ef542a"},"vehicle_type_id":"4","last_reported":1730304699,"current_range_meters":8400,"station_id":"cpo3532slgdg3j2ikp40","pricing_plan_id":"cebpf4jnsgd1na2vs0mg"},{"bike_id":"63b4ce53-06b7-43f9-8e14-d314a1f16d96","system_id":"levelo_inurba_marseille","lat":43.32431,"lon":5.41642,"is_reserved":false,"is_disabled":false,"rental_uris":{"android":"levelo://app?vid=63b4ce53-06b7-43f9-8e14-d314a1f16d96","ios":"levelo://app?vid=63b4ce53-06b7-43f9-8e14-d314a1f16d96"},"vehicle_type_id":"4","last_reported":1730304699,"current_range_meters":33200,"station_id":"ce4bhq12rcd13ifvqhhg","pricing_plan_id":"cebpf4jnsgd1na2vs0mg"},{"bike_id":"87deb56d-9fdf-4738-812a-5bd2bd7cc716","system_id":"levelo_inurba_marseille","lat":43.2842,"lon":5.34998,"is_reserved":false,"is_disabled":false,"rental_uris":{"android":"levelo://app?vid=87deb56d-9fdf-4738-812a-5bd2bd7cc716","ios":"levelo://app?vid=87deb56d-9fdf-4738-812a-5bd2bd7cc716"},"vehicle_type_id":"4","last_reported":1730304699,"current_range_meters":39200,"station_id":"ce4bhbh2rcd13ifvqepg","pricing_plan_id":"cebpf4jnsgd1na2vs0mg"},{"bike_id":"5689ed23-4023-4dd6-a571-d691387d14a8","system_id":"levelo_inurba_marseille","lat":43.28705,"lon":5.37391,"is_reserved":false,"is_disabled":false,"rental_uris":{"android":"levelo://app?vid=5689ed23-4023-4dd6-a571-d691387d14a8","ios":"levelo://app?vid=5689ed23-4023-4dd6-a571-d691387d14a8"},"vehicle_type_id":"4","last_reported":1730304699,"current_range_meters":8400,"station_id":"ce4bh3p2rcd13ifvqdq0","pricing_plan_id":"cebpf4jnsgd1na2vs0mg"},{"bike_id":"cf92157a-d4d3-409a-a6cc-72e8a2a8f689","system_id":"levelo_inurba_marseille","lat":43.27899,"lon":5.38022,"is_reserved":false,"is_disabled":false,"rental_uris":{"android":"levelo://app?vid=cf92157a-d4d3-409a-a6cc-72e8a2a8f689","ios":"levelo://app?vid=cf92157a-d4d3-409a-a6cc-72e8a2a8f689"},"vehicle_type_id":"4","last_reported":1730304699,"current_range_meters":38800,"station_id":"ce4bhf92rcd13ifvqf50","pricing_plan_id":"cebpf4jnsgd1na2vs0mg"},{"bike_id":"b6ecbaa3-936a-4733-b99c-eafced704f95","system_id":"levelo_inurba_marseille","lat":43.29271,"lon":5.36796,"is_reserved":false,"is_disabled":false,"rental_uris":{"android":"levelo://app?vid=b6ecbaa3-936a-4733-b99c-eafced704f95","ios":"levelo://app?vid=b6ecbaa3-936a-4733-b99c-eafced704f95"},"vehicle_type_id":"4","last_reported":1730304699,"current_range_meters":4400,"station_id":"ce4bhbp2rcd13ifvqesg","pricing_plan_id":"cebpf4jnsgd1na2vs0mg"},{"bike_id":"b5308136-60cb-4d07-9dfe-1cf5b55c943e","system_id":"levelo_inurba_marseille","lat":43.31759,"lon":5.39029,"is_reserved":false,"is_disabled":false,"rental_uris":{"android":"levelo://app?vid=b5308136-60cb-4d07-9dfe-1cf5b55c943e","ios":"levelo://app?vid=b5308136-60cb-4d07-9dfe-1cf5b55c943e"},"vehicle_type_id":"4","last_reported":1730304699,"current_range_meters":38800,"station_id":"ce4bhqp2rcd13ifvqhng","pricing_plan_id":"cebpf4jnsgd1na2vs0mg"},{"bike_id":"5ff74640-5d39-40f8-808a-e5695df59fd4","system_id":"levelo_inurba_marseille","lat":43.27186,"lon":5.41023,"is_reserved":false,"is_disabled":false,"rental_uris":{"android":"levelo://app?vid=5ff74640-5d39-40f8-808a-e5695df59fd4","ios":"levelo://app?vid=5ff74640-5d39-40f8-808a-e5695df59fd4"},"vehicle_type_id":"4","last_reported":1730304699,"current_range_meters":12000,"station_id":"ce4bhl12rcd13ifvqgf0","pricing_plan_id":"cebpf4jnsgd1na2vs0mg"},{"bike_id":"b6ec7309-539b-44bc-858e-c5c78276b1d1","system_id":"levelo_inurba_marseille","lat":43.26065,"lon":5.39397,"is_reserved":false,"is_disabled":false,"rental_uris":{"android":"levelo://app?vid=b6ec7309-539b-44bc-858e-c5c78276b1d1","ios":"levelo://app?vid=b6ec7309-539b-44bc-858e-c5c78276b1d1"},"vehicle_type_id":"4","last_reported":1730304699,"current_range_meters":36800,"station_id":"ce4bhh92rcd13ifvqfj0","pricing_plan_id":"cebpf4jnsgd1na2vs0mg"},{"bike_id":"b2512227-b853-4ed8-b00c-31e2f9a4fc19","system_id":"levelo_inurba_marseille","lat":43.28618,"lon":5.35111,"is_reserved":false,"is_disabled":false,"rental_uris":{"android":"levelo://app?vid=b2512227-b853-4ed8-b00c-31e2f9a4fc19","ios":"levelo://app?vid=b2512227-b853-4ed8-b00c-31e2f9a4fc19"},"vehicle_type_id":"4","last_reported":1730304699,"current_range_meters":33200,"station_id":"ce4bhch2rcd13ifvqeug","pricing_plan_id":"cebpf4jnsgd1na2vs0mg"},{"bike_id":"87d23bf7-4e73-43b2-8adf-83be3477f5aa","system_id":"levelo_inurba_marseille","lat":43.23193,"lon":5.35555,"is_reserved":false,"is_disabled":false,"rental_uris":{"android":"levelo://app?vid=87d23bf7-4e73-43b2-8adf-83be3477f5aa","ios":"levelo://app?vid=87d23bf7-4e73-43b2-8adf-83be3477f5aa"},"vehicle_type_id":"4","last_reported":1730304699,"current_range_meters":33200,"station_id":"ce4bhu92rcd13ifvqi70","pricing_plan_id":"cebpf4jnsgd1na2vs0mg"},{"bike_id":"1d8621df-e9e4-4fd9-8312-728267f669f9","system_id":"levelo_inurba_marseille","lat":43.24805,"lon":5.37461,"is_reserved":false,"is_disabled":false,"rental_uris":{"android":"levelo://app?vid=1d8621df-e9e4-4fd9-8312-728267f669f9","ios":"levelo://app?vid=1d8621df-e9e4-4fd9-8312-728267f669f9"},"vehicle_type_id":"4","last_reported":1730304699,"current_range_meters":39200,"station_id":"ce4bhgh2rcd13ifvqfb0","pricing_plan_id":"cebpf4jnsgd1na2vs0mg"},{"bike_id":"95456d32-a80a-4825-b22f-78f32bd6bb05","system_id":"levelo_inurba_marseille","lat":43.23967,"lon":5.36634,"is_reserved":false,"is_disabled":false,"rental_uris":{"android":"levelo://app?vid=95456d32-a80a-4825-b22f-78f32bd6bb05","ios":"levelo://app?vid=95456d32-a80a-4825-b22f-78f32bd6bb05"},"vehicle_type_id":"4","last_reported":1730304699,"current_range_meters":28800,"station_id":"ce4bhi12rcd13ifvqfp0","pricing_plan_id":"cebpf4jnsgd1na2vs0mg"},{"bike_id":"e65e397e-7079-48fd-a53e-8134ad2627ed","system_id":"levelo_inurba_marseille","lat":43.29585,"lon":5.36741,"is_reserved":false,"is_disabled":false,"rental_uris":{"android":"levelo://app?vid=e65e397e-7079-48fd-a53e-8134ad2627ed","ios":"levelo://app?vid=e65e397e-7079-48fd-a53e-8134ad2627ed"},"vehicle_type_id":"4","last_reported":1730304699,"current_range_meters":10000,"station_id":"ce4bgph2rcd13ifvqc2g","pricing_plan_id":"cebpf4jnsgd1na2vs0mg"},{"bike_id":"44721ba3-b747-4fe1-b097-f17bed1cadcf","system_id":"levelo_inurba_marseille","lat":43.24804,"lon":5.37456,"is_reserved":false,"is_disabled":false,"rental_uris":{"android":"levelo://app?vid=44721ba3-b747-4fe1-b097-f17bed1cadcf","ios":"levelo://app?vid=44721ba3-b747-4fe1-b097-f17bed1cadcf"},"vehicle_type_id":"4","last_reported":1730304699,"current_range_meters":36000,"station_id":"ce4bhgh2rcd13ifvqfb0","pricing_plan_id":"cebpf4jnsgd1na2vs0mg"},{"bike_id":"5ed3ba27-7018-4f4e-92b7-5e7ec7488a89","system_id":"levelo_inurba_marseille","lat":43.28415,"lon":5.34993,"is_reserved":false,"is_disabled":false,"rental_uris":{"android":"levelo://app?vid=5ed3ba27-7018-4f4e-92b7-5e7ec7488a89","ios":"levelo://app?vid=5ed3ba27-7018-4f4e-92b7-5e7ec7488a89"},"vehicle_type_id":"4","last_reported":1730304699,"current_range_meters":16400,"station_id":"ce4bhbh2rcd13ifvqepg","pricing_plan_id":"cebpf4jnsgd1na2vs0mg"},{"bike_id":"8c92a904-31ef-4168-afd5-94e4429bbfe2","system_id":"levelo_inurba_marseille","lat":43.29586,"lon":5.37538,"is_reserved":false,"is_disabled":false,"rental_uris":{"android":"levelo://app?vid=8c92a904-31ef-4168-afd5-94e4429bbfe2","ios":"levelo://app?vid=8c92a904-31ef-4168-afd5-94e4429bbfe2"},"vehicle_type_id":"4","last_reported":1730304699,"current_range_meters":39200,"station_id":"ce4bgh92rcd13ifvqb50","pricing_plan_id":"cebpf4jnsgd1na2vs0mg"},{"bike_id":"57477df9-21b1-4eb4-bb5d-ffc8288765dc","system_id":"levelo_inurba_marseille","lat":43.32365,"lon":5.38886,"is_reserved":false,"is_disabled":false,"rental_uris":{"android":"levelo://app?vid=57477df9-21b1-4eb4-bb5d-ffc8288765dc","ios":"levelo://app?vid=57477df9-21b1-4eb4-bb5d-ffc8288765dc"},"vehicle_type_id":"4","last_reported":1730304699,"current_range_meters":25600,"station_id":"ce4bhqp2rcd13ifvqhog","pricing_plan_id":"cebpf4jnsgd1na2vs0mg"},{"bike_id":"c0a6c8d3-7313-45ee-a4a1-4b36090823a4","system_id":"levelo_inurba_marseille","lat":43.27919,"lon":5.39577,"is_reserved":false,"is_disabled":false,"rental_uris":{"android":"levelo://app?vid=c0a6c8d3-7313-45ee-a4a1-4b36090823a4","ios":"levelo://app?vid=c0a6c8d3-7313-45ee-a4a1-4b36090823a4"},"vehicle_type_id":"4","last_reported":1730304699,"current_range_meters":28000,"station_id":"ce4bhf92rcd13ifvqf40","pricing_plan_id":"cebpf4jnsgd1na2vs0mg"},{"bike_id":"84eb4724-80f2-4dff-abed-440a600007d3","system_id":"levelo_inurba_marseille","lat":43.23194,"lon":5.35554,"is_reserved":false,"is_disabled":false,"rental_uris":{"android":"levelo://app?vid=84eb4724-80f2-4dff-abed-440a600007d3","ios":"levelo://app?vid=84eb4724-80f2-4dff-abed-440a600007d3"},"vehicle_type_id":"4","last_reported":1730304699,"current_range_meters":3200,"station_id":"ce4bhu92rcd13ifvqi70","pricing_plan_id":"cebpf4jnsgd1na2vs0mg"},{"bike_id":"401214e4-f8d6-4e3c-a011-5eee07d326ff","system_id":"levelo_inurba_marseille","lat":43.29574,"lon":5.37529,"is_reserved":false,"is_disabled":false,"rental_uris":{"android":"levelo://app?vid=401214e4-f8d6-4e3c-a011-5eee07d326ff","ios":"levelo://app?vid=401214e4-f8d6-4e3c-a011-5eee07d326ff"},"vehicle_type_id":"4","last_reported":1730304699,"current_range_meters":38400,"station_id":"ce4bgh92rcd13ifvqb50","pricing_plan_id":"cebpf4jnsgd1na2vs0mg"},{"bike_id":"72747315-eb42-4486-8a5b-c9ddf2cc6ee3","system_id":"levelo_inurba_marseille","lat":43.23054,"lon":5.35498,"is_reserved":false,"is_disabled":false,"rental_uris":{"android":"levelo://app?vid=72747315-eb42-4486-8a5b-c9ddf2cc6ee3","ios":"levelo://app?vid=72747315-eb42-4486-8a5b-c9ddf2cc6ee3"},"vehicle_type_id":"4","last_reported":1730304699,"current_range_meters":22000,"station_id":"cpo3342slgdg3j2ifvpg","pricing_plan_id":"cebpf4jnsgd1na2vs0mg"},{"bike_id":"c3ac5224-54d3-4f2c-8e2b-d7684c13f9a4","system_id":"levelo_inurba_marseille","lat":43.25308,"lon":5.39362,"is_reserved":false,"is_disabled":false,"rental_uris":{"android":"levelo://app?vid=c3ac5224-54d3-4f2c-8e2b-d7684c13f9a4","ios":"levelo://app?vid=c3ac5224-54d3-4f2c-8e2b-d7684c13f9a4"},"vehicle_type_id":"4","last_reported":1730304699,"current_range_meters":28400,"station_id":"ce4bhh12rcd13ifvqff0","pricing_plan_id":"cebpf4jnsgd1na2vs0mg"},{"bike_id":"afc8a59e-718c-432c-b226-d6be0903e5fb","system_id":"levelo_inurba_marseille","lat":43.24394,"lon":5.37069,"is_reserved":false,"is_disabled":false,"rental_uris":{"android":"levelo://app?vid=afc8a59e-718c-432c-b226-d6be0903e5fb","ios":"levelo://app?vid=afc8a59e-718c-432c-b226-d6be0903e5fb"},"vehicle_type_id":"4","last_reported":1730304699,"current_range_meters":32400,"station_id":"ce4bhhh2rcd13ifvqfk0","pricing_plan_id":"cebpf4jnsgd1na2vs0mg"},{"bike_id":"1db854a3-4354-4c61-b488-a72b66e72d4f","system_id":"levelo_inurba_marseille","lat":43.29889,"lon":5.39759,"is_reserved":false,"is_disabled":false,"rental_uris":{"android":"levelo://app?vid=1db854a3-4354-4c61-b488-a72b66e72d4f","ios":"levelo://app?vid=1db854a3-4354-4c61-b488-a72b66e72d4f"},"vehicle_type_id":"4","last_reported":1730304699,"current_range_meters":38800,"station_id":"ce4bh0h2rcd13ifvqd50","pricing_plan_id":"cebpf4jnsgd1na2vs0mg"},{"bike_id":"72e37474-1bc8-4568-aec8-ce5464e6b828","system_id":"levelo_inurba_marseille","lat":43.23195,"lon":5.35555,"is_reserved":false,"is_disabled":false,"rental_uris":{"android":"levelo://app?vid=72e37474-1bc8-4568-aec8-ce5464e6b828","ios":"levelo://app?vid=72e37474-1bc8-4568-aec8-ce5464e6b828"},"vehicle_type_id":"4","last_reported":1730304699,"current_range_meters":28400,"station_id":"ce4bhu92rcd13ifvqi70","pricing_plan_id":"cebpf4jnsgd1na2vs0mg"},{"bike_id":"f60c22c9-8859-4064-a562-7bc4d70b8b13","system_id":"levelo_inurba_marseille","lat":43.28408,"lon":5.34996,"is_reserved":false,"is_disabled":false,"rental_uris":{"android":"levelo://app?vid=f60c22c9-8859-4064-a562-7bc4d70b8b13","ios":"levelo://app?vid=f60c22c9-8859-4064-a562-7bc4d70b8b13"},"vehicle_type_id":"4","last_reported":1730304699,"current_range_meters":39200,"station_id":"ce4bhbh2rcd13ifvqepg","pricing_plan_id":"cebpf4jnsgd1na2vs0mg"},{"bike_id":"4f550b0e-af64-47b6-819c-66a5c99a8037","system_id":"levelo_inurba_marseille","lat":43.29845,"lon":5.36273,"is_reserved":false,"is_disabled":false,"rental_uris":{"android":"levelo://app?vid=4f550b0e-af64-47b6-819c-66a5c99a8037","ios":"levelo://app?vid=4f550b0e-af64-47b6-819c-66a5c99a8037"},"vehicle_type_id":"4","last_reported":1730304699,"current_range_meters":9200,"station_id":"ce4bgpp2rcd13ifvqc3g","pricing_plan_id":"cebpf4jnsgd1na2vs0mg"},{"bike_id":"28944270-7c42-4e1c-b34d-730c490a88a7","system_id":"levelo_inurba_marseille","lat":43.30643,"lon":5.40088,"is_reserved":false,"is_disabled":false,"rental_uris":{"android":"levelo://app?vid=28944270-7c42-4e1c-b34d-730c490a88a7","ios":"levelo://app?vid=28944270-7c42-4e1c-b34d-730c490a88a7"},"vehicle_type_id":"4","last_reported":1730304699,"current_range_meters":10000,"station_id":"","pricing_plan_id":"cebpf4jnsgd1na2vs0mg"},{"bike_id":"7dd52916-829b-467b-80ac-fb3888b3530f","system_id":"levelo_inurba_marseille","lat":43.28847,"lon":5.39314,"is_reserved":false,"is_disabled":false,"rental_uris":{"android":"levelo://app?vid=7dd52916-829b-467b-80ac-fb3888b3530f","ios":"levelo://app?vid=7dd52916-829b-467b-80ac-fb3888b3530f"},"vehicle_type_id":"4","last_reported":1730304699,"current_range_meters":22800,"station_id":"ce4bh2p2rcd13ifvqdi0","pricing_plan_id":"cebpf4jnsgd1na2vs0mg"},{"bike_id":"09e4b31b-bfc7-421d-882c-be3cc63be275","system_id":"levelo_inurba_marseille","lat":43.29302,"lon":5.37198,"is_reserved":false,"is_disabled":false,"rental_uris":{"android":"levelo://app?vid=09e4b31b-bfc7-421d-882c-be3cc63be275","ios":"levelo://app?vid=09e4b31b-bfc7-421d-882c-be3cc63be275"},"vehicle_type_id":"4","last_reported":1730304699,"current_range_meters":36800,"station_id":"ce4bgh92rcd13ifvqb40","pricing_plan_id":"cebpf4jnsgd1na2vs0mg"},{"bike_id":"54d2e7c1-0997-4e85-b497-01eca9eb4f00","system_id":"levelo_inurba_marseille","lat":43.2319,"lon":5.35555,"is_reserved":false,"is_disabled":false,"rental_uris":{"android":"levelo://app?vid=54d2e7c1-0997-4e85-b497-01eca9eb4f00","ios":"levelo://app?vid=54d2e7c1-0997-4e85-b497-01eca9eb4f00"},"vehicle_type_id":"4","last_reported":1730304699,"current_range_meters":15200,"station_id":"ce4bhu92rcd13ifvqi70","pricing_plan_id":"cebpf4jnsgd1na2vs0mg"},{"bike_id":"3bcd9456-1327-41c4-b0d7-e47947148f95","system_id":"levelo_inurba_marseille","lat":43.28938,"lon":5.36665,"is_reserved":false,"is_disabled":false,"rental_uris":{"android":"levelo://app?vid=3bcd9456-1327-41c4-b0d7-e47947148f95","ios":"levelo://app?vid=3bcd9456-1327-41c4-b0d7-e47947148f95"},"vehicle_type_id":"4","last_reported":1730304699,"current_range_meters":20800,"station_id":"ce4bhap2rcd13ifvqek0","pricing_plan_id":"cebpf4jnsgd1na2vs0mg"},{"bike_id":"4fbde65f-b0d6-4c28-9bfb-84ec985f7194","system_id":"levelo_inurba_marseille","lat":43.28412,"lon":5.34997,"is_reserved":false,"is_disabled":false,"rental_uris":{"android":"levelo://app?vid=4fbde65f-b0d6-4c28-9bfb-84ec985f7194","ios":"levelo://app?vid=4fbde65f-b0d6-4c28-9bfb-84ec985f7194"},"vehicle_type_id":"4","last_reported":1730304699,"current_range_meters":24000,"station_id":"ce4bhbh2rcd13ifvqepg","pricing_plan_id":"cebpf4jnsgd1na2vs0mg"},{"bike_id":"aa195198-53bc-405a-b7a8-efdd35fe5237","system_id":"levelo_inurba_marseille","lat":43.28943,"lon":5.3664,"is_reserved":false,"is_disabled":false,"rental_uris":{"android":"levelo://app?vid=aa195198-53bc-405a-b7a8-efdd35fe5237","ios":"levelo://app?vid=aa195198-53bc-405a-b7a8-efdd35fe5237"},"vehicle_type_id":"4","last_reported":1730304699,"current_range_meters":16800,"station_id":"ce4bhap2rcd13ifvqek0","pricing_plan_id":"cebpf4jnsgd1na2vs0mg"},{"bike_id":"e1b150c2-966e-4b17-81ab-ef87e14ea824","system_id":"levelo_inurba_marseille","lat":43.28076,"lon":5.39668,"is_reserved":false,"is_disabled":false,"rental_uris":{"android":"levelo://app?vid=e1b150c2-966e-4b17-81ab-ef87e14ea824","ios":"levelo://app?vid=e1b150c2-966e-4b17-81ab-ef87e14ea824"},"vehicle_type_id":"4","last_reported":1730304699,"current_range_meters":37600,"station_id":"ce4bho12rcd13ifvqh2g","pricing_plan_id":"cebpf4jnsgd1na2vs0mg"},{"bike_id":"cf1bf93e-b987-4f03-9549-b984bb838aa3","system_id":"levelo_inurba_marseille","lat":43.26783,"lon":5.39417,"is_reserved":false,"is_disabled":false,"rental_uris":{"android":"levelo://app?vid=cf1bf93e-b987-4f03-9549-b984bb838aa3","ios":"levelo://app?vid=cf1bf93e-b987-4f03-9549-b984bb838aa3"},"vehicle_type_id":"4","last_reported":1730304699,"current_range_meters":36800,"station_id":"ce4bhh12rcd13ifvqfg0","pricing_plan_id":"cebpf4jnsgd1na2vs0mg"},{"bike_id":"642d29fe-86d4-42a2-9dd9-2ff2aeaad489","system_id":"levelo_inurba_marseille","lat":43.2606,"lon":5.39396,"is_reserved":false,"is_disabled":false,"rental_uris":{"android":"levelo://app?vid=642d29fe-86d4-42a2-9dd9-2ff2aeaad489","ios":"levelo://app?vid=642d29fe-86d4-42a2-9dd9-2ff2aeaad489"},"vehicle_type_id":"4","last_reported":1730304699,"current_range_meters":19200,"station_id":"ce4bhh92rcd13ifvqfj0","pricing_plan_id":"cebpf4jnsgd1na2vs0mg"},{"bike_id":"c7e0806a-d694-4a23-a01d-dbdbff5e1c91","system_id":"levelo_inurba_marseille","lat":43.2867,"lon":5.36362,"is_reserved":false,"is_disabled":false,"rental_uris":{"android":"levelo://app?vid=c7e0806a-d694-4a23-a01d-dbdbff5e1c91","ios":"levelo://app?vid=c7e0806a-d694-4a23-a01d-dbdbff5e1c91"},"vehicle_type_id":"4","last_reported":1730304699,"current_range_meters":38400,"station_id":"ce4bhah2rcd13ifvqej0","pricing_plan_id":"cebpf4jnsgd1na2vs0mg"},{"bike_id":"c5771ff9-7efd-46e8-824f-2345103bd8dd","system_id":"levelo_inurba_marseille","lat":43.30246,"lon":5.4007,"is_reserved":false,"is_disabled":false,"rental_uris":{"android":"levelo://app?vid=c5771ff9-7efd-46e8-824f-2345103bd8dd","ios":"levelo://app?vid=c5771ff9-7efd-46e8-824f-2345103bd8dd"},"vehicle_type_id":"4","last_reported":1730304699,"current_range_meters":14000,"station_id":"ce4bgvh2rcd13ifvqcs0","pricing_plan_id":"cebpf4jnsgd1na2vs0mg"},{"bike_id":"1995d42f-9bb2-423e-a419-1706f5fab24e","system_id":"levelo_inurba_marseille","lat":43.27075,"lon":5.42278,"is_reserved":false,"is_disabled":false,"rental_uris":{"android":"levelo://app?vid=1995d42f-9bb2-423e-a419-1706f5fab24e","ios":"levelo://app?vid=1995d42f-9bb2-423e-a419-1706f5fab24e"},"vehicle_type_id":"4","last_reported":1730304699,"current_range_meters":33200,"station_id":"ce4bhk92rcd13ifvqgb0","pricing_plan_id":"cebpf4jnsgd1na2vs0mg"},{"bike_id":"522f4f96-59e6-4898-8f7e-638dc381229a","system_id":"levelo_inurba_marseille","lat":43.26201,"lon":5.37937,"is_reserved":false,"is_disabled":false,"rental_uris":{"android":"levelo://app?vid=522f4f96-59e6-4898-8f7e-638dc381229a","ios":"levelo://app?vid=522f4f96-59e6-4898-8f7e-638dc381229a"},"vehicle_type_id":"4","last_reported":1730304699,"current_range_meters":6000,"station_id":"ce4bhjp2rcd13ifvqg90","pricing_plan_id":"cebpf4jnsgd1na2vs0mg"},{"bike_id":"8162e4a8-23c1-4020-bbef-be4a2e70aefe","system_id":"levelo_inurba_marseille","lat":43.23195,"lon":5.35553,"is_reserved":false,"is_disabled":false,"rental_uris":{"android":"levelo://app?vid=8162e4a8-23c1-4020-bbef-be4a2e70aefe","ios":"levelo://app?vid=8162e4a8-23c1-4020-bbef-be4a2e70aefe"},"vehicle_type_id":"4","last_reported":1730304699,"current_range_meters":8800,"station_id":"ce4bhu92rcd13ifvqi70","pricing_plan_id":"cebpf4jnsgd1na2vs0mg"},{"bike_id":"cf6e46fb-07e4-4259-8796-fece3f1717ca","system_id":"levelo_inurba_marseille","lat":43.26566,"lon":5.39011,"is_reserved":false,"is_disabled":false,"rental_uris":{"android":"levelo://app?vid=cf6e46fb-07e4-4259-8796-fece3f1717ca","ios":"levelo://app?vid=cf6e46fb-07e4-4259-8796-fece3f1717ca"},"vehicle_type_id":"4","last_reported":1730304699,"current_range_meters":36800,"station_id":"ce4bhe12rcd13ifvqf30","pricing_plan_id":"cebpf4jnsgd1na2vs0mg"},{"bike_id":"3390338e-9f71-47d6-b535-2837895487a4","system_id":"levelo_inurba_marseille","lat":43.262142,"lon":5.374421,"is_reserved":false,"is_disabled":false,"rental_uris":{"android":"levelo://app?vid=3390338e-9f71-47d6-b535-2837895487a4","ios":"levelo://app?vid=3390338e-9f71-47d6-b535-2837895487a4"},"vehicle_type_id":"4","last_reported":1730304699,"current_range_meters":38800,"station_id":"ce4bhgp2rcd13ifvqfc0","pricing_plan_id":"cebpf4jnsgd1na2vs0mg"},{"bike_id":"602f6220-27b7-42f1-b20b-e1535baef625","system_id":"levelo_inurba_marseille","lat":43.27808,"lon":5.4072,"is_reserved":false,"is_disabled":false,"rental_uris":{"android":"levelo://app?vid=602f6220-27b7-42f1-b20b-e1535baef625","ios":"levelo://app?vid=602f6220-27b7-42f1-b20b-e1535baef625"},"vehicle_type_id":"4","last_reported":1730304699,"current_range_meters":14800,"station_id":"ce4bhnh2rcd13ifvqgtg","pricing_plan_id":"cebpf4jnsgd1na2vs0mg"},{"bike_id":"ffaeb335-fa09-48e7-b8c6-9e458337e17c","system_id":"levelo_inurba_marseille","lat":43.31332,"lon":5.39693,"is_reserved":false,"is_disabled":false,"rental_uris":{"android":"levelo://app?vid=ffaeb335-fa09-48e7-b8c6-9e458337e17c","ios":"levelo://app?vid=ffaeb335-fa09-48e7-b8c6-9e458337e17c"},"vehicle_type_id":"4","last_reported":1730304699,"current_range_meters":22800,"station_id":"ce4bgvp2rcd13ifvqcu0","pricing_plan_id":"cebpf4jnsgd1na2vs0mg"},{"bike_id":"3f17d6d6-a248-4f13-b4f5-632be5d212c2","system_id":"levelo_inurba_marseille","lat":43.28077,"lon":5.39661,"is_reserved":false,"is_disabled":false,"rental_uris":{"android":"levelo://app?vid=3f17d6d6-a248-4f13-b4f5-632be5d212c2","ios":"levelo://app?vid=3f17d6d6-a248-4f13-b4f5-632be5d212c2"},"vehicle_type_id":"4","last_reported":1730304699,"current_range_meters":7200,"station_id":"ce4bho12rcd13ifvqh2g","pricing_plan_id":"cebpf4jnsgd1na2vs0mg"},{"bike_id":"cab837db-8cdc-4181-ba2e-7dd047e8b19a","system_id":"levelo_inurba_marseille","lat":43.30146,"lon":5.37419,"is_reserved":false,"is_disabled":false,"rental_uris":{"android":"levelo://app?vid=cab837db-8cdc-4181-ba2e-7dd047e8b19a","ios":"levelo://app?vid=cab837db-8cdc-4181-ba2e-7dd047e8b19a"},"vehicle_type_id":"4","last_reported":1730304699,"current_range_meters":17600,"station_id":"ce4bgs92rcd13ifvqcc0","pricing_plan_id":"cebpf4jnsgd1na2vs0mg"},{"bike_id":"379d974e-51a1-4b04-b633-c4150016c54e","system_id":"levelo_inurba_marseille","lat":43.28405,"lon":5.37533,"is_reserved":false,"is_disabled":false,"rental_uris":{"android":"levelo://app?vid=379d974e-51a1-4b04-b633-c4150016c54e","ios":"levelo://app?vid=379d974e-51a1-4b04-b633-c4150016c54e"},"vehicle_type_id":"4","last_reported":1730304699,"current_range_meters":34000,"station_id":"ce4bh412rcd13ifvqds0","pricing_plan_id":"cebpf4jnsgd1na2vs0mg"},{"bike_id":"e05a0e70-687a-4bec-b4a1-a0aa638490f3","system_id":"levelo_inurba_marseille","lat":43.28657,"lon":5.36351,"is_reserved":false,"is_disabled":false,"rental_uris":{"android":"levelo://app?vid=e05a0e70-687a-4bec-b4a1-a0aa638490f3","ios":"levelo://app?vid=e05a0e70-687a-4bec-b4a1-a0aa638490f3"},"vehicle_type_id":"4","last_reported":1730304699,"current_range_meters":35200,"station_id":"ce4bhah2rcd13ifvqej0","pricing_plan_id":"cebpf4jnsgd1na2vs0mg"},{"bike_id":"42943cf9-18d6-41ba-ba06-c06b58c21c72","system_id":"levelo_inurba_marseille","lat":43.27916,"lon":5.39587,"is_reserved":false,"is_disabled":false,"rental_uris":{"android":"levelo://app?vid=42943cf9-18d6-41ba-ba06-c06b58c21c72","ios":"levelo://app?vid=42943cf9-18d6-41ba-ba06-c06b58c21c72"},"vehicle_type_id":"4","last_reported":1730304699,"current_range_meters":29600,"station_id":"ce4bhf92rcd13ifvqf40","pricing_plan_id":"cebpf4jnsgd1na2vs0mg"},{"bike_id":"e8402b03-7f9b-4513-85c7-800390a13a8e","system_id":"levelo_inurba_marseille","lat":43.288666,"lon":5.380148,"is_reserved":false,"is_disabled":false,"rental_uris":{"android":"levelo://app?vid=e8402b03-7f9b-4513-85c7-800390a13a8e","ios":"levelo://app?vid=e8402b03-7f9b-4513-85c7-800390a13a8e"},"vehicle_type_id":"4","last_reported":1730304699,"current_range_meters":4800,"station_id":"ce4bgjh2rcd13ifvqbf0","pricing_plan_id":"cebpf4jnsgd1na2vs0mg"},{"bike_id":"c30c20a3-a003-4e47-981b-d4a01d18b8ed","system_id":"levelo_inurba_marseille","lat":43.24169,"lon":5.36411,"is_reserved":false,"is_disabled":false,"rental_uris":{"android":"levelo://app?vid=c30c20a3-a003-4e47-981b-d4a01d18b8ed","ios":"levelo://app?vid=c30c20a3-a003-4e47-981b-d4a01d18b8ed"},"vehicle_type_id":"4","last_reported":1730304699,"current_range_meters":10000,"station_id":"cpo36qri1sfpv3e86is0","pricing_plan_id":"cebpf4jnsgd1na2vs0mg"},{"bike_id":"1726778b-f53c-4f78-a16a-ea4e1285f9a2","system_id":"levelo_inurba_marseille","lat":43.30433,"lon":5.3976,"is_reserved":false,"is_disabled":false,"rental_uris":{"android":"levelo://app?vid=1726778b-f53c-4f78-a16a-ea4e1285f9a2","ios":"levelo://app?vid=1726778b-f53c-4f78-a16a-ea4e1285f9a2"},"vehicle_type_id":"4","last_reported":1730304699,"current_range_meters":29600,"station_id":"ce4bh092rcd13ifvqd20","pricing_plan_id":"cebpf4jnsgd1na2vs0mg"},{"bike_id":"c321424c-ba22-4d83-9783-f6949a540f18","system_id":"levelo_inurba_marseille","lat":43.31327,"lon":5.39701,"is_reserved":false,"is_disabled":false,"rental_uris":{"android":"levelo://app?vid=c321424c-ba22-4d83-9783-f6949a540f18","ios":"levelo://app?vid=c321424c-ba22-4d83-9783-f6949a540f18"},"vehicle_type_id":"4","last_reported":1730304699,"current_range_meters":38000,"station_id":"ce4bgvp2rcd13ifvqcu0","pricing_plan_id":"cebpf4jnsgd1na2vs0mg"},{"bike_id":"7ca0db77-9e00-4de0-a726-f7500026d3dc","system_id":"levelo_inurba_marseille","lat":43.33097,"lon":5.37925,"is_reserved":false,"is_disabled":false,"rental_uris":{"android":"levelo://app?vid=7ca0db77-9e00-4de0-a726-f7500026d3dc","ios":"levelo://app?vid=7ca0db77-9e00-4de0-a726-f7500026d3dc"},"vehicle_type_id":"4","last_reported":1730304699,"current_range_meters":33600,"station_id":"","pricing_plan_id":"cebpf4jnsgd1na2vs0mg"},{"bike_id":"f4188bfd-b548-40b1-854e-629248e67158","system_id":"levelo_inurba_marseille","lat":43.27674,"lon":5.38882,"is_reserved":false,"is_disabled":false,"rental_uris":{"android":"levelo://app?vid=f4188bfd-b548-40b1-854e-629248e67158","ios":"levelo://app?vid=f4188bfd-b548-40b1-854e-629248e67158"},"vehicle_type_id":"4","last_reported":1730304699,"current_range_meters":4000,"station_id":"ce4bhi12rcd13ifvqfo0","pricing_plan_id":"cebpf4jnsgd1na2vs0mg"},{"bike_id":"fea23d88-9bbb-4ffa-af08-7b03ca37348f","system_id":"levelo_inurba_marseille","lat":43.23182,"lon":5.39999,"is_reserved":false,"is_disabled":false,"rental_uris":{"android":"levelo://app?vid=fea23d88-9bbb-4ffa-af08-7b03ca37348f","ios":"levelo://app?vid=fea23d88-9bbb-4ffa-af08-7b03ca37348f"},"vehicle_type_id":"4","last_reported":1730304699,"current_range_meters":30000,"station_id":"ce4bhn12rcd13ifvqgqg","pricing_plan_id":"cebpf4jnsgd1na2vs0mg"},{"bike_id":"b0ffb813-2baa-4e65-bfe7-88981bc25b8b","system_id":"levelo_inurba_marseille","lat":43.28613,"lon":5.35104,"is_reserved":false,"is_disabled":false,"rental_uris":{"android":"levelo://app?vid=b0ffb813-2baa-4e65-bfe7-88981bc25b8b","ios":"levelo://app?vid=b0ffb813-2baa-4e65-bfe7-88981bc25b8b"},"vehicle_type_id":"4","last_reported":1730304699,"current_range_meters":17200,"station_id":"ce4bhch2rcd13ifvqeug","pricing_plan_id":"cebpf4jnsgd1na2vs0mg"},{"bike_id":"b3a66e89-5515-499a-a857-d9576142f466","system_id":"levelo_inurba_marseille","lat":43.29799,"lon":5.38096,"is_reserved":false,"is_disabled":false,"rental_uris":{"android":"levelo://app?vid=b3a66e89-5515-499a-a857-d9576142f466","ios":"levelo://app?vid=b3a66e89-5515-499a-a857-d9576142f466"},"vehicle_type_id":"4","last_reported":1730304699,"current_range_meters":38800,"station_id":"ce4bgip2rcd13ifvqbb0","pricing_plan_id":"cebpf4jnsgd1na2vs0mg"},{"bike_id":"160c3125-d109-49e3-a687-ede78b99dea2","system_id":"levelo_inurba_marseille","lat":43.23195,"lon":5.35543,"is_reserved":false,"is_disabled":false,"rental_uris":{"android":"levelo://app?vid=160c3125-d109-49e3-a687-ede78b99dea2","ios":"levelo://app?vid=160c3125-d109-49e3-a687-ede78b99dea2"},"vehicle_type_id":"4","last_reported":1730304699,"current_range_meters":38400,"station_id":"ce4bhu92rcd13ifvqi70","pricing_plan_id":"cebpf4jnsgd1na2vs0mg"},{"bike_id":"5a36b9f4-7c5b-4a1f-bbd9-b5904b92b096","system_id":"levelo_inurba_marseille","lat":43.23156,"lon":5.43705,"is_reserved":false,"is_disabled":false,"rental_uris":{"android":"levelo://app?vid=5a36b9f4-7c5b-4a1f-bbd9-b5904b92b096","ios":"levelo://app?vid=5a36b9f4-7c5b-4a1f-bbd9-b5904b92b096"},"vehicle_type_id":"4","last_reported":1730304699,"current_range_meters":4000,"station_id":"ce4bhmp2rcd13ifvqgog","pricing_plan_id":"cebpf4jnsgd1na2vs0mg"},{"bike_id":"c1bf4a91-a646-4162-907b-90b1796a78e8","system_id":"levelo_inurba_marseille","lat":43.299,"lon":5.43667,"is_reserved":false,"is_disabled":false,"rental_uris":{"android":"levelo://app?vid=c1bf4a91-a646-4162-907b-90b1796a78e8","ios":"levelo://app?vid=c1bf4a91-a646-4162-907b-90b1796a78e8"},"vehicle_type_id":"4","last_reported":1730304699,"current_range_meters":38800,"station_id":"ce4bhpp2rcd13ifvqhfg","pricing_plan_id":"cebpf4jnsgd1na2vs0mg"},{"bike_id":"bcc46ef9-9f66-4cf6-9ee6-4a0d358d0c7d","system_id":"levelo_inurba_marseille","lat":43.2843,"lon":5.37501,"is_reserved":false,"is_disabled":false,"rental_uris":{"android":"levelo://app?vid=bcc46ef9-9f66-4cf6-9ee6-4a0d358d0c7d","ios":"levelo://app?vid=bcc46ef9-9f66-4cf6-9ee6-4a0d358d0c7d"},"vehicle_type_id":"4","last_reported":1730304699,"current_range_meters":29600,"station_id":"ce4bh412rcd13ifvqds0","pricing_plan_id":"cebpf4jnsgd1na2vs0mg"},{"bike_id":"b40b116d-35cc-479e-99e7-05e2682827d4","system_id":"levelo_inurba_marseille","lat":43.3042,"lon":5.41282,"is_reserved":false,"is_disabled":false,"rental_uris":{"android":"levelo://app?vid=b40b116d-35cc-479e-99e7-05e2682827d4","ios":"levelo://app?vid=b40b116d-35cc-479e-99e7-05e2682827d4"},"vehicle_type_id":"4","last_reported":1730304699,"current_range_meters":19200,"station_id":"ce4bhop2rcd13ifvqh8g","pricing_plan_id":"cebpf4jnsgd1na2vs0mg"},{"bike_id":"d2be7d21-432d-4659-8f0b-7afc307fbe02","system_id":"levelo_inurba_marseille","lat":43.31487,"lon":5.37297,"is_reserved":false,"is_disabled":false,"rental_uris":{"android":"levelo://app?vid=d2be7d21-432d-4659-8f0b-7afc307fbe02","ios":"levelo://app?vid=d2be7d21-432d-4659-8f0b-7afc307fbe02"},"vehicle_type_id":"4","last_reported":1730304699,"current_range_meters":30000,"station_id":"ce4bgt12rcd13ifvqcd0","pricing_plan_id":"cebpf4jnsgd1na2vs0mg"},{"bike_id":"76ae65e7-1304-4c14-b23b-fa35af4a2ade","system_id":"levelo_inurba_marseille","lat":43.28413,"lon":5.34987,"is_reserved":false,"is_disabled":false,"rental_uris":{"android":"levelo://app?vid=76ae65e7-1304-4c14-b23b-fa35af4a2ade","ios":"levelo://app?vid=76ae65e7-1304-4c14-b23b-fa35af4a2ade"},"vehicle_type_id":"4","last_reported":1730304699,"current_range_meters":39200,"station_id":"ce4bhbh2rcd13ifvqepg","pricing_plan_id":"cebpf4jnsgd1na2vs0mg"},{"bike_id":"b9c0543a-0191-4c65-b109-3d16ef0b89f2","system_id":"levelo_inurba_marseille","lat":43.29002,"lon":5.35616,"is_reserved":false,"is_disabled":false,"rental_uris":{"android":"levelo://app?vid=b9c0543a-0191-4c65-b109-3d16ef0b89f2","ios":"levelo://app?vid=b9c0543a-0191-4c65-b109-3d16ef0b89f2"},"vehicle_type_id":"4","last_reported":1730304699,"current_range_meters":25200,"station_id":"ce4bhb92rcd13ifvqen0","pricing_plan_id":"cebpf4jnsgd1na2vs0mg"},{"bike_id":"dc6b02f2-a2bd-4e81-a971-ae790e0ec7de","system_id":"levelo_inurba_marseille","lat":43.26063,"lon":5.39397,"is_reserved":false,"is_disabled":false,"rental_uris":{"android":"levelo://app?vid=dc6b02f2-a2bd-4e81-a971-ae790e0ec7de","ios":"levelo://app?vid=dc6b02f2-a2bd-4e81-a971-ae790e0ec7de"},"vehicle_type_id":"4","last_reported":1730304699,"current_range_meters":38800,"station_id":"ce4bhh92rcd13ifvqfj0","pricing_plan_id":"cebpf4jnsgd1na2vs0mg"},{"bike_id":"5c5238a3-4a3c-4fa6-9556-e2a4d6292991","system_id":"levelo_inurba_marseille","lat":43.2992,"lon":5.37479,"is_reserved":false,"is_disabled":false,"rental_uris":{"android":"levelo://app?vid=5c5238a3-4a3c-4fa6-9556-e2a4d6292991","ios":"levelo://app?vid=5c5238a3-4a3c-4fa6-9556-e2a4d6292991"},"vehicle_type_id":"4","last_reported":1730304699,"current_range_meters":24000,"station_id":"ce4bgjh2rcd13ifvqbg0","pricing_plan_id":"cebpf4jnsgd1na2vs0mg"},{"bike_id":"f4f0c396-6a67-4f18-9402-88b4f8a3a765","system_id":"levelo_inurba_marseille","lat":43.28973,"lon":5.37845,"is_reserved":false,"is_disabled":false,"rental_uris":{"android":"levelo://app?vid=f4f0c396-6a67-4f18-9402-88b4f8a3a765","ios":"levelo://app?vid=f4f0c396-6a67-4f18-9402-88b4f8a3a765"},"vehicle_type_id":"4","last_reported":1730304699,"current_range_meters":39200,"station_id":"ce4bh9p2rcd13ifvqed0","pricing_plan_id":"cebpf4jnsgd1na2vs0mg"},{"bike_id":"e754eb29-a953-465d-b292-6cd7d9b4a18f","system_id":"levelo_inurba_marseille","lat":43.3149,"lon":5.37306,"is_reserved":false,"is_disabled":false,"rental_uris":{"android":"levelo://app?vid=e754eb29-a953-465d-b292-6cd7d9b4a18f","ios":"levelo://app?vid=e754eb29-a953-465d-b292-6cd7d9b4a18f"},"vehicle_type_id":"4","last_reported":1730304699,"current_range_meters":20000,"station_id":"ce4bgt12rcd13ifvqcd0","pricing_plan_id":"cebpf4jnsgd1na2vs0mg"},{"bike_id":"bfb1a2f2-5dd7-404a-90bb-be56759f829f","system_id":"levelo_inurba_marseille","lat":43.27995,"lon":5.41657,"is_reserved":false,"is_disabled":false,"rental_uris":{"android":"levelo://app?vid=bfb1a2f2-5dd7-404a-90bb-be56759f829f","ios":"levelo://app?vid=bfb1a2f2-5dd7-404a-90bb-be56759f829f"},"vehicle_type_id":"4","last_reported":1730304699,"current_range_meters":36400,"station_id":"ce4bho12rcd13ifvqh1g","pricing_plan_id":"cebpf4jnsgd1na2vs0mg"},{"bike_id":"58060a39-a8a8-448e-b245-96d066adece6","system_id":"levelo_inurba_marseille","lat":43.29112,"lon":5.38076,"is_reserved":false,"is_disabled":false,"rental_uris":{"android":"levelo://app?vid=58060a39-a8a8-448e-b245-96d066adece6","ios":"levelo://app?vid=58060a39-a8a8-448e-b245-96d066adece6"},"vehicle_type_id":"4","last_reported":1730304699,"current_range_meters":6400,"station_id":"","pricing_plan_id":"cebpf4jnsgd1na2vs0mg"},{"bike_id":"f4dcfc73-83cf-4c70-8fed-cacf69925473","system_id":"levelo_inurba_marseille","lat":43.25826,"lon":5.39441,"is_reserved":false,"is_disabled":false,"rental_uris":{"android":"levelo://app?vid=f4dcfc73-83cf-4c70-8fed-cacf69925473","ios":"levelo://app?vid=f4dcfc73-83cf-4c70-8fed-cacf69925473"},"vehicle_type_id":"4","last_reported":1730304699,"current_range_meters":38000,"station_id":"ce4bhip2rcd13ifvqft0","pricing_plan_id":"cebpf4jnsgd1na2vs0mg"},{"bike_id":"0af390f5-be38-48a0-8c8e-12da1bc1e8ec","system_id":"levelo_inurba_marseille","lat":43.2909,"lon":5.38141,"is_reserved":false,"is_disabled":false,"rental_uris":{"android":"levelo://app?vid=0af390f5-be38-48a0-8c8e-12da1bc1e8ec","ios":"levelo://app?vid=0af390f5-be38-48a0-8c8e-12da1bc1e8ec"},"vehicle_type_id":"4","last_reported":1730304699,"current_range_meters":26800,"station_id":"ce4bh512rcd13ifvqe2g","pricing_plan_id":"cebpf4jnsgd1na2vs0mg"},{"bike_id":"5f89453b-ba8e-4974-bd2a-310f3e1338fd","system_id":"levelo_inurba_marseille","lat":43.28853,"lon":5.39299,"is_reserved":false,"is_disabled":false,"rental_uris":{"android":"levelo://app?vid=5f89453b-ba8e-4974-bd2a-310f3e1338fd","ios":"levelo://app?vid=5f89453b-ba8e-4974-bd2a-310f3e1338fd"},"vehicle_type_id":"4","last_reported":1730304699,"current_range_meters":2800,"station_id":"ce4bh2p2rcd13ifvqdi0","pricing_plan_id":"cebpf4jnsgd1na2vs0mg"},{"bike_id":"00570a9a-70dc-4fd9-a21d-b33665529146","system_id":"levelo_inurba_marseille","lat":43.23966,"lon":5.36645,"is_reserved":false,"is_disabled":false,"rental_uris":{"android":"levelo://app?vid=00570a9a-70dc-4fd9-a21d-b33665529146","ios":"levelo://app?vid=00570a9a-70dc-4fd9-a21d-b33665529146"},"vehicle_type_id":"4","last_reported":1730304699,"current_range_meters":40000,"station_id":"ce4bhi12rcd13ifvqfp0","pricing_plan_id":"cebpf4jnsgd1na2vs0mg"},{"bike_id":"9592eb1a-4a46-4535-b3fe-0af141dace43","system_id":"levelo_inurba_marseille","lat":43.2396,"lon":5.36637,"is_reserved":false,"is_disabled":false,"rental_uris":{"android":"levelo://app?vid=9592eb1a-4a46-4535-b3fe-0af141dace43","ios":"levelo://app?vid=9592eb1a-4a46-4535-b3fe-0af141dace43"},"vehicle_type_id":"4","last_reported":1730304699,"current_range_meters":31200,"station_id":"ce4bhi12rcd13ifvqfp0","pricing_plan_id":"cebpf4jnsgd1na2vs0mg"},{"bike_id":"9266b73c-9398-400c-8c18-4f823022aba9","system_id":"levelo_inurba_marseille","lat":43.29547,"lon":5.37479,"is_reserved":false,"is_disabled":false,"rental_uris":{"android":"levelo://app?vid=9266b73c-9398-400c-8c18-4f823022aba9","ios":"levelo://app?vid=9266b73c-9398-400c-8c18-4f823022aba9"},"vehicle_type_id":"4","last_reported":1730304699,"current_range_meters":36400,"station_id":"ce4bgop2rcd13ifvqc1g","pricing_plan_id":"cebpf4jnsgd1na2vs0mg"},{"bike_id":"f2231ba9-ac52-4692-9b58-e2be2308b784","system_id":"levelo_inurba_marseille","lat":43.31068,"lon":5.38359,"is_reserved":false,"is_disabled":false,"rental_uris":{"android":"levelo://app?vid=f2231ba9-ac52-4692-9b58-e2be2308b784","ios":"levelo://app?vid=f2231ba9-ac52-4692-9b58-e2be2308b784"},"vehicle_type_id":"4","last_reported":1730304699,"current_range_meters":35200,"station_id":"ce4bgv92rcd13ifvqcr0","pricing_plan_id":"cebpf4jnsgd1na2vs0mg"},{"bike_id":"85058a67-6c96-401c-b3b1-04ac20dcde4e","system_id":"levelo_inurba_marseille","lat":43.28078,"lon":5.39669,"is_reserved":false,"is_disabled":false,"rental_uris":{"android":"levelo://app?vid=85058a67-6c96-401c-b3b1-04ac20dcde4e","ios":"levelo://app?vid=85058a67-6c96-401c-b3b1-04ac20dcde4e"},"vehicle_type_id":"4","last_reported":1730304699,"current_range_meters":11600,"station_id":"ce4bho12rcd13ifvqh2g","pricing_plan_id":"cebpf4jnsgd1na2vs0mg"},{"bike_id":"21afd290-f4eb-4497-a172-24d2c219733f","system_id":"levelo_inurba_marseille","lat":43.30355,"lon":5.41886,"is_reserved":false,"is_disabled":false,"rental_uris":{"android":"levelo://app?vid=21afd290-f4eb-4497-a172-24d2c219733f","ios":"levelo://app?vid=21afd290-f4eb-4497-a172-24d2c219733f"},"vehicle_type_id":"4","last_reported":1730304699,"current_range_meters":37600,"station_id":"ce4bhop2rcd13ifvqh7g","pricing_plan_id":"cebpf4jnsgd1na2vs0mg"},{"bike_id":"12795c01-3a1c-483c-954f-6283275b7596","system_id":"levelo_inurba_marseille","lat":43.288879,"lon":5.360529,"is_reserved":false,"is_disabled":false,"rental_uris":{"android":"levelo://app?vid=12795c01-3a1c-483c-954f-6283275b7596","ios":"levelo://app?vid=12795c01-3a1c-483c-954f-6283275b7596"},"vehicle_type_id":"4","last_reported":1730304699,"current_range_meters":12000,"station_id":"ce4bh3p2rcd13ifvqdq0","pricing_plan_id":"cebpf4jnsgd1na2vs0mg"},{"bike_id":"00230415-7e52-4c44-be9f-c7b241250dcc","system_id":"levelo_inurba_marseille","lat":43.26568,"lon":5.39042,"is_reserved":false,"is_disabled":false,"rental_uris":{"android":"levelo://app?vid=00230415-7e52-4c44-be9f-c7b241250dcc","ios":"levelo://app?vid=00230415-7e52-4c44-be9f-c7b241250dcc"},"vehicle_type_id":"4","last_reported":1730304699,"current_range_meters":37600,"station_id":"ce4bhe12rcd13ifvqf30","pricing_plan_id":"cebpf4jnsgd1na2vs0mg"},{"bike_id":"1f1bc2ae-4bff-4f1e-b758-b3683988c9b7","system_id":"levelo_inurba_marseille","lat":43.274253,"lon":5.394147,"is_reserved":false,"is_disabled":false,"rental_uris":{"android":"levelo://app?vid=1f1bc2ae-4bff-4f1e-b758-b3683988c9b7","ios":"levelo://app?vid=1f1bc2ae-4bff-4f1e-b758-b3683988c9b7"},"vehicle_type_id":"4","last_reported":1730304699,"current_range_meters":28000,"station_id":"ce4bhdp2rcd13ifvqf20","pricing_plan_id":"cebpf4jnsgd1na2vs0mg"},{"bike_id":"520a9551-b03c-4322-a45b-0362c62d111e","system_id":"levelo_inurba_marseille","lat":43.27374,"lon":5.36268,"is_reserved":false,"is_disabled":false,"rental_uris":{"android":"levelo://app?vid=520a9551-b03c-4322-a45b-0362c62d111e","ios":"levelo://app?vid=520a9551-b03c-4322-a45b-0362c62d111e"},"vehicle_type_id":"4","last_reported":1730304699,"current_range_meters":38800,"station_id":"ce4bhbh2rcd13ifvqeo0","pricing_plan_id":"cebpf4jnsgd1na2vs0mg"},{"bike_id":"8cdf364b-bace-48cf-9f26-c4aba9ec8c52","system_id":"levelo_inurba_marseille","lat":43.2827,"lon":5.35077,"is_reserved":false,"is_disabled":false,"rental_uris":{"android":"levelo://app?vid=8cdf364b-bace-48cf-9f26-c4aba9ec8c52","ios":"levelo://app?vid=8cdf364b-bace-48cf-9f26-c4aba9ec8c52"},"vehicle_type_id":"4","last_reported":1730304699,"current_range_meters":38800,"station_id":"ce4bhbp2rcd13ifvqerg","pricing_plan_id":"cebpf4jnsgd1na2vs0mg"},{"bike_id":"db61dc4b-e597-414d-bee1-f34015dab7d5","system_id":"levelo_inurba_marseille","lat":43.26068,"lon":5.39394,"is_reserved":false,"is_disabled":false,"rental_uris":{"android":"levelo://app?vid=db61dc4b-e597-414d-bee1-f34015dab7d5","ios":"levelo://app?vid=db61dc4b-e597-414d-bee1-f34015dab7d5"},"vehicle_type_id":"4","last_reported":1730304699,"current_range_meters":14800,"station_id":"ce4bhh92rcd13ifvqfj0","pricing_plan_id":"cebpf4jnsgd1na2vs0mg"},{"bike_id":"abad08e3-909d-4e81-b274-752603c6170c","system_id":"levelo_inurba_marseille","lat":43.32055,"lon":5.41557,"is_reserved":false,"is_disabled":false,"rental_uris":{"android":"levelo://app?vid=abad08e3-909d-4e81-b274-752603c6170c","ios":"levelo://app?vid=abad08e3-909d-4e81-b274-752603c6170c"},"vehicle_type_id":"4","last_reported":1730304699,"current_range_meters":7200,"station_id":"ce4bhq92rcd13ifvqhkg","pricing_plan_id":"cebpf4jnsgd1na2vs0mg"},{"bike_id":"1cedb0a0-058a-4db0-8c0c-51773c9d8a04","system_id":"levelo_inurba_marseille","lat":43.29002,"lon":5.35608,"is_reserved":false,"is_disabled":false,"rental_uris":{"android":"levelo://app?vid=1cedb0a0-058a-4db0-8c0c-51773c9d8a04","ios":"levelo://app?vid=1cedb0a0-058a-4db0-8c0c-51773c9d8a04"},"vehicle_type_id":"4","last_reported":1730304699,"current_range_meters":40000,"station_id":"ce4bhb92rcd13ifvqen0","pricing_plan_id":"cebpf4jnsgd1na2vs0mg"},{"bike_id":"db17bdd0-a753-421c-a97f-e8aa8469b079","system_id":"levelo_inurba_marseille","lat":43.28726,"lon":5.36089,"is_reserved":false,"is_disabled":false,"rental_uris":{"android":"levelo://app?vid=db17bdd0-a753-421c-a97f-e8aa8469b079","ios":"levelo://app?vid=db17bdd0-a753-421c-a97f-e8aa8469b079"},"vehicle_type_id":"4","last_reported":1730304699,"current_range_meters":39200,"station_id":"cki0cbj6b192h4jlfktg","pricing_plan_id":"cebpf4jnsgd1na2vs0mg"},{"bike_id":"4ad1a6a0-d939-49b5-b869-57801235a14f","system_id":"levelo_inurba_marseille","lat":43.23194,"lon":5.35561,"is_reserved":false,"is_disabled":false,"rental_uris":{"android":"levelo://app?vid=4ad1a6a0-d939-49b5-b869-57801235a14f","ios":"levelo://app?vid=4ad1a6a0-d939-49b5-b869-57801235a14f"},"vehicle_type_id":"4","last_reported":1730304699,"current_range_meters":38000,"station_id":"ce4bhu92rcd13ifvqi70","pricing_plan_id":"cebpf4jnsgd1na2vs0mg"},{"bike_id":"b55c79c6-cb86-4a49-b99f-dae8963d0dc6","system_id":"levelo_inurba_marseille","lat":43.27993,"lon":5.41657,"is_reserved":false,"is_disabled":false,"rental_uris":{"android":"levelo://app?vid=b55c79c6-cb86-4a49-b99f-dae8963d0dc6","ios":"levelo://app?vid=b55c79c6-cb86-4a49-b99f-dae8963d0dc6"},"vehicle_type_id":"4","last_reported":1730304699,"current_range_meters":36400,"station_id":"ce4bho12rcd13ifvqh1g","pricing_plan_id":"cebpf4jnsgd1na2vs0mg"},{"bike_id":"9cd600cc-0fc2-4962-8604-575399b98b00","system_id":"levelo_inurba_marseille","lat":43.30166,"lon":5.36625,"is_reserved":false,"is_disabled":false,"rental_uris":{"android":"levelo://app?vid=9cd600cc-0fc2-4962-8604-575399b98b00","ios":"levelo://app?vid=9cd600cc-0fc2-4962-8604-575399b98b00"},"vehicle_type_id":"4","last_reported":1730304699,"current_range_meters":14000,"station_id":"ce4bgrh2rcd13ifvqc8g","pricing_plan_id":"cebpf4jnsgd1na2vs0mg"},{"bike_id":"0d4e0479-d8a2-45f2-91e0-dd87823320fe","system_id":"levelo_inurba_marseille","lat":43.33777,"lon":5.37469,"is_reserved":false,"is_disabled":false,"rental_uris":{"android":"levelo://app?vid=0d4e0479-d8a2-45f2-91e0-dd87823320fe","ios":"levelo://app?vid=0d4e0479-d8a2-45f2-91e0-dd87823320fe"},"vehicle_type_id":"4","last_reported":1730304699,"current_range_meters":34000,"station_id":"","pricing_plan_id":"cebpf4jnsgd1na2vs0mg"},{"bike_id":"9b83bad7-7a75-445a-8727-7fc4e89f8827","system_id":"levelo_inurba_marseille","lat":43.28414,"lon":5.34989,"is_reserved":false,"is_disabled":false,"rental_uris":{"android":"levelo://app?vid=9b83bad7-7a75-445a-8727-7fc4e89f8827","ios":"levelo://app?vid=9b83bad7-7a75-445a-8727-7fc4e89f8827"},"vehicle_type_id":"4","last_reported":1730304699,"current_range_meters":6800,"station_id":"ce4bhbh2rcd13ifvqepg","pricing_plan_id":"cebpf4jnsgd1na2vs0mg"},{"bike_id":"3c64f488-e4ef-4009-a9f7-6c929b1e72ca","system_id":"levelo_inurba_marseille","lat":43.3149,"lon":5.37304,"is_reserved":false,"is_disabled":false,"rental_uris":{"android":"levelo://app?vid=3c64f488-e4ef-4009-a9f7-6c929b1e72ca","ios":"levelo://app?vid=3c64f488-e4ef-4009-a9f7-6c929b1e72ca"},"vehicle_type_id":"4","last_reported":1730304699,"current_range_meters":27200,"station_id":"ce4bgt12rcd13ifvqcd0","pricing_plan_id":"cebpf4jnsgd1na2vs0mg"},{"bike_id":"b580dfc7-cdae-4d6c-96cc-802dd72f25cb","system_id":"levelo_inurba_marseille","lat":43.31485,"lon":5.37309,"is_reserved":false,"is_disabled":false,"rental_uris":{"android":"levelo://app?vid=b580dfc7-cdae-4d6c-96cc-802dd72f25cb","ios":"levelo://app?vid=b580dfc7-cdae-4d6c-96cc-802dd72f25cb"},"vehicle_type_id":"4","last_reported":1730304699,"current_range_meters":12400,"station_id":"ce4bgt12rcd13ifvqcd0","pricing_plan_id":"cebpf4jnsgd1na2vs0mg"},{"bike_id":"b91807be-263f-44f9-9c83-bd8b75013302","system_id":"levelo_inurba_marseille","lat":43.28462,"lon":5.35889,"is_reserved":false,"is_disabled":false,"rental_uris":{"android":"levelo://app?vid=b91807be-263f-44f9-9c83-bd8b75013302","ios":"levelo://app?vid=b91807be-263f-44f9-9c83-bd8b75013302"},"vehicle_type_id":"4","last_reported":1730304699,"current_range_meters":35200,"station_id":"ce4bhah2rcd13ifvqei0","pricing_plan_id":"cebpf4jnsgd1na2vs0mg"},{"bike_id":"5a12a38f-474f-4738-a0e2-27e3a1e8b399","system_id":"levelo_inurba_marseille","lat":43.255774,"lon":5.382286,"is_reserved":false,"is_disabled":false,"rental_uris":{"android":"levelo://app?vid=5a12a38f-474f-4738-a0e2-27e3a1e8b399","ios":"levelo://app?vid=5a12a38f-474f-4738-a0e2-27e3a1e8b399"},"vehicle_type_id":"4","last_reported":1730304699,"current_range_meters":6400,"station_id":"ce4bhlp2rcd13ifvqgjg","pricing_plan_id":"cebpf4jnsgd1na2vs0mg"},{"bike_id":"ca992be8-9490-4f90-b791-dae78fb5e6fc","system_id":"levelo_inurba_marseille","lat":43.26563,"lon":5.39018,"is_reserved":false,"is_disabled":false,"rental_uris":{"android":"levelo://app?vid=ca992be8-9490-4f90-b791-dae78fb5e6fc","ios":"levelo://app?vid=ca992be8-9490-4f90-b791-dae78fb5e6fc"},"vehicle_type_id":"4","last_reported":1730304699,"current_range_meters":10000,"station_id":"ce4bhe12rcd13ifvqf30","pricing_plan_id":"cebpf4jnsgd1na2vs0mg"},{"bike_id":"f20f5b9c-89b9-4b26-8e9d-6a09ce204200","system_id":"levelo_inurba_marseille","lat":43.22925,"lon":5.35375,"is_reserved":false,"is_disabled":false,"rental_uris":{"android":"levelo://app?vid=f20f5b9c-89b9-4b26-8e9d-6a09ce204200","ios":"levelo://app?vid=f20f5b9c-89b9-4b26-8e9d-6a09ce204200"},"vehicle_type_id":"4","last_reported":1730304699,"current_range_meters":37600,"station_id":"cpo3532slgdg3j2ikp40","pricing_plan_id":"cebpf4jnsgd1na2vs0mg"},{"bike_id":"f6d41776-54d1-44e3-a631-f831d1f8333d","system_id":"levelo_inurba_marseille","lat":43.29249,"lon":5.40922,"is_reserved":false,"is_disabled":false,"rental_uris":{"android":"levelo://app?vid=f6d41776-54d1-44e3-a631-f831d1f8333d","ios":"levelo://app?vid=f6d41776-54d1-44e3-a631-f831d1f8333d"},"vehicle_type_id":"4","last_reported":1730304699,"current_range_meters":38800,"station_id":"ce4bh192rcd13ifvqdc0","pricing_plan_id":"cebpf4jnsgd1na2vs0mg"},{"bike_id":"cbb344cb-6d2f-4efe-8848-9e4e9db9e553","system_id":"levelo_inurba_marseille","lat":43.25865,"lon":5.39902,"is_reserved":false,"is_disabled":false,"rental_uris":{"android":"levelo://app?vid=cbb344cb-6d2f-4efe-8848-9e4e9db9e553","ios":"levelo://app?vid=cbb344cb-6d2f-4efe-8848-9e4e9db9e553"},"vehicle_type_id":"4","last_reported":1730304699,"current_range_meters":16000,"station_id":"ce4bhl92rcd13ifvqghg","pricing_plan_id":"cebpf4jnsgd1na2vs0mg"},{"bike_id":"ff4f6981-5a66-44c8-a6f1-1bca1f7ed079","system_id":"levelo_inurba_marseille","lat":43.26564,"lon":5.39011,"is_reserved":false,"is_disabled":false,"rental_uris":{"android":"levelo://app?vid=ff4f6981-5a66-44c8-a6f1-1bca1f7ed079","ios":"levelo://app?vid=ff4f6981-5a66-44c8-a6f1-1bca1f7ed079"},"vehicle_type_id":"4","last_reported":1730304699,"current_range_meters":32000,"station_id":"ce4bhe12rcd13ifvqf30","pricing_plan_id":"cebpf4jnsgd1na2vs0mg"},{"bike_id":"4d6f014d-940c-4038-9a5d-0938f3acd559","system_id":"levelo_inurba_marseille","lat":43.295321,"lon":5.385468,"is_reserved":false,"is_disabled":false,"rental_uris":{"android":"levelo://app?vid=4d6f014d-940c-4038-9a5d-0938f3acd559","ios":"levelo://app?vid=4d6f014d-940c-4038-9a5d-0938f3acd559"},"vehicle_type_id":"4","last_reported":1730304699,"current_range_meters":25600,"station_id":"ce4bgih2rcd13ifvqba0","pricing_plan_id":"cebpf4jnsgd1na2vs0mg"},{"bike_id":"df36647e-c158-47fc-b3fd-f71137272d85","system_id":"levelo_inurba_marseille","lat":43.31361,"lon":5.38494,"is_reserved":false,"is_disabled":false,"rental_uris":{"android":"levelo://app?vid=df36647e-c158-47fc-b3fd-f71137272d85","ios":"levelo://app?vid=df36647e-c158-47fc-b3fd-f71137272d85"},"vehicle_type_id":"4","last_reported":1730304699,"current_range_meters":25200,"station_id":"ce4bgt92rcd13ifvqcf0","pricing_plan_id":"cebpf4jnsgd1na2vs0mg"},{"bike_id":"f00b1caa-50dd-4df6-bdec-a515b220ca08","system_id":"levelo_inurba_marseille","lat":43.28405,"lon":5.35003,"is_reserved":false,"is_disabled":false,"rental_uris":{"android":"levelo://app?vid=f00b1caa-50dd-4df6-bdec-a515b220ca08","ios":"levelo://app?vid=f00b1caa-50dd-4df6-bdec-a515b220ca08"},"vehicle_type_id":"4","last_reported":1730304699,"current_range_meters":38800,"station_id":"ce4bhbh2rcd13ifvqepg","pricing_plan_id":"cebpf4jnsgd1na2vs0mg"},{"bike_id":"165828b1-d06e-4b70-b3a7-636ec8e9ee04","system_id":"levelo_inurba_marseille","lat":43.24166,"lon":5.36401,"is_reserved":false,"is_disabled":false,"rental_uris":{"android":"levelo://app?vid=165828b1-d06e-4b70-b3a7-636ec8e9ee04","ios":"levelo://app?vid=165828b1-d06e-4b70-b3a7-636ec8e9ee04"},"vehicle_type_id":"4","last_reported":1730304699,"current_range_meters":37600,"station_id":"cpo36qri1sfpv3e86is0","pricing_plan_id":"cebpf4jnsgd1na2vs0mg"},{"bike_id":"b641048b-295c-41c1-8a1c-b4f787bc39b8","system_id":"levelo_inurba_marseille","lat":43.31086,"lon":5.42429,"is_reserved":false,"is_disabled":false,"rental_uris":{"android":"levelo://app?vid=b641048b-295c-41c1-8a1c-b4f787bc39b8","ios":"levelo://app?vid=b641048b-295c-41c1-8a1c-b4f787bc39b8"},"vehicle_type_id":"4","last_reported":1730304699,"current_range_meters":38800,"station_id":"ce4bhp92rcd13ifvqhag","pricing_plan_id":"cebpf4jnsgd1na2vs0mg"},{"bike_id":"86d392c3-b9ff-47ec-971e-f5bcdba01d5e","system_id":"levelo_inurba_marseille","lat":43.30547,"lon":5.3844,"is_reserved":false,"is_disabled":false,"rental_uris":{"android":"levelo://app?vid=86d392c3-b9ff-47ec-971e-f5bcdba01d5e","ios":"levelo://app?vid=86d392c3-b9ff-47ec-971e-f5bcdba01d5e"},"vehicle_type_id":"4","last_reported":1730304699,"current_range_meters":36800,"station_id":"ce4bgg92rcd13ifvqb30","pricing_plan_id":"cebpf4jnsgd1na2vs0mg"},{"bike_id":"c5d8110c-54dd-4055-af51-36261cf3ca57","system_id":"levelo_inurba_marseille","lat":43.26204,"lon":5.37929,"is_reserved":false,"is_disabled":false,"rental_uris":{"android":"levelo://app?vid=c5d8110c-54dd-4055-af51-36261cf3ca57","ios":"levelo://app?vid=c5d8110c-54dd-4055-af51-36261cf3ca57"},"vehicle_type_id":"4","last_reported":1730304699,"current_range_meters":39200,"station_id":"ce4bhjp2rcd13ifvqg90","pricing_plan_id":"cebpf4jnsgd1na2vs0mg"},{"bike_id":"86ee8a35-5f8d-4f9d-bb08-4b24026f3935","system_id":"levelo_inurba_marseille","lat":43.322906,"lon":5.38276,"is_reserved":false,"is_disabled":false,"rental_uris":{"android":"levelo://app?vid=86ee8a35-5f8d-4f9d-bb08-4b24026f3935","ios":"levelo://app?vid=86ee8a35-5f8d-4f9d-bb08-4b24026f3935"},"vehicle_type_id":"4","last_reported":1730304699,"current_range_meters":39200,"station_id":"ce4bhr12rcd13ifvqhqg","pricing_plan_id":"cebpf4jnsgd1na2vs0mg"},{"bike_id":"6a7bf69e-e48c-4311-99d1-0f0894999a5f","system_id":"levelo_inurba_marseille","lat":43.27815,"lon":5.40715,"is_reserved":false,"is_disabled":false,"rental_uris":{"android":"levelo://app?vid=6a7bf69e-e48c-4311-99d1-0f0894999a5f","ios":"levelo://app?vid=6a7bf69e-e48c-4311-99d1-0f0894999a5f"},"vehicle_type_id":"4","last_reported":1730304699,"current_range_meters":6000,"station_id":"ce4bhnh2rcd13ifvqgtg","pricing_plan_id":"cebpf4jnsgd1na2vs0mg"},{"bike_id":"3a76c6de-9baf-4a67-8fc3-d173223c0c86","system_id":"levelo_inurba_marseille","lat":43.29303,"lon":5.374676,"is_reserved":false,"is_disabled":false,"rental_uris":{"android":"levelo://app?vid=3a76c6de-9baf-4a67-8fc3-d173223c0c86","ios":"levelo://app?vid=3a76c6de-9baf-4a67-8fc3-d173223c0c86"},"vehicle_type_id":"4","last_reported":1730304699,"current_range_meters":6000,"station_id":"ce4bgi12rcd13ifvqb70","pricing_plan_id":"cebpf4jnsgd1na2vs0mg"},{"bike_id":"67d015ed-f396-41ea-b2a9-81a7f0bf0b27","system_id":"levelo_inurba_marseille","lat":43.26565,"lon":5.39004,"is_reserved":false,"is_disabled":false,"rental_uris":{"android":"levelo://app?vid=67d015ed-f396-41ea-b2a9-81a7f0bf0b27","ios":"levelo://app?vid=67d015ed-f396-41ea-b2a9-81a7f0bf0b27"},"vehicle_type_id":"4","last_reported":1730304699,"current_range_meters":36000,"station_id":"ce4bhe12rcd13ifvqf30","pricing_plan_id":"cebpf4jnsgd1na2vs0mg"},{"bike_id":"fc20e28b-7b24-494a-b674-6d4071a92c95","system_id":"levelo_inurba_marseille","lat":43.30886,"lon":5.39647,"is_reserved":false,"is_disabled":false,"rental_uris":{"android":"levelo://app?vid=fc20e28b-7b24-494a-b674-6d4071a92c95","ios":"levelo://app?vid=fc20e28b-7b24-494a-b674-6d4071a92c95"},"vehicle_type_id":"4","last_reported":1730304699,"current_range_meters":32400,"station_id":"ce4bh012rcd13ifvqcv0","pricing_plan_id":"cebpf4jnsgd1na2vs0mg"},{"bike_id":"feece552-1b97-45c5-8d1c-7ef7200ce1ec","system_id":"levelo_inurba_marseille","lat":43.30796,"lon":5.43526,"is_reserved":false,"is_disabled":false,"rental_uris":{"android":"levelo://app?vid=feece552-1b97-45c5-8d1c-7ef7200ce1ec","ios":"levelo://app?vid=feece552-1b97-45c5-8d1c-7ef7200ce1ec"},"vehicle_type_id":"4","last_reported":1730304699,"current_range_meters":25600,"station_id":"ce4bhph2rcd13ifvqheg","pricing_plan_id":"cebpf4jnsgd1na2vs0mg"},{"bike_id":"f421ba8a-fbaf-4ca0-913c-ae563fbbfacc","system_id":"levelo_inurba_marseille","lat":43.29273,"lon":5.36844,"is_reserved":false,"is_disabled":false,"rental_uris":{"android":"levelo://app?vid=f421ba8a-fbaf-4ca0-913c-ae563fbbfacc","ios":"levelo://app?vid=f421ba8a-fbaf-4ca0-913c-ae563fbbfacc"},"vehicle_type_id":"4","last_reported":1730304699,"current_range_meters":26000,"station_id":"ce4bhbp2rcd13ifvqesg","pricing_plan_id":"cebpf4jnsgd1na2vs0mg"},{"bike_id":"5bea5355-a3b8-43d5-beb5-a5fc4299e4de","system_id":"levelo_inurba_marseille","lat":43.31163,"lon":5.3872,"is_reserved":false,"is_disabled":false,"rental_uris":{"android":"levelo://app?vid=5bea5355-a3b8-43d5-beb5-a5fc4299e4de","ios":"levelo://app?vid=5bea5355-a3b8-43d5-beb5-a5fc4299e4de"},"vehicle_type_id":"4","last_reported":1730304699,"current_range_meters":31200,"station_id":"ce4bgv12rcd13ifvqcp0","pricing_plan_id":"cebpf4jnsgd1na2vs0mg"},{"bike_id":"eaab9327-0ca4-46f7-abbb-79e78a2152bd","system_id":"levelo_inurba_marseille","lat":43.24169,"lon":5.36392,"is_reserved":false,"is_disabled":false,"rental_uris":{"android":"levelo://app?vid=eaab9327-0ca4-46f7-abbb-79e78a2152bd","ios":"levelo://app?vid=eaab9327-0ca4-46f7-abbb-79e78a2152bd"},"vehicle_type_id":"4","last_reported":1730304699,"current_range_meters":28400,"station_id":"cpo36qri1sfpv3e86is0","pricing_plan_id":"cebpf4jnsgd1na2vs0mg"},{"bike_id":"32679aed-2192-467f-8bc4-6b0f5290970b","system_id":"levelo_inurba_marseille","lat":43.30652,"lon":5.401,"is_reserved":false,"is_disabled":false,"rental_uris":{"android":"levelo://app?vid=32679aed-2192-467f-8bc4-6b0f5290970b","ios":"levelo://app?vid=32679aed-2192-467f-8bc4-6b0f5290970b"},"vehicle_type_id":"4","last_reported":1730304699,"current_range_meters":3200,"station_id":"ce4bh112rcd13ifvqda0","pricing_plan_id":"cebpf4jnsgd1na2vs0mg"},{"bike_id":"f19c55c0-e7e4-4902-9c83-fcf38b001e3e","system_id":"levelo_inurba_marseille","lat":43.29939,"lon":5.36559,"is_reserved":false,"is_disabled":false,"rental_uris":{"android":"levelo://app?vid=f19c55c0-e7e4-4902-9c83-fcf38b001e3e","ios":"levelo://app?vid=f19c55c0-e7e4-4902-9c83-fcf38b001e3e"},"vehicle_type_id":"4","last_reported":1730304699,"current_range_meters":25600,"station_id":"ce4bgm92rcd13ifvqbr0","pricing_plan_id":"cebpf4jnsgd1na2vs0mg"},{"bike_id":"de7de924-2a4b-4d49-8171-00356961e0d8","system_id":"levelo_inurba_marseille","lat":43.27063,"lon":5.40266,"is_reserved":false,"is_disabled":false,"rental_uris":{"android":"levelo://app?vid=de7de924-2a4b-4d49-8171-00356961e0d8","ios":"levelo://app?vid=de7de924-2a4b-4d49-8171-00356961e0d8"},"vehicle_type_id":"4","last_reported":1730304699,"current_range_meters":3600,"station_id":"ce4bhk92rcd13ifvqgc0","pricing_plan_id":"cebpf4jnsgd1na2vs0mg"},{"bike_id":"36132787-eef9-4d78-b94b-7cccfebfeb03","system_id":"levelo_inurba_marseille","lat":43.29847,"lon":5.36274,"is_reserved":false,"is_disabled":false,"rental_uris":{"android":"levelo://app?vid=36132787-eef9-4d78-b94b-7cccfebfeb03","ios":"levelo://app?vid=36132787-eef9-4d78-b94b-7cccfebfeb03"},"vehicle_type_id":"4","last_reported":1730304699,"current_range_meters":38400,"station_id":"ce4bgpp2rcd13ifvqc3g","pricing_plan_id":"cebpf4jnsgd1na2vs0mg"},{"bike_id":"40f38d3d-06c8-4a71-abf7-63558b3be6d1","system_id":"levelo_inurba_marseille","lat":43.31084,"lon":5.42431,"is_reserved":false,"is_disabled":false,"rental_uris":{"android":"levelo://app?vid=40f38d3d-06c8-4a71-abf7-63558b3be6d1","ios":"levelo://app?vid=40f38d3d-06c8-4a71-abf7-63558b3be6d1"},"vehicle_type_id":"4","last_reported":1730304699,"current_range_meters":38800,"station_id":"ce4bhp92rcd13ifvqhag","pricing_plan_id":"cebpf4jnsgd1na2vs0mg"},{"bike_id":"deaf69d9-92ad-4693-bc41-e4c6089adb08","system_id":"levelo_inurba_marseille","lat":43.32115,"lon":5.36782,"is_reserved":false,"is_disabled":false,"rental_uris":{"android":"levelo://app?vid=deaf69d9-92ad-4693-bc41-e4c6089adb08","ios":"levelo://app?vid=deaf69d9-92ad-4693-bc41-e4c6089adb08"},"vehicle_type_id":"4","last_reported":1730304699,"current_range_meters":18000,"station_id":"ce4bhrh2rcd13ifvqhug","pricing_plan_id":"cebpf4jnsgd1na2vs0mg"},{"bike_id":"1fd32163-b14f-4b24-b5ca-229a85f4be69","system_id":"levelo_inurba_marseille","lat":43.28619,"lon":5.35104,"is_reserved":false,"is_disabled":false,"rental_uris":{"android":"levelo://app?vid=1fd32163-b14f-4b24-b5ca-229a85f4be69","ios":"levelo://app?vid=1fd32163-b14f-4b24-b5ca-229a85f4be69"},"vehicle_type_id":"4","last_reported":1730304699,"current_range_meters":32000,"station_id":"ce4bhch2rcd13ifvqeug","pricing_plan_id":"cebpf4jnsgd1na2vs0mg"},{"bike_id":"377448d2-30a6-4cf9-b60c-a1370fb7518f","system_id":"levelo_inurba_marseille","lat":43.23056,"lon":5.354911,"is_reserved":false,"is_disabled":false,"rental_uris":{"android":"levelo://app?vid=377448d2-30a6-4cf9-b60c-a1370fb7518f","ios":"levelo://app?vid=377448d2-30a6-4cf9-b60c-a1370fb7518f"},"vehicle_type_id":"4","last_reported":1730304699,"current_range_meters":6000,"station_id":"cpo3342slgdg3j2ifvpg","pricing_plan_id":"cebpf4jnsgd1na2vs0mg"},{"bike_id":"ccc3ddb5-d6df-40f6-81ab-f895d3a06831","system_id":"levelo_inurba_marseille","lat":43.23055,"lon":5.35491,"is_reserved":false,"is_disabled":false,"rental_uris":{"android":"levelo://app?vid=ccc3ddb5-d6df-40f6-81ab-f895d3a06831","ios":"levelo://app?vid=ccc3ddb5-d6df-40f6-81ab-f895d3a06831"},"vehicle_type_id":"4","last_reported":1730304699,"current_range_meters":12000,"station_id":"cpo3342slgdg3j2ifvpg","pricing_plan_id":"cebpf4jnsgd1na2vs0mg"},{"bike_id":"248d18ae-922e-44c0-a640-9bc9ae997316","system_id":"levelo_inurba_marseille","lat":43.29005,"lon":5.35614,"is_reserved":false,"is_disabled":false,"rental_uris":{"android":"levelo://app?vid=248d18ae-922e-44c0-a640-9bc9ae997316","ios":"levelo://app?vid=248d18ae-922e-44c0-a640-9bc9ae997316"},"vehicle_type_id":"4","last_reported":1730304699,"current_range_meters":38400,"station_id":"ce4bhb92rcd13ifvqen0","pricing_plan_id":"cebpf4jnsgd1na2vs0mg"},