{"last_updated":1729440607,"ttl":60,"version":"2.2","data":{"bikes":[{"bike_id":"183655fa-1ccf-484b-bce6-00019dff763a","system_id":"levelo_inurba_marseille","lat":43.28044,"lon":5.36941,"is_reserved":false,"is_disabled":false,"rental_uris":{"android":"levelo://app?vid=183655fa-1ccf-484b-bce6-00019dff763a","ios":"levelo://app?vid=183655fa-1ccf-484b-bce6-00019dff763a"},"vehicle_type_id":"4","last_reported":1729440608,"current_range_meters":9200,"station_id":"ce4bha12rcd13ifvqef0","pricing_plan_id":"cebpf4jnsgd1na2vs0mg"},{"bike_id":"09e61c84-3325-4555-bc65-adb7a164c5a7","system_id":"levelo_inurba_marseille","lat":43.27315,"lon":5.39085,"is_reserved":false,"is_disabled":false,"rental_uris":{"android":"levelo://app?vid=09e61c84-3325-4555-bc65-adb7a164c5a7","ios":"levelo://app?vid=09e61c84-3325-4555-bc65-adb7a164c5a7"},"vehicle_type_id":"4","last_reported":1729440608,"current_range_meters":3200,"station_id":"ce4bhgp2rcd13ifvqfe0","pricing_plan_id":"cebpf4jnsgd1na2vs0mg"},{"bike_id":"b453e957-4bee-4d7b-9617-ca1b3e7e4873","system_id":"levelo_inurba_marseille","lat":43.31659,"lon":5.38837,"is_reserved":false,"is_disabled":false,"rental_uris":{"android":"levelo://app?vid=b453e957-4bee-4d7b-9617-ca1b3e7e4873","ios":"levelo://app?vid=b453e957-4bee-4d7b-9617-ca1b3e7e4873"},"vehicle_type_id":"4","last_reported":1729440608,"current_range_meters":14800,"station_id":"","pricing_plan_id":"cebpf4jnsgd1na2vs0mg"},{"bike_id":"84b6e681-00d6-48dd-b305-e5e2c02f563a","system_id":"levelo_inurba_marseille","lat":43.24804,"lon":5.37457,"is_reserved":false,"is_disabled":false,"rental_uris":{"android":"levelo://app?vid=84b6e681-00d6-48dd-b305-e5e2c02f563a","ios":"levelo://app?vid=84b6e681-00d6-48dd-b305-e5e2c02f563a"},"vehicle_type_id":"4","last_reported":1729440608,"current_range_meters":38800,"station_id":"ce4bhgh2rcd13ifvqfb0","pricing_plan_id":"cebpf4jnsgd1na2vs0mg"},{"bike_id":"7fc6c57b-1e66-48db-a274-a53c57b6348c","system_id":"levelo_inurba_marseille","lat":43.25822,"lon":5.39438,"is_reserved":false,"is_disabled":false,"rental_uris":{"android":"levelo://app?vid=7fc6c57b-1e66-48db-a274-a53c57b6348c","ios":"levelo://app?vid=7fc6c57b-1e66-48db-a274-a53c57b6348c"},"vehicle_type_id":"4","last_reported":1729440608,"current_range_meters":12000,"station_id":"ce4bhip2rcd13ifvqft0","pricing_plan_id":"cebpf4jnsgd1na2vs0mg"},{"bike_id":"7a6ba3d7-846e-45d3-92b4-25ce5cda8a53","system_id":"levelo_inurba_marseille","lat":43.33715,"lon":5.39189,"is_reserved":false,"is_disabled":false,"rental_uris":{"android":"levelo://app?vid=7a6ba3d7-846e-45d3-92b4-25ce5cda8a53","ios":"levelo://app?vid=7a6ba3d7-846e-45d3-92b4-25ce5cda8a53"},"vehicle_type_id":"4","last_reported":1729440608,"current_range_meters":21600,"station_id":"ce4bhr92rcd13ifvqhsg","pricing_plan_id":"cebpf4jnsgd1na2vs0mg"},{"bike_id":"d0cd3321-1682-4834-924a-12ab4bee065f","system_id":"levelo_inurba_marseille","lat":43.31328,"lon":5.39691,"is_reserved":false,"is_disabled":false,"rental_uris":{"android":"levelo://app?vid=d0cd3321-1682-4834-924a-12ab4bee065f","ios":"levelo://app?vid=d0cd3321-1682-4834-924a-12ab4bee065f"},"vehicle_type_id":"4","last_reported":1729440608,"current_range_meters":25600,"station_id":"ce4bgvp2rcd13ifvqcu0","pricing_plan_id":"cebpf4jnsgd1na2vs0mg"},{"bike_id":"481d201b-0f9b-4ded-8406-5042d6b7a84b","system_id":"levelo_inurba_marseille","lat":43.23956,"lon":5.3663,"is_reserved":false,"is_disabled":false,"rental_uris":{"android":"levelo://app?vid=481d201b-0f9b-4ded-8406-5042d6b7a84b","ios":"levelo://app?vid=481d201b-0f9b-4ded-8406-5042d6b7a84b"},"vehicle_type_id":"4","last_reported":1729440608,"current_range_meters":28400,"station_id":"ce4bhi12rcd13ifvqfp0","pricing_plan_id":"cebpf4jnsgd1na2vs0mg"},{"bike_id":"4dc34a95-ba26-4a96-998c-ad0a07131836","system_id":"levelo_inurba_marseille","lat":43.29003,"lon":5.35615,"is_reserved":false,"is_disabled":false,"rental_uris":{"android":"levelo://app?vid=4dc34a95-ba26-4a96-998c-ad0a07131836","ios":"levelo://app?vid=4dc34a95-ba26-4a96-998c-ad0a07131836"},"vehicle_type_id":"4","last_reported":1729440608,"current_range_meters":6800,"station_id":"ce4bhb92rcd13ifvqen0","pricing_plan_id":"cebpf4jnsgd1na2vs0mg"},{"bike_id":"474ccd54-d884-4c48-ac27-1f7190ae4438","system_id":"levelo_inurba_marseille","lat":43.33652,"lon":5.39217,"is_reserved":false,"is_disabled":false,"rental_uris":{"android":"levelo://app?vid=474ccd54-d884-4c48-ac27-1f7190ae4438","ios":"levelo://app?vid=474ccd54-d884-4c48-ac27-1f7190ae4438"},"vehicle_type_id":"4","last_reported":1729440608,"current_range_meters":6800,"station_id":"","pricing_plan_id":"cebpf4jnsgd1na2vs0mg"},{"bike_id":"ea8dc74d-6770-45d3-8c3b-45154c53a4c7","system_id":"levelo_inurba_marseille","lat":43.285409,"lon":5.350534,"is_reserved":false,"is_disabled":false,"rental_uris":{"android":"levelo://app?vid=ea8dc74d-6770-45d3-8c3b-45154c53a4c7","ios":"levelo://app?vid=ea8dc74d-6770-45d3-8c3b-45154c53a4c7"},"vehicle_type_id":"4","last_reported":1729440608,"current_range_meters":17600,"station_id":"ce4bh092rcd13ifvqd20","pricing_plan_id":"cebpf4jnsgd1na2vs0mg"},{"bike_id":"a00024c8-7b6c-43d7-ac37-e35721a12db9","system_id":"levelo_inurba_marseille","lat":43.28845,"lon":5.35871,"is_reserved":false,"is_disabled":false,"rental_uris":{"android":"levelo://app?vid=a00024c8-7b6c-43d7-ac37-e35721a12db9","ios":"levelo://app?vid=a00024c8-7b6c-43d7-ac37-e35721a12db9"},"vehicle_type_id":"4","last_reported":1729440608,"current_range_meters":20800,"station_id":"ce4bhb12rcd13ifvqem0","pricing_plan_id":"cebpf4jnsgd1na2vs0mg"},{"bike_id":"a9fb50bd-d7cb-417c-800d-b42cf9d2e358","system_id":"levelo_inurba_marseille","lat":43.27839,"lon":5.39215,"is_reserved":false,"is_disabled":false,"rental_uris":{"android":"levelo://app?vid=a9fb50bd-d7cb-417c-800d-b42cf9d2e358","ios":"levelo://app?vid=a9fb50bd-d7cb-417c-800d-b42cf9d2e358"},"vehicle_type_id":"4","last_reported":1729440608,"current_range_meters":18800,"station_id":"ce4bhjp2rcd13ifvqga0","pricing_plan_id":"cebpf4jnsgd1na2vs0mg"},{"bike_id":"f8eb1b82-536c-4704-95bb-aed0083b1d3b","system_id":"levelo_inurba_marseille","lat":43.27839,"lon":5.39208,"is_reserved":false,"is_disabled":false,"rental_uris":{"android":"levelo://app?vid=f8eb1b82-536c-4704-95bb-aed0083b1d3b","ios":"levelo://app?vid=f8eb1b82-536c-4704-95bb-aed0083b1d3b"},"vehicle_type_id":"4","last_reported":1729440608,"current_range_meters":22400,"station_id":"ce4bhjp2rcd13ifvqga0","pricing_plan_id":"cebpf4jnsgd1na2vs0mg"},{"bike_id":"da2c769d-a279-46b6-8164-fa2f48a3566e","system_id":"levelo_inurba_marseille","lat":43.320409,"lon":5.415401,"is_reserved":false,"is_disabled":false,"rental_uris":{"android":"levelo://app?vid=da2c769d-a279-46b6-8164-fa2f48a3566e","ios":"levelo://app?vid=da2c769d-a279-46b6-8164-fa2f48a3566e"},"vehicle_type_id":"4","last_reported":1729440608,"current_range_meters":28400,"station_id":"ce4bhq92rcd13ifvqhkg","pricing_plan_id":"cebpf4jnsgd1na2vs0mg"},{"bike_id":"d85aed35-4005-4c2e-863d-273016e09085","system_id":"levelo_inurba_marseille","lat":43.24394,"lon":5.37059,"is_reserved":false,"is_disabled":false,"rental_uris":{"android":"levelo://app?vid=d85aed35-4005-4c2e-863d-273016e09085","ios":"levelo://app?vid=d85aed35-4005-4c2e-863d-273016e09085"},"vehicle_type_id":"4","last_reported":1729440608,"current_range_meters":30000,"station_id":"ce4bhhh2rcd13ifvqfk0","pricing_plan_id":"cebpf4jnsgd1na2vs0mg"},{"bike_id":"f6d47980-da10-44a1-a884-089e93931eb8","system_id":"levelo_inurba_marseille","lat":43.29416,"lon":5.38625,"is_reserved":false,"is_disabled":false,"rental_uris":{"android":"levelo://app?vid=f6d47980-da10-44a1-a884-089e93931eb8","ios":"levelo://app?vid=f6d47980-da10-44a1-a884-089e93931eb8"},"vehicle_type_id":"4","last_reported":1729440608,"current_range_meters":28400,"station_id":"ce4bh2h2rcd13ifvqdh0","pricing_plan_id":"cebpf4jnsgd1na2vs0mg"},{"bike_id":"5b47cbfd-3740-4a35-b9bd-478cf093a87d","system_id":"levelo_inurba_marseille","lat":43.23954,"lon":5.36629,"is_reserved":false,"is_disabled":false,"rental_uris":{"android":"levelo://app?vid=5b47cbfd-3740-4a35-b9bd-478cf093a87d","ios":"levelo://app?vid=5b47cbfd-3740-4a35-b9bd-478cf093a87d"},"vehicle_type_id":"4","last_reported":1729440608,"current_range_meters":27600,"station_id":"ce4bhi12rcd13ifvqfp0","pricing_plan_id":"cebpf4jnsgd1na2vs0mg"},{"bike_id":"70754eac-0725-4208-8414-3104955162db","system_id":"levelo_inurba_marseille","lat":43.31708,"lon":5.37739,"is_reserved":false,"is_disabled":false,"rental_uris":{"android":"levelo://app?vid=70754eac-0725-4208-8414-3104955162db","ios":"levelo://app?vid=70754eac-0725-4208-8414-3104955162db"},"vehicle_type_id":"4","last_reported":1729440608,"current_range_meters":7200,"station_id":"ce4bgth2rcd13ifvqch0","pricing_plan_id":"cebpf4jnsgd1na2vs0mg"},{"bike_id":"ddbe420a-4590-4913-8136-9645f60a8410","system_id":"levelo_inurba_marseille","lat":43.248,"lon":5.37455,"is_reserved":false,"is_disabled":false,"rental_uris":{"android":"levelo://app?vid=ddbe420a-4590-4913-8136-9645f60a8410","ios":"levelo://app?vid=ddbe420a-4590-4913-8136-9645f60a8410"},"vehicle_type_id":"4","last_reported":1729440608,"current_range_meters":38800,"station_id":"ce4bhgh2rcd13ifvqfb0","pricing_plan_id":"cebpf4jnsgd1na2vs0mg"},{"bike_id":"9f9b3cab-aa01-449d-8673-d10e7376bdd4","system_id":"levelo_inurba_marseille","lat":43.25579,"lon":5.38233,"is_reserved":false,"is_disabled":false,"rental_uris":{"android":"levelo://app?vid=9f9b3cab-aa01-449d-8673-d10e7376bdd4","ios":"levelo://app?vid=9f9b3cab-aa01-449d-8673-d10e7376bdd4"},"vehicle_type_id":"4","last_reported":1729440608,"current_range_meters":5600,"station_id":"ce4bhih2rcd13ifvqfs0","pricing_plan_id":"cebpf4jnsgd1na2vs0mg"},{"bike_id":"ab25e50e-031e-49b2-92c3-bc31c1e4e638","system_id":"levelo_inurba_marseille","lat":43.27986,"lon":5.41665,"is_reserved":false,"is_disabled":false,"rental_uris":{"android":"levelo://app?vid=ab25e50e-031e-49b2-92c3-bc31c1e4e638","ios":"levelo://app?vid=ab25e50e-031e-49b2-92c3-bc31c1e4e638"},"vehicle_type_id":"4","last_reported":1729440608,"current_range_meters":8000,"station_id":"ce4bho12rcd13ifvqh1g","pricing_plan_id":"cebpf4jnsgd1na2vs0mg"},{"bike_id":"153e7ba9-6ea9-4300-8f2e-64c3c89934c4","system_id":"levelo_inurba_marseille","lat":43.22929,"lon":5.3538,"is_reserved":false,"is_disabled":false,"rental_uris":{"android":"levelo://app?vid=153e7ba9-6ea9-4300-8f2e-64c3c89934c4","ios":"levelo://app?vid=153e7ba9-6ea9-4300-8f2e-64c3c89934c4"},"vehicle_type_id":"4","last_reported":1729440608,"current_range_meters":35600,"station_id":"cpo3532slgdg3j2ikp40","pricing_plan_id":"cebpf4jnsgd1na2vs0mg"},{"bike_id":"57dd0012-e7c2-43e3-90a1-087125ac63fa","system_id":"levelo_inurba_marseille","lat":43.33753,"lon":5.37454,"is_reserved":false,"is_disabled":false,"rental_uris":{"android":"levelo://app?vid=57dd0012-e7c2-43e3-90a1-087125ac63fa","ios":"levelo://app?vid=57dd0012-e7c2-43e3-90a1-087125ac63fa"},"vehicle_type_id":"4","last_reported":1729440608,"current_range_meters":34800,"station_id":"","pricing_plan_id":"cebpf4jnsgd1na2vs0mg"},{"bike_id":"bbccfa2a-7534-4f4b-912c-fcdf16304a72","system_id":"levelo_inurba_marseille","lat":43.300446,"lon":5.374593,"is_reserved":false,"is_disabled":false,"rental_uris":{"android":"levelo://app?vid=bbccfa2a-7534-4f4b-912c-fcdf16304a72","ios":"levelo://app?vid=bbccfa2a-7534-4f4b-912c-fcdf16304a72"},"vehicle_type_id":"4","last_reported":1729440608,"current_range_meters":2800,"station_id":"ce4bgs92rcd13ifvqcc0","pricing_plan_id":"cebpf4jnsgd1na2vs0mg"},{"bike_id":"25f91457-440e-47f9-92ed-6acee8b789b7","system_id":"levelo_inurba_marseille","lat":43.32364,"lon":5.38887,"is_reserved":false,"is_disabled":false,"rental_uris":{"android":"levelo://app?vid=25f91457-440e-47f9-92ed-6acee8b789b7","ios":"levelo://app?vid=25f91457-440e-47f9-92ed-6acee8b789b7"},"vehicle_type_id":"4","last_reported":1729440608,"current_range_meters":28800,"station_id":"ce4bhqp2rcd13ifvqhog","pricing_plan_id":"cebpf4jnsgd1na2vs0mg"},{"bike_id":"347e46bf-8b9a-4897-81b9-91afee685447","system_id":"levelo_inurba_marseille","lat":43.25863,"lon":5.39899,"is_reserved":false,"is_disabled":false,"rental_uris":{"android":"levelo://app?vid=347e46bf-8b9a-4897-81b9-91afee685447","ios":"levelo://app?vid=347e46bf-8b9a-4897-81b9-91afee685447"},"vehicle_type_id":"4","last_reported":1729440608,"current_range_meters":38800,"station_id":"ce4bhl92rcd13ifvqghg","pricing_plan_id":"cebpf4jnsgd1na2vs0mg"},{"bike_id":"343aa4d1-f953-489c-ab86-dc9d91d2a18b","system_id":"levelo_inurba_marseille","lat":43.30394,"lon":5.37006,"is_reserved":false,"is_disabled":false,"rental_uris":{"android":"levelo://app?vid=343aa4d1-f953-489c-ab86-dc9d91d2a18b","ios":"levelo://app?vid=343aa4d1-f953-489c-ab86-dc9d91d2a18b"},"vehicle_type_id":"4","last_reported":1729440608,"current_range_meters":23200,"station_id":"ce4bgnh2rcd13ifvqc0g","pricing_plan_id":"cebpf4jnsgd1na2vs0mg"},{"bike_id":"cd0dce23-200f-416c-916b-7be9d153fea3","system_id":"levelo_inurba_marseille","lat":43.302374,"lon":5.400619,"is_reserved":false,"is_disabled":false,"rental_uris":{"android":"levelo://app?vid=cd0dce23-200f-416c-916b-7be9d153fea3","ios":"levelo://app?vid=cd0dce23-200f-416c-916b-7be9d153fea3"},"vehicle_type_id":"4","last_reported":1729440608,"current_range_meters":19600,"station_id":"ce4bgvh2rcd13ifvqcs0","pricing_plan_id":"cebpf4jnsgd1na2vs0mg"},{"bike_id":"c052e5f3-0f87-4988-9be5-74b491b82108","system_id":"levelo_inurba_marseille","lat":43.32485,"lon":5.36566,"is_reserved":false,"is_disabled":false,"rental_uris":{"android":"levelo://app?vid=c052e5f3-0f87-4988-9be5-74b491b82108","ios":"levelo://app?vid=c052e5f3-0f87-4988-9be5-74b491b82108"},"vehicle_type_id":"4","last_reported":1729440608,"current_range_meters":38800,"station_id":"ce4bhs12rcd13ifvqhvg","pricing_plan_id":"cebpf4jnsgd1na2vs0mg"},{"bike_id":"445f49a7-8c44-4c29-914e-fdaa29f56457","system_id":"levelo_inurba_marseille","lat":43.24997,"lon":5.38932,"is_reserved":false,"is_disabled":false,"rental_uris":{"android":"levelo://app?vid=445f49a7-8c44-4c29-914e-fdaa29f56457","ios":"levelo://app?vid=445f49a7-8c44-4c29-914e-fdaa29f56457"},"vehicle_type_id":"4","last_reported":1729440608,"current_range_meters":2800,"station_id":"ce4bhgp2rcd13ifvqfd0","pricing_plan_id":"cebpf4jnsgd1na2vs0mg"},{"bike_id":"93e51788-fcad-49a5-a31c-65d43bace321","system_id":"levelo_inurba_marseille","lat":43.27568,"lon":5.35922,"is_reserved":false,"is_disabled":false,"rental_uris":{"android":"levelo://app?vid=93e51788-fcad-49a5-a31c-65d43bace321","ios":"levelo://app?vid=93e51788-fcad-49a5-a31c-65d43bace321"},"vehicle_type_id":"4","last_reported":1729440608,"current_range_meters":29600,"station_id":"ce4bgj92rcd13ifvqbe0","pricing_plan_id":"cebpf4jnsgd1na2vs0mg"},{"bike_id":"d6b101db-4e15-4d7b-a394-725d59944f68","system_id":"levelo_inurba_marseille","lat":43.29532,"lon":5.39039,"is_reserved":false,"is_disabled":false,"rental_uris":{"android":"levelo://app?vid=d6b101db-4e15-4d7b-a394-725d59944f68","ios":"levelo://app?vid=d6b101db-4e15-4d7b-a394-725d59944f68"},"vehicle_type_id":"4","last_reported":1729440608,"current_range_meters":12800,"station_id":"ce4bh3p2rcd13ifvqdp0","pricing_plan_id":"cebpf4jnsgd1na2vs0mg"},{"bike_id":"9d72efb5-067b-4e7b-bb8c-c3db84e079d4","system_id":"levelo_inurba_marseille","lat":43.26496,"lon":5.39552,"is_reserved":false,"is_disabled":false,"rental_uris":{"android":"levelo://app?vid=9d72efb5-067b-4e7b-bb8c-c3db84e079d4","ios":"levelo://app?vid=9d72efb5-067b-4e7b-bb8c-c3db84e079d4"},"vehicle_type_id":"4","last_reported":1729440608,"current_range_meters":8800,"station_id":"ce4bhi12rcd13ifvqfq0","pricing_plan_id":"cebpf4jnsgd1na2vs0mg"},{"bike_id":"55b3a8f5-19d1-4d08-bf99-ccf2c312bc04","system_id":"levelo_inurba_marseille","lat":43.23183,"lon":5.35559,"is_reserved":false,"is_disabled":false,"rental_uris":{"android":"levelo://app?vid=55b3a8f5-19d1-4d08-bf99-ccf2c312bc04","ios":"levelo://app?vid=55b3a8f5-19d1-4d08-bf99-ccf2c312bc04"},"vehicle_type_id":"4","last_reported":1729440608,"current_range_meters":37600,"station_id":"ce4bhu92rcd13ifvqi70","pricing_plan_id":"cebpf4jnsgd1na2vs0mg"},{"bike_id":"8db3eeac-34e4-414f-8f7d-c4ff3fab18d2","system_id":"levelo_inurba_marseille","lat":43.326569,"lon":5.409976,"is_reserved":false,"is_disabled":false,"rental_uris":{"android":"levelo://app?vid=8db3eeac-34e4-414f-8f7d-c4ff3fab18d2","ios":"levelo://app?vid=8db3eeac-34e4-414f-8f7d-c4ff3fab18d2"},"vehicle_type_id":"4","last_reported":1729440608,"current_range_meters":3600,"station_id":"ce4bhpp2rcd13ifvqhgg","pricing_plan_id":"cebpf4jnsgd1na2vs0mg"},{"bike_id":"43d24770-4ece-4a77-a029-fe46e9bde13b","system_id":"levelo_inurba_marseille","lat":43.31572,"lon":5.37442,"is_reserved":false,"is_disabled":false,"rental_uris":{"android":"levelo://app?vid=43d24770-4ece-4a77-a029-fe46e9bde13b","ios":"levelo://app?vid=43d24770-4ece-4a77-a029-fe46e9bde13b"},"vehicle_type_id":"4","last_reported":1729440608,"current_range_meters":36400,"station_id":"","pricing_plan_id":"cebpf4jnsgd1na2vs0mg"},{"bike_id":"766da900-471d-42f5-8cfa-8db494f945d7","system_id":"levelo_inurba_marseille","lat":43.28908,"lon":5.4606,"is_reserved":false,"is_disabled":false,"rental_uris":{"android":"levelo://app?vid=766da900-471d-42f5-8cfa-8db494f945d7","ios":"levelo://app?vid=766da900-471d-42f5-8cfa-8db494f945d7"},"vehicle_type_id":"4","last_reported":1729440608,"current_range_meters":24400,"station_id":"","pricing_plan_id":"cebpf4jnsgd1na2vs0mg"},{"bike_id":"7b16e523-d17b-4858-88f3-639a2cea97f3","system_id":"levelo_inurba_marseille","lat":43.290436,"lon":5.38567,"is_reserved":false,"is_disabled":false,"rental_uris":{"android":"levelo://app?vid=7b16e523-d17b-4858-88f3-639a2cea97f3","ios":"levelo://app?vid=7b16e523-d17b-4858-88f3-639a2cea97f3"},"vehicle_type_id":"4","last_reported":1729440608,"current_range_meters":28800,"station_id":"","pricing_plan_id":"cebpf4jnsgd1na2vs0mg"},{"bike_id":"0f5b7509-57d1-41c5-a6d2-342296bce1e3","system_id":"levelo_inurba_marseille","lat":43.26202,"lon":5.37932,"is_reserved":false,"is_disabled":false,"rental_uris":{"android":"levelo://app?vid=0f5b7509-57d1-41c5-a6d2-342296bce1e3","ios":"levelo://app?vid=0f5b7509-57d1-41c5-a6d2-342296bce1e3"},"vehicle_type_id":"4","last_reported":1729440608,"current_range_meters":4400,"station_id":"ce4bhjp2rcd13ifvqg90","pricing_plan_id":"cebpf4jnsgd1na2vs0mg"},{"bike_id":"8238713c-1998-469c-9a4e-1871047d78fd","system_id":"levelo_inurba_marseille","lat":43.28695,"lon":5.37388,"is_reserved":false,"is_disabled":false,"rental_uris":{"android":"levelo://app?vid=8238713c-1998-469c-9a4e-1871047d78fd","ios":"levelo://app?vid=8238713c-1998-469c-9a4e-1871047d78fd"},"vehicle_type_id":"4","last_reported":1729440608,"current_range_meters":17200,"station_id":"ce4bh3p2rcd13ifvqdq0","pricing_plan_id":"cebpf4jnsgd1na2vs0mg"},{"bike_id":"85d4c2d7-bcec-4e7a-bb7a-639659791371","system_id":"levelo_inurba_marseille","lat":43.25865,"lon":5.39899,"is_reserved":false,"is_disabled":false,"rental_uris":{"android":"levelo://app?vid=85d4c2d7-bcec-4e7a-bb7a-639659791371","ios":"levelo://app?vid=85d4c2d7-bcec-4e7a-bb7a-639659791371"},"vehicle_type_id":"4","last_reported":1729440608,"current_range_meters":34000,"station_id":"ce4bhl92rcd13ifvqghg","pricing_plan_id":"cebpf4jnsgd1na2vs0mg"},{"bike_id":"61aab6bf-f1b0-4966-a148-ea1e7445d90f","system_id":"levelo_inurba_marseille","lat":43.23966,"lon":5.36634,"is_reserved":false,"is_disabled":false,"rental_uris":{"android":"levelo://app?vid=61aab6bf-f1b0-4966-a148-ea1e7445d90f","ios":"levelo://app?vid=61aab6bf-f1b0-4966-a148-ea1e7445d90f"},"vehicle_type_id":"4","last_reported":1729440608,"current_range_meters":30800,"station_id":"ce4bhi12rcd13ifvqfp0","pricing_plan_id":"cebpf4jnsgd1na2vs0mg"},{"bike_id":"b6ee9868-706d-435e-91ca-3d868077ccc0","system_id":"levelo_inurba_marseille","lat":43.28344,"lon":5.38108,"is_reserved":false,"is_disabled":false,"rental_uris":{"android":"levelo://app?vid=b6ee9868-706d-435e-91ca-3d868077ccc0","ios":"levelo://app?vid=b6ee9868-706d-435e-91ca-3d868077ccc0"},"vehicle_type_id":"4","last_reported":1729440608,"current_range_meters":28800,"station_id":"ce4bh412rcd13ifvqdr0","pricing_plan_id":"cebpf4jnsgd1na2vs0mg"},{"bike_id":"c76c2ac0-b5bc-42e2-a76e-89d441d48416","system_id":"levelo_inurba_marseille","lat":43.32108,"lon":5.3677,"is_reserved":false,"is_disabled":false,"rental_uris":{"android":"levelo://app?vid=c76c2ac0-b5bc-42e2-a76e-89d441d48416","ios":"levelo://app?vid=c76c2ac0-b5bc-42e2-a76e-89d441d48416"},"vehicle_type_id":"4","last_reported":1729440608,"current_range_meters":10000,"station_id":"ce4bhrh2rcd13ifvqhug","pricing_plan_id":"cebpf4jnsgd1na2vs0mg"},{"bike_id":"29847458-d0a2-441a-8401-ad0c441128a9","system_id":"levelo_inurba_marseille","lat":43.28035,"lon":5.36943,"is_reserved":false,"is_disabled":false,"rental_uris":{"android":"levelo://app?vid=29847458-d0a2-441a-8401-ad0c441128a9","ios":"levelo://app?vid=29847458-d0a2-441a-8401-ad0c441128a9"},"vehicle_type_id":"4","last_reported":1729440608,"current_range_meters":16800,"station_id":"ce4bha12rcd13ifvqef0","pricing_plan_id":"cebpf4jnsgd1na2vs0mg"},{"bike_id":"7772d39f-5e28-445c-af91-069b0cf63793","system_id":"levelo_inurba_marseille","lat":43.33765,"lon":5.37438,"is_reserved":false,"is_disabled":false,"rental_uris":{"android":"levelo://app?vid=7772d39f-5e28-445c-af91-069b0cf63793","ios":"levelo://app?vid=7772d39f-5e28-445c-af91-069b0cf63793"},"vehicle_type_id":"4","last_reported":1729440608,"current_range_meters":3600,"station_id":"","pricing_plan_id":"cebpf4jnsgd1na2vs0mg"},{"bike_id":"3213665e-989c-4d22-9f5a-31c8522597dd","system_id":"levelo_inurba_marseille","lat":43.296,"lon":5.36142,"is_reserved":false,"is_disabled":false,"rental_uris":{"android":"levelo://app?vid=3213665e-989c-4d22-9f5a-31c8522597dd","ios":"levelo://app?vid=3213665e-989c-4d22-9f5a-31c8522597dd"},"vehicle_type_id":"4","last_reported":1729440608,"current_range_meters":14400,"station_id":"","pricing_plan_id":"cebpf4jnsgd1na2vs0mg"},{"bike_id":"aeb6722f-ba45-4233-9573-5da1e50e4c6a","system_id":"levelo_inurba_marseille","lat":43.31691,"lon":5.40467,"is_reserved":false,"is_disabled":false,"rental_uris":{"android":"levelo://app?vid=aeb6722f-ba45-4233-9573-5da1e50e4c6a","ios":"levelo://app?vid=aeb6722f-ba45-4233-9573-5da1e50e4c6a"},"vehicle_type_id":"4","last_reported":1729440608,"current_range_meters":28400,"station_id":"ce4bh012rcd13ifvqd00","pricing_plan_id":"cebpf4jnsgd1na2vs0mg"},{"bike_id":"440a23b2-1af5-49ec-9992-bad8ff9f71ef","system_id":"levelo_inurba_marseille","lat":43.30788,"lon":5.37646,"is_reserved":false,"is_disabled":false,"rental_uris":{"android":"levelo://app?vid=440a23b2-1af5-49ec-9992-bad8ff9f71ef","ios":"levelo://app?vid=440a23b2-1af5-49ec-9992-bad8ff9f71ef"},"vehicle_type_id":"4","last_reported":1729440608,"current_range_meters":8400,"station_id":"ce4bgv92rcd13ifvqcq0","pricing_plan_id":"cebpf4jnsgd1na2vs0mg"},{"bike_id":"ffc9c6f1-8312-452b-b3d1-d23a6aef1132","system_id":"levelo_inurba_marseille","lat":43.28358,"lon":5.38638,"is_reserved":false,"is_disabled":false,"rental_uris":{"android":"levelo://app?vid=ffc9c6f1-8312-452b-b3d1-d23a6aef1132","ios":"levelo://app?vid=ffc9c6f1-8312-452b-b3d1-d23a6aef1132"},"vehicle_type_id":"4","last_reported":1729440608,"current_range_meters":800,"station_id":"ce4bh492rcd13ifvqdvg","pricing_plan_id":"cebpf4jnsgd1na2vs0mg"},{"bike_id":"9a2117f0-c5b0-4dc2-891b-026a24af23f1","system_id":"levelo_inurba_marseille","lat":43.3105,"lon":5.40092,"is_reserved":false,"is_disabled":false,"rental_uris":{"android":"levelo://app?vid=9a2117f0-c5b0-4dc2-891b-026a24af23f1","ios":"levelo://app?vid=9a2117f0-c5b0-4dc2-891b-026a24af23f1"},"vehicle_type_id":"4","last_reported":1729440608,"current_range_meters":35200,"station_id":"","pricing_plan_id":"cebpf4jnsgd1na2vs0mg"},{"bike_id":"549563f2-6335-4b4d-b45f-e94a7563e8a3","system_id":"levelo_inurba_marseille","lat":43.27425,"lon":5.39416,"is_reserved":false,"is_disabled":false,"rental_uris":{"android":"levelo://app?vid=549563f2-6335-4b4d-b45f-e94a7563e8a3","ios":"levelo://app?vid=549563f2-6335-4b4d-b45f-e94a7563e8a3"},"vehicle_type_id":"4","last_reported":1729440608,"current_range_meters":28400,"station_id":"ce4bhdp2rcd13ifvqf20","pricing_plan_id":"cebpf4jnsgd1na2vs0mg"},{"bike_id":"a70668b2-e07a-4113-a36d-9eafd2b35ae3","system_id":"levelo_inurba_marseille","lat":43.24811,"lon":5.37463,"is_reserved":false,"is_disabled":false,"rental_uris":{"android":"levelo://app?vid=a70668b2-e07a-4113-a36d-9eafd2b35ae3","ios":"levelo://app?vid=a70668b2-e07a-4113-a36d-9eafd2b35ae3"},"vehicle_type_id":"4","last_reported":1729440608,"current_range_meters":0,"station_id":"ce4bhgh2rcd13ifvqfb0","pricing_plan_id":"cebpf4jnsgd1na2vs0mg"},{"bike_id":"9699d475-988e-4872-92a3-80233b0c79da","system_id":"levelo_inurba_marseille","lat":43.24078,"lon":5.37755,"is_reserved":false,"is_disabled":false,"rental_uris":{"android":"levelo://app?vid=9699d475-988e-4872-92a3-80233b0c79da","ios":"levelo://app?vid=9699d475-988e-4872-92a3-80233b0c79da"},"vehicle_type_id":"4","last_reported":1729440608,"current_range_meters":30000,"station_id":"ce4bhnp2rcd13ifvqgvg","pricing_plan_id":"cebpf4jnsgd1na2vs0mg"},{"bike_id":"e4b1ebad-0712-4386-a29d-80d96cfed474","system_id":"levelo_inurba_marseille","lat":43.278377,"lon":5.392097,"is_reserved":false,"is_disabled":false,"rental_uris":{"android":"levelo://app?vid=e4b1ebad-0712-4386-a29d-80d96cfed474","ios":"levelo://app?vid=e4b1ebad-0712-4386-a29d-80d96cfed474"},"vehicle_type_id":"4","last_reported":1729440608,"current_range_meters":6400,"station_id":"ce4bhjp2rcd13ifvqga0","pricing_plan_id":"cebpf4jnsgd1na2vs0mg"},{"bike_id":"217c2f39-63bc-4bb1-8485-74fd69fb4b80","system_id":"levelo_inurba_marseille","lat":43.29843,"lon":5.36277,"is_reserved":false,"is_disabled":false,"rental_uris":{"android":"levelo://app?vid=217c2f39-63bc-4bb1-8485-74fd69fb4b80","ios":"levelo://app?vid=217c2f39-63bc-4bb1-8485-74fd69fb4b80"},"vehicle_type_id":"4","last_reported":1729440608,"current_range_meters":3600,"station_id":"ce4bgpp2rcd13ifvqc3g","pricing_plan_id":"cebpf4jnsgd1na2vs0mg"},{"bike_id":"f43d4c55-743d-460d-bbd1-0be647419548","system_id":"levelo_inurba_marseille","lat":43.265717,"lon":5.390093,"is_reserved":false,"is_disabled":false,"rental_uris":{"android":"levelo://app?vid=f43d4c55-743d-460d-bbd1-0be647419548","ios":"levelo://app?vid=f43d4c55-743d-460d-bbd1-0be647419548"},"vehicle_type_id":"4","last_reported":1729440608,"current_range_meters":4000,"station_id":"ce4bhe12rcd13ifvqf30","pricing_plan_id":"cebpf4jnsgd1na2vs0mg"},{"bike_id":"dc57fa79-6bec-4bc0-a27d-8bb431f87158","system_id":"levelo_inurba_marseille","lat":43.24811,"lon":5.37468,"is_reserved":false,"is_disabled":false,"rental_uris":{"android":"levelo://app?vid=dc57fa79-6bec-4bc0-a27d-8bb431f87158","ios":"levelo://app?vid=dc57fa79-6bec-4bc0-a27d-8bb431f87158"},"vehicle_type_id":"4","last_reported":1729440608,"current_range_meters":38800,"station_id":"ce4bhgh2rcd13ifvqfb0","pricing_plan_id":"cebpf4jnsgd1na2vs0mg"},{"bike_id":"fac9a3a2-2dd0-4efd-afd6-73cc4f4edd9a","system_id":"levelo_inurba_marseille","lat":43.24813,"lon":5.37456,"is_reserved":false,"is_disabled":false,"rental_uris":{"android":"levelo://app?vid=fac9a3a2-2dd0-4efd-afd6-73cc4f4edd9a","ios":"levelo://app?vid=fac9a3a2-2dd0-4efd-afd6-73cc4f4edd9a"},"vehicle_type_id":"4","last_reported":1729440608,"current_range_meters":36800,"station_id":"ce4bhgh2rcd13ifvqfb0","pricing_plan_id":"cebpf4jnsgd1na2vs0mg"},{"bike_id":"6d75badc-96b3-432d-9ef2-64d19020eeca","system_id":"levelo_inurba_marseille","lat":43.33021,"lon":5.39041,"is_reserved":false,"is_disabled":false,"rental_uris":{"android":"levelo://app?vid=6d75badc-96b3-432d-9ef2-64d19020eeca","ios":"levelo://app?vid=6d75badc-96b3-432d-9ef2-64d19020eeca"},"vehicle_type_id":"4","last_reported":1729440608,"current_range_meters":2800,"station_id":"ce4bhr92rcd13ifvqhrg","pricing_plan_id":"cebpf4jnsgd1na2vs0mg"},{"bike_id":"6a3f1423-c6ad-4544-962f-71a5699f9a13","system_id":"levelo_inurba_marseille","lat":43.26191,"lon":5.37452,"is_reserved":false,"is_disabled":false,"rental_uris":{"android":"levelo://app?vid=6a3f1423-c6ad-4544-962f-71a5699f9a13","ios":"levelo://app?vid=6a3f1423-c6ad-4544-962f-71a5699f9a13"},"vehicle_type_id":"4","last_reported":1729440608,"current_range_meters":37600,"station_id":"ce4bhgp2rcd13ifvqfc0","pricing_plan_id":"cebpf4jnsgd1na2vs0mg"},{"bike_id":"3e3e1e2d-4ff0-4935-ab1e-792120c8a6d8","system_id":"levelo_inurba_marseille","lat":43.27566,"lon":5.38426,"is_reserved":false,"is_disabled":false,"rental_uris":{"android":"levelo://app?vid=3e3e1e2d-4ff0-4935-ab1e-792120c8a6d8","ios":"levelo://app?vid=3e3e1e2d-4ff0-4935-ab1e-792120c8a6d8"},"vehicle_type_id":"4","last_reported":1729440608,"current_range_meters":11200,"station_id":"ce4bhh92rcd13ifvqfi0","pricing_plan_id":"cebpf4jnsgd1na2vs0mg"},{"bike_id":"fb8cede0-5f49-49e1-aaf1-f97f7864fb33","system_id":"levelo_inurba_marseille","lat":43.3262,"lon":5.38899,"is_reserved":false,"is_disabled":false,"rental_uris":{"android":"levelo://app?vid=fb8cede0-5f49-49e1-aaf1-f97f7864fb33","ios":"levelo://app?vid=fb8cede0-5f49-49e1-aaf1-f97f7864fb33"},"vehicle_type_id":"4","last_reported":1729440608,"current_range_meters":33200,"station_id":"","pricing_plan_id":"cebpf4jnsgd1na2vs0mg"},{"bike_id":"9a4af03e-11b5-4131-be4c-d8820512db1a","system_id":"levelo_inurba_marseille","lat":43.28844,"lon":5.35872,"is_reserved":false,"is_disabled":false,"rental_uris":{"android":"levelo://app?vid=9a4af03e-11b5-4131-be4c-d8820512db1a","ios":"levelo://app?vid=9a4af03e-11b5-4131-be4c-d8820512db1a"},"vehicle_type_id":"4","last_reported":1729440608,"current_range_meters":24000,"station_id":"ce4bhb12rcd13ifvqem0","pricing_plan_id":"cebpf4jnsgd1na2vs0mg"},{"bike_id":"7688c564-b923-4ca9-8b77-ed593d34e062","system_id":"levelo_inurba_marseille","lat":43.23187,"lon":5.35562,"is_reserved":false,"is_disabled":false,"rental_uris":{"android":"levelo://app?vid=7688c564-b923-4ca9-8b77-ed593d34e062","ios":"levelo://app?vid=7688c564-b923-4ca9-8b77-ed593d34e062"},"vehicle_type_id":"4","last_reported":1729440608,"current_range_meters":19600,"station_id":"ce4bhu92rcd13ifvqi70","pricing_plan_id":"cebpf4jnsgd1na2vs0mg"},{"bike_id":"4cf3e5d8-4f9a-4007-b965-622ecd99339e","system_id":"levelo_inurba_marseille","lat":43.31074,"lon":5.40085,"is_reserved":false,"is_disabled":false,"rental_uris":{"android":"levelo://app?vid=4cf3e5d8-4f9a-4007-b965-622ecd99339e","ios":"levelo://app?vid=4cf3e5d8-4f9a-4007-b965-622ecd99339e"},"vehicle_type_id":"4","last_reported":1729440608,"current_range_meters":8400,"station_id":"","pricing_plan_id":"cebpf4jnsgd1na2vs0mg"},{"bike_id":"b3da6c3a-2a10-4172-a1ac-14d12204275b","system_id":"levelo_inurba_marseille","lat":43.27496,"lon":5.42453,"is_reserved":false,"is_disabled":false,"rental_uris":{"android":"levelo://app?vid=b3da6c3a-2a10-4172-a1ac-14d12204275b","ios":"levelo://app?vid=b3da6c3a-2a10-4172-a1ac-14d12204275b"},"vehicle_type_id":"4","last_reported":1729440608,"current_range_meters":38800,"station_id":"ce4bhn92rcd13ifvqgrg","pricing_plan_id":"cebpf4jnsgd1na2vs0mg"},{"bike_id":"76536070-92d5-4302-8e45-15c764d0c051","system_id":"levelo_inurba_marseille","lat":43.23199,"lon":5.35551,"is_reserved":false,"is_disabled":false,"rental_uris":{"android":"levelo://app?vid=76536070-92d5-4302-8e45-15c764d0c051","ios":"levelo://app?vid=76536070-92d5-4302-8e45-15c764d0c051"},"vehicle_type_id":"4","last_reported":1729440608,"current_range_meters":8000,"station_id":"ce4bhu92rcd13ifvqi70","pricing_plan_id":"cebpf4jnsgd1na2vs0mg"},{"bike_id":"363d400f-9f78-4ed5-ab4c-9acd32938009","system_id":"levelo_inurba_marseille","lat":43.32107,"lon":5.36775,"is_reserved":false,"is_disabled":false,"rental_uris":{"android":"levelo://app?vid=363d400f-9f78-4ed5-ab4c-9acd32938009","ios":"levelo://app?vid=363d400f-9f78-4ed5-ab4c-9acd32938009"},"vehicle_type_id":"4","last_reported":1729440608,"current_range_meters":17200,"station_id":"ce4bhrh2rcd13ifvqhug","pricing_plan_id":"cebpf4jnsgd1na2vs0mg"},{"bike_id":"524a7e66-fa78-46df-89cc-9e5da393e331","system_id":"levelo_inurba_marseille","lat":43.30637,"lon":5.40088,"is_reserved":false,"is_disabled":false,"rental_uris":{"android":"levelo://app?vid=524a7e66-fa78-46df-89cc-9e5da393e331","ios":"levelo://app?vid=524a7e66-fa78-46df-89cc-9e5da393e331"},"vehicle_type_id":"4","last_reported":1729440608,"current_range_meters":4800,"station_id":"ce4bh112rcd13ifvqda0","pricing_plan_id":"cebpf4jnsgd1na2vs0mg"},{"bike_id":"2884e4cb-e818-4bf6-8a89-10ef5154f666","system_id":"levelo_inurba_marseille","lat":43.2656,"lon":5.39014,"is_reserved":false,"is_disabled":false,"rental_uris":{"android":"levelo://app?vid=2884e4cb-e818-4bf6-8a89-10ef5154f666","ios":"levelo://app?vid=2884e4cb-e818-4bf6-8a89-10ef5154f666"},"vehicle_type_id":"4","last_reported":1729440608,"current_range_meters":10800,"station_id":"ce4bhe12rcd13ifvqf30","pricing_plan_id":"cebpf4jnsgd1na2vs0mg"},{"bike_id":"92333df9-901d-41d9-9d49-2f7d2726f7d5","system_id":"levelo_inurba_marseille","lat":43.30596,"lon":5.37214,"is_reserved":false,"is_disabled":false,"rental_uris":{"android":"levelo://app?vid=92333df9-901d-41d9-9d49-2f7d2726f7d5","ios":"levelo://app?vid=92333df9-901d-41d9-9d49-2f7d2726f7d5"},"vehicle_type_id":"4","last_reported":1729440608,"current_range_meters":26000,"station_id":"ce4bgqh2rcd13ifvqc4g","pricing_plan_id":"cebpf4jnsgd1na2vs0mg"},{"bike_id":"686fa089-06a5-4f45-a682-05833f896474","system_id":"levelo_inurba_marseille","lat":43.31709,"lon":5.37744,"is_reserved":false,"is_disabled":false,"rental_uris":{"android":"levelo://app?vid=686fa089-06a5-4f45-a682-05833f896474","ios":"levelo://app?vid=686fa089-06a5-4f45-a682-05833f896474"},"vehicle_type_id":"4","last_reported":1729440608,"current_range_meters":35600,"station_id":"ce4bgth2rcd13ifvqch0","pricing_plan_id":"cebpf4jnsgd1na2vs0mg"},{"bike_id":"472be98f-70aa-4843-b160-82ca6d4e56bc","system_id":"levelo_inurba_marseille","lat":43.23962,"lon":5.36642,"is_reserved":false,"is_disabled":false,"rental_uris":{"android":"levelo://app?vid=472be98f-70aa-4843-b160-82ca6d4e56bc","ios":"levelo://app?vid=472be98f-70aa-4843-b160-82ca6d4e56bc"},"vehicle_type_id":"4","last_reported":1729440608,"current_range_meters":5600,"station_id":"ce4bhi12rcd13ifvqfp0","pricing_plan_id":"cebpf4jnsgd1na2vs0mg"},{"bike_id":"a755e759-c5b3-49c3-b82d-cf5a9be1361d","system_id":"levelo_inurba_marseille","lat":43.24811,"lon":5.37467,"is_reserved":false,"is_disabled":false,"rental_uris":{"android":"levelo://app?vid=a755e759-c5b3-49c3-b82d-cf5a9be1361d","ios":"levelo://app?vid=a755e759-c5b3-49c3-b82d-cf5a9be1361d"},"vehicle_type_id":"4","last_reported":1729440608,"current_range_meters":38800,"station_id":"ce4bhgh2rcd13ifvqfb0","pricing_plan_id":"cebpf4jnsgd1na2vs0mg"},{"bike_id":"f3b18d4c-688e-4e02-9104-7f1d559134af","system_id":"levelo_inurba_marseille","lat":43.32107,"lon":5.36773,"is_reserved":false,"is_disabled":false,"rental_uris":{"android":"levelo://app?vid=f3b18d4c-688e-4e02-9104-7f1d559134af","ios":"levelo://app?vid=f3b18d4c-688e-4e02-9104-7f1d559134af"},"vehicle_type_id":"4","last_reported":1729440608,"current_range_meters":36400,"station_id":"ce4bhrh2rcd13ifvqhug","pricing_plan_id":"cebpf4jnsgd1na2vs0mg"},{"bike_id":"613b2b04-69ad-45b0-a84b-6e63489c089c","system_id":"levelo_inurba_marseille","lat":43.239647,"lon":5.366268,"is_reserved":false,"is_disabled":false,"rental_uris":{"android":"levelo://app?vid=613b2b04-69ad-45b0-a84b-6e63489c089c","ios":"levelo://app?vid=613b2b04-69ad-45b0-a84b-6e63489c089c"},"vehicle_type_id":"4","last_reported":1729440608,"current_range_meters":8400,"station_id":"ce4bhi12rcd13ifvqfp0","pricing_plan_id":"cebpf4jnsgd1na2vs0mg"},{"bike_id":"5f321f11-734d-449f-8873-de274f60673c","system_id":"levelo_inurba_marseille","lat":43.28698,"lon":5.37395,"is_reserved":false,"is_disabled":false,"rental_uris":{"android":"levelo://app?vid=5f321f11-734d-449f-8873-de274f60673c","ios":"levelo://app?vid=5f321f11-734d-449f-8873-de274f60673c"},"vehicle_type_id":"4","last_reported":1729440608,"current_range_meters":6800,"station_id":"ce4bh3p2rcd13ifvqdq0","pricing_plan_id":"cebpf4jnsgd1na2vs0mg"},{"bike_id":"8a61b0d3-96ba-49fc-af75-dd8176297036","system_id":"levelo_inurba_marseille","lat":43.239578,"lon":5.366259,"is_reserved":false,"is_disabled":false,"rental_uris":{"android":"levelo://app?vid=8a61b0d3-96ba-49fc-af75-dd8176297036","ios":"levelo://app?vid=8a61b0d3-96ba-49fc-af75-dd8176297036"},"vehicle_type_id":"4","last_reported":1729440608,"current_range_meters":8400,"station_id":"ce4bhi12rcd13ifvqfp0","pricing_plan_id":"cebpf4jnsgd1na2vs0mg"},{"bike_id":"8f05cd84-87a1-48b7-b476-727f8343c44d","system_id":"levelo_inurba_marseille","lat":43.27945,"lon":5.41047,"is_reserved":false,"is_disabled":false,"rental_uris":{"android":"levelo://app?vid=8f05cd84-87a1-48b7-b476-727f8343c44d","ios":"levelo://app?vid=8f05cd84-87a1-48b7-b476-727f8343c44d"},"vehicle_type_id":"4","last_reported":1729440608,"current_range_meters":38000,"station_id":"ce4bhnp2rcd13ifvqh0g","pricing_plan_id":"cebpf4jnsgd1na2vs0mg"},{"bike_id":"c8404b6a-61e1-4489-a4f3-3ce27a6ac4e3","system_id":"levelo_inurba_marseille","lat":43.28081,"lon":5.36614,"is_reserved":false,"is_disabled":false,"rental_uris":{"android":"levelo://app?vid=c8404b6a-61e1-4489-a4f3-3ce27a6ac4e3","ios":"levelo://app?vid=c8404b6a-61e1-4489-a4f3-3ce27a6ac4e3"},"vehicle_type_id":"4","last_reported":1729440608,"current_range_meters":10000,"station_id":"","pricing_plan_id":"cebpf4jnsgd1na2vs0mg"},{"bike_id":"bd6193fc-ba51-4cf7-97a1-dec3c98e3db3","system_id":"levelo_inurba_marseille","lat":43.28468,"lon":5.39241,"is_reserved":false,"is_disabled":false,"rental_uris":{"android":"levelo://app?vid=bd6193fc-ba51-4cf7-97a1-dec3c98e3db3","ios":"levelo://app?vid=bd6193fc-ba51-4cf7-97a1-dec3c98e3db3"},"vehicle_type_id":"4","last_reported":1729440608,"current_range_meters":8000,"station_id":"ce4bhoh2rcd13ifvqh5g","pricing_plan_id":"cebpf4jnsgd1na2vs0mg"},{"bike_id":"4f357a8f-803f-4ef1-b82a-19fa9f305e74","system_id":"levelo_inurba_marseille","lat":43.23189,"lon":5.35564,"is_reserved":false,"is_disabled":false,"rental_uris":{"android":"levelo://app?vid=4f357a8f-803f-4ef1-b82a-19fa9f305e74","ios":"levelo://app?vid=4f357a8f-803f-4ef1-b82a-19fa9f305e74"},"vehicle_type_id":"4","last_reported":1729440608,"current_range_meters":36800,"station_id":"ce4bhu92rcd13ifvqi70","pricing_plan_id":"cebpf4jnsgd1na2vs0mg"},{"bike_id":"1ac31951-8357-4eea-a1f3-688385e485b4","system_id":"levelo_inurba_marseille","lat":43.290009,"lon":5.356181,"is_reserved":false,"is_disabled":false,"rental_uris":{"android":"levelo://app?vid=1ac31951-8357-4eea-a1f3-688385e485b4","ios":"levelo://app?vid=1ac31951-8357-4eea-a1f3-688385e485b4"},"vehicle_type_id":"4","last_reported":1729440608,"current_range_meters":19200,"station_id":"","pricing_plan_id":"cebpf4jnsgd1na2vs0mg"},{"bike_id":"2e4632d1-98b4-4b60-8aa9-0ebfb46ac472","system_id":"levelo_inurba_marseille","lat":43.2835,"lon":5.38125,"is_reserved":false,"is_disabled":false,"rental_uris":{"android":"levelo://app?vid=2e4632d1-98b4-4b60-8aa9-0ebfb46ac472","ios":"levelo://app?vid=2e4632d1-98b4-4b60-8aa9-0ebfb46ac472"},"vehicle_type_id":"4","last_reported":1729440608,"current_range_meters":20000,"station_id":"ce4bh412rcd13ifvqdr0","pricing_plan_id":"cebpf4jnsgd1na2vs0mg"},{"bike_id":"eef34148-049a-46fe-a054-e0b09dd1f778","system_id":"levelo_inurba_marseille","lat":43.31712,"lon":5.43707,"is_reserved":false,"is_disabled":false,"rental_uris":{"android":"levelo://app?vid=eef34148-049a-46fe-a054-e0b09dd1f778","ios":"levelo://app?vid=eef34148-049a-46fe-a054-e0b09dd1f778"},"vehicle_type_id":"4","last_reported":1729440608,"current_range_meters":24800,"station_id":"ce4bhp92rcd13ifvqhcg","pricing_plan_id":"cebpf4jnsgd1na2vs0mg"},{"bike_id":"3c807220-758f-40c8-b4f1-96669d1b8d8b","system_id":"levelo_inurba_marseille","lat":43.23193,"lon":5.35557,"is_reserved":false,"is_disabled":false,"rental_uris":{"android":"levelo://app?vid=3c807220-758f-40c8-b4f1-96669d1b8d8b","ios":"levelo://app?vid=3c807220-758f-40c8-b4f1-96669d1b8d8b"},"vehicle_type_id":"4","last_reported":1729440608,"current_range_meters":32800,"station_id":"ce4bhu92rcd13ifvqi70","pricing_plan_id":"cebpf4jnsgd1na2vs0mg"},{"bike_id":"a25ade6d-68cf-4f9a-af18-693934c2fb40","system_id":"levelo_inurba_marseille","lat":43.27666,"lon":5.38922,"is_reserved":false,"is_disabled":false,"rental_uris":{"android":"levelo://app?vid=a25ade6d-68cf-4f9a-af18-693934c2fb40","ios":"levelo://app?vid=a25ade6d-68cf-4f9a-af18-693934c2fb40"},"vehicle_type_id":"4","last_reported":1729440608,"current_range_meters":31200,"station_id":"ce4bhi12rcd13ifvqfo0","pricing_plan_id":"cebpf4jnsgd1na2vs0mg"},{"bike_id":"971f9495-49d8-4587-86d0-762411a58893","system_id":"levelo_inurba_marseille","lat":43.31712,"lon":5.43707,"is_reserved":false,"is_disabled":false,"rental_uris":{"android":"levelo://app?vid=971f9495-49d8-4587-86d0-762411a58893","ios":"levelo://app?vid=971f9495-49d8-4587-86d0-762411a58893"},"vehicle_type_id":"4","last_reported":1729440608,"current_range_meters":4400,"station_id":"ce4bhp92rcd13ifvqhcg","pricing_plan_id":"cebpf4jnsgd1na2vs0mg"},{"bike_id":"4dbc2644-81e2-41b0-8046-b15ae2b72e86","system_id":"levelo_inurba_marseille","lat":43.31361,"lon":5.38502,"is_reserved":false,"is_disabled":false,"rental_uris":{"android":"levelo://app?vid=4dbc2644-81e2-41b0-8046-b15ae2b72e86","ios":"levelo://app?vid=4dbc2644-81e2-41b0-8046-b15ae2b72e86"},"vehicle_type_id":"4","last_reported":1729440608,"current_range_meters":38000,"station_id":"ce4bgt92rcd13ifvqcf0","pricing_plan_id":"cebpf4jnsgd1na2vs0mg"},{"bike_id":"c46461ae-da4e-4831-b653-a8b5e644b5dd","system_id":"levelo_inurba_marseille","lat":43.3127,"lon":5.4017,"is_reserved":false,"is_disabled":false,"rental_uris":{"android":"levelo://app?vid=c46461ae-da4e-4831-b653-a8b5e644b5dd","ios":"levelo://app?vid=c46461ae-da4e-4831-b653-a8b5e644b5dd"},"vehicle_type_id":"4","last_reported":1729440608,"current_range_meters":18800,"station_id":"ce4bh092rcd13ifvqd30","pricing_plan_id":"cebpf4jnsgd1na2vs0mg"},{"bike_id":"4295c92a-c285-4c35-8513-450bcfa2dd47","system_id":"levelo_inurba_marseille","lat":43.24805,"lon":5.3746,"is_reserved":false,"is_disabled":false,"rental_uris":{"android":"levelo://app?vid=4295c92a-c285-4c35-8513-450bcfa2dd47","ios":"levelo://app?vid=4295c92a-c285-4c35-8513-450bcfa2dd47"},"vehicle_type_id":"4","last_reported":1729440608,"current_range_meters":38800,"station_id":"ce4bhgh2rcd13ifvqfb0","pricing_plan_id":"cebpf4jnsgd1na2vs0mg"},{"bike_id":"eb88425f-f299-4e7c-8199-6220f38d7585","system_id":"levelo_inurba_marseille","lat":43.28568,"lon":5.39501,"is_reserved":false,"is_disabled":false,"rental_uris":{"android":"levelo://app?vid=eb88425f-f299-4e7c-8199-6220f38d7585","ios":"levelo://app?vid=eb88425f-f299-4e7c-8199-6220f38d7585"},"vehicle_type_id":"4","last_reported":1729440608,"current_range_meters":37600,"station_id":"ce4bh292rcd13ifvqdg0","pricing_plan_id":"cebpf4jnsgd1na2vs0mg"},{"bike_id":"bf24d256-8265-4904-871b-7092d76f5df5","system_id":"levelo_inurba_marseille","lat":43.25578,"lon":5.38238,"is_reserved":false,"is_disabled":false,"rental_uris":{"android":"levelo://app?vid=bf24d256-8265-4904-871b-7092d76f5df5","ios":"levelo://app?vid=bf24d256-8265-4904-871b-7092d76f5df5"},"vehicle_type_id":"4","last_reported":1729440608,"current_range_meters":36800,"station_id":"ce4bhih2rcd13ifvqfs0","pricing_plan_id":"cebpf4jnsgd1na2vs0mg"},{"bike_id":"d1ca469b-b396-4867-8b4f-97c7673ce247","system_id":"levelo_inurba_marseille","lat":43.32483,"lon":5.36577,"is_reserved":false,"is_disabled":false,"rental_uris":{"android":"levelo://app?vid=d1ca469b-b396-4867-8b4f-97c7673ce247","ios":"levelo://app?vid=d1ca469b-b396-4867-8b4f-97c7673ce247"},"vehicle_type_id":"4","last_reported":1729440608,"current_range_meters":26000,"station_id":"ce4bhs12rcd13ifvqhvg","pricing_plan_id":"cebpf4jnsgd1na2vs0mg"},{"bike_id":"5028242f-d504-457a-b71b-e8b08f781483","system_id":"levelo_inurba_marseille","lat":43.296326,"lon":5.390809,"is_reserved":false,"is_disabled":false,"rental_uris":{"android":"levelo://app?vid=5028242f-d504-457a-b71b-e8b08f781483","ios":"levelo://app?vid=5028242f-d504-457a-b71b-e8b08f781483"},"vehicle_type_id":"4","last_reported":1729440608,"current_range_meters":20800,"station_id":"chh1huq6cuj3fo74tm60","pricing_plan_id":"cebpf4jnsgd1na2vs0mg"},{"bike_id":"c63541db-4883-409a-9bb2-7bd763353469","system_id":"levelo_inurba_marseille","lat":43.31704,"lon":5.43716,"is_reserved":false,"is_disabled":false,"rental_uris":{"android":"levelo://app?vid=c63541db-4883-409a-9bb2-7bd763353469","ios":"levelo://app?vid=c63541db-4883-409a-9bb2-7bd763353469"},"vehicle_type_id":"4","last_reported":1729440608,"current_range_meters":13600,"station_id":"ce4bhp92rcd13ifvqhcg","pricing_plan_id":"cebpf4jnsgd1na2vs0mg"},{"bike_id":"73834f8c-ef12-4652-8f75-18c4940f7a00","system_id":"levelo_inurba_marseille","lat":43.3372,"lon":5.3918,"is_reserved":false,"is_disabled":false,"rental_uris":{"android":"levelo://app?vid=73834f8c-ef12-4652-8f75-18c4940f7a00","ios":"levelo://app?vid=73834f8c-ef12-4652-8f75-18c4940f7a00"},"vehicle_type_id":"4","last_reported":1729440608,"current_range_meters":38000,"station_id":"ce4bhr92rcd13ifvqhsg","pricing_plan_id":"cebpf4jnsgd1na2vs0mg"},{"bike_id":"c3f387e8-4f8f-4cbc-8b0c-bbbdb5ad9411","system_id":"levelo_inurba_marseille","lat":43.28701,"lon":5.374,"is_reserved":false,"is_disabled":false,"rental_uris":{"android":"levelo://app?vid=c3f387e8-4f8f-4cbc-8b0c-bbbdb5ad9411","ios":"levelo://app?vid=c3f387e8-4f8f-4cbc-8b0c-bbbdb5ad9411"},"vehicle_type_id":"4","last_reported":1729440608,"current_range_meters":8400,"station_id":"ce4bh3p2rcd13ifvqdq0","pricing_plan_id":"cebpf4jnsgd1na2vs0mg"},{"bike_id":"03d27ee4-e8f4-461c-915e-f88c5879f11c","system_id":"levelo_inurba_marseille","lat":43.28936,"lon":5.36635,"is_reserved":false,"is_disabled":false,"rental_uris":{"android":"levelo://app?vid=03d27ee4-e8f4-461c-915e-f88c5879f11c","ios":"levelo://app?vid=03d27ee4-e8f4-461c-915e-f88c5879f11c"},"vehicle_type_id":"4","last_reported":1729440608,"current_range_meters":27200,"station_id":"ce4bhap2rcd13ifvqek0","pricing_plan_id":"cebpf4jnsgd1na2vs0mg"},{"bike_id":"35e1068e-d37e-44e1-b42c-40b06a731be7","system_id":"levelo_inurba_marseille","lat":43.3053,"lon":5.36705,"is_reserved":false,"is_disabled":false,"rental_uris":{"android":"levelo://app?vid=35e1068e-d37e-44e1-b42c-40b06a731be7","ios":"levelo://app?vid=35e1068e-d37e-44e1-b42c-40b06a731be7"},"vehicle_type_id":"4","last_reported":1729440608,"current_range_meters":26800,"station_id":"ce4bgrp2rcd13ifvqc9g","pricing_plan_id":"cebpf4jnsgd1na2vs0mg"},{"bike_id":"5ee963c4-8e58-4d94-8dd3-cfb780aa0a47","system_id":"levelo_inurba_marseille","lat":43.28443,"lon":5.39198,"is_reserved":false,"is_disabled":false,"rental_uris":{"android":"levelo://app?vid=5ee963c4-8e58-4d94-8dd3-cfb780aa0a47","ios":"levelo://app?vid=5ee963c4-8e58-4d94-8dd3-cfb780aa0a47"},"vehicle_type_id":"4","last_reported":1729440608,"current_range_meters":36400,"station_id":"ce4bhoh2rcd13ifvqh5g","pricing_plan_id":"cebpf4jnsgd1na2vs0mg"},{"bike_id":"d72bd725-2239-4f9a-880e-afb8f32589bd","system_id":"levelo_inurba_marseille","lat":43.29569,"lon":5.37508,"is_reserved":false,"is_disabled":false,"rental_uris":{"android":"levelo://app?vid=d72bd725-2239-4f9a-880e-afb8f32589bd","ios":"levelo://app?vid=d72bd725-2239-4f9a-880e-afb8f32589bd"},"vehicle_type_id":"4","last_reported":1729440608,"current_range_meters":37600,"station_id":"ce4bgh92rcd13ifvqb50","pricing_plan_id":"cebpf4jnsgd1na2vs0mg"},{"bike_id":"895f60bd-077a-4880-b56f-58cba7ed23d0","system_id":"levelo_inurba_marseille","lat":43.24071,"lon":5.37768,"is_reserved":false,"is_disabled":false,"rental_uris":{"android":"levelo://app?vid=895f60bd-077a-4880-b56f-58cba7ed23d0","ios":"levelo://app?vid=895f60bd-077a-4880-b56f-58cba7ed23d0"},"vehicle_type_id":"4","last_reported":1729440608,"current_range_meters":6800,"station_id":"ce4bhnp2rcd13ifvqgvg","pricing_plan_id":"cebpf4jnsgd1na2vs0mg"},{"bike_id":"d529abd6-50b3-43ed-a384-57223313c523","system_id":"levelo_inurba_marseille","lat":43.29305,"lon":5.37178,"is_reserved":false,"is_disabled":false,"rental_uris":{"android":"levelo://app?vid=d529abd6-50b3-43ed-a384-57223313c523","ios":"levelo://app?vid=d529abd6-50b3-43ed-a384-57223313c523"},"vehicle_type_id":"4","last_reported":1729440608,"current_range_meters":19600,"station_id":"ce4bgh92rcd13ifvqb40","pricing_plan_id":"cebpf4jnsgd1na2vs0mg"},{"bike_id":"6832f9b7-e495-4b34-8352-dced9e3579ca","system_id":"levelo_inurba_marseille","lat":43.24807,"lon":5.37456,"is_reserved":false,"is_disabled":false,"rental_uris":{"android":"levelo://app?vid=6832f9b7-e495-4b34-8352-dced9e3579ca","ios":"levelo://app?vid=6832f9b7-e495-4b34-8352-dced9e3579ca"},"vehicle_type_id":"4","last_reported":1729440608,"current_range_meters":38800,"station_id":"ce4bhgh2rcd13ifvqfb0","pricing_plan_id":"cebpf4jnsgd1na2vs0mg"},{"bike_id":"67b45264-e092-4ea7-9db2-b6bb8bd1adb1","system_id":"levelo_inurba_marseille","lat":43.2978,"lon":5.37102,"is_reserved":false,"is_disabled":false,"rental_uris":{"android":"levelo://app?vid=67b45264-e092-4ea7-9db2-b6bb8bd1adb1","ios":"levelo://app?vid=67b45264-e092-4ea7-9db2-b6bb8bd1adb1"},"vehicle_type_id":"4","last_reported":1729440608,"current_range_meters":14000,"station_id":"ce4bgop2rcd13ifvqc1g","pricing_plan_id":"cebpf4jnsgd1na2vs0mg"},{"bike_id":"996b68ea-a3b8-48c9-9cf2-f66df1d63882","system_id":"levelo_inurba_marseille","lat":43.23195,"lon":5.35546,"is_reserved":false,"is_disabled":false,"rental_uris":{"android":"levelo://app?vid=996b68ea-a3b8-48c9-9cf2-f66df1d63882","ios":"levelo://app?vid=996b68ea-a3b8-48c9-9cf2-f66df1d63882"},"vehicle_type_id":"4","last_reported":1729440608,"current_range_meters":10000,"station_id":"ce4bhu92rcd13ifvqi70","pricing_plan_id":"cebpf4jnsgd1na2vs0mg"},{"bike_id":"4b3496a2-d393-48e7-b24c-bc5f8d6f4d51","system_id":"levelo_inurba_marseille","lat":43.23957,"lon":5.36627,"is_reserved":false,"is_disabled":false,"rental_uris":{"android":"levelo://app?vid=4b3496a2-d393-48e7-b24c-bc5f8d6f4d51","ios":"levelo://app?vid=4b3496a2-d393-48e7-b24c-bc5f8d6f4d51"},"vehicle_type_id":"4","last_reported":1729440608,"current_range_meters":30400,"station_id":"ce4bhi12rcd13ifvqfp0","pricing_plan_id":"cebpf4jnsgd1na2vs0mg"},{"bike_id":"6e11a2bd-d18b-4726-9c79-ace877b1a162","system_id":"levelo_inurba_marseille","lat":43.29274,"lon":5.40122,"is_reserved":false,"is_disabled":false,"rental_uris":{"android":"levelo://app?vid=6e11a2bd-d18b-4726-9c79-ace877b1a162","ios":"levelo://app?vid=6e11a2bd-d18b-4726-9c79-ace877b1a162"},"vehicle_type_id":"4","last_reported":1729440608,"current_range_meters":7200,"station_id":"ce4bh312rcd13ifvqdk0","pricing_plan_id":"cebpf4jnsgd1na2vs0mg"},{"bike_id":"f72e692e-8af8-442b-b5b4-f8ff8bed16e6","system_id":"levelo_inurba_marseille","lat":43.29003,"lon":5.35617,"is_reserved":false,"is_disabled":false,"rental_uris":{"android":"levelo://app?vid=f72e692e-8af8-442b-b5b4-f8ff8bed16e6","ios":"levelo://app?vid=f72e692e-8af8-442b-b5b4-f8ff8bed16e6"},"vehicle_type_id":"4","last_reported":1729440608,"current_range_meters":31200,"station_id":"ce4bhb92rcd13ifvqen0","pricing_plan_id":"cebpf4jnsgd1na2vs0mg"},{"bike_id":"ce5722ca-97a2-4464-b271-2119bbfeb6a9","system_id":"levelo_inurba_marseille","lat":43.23725,"lon":5.37772,"is_reserved":false,"is_disabled":false,"rental_uris":{"android":"levelo://app?vid=ce5722ca-97a2-4464-b271-2119bbfeb6a9","ios":"levelo://app?vid=ce5722ca-97a2-4464-b271-2119bbfeb6a9"},"vehicle_type_id":"4","last_reported":1729440608,"current_range_meters":15200,"station_id":"","pricing_plan_id":"cebpf4jnsgd1na2vs0mg"},{"bike_id":"e9a6d85d-70e2-402b-90eb-502b3aedbdb3","system_id":"levelo_inurba_marseille","lat":43.29169,"lon":5.37938,"is_reserved":false,"is_disabled":false,"rental_uris":{"android":"levelo://app?vid=e9a6d85d-70e2-402b-90eb-502b3aedbdb3","ios":"levelo://app?vid=e9a6d85d-70e2-402b-90eb-502b3aedbdb3"},"vehicle_type_id":"4","last_reported":1729440608,"current_range_meters":8400,"station_id":"","pricing_plan_id":"cebpf4jnsgd1na2vs0mg"},{"bike_id":"551e4cae-27ad-43f8-bfc5-8e0a93c14612","system_id":"levelo_inurba_marseille","lat":43.32106,"lon":5.36776,"is_reserved":false,"is_disabled":false,"rental_uris":{"android":"levelo://app?vid=551e4cae-27ad-43f8-bfc5-8e0a93c14612","ios":"levelo://app?vid=551e4cae-27ad-43f8-bfc5-8e0a93c14612"},"vehicle_type_id":"4","last_reported":1729440608,"current_range_meters":36800,"station_id":"ce4bhrh2rcd13ifvqhug","pricing_plan_id":"cebpf4jnsgd1na2vs0mg"},{"bike_id":"d6b6d9c6-c04c-44c6-9708-54056b46823b","system_id":"levelo_inurba_marseille","lat":43.24166,"lon":5.38855,"is_reserved":false,"is_disabled":false,"rental_uris":{"android":"levelo://app?vid=d6b6d9c6-c04c-44c6-9708-54056b46823b","ios":"levelo://app?vid=d6b6d9c6-c04c-44c6-9708-54056b46823b"},"vehicle_type_id":"4","last_reported":1729440608,"current_range_meters":13600,"station_id":"","pricing_plan_id":"cebpf4jnsgd1na2vs0mg"},{"bike_id":"1935cdcd-2aea-43c4-a1d5-d52d7ca4a70b","system_id":"levelo_inurba_marseille","lat":43.23193,"lon":5.35555,"is_reserved":false,"is_disabled":false,"rental_uris":{"android":"levelo://app?vid=1935cdcd-2aea-43c4-a1d5-d52d7ca4a70b","ios":"levelo://app?vid=1935cdcd-2aea-43c4-a1d5-d52d7ca4a70b"},"vehicle_type_id":"4","last_reported":1729440608,"current_range_meters":4000,"station_id":"ce4bhu92rcd13ifvqi70","pricing_plan_id":"cebpf4jnsgd1na2vs0mg"},{"bike_id":"d8609d79-0d02-45dd-8f3a-0f220d85911b","system_id":"levelo_inurba_marseille","lat":43.30952,"lon":5.39037,"is_reserved":false,"is_disabled":false,"rental_uris":{"android":"levelo://app?vid=d8609d79-0d02-45dd-8f3a-0f220d85911b","ios":"levelo://app?vid=d8609d79-0d02-45dd-8f3a-0f220d85911b"},"vehicle_type_id":"4","last_reported":1729440608,"current_range_meters":4400,"station_id":"ce4bgup2rcd13ifvqco0","pricing_plan_id":"cebpf4jnsgd1na2vs0mg"},{"bike_id":"948d9b5b-9703-4472-a244-8601ab28d470","system_id":"levelo_inurba_marseille","lat":43.27207,"lon":5.39193,"is_reserved":false,"is_disabled":false,"rental_uris":{"android":"levelo://app?vid=948d9b5b-9703-4472-a244-8601ab28d470","ios":"levelo://app?vid=948d9b5b-9703-4472-a244-8601ab28d470"},"vehicle_type_id":"4","last_reported":1729440608,"current_range_meters":30400,"station_id":"ce4bhhp2rcd13ifvqfm0","pricing_plan_id":"cebpf4jnsgd1na2vs0mg"},{"bike_id":"c9a41218-1a09-4451-ad4b-385baccdbe77","system_id":"levelo_inurba_marseille","lat":43.2783,"lon":5.39203,"is_reserved":false,"is_disabled":false,"rental_uris":{"android":"levelo://app?vid=c9a41218-1a09-4451-ad4b-385baccdbe77","ios":"levelo://app?vid=c9a41218-1a09-4451-ad4b-385baccdbe77"},"vehicle_type_id":"4","last_reported":1729440608,"current_range_meters":4400,"station_id":"ce4bhjp2rcd13ifvqga0","pricing_plan_id":"cebpf4jnsgd1na2vs0mg"},{"bike_id":"13ae5a62-4a78-4fc7-810b-ae74bae85f5b","system_id":"levelo_inurba_marseille","lat":43.28843,"lon":5.39323,"is_reserved":false,"is_disabled":false,"rental_uris":{"android":"levelo://app?vid=13ae5a62-4a78-4fc7-810b-ae74bae85f5b","ios":"levelo://app?vid=13ae5a62-4a78-4fc7-810b-ae74bae85f5b"},"vehicle_type_id":"4","last_reported":1729440608,"current_range_meters":23200,"station_id":"ce4bh2p2rcd13ifvqdi0","pricing_plan_id":"cebpf4jnsgd1na2vs0mg"},{"bike_id":"832bc753-858a-487d-bef2-5e4906e55979","system_id":"levelo_inurba_marseille","lat":43.265442,"lon":5.372922,"is_reserved":false,"is_disabled":false,"rental_uris":{"android":"levelo://app?vid=832bc753-858a-487d-bef2-5e4906e55979","ios":"levelo://app?vid=832bc753-858a-487d-bef2-5e4906e55979"},"vehicle_type_id":"4","last_reported":1729440608,"current_range_meters":5600,"station_id":"ce4bhhh2rcd13ifvqfk0","pricing_plan_id":"cebpf4jnsgd1na2vs0mg"},{"bike_id":"3efba5df-c492-459f-b740-dbbf8b24debd","system_id":"levelo_inurba_marseille","lat":43.23181,"lon":5.39982,"is_reserved":false,"is_disabled":false,"rental_uris":{"android":"levelo://app?vid=3efba5df-c492-459f-b740-dbbf8b24debd","ios":"levelo://app?vid=3efba5df-c492-459f-b740-dbbf8b24debd"},"vehicle_type_id":"4","last_reported":1729440608,"current_range_meters":16000,"station_id":"ce4bhn12rcd13ifvqgqg","pricing_plan_id":"cebpf4jnsgd1na2vs0mg"},{"bike_id":"be89100f-2f6e-42d0-89f7-9728b750e2d3","system_id":"levelo_inurba_marseille","lat":43.290014,"lon":5.356163,"is_reserved":false,"is_disabled":false,"rental_uris":{"android":"levelo://app?vid=be89100f-2f6e-42d0-89f7-9728b750e2d3","ios":"levelo://app?vid=be89100f-2f6e-42d0-89f7-9728b750e2d3"},"vehicle_type_id":"4","last_reported":1729440608,"current_range_meters":36000,"station_id":"ce4bhb92rcd13ifvqen0","pricing_plan_id":"cebpf4jnsgd1na2vs0mg"},{"bike_id":"41eba91b-465e-4f89-b069-8e52ceeffa58","system_id":"levelo_inurba_marseille","lat":43.304474,"lon":5.378659,"is_reserved":false,"is_disabled":false,"rental_uris":{"android":"levelo://app?vid=41eba91b-465e-4f89-b069-8e52ceeffa58","ios":"levelo://app?vid=41eba91b-465e-4f89-b069-8e52ceeffa58"},"vehicle_type_id":"4","last_reported":1729440608,"current_range_meters":32800,"station_id":"ce4bgup2rcd13ifvqcn0","pricing_plan_id":"cebpf4jnsgd1na2vs0mg"},{"bike_id":"9f08d0de-1f55-4157-8d2d-5c853815cd46","system_id":"levelo_inurba_marseille","lat":43.28844,"lon":5.3931,"is_reserved":false,"is_disabled":false,"rental_uris":{"android":"levelo://app?vid=9f08d0de-1f55-4157-8d2d-5c853815cd46","ios":"levelo://app?vid=9f08d0de-1f55-4157-8d2d-5c853815cd46"},"vehicle_type_id":"4","last_reported":1729440608,"current_range_meters":30400,"station_id":"ce4bh2p2rcd13ifvqdi0","pricing_plan_id":"cebpf4jnsgd1na2vs0mg"},{"bike_id":"f9e647d8-3daa-4adb-88f5-3b58e5c5116b","system_id":"levelo_inurba_marseille","lat":43.28156,"lon":5.42648,"is_reserved":false,"is_disabled":false,"rental_uris":{"android":"levelo://app?vid=f9e647d8-3daa-4adb-88f5-3b58e5c5116b","ios":"levelo://app?vid=f9e647d8-3daa-4adb-88f5-3b58e5c5116b"},"vehicle_type_id":"4","last_reported":1729440608,"current_range_meters":6800,"station_id":"ce4bhnh2rcd13ifvqgug","pricing_plan_id":"cebpf4jnsgd1na2vs0mg"},{"bike_id":"c5d3a710-3d5c-443d-8d8d-0b644aad74db","system_id":"levelo_inurba_marseille","lat":43.3249,"lon":5.3658,"is_reserved":false,"is_disabled":false,"rental_uris":{"android":"levelo://app?vid=c5d3a710-3d5c-443d-8d8d-0b644aad74db","ios":"levelo://app?vid=c5d3a710-3d5c-443d-8d8d-0b644aad74db"},"vehicle_type_id":"4","last_reported":1729440608,"current_range_meters":22800,"station_id":"ce4bhs12rcd13ifvqhvg","pricing_plan_id":"cebpf4jnsgd1na2vs0mg"},{"bike_id":"199797b5-20b0-4823-94b5-89854deed5fd","system_id":"levelo_inurba_marseille","lat":43.24813,"lon":5.37462,"is_reserved":false,"is_disabled":false,"rental_uris":{"android":"levelo://app?vid=199797b5-20b0-4823-94b5-89854deed5fd","ios":"levelo://app?vid=199797b5-20b0-4823-94b5-89854deed5fd"},"vehicle_type_id":"4","last_reported":1729440608,"current_range_meters":9200,"station_id":"ce4bhgh2rcd13ifvqfb0","pricing_plan_id":"cebpf4jnsgd1na2vs0mg"},{"bike_id":"69663e99-fe51-4c5b-876a-882008f8d5d8","system_id":"levelo_inurba_marseille","lat":43.30186,"lon":5.39786,"is_reserved":false,"is_disabled":false,"rental_uris":{"android":"levelo://app?vid=69663e99-fe51-4c5b-876a-882008f8d5d8","ios":"levelo://app?vid=69663e99-fe51-4c5b-876a-882008f8d5d8"},"vehicle_type_id":"4","last_reported":1729440608,"current_range_meters":6000,"station_id":"","pricing_plan_id":"cebpf4jnsgd1na2vs0mg"},{"bike_id":"05b192da-51c4-4e8a-af04-6972db1242c2","system_id":"levelo_inurba_marseille","lat":43.28156,"lon":5.42643,"is_reserved":false,"is_disabled":false,"rental_uris":{"android":"levelo://app?vid=05b192da-51c4-4e8a-af04-6972db1242c2","ios":"levelo://app?vid=05b192da-51c4-4e8a-af04-6972db1242c2"},"vehicle_type_id":"4","last_reported":1729440608,"current_range_meters":2800,"station_id":"ce4bhnh2rcd13ifvqgug","pricing_plan_id":"cebpf4jnsgd1na2vs0mg"},{"bike_id":"5ca209ac-71e7-43ba-bff1-80da5f6ff478","system_id":"levelo_inurba_marseille","lat":43.31712,"lon":5.43709,"is_reserved":false,"is_disabled":false,"rental_uris":{"android":"levelo://app?vid=5ca209ac-71e7-43ba-bff1-80da5f6ff478","ios":"levelo://app?vid=5ca209ac-71e7-43ba-bff1-80da5f6ff478"},"vehicle_type_id":"4","last_reported":1729440608,"current_range_meters":12400,"station_id":"ce4bhp92rcd13ifvqhcg","pricing_plan_id":"cebpf4jnsgd1na2vs0mg"},{"bike_id":"074d6620-0caa-4ec6-8aa0-d21cffc49a9e","system_id":"levelo_inurba_marseille","lat":43.28606,"lon":5.37065,"is_reserved":false,"is_disabled":false,"rental_uris":{"android":"levelo://app?vid=074d6620-0caa-4ec6-8aa0-d21cffc49a9e","ios":"levelo://app?vid=074d6620-0caa-4ec6-8aa0-d21cffc49a9e"},"vehicle_type_id":"4","last_reported":1729440608,"current_range_meters":22400,"station_id":"ce4bht12rcd13ifvqi60","pricing_plan_id":"cebpf4jnsgd1na2vs0mg"},{"bike_id":"d549c3f8-5a8f-4fd8-b6d9-f54b8c032ca2","system_id":"levelo_inurba_marseille","lat":43.33027,"lon":5.39038,"is_reserved":false,"is_disabled":false,"rental_uris":{"android":"levelo://app?vid=d549c3f8-5a8f-4fd8-b6d9-f54b8c032ca2","ios":"levelo://app?vid=d549c3f8-5a8f-4fd8-b6d9-f54b8c032ca2"},"vehicle_type_id":"4","last_reported":1729440608,"current_range_meters":12000,"station_id":"ce4bhr92rcd13ifvqhrg","pricing_plan_id":"cebpf4jnsgd1na2vs0mg"},{"bike_id":"f357d317-303f-4db6-a6b2-a7c7395ce5d8","system_id":"levelo_inurba_marseille","lat":43.28098,"lon":5.37842,"is_reserved":false,"is_disabled":false,"rental_uris":{"android":"levelo://app?vid=f357d317-303f-4db6-a6b2-a7c7395ce5d8","ios":"levelo://app?vid=f357d317-303f-4db6-a6b2-a7c7395ce5d8"},"vehicle_type_id":"4","last_reported":1729440608,"current_range_meters":33600,"station_id":"ce4bha12rcd13ifvqee0","pricing_plan_id":"cebpf4jnsgd1na2vs0mg"},{"bike_id":"4d066589-d7f7-444d-87bf-eb705d2285d0","system_id":"levelo_inurba_marseille","lat":43.23191,"lon":5.35554,"is_reserved":false,"is_disabled":false,"rental_uris":{"android":"levelo://app?vid=4d066589-d7f7-444d-87bf-eb705d2285d0","ios":"levelo://app?vid=4d066589-d7f7-444d-87bf-eb705d2285d0"},"vehicle_type_id":"4","last_reported":1729440608,"current_range_meters":20000,"station_id":"ce4bhu92rcd13ifvqi70","pricing_plan_id":"cebpf4jnsgd1na2vs0mg"},{"bike_id":"82f461a8-1fdd-49fe-9e13-be08d181a1c8","system_id":"levelo_inurba_marseille","lat":43.27948,"lon":5.4105,"is_reserved":false,"is_disabled":false,"rental_uris":{"android":"levelo://app?vid=82f461a8-1fdd-49fe-9e13-be08d181a1c8","ios":"levelo://app?vid=82f461a8-1fdd-49fe-9e13-be08d181a1c8"},"vehicle_type_id":"4","last_reported":1729440608,"current_range_meters":15200,"station_id":"ce4bhnp2rcd13ifvqh0g","pricing_plan_id":"cebpf4jnsgd1na2vs0mg"},{"bike_id":"ca2bcdce-b499-4244-85d5-e1165783f713","system_id":"levelo_inurba_marseille","lat":43.23187,"lon":5.35552,"is_reserved":false,"is_disabled":false,"rental_uris":{"android":"levelo://app?vid=ca2bcdce-b499-4244-85d5-e1165783f713","ios":"levelo://app?vid=ca2bcdce-b499-4244-85d5-e1165783f713"},"vehicle_type_id":"4","last_reported":1729440608,"current_range_meters":36800,"station_id":"ce4bhu92rcd13ifvqi70","pricing_plan_id":"cebpf4jnsgd1na2vs0mg"},{"bike_id":"a1596875-e208-43e5-a90d-2a6e5c9aeefb","system_id":"levelo_inurba_marseille","lat":43.23954,"lon":5.36634,"is_reserved":false,"is_disabled":false,"rental_uris":{"android":"levelo://app?vid=a1596875-e208-43e5-a90d-2a6e5c9aeefb","ios":"levelo://app?vid=a1596875-e208-43e5-a90d-2a6e5c9aeefb"},"vehicle_type_id":"4","last_reported":1729440608,"current_range_meters":36800,"station_id":"ce4bhi12rcd13ifvqfp0","pricing_plan_id":"cebpf4jnsgd1na2vs0mg"},{"bike_id":"70f14232-9490-4aa5-a081-0293648b52be","system_id":"levelo_inurba_marseille","lat":43.3133,"lon":5.39692,"is_reserved":false,"is_disabled":false,"rental_uris":{"android":"levelo://app?vid=70f14232-9490-4aa5-a081-0293648b52be","ios":"levelo://app?vid=70f14232-9490-4aa5-a081-0293648b52be"},"vehicle_type_id":"4","last_reported":1729440608,"current_range_meters":24400,"station_id":"ce4bgvp2rcd13ifvqcu0","pricing_plan_id":"cebpf4jnsgd1na2vs0mg"},{"bike_id":"c3acffd0-a5cc-4e1e-a371-7053570739fb","system_id":"levelo_inurba_marseille","lat":43.2963,"lon":5.40611,"is_reserved":false,"is_disabled":false,"rental_uris":{"android":"levelo://app?vid=c3acffd0-a5cc-4e1e-a371-7053570739fb","ios":"levelo://app?vid=c3acffd0-a5cc-4e1e-a371-7053570739fb"},"vehicle_type_id":"4","last_reported":1729440608,"current_range_meters":2000,"station_id":"ce4bh0h2rcd13ifvqd60","pricing_plan_id":"cebpf4jnsgd1na2vs0mg"},{"bike_id":"2a9f13c8-c789-4cbb-b231-288baea1add8","system_id":"levelo_inurba_marseille","lat":43.31085,"lon":5.42439,"is_reserved":false,"is_disabled":false,"rental_uris":{"android":"levelo://app?vid=2a9f13c8-c789-4cbb-b231-288baea1add8","ios":"levelo://app?vid=2a9f13c8-c789-4cbb-b231-288baea1add8"},"vehicle_type_id":"4","last_reported":1729440608,"current_range_meters":29600,"station_id":"ce4bhp92rcd13ifvqhag","pricing_plan_id":"cebpf4jnsgd1na2vs0mg"},{"bike_id":"3bf115c6-8efa-475f-af9e-5ee9038c1b80","system_id":"levelo_inurba_marseille","lat":43.31065,"lon":5.40095,"is_reserved":false,"is_disabled":false,"rental_uris":{"android":"levelo://app?vid=3bf115c6-8efa-475f-af9e-5ee9038c1b80","ios":"levelo://app?vid=3bf115c6-8efa-475f-af9e-5ee9038c1b80"},"vehicle_type_id":"4","last_reported":1729440608,"current_range_meters":34000,"station_id":"","pricing_plan_id":"cebpf4jnsgd1na2vs0mg"},{"bike_id":"10cad7de-b391-4546-be09-a65f63699f88","system_id":"levelo_inurba_marseille","lat":43.31687,"lon":5.40475,"is_reserved":false,"is_disabled":false,"rental_uris":{"android":"levelo://app?vid=10cad7de-b391-4546-be09-a65f63699f88","ios":"levelo://app?vid=10cad7de-b391-4546-be09-a65f63699f88"},"vehicle_type_id":"4","last_reported":1729440608,"current_range_meters":6800,"station_id":"ce4bh012rcd13ifvqd00","pricing_plan_id":"cebpf4jnsgd1na2vs0mg"},{"bike_id":"543a1b59-b5e3-4a3f-b5c6-9218680cd8c1","system_id":"levelo_inurba_marseille","lat":43.289978,"lon":5.356302,"is_reserved":false,"is_disabled":false,"rental_uris":{"android":"levelo://app?vid=543a1b59-b5e3-4a3f-b5c6-9218680cd8c1","ios":"levelo://app?vid=543a1b59-b5e3-4a3f-b5c6-9218680cd8c1"},"vehicle_type_id":"4","last_reported":1729440608,"current_range_meters":25600,"station_id":"ce4bhb12rcd13ifvqem0","pricing_plan_id":"cebpf4jnsgd1na2vs0mg"},{"bike_id":"08228103-cd50-4783-90b7-ee133981a73d","system_id":"levelo_inurba_marseille","lat":43.29964,"lon":5.38504,"is_reserved":false,"is_disabled":false,"rental_uris":{"android":"levelo://app?vid=08228103-cd50-4783-90b7-ee133981a73d","ios":"levelo://app?vid=08228103-cd50-4783-90b7-ee133981a73d"},"vehicle_type_id":"4","last_reported":1729440608,"current_range_meters":4800,"station_id":"","pricing_plan_id":"cebpf4jnsgd1na2vs0mg"},{"bike_id":"ee15f587-85b6-4449-bb81-a9bd626a8fb9","system_id":"levelo_inurba_marseille","lat":43.274323,"lon":5.361959,"is_reserved":false,"is_disabled":false,"rental_uris":{"android":"levelo://app?vid=ee15f587-85b6-4449-bb81-a9bd626a8fb9","ios":"levelo://app?vid=ee15f587-85b6-4449-bb81-a9bd626a8fb9"},"vehicle_type_id":"4","last_reported":1729440608,"current_range_meters":3600,"station_id":"ce4bgh92rcd13ifvqb50","pricing_plan_id":"cebpf4jnsgd1na2vs0mg"},{"bike_id":"81c8702b-3bfa-4244-a7d1-644d2c408e8a","system_id":"levelo_inurba_marseille","lat":43.25496,"lon":5.3766,"is_reserved":false,"is_disabled":false,"rental_uris":{"android":"levelo://app?vid=81c8702b-3bfa-4244-a7d1-644d2c408e8a","ios":"levelo://app?vid=81c8702b-3bfa-4244-a7d1-644d2c408e8a"},"vehicle_type_id":"4","last_reported":1729440608,"current_range_meters":28000,"station_id":"ce4bhgh2rcd13ifvqfa0","pricing_plan_id":"cebpf4jnsgd1na2vs0mg"},{"bike_id":"2ac09ecd-d7f3-4a0d-876f-2bb653f1a5d1","system_id":"levelo_inurba_marseille","lat":43.23958,"lon":5.36629,"is_reserved":false,"is_disabled":false,"rental_uris":{"android":"levelo://app?vid=2ac09ecd-d7f3-4a0d-876f-2bb653f1a5d1","ios":"levelo://app?vid=2ac09ecd-d7f3-4a0d-876f-2bb653f1a5d1"},"vehicle_type_id":"4","last_reported":1729440608,"current_range_meters":10800,"station_id":"ce4bhi12rcd13ifvqfp0","pricing_plan_id":"cebpf4jnsgd1na2vs0mg"},{"bike_id":"53b857f9-e9df-4f4f-b6d5-6b395b64293f","system_id":"levelo_inurba_marseille","lat":43.28354,"lon":5.38098,"is_reserved":false,"is_disabled":false,"rental_uris":{"android":"levelo://app?vid=53b857f9-e9df-4f4f-b6d5-6b395b64293f","ios":"levelo://app?vid=53b857f9-e9df-4f4f-b6d5-6b395b64293f"},"vehicle_type_id":"4","last_reported":1729440608,"current_range_meters":12800,"station_id":"ce4bh412rcd13ifvqdr0","pricing_plan_id":"cebpf4jnsgd1na2vs0mg"},{"bike_id":"efe3cf88-77ce-427a-83e3-ddeb1b5f32cf","system_id":"levelo_inurba_marseille","lat":43.31039,"lon":5.40094,"is_reserved":false,"is_disabled":false,"rental_uris":{"android":"levelo://app?vid=efe3cf88-77ce-427a-83e3-ddeb1b5f32cf","ios":"levelo://app?vid=efe3cf88-77ce-427a-83e3-ddeb1b5f32cf"},"vehicle_type_id":"4","last_reported":1729440608,"current_range_meters":34000,"station_id":"","pricing_plan_id":"cebpf4jnsgd1na2vs0mg"},{"bike_id":"64bf1773-f700-4ae0-b101-7b265118c48d","system_id":"levelo_inurba_marseille","lat":43.27993,"lon":5.40022,"is_reserved":false,"is_disabled":false,"rental_uris":{"android":"levelo://app?vid=64bf1773-f700-4ae0-b101-7b265118c48d","ios":"levelo://app?vid=64bf1773-f700-4ae0-b101-7b265118c48d"},"vehicle_type_id":"4","last_reported":1729440608,"current_range_meters":12800,"station_id":"ce4bho92rcd13ifvqh4g","pricing_plan_id":"cebpf4jnsgd1na2vs0mg"},{"bike_id":"62e647cd-6650-46ce-8bca-96330c28a8e3","system_id":"levelo_inurba_marseille","lat":43.31886,"lon":5.40751,"is_reserved":false,"is_disabled":false,"rental_uris":{"android":"levelo://app?vid=62e647cd-6650-46ce-8bca-96330c28a8e3","ios":"levelo://app?vid=62e647cd-6650-46ce-8bca-96330c28a8e3"},"vehicle_type_id":"4","last_reported":1729440608,"current_range_meters":27200,"station_id":"ce4bhq12rcd13ifvqhig","pricing_plan_id":"cebpf4jnsgd1na2vs0mg"},{"bike_id":"9f28a44d-f188-492a-aa2b-246dfda11418","system_id":"levelo_inurba_marseille","lat":43.29782,"lon":5.39344,"is_reserved":false,"is_disabled":false,"rental_uris":{"android":"levelo://app?vid=9f28a44d-f188-492a-aa2b-246dfda11418","ios":"levelo://app?vid=9f28a44d-f188-492a-aa2b-246dfda11418"},"vehicle_type_id":"4","last_reported":1729440608,"current_range_meters":20400,"station_id":"chh1huq6cuj3fo74tm60","pricing_plan_id":"cebpf4jnsgd1na2vs0mg"},{"bike_id":"c261be21-8632-42d2-8152-266a16341d30","system_id":"levelo_inurba_marseille","lat":43.23193,"lon":5.35555,"is_reserved":false,"is_disabled":false,"rental_uris":{"android":"levelo://app?vid=c261be21-8632-42d2-8152-266a16341d30","ios":"levelo://app?vid=c261be21-8632-42d2-8152-266a16341d30"},"vehicle_type_id":"4","last_reported":1729440608,"current_range_meters":18000,"station_id":"ce4bhu92rcd13ifvqi70","pricing_plan_id":"cebpf4jnsgd1na2vs0mg"},{"bike_id":"ec85a2aa-97d4-4706-bc55-861793b934a1","system_id":"levelo_inurba_marseille","lat":43.29533,"lon":5.39036,"is_reserved":false,"is_disabled":false,"rental_uris":{"android":"levelo://app?vid=ec85a2aa-97d4-4706-bc55-861793b934a1","ios":"levelo://app?vid=ec85a2aa-97d4-4706-bc55-861793b934a1"},"vehicle_type_id":"4","last_reported":1729440608,"current_range_meters":10000,"station_id":"ce4bh3p2rcd13ifvqdp0","pricing_plan_id":"cebpf4jnsgd1na2vs0mg"},{"bike_id":"101a8884-55eb-49f9-a14c-b0efbd7a23b0","system_id":"levelo_inurba_marseille","lat":43.314951,"lon":5.373135,"is_reserved":false,"is_disabled":false,"rental_uris":{"android":"levelo://app?vid=101a8884-55eb-49f9-a14c-b0efbd7a23b0","ios":"levelo://app?vid=101a8884-55eb-49f9-a14c-b0efbd7a23b0"},"vehicle_type_id":"4","last_reported":1729440608,"current_range_meters":37600,"station_id":"ce4bgt12rcd13ifvqcd0","pricing_plan_id":"cebpf4jnsgd1na2vs0mg"},{"bike_id":"df7f6844-c272-46b0-9a9f-ec7dd22d6431","system_id":"levelo_inurba_marseille","lat":43.26566,"lon":5.39013,"is_reserved":false,"is_disabled":false,"rental_uris":{"android":"levelo://app?vid=df7f6844-c272-46b0-9a9f-ec7dd22d6431","ios":"levelo://app?vid=df7f6844-c272-46b0-9a9f-ec7dd22d6431"},"vehicle_type_id":"4","last_reported":1729440608,"current_range_meters":8000,"station_id":"ce4bhe12rcd13ifvqf30","pricing_plan_id":"cebpf4jnsgd1na2vs0mg"},{"bike_id":"3540cc64-d1fc-4ae7-ace8-a1ed2ca5eab0","system_id":"levelo_inurba_marseille","lat":43.293884,"lon":5.398384,"is_reserved":false,"is_disabled":false,"rental_uris":{"android":"levelo://app?vid=3540cc64-d1fc-4ae7-ace8-a1ed2ca5eab0","ios":"levelo://app?vid=3540cc64-d1fc-4ae7-ace8-a1ed2ca5eab0"},"vehicle_type_id":"4","last_reported":1729440608,"current_range_meters":35600,"station_id":"ce4bh3h2rcd13ifvqdo0","pricing_plan_id":"cebpf4jnsgd1na2vs0mg"},{"bike_id":"502e1ca2-804b-4525-9168-a2a881d0398f","system_id":"levelo_inurba_marseille","lat":43.26762,"lon":5.39442,"is_reserved":false,"is_disabled":false,"rental_uris":{"android":"levelo://app?vid=502e1ca2-804b-4525-9168-a2a881d0398f","ios":"levelo://app?vid=502e1ca2-804b-4525-9168-a2a881d0398f"},"vehicle_type_id":"4","last_reported":1729440608,"current_range_meters":13600,"station_id":"ce4bhh12rcd13ifvqfg0","pricing_plan_id":"cebpf4jnsgd1na2vs0mg"},{"bike_id":"e7966b91-0697-4020-ae05-523388b63a80","system_id":"levelo_inurba_marseille","lat":43.273031,"lon":5.391104,"is_reserved":false,"is_disabled":false,"rental_uris":{"android":"levelo://app?vid=e7966b91-0697-4020-ae05-523388b63a80","ios":"levelo://app?vid=e7966b91-0697-4020-ae05-523388b63a80"},"vehicle_type_id":"4","last_reported":1729440608,"current_range_meters":4400,"station_id":"","pricing_plan_id":"cebpf4jnsgd1na2vs0mg"},{"bike_id":"96295fb3-5220-4a8e-a547-3b606d783494","system_id":"levelo_inurba_marseille","lat":43.28657,"lon":5.36343,"is_reserved":false,"is_disabled":false,"rental_uris":{"android":"levelo://app?vid=96295fb3-5220-4a8e-a547-3b606d783494","ios":"levelo://app?vid=96295fb3-5220-4a8e-a547-3b606d783494"},"vehicle_type_id":"4","last_reported":1729440608,"current_range_meters":8800,"station_id":"ce4bhah2rcd13ifvqej0","pricing_plan_id":"cebpf4jnsgd1na2vs0mg"},{"bike_id":"d96ec20b-dc54-477e-aa46-6ea9351c0eed","system_id":"levelo_inurba_marseille","lat":43.3249,"lon":5.36577,"is_reserved":false,"is_disabled":false,"rental_uris":{"android":"levelo://app?vid=d96ec20b-dc54-477e-aa46-6ea9351c0eed","ios":"levelo://app?vid=d96ec20b-dc54-477e-aa46-6ea9351c0eed"},"vehicle_type_id":"4","last_reported":1729440608,"current_range_meters":31200,"station_id":"ce4bhs12rcd13ifvqhvg","pricing_plan_id":"cebpf4jnsgd1na2vs0mg"},{"bike_id":"44d13ed4-5620-499e-b753-dc706426994e","system_id":"levelo_inurba_marseille","lat":43.25579,"lon":5.38232,"is_reserved":false,"is_disabled":false,"rental_uris":{"android":"levelo://app?vid=44d13ed4-5620-499e-b753-dc706426994e","ios":"levelo://app?vid=44d13ed4-5620-499e-b753-dc706426994e"},"vehicle_type_id":"4","last_reported":1729440608,"current_range_meters":36800,"station_id":"ce4bhih2rcd13ifvqfs0","pricing_plan_id":"cebpf4jnsgd1na2vs0mg"},{"bike_id":"0bfadfd9-9d5c-4e8f-ad6a-8f4c79022ee6","system_id":"levelo_inurba_marseille","lat":43.24799,"lon":5.37457,"is_reserved":false,"is_disabled":false,"rental_uris":{"android":"levelo://app?vid=0bfadfd9-9d5c-4e8f-ad6a-8f4c79022ee6","ios":"levelo://app?vid=0bfadfd9-9d5c-4e8f-ad6a-8f4c79022ee6"},"vehicle_type_id":"4","last_reported":1729440608,"current_range_meters":38800,"station_id":"ce4bhgh2rcd13ifvqfb0","pricing_plan_id":"cebpf4jnsgd1na2vs0mg"},{"bike_id":"70bc63b5-ed2d-4340-8298-d2657e438d8a","system_id":"levelo_inurba_marseille","lat":43.288635,"lon":5.355795,"is_reserved":false,"is_disabled":false,"rental_uris":{"android":"levelo://app?vid=70bc63b5-ed2d-4340-8298-d2657e438d8a","ios":"levelo://app?vid=70bc63b5-ed2d-4340-8298-d2657e438d8a"},"vehicle_type_id":"4","last_reported":1729440608,"current_range_meters":28000,"station_id":"ce4bhjp2rcd13ifvqga0","pricing_plan_id":"cebpf4jnsgd1na2vs0mg"},{"bike_id":"b7c023eb-ebb2-4169-90b7-7b2d1bf41824","system_id":"levelo_inurba_marseille","lat":43.24809,"lon":5.37458,"is_reserved":false,"is_disabled":false,"rental_uris":{"android":"levelo://app?vid=b7c023eb-ebb2-4169-90b7-7b2d1bf41824","ios":"levelo://app?vid=b7c023eb-ebb2-4169-90b7-7b2d1bf41824"},"vehicle_type_id":"4","last_reported":1729440608,"current_range_meters":38800,"station_id":"ce4bhgh2rcd13ifvqfb0","pricing_plan_id":"cebpf4jnsgd1na2vs0mg"},{"bike_id":"4d81cd20-240d-41c9-be73-4d74ab6d0d5d","system_id":"levelo_inurba_marseille","lat":43.25584,"lon":5.38229,"is_reserved":false,"is_disabled":false,"rental_uris":{"android":"levelo://app?vid=4d81cd20-240d-41c9-be73-4d74ab6d0d5d","ios":"levelo://app?vid=4d81cd20-240d-41c9-be73-4d74ab6d0d5d"},"vehicle_type_id":"4","last_reported":1729440608,"current_range_meters":8000,"station_id":"ce4bhih2rcd13ifvqfs0","pricing_plan_id":"cebpf4jnsgd1na2vs0mg"},{"bike_id":"72c22c94-7fd1-4322-85ea-0b1169c609fd","system_id":"levelo_inurba_marseille","lat":43.30954,"lon":5.39039,"is_reserved":false,"is_disabled":false,"rental_uris":{"android":"levelo://app?vid=72c22c94-7fd1-4322-85ea-0b1169c609fd","ios":"levelo://app?vid=72c22c94-7fd1-4322-85ea-0b1169c609fd"},"vehicle_type_id":"4","last_reported":1729440608,"current_range_meters":20800,"station_id":"ce4bgup2rcd13ifvqco0","pricing_plan_id":"cebpf4jnsgd1na2vs0mg"},{"bike_id":"15191073-cb98-420c-8fd5-6e79416211c4","system_id":"levelo_inurba_marseille","lat":43.25106,"lon":5.40325,"is_reserved":false,"is_disabled":false,"rental_uris":{"android":"levelo://app?vid=15191073-cb98-420c-8fd5-6e79416211c4","ios":"levelo://app?vid=15191073-cb98-420c-8fd5-6e79416211c4"},"vehicle_type_id":"4","last_reported":1729440608,"current_range_meters":36000,"station_id":"ce4bhlh2rcd13ifvqgig","pricing_plan_id":"cebpf4jnsgd1na2vs0mg"},{"bike_id":"4b6ebccf-4bfc-47bd-abcc-8ad0f8f022e7","system_id":"levelo_inurba_marseille","lat":43.29929,"lon":5.36549,"is_reserved":false,"is_disabled":false,"rental_uris":{"android":"levelo://app?vid=4b6ebccf-4bfc-47bd-abcc-8ad0f8f022e7","ios":"levelo://app?vid=4b6ebccf-4bfc-47bd-abcc-8ad0f8f022e7"},"vehicle_type_id":"4","last_reported":1729440608,"current_range_meters":21600,"station_id":"ce4bgm92rcd13ifvqbr0","pricing_plan_id":"cebpf4jnsgd1na2vs0mg"},{"bike_id":"05d8f56a-f1ac-48ef-a47e-9201bf482ff2","system_id":"levelo_inurba_marseille","lat":43.27069,"lon":5.42281,"is_reserved":false,"is_disabled":false,"rental_uris":{"android":"levelo://app?vid=05d8f56a-f1ac-48ef-a47e-9201bf482ff2","ios":"levelo://app?vid=05d8f56a-f1ac-48ef-a47e-9201bf482ff2"},"vehicle_type_id":"4","last_reported":1729440608,"current_range_meters":8400,"station_id":"ce4bhk92rcd13ifvqgb0","pricing_plan_id":"cebpf4jnsgd1na2vs0mg"},{"bike_id":"766b98e2-1d00-4fc5-8a2a-50a7d0a29d4a","system_id":"levelo_inurba_marseille","lat":43.32041,"lon":5.41567,"is_reserved":false,"is_disabled":false,"rental_uris":{"android":"levelo://app?vid=766b98e2-1d00-4fc5-8a2a-50a7d0a29d4a","ios":"levelo://app?vid=766b98e2-1d00-4fc5-8a2a-50a7d0a29d4a"},"vehicle_type_id":"4","last_reported":1729440608,"current_range_meters":38800,"station_id":"ce4bhq92rcd13ifvqhkg","pricing_plan_id":"cebpf4jnsgd1na2vs0mg"},{"bike_id":"90122bb4-12c8-47e1-a4d2-34c422cb6f6a","system_id":"levelo_inurba_marseille","lat":43.31073,"lon":5.40079,"is_reserved":false,"is_disabled":false,"rental_uris":{"android":"levelo://app?vid=90122bb4-12c8-47e1-a4d2-34c422cb6f6a","ios":"levelo://app?vid=90122bb4-12c8-47e1-a4d2-34c422cb6f6a"},"vehicle_type_id":"4","last_reported":1729440608,"current_range_meters":16800,"station_id":"","pricing_plan_id":"cebpf4jnsgd1na2vs0mg"},{"bike_id":"a4f4fd68-a9a9-42db-8017-602a2358fb3c","system_id":"levelo_inurba_marseille","lat":43.29259,"lon":5.38436,"is_reserved":false,"is_disabled":false,"rental_uris":{"android":"levelo://app?vid=a4f4fd68-a9a9-42db-8017-602a2358fb3c","ios":"levelo://app?vid=a4f4fd68-a9a9-42db-8017-602a2358fb3c"},"vehicle_type_id":"4","last_reported":1729440608,"current_range_meters":36000,"station_id":"","pricing_plan_id":"cebpf4jnsgd1na2vs0mg"},{"bike_id":"d89b89ce-60ea-48e5-8b0b-cd3dd91668a5","system_id":"levelo_inurba_marseille","lat":43.261902,"lon":5.374529,"is_reserved":false,"is_disabled":false,"rental_uris":{"android":"levelo://app?vid=d89b89ce-60ea-48e5-8b0b-cd3dd91668a5","ios":"levelo://app?vid=d89b89ce-60ea-48e5-8b0b-cd3dd91668a5"},"vehicle_type_id":"4","last_reported":1729440608,"current_range_meters":27200,"station_id":"ce4bhgp2rcd13ifvqfc0","pricing_plan_id":"cebpf4jnsgd1na2vs0mg"},{"bike_id":"4a24307f-7693-45f4-8a61-e6339da1657a","system_id":"levelo_inurba_marseille","lat":43.29189,"lon":5.3932,"is_reserved":false,"is_disabled":false,"rental_uris":{"android":"levelo://app?vid=4a24307f-7693-45f4-8a61-e6339da1657a","ios":"levelo://app?vid=4a24307f-7693-45f4-8a61-e6339da1657a"},"vehicle_type_id":"4","last_reported":1729440608,"current_range_meters":38000,"station_id":"ce4bh192rcd13ifvqdd0","pricing_plan_id":"cebpf4jnsgd1na2vs0mg"},{"bike_id":"c1f5b033-115c-40c5-81cd-25fae81f0e04","system_id":"levelo_inurba_marseille","lat":43.28703,"lon":5.37392,"is_reserved":false,"is_disabled":false,"rental_uris":{"android":"levelo://app?vid=c1f5b033-115c-40c5-81cd-25fae81f0e04","ios":"levelo://app?vid=c1f5b033-115c-40c5-81cd-25fae81f0e04"},"vehicle_type_id":"4","last_reported":1729440608,"current_range_meters":27200,"station_id":"ce4bh3p2rcd13ifvqdq0","pricing_plan_id":"cebpf4jnsgd1na2vs0mg"},{"bike_id":"9aa70158-d1f1-49c4-85e5-cd54ef024293","system_id":"levelo_inurba_marseille","lat":43.29271,"lon":5.38448,"is_reserved":false,"is_disabled":false,"rental_uris":{"android":"levelo://app?vid=9aa70158-d1f1-49c4-85e5-cd54ef024293","ios":"levelo://app?vid=9aa70158-d1f1-49c4-85e5-cd54ef024293"},"vehicle_type_id":"4","last_reported":1729440608,"current_range_meters":13600,"station_id":"","pricing_plan_id":"cebpf4jnsgd1na2vs0mg"},{"bike_id":"fe10a1f4-b2dd-492a-a172-3ff6f3b2037e","system_id":"levelo_inurba_marseille","lat":43.26552,"lon":5.37286,"is_reserved":false,"is_disabled":false,"rental_uris":{"android":"levelo://app?vid=fe10a1f4-b2dd-492a-a172-3ff6f3b2037e","ios":"levelo://app?vid=fe10a1f4-b2dd-492a-a172-3ff6f3b2037e"},"vehicle_type_id":"4","last_reported":1729440608,"current_range_meters":2000,"station_id":"ce4bhg12rcd13ifvqf70","pricing_plan_id":"cebpf4jnsgd1na2vs0mg"},{"bike_id":"606f86f8-0dd3-4ecc-8cbd-43ee6e941b67","system_id":"levelo_inurba_marseille","lat":43.23181,"lon":5.39998,"is_reserved":false,"is_disabled":false,"rental_uris":{"android":"levelo://app?vid=606f86f8-0dd3-4ecc-8cbd-43ee6e941b67","ios":"levelo://app?vid=606f86f8-0dd3-4ecc-8cbd-43ee6e941b67"},"vehicle_type_id":"4","last_reported":1729440608,"current_range_meters":37600,"station_id":"ce4bhn12rcd13ifvqgqg","pricing_plan_id":"cebpf4jnsgd1na2vs0mg"},{"bike_id":"ab5217ac-696f-47ea-accf-7f46c4063444","system_id":"levelo_inurba_marseille","lat":43.337444,"lon":5.374475,"is_reserved":false,"is_disabled":false,"rental_uris":{"android":"levelo://app?vid=ab5217ac-696f-47ea-accf-7f46c4063444","ios":"levelo://app?vid=ab5217ac-696f-47ea-accf-7f46c4063444"},"vehicle_type_id":"4","last_reported":1729440608,"current_range_meters":11600,"station_id":"","pricing_plan_id":"cebpf4jnsgd1na2vs0mg"},{"bike_id":"a8fd6ad2-c92b-4b5a-8d70-08b01b56b9e8","system_id":"levelo_inurba_marseille","lat":43.33177,"lon":5.4196,"is_reserved":false,"is_disabled":false,"rental_uris":{"android":"levelo://app?vid=a8fd6ad2-c92b-4b5a-8d70-08b01b56b9e8","ios":"levelo://app?vid=a8fd6ad2-c92b-4b5a-8d70-08b01b56b9e8"},"vehicle_type_id":"4","last_reported":1729440608,"current_range_meters":20000,"station_id":"ce4bhq12rcd13ifvqhhg","pricing_plan_id":"cebpf4jnsgd1na2vs0mg"},{"bike_id":"b94a40fc-74ba-493b-8132-4d6d44690820","system_id":"levelo_inurba_marseille","lat":43.23962,"lon":5.36623,"is_reserved":false,"is_disabled":false,"rental_uris":{"android":"levelo://app?vid=b94a40fc-74ba-493b-8132-4d6d44690820","ios":"levelo://app?vid=b94a40fc-74ba-493b-8132-4d6d44690820"},"vehicle_type_id":"4","last_reported":1729440608,"current_range_meters":23200,"station_id":"ce4bhi12rcd13ifvqfp0","pricing_plan_id":"cebpf4jnsgd1na2vs0mg"},{"bike_id":"d6cbf1fd-d26b-40a8-b129-6d832e48ea11","system_id":"levelo_inurba_marseille","lat":43.27807,"lon":5.40721,"is_reserved":false,"is_disabled":false,"rental_uris":{"android":"levelo://app?vid=d6cbf1fd-d26b-40a8-b129-6d832e48ea11","ios":"levelo://app?vid=d6cbf1fd-d26b-40a8-b129-6d832e48ea11"},"vehicle_type_id":"4","last_reported":1729440608,"current_range_meters":2000,"station_id":"ce4bhnh2rcd13ifvqgtg","pricing_plan_id":"cebpf4jnsgd1na2vs0mg"},{"bike_id":"b170c69c-4089-4321-bba9-c9612fefa913","system_id":"levelo_inurba_marseille","lat":43.32451,"lon":5.38405,"is_reserved":false,"is_disabled":false,"rental_uris":{"android":"levelo://app?vid=b170c69c-4089-4321-bba9-c9612fefa913","ios":"levelo://app?vid=b170c69c-4089-4321-bba9-c9612fefa913"},"vehicle_type_id":"4","last_reported":1729440608,"current_range_meters":15200,"station_id":"ce4bhr12rcd13ifvqhqg","pricing_plan_id":"cebpf4jnsgd1na2vs0mg"},{"bike_id":"38f139e3-1402-46f8-8f4c-f870e4158ea5","system_id":"levelo_inurba_marseille","lat":43.29038,"lon":5.39968,"is_reserved":false,"is_disabled":false,"rental_uris":{"android":"levelo://app?vid=38f139e3-1402-46f8-8f4c-f870e4158ea5","ios":"levelo://app?vid=38f139e3-1402-46f8-8f4c-f870e4158ea5"},"vehicle_type_id":"4","last_reported":1729440608,"current_range_meters":14800,"station_id":"ce4bh392rcd13ifvqdm0","pricing_plan_id":"cebpf4jnsgd1na2vs0mg"},{"bike_id":"4ddd2764-417c-4396-a1a2-1e84c9140b70","system_id":"levelo_inurba_marseille","lat":43.26202,"lon":5.37933,"is_reserved":false,"is_disabled":false,"rental_uris":{"android":"levelo://app?vid=4ddd2764-417c-4396-a1a2-1e84c9140b70","ios":"levelo://app?vid=4ddd2764-417c-4396-a1a2-1e84c9140b70"},"vehicle_type_id":"4","last_reported":1729440608,"current_range_meters":6800,"station_id":"ce4bhjp2rcd13ifvqg90","pricing_plan_id":"cebpf4jnsgd1na2vs0mg"},{"bike_id":"ee43195e-200b-4bec-985b-13f929c0947a","system_id":"levelo_inurba_marseille","lat":43.30543,"lon":5.36723,"is_reserved":false,"is_disabled":false,"rental_uris":{"android":"levelo://app?vid=ee43195e-200b-4bec-985b-13f929c0947a","ios":"levelo://app?vid=ee43195e-200b-4bec-985b-13f929c0947a"},"vehicle_type_id":"4","last_reported":1729440608,"current_range_meters":8400,"station_id":"ce4bgrp2rcd13ifvqc9g","pricing_plan_id":"cebpf4jnsgd1na2vs0mg"},{"bike_id":"116ff3b9-be6e-47ed-856a-7b484a953f3b","system_id":"levelo_inurba_marseille","lat":43.2319,"lon":5.35569,"is_reserved":false,"is_disabled":false,"rental_uris":{"android":"levelo://app?vid=116ff3b9-be6e-47ed-856a-7b484a953f3b","ios":"levelo://app?vid=116ff3b9-be6e-47ed-856a-7b484a953f3b"},"vehicle_type_id":"4","last_reported":1729440608,"current_range_meters":38400,"station_id":"ce4bhu92rcd13ifvqi70","pricing_plan_id":"cebpf4jnsgd1na2vs0mg"},{"bike_id":"dfaa52d8-cb06-46fc-a8e4-c95843a2eca2","system_id":"levelo_inurba_marseille","lat":43.23957,"lon":5.36628,"is_reserved":false,"is_disabled":false,"rental_uris":{"android":"levelo://app?vid=dfaa52d8-cb06-46fc-a8e4-c95843a2eca2","ios":"levelo://app?vid=dfaa52d8-cb06-46fc-a8e4-c95843a2eca2"},"vehicle_type_id":"4","last_reported":1729440608,"current_range_meters":16000,"station_id":"ce4bhi12rcd13ifvqfp0","pricing_plan_id":"cebpf4jnsgd1na2vs0mg"},{"bike_id":"3583a11b-574b-447c-b7ff-22d10bcdd969","system_id":"levelo_inurba_marseille","lat":43.28612,"lon":5.37064,"is_reserved":false,"is_disabled":false,"rental_uris":{"android":"levelo://app?vid=3583a11b-574b-447c-b7ff-22d10bcdd969","ios":"levelo://app?vid=3583a11b-574b-447c-b7ff-22d10bcdd969"},"vehicle_type_id":"4","last_reported":1729440608,"current_range_meters":8400,"station_id":"ce4bht12rcd13ifvqi60","pricing_plan_id":"cebpf4jnsgd1na2vs0mg"},{"bike_id":"346c0bea-50e5-4208-a02f-a7b52551ab22","system_id":"levelo_inurba_marseille","lat":43.2481,"lon":5.3746,"is_reserved":false,"is_disabled":false,"rental_uris":{"android":"levelo://app?vid=346c0bea-50e5-4208-a02f-a7b52551ab22","ios":"levelo://app?vid=346c0bea-50e5-4208-a02f-a7b52551ab22"},"vehicle_type_id":"4","last_reported":1729440608,"current_range_meters":38800,"station_id":"ce4bhgh2rcd13ifvqfb0","pricing_plan_id":"cebpf4jnsgd1na2vs0mg"},{"bike_id":"b1fe61fb-a4b9-4dd0-ae5c-1ec1111e82d2","system_id":"levelo_inurba_marseille","lat":43.31755,"lon":5.3902,"is_reserved":false,"is_disabled":false,"rental_uris":{"android":"levelo://app?vid=b1fe61fb-a4b9-4dd0-ae5c-1ec1111e82d2","ios":"levelo://app?vid=b1fe61fb-a4b9-4dd0-ae5c-1ec1111e82d2"},"vehicle_type_id":"4","last_reported":1729440608,"current_range_meters":26000,"station_id":"ce4bhqp2rcd13ifvqhng","pricing_plan_id":"cebpf4jnsgd1na2vs0mg"},{"bike_id":"460d5c2c-f145-4925-ba3b-5872fb3423dd","system_id":"levelo_inurba_marseille","lat":43.23188,"lon":5.35567,"is_reserved":false,"is_disabled":false,"rental_uris":{"android":"levelo://app?vid=460d5c2c-f145-4925-ba3b-5872fb3423dd","ios":"levelo://app?vid=460d5c2c-f145-4925-ba3b-5872fb3423dd"},"vehicle_type_id":"4","last_reported":1729440608,"current_range_meters":11200,"station_id":"ce4bhu92rcd13ifvqi70","pricing_plan_id":"cebpf4jnsgd1na2vs0mg"},{"bike_id":"305ed050-fc47-4a6e-aeda-b5b0d5322536","system_id":"levelo_inurba_marseille","lat":43.28269,"lon":5.40242,"is_reserved":false,"is_disabled":false,"rental_uris":{"android":"levelo://app?vid=305ed050-fc47-4a6e-aeda-b5b0d5322536","ios":"levelo://app?vid=305ed050-fc47-4a6e-aeda-b5b0d5322536"},"vehicle_type_id":"4","last_reported":1729440608,"current_range_meters":8400,"station_id":"ce4bhnh2rcd13ifvqgug","pricing_plan_id":"cebpf4jnsgd1na2vs0mg"},{"bike_id":"03fe2879-3da2-4096-9770-0c3aca95ca84","system_id":"levelo_inurba_marseille","lat":43.28154,"lon":5.42647,"is_reserved":false,"is_disabled":false,"rental_uris":{"android":"levelo://app?vid=03fe2879-3da2-4096-9770-0c3aca95ca84","ios":"levelo://app?vid=03fe2879-3da2-4096-9770-0c3aca95ca84"},"vehicle_type_id":"4","last_reported":1729440608,"current_range_meters":22800,"station_id":"ce4bhnh2rcd13ifvqgug","pricing_plan_id":"cebpf4jnsgd1na2vs0mg"},{"bike_id":"99784c89-408b-47f1-b49f-58d3ca57068d","system_id":"levelo_inurba_marseille","lat":43.29962,"lon":5.41328,"is_reserved":false,"is_disabled":false,"rental_uris":{"android":"levelo://app?vid=99784c89-408b-47f1-b49f-58d3ca57068d","ios":"levelo://app?vid=99784c89-408b-47f1-b49f-58d3ca57068d"},"vehicle_type_id":"4","last_reported":1729440608,"current_range_meters":33200,"station_id":"ce4bhp12rcd13ifvqh9g","pricing_plan_id":"cebpf4jnsgd1na2vs0mg"},{"bike_id":"67935990-c302-4ed7-9e2a-5051f9eb220f","system_id":"levelo_inurba_marseille","lat":43.23957,"lon":5.3663,"is_reserved":false,"is_disabled":false,"rental_uris":{"android":"levelo://app?vid=67935990-c302-4ed7-9e2a-5051f9eb220f","ios":"levelo://app?vid=67935990-c302-4ed7-9e2a-5051f9eb220f"},"vehicle_type_id":"4","last_reported":1729440608,"current_range_meters":22800,"station_id":"ce4bhi12rcd13ifvqfp0","pricing_plan_id":"cebpf4jnsgd1na2vs0mg"},{"bike_id":"c28314ac-c9c3-464a-b21f-10bfac8b1f10","system_id":"levelo_inurba_marseille","lat":43.29747,"lon":5.3807,"is_reserved":false,"is_disabled":false,"rental_uris":{"android":"levelo://app?vid=c28314ac-c9c3-464a-b21f-10bfac8b1f10","ios":"levelo://app?vid=c28314ac-c9c3-464a-b21f-10bfac8b1f10"},"vehicle_type_id":"4","last_reported":1729440608,"current_range_meters":22800,"station_id":"ce4bgn12rcd13ifvqbt0","pricing_plan_id":"cebpf4jnsgd1na2vs0mg"},{"bike_id":"611556d9-b6d1-4180-a605-db7d161be1e5","system_id":"levelo_inurba_marseille","lat":43.24163,"lon":5.36397,"is_reserved":false,"is_disabled":false,"rental_uris":{"android":"levelo://app?vid=611556d9-b6d1-4180-a605-db7d161be1e5","ios":"levelo://app?vid=611556d9-b6d1-4180-a605-db7d161be1e5"},"vehicle_type_id":"4","last_reported":1729440608,"current_range_meters":26000,"station_id":"cpo36qri1sfpv3e86is0","pricing_plan_id":"cebpf4jnsgd1na2vs0mg"},{"bike_id":"c8b1c338-0a34-4e11-8844-08ae12da6c5b","system_id":"levelo_inurba_marseille","lat":43.30795,"lon":5.43528,"is_reserved":false,"is_disabled":false,"rental_uris":{"android":"levelo://app?vid=c8b1c338-0a34-4e11-8844-08ae12da6c5b","ios":"levelo://app?vid=c8b1c338-0a34-4e11-8844-08ae12da6c5b"},"vehicle_type_id":"4","last_reported":1729440608,"current_range_meters":38000,"station_id":"ce4bhph2rcd13ifvqheg","pricing_plan_id":"cebpf4jnsgd1na2vs0mg"},{"bike_id":"5050e9ab-4d64-4a3f-9d68-5efab3270aff","system_id":"levelo_inurba_marseille","lat":43.28442,"lon":5.39205,"is_reserved":false,"is_disabled":false,"rental_uris":{"android":"levelo://app?vid=5050e9ab-4d64-4a3f-9d68-5efab3270aff","ios":"levelo://app?vid=5050e9ab-4d64-4a3f-9d68-5efab3270aff"},"vehicle_type_id":"4","last_reported":1729440608,"current_range_meters":3600,"station_id":"ce4bhoh2rcd13ifvqh5g","pricing_plan_id":"cebpf4jnsgd1na2vs0mg"},{"bike_id":"6311f596-daec-48f5-92e7-240c458db6c9","system_id":"levelo_inurba_marseille","lat":43.31753,"lon":5.39025,"is_reserved":false,"is_disabled":false,"rental_uris":{"android":"levelo://app?vid=6311f596-daec-48f5-92e7-240c458db6c9","ios":"levelo://app?vid=6311f596-daec-48f5-92e7-240c458db6c9"},"vehicle_type_id":"4","last_reported":1729440608,"current_range_meters":33600,"station_id":"ce4bhqp2rcd13ifvqhng","pricing_plan_id":"cebpf4jnsgd1na2vs0mg"},{"bike_id":"5507011e-e136-457a-bc95-160d4e426d20","system_id":"levelo_inurba_marseille","lat":43.27172,"lon":5.40996,"is_reserved":false,"is_disabled":false,"rental_uris":{"android":"levelo://app?vid=5507011e-e136-457a-bc95-160d4e426d20","ios":"levelo://app?vid=5507011e-e136-457a-bc95-160d4e426d20"},"vehicle_type_id":"4","last_reported":1729440608,"current_range_meters":20000,"station_id":"ce4bhl12rcd13ifvqgf0","pricing_plan_id":"cebpf4jnsgd1na2vs0mg"},{"bike_id":"acce8f49-e830-4a1b-b57f-c163fc0244a3","system_id":"levelo_inurba_marseille","lat":43.27494,"lon":5.42458,"is_reserved":false,"is_disabled":false,"rental_uris":{"android":"levelo://app?vid=acce8f49-e830-4a1b-b57f-c163fc0244a3","ios":"levelo://app?vid=acce8f49-e830-4a1b-b57f-c163fc0244a3"},"vehicle_type_id":"4","last_reported":1729440608,"current_range_meters":14400,"station_id":"ce4bhn92rcd13ifvqgrg","pricing_plan_id":"cebpf4jnsgd1na2vs0mg"},{"bike_id":"86f95809-82de-4cba-ab15-4a620d94bd5b","system_id":"levelo_inurba_marseille","lat":43.28609,"lon":5.37062,"is_reserved":false,"is_disabled":false,"rental_uris":{"android":"levelo://app?vid=86f95809-82de-4cba-ab15-4a620d94bd5b","ios":"levelo://app?vid=86f95809-82de-4cba-ab15-4a620d94bd5b"},"vehicle_type_id":"4","last_reported":1729440608,"current_range_meters":8400,"station_id":"ce4bht12rcd13ifvqi60","pricing_plan_id":"cebpf4jnsgd1na2vs0mg"},{"bike_id":"f4d17b5c-90a8-4fb7-83e1-b46fe80f1880","system_id":"levelo_inurba_marseille","lat":43.30674,"lon":5.37479,"is_reserved":false,"is_disabled":false,"rental_uris":{"android":"levelo://app?vid=f4d17b5c-90a8-4fb7-83e1-b46fe80f1880","ios":"levelo://app?vid=f4d17b5c-90a8-4fb7-83e1-b46fe80f1880"},"vehicle_type_id":"4","last_reported":1729440608,"current_range_meters":6000,"station_id":"ce4bgv92rcd13ifvqcq0","pricing_plan_id":"cebpf4jnsgd1na2vs0mg"},{"bike_id":"351f4222-c3db-4468-8d09-462fb6a65222","system_id":"levelo_inurba_marseille","lat":43.2465,"lon":5.38897,"is_reserved":false,"is_disabled":false,"rental_uris":{"android":"levelo://app?vid=351f4222-c3db-4468-8d09-462fb6a65222","ios":"levelo://app?vid=351f4222-c3db-4468-8d09-462fb6a65222"},"vehicle_type_id":"4","last_reported":1729440608,"current_range_meters":28400,"station_id":"ce4bhg12rcd13ifvqf60","pricing_plan_id":"cebpf4jnsgd1na2vs0mg"},{"bike_id":"fcc6e016-340a-46d4-b2c1-da7bdb734769","system_id":"levelo_inurba_marseille","lat":43.28158,"lon":5.4265,"is_reserved":false,"is_disabled":false,"rental_uris":{"android":"levelo://app?vid=fcc6e016-340a-46d4-b2c1-da7bdb734769","ios":"levelo://app?vid=fcc6e016-340a-46d4-b2c1-da7bdb734769"},"vehicle_type_id":"4","last_reported":1729440608,"current_range_meters":36400,"station_id":"ce4bhnh2rcd13ifvqgug","pricing_plan_id":"cebpf4jnsgd1na2vs0mg"},{"bike_id":"37fd51a3-e139-4b4d-a6f8-c6c878120739","system_id":"levelo_inurba_marseille","lat":43.23963,"lon":5.36617,"is_reserved":false,"is_disabled":false,"rental_uris":{"android":"levelo://app?vid=37fd51a3-e139-4b4d-a6f8-c6c878120739","ios":"levelo://app?vid=37fd51a3-e139-4b4d-a6f8-c6c878120739"},"vehicle_type_id":"4","last_reported":1729440608,"current_range_meters":32400,"station_id":"ce4bhi12rcd13ifvqfp0","pricing_plan_id":"cebpf4jnsgd1na2vs0mg"},{"bike_id":"c3c91eb8-0c5f-479b-b949-d2c7ed720ff5","system_id":"levelo_inurba_marseille","lat":43.30532,"lon":5.36547,"is_reserved":false,"is_disabled":false,"rental_uris":{"android":"levelo://app?vid=c3c91eb8-0c5f-479b-b949-d2c7ed720ff5","ios":"levelo://app?vid=c3c91eb8-0c5f-479b-b949-d2c7ed720ff5"},"vehicle_type_id":"4","last_reported":1729440608,"current_range_meters":4400,"station_id":"ce4bgs12rcd13ifvqcag","pricing_plan_id":"cebpf4jnsgd1na2vs0mg"},{"bike_id":"1f886e79-cc55-4b65-a77f-235699bee344","system_id":"levelo_inurba_marseille","lat":43.26786,"lon":5.39413,"is_reserved":false,"is_disabled":false,"rental_uris":{"android":"levelo://app?vid=1f886e79-cc55-4b65-a77f-235699bee344","ios":"levelo://app?vid=1f886e79-cc55-4b65-a77f-235699bee344"},"vehicle_type_id":"4","last_reported":1729440608,"current_range_meters":20400,"station_id":"ce4bhh12rcd13ifvqfg0","pricing_plan_id":"cebpf4jnsgd1na2vs0mg"},{"bike_id":"01d2312e-6c42-431e-bb41-99f61dd1a0ca","system_id":"levelo_inurba_marseille","lat":43.3366,"lon":5.39224,"is_reserved":false,"is_disabled":false,"rental_uris":{"android":"levelo://app?vid=01d2312e-6c42-431e-bb41-99f61dd1a0ca","ios":"levelo://app?vid=01d2312e-6c42-431e-bb41-99f61dd1a0ca"},"vehicle_type_id":"4","last_reported":1729440608,"current_range_meters":25200,"station_id":"","pricing_plan_id":"cebpf4jnsgd1na2vs0mg"},{"bike_id":"fcbfabe6-78fe-4117-8884-d9ff865bce9b","system_id":"levelo_inurba_marseille","lat":43.27617,"lon":5.36103,"is_reserved":false,"is_disabled":false,"rental_uris":{"android":"levelo://app?vid=fcbfabe6-78fe-4117-8884-d9ff865bce9b","ios":"levelo://app?vid=fcbfabe6-78fe-4117-8884-d9ff865bce9b"},"vehicle_type_id":"4","last_reported":1729440608,"current_range_meters":8800,"station_id":"ce4bgj92rcd13ifvqbe0","pricing_plan_id":"cebpf4jnsgd1na2vs0mg"},{"bike_id":"1d26d641-7496-4821-b5a9-625ace6a0900","system_id":"levelo_inurba_marseille","lat":43.32209,"lon":5.38697,"is_reserved":false,"is_disabled":false,"rental_uris":{"android":"levelo://app?vid=1d26d641-7496-4821-b5a9-625ace6a0900","ios":"levelo://app?vid=1d26d641-7496-4821-b5a9-625ace6a0900"},"vehicle_type_id":"4","last_reported":1729440608,"current_range_meters":38000,"station_id":"","pricing_plan_id":"cebpf4jnsgd1na2vs0mg"},{"bike_id":"5b22c315-431e-486a-b731-c8a793265da3","system_id":"levelo_inurba_marseille","lat":43.28937,"lon":5.39645,"is_reserved":false,"is_disabled":false,"rental_uris":{"android":"levelo://app?vid=5b22c315-431e-486a-b731-c8a793265da3","ios":"levelo://app?vid=5b22c315-431e-486a-b731-c8a793265da3"},"vehicle_type_id":"4","last_reported":1729440608,"current_range_meters":36800,"station_id":"ce4bh3h2rcd13ifvqdn0","pricing_plan_id":"cebpf4jnsgd1na2vs0mg"},{"bike_id":"2647329d-bdd5-4c89-a44d-1a89e6ef6768","system_id":"levelo_inurba_marseille","lat":43.32334,"lon":5.40623,"is_reserved":false,"is_disabled":false,"rental_uris":{"android":"levelo://app?vid=2647329d-bdd5-4c89-a44d-1a89e6ef6768","ios":"levelo://app?vid=2647329d-bdd5-4c89-a44d-1a89e6ef6768"},"vehicle_type_id":"4","last_reported":1729440608,"current_range_meters":2000,"station_id":"ce4bhq92rcd13ifvqhjg","pricing_plan_id":"cebpf4jnsgd1na2vs0mg"},{"bike_id":"fd61f365-7204-45e4-a96e-a1ab4fe206d0","system_id":"levelo_inurba_marseille","lat":43.29012,"lon":5.38139,"is_reserved":false,"is_disabled":false,"rental_uris":{"android":"levelo://app?vid=fd61f365-7204-45e4-a96e-a1ab4fe206d0","ios":"levelo://app?vid=fd61f365-7204-45e4-a96e-a1ab4fe206d0"},"vehicle_type_id":"4","last_reported":1729440608,"current_range_meters":4000,"station_id":"ce4bh4p2rcd13ifvqe1g","pricing_plan_id":"cebpf4jnsgd1na2vs0mg"},{"bike_id":"c395d2db-4fe5-4dce-85e2-7b93b1420be0","system_id":"levelo_inurba_marseille","lat":43.291687,"lon":5.371427,"is_reserved":false,"is_disabled":false,"rental_uris":{"android":"levelo://app?vid=c395d2db-4fe5-4dce-85e2-7b93b1420be0","ios":"levelo://app?vid=c395d2db-4fe5-4dce-85e2-7b93b1420be0"},