{"last_updated":1751119728,"ttl":60,"version":"2.2","data":{"bikes":[{"bike_id":"3da29fb8-fc97-44c6-b9ac-31dd456b2fd4","system_id":"levelo_inurba_marseille","lat":43.33771,"lon":5.37424,"is_reserved":false,"is_disabled":true,"rental_uris":{"android":"levelo://app?vid=3da29fb8-fc97-44c6-b9ac-31dd456b2fd4","ios":"levelo://app?vid=3da29fb8-fc97-44c6-b9ac-31dd456b2fd4"},"vehicle_type_id":"4","last_reported":1751119728,"current_range_meters":0,"station_id":"","pricing_plan_id":"cebpf4jnsgd1na2vs0mg"},{"bike_id":"01861ad8-a8d7-4be6-816e-651927c87584","system_id":"levelo_inurba_marseille","lat":43.33751,"lon":5.37456,"is_reserved":false,"is_disabled":true,"rental_uris":{"android":"levelo://app?vid=01861ad8-a8d7-4be6-816e-651927c87584","ios":"levelo://app?vid=01861ad8-a8d7-4be6-816e-651927c87584"},"vehicle_type_id":"4","last_reported":1751119728,"current_range_meters":0,"station_id":"","pricing_plan_id":"cebpf4jnsgd1na2vs0mg"},{"bike_id":"e9a7f2ce-f5b2-41e5-b572-5533013492a4","system_id":"levelo_inurba_marseille","lat":43.337444,"lon":5.374475,"is_reserved":false,"is_disabled":true,"rental_uris":{"android":"levelo://app?vid=e9a7f2ce-f5b2-41e5-b572-5533013492a4","ios":"levelo://app?vid=e9a7f2ce-f5b2-41e5-b572-5533013492a4"},"vehicle_type_id":"4","last_reported":1751119728,"current_range_meters":0,"station_id":"","pricing_plan_id":"cebpf4jnsgd1na2vs0mg"},{"bike_id":"666ef40e-8142-4330-a1bf-355f72ca0910","system_id":"levelo_inurba_marseille","lat":43.26304,"lon":5.40003,"is_reserved":false,"is_disabled":true,"rental_uris":{"android":"levelo://app?vid=666ef40e-8142-4330-a1bf-355f72ca0910","ios":"levelo://app?vid=666ef40e-8142-4330-a1bf-355f72ca0910"},"vehicle_type_id":"4","last_reported":1751119728,"current_range_meters":0,"station_id":"","pricing_plan_id":"cebpf4jnsgd1na2vs0mg"},{"bike_id":"686f57d4-d3f1-42a0-8099-7b488c093e15","system_id":"levelo_inurba_marseille","lat":43.30307,"lon":5.392167,"is_reserved":false,"is_disabled":true,"rental_uris":{"android":"levelo://app?vid=686f57d4-d3f1-42a0-8099-7b488c093e15","ios":"levelo://app?vid=686f57d4-d3f1-42a0-8099-7b488c093e15"},"vehicle_type_id":"4","last_reported":1751119728,"current_range_meters":0,"station_id":"ce4bgkh2rcd13ifvqbk0","pricing_plan_id":"cebpf4jnsgd1na2vs0mg"},{"bike_id":"e4786b8a-21d0-4f0f-9505-8d7e457706c6","system_id":"levelo_inurba_marseille","lat":43.29848,"lon":5.36285,"is_reserved":false,"is_disabled":true,"rental_uris":{"android":"levelo://app?vid=e4786b8a-21d0-4f0f-9505-8d7e457706c6","ios":"levelo://app?vid=e4786b8a-21d0-4f0f-9505-8d7e457706c6"},"vehicle_type_id":"4","last_reported":1751119728,"current_range_meters":0,"station_id":"ce4bgpp2rcd13ifvqc3g","pricing_plan_id":"cebpf4jnsgd1na2vs0mg"},{"bike_id":"a907fa2f-b75d-49a0-8dfc-b75d27ba0f36","system_id":"levelo_inurba_marseille","lat":43.29974,"lon":5.37156,"is_reserved":false,"is_disabled":true,"rental_uris":{"android":"levelo://app?vid=a907fa2f-b75d-49a0-8dfc-b75d27ba0f36","ios":"levelo://app?vid=a907fa2f-b75d-49a0-8dfc-b75d27ba0f36"},"vehicle_type_id":"4","last_reported":1751119728,"current_range_meters":0,"station_id":"ce4bgr92rcd13ifvqc7g","pricing_plan_id":"cebpf4jnsgd1na2vs0mg"},{"bike_id":"11157c85-18e9-4dd9-8640-2dc58a5c587d","system_id":"levelo_inurba_marseille","lat":43.31118,"lon":5.37765,"is_reserved":false,"is_disabled":true,"rental_uris":{"android":"levelo://app?vid=11157c85-18e9-4dd9-8640-2dc58a5c587d","ios":"levelo://app?vid=11157c85-18e9-4dd9-8640-2dc58a5c587d"},"vehicle_type_id":"4","last_reported":1751119728,"current_range_meters":0,"station_id":"ce4bgt92rcd13ifvqcg0","pricing_plan_id":"cebpf4jnsgd1na2vs0mg"},{"bike_id":"a0aa7f48-2c07-453d-845a-eaeace62b973","system_id":"levelo_inurba_marseille","lat":43.31096,"lon":5.37757,"is_reserved":false,"is_disabled":true,"rental_uris":{"android":"levelo://app?vid=a0aa7f48-2c07-453d-845a-eaeace62b973","ios":"levelo://app?vid=a0aa7f48-2c07-453d-845a-eaeace62b973"},"vehicle_type_id":"4","last_reported":1751119728,"current_range_meters":0,"station_id":"ce4bgt92rcd13ifvqcg0","pricing_plan_id":"cebpf4jnsgd1na2vs0mg"},{"bike_id":"b1fca5ac-136b-44bb-bdeb-988953c509e2","system_id":"levelo_inurba_marseille","lat":43.31335,"lon":5.39694,"is_reserved":false,"is_disabled":true,"rental_uris":{"android":"levelo://app?vid=b1fca5ac-136b-44bb-bdeb-988953c509e2","ios":"levelo://app?vid=b1fca5ac-136b-44bb-bdeb-988953c509e2"},"vehicle_type_id":"4","last_reported":1751119728,"current_range_meters":0,"station_id":"ce4bgvp2rcd13ifvqcu0","pricing_plan_id":"cebpf4jnsgd1na2vs0mg"},{"bike_id":"09093374-f460-43da-b643-92e5de2ade33","system_id":"levelo_inurba_marseille","lat":43.28855,"lon":5.35851,"is_reserved":false,"is_disabled":true,"rental_uris":{"android":"levelo://app?vid=09093374-f460-43da-b643-92e5de2ade33","ios":"levelo://app?vid=09093374-f460-43da-b643-92e5de2ade33"},"vehicle_type_id":"4","last_reported":1751119728,"current_range_meters":0,"station_id":"ce4bhb12rcd13ifvqem0","pricing_plan_id":"cebpf4jnsgd1na2vs0mg"},{"bike_id":"b82f2944-7b11-4748-b7a6-e7442c67bd2b","system_id":"levelo_inurba_marseille","lat":43.28615,"lon":5.35108,"is_reserved":false,"is_disabled":true,"rental_uris":{"android":"levelo://app?vid=b82f2944-7b11-4748-b7a6-e7442c67bd2b","ios":"levelo://app?vid=b82f2944-7b11-4748-b7a6-e7442c67bd2b"},"vehicle_type_id":"4","last_reported":1751119728,"current_range_meters":0,"station_id":"ce4bhch2rcd13ifvqeug","pricing_plan_id":"cebpf4jnsgd1na2vs0mg"},{"bike_id":"0f52355f-ddd6-47a8-ac08-b19ffee8fcb8","system_id":"levelo_inurba_marseille","lat":43.28616,"lon":5.3509,"is_reserved":false,"is_disabled":true,"rental_uris":{"android":"levelo://app?vid=0f52355f-ddd6-47a8-ac08-b19ffee8fcb8","ios":"levelo://app?vid=0f52355f-ddd6-47a8-ac08-b19ffee8fcb8"},"vehicle_type_id":"4","last_reported":1751119728,"current_range_meters":0,"station_id":"ce4bhch2rcd13ifvqeug","pricing_plan_id":"cebpf4jnsgd1na2vs0mg"},{"bike_id":"3c306b13-e14b-48d8-8837-b7696161650a","system_id":"levelo_inurba_marseille","lat":43.28614,"lon":5.35105,"is_reserved":false,"is_disabled":true,"rental_uris":{"android":"levelo://app?vid=3c306b13-e14b-48d8-8837-b7696161650a","ios":"levelo://app?vid=3c306b13-e14b-48d8-8837-b7696161650a"},"vehicle_type_id":"4","last_reported":1751119728,"current_range_meters":0,"station_id":"ce4bhch2rcd13ifvqeug","pricing_plan_id":"cebpf4jnsgd1na2vs0mg"},{"bike_id":"71eaeb64-91da-45ad-b086-cb828ebcd35b","system_id":"levelo_inurba_marseille","lat":43.24385,"lon":5.37069,"is_reserved":false,"is_disabled":true,"rental_uris":{"android":"levelo://app?vid=71eaeb64-91da-45ad-b086-cb828ebcd35b","ios":"levelo://app?vid=71eaeb64-91da-45ad-b086-cb828ebcd35b"},"vehicle_type_id":"4","last_reported":1751119728,"current_range_meters":0,"station_id":"ce4bhhh2rcd13ifvqfk0","pricing_plan_id":"cebpf4jnsgd1na2vs0mg"},{"bike_id":"340bb302-680f-4e09-b94c-7062f21d6dd4","system_id":"levelo_inurba_marseille","lat":43.23175,"lon":5.39989,"is_reserved":false,"is_disabled":true,"rental_uris":{"android":"levelo://app?vid=340bb302-680f-4e09-b94c-7062f21d6dd4","ios":"levelo://app?vid=340bb302-680f-4e09-b94c-7062f21d6dd4"},"vehicle_type_id":"4","last_reported":1751119728,"current_range_meters":0,"station_id":"ce4bhn12rcd13ifvqgqg","pricing_plan_id":"cebpf4jnsgd1na2vs0mg"},{"bike_id":"6c62fe15-b37d-45e6-866e-a8f84312c5b8","system_id":"levelo_inurba_marseille","lat":43.284856,"lon":5.385639,"is_reserved":false,"is_disabled":true,"rental_uris":{"android":"levelo://app?vid=6c62fe15-b37d-45e6-866e-a8f84312c5b8","ios":"levelo://app?vid=6c62fe15-b37d-45e6-866e-a8f84312c5b8"},"vehicle_type_id":"4","last_reported":1751119728,"current_range_meters":0,"station_id":"ce4bhnp2rcd13ifvqgvg","pricing_plan_id":"cebpf4jnsgd1na2vs0mg"},{"bike_id":"92d3bb11-4cf3-47e6-bc0f-ff80eea58ad1","system_id":"levelo_inurba_marseille","lat":43.30392,"lon":5.42482,"is_reserved":false,"is_disabled":true,"rental_uris":{"android":"levelo://app?vid=92d3bb11-4cf3-47e6-bc0f-ff80eea58ad1","ios":"levelo://app?vid=92d3bb11-4cf3-47e6-bc0f-ff80eea58ad1"},"vehicle_type_id":"4","last_reported":1751119728,"current_range_meters":0,"station_id":"ce4bhoh2rcd13ifvqh6g","pricing_plan_id":"cebpf4jnsgd1na2vs0mg"},{"bike_id":"c8ce0351-fe68-40b1-beb5-45d8ee0eed11","system_id":"levelo_inurba_marseille","lat":43.303753,"lon":5.424843,"is_reserved":false,"is_disabled":true,"rental_uris":{"android":"levelo://app?vid=c8ce0351-fe68-40b1-beb5-45d8ee0eed11","ios":"levelo://app?vid=c8ce0351-fe68-40b1-beb5-45d8ee0eed11"},"vehicle_type_id":"4","last_reported":1751119728,"current_range_meters":0,"station_id":"ce4bhoh2rcd13ifvqh6g","pricing_plan_id":"cebpf4jnsgd1na2vs0mg"},{"bike_id":"fde70215-ce15-4258-a0bf-27a465a43a0d","system_id":"levelo_inurba_marseille","lat":43.32121,"lon":5.36774,"is_reserved":false,"is_disabled":true,"rental_uris":{"android":"levelo://app?vid=fde70215-ce15-4258-a0bf-27a465a43a0d","ios":"levelo://app?vid=fde70215-ce15-4258-a0bf-27a465a43a0d"},"vehicle_type_id":"4","last_reported":1751119728,"current_range_meters":0,"station_id":"ce4bhrh2rcd13ifvqhug","pricing_plan_id":"cebpf4jnsgd1na2vs0mg"},{"bike_id":"b8a69c99-4549-4eea-88eb-6e37d0f68364","system_id":"levelo_inurba_marseille","lat":43.23194,"lon":5.3555,"is_reserved":false,"is_disabled":true,"rental_uris":{"android":"levelo://app?vid=b8a69c99-4549-4eea-88eb-6e37d0f68364","ios":"levelo://app?vid=b8a69c99-4549-4eea-88eb-6e37d0f68364"},"vehicle_type_id":"4","last_reported":1751119728,"current_range_meters":0,"station_id":"ce4bhu92rcd13ifvqi70","pricing_plan_id":"cebpf4jnsgd1na2vs0mg"},{"bike_id":"736654d6-01bb-4a6c-ace7-5bb6a310dfae","system_id":"levelo_inurba_marseille","lat":43.2319,"lon":5.35556,"is_reserved":false,"is_disabled":true,"rental_uris":{"android":"levelo://app?vid=736654d6-01bb-4a6c-ace7-5bb6a310dfae","ios":"levelo://app?vid=736654d6-01bb-4a6c-ace7-5bb6a310dfae"},"vehicle_type_id":"4","last_reported":1751119728,"current_range_meters":0,"station_id":"ce4bhu92rcd13ifvqi70","pricing_plan_id":"cebpf4jnsgd1na2vs0mg"},{"bike_id":"c9f46188-712e-40bf-99a0-bfaf90c06564","system_id":"levelo_inurba_marseille","lat":43.231937,"lon":5.355547,"is_reserved":false,"is_disabled":true,"rental_uris":{"android":"levelo://app?vid=c9f46188-712e-40bf-99a0-bfaf90c06564","ios":"levelo://app?vid=c9f46188-712e-40bf-99a0-bfaf90c06564"},"vehicle_type_id":"4","last_reported":1751119728,"current_range_meters":0,"station_id":"ce4bhu92rcd13ifvqi70","pricing_plan_id":"cebpf4jnsgd1na2vs0mg"},{"bike_id":"ca6c7b34-c69f-45fe-be67-1dbf85dc2f35","system_id":"levelo_inurba_marseille","lat":43.241705,"lon":5.363958,"is_reserved":false,"is_disabled":true,"rental_uris":{"android":"levelo://app?vid=ca6c7b34-c69f-45fe-be67-1dbf85dc2f35","ios":"levelo://app?vid=ca6c7b34-c69f-45fe-be67-1dbf85dc2f35"},"vehicle_type_id":"4","last_reported":1751119728,"current_range_meters":0,"station_id":"cpo36qri1sfpv3e86is0","pricing_plan_id":"cebpf4jnsgd1na2vs0mg"},{"bike_id":"9660d42f-62ac-4258-8a45-8063dd7e7505","system_id":"levelo_inurba_marseille","lat":43.22492,"lon":5.3479,"is_reserved":false,"is_disabled":true,"rental_uris":{"android":"levelo://app?vid=9660d42f-62ac-4258-8a45-8063dd7e7505","ios":"levelo://app?vid=9660d42f-62ac-4258-8a45-8063dd7e7505"},"vehicle_type_id":"4","last_reported":1751119728,"current_range_meters":0,"station_id":"st_cvj5dfep6f1abm77gieg","pricing_plan_id":"cebpf4jnsgd1na2vs0mg"},{"bike_id":"38d01765-5414-4f3d-b96c-a482eae367ca","system_id":"levelo_inurba_marseille","lat":43.21745,"lon":5.34598,"is_reserved":false,"is_disabled":true,"rental_uris":{"android":"levelo://app?vid=38d01765-5414-4f3d-b96c-a482eae367ca","ios":"levelo://app?vid=38d01765-5414-4f3d-b96c-a482eae367ca"},"vehicle_type_id":"4","last_reported":1751119728,"current_range_meters":0,"station_id":"st_cvj6r9ubvosntc0bgbag","pricing_plan_id":"cebpf4jnsgd1na2vs0mg"},{"bike_id":"070a5204-3e73-4cf5-9fda-520c8795969f","system_id":"levelo_inurba_marseille","lat":43.217639,"lon":5.345911,"is_reserved":false,"is_disabled":true,"rental_uris":{"android":"levelo://app?vid=070a5204-3e73-4cf5-9fda-520c8795969f","ios":"levelo://app?vid=070a5204-3e73-4cf5-9fda-520c8795969f"},"vehicle_type_id":"4","last_reported":1751119728,"current_range_meters":0,"station_id":"st_cvj6r9ubvosntc0bgbag","pricing_plan_id":"cebpf4jnsgd1na2vs0mg"},{"bike_id":"f47876d7-9c85-474e-92c5-7a242e08b67c","system_id":"levelo_inurba_marseille","lat":43.305528,"lon":5.375481,"is_reserved":false,"is_disabled":true,"rental_uris":{"android":"levelo://app?vid=f47876d7-9c85-474e-92c5-7a242e08b67c","ios":"levelo://app?vid=f47876d7-9c85-474e-92c5-7a242e08b67c"},"vehicle_type_id":"4","last_reported":1751119728,"current_range_meters":400,"station_id":"","pricing_plan_id":"cebpf4jnsgd1na2vs0mg"},{"bike_id":"097dc585-dab8-4c47-b380-eaf9491b2c1b","system_id":"levelo_inurba_marseille","lat":43.30144,"lon":5.38078,"is_reserved":false,"is_disabled":true,"rental_uris":{"android":"levelo://app?vid=097dc585-dab8-4c47-b380-eaf9491b2c1b","ios":"levelo://app?vid=097dc585-dab8-4c47-b380-eaf9491b2c1b"},"vehicle_type_id":"4","last_reported":1751119728,"current_range_meters":400,"station_id":"ce4bgjp2rcd13ifvqbh0","pricing_plan_id":"cebpf4jnsgd1na2vs0mg"},{"bike_id":"2d250612-db8f-44f9-8e23-0787ff89bb70","system_id":"levelo_inurba_marseille","lat":43.31721,"lon":5.40399,"is_reserved":false,"is_disabled":true,"rental_uris":{"android":"levelo://app?vid=2d250612-db8f-44f9-8e23-0787ff89bb70","ios":"levelo://app?vid=2d250612-db8f-44f9-8e23-0787ff89bb70"},"vehicle_type_id":"4","last_reported":1751119728,"current_range_meters":400,"station_id":"ce4bh012rcd13ifvqd00","pricing_plan_id":"cebpf4jnsgd1na2vs0mg"},{"bike_id":"ce98f834-95be-4ad4-bb7d-83ac142eb419","system_id":"levelo_inurba_marseille","lat":43.23189,"lon":5.35554,"is_reserved":false,"is_disabled":true,"rental_uris":{"android":"levelo://app?vid=ce98f834-95be-4ad4-bb7d-83ac142eb419","ios":"levelo://app?vid=ce98f834-95be-4ad4-bb7d-83ac142eb419"},"vehicle_type_id":"4","last_reported":1751119728,"current_range_meters":400,"station_id":"ce4bhu92rcd13ifvqi70","pricing_plan_id":"cebpf4jnsgd1na2vs0mg"},{"bike_id":"845eaf8a-a1f8-4d61-86a8-cc4f98af4167","system_id":"levelo_inurba_marseille","lat":43.241373,"lon":5.363275,"is_reserved":false,"is_disabled":true,"rental_uris":{"android":"levelo://app?vid=845eaf8a-a1f8-4d61-86a8-cc4f98af4167","ios":"levelo://app?vid=845eaf8a-a1f8-4d61-86a8-cc4f98af4167"},"vehicle_type_id":"4","last_reported":1751119728,"current_range_meters":400,"station_id":"cpo36qri1sfpv3e86is0","pricing_plan_id":"cebpf4jnsgd1na2vs0mg"},{"bike_id":"27f3c49a-245a-4565-9694-c9dca7183cde","system_id":"levelo_inurba_marseille","lat":43.29565,"lon":5.37517,"is_reserved":false,"is_disabled":true,"rental_uris":{"android":"levelo://app?vid=27f3c49a-245a-4565-9694-c9dca7183cde","ios":"levelo://app?vid=27f3c49a-245a-4565-9694-c9dca7183cde"},"vehicle_type_id":"4","last_reported":1751119728,"current_range_meters":800,"station_id":"ce4bgh92rcd13ifvqb50","pricing_plan_id":"cebpf4jnsgd1na2vs0mg"},{"bike_id":"c0e67346-3f15-4822-9c62-1aa936396cca","system_id":"levelo_inurba_marseille","lat":43.29627,"lon":5.37727,"is_reserved":false,"is_disabled":true,"rental_uris":{"android":"levelo://app?vid=c0e67346-3f15-4822-9c62-1aa936396cca","ios":"levelo://app?vid=c0e67346-3f15-4822-9c62-1aa936396cca"},"vehicle_type_id":"4","last_reported":1751119728,"current_range_meters":800,"station_id":"ce4bgi92rcd13ifvqb90","pricing_plan_id":"cebpf4jnsgd1na2vs0mg"},{"bike_id":"4f44544c-bea5-4fa4-9c66-6cdf37054987","system_id":"levelo_inurba_marseille","lat":43.29784,"lon":5.38091,"is_reserved":false,"is_disabled":true,"rental_uris":{"android":"levelo://app?vid=4f44544c-bea5-4fa4-9c66-6cdf37054987","ios":"levelo://app?vid=4f44544c-bea5-4fa4-9c66-6cdf37054987"},"vehicle_type_id":"4","last_reported":1751119728,"current_range_meters":800,"station_id":"ce4bgip2rcd13ifvqbb0","pricing_plan_id":"cebpf4jnsgd1na2vs0mg"},{"bike_id":"289a7b61-3eba-4d0d-ae05-9704b6f10bf8","system_id":"levelo_inurba_marseille","lat":43.2958,"lon":5.36755,"is_reserved":false,"is_disabled":true,"rental_uris":{"android":"levelo://app?vid=289a7b61-3eba-4d0d-ae05-9704b6f10bf8","ios":"levelo://app?vid=289a7b61-3eba-4d0d-ae05-9704b6f10bf8"},"vehicle_type_id":"4","last_reported":1751119728,"current_range_meters":800,"station_id":"ce4bgph2rcd13ifvqc2g","pricing_plan_id":"cebpf4jnsgd1na2vs0mg"},{"bike_id":"b5f78157-cae1-4e13-9218-a42bfc23339b","system_id":"levelo_inurba_marseille","lat":43.25496,"lon":5.3765,"is_reserved":false,"is_disabled":true,"rental_uris":{"android":"levelo://app?vid=b5f78157-cae1-4e13-9218-a42bfc23339b","ios":"levelo://app?vid=b5f78157-cae1-4e13-9218-a42bfc23339b"},"vehicle_type_id":"4","last_reported":1751119728,"current_range_meters":800,"station_id":"ce4bhh12rcd13ifvqff0","pricing_plan_id":"cebpf4jnsgd1na2vs0mg"},{"bike_id":"7e8bf9f8-71e7-4702-9ad2-4d2a6d51a845","system_id":"levelo_inurba_marseille","lat":43.30304,"lon":5.392153,"is_reserved":false,"is_disabled":true,"rental_uris":{"android":"levelo://app?vid=7e8bf9f8-71e7-4702-9ad2-4d2a6d51a845","ios":"levelo://app?vid=7e8bf9f8-71e7-4702-9ad2-4d2a6d51a845"},"vehicle_type_id":"4","last_reported":1751119728,"current_range_meters":1200,"station_id":"ce4bgkh2rcd13ifvqbk0","pricing_plan_id":"cebpf4jnsgd1na2vs0mg"},{"bike_id":"94948d50-a998-4d1e-b291-431e71266e83","system_id":"levelo_inurba_marseille","lat":43.29769,"lon":5.37107,"is_reserved":false,"is_disabled":true,"rental_uris":{"android":"levelo://app?vid=94948d50-a998-4d1e-b291-431e71266e83","ios":"levelo://app?vid=94948d50-a998-4d1e-b291-431e71266e83"},"vehicle_type_id":"4","last_reported":1751119728,"current_range_meters":1200,"station_id":"ce4bgop2rcd13ifvqc1g","pricing_plan_id":"cebpf4jnsgd1na2vs0mg"},{"bike_id":"e0a7c782-5aef-4014-b6d3-84efca80f2cf","system_id":"levelo_inurba_marseille","lat":43.28663,"lon":5.38658,"is_reserved":false,"is_disabled":true,"rental_uris":{"android":"levelo://app?vid=e0a7c782-5aef-4014-b6d3-84efca80f2cf","ios":"levelo://app?vid=e0a7c782-5aef-4014-b6d3-84efca80f2cf"},"vehicle_type_id":"4","last_reported":1751119728,"current_range_meters":1200,"station_id":"ce4bh492rcd13ifvqdug","pricing_plan_id":"cebpf4jnsgd1na2vs0mg"},{"bike_id":"0e0a9f27-ccdc-4231-98bd-a3b6ab6262e7","system_id":"levelo_inurba_marseille","lat":43.28463,"lon":5.35887,"is_reserved":false,"is_disabled":true,"rental_uris":{"android":"levelo://app?vid=0e0a9f27-ccdc-4231-98bd-a3b6ab6262e7","ios":"levelo://app?vid=0e0a9f27-ccdc-4231-98bd-a3b6ab6262e7"},"vehicle_type_id":"4","last_reported":1751119728,"current_range_meters":1200,"station_id":"ce4bhah2rcd13ifvqei0","pricing_plan_id":"cebpf4jnsgd1na2vs0mg"},{"bike_id":"203da2a8-4ce6-4bc7-8cee-c67e1d9053df","system_id":"levelo_inurba_marseille","lat":43.25504,"lon":5.37652,"is_reserved":false,"is_disabled":true,"rental_uris":{"android":"levelo://app?vid=203da2a8-4ce6-4bc7-8cee-c67e1d9053df","ios":"levelo://app?vid=203da2a8-4ce6-4bc7-8cee-c67e1d9053df"},"vehicle_type_id":"4","last_reported":1751119728,"current_range_meters":1200,"station_id":"ce4bhh12rcd13ifvqff0","pricing_plan_id":"cebpf4jnsgd1na2vs0mg"},{"bike_id":"2e4b3190-9cc9-47cf-87ca-5dc482ba5b0d","system_id":"levelo_inurba_marseille","lat":43.23159,"lon":5.43692,"is_reserved":false,"is_disabled":true,"rental_uris":{"android":"levelo://app?vid=2e4b3190-9cc9-47cf-87ca-5dc482ba5b0d","ios":"levelo://app?vid=2e4b3190-9cc9-47cf-87ca-5dc482ba5b0d"},"vehicle_type_id":"4","last_reported":1751119728,"current_range_meters":1200,"station_id":"ce4bhmp2rcd13ifvqgog","pricing_plan_id":"cebpf4jnsgd1na2vs0mg"},{"bike_id":"e9d26f60-cb74-428d-9256-5da9281656d9","system_id":"levelo_inurba_marseille","lat":43.23196,"lon":5.35556,"is_reserved":false,"is_disabled":true,"rental_uris":{"android":"levelo://app?vid=e9d26f60-cb74-428d-9256-5da9281656d9","ios":"levelo://app?vid=e9d26f60-cb74-428d-9256-5da9281656d9"},"vehicle_type_id":"4","last_reported":1751119728,"current_range_meters":1200,"station_id":"ce4bhu92rcd13ifvqi70","pricing_plan_id":"cebpf4jnsgd1na2vs0mg"},{"bike_id":"044f7961-8c64-410d-8e65-60e5aa27d389","system_id":"levelo_inurba_marseille","lat":43.303009,"lon":5.392169,"is_reserved":false,"is_disabled":true,"rental_uris":{"android":"levelo://app?vid=044f7961-8c64-410d-8e65-60e5aa27d389","ios":"levelo://app?vid=044f7961-8c64-410d-8e65-60e5aa27d389"},"vehicle_type_id":"4","last_reported":1751119728,"current_range_meters":1600,"station_id":"ce4bgkh2rcd13ifvqbk0","pricing_plan_id":"cebpf4jnsgd1na2vs0mg"},{"bike_id":"5b5035c5-2ac3-4edb-9622-8b76a2102cd6","system_id":"levelo_inurba_marseille","lat":43.29579,"lon":5.39974,"is_reserved":false,"is_disabled":true,"rental_uris":{"android":"levelo://app?vid=5b5035c5-2ac3-4edb-9622-8b76a2102cd6","ios":"levelo://app?vid=5b5035c5-2ac3-4edb-9622-8b76a2102cd6"},"vehicle_type_id":"4","last_reported":1751119728,"current_range_meters":1600,"station_id":"ce4bh312rcd13ifvqdj0","pricing_plan_id":"cebpf4jnsgd1na2vs0mg"},{"bike_id":"5222b578-0845-49c6-b9fa-90c0fb91d5f2","system_id":"levelo_inurba_marseille","lat":43.29267,"lon":5.36846,"is_reserved":false,"is_disabled":true,"rental_uris":{"android":"levelo://app?vid=5222b578-0845-49c6-b9fa-90c0fb91d5f2","ios":"levelo://app?vid=5222b578-0845-49c6-b9fa-90c0fb91d5f2"},"vehicle_type_id":"4","last_reported":1751119728,"current_range_meters":1600,"station_id":"ce4bhbp2rcd13ifvqesg","pricing_plan_id":"cebpf4jnsgd1na2vs0mg"},{"bike_id":"aa55fba2-0d93-4943-8685-822fb1057159","system_id":"levelo_inurba_marseille","lat":43.2721,"lon":5.3918,"is_reserved":false,"is_disabled":true,"rental_uris":{"android":"levelo://app?vid=aa55fba2-0d93-4943-8685-822fb1057159","ios":"levelo://app?vid=aa55fba2-0d93-4943-8685-822fb1057159"},"vehicle_type_id":"4","last_reported":1751119728,"current_range_meters":1600,"station_id":"ce4bhhp2rcd13ifvqfm0","pricing_plan_id":"cebpf4jnsgd1na2vs0mg"},{"bike_id":"3ed97791-4fd1-4beb-9e6b-4998740d59d9","system_id":"levelo_inurba_marseille","lat":43.271719,"lon":5.410008,"is_reserved":false,"is_disabled":true,"rental_uris":{"android":"levelo://app?vid=3ed97791-4fd1-4beb-9e6b-4998740d59d9","ios":"levelo://app?vid=3ed97791-4fd1-4beb-9e6b-4998740d59d9"},"vehicle_type_id":"4","last_reported":1751119728,"current_range_meters":2000,"station_id":"","pricing_plan_id":"cebpf4jnsgd1na2vs0mg"},{"bike_id":"5d07c5c9-0fd6-4a82-acd5-3d7d6609d9f1","system_id":"levelo_inurba_marseille","lat":43.31123,"lon":5.37759,"is_reserved":false,"is_disabled":true,"rental_uris":{"android":"levelo://app?vid=5d07c5c9-0fd6-4a82-acd5-3d7d6609d9f1","ios":"levelo://app?vid=5d07c5c9-0fd6-4a82-acd5-3d7d6609d9f1"},"vehicle_type_id":"4","last_reported":1751119728,"current_range_meters":2000,"station_id":"ce4bgt92rcd13ifvqcg0","pricing_plan_id":"cebpf4jnsgd1na2vs0mg"},{"bike_id":"68417b21-671e-4403-b8be-399ae4aef3b1","system_id":"levelo_inurba_marseille","lat":43.24382,"lon":5.37054,"is_reserved":false,"is_disabled":true,"rental_uris":{"android":"levelo://app?vid=68417b21-671e-4403-b8be-399ae4aef3b1","ios":"levelo://app?vid=68417b21-671e-4403-b8be-399ae4aef3b1"},"vehicle_type_id":"4","last_reported":1751119728,"current_range_meters":2000,"station_id":"ce4bhhh2rcd13ifvqfk0","pricing_plan_id":"cebpf4jnsgd1na2vs0mg"},{"bike_id":"b0aca5ca-7ce9-4810-a857-90bbc8dc6eb0","system_id":"levelo_inurba_marseille","lat":43.262309,"lon":5.404513,"is_reserved":false,"is_disabled":true,"rental_uris":{"android":"levelo://app?vid=b0aca5ca-7ce9-4810-a857-90bbc8dc6eb0","ios":"levelo://app?vid=b0aca5ca-7ce9-4810-a857-90bbc8dc6eb0"},"vehicle_type_id":"4","last_reported":1751119728,"current_range_meters":2000,"station_id":"ce4bhmh2rcd13ifvqgmg","pricing_plan_id":"cebpf4jnsgd1na2vs0mg"},{"bike_id":"c7630044-57c7-43ad-bb1f-d15e1cc35457","system_id":"levelo_inurba_marseille","lat":43.32658,"lon":5.40989,"is_reserved":false,"is_disabled":true,"rental_uris":{"android":"levelo://app?vid=c7630044-57c7-43ad-bb1f-d15e1cc35457","ios":"levelo://app?vid=c7630044-57c7-43ad-bb1f-d15e1cc35457"},"vehicle_type_id":"4","last_reported":1751119728,"current_range_meters":2000,"station_id":"ce4bhpp2rcd13ifvqhgg","pricing_plan_id":"cebpf4jnsgd1na2vs0mg"},{"bike_id":"77a29d4e-0f46-4f29-9c7f-1f8431a88bb5","system_id":"levelo_inurba_marseille","lat":43.30646,"lon":5.40097,"is_reserved":false,"is_disabled":false,"rental_uris":{"android":"levelo://app?vid=77a29d4e-0f46-4f29-9c7f-1f8431a88bb5","ios":"levelo://app?vid=77a29d4e-0f46-4f29-9c7f-1f8431a88bb5"},"vehicle_type_id":"4","last_reported":1751119728,"current_range_meters":2800,"station_id":"ce4bh112rcd13ifvqda0","pricing_plan_id":"cebpf4jnsgd1na2vs0mg"},{"bike_id":"5a02bbca-114c-4cc4-8063-476e51ebbeab","system_id":"levelo_inurba_marseille","lat":43.2549,"lon":5.37651,"is_reserved":false,"is_disabled":false,"rental_uris":{"android":"levelo://app?vid=5a02bbca-114c-4cc4-8063-476e51ebbeab","ios":"levelo://app?vid=5a02bbca-114c-4cc4-8063-476e51ebbeab"},"vehicle_type_id":"4","last_reported":1751119728,"current_range_meters":2800,"station_id":"ce4bhh12rcd13ifvqff0","pricing_plan_id":"cebpf4jnsgd1na2vs0mg"},{"bike_id":"416ff97f-b496-45d1-a451-5405d9d6b8ae","system_id":"levelo_inurba_marseille","lat":43.31207,"lon":5.37238,"is_reserved":false,"is_disabled":false,"rental_uris":{"android":"levelo://app?vid=416ff97f-b496-45d1-a451-5405d9d6b8ae","ios":"levelo://app?vid=416ff97f-b496-45d1-a451-5405d9d6b8ae"},"vehicle_type_id":"4","last_reported":1751119728,"current_range_meters":3200,"station_id":"","pricing_plan_id":"cebpf4jnsgd1na2vs0mg"},{"bike_id":"94e84186-d780-461a-b647-8d1cf3f036ad","system_id":"levelo_inurba_marseille","lat":43.31699,"lon":5.37778,"is_reserved":false,"is_disabled":false,"rental_uris":{"android":"levelo://app?vid=94e84186-d780-461a-b647-8d1cf3f036ad","ios":"levelo://app?vid=94e84186-d780-461a-b647-8d1cf3f036ad"},"vehicle_type_id":"4","last_reported":1751119728,"current_range_meters":3200,"station_id":"ce4bgth2rcd13ifvqch0","pricing_plan_id":"cebpf4jnsgd1na2vs0mg"},{"bike_id":"3f3687d7-c354-46d4-afc9-ac5d85b15ed1","system_id":"levelo_inurba_marseille","lat":43.30124,"lon":5.39879,"is_reserved":false,"is_disabled":false,"rental_uris":{"android":"levelo://app?vid=3f3687d7-c354-46d4-afc9-ac5d85b15ed1","ios":"levelo://app?vid=3f3687d7-c354-46d4-afc9-ac5d85b15ed1"},"vehicle_type_id":"4","last_reported":1751119728,"current_range_meters":3200,"station_id":"ce4bh0h2rcd13ifvqd40","pricing_plan_id":"cebpf4jnsgd1na2vs0mg"},{"bike_id":"79d5ed5d-24bb-42cf-ac0d-0a19ea0d085b","system_id":"levelo_inurba_marseille","lat":43.22928,"lon":5.35374,"is_reserved":false,"is_disabled":false,"rental_uris":{"android":"levelo://app?vid=79d5ed5d-24bb-42cf-ac0d-0a19ea0d085b","ios":"levelo://app?vid=79d5ed5d-24bb-42cf-ac0d-0a19ea0d085b"},"vehicle_type_id":"4","last_reported":1751119728,"current_range_meters":3600,"station_id":"cpo3532slgdg3j2ikp40","pricing_plan_id":"cebpf4jnsgd1na2vs0mg"},{"bike_id":"e50129b7-57e3-4ca5-82af-b79dba1f93c6","system_id":"levelo_inurba_marseille","lat":43.30543,"lon":5.36705,"is_reserved":false,"is_disabled":false,"rental_uris":{"android":"levelo://app?vid=e50129b7-57e3-4ca5-82af-b79dba1f93c6","ios":"levelo://app?vid=e50129b7-57e3-4ca5-82af-b79dba1f93c6"},"vehicle_type_id":"4","last_reported":1751119728,"current_range_meters":4000,"station_id":"ce4bgrp2rcd13ifvqc9g","pricing_plan_id":"cebpf4jnsgd1na2vs0mg"},{"bike_id":"a4c72be0-3226-4d5c-a841-94842c79c5e5","system_id":"levelo_inurba_marseille","lat":43.3043,"lon":5.41276,"is_reserved":false,"is_disabled":false,"rental_uris":{"android":"levelo://app?vid=a4c72be0-3226-4d5c-a841-94842c79c5e5","ios":"levelo://app?vid=a4c72be0-3226-4d5c-a841-94842c79c5e5"},"vehicle_type_id":"4","last_reported":1751119728,"current_range_meters":4000,"station_id":"ce4bhop2rcd13ifvqh8g","pricing_plan_id":"cebpf4jnsgd1na2vs0mg"},{"bike_id":"96472340-7c63-431e-ae76-b479a9001a0d","system_id":"levelo_inurba_marseille","lat":43.29581,"lon":5.36742,"is_reserved":false,"is_disabled":false,"rental_uris":{"android":"levelo://app?vid=96472340-7c63-431e-ae76-b479a9001a0d","ios":"levelo://app?vid=96472340-7c63-431e-ae76-b479a9001a0d"},"vehicle_type_id":"4","last_reported":1751119728,"current_range_meters":4400,"station_id":"ce4bgph2rcd13ifvqc2g","pricing_plan_id":"cebpf4jnsgd1na2vs0mg"},{"bike_id":"d3d2aa9d-483c-4512-84fe-96ce70ee8957","system_id":"levelo_inurba_marseille","lat":43.29275,"lon":5.36851,"is_reserved":false,"is_disabled":false,"rental_uris":{"android":"levelo://app?vid=d3d2aa9d-483c-4512-84fe-96ce70ee8957","ios":"levelo://app?vid=d3d2aa9d-483c-4512-84fe-96ce70ee8957"},"vehicle_type_id":"4","last_reported":1751119728,"current_range_meters":4400,"station_id":"ce4bhbp2rcd13ifvqesg","pricing_plan_id":"cebpf4jnsgd1na2vs0mg"},{"bike_id":"0a034962-a078-4cd8-ab5c-29a2f15ac163","system_id":"levelo_inurba_marseille","lat":43.29878,"lon":5.43666,"is_reserved":false,"is_disabled":false,"rental_uris":{"android":"levelo://app?vid=0a034962-a078-4cd8-ab5c-29a2f15ac163","ios":"levelo://app?vid=0a034962-a078-4cd8-ab5c-29a2f15ac163"},"vehicle_type_id":"4","last_reported":1751119728,"current_range_meters":4400,"station_id":"ce4bhpp2rcd13ifvqhfg","pricing_plan_id":"cebpf4jnsgd1na2vs0mg"},{"bike_id":"0c0ad4e3-326e-44f4-a6c3-703c0f6d5eb0","system_id":"levelo_inurba_marseille","lat":43.32333,"lon":5.40637,"is_reserved":false,"is_disabled":false,"rental_uris":{"android":"levelo://app?vid=0c0ad4e3-326e-44f4-a6c3-703c0f6d5eb0","ios":"levelo://app?vid=0c0ad4e3-326e-44f4-a6c3-703c0f6d5eb0"},"vehicle_type_id":"4","last_reported":1751119728,"current_range_meters":4400,"station_id":"ce4bhq92rcd13ifvqhjg","pricing_plan_id":"cebpf4jnsgd1na2vs0mg"},{"bike_id":"dcea07ca-9323-4b9b-98f6-e1fc9b106559","system_id":"levelo_inurba_marseille","lat":43.30329,"lon":5.37633,"is_reserved":false,"is_disabled":false,"rental_uris":{"android":"levelo://app?vid=dcea07ca-9323-4b9b-98f6-e1fc9b106559","ios":"levelo://app?vid=dcea07ca-9323-4b9b-98f6-e1fc9b106559"},"vehicle_type_id":"4","last_reported":1751119728,"current_range_meters":5600,"station_id":"","pricing_plan_id":"cebpf4jnsgd1na2vs0mg"},{"bike_id":"b8c37355-8952-4341-bc21-16d6890f49be","system_id":"levelo_inurba_marseille","lat":43.30598,"lon":5.37231,"is_reserved":false,"is_disabled":false,"rental_uris":{"android":"levelo://app?vid=b8c37355-8952-4341-bc21-16d6890f49be","ios":"levelo://app?vid=b8c37355-8952-4341-bc21-16d6890f49be"},"vehicle_type_id":"4","last_reported":1751119728,"current_range_meters":5600,"station_id":"ce4bgqh2rcd13ifvqc4g","pricing_plan_id":"cebpf4jnsgd1na2vs0mg"},{"bike_id":"703df58a-ef75-4ae2-b700-970a1de18756","system_id":"levelo_inurba_marseille","lat":43.29813,"lon":5.40389,"is_reserved":false,"is_disabled":false,"rental_uris":{"android":"levelo://app?vid=703df58a-ef75-4ae2-b700-970a1de18756","ios":"levelo://app?vid=703df58a-ef75-4ae2-b700-970a1de18756"},"vehicle_type_id":"4","last_reported":1751119728,"current_range_meters":5600,"station_id":"ce4bh112rcd13ifvqd90","pricing_plan_id":"cebpf4jnsgd1na2vs0mg"},{"bike_id":"476f9898-d204-453e-98a6-6b2482b0e936","system_id":"levelo_inurba_marseille","lat":43.29957,"lon":5.41317,"is_reserved":false,"is_disabled":false,"rental_uris":{"android":"levelo://app?vid=476f9898-d204-453e-98a6-6b2482b0e936","ios":"levelo://app?vid=476f9898-d204-453e-98a6-6b2482b0e936"},"vehicle_type_id":"4","last_reported":1751119728,"current_range_meters":5600,"station_id":"ce4bhp12rcd13ifvqh9g","pricing_plan_id":"cebpf4jnsgd1na2vs0mg"},{"bike_id":"4b8da722-ee9e-48a4-a5e5-3a8a10364708","system_id":"levelo_inurba_marseille","lat":43.31221,"lon":5.37822,"is_reserved":false,"is_disabled":false,"rental_uris":{"android":"levelo://app?vid=4b8da722-ee9e-48a4-a5e5-3a8a10364708","ios":"levelo://app?vid=4b8da722-ee9e-48a4-a5e5-3a8a10364708"},"vehicle_type_id":"4","last_reported":1751119728,"current_range_meters":6000,"station_id":"","pricing_plan_id":"cebpf4jnsgd1na2vs0mg"},{"bike_id":"73a03650-973e-42b0-bad4-545481e15f73","system_id":"levelo_inurba_marseille","lat":43.31237,"lon":5.39042,"is_reserved":false,"is_disabled":false,"rental_uris":{"android":"levelo://app?vid=73a03650-973e-42b0-bad4-545481e15f73","ios":"levelo://app?vid=73a03650-973e-42b0-bad4-545481e15f73"},"vehicle_type_id":"4","last_reported":1751119728,"current_range_meters":6000,"station_id":"","pricing_plan_id":"cebpf4jnsgd1na2vs0mg"},{"bike_id":"3b98316d-da7a-4694-a630-224bb8fccada","system_id":"levelo_inurba_marseille","lat":43.284149,"lon":5.349773,"is_reserved":false,"is_disabled":false,"rental_uris":{"android":"levelo://app?vid=3b98316d-da7a-4694-a630-224bb8fccada","ios":"levelo://app?vid=3b98316d-da7a-4694-a630-224bb8fccada"},"vehicle_type_id":"4","last_reported":1751119728,"current_range_meters":6400,"station_id":"ce4bhbh2rcd13ifvqepg","pricing_plan_id":"cebpf4jnsgd1na2vs0mg"},{"bike_id":"b7d0d8a1-c5dd-4278-8b3b-f5786872fe32","system_id":"levelo_inurba_marseille","lat":43.320985,"lon":5.36776,"is_reserved":false,"is_disabled":false,"rental_uris":{"android":"levelo://app?vid=b7d0d8a1-c5dd-4278-8b3b-f5786872fe32","ios":"levelo://app?vid=b7d0d8a1-c5dd-4278-8b3b-f5786872fe32"},"vehicle_type_id":"4","last_reported":1751119728,"current_range_meters":6400,"station_id":"ce4bhrh2rcd13ifvqhug","pricing_plan_id":"cebpf4jnsgd1na2vs0mg"},{"bike_id":"32910c86-f40b-49bb-a1d8-aed9a66a4d81","system_id":"levelo_inurba_marseille","lat":43.25016,"lon":5.38937,"is_reserved":false,"is_disabled":false,"rental_uris":{"android":"levelo://app?vid=32910c86-f40b-49bb-a1d8-aed9a66a4d81","ios":"levelo://app?vid=32910c86-f40b-49bb-a1d8-aed9a66a4d81"},"vehicle_type_id":"4","last_reported":1751119728,"current_range_meters":6800,"station_id":"ce4bhgp2rcd13ifvqfd0","pricing_plan_id":"cebpf4jnsgd1na2vs0mg"},{"bike_id":"a440f2f6-8cf8-4348-9ba1-e21002a18a07","system_id":"levelo_inurba_marseille","lat":43.3211,"lon":5.36776,"is_reserved":false,"is_disabled":false,"rental_uris":{"android":"levelo://app?vid=a440f2f6-8cf8-4348-9ba1-e21002a18a07","ios":"levelo://app?vid=a440f2f6-8cf8-4348-9ba1-e21002a18a07"},"vehicle_type_id":"4","last_reported":1751119728,"current_range_meters":6800,"station_id":"ce4bhrh2rcd13ifvqhug","pricing_plan_id":"cebpf4jnsgd1na2vs0mg"},{"bike_id":"8888a7f3-9c15-437d-90e1-90646bc04b41","system_id":"levelo_inurba_marseille","lat":43.23194,"lon":5.35551,"is_reserved":false,"is_disabled":false,"rental_uris":{"android":"levelo://app?vid=8888a7f3-9c15-437d-90e1-90646bc04b41","ios":"levelo://app?vid=8888a7f3-9c15-437d-90e1-90646bc04b41"},"vehicle_type_id":"4","last_reported":1751119728,"current_range_meters":6800,"station_id":"ce4bhu92rcd13ifvqi70","pricing_plan_id":"cebpf4jnsgd1na2vs0mg"},{"bike_id":"5a611344-0646-43d6-8457-8d719a286f09","system_id":"levelo_inurba_marseille","lat":43.23197,"lon":5.35551,"is_reserved":false,"is_disabled":false,"rental_uris":{"android":"levelo://app?vid=5a611344-0646-43d6-8457-8d719a286f09","ios":"levelo://app?vid=5a611344-0646-43d6-8457-8d719a286f09"},"vehicle_type_id":"4","last_reported":1751119728,"current_range_meters":7200,"station_id":"ce4bhu92rcd13ifvqi70","pricing_plan_id":"cebpf4jnsgd1na2vs0mg"},{"bike_id":"d93518a7-acea-49d1-8b1d-66917831e25a","system_id":"levelo_inurba_marseille","lat":43.28352,"lon":5.39574,"is_reserved":false,"is_disabled":false,"rental_uris":{"android":"levelo://app?vid=d93518a7-acea-49d1-8b1d-66917831e25a","ios":"levelo://app?vid=d93518a7-acea-49d1-8b1d-66917831e25a"},"vehicle_type_id":"4","last_reported":1751119728,"current_range_meters":8000,"station_id":"","pricing_plan_id":"cebpf4jnsgd1na2vs0mg"},{"bike_id":"cad68b02-a3df-454d-a25d-0bc2f7e60def","system_id":"levelo_inurba_marseille","lat":43.30599,"lon":5.37229,"is_reserved":false,"is_disabled":false,"rental_uris":{"android":"levelo://app?vid=cad68b02-a3df-454d-a25d-0bc2f7e60def","ios":"levelo://app?vid=cad68b02-a3df-454d-a25d-0bc2f7e60def"},"vehicle_type_id":"4","last_reported":1751119728,"current_range_meters":8000,"station_id":"ce4bgqh2rcd13ifvqc4g","pricing_plan_id":"cebpf4jnsgd1na2vs0mg"},{"bike_id":"b75c9cb8-fd78-4a80-9d1b-540023d5ad53","system_id":"levelo_inurba_marseille","lat":43.34133,"lon":5.40893,"is_reserved":false,"is_disabled":false,"rental_uris":{"android":"levelo://app?vid=b75c9cb8-fd78-4a80-9d1b-540023d5ad53","ios":"levelo://app?vid=b75c9cb8-fd78-4a80-9d1b-540023d5ad53"},"vehicle_type_id":"4","last_reported":1751119728,"current_range_meters":8000,"station_id":"ce4bhqh2rcd13ifvqhlg","pricing_plan_id":"cebpf4jnsgd1na2vs0mg"},{"bike_id":"de0ba27c-9f2c-4c4d-abca-31aa5df09b3a","system_id":"levelo_inurba_marseille","lat":43.21763,"lon":5.34601,"is_reserved":false,"is_disabled":false,"rental_uris":{"android":"levelo://app?vid=de0ba27c-9f2c-4c4d-abca-31aa5df09b3a","ios":"levelo://app?vid=de0ba27c-9f2c-4c4d-abca-31aa5df09b3a"},"vehicle_type_id":"4","last_reported":1751119728,"current_range_meters":8000,"station_id":"st_cvj6r9ubvosntc0bgbag","pricing_plan_id":"cebpf4jnsgd1na2vs0mg"},{"bike_id":"d022ea09-136e-4ff6-ab06-f73147c0e008","system_id":"levelo_inurba_marseille","lat":43.30928,"lon":5.40148,"is_reserved":false,"is_disabled":false,"rental_uris":{"android":"levelo://app?vid=d022ea09-136e-4ff6-ab06-f73147c0e008","ios":"levelo://app?vid=d022ea09-136e-4ff6-ab06-f73147c0e008"},"vehicle_type_id":"4","last_reported":1751119728,"current_range_meters":8400,"station_id":"ce4bgvp2rcd13ifvqct0","pricing_plan_id":"cebpf4jnsgd1na2vs0mg"},{"bike_id":"7da03857-338c-4e8f-af60-72b2bc2b15aa","system_id":"levelo_inurba_marseille","lat":43.30925,"lon":5.40141,"is_reserved":false,"is_disabled":false,"rental_uris":{"android":"levelo://app?vid=7da03857-338c-4e8f-af60-72b2bc2b15aa","ios":"levelo://app?vid=7da03857-338c-4e8f-af60-72b2bc2b15aa"},"vehicle_type_id":"4","last_reported":1751119728,"current_range_meters":8400,"station_id":"ce4bgvp2rcd13ifvqct0","pricing_plan_id":"cebpf4jnsgd1na2vs0mg"},{"bike_id":"766f344c-2511-48c4-a14c-685ae07edc61","system_id":"levelo_inurba_marseille","lat":43.28279,"lon":5.35042,"is_reserved":false,"is_disabled":false,"rental_uris":{"android":"levelo://app?vid=766f344c-2511-48c4-a14c-685ae07edc61","ios":"levelo://app?vid=766f344c-2511-48c4-a14c-685ae07edc61"},"vehicle_type_id":"4","last_reported":1751119728,"current_range_meters":8400,"station_id":"ce4bhbp2rcd13ifvqerg","pricing_plan_id":"cebpf4jnsgd1na2vs0mg"},{"bike_id":"5aae0602-859e-4eb9-aa29-a6c08716ecc3","system_id":"levelo_inurba_marseille","lat":43.26551,"lon":5.37274,"is_reserved":false,"is_disabled":false,"rental_uris":{"android":"levelo://app?vid=5aae0602-859e-4eb9-aa29-a6c08716ecc3","ios":"levelo://app?vid=5aae0602-859e-4eb9-aa29-a6c08716ecc3"},"vehicle_type_id":"4","last_reported":1751119728,"current_range_meters":8400,"station_id":"ce4bhg12rcd13ifvqf70","pricing_plan_id":"cebpf4jnsgd1na2vs0mg"},{"bike_id":"f3063dee-319b-45b7-99bb-0abc58c4e79b","system_id":"levelo_inurba_marseille","lat":43.24383,"lon":5.37061,"is_reserved":false,"is_disabled":false,"rental_uris":{"android":"levelo://app?vid=f3063dee-319b-45b7-99bb-0abc58c4e79b","ios":"levelo://app?vid=f3063dee-319b-45b7-99bb-0abc58c4e79b"},"vehicle_type_id":"4","last_reported":1751119728,"current_range_meters":8400,"station_id":"ce4bhhh2rcd13ifvqfk0","pricing_plan_id":"cebpf4jnsgd1na2vs0mg"},{"bike_id":"97cf9c5e-6905-4cca-a114-10d658a8b7bd","system_id":"levelo_inurba_marseille","lat":43.25929,"lon":5.40911,"is_reserved":false,"is_disabled":false,"rental_uris":{"android":"levelo://app?vid=97cf9c5e-6905-4cca-a114-10d658a8b7bd","ios":"levelo://app?vid=97cf9c5e-6905-4cca-a114-10d658a8b7bd"},"vehicle_type_id":"4","last_reported":1751119728,"current_range_meters":8400,"station_id":"ce4bhm92rcd13ifvqglg","pricing_plan_id":"cebpf4jnsgd1na2vs0mg"},{"bike_id":"1c8ab180-05fd-405f-9922-b2b2c2d5142f","system_id":"levelo_inurba_marseille","lat":43.3213,"lon":5.36744,"is_reserved":false,"is_disabled":false,"rental_uris":{"android":"levelo://app?vid=1c8ab180-05fd-405f-9922-b2b2c2d5142f","ios":"levelo://app?vid=1c8ab180-05fd-405f-9922-b2b2c2d5142f"},"vehicle_type_id":"4","last_reported":1751119728,"current_range_meters":8400,"station_id":"ce4bhrh2rcd13ifvqhug","pricing_plan_id":"cebpf4jnsgd1na2vs0mg"},{"bike_id":"5a01ae6d-9064-484c-8d77-2d9e141e2313","system_id":"levelo_inurba_marseille","lat":43.24487,"lon":5.39025,"is_reserved":false,"is_disabled":false,"rental_uris":{"android":"levelo://app?vid=5a01ae6d-9064-484c-8d77-2d9e141e2313","ios":"levelo://app?vid=5a01ae6d-9064-484c-8d77-2d9e141e2313"},"vehicle_type_id":"4","last_reported":1751119728,"current_range_meters":8800,"station_id":"","pricing_plan_id":"cebpf4jnsgd1na2vs0mg"},{"bike_id":"56832d7e-5911-43b3-98da-684df0d61a91","system_id":"levelo_inurba_marseille","lat":43.28263,"lon":5.35083,"is_reserved":false,"is_disabled":false,"rental_uris":{"android":"levelo://app?vid=56832d7e-5911-43b3-98da-684df0d61a91","ios":"levelo://app?vid=56832d7e-5911-43b3-98da-684df0d61a91"},"vehicle_type_id":"4","last_reported":1751119728,"current_range_meters":8800,"station_id":"ce4bhbp2rcd13ifvqerg","pricing_plan_id":"cebpf4jnsgd1na2vs0mg"},{"bike_id":"46e89470-494e-4013-8658-1e7bbfedff2b","system_id":"levelo_inurba_marseille","lat":43.26553,"lon":5.37282,"is_reserved":false,"is_disabled":false,"rental_uris":{"android":"levelo://app?vid=46e89470-494e-4013-8658-1e7bbfedff2b","ios":"levelo://app?vid=46e89470-494e-4013-8658-1e7bbfedff2b"},"vehicle_type_id":"4","last_reported":1751119728,"current_range_meters":8800,"station_id":"ce4bhg12rcd13ifvqf70","pricing_plan_id":"cebpf4jnsgd1na2vs0mg"},{"bike_id":"a6b8dee1-fa21-496b-918d-908eb6a95ebe","system_id":"levelo_inurba_marseille","lat":43.32656,"lon":5.40992,"is_reserved":false,"is_disabled":false,"rental_uris":{"android":"levelo://app?vid=a6b8dee1-fa21-496b-918d-908eb6a95ebe","ios":"levelo://app?vid=a6b8dee1-fa21-496b-918d-908eb6a95ebe"},"vehicle_type_id":"4","last_reported":1751119728,"current_range_meters":8800,"station_id":"ce4bhpp2rcd13ifvqhgg","pricing_plan_id":"cebpf4jnsgd1na2vs0mg"},{"bike_id":"ef48e2a6-6162-47d0-a01d-363129d5430d","system_id":"levelo_inurba_marseille","lat":43.28033,"lon":5.37357,"is_reserved":false,"is_disabled":false,"rental_uris":{"android":"levelo://app?vid=ef48e2a6-6162-47d0-a01d-363129d5430d","ios":"levelo://app?vid=ef48e2a6-6162-47d0-a01d-363129d5430d"},"vehicle_type_id":"4","last_reported":1751119728,"current_range_meters":9200,"station_id":"ce4bha12rcd13ifvqee0","pricing_plan_id":"cebpf4jnsgd1na2vs0mg"},{"bike_id":"6e094b22-010a-4021-9a76-e8378ef78e75","system_id":"levelo_inurba_marseille","lat":43.28407,"lon":5.34976,"is_reserved":false,"is_disabled":false,"rental_uris":{"android":"levelo://app?vid=6e094b22-010a-4021-9a76-e8378ef78e75","ios":"levelo://app?vid=6e094b22-010a-4021-9a76-e8378ef78e75"},"vehicle_type_id":"4","last_reported":1751119728,"current_range_meters":9200,"station_id":"ce4bhbh2rcd13ifvqepg","pricing_plan_id":"cebpf4jnsgd1na2vs0mg"},{"bike_id":"ca7f240b-3c1a-4efb-ae1d-81560677b888","system_id":"levelo_inurba_marseille","lat":43.24075,"lon":5.37767,"is_reserved":false,"is_disabled":false,"rental_uris":{"android":"levelo://app?vid=ca7f240b-3c1a-4efb-ae1d-81560677b888","ios":"levelo://app?vid=ca7f240b-3c1a-4efb-ae1d-81560677b888"},"vehicle_type_id":"4","last_reported":1751119728,"current_range_meters":9200,"station_id":"ce4bhnp2rcd13ifvqgvg","pricing_plan_id":"cebpf4jnsgd1na2vs0mg"},{"bike_id":"03047c0b-d3f2-4299-b292-04c7da92b080","system_id":"levelo_inurba_marseille","lat":43.21186,"lon":5.35075,"is_reserved":false,"is_disabled":false,"rental_uris":{"android":"levelo://app?vid=03047c0b-d3f2-4299-b292-04c7da92b080","ios":"levelo://app?vid=03047c0b-d3f2-4299-b292-04c7da92b080"},"vehicle_type_id":"4","last_reported":1751119728,"current_range_meters":9600,"station_id":"","pricing_plan_id":"cebpf4jnsgd1na2vs0mg"},{"bike_id":"dd911e7d-79ca-4e06-abce-ab2c82535e2f","system_id":"levelo_inurba_marseille","lat":43.29917,"lon":5.3813,"is_reserved":false,"is_disabled":false,"rental_uris":{"android":"levelo://app?vid=dd911e7d-79ca-4e06-abce-ab2c82535e2f","ios":"levelo://app?vid=dd911e7d-79ca-4e06-abce-ab2c82535e2f"},"vehicle_type_id":"4","last_reported":1751119728,"current_range_meters":9600,"station_id":"ce4bgj12rcd13ifvqbc0","pricing_plan_id":"cebpf4jnsgd1na2vs0mg"},{"bike_id":"f48fdea1-2a26-4196-80fe-6c19cdd467cf","system_id":"levelo_inurba_marseille","lat":43.3109,"lon":5.42439,"is_reserved":false,"is_disabled":false,"rental_uris":{"android":"levelo://app?vid=f48fdea1-2a26-4196-80fe-6c19cdd467cf","ios":"levelo://app?vid=f48fdea1-2a26-4196-80fe-6c19cdd467cf"},"vehicle_type_id":"4","last_reported":1751119728,"current_range_meters":9600,"station_id":"ce4bhp92rcd13ifvqhag","pricing_plan_id":"cebpf4jnsgd1na2vs0mg"},{"bike_id":"62960455-c2dc-40bd-8878-541e26730d97","system_id":"levelo_inurba_marseille","lat":43.21747,"lon":5.34596,"is_reserved":false,"is_disabled":false,"rental_uris":{"android":"levelo://app?vid=62960455-c2dc-40bd-8878-541e26730d97","ios":"levelo://app?vid=62960455-c2dc-40bd-8878-541e26730d97"},"vehicle_type_id":"4","last_reported":1751119728,"current_range_meters":9600,"station_id":"st_cvj6r9ubvosntc0bgbag","pricing_plan_id":"cebpf4jnsgd1na2vs0mg"},{"bike_id":"7ef8a2ea-7c26-40e5-a098-1c509850125f","system_id":"levelo_inurba_marseille","lat":43.2909,"lon":5.38134,"is_reserved":false,"is_disabled":false,"rental_uris":{"android":"levelo://app?vid=7ef8a2ea-7c26-40e5-a098-1c509850125f","ios":"levelo://app?vid=7ef8a2ea-7c26-40e5-a098-1c509850125f"},"vehicle_type_id":"4","last_reported":1751119728,"current_range_meters":10000,"station_id":"ce4bh512rcd13ifvqe2g","pricing_plan_id":"cebpf4jnsgd1na2vs0mg"},{"bike_id":"923bcbf5-8b7a-4cd5-a013-04babe14815c","system_id":"levelo_inurba_marseille","lat":43.2826,"lon":5.35068,"is_reserved":false,"is_disabled":false,"rental_uris":{"android":"levelo://app?vid=923bcbf5-8b7a-4cd5-a013-04babe14815c","ios":"levelo://app?vid=923bcbf5-8b7a-4cd5-a013-04babe14815c"},"vehicle_type_id":"4","last_reported":1751119728,"current_range_meters":10000,"station_id":"ce4bhbp2rcd13ifvqerg","pricing_plan_id":"cebpf4jnsgd1na2vs0mg"},{"bike_id":"ea26b722-d8c1-440d-a792-fc66ed3c9727","system_id":"levelo_inurba_marseille","lat":43.26567,"lon":5.37274,"is_reserved":false,"is_disabled":false,"rental_uris":{"android":"levelo://app?vid=ea26b722-d8c1-440d-a792-fc66ed3c9727","ios":"levelo://app?vid=ea26b722-d8c1-440d-a792-fc66ed3c9727"},"vehicle_type_id":"4","last_reported":1751119728,"current_range_meters":10000,"station_id":"ce4bhg12rcd13ifvqf70","pricing_plan_id":"cebpf4jnsgd1na2vs0mg"},{"bike_id":"d5e70777-ad97-4594-91b6-43ede9611b14","system_id":"levelo_inurba_marseille","lat":43.321114,"lon":5.367689,"is_reserved":false,"is_disabled":false,"rental_uris":{"android":"levelo://app?vid=d5e70777-ad97-4594-91b6-43ede9611b14","ios":"levelo://app?vid=d5e70777-ad97-4594-91b6-43ede9611b14"},"vehicle_type_id":"4","last_reported":1751119728,"current_range_meters":10000,"station_id":"ce4bhrh2rcd13ifvqhug","pricing_plan_id":"cebpf4jnsgd1na2vs0mg"},{"bike_id":"d641659c-64fc-486a-91a2-3cc8072043e6","system_id":"levelo_inurba_marseille","lat":43.321138,"lon":5.367704,"is_reserved":false,"is_disabled":false,"rental_uris":{"android":"levelo://app?vid=d641659c-64fc-486a-91a2-3cc8072043e6","ios":"levelo://app?vid=d641659c-64fc-486a-91a2-3cc8072043e6"},"vehicle_type_id":"4","last_reported":1751119728,"current_range_meters":10000,"station_id":"ce4bhrh2rcd13ifvqhug","pricing_plan_id":"cebpf4jnsgd1na2vs0mg"},{"bike_id":"ea91e72f-29a7-40fe-be75-5a679d189ed1","system_id":"levelo_inurba_marseille","lat":43.29781,"lon":5.39341,"is_reserved":false,"is_disabled":false,"rental_uris":{"android":"levelo://app?vid=ea91e72f-29a7-40fe-be75-5a679d189ed1","ios":"levelo://app?vid=ea91e72f-29a7-40fe-be75-5a679d189ed1"},"vehicle_type_id":"4","last_reported":1751119728,"current_range_meters":10000,"station_id":"chh1huq6cuj3fo74tm60","pricing_plan_id":"cebpf4jnsgd1na2vs0mg"},{"bike_id":"20621cc5-5aa6-4bda-8935-4c6180cabdcd","system_id":"levelo_inurba_marseille","lat":43.23068,"lon":5.35485,"is_reserved":false,"is_disabled":false,"rental_uris":{"android":"levelo://app?vid=20621cc5-5aa6-4bda-8935-4c6180cabdcd","ios":"levelo://app?vid=20621cc5-5aa6-4bda-8935-4c6180cabdcd"},"vehicle_type_id":"4","last_reported":1751119728,"current_range_meters":10000,"station_id":"cpo3342slgdg3j2ifvpg","pricing_plan_id":"cebpf4jnsgd1na2vs0mg"},{"bike_id":"e6ce70f7-9138-485c-a4db-2c9174614cff","system_id":"levelo_inurba_marseille","lat":43.31782,"lon":5.36844,"is_reserved":false,"is_disabled":false,"rental_uris":{"android":"levelo://app?vid=e6ce70f7-9138-485c-a4db-2c9174614cff","ios":"levelo://app?vid=e6ce70f7-9138-485c-a4db-2c9174614cff"},"vehicle_type_id":"4","last_reported":1751119728,"current_range_meters":10800,"station_id":"","pricing_plan_id":"cebpf4jnsgd1na2vs0mg"},{"bike_id":"7bf6117a-62a7-4ae3-a5ec-deb790f03356","system_id":"levelo_inurba_marseille","lat":43.241669,"lon":5.363931,"is_reserved":false,"is_disabled":false,"rental_uris":{"android":"levelo://app?vid=7bf6117a-62a7-4ae3-a5ec-deb790f03356","ios":"levelo://app?vid=7bf6117a-62a7-4ae3-a5ec-deb790f03356"},"vehicle_type_id":"4","last_reported":1751119728,"current_range_meters":10800,"station_id":"","pricing_plan_id":"cebpf4jnsgd1na2vs0mg"},{"bike_id":"c19ff126-6a88-4a01-8b83-09cf48fe29e7","system_id":"levelo_inurba_marseille","lat":43.30548,"lon":5.36547,"is_reserved":false,"is_disabled":false,"rental_uris":{"android":"levelo://app?vid=c19ff126-6a88-4a01-8b83-09cf48fe29e7","ios":"levelo://app?vid=c19ff126-6a88-4a01-8b83-09cf48fe29e7"},"vehicle_type_id":"4","last_reported":1751119728,"current_range_meters":10800,"station_id":"ce4bgs12rcd13ifvqcag","pricing_plan_id":"cebpf4jnsgd1na2vs0mg"},{"bike_id":"04264e18-1aa5-4944-9ee6-e7f03a705662","system_id":"levelo_inurba_marseille","lat":43.29259,"lon":5.40905,"is_reserved":false,"is_disabled":false,"rental_uris":{"android":"levelo://app?vid=04264e18-1aa5-4944-9ee6-e7f03a705662","ios":"levelo://app?vid=04264e18-1aa5-4944-9ee6-e7f03a705662"},"vehicle_type_id":"4","last_reported":1751119728,"current_range_meters":10800,"station_id":"ce4bh192rcd13ifvqdc0","pricing_plan_id":"cebpf4jnsgd1na2vs0mg"},{"bike_id":"595a3532-78ea-445e-b7b1-59f9edd5221c","system_id":"levelo_inurba_marseille","lat":43.27974,"lon":5.38739,"is_reserved":false,"is_disabled":false,"rental_uris":{"android":"levelo://app?vid=595a3532-78ea-445e-b7b1-59f9edd5221c","ios":"levelo://app?vid=595a3532-78ea-445e-b7b1-59f9edd5221c"},"vehicle_type_id":"4","last_reported":1751119728,"current_range_meters":10800,"station_id":"ce4bhg12rcd13ifvqf80","pricing_plan_id":"cebpf4jnsgd1na2vs0mg"},{"bike_id":"6d635244-1357-4f7d-9a74-3dcdb95a1730","system_id":"levelo_inurba_marseille","lat":43.262097,"lon":5.374424,"is_reserved":false,"is_disabled":false,"rental_uris":{"android":"levelo://app?vid=6d635244-1357-4f7d-9a74-3dcdb95a1730","ios":"levelo://app?vid=6d635244-1357-4f7d-9a74-3dcdb95a1730"},"vehicle_type_id":"4","last_reported":1751119728,"current_range_meters":10800,"station_id":"ce4bhgp2rcd13ifvqfc0","pricing_plan_id":"cebpf4jnsgd1na2vs0mg"},{"bike_id":"772bba56-e5c2-435c-82ef-5a2ba48431dd","system_id":"levelo_inurba_marseille","lat":43.25493,"lon":5.37648,"is_reserved":false,"is_disabled":false,"rental_uris":{"android":"levelo://app?vid=772bba56-e5c2-435c-82ef-5a2ba48431dd","ios":"levelo://app?vid=772bba56-e5c2-435c-82ef-5a2ba48431dd"},"vehicle_type_id":"4","last_reported":1751119728,"current_range_meters":10800,"station_id":"ce4bhh12rcd13ifvqff0","pricing_plan_id":"cebpf4jnsgd1na2vs0mg"},{"bike_id":"bbc4a376-bee7-4ad5-a49a-1022d27c1489","system_id":"levelo_inurba_marseille","lat":43.32079,"lon":5.36768,"is_reserved":false,"is_disabled":false,"rental_uris":{"android":"levelo://app?vid=bbc4a376-bee7-4ad5-a49a-1022d27c1489","ios":"levelo://app?vid=bbc4a376-bee7-4ad5-a49a-1022d27c1489"},"vehicle_type_id":"4","last_reported":1751119728,"current_range_meters":10800,"station_id":"ce4bhrh2rcd13ifvqhug","pricing_plan_id":"cebpf4jnsgd1na2vs0mg"},{"bike_id":"1a36e25d-d52e-432f-b760-4358ba504fbe","system_id":"levelo_inurba_marseille","lat":43.29573,"lon":5.37519,"is_reserved":false,"is_disabled":false,"rental_uris":{"android":"levelo://app?vid=1a36e25d-d52e-432f-b760-4358ba504fbe","ios":"levelo://app?vid=1a36e25d-d52e-432f-b760-4358ba504fbe"},"vehicle_type_id":"4","last_reported":1751119728,"current_range_meters":11200,"station_id":"ce4bgh92rcd13ifvqb50","pricing_plan_id":"cebpf4jnsgd1na2vs0mg"},{"bike_id":"f71284a6-be84-428d-a30e-84396b8bb0c9","system_id":"levelo_inurba_marseille","lat":43.30884,"lon":5.39664,"is_reserved":false,"is_disabled":false,"rental_uris":{"android":"levelo://app?vid=f71284a6-be84-428d-a30e-84396b8bb0c9","ios":"levelo://app?vid=f71284a6-be84-428d-a30e-84396b8bb0c9"},"vehicle_type_id":"4","last_reported":1751119728,"current_range_meters":11200,"station_id":"ce4bh012rcd13ifvqcv0","pricing_plan_id":"cebpf4jnsgd1na2vs0mg"},{"bike_id":"85fd6766-2829-496d-9b70-fe0dd8b9529f","system_id":"levelo_inurba_marseille","lat":43.25493,"lon":5.37652,"is_reserved":false,"is_disabled":false,"rental_uris":{"android":"levelo://app?vid=85fd6766-2829-496d-9b70-fe0dd8b9529f","ios":"levelo://app?vid=85fd6766-2829-496d-9b70-fe0dd8b9529f"},"vehicle_type_id":"4","last_reported":1751119728,"current_range_meters":11200,"station_id":"ce4bhh12rcd13ifvqff0","pricing_plan_id":"cebpf4jnsgd1na2vs0mg"},{"bike_id":"a2588648-26dc-4121-bee2-c283e3f6b0c1","system_id":"levelo_inurba_marseille","lat":43.34162,"lon":5.40905,"is_reserved":false,"is_disabled":false,"rental_uris":{"android":"levelo://app?vid=a2588648-26dc-4121-bee2-c283e3f6b0c1","ios":"levelo://app?vid=a2588648-26dc-4121-bee2-c283e3f6b0c1"},"vehicle_type_id":"4","last_reported":1751119728,"current_range_meters":11200,"station_id":"ce4bhqh2rcd13ifvqhlg","pricing_plan_id":"cebpf4jnsgd1na2vs0mg"},{"bike_id":"13726ea4-91b3-4b24-87ce-db653217d50c","system_id":"levelo_inurba_marseille","lat":43.32141,"lon":5.36743,"is_reserved":false,"is_disabled":false,"rental_uris":{"android":"levelo://app?vid=13726ea4-91b3-4b24-87ce-db653217d50c","ios":"levelo://app?vid=13726ea4-91b3-4b24-87ce-db653217d50c"},"vehicle_type_id":"4","last_reported":1751119728,"current_range_meters":11200,"station_id":"ce4bhrh2rcd13ifvqhug","pricing_plan_id":"cebpf4jnsgd1na2vs0mg"},{"bike_id":"b266b36d-c328-4691-8298-fd36d6e08d51","system_id":"levelo_inurba_marseille","lat":43.22907,"lon":5.35347,"is_reserved":false,"is_disabled":false,"rental_uris":{"android":"levelo://app?vid=b266b36d-c328-4691-8298-fd36d6e08d51","ios":"levelo://app?vid=b266b36d-c328-4691-8298-fd36d6e08d51"},"vehicle_type_id":"4","last_reported":1751119728,"current_range_meters":11200,"station_id":"cpo3532slgdg3j2ikp40","pricing_plan_id":"cebpf4jnsgd1na2vs0mg"},{"bike_id":"c9cf163e-3d51-419c-897e-8ec1af3c58e2","system_id":"levelo_inurba_marseille","lat":43.30424,"lon":5.39727,"is_reserved":false,"is_disabled":false,"rental_uris":{"android":"levelo://app?vid=c9cf163e-3d51-419c-897e-8ec1af3c58e2","ios":"levelo://app?vid=c9cf163e-3d51-419c-897e-8ec1af3c58e2"},"vehicle_type_id":"4","last_reported":1751119728,"current_range_meters":11600,"station_id":"ce4bh092rcd13ifvqd20","pricing_plan_id":"cebpf4jnsgd1na2vs0mg"},{"bike_id":"14f1aff1-0680-465b-ae59-35de4b6e00a5","system_id":"levelo_inurba_marseille","lat":43.29528,"lon":5.3903,"is_reserved":false,"is_disabled":false,"rental_uris":{"android":"levelo://app?vid=14f1aff1-0680-465b-ae59-35de4b6e00a5","ios":"levelo://app?vid=14f1aff1-0680-465b-ae59-35de4b6e00a5"},"vehicle_type_id":"4","last_reported":1751119728,"current_range_meters":11600,"station_id":"ce4bh3p2rcd13ifvqdp0","pricing_plan_id":"cebpf4jnsgd1na2vs0mg"},{"bike_id":"d1f39e98-4327-4940-9788-cc26cac6cb22","system_id":"levelo_inurba_marseille","lat":43.28102,"lon":5.37834,"is_reserved":false,"is_disabled":false,"rental_uris":{"android":"levelo://app?vid=d1f39e98-4327-4940-9788-cc26cac6cb22","ios":"levelo://app?vid=d1f39e98-4327-4940-9788-cc26cac6cb22"},"vehicle_type_id":"4","last_reported":1751119728,"current_range_meters":11600,"station_id":"ce4bha12rcd13ifvqee0","pricing_plan_id":"cebpf4jnsgd1na2vs0mg"},{"bike_id":"14f2d9f5-9335-4d26-b561-237af436202c","system_id":"levelo_inurba_marseille","lat":43.28858,"lon":5.35851,"is_reserved":false,"is_disabled":false,"rental_uris":{"android":"levelo://app?vid=14f2d9f5-9335-4d26-b561-237af436202c","ios":"levelo://app?vid=14f2d9f5-9335-4d26-b561-237af436202c"},"vehicle_type_id":"4","last_reported":1751119728,"current_range_meters":11600,"station_id":"ce4bhb12rcd13ifvqem0","pricing_plan_id":"cebpf4jnsgd1na2vs0mg"},{"bike_id":"c7396d38-e122-4b74-87b9-36d364b3e5f2","system_id":"levelo_inurba_marseille","lat":43.28261,"lon":5.35077,"is_reserved":false,"is_disabled":false,"rental_uris":{"android":"levelo://app?vid=c7396d38-e122-4b74-87b9-36d364b3e5f2","ios":"levelo://app?vid=c7396d38-e122-4b74-87b9-36d364b3e5f2"},"vehicle_type_id":"4","last_reported":1751119728,"current_range_meters":11600,"station_id":"ce4bhbp2rcd13ifvqerg","pricing_plan_id":"cebpf4jnsgd1na2vs0mg"},{"bike_id":"8a50aac5-39f1-4536-bea7-43efb3a7f1fe","system_id":"levelo_inurba_marseille","lat":43.21755,"lon":5.34605,"is_reserved":false,"is_disabled":false,"rental_uris":{"android":"levelo://app?vid=8a50aac5-39f1-4536-bea7-43efb3a7f1fe","ios":"levelo://app?vid=8a50aac5-39f1-4536-bea7-43efb3a7f1fe"},"vehicle_type_id":"4","last_reported":1751119728,"current_range_meters":11600,"station_id":"st_cvj6r9ubvosntc0bgbag","pricing_plan_id":"cebpf4jnsgd1na2vs0mg"},{"bike_id":"44b677c8-76ed-4eac-8888-58151f9d5d6e","system_id":"levelo_inurba_marseille","lat":43.319495,"lon":5.367531,"is_reserved":false,"is_disabled":false,"rental_uris":{"android":"levelo://app?vid=44b677c8-76ed-4eac-8888-58151f9d5d6e","ios":"levelo://app?vid=44b677c8-76ed-4eac-8888-58151f9d5d6e"},"vehicle_type_id":"4","last_reported":1751119728,"current_range_meters":12000,"station_id":"","pricing_plan_id":"cebpf4jnsgd1na2vs0mg"},{"bike_id":"bcc0e172-8c9f-4c9e-a4bd-acfcfa94b3fa","system_id":"levelo_inurba_marseille","lat":43.28263,"lon":5.35079,"is_reserved":false,"is_disabled":false,"rental_uris":{"android":"levelo://app?vid=bcc0e172-8c9f-4c9e-a4bd-acfcfa94b3fa","ios":"levelo://app?vid=bcc0e172-8c9f-4c9e-a4bd-acfcfa94b3fa"},"vehicle_type_id":"4","last_reported":1751119728,"current_range_meters":12000,"station_id":"ce4bhbp2rcd13ifvqerg","pricing_plan_id":"cebpf4jnsgd1na2vs0mg"},{"bike_id":"d5d23364-9350-4af5-92ca-028d61563caf","system_id":"levelo_inurba_marseille","lat":43.28626,"lon":5.3508,"is_reserved":false,"is_disabled":false,"rental_uris":{"android":"levelo://app?vid=d5d23364-9350-4af5-92ca-028d61563caf","ios":"levelo://app?vid=d5d23364-9350-4af5-92ca-028d61563caf"},"vehicle_type_id":"4","last_reported":1751119728,"current_range_meters":12000,"station_id":"ce4bhch2rcd13ifvqeug","pricing_plan_id":"cebpf4jnsgd1na2vs0mg"},{"bike_id":"16d85633-44a2-44b6-8345-62bcae52a75f","system_id":"levelo_inurba_marseille","lat":43.26551,"lon":5.37291,"is_reserved":false,"is_disabled":false,"rental_uris":{"android":"levelo://app?vid=16d85633-44a2-44b6-8345-62bcae52a75f","ios":"levelo://app?vid=16d85633-44a2-44b6-8345-62bcae52a75f"},"vehicle_type_id":"4","last_reported":1751119728,"current_range_meters":12000,"station_id":"ce4bhg12rcd13ifvqf70","pricing_plan_id":"cebpf4jnsgd1na2vs0mg"},{"bike_id":"746972d8-adce-4f90-a9f2-45ba1d3ccd96","system_id":"levelo_inurba_marseille","lat":43.2418,"lon":5.39735,"is_reserved":false,"is_disabled":false,"rental_uris":{"android":"levelo://app?vid=746972d8-adce-4f90-a9f2-45ba1d3ccd96","ios":"levelo://app?vid=746972d8-adce-4f90-a9f2-45ba1d3ccd96"},"vehicle_type_id":"4","last_reported":1751119728,"current_range_meters":12000,"station_id":"ce4bhn12rcd13ifvqgpg","pricing_plan_id":"cebpf4jnsgd1na2vs0mg"},{"bike_id":"2cbd26d7-8ccb-4bca-b892-7ed090bc3322","system_id":"levelo_inurba_marseille","lat":43.23188,"lon":5.35539,"is_reserved":false,"is_disabled":false,"rental_uris":{"android":"levelo://app?vid=2cbd26d7-8ccb-4bca-b892-7ed090bc3322","ios":"levelo://app?vid=2cbd26d7-8ccb-4bca-b892-7ed090bc3322"},"vehicle_type_id":"4","last_reported":1751119728,"current_range_meters":12000,"station_id":"ce4bhu92rcd13ifvqi70","pricing_plan_id":"cebpf4jnsgd1na2vs0mg"},{"bike_id":"b188fa19-9dfd-41f1-9dd9-74ad99ee90ec","system_id":"levelo_inurba_marseille","lat":43.29621,"lon":5.37162,"is_reserved":false,"is_disabled":false,"rental_uris":{"android":"levelo://app?vid=b188fa19-9dfd-41f1-9dd9-74ad99ee90ec","ios":"levelo://app?vid=b188fa19-9dfd-41f1-9dd9-74ad99ee90ec"},"vehicle_type_id":"4","last_reported":1751119728,"current_range_meters":12400,"station_id":"ce4bgnh2rcd13ifvqc0g","pricing_plan_id":"cebpf4jnsgd1na2vs0mg"},{"bike_id":"6b83c03e-42dd-4124-9c6f-f6a59511af17","system_id":"levelo_inurba_marseille","lat":43.30434,"lon":5.3975,"is_reserved":false,"is_disabled":false,"rental_uris":{"android":"levelo://app?vid=6b83c03e-42dd-4124-9c6f-f6a59511af17","ios":"levelo://app?vid=6b83c03e-42dd-4124-9c6f-f6a59511af17"},"vehicle_type_id":"4","last_reported":1751119728,"current_range_meters":12400,"station_id":"ce4bh092rcd13ifvqd20","pricing_plan_id":"cebpf4jnsgd1na2vs0mg"},{"bike_id":"cf984e9c-fafd-4539-8384-f53854da8be6","system_id":"levelo_inurba_marseille","lat":43.27384,"lon":5.36262,"is_reserved":false,"is_disabled":false,"rental_uris":{"android":"levelo://app?vid=cf984e9c-fafd-4539-8384-f53854da8be6","ios":"levelo://app?vid=cf984e9c-fafd-4539-8384-f53854da8be6"},"vehicle_type_id":"4","last_reported":1751119728,"current_range_meters":12400,"station_id":"ce4bhbh2rcd13ifvqeo0","pricing_plan_id":"cebpf4jnsgd1na2vs0mg"},{"bike_id":"a0dba401-b1cc-4426-ba9b-d31b09bd8210","system_id":"levelo_inurba_marseille","lat":43.25504,"lon":5.37658,"is_reserved":false,"is_disabled":false,"rental_uris":{"android":"levelo://app?vid=a0dba401-b1cc-4426-ba9b-d31b09bd8210","ios":"levelo://app?vid=a0dba401-b1cc-4426-ba9b-d31b09bd8210"},"vehicle_type_id":"4","last_reported":1751119728,"current_range_meters":12400,"station_id":"ce4bhh12rcd13ifvqff0","pricing_plan_id":"cebpf4jnsgd1na2vs0mg"},{"bike_id":"9c63e9b2-2323-48f2-93ab-713cdd6ccb8e","system_id":"levelo_inurba_marseille","lat":43.3206,"lon":5.41588,"is_reserved":false,"is_disabled":false,"rental_uris":{"android":"levelo://app?vid=9c63e9b2-2323-48f2-93ab-713cdd6ccb8e","ios":"levelo://app?vid=9c63e9b2-2323-48f2-93ab-713cdd6ccb8e"},"vehicle_type_id":"4","last_reported":1751119728,"current_range_meters":12400,"station_id":"ce4bhq92rcd13ifvqhkg","pricing_plan_id":"cebpf4jnsgd1na2vs0mg"},{"bike_id":"bee8ce47-c118-488e-b8be-42eeb3bb1948","system_id":"levelo_inurba_marseille","lat":43.217434,"lon":5.346016,"is_reserved":false,"is_disabled":false,"rental_uris":{"android":"levelo://app?vid=bee8ce47-c118-488e-b8be-42eeb3bb1948","ios":"levelo://app?vid=bee8ce47-c118-488e-b8be-42eeb3bb1948"},"vehicle_type_id":"4","last_reported":1751119728,"current_range_meters":12400,"station_id":"st_cvj6r9ubvosntc0bgbag","pricing_plan_id":"cebpf4jnsgd1na2vs0mg"},{"bike_id":"c0a51e45-359d-44c7-9fef-4d28e29b10a5","system_id":"levelo_inurba_marseille","lat":43.29356,"lon":5.37844,"is_reserved":false,"is_disabled":false,"rental_uris":{"android":"levelo://app?vid=c0a51e45-359d-44c7-9fef-4d28e29b10a5","ios":"levelo://app?vid=c0a51e45-359d-44c7-9fef-4d28e29b10a5"},"vehicle_type_id":"4","last_reported":1751119728,"current_range_meters":12800,"station_id":"ce4bgjh2rcd13ifvqbf0","pricing_plan_id":"cebpf4jnsgd1na2vs0mg"},{"bike_id":"38c4a656-b982-4711-80b9-26ae115b6245","system_id":"levelo_inurba_marseille","lat":43.3136,"lon":5.38492,"is_reserved":false,"is_disabled":false,"rental_uris":{"android":"levelo://app?vid=38c4a656-b982-4711-80b9-26ae115b6245","ios":"levelo://app?vid=38c4a656-b982-4711-80b9-26ae115b6245"},"vehicle_type_id":"4","last_reported":1751119728,"current_range_meters":12800,"station_id":"ce4bgt92rcd13ifvqcf0","pricing_plan_id":"cebpf4jnsgd1na2vs0mg"},{"bike_id":"bd61da7f-4261-475d-afb1-e758ca3d3f38","system_id":"levelo_inurba_marseille","lat":43.30422,"lon":5.39743,"is_reserved":false,"is_disabled":false,"rental_uris":{"android":"levelo://app?vid=bd61da7f-4261-475d-afb1-e758ca3d3f38","ios":"levelo://app?vid=bd61da7f-4261-475d-afb1-e758ca3d3f38"},"vehicle_type_id":"4","last_reported":1751119728,"current_range_meters":12800,"station_id":"ce4bh092rcd13ifvqd20","pricing_plan_id":"cebpf4jnsgd1na2vs0mg"},{"bike_id":"e33cafd1-8c4d-4f35-aba6-5250478e97ac","system_id":"levelo_inurba_marseille","lat":43.28413,"lon":5.34994,"is_reserved":false,"is_disabled":false,"rental_uris":{"android":"levelo://app?vid=e33cafd1-8c4d-4f35-aba6-5250478e97ac","ios":"levelo://app?vid=e33cafd1-8c4d-4f35-aba6-5250478e97ac"},"vehicle_type_id":"4","last_reported":1751119728,"current_range_meters":12800,"station_id":"ce4bhbh2rcd13ifvqepg","pricing_plan_id":"cebpf4jnsgd1na2vs0mg"},{"bike_id":"8ef3b645-d610-4f9a-a00e-53c525a6077f","system_id":"levelo_inurba_marseille","lat":43.27971,"lon":5.3874,"is_reserved":false,"is_disabled":false,"rental_uris":{"android":"levelo://app?vid=8ef3b645-d610-4f9a-a00e-53c525a6077f","ios":"levelo://app?vid=8ef3b645-d610-4f9a-a00e-53c525a6077f"},"vehicle_type_id":"4","last_reported":1751119728,"current_range_meters":12800,"station_id":"ce4bhg12rcd13ifvqf80","pricing_plan_id":"cebpf4jnsgd1na2vs0mg"},{"bike_id":"32983323-0cd0-407c-af59-7a38a9d92fd7","system_id":"levelo_inurba_marseille","lat":43.23201,"lon":5.39987,"is_reserved":false,"is_disabled":false,"rental_uris":{"android":"levelo://app?vid=32983323-0cd0-407c-af59-7a38a9d92fd7","ios":"levelo://app?vid=32983323-0cd0-407c-af59-7a38a9d92fd7"},"vehicle_type_id":"4","last_reported":1751119728,"current_range_meters":12800,"station_id":"ce4bhn12rcd13ifvqgqg","pricing_plan_id":"cebpf4jnsgd1na2vs0mg"},{"bike_id":"873ce198-d36d-4815-8778-b72bd2ca0116","system_id":"levelo_inurba_marseille","lat":43.3214,"lon":5.36773,"is_reserved":false,"is_disabled":false,"rental_uris":{"android":"levelo://app?vid=873ce198-d36d-4815-8778-b72bd2ca0116","ios":"levelo://app?vid=873ce198-d36d-4815-8778-b72bd2ca0116"},"vehicle_type_id":"4","last_reported":1751119728,"current_range_meters":12800,"station_id":"ce4bhrh2rcd13ifvqhug","pricing_plan_id":"cebpf4jnsgd1na2vs0mg"},{"bike_id":"13fabc0f-5bfd-4dc8-9136-84b1659cd66b","system_id":"levelo_inurba_marseille","lat":43.21189,"lon":5.35076,"is_reserved":false,"is_disabled":false,"rental_uris":{"android":"levelo://app?vid=13fabc0f-5bfd-4dc8-9136-84b1659cd66b","ios":"levelo://app?vid=13fabc0f-5bfd-4dc8-9136-84b1659cd66b"},"vehicle_type_id":"4","last_reported":1751119728,"current_range_meters":12800,"station_id":"st_cvj6sg6p6f1abm77japg","pricing_plan_id":"cebpf4jnsgd1na2vs0mg"},{"bike_id":"deabcf2e-a7f1-43cb-a646-c17503461966","system_id":"levelo_inurba_marseille","lat":43.30142,"lon":5.37427,"is_reserved":false,"is_disabled":false,"rental_uris":{"android":"levelo://app?vid=deabcf2e-a7f1-43cb-a646-c17503461966","ios":"levelo://app?vid=deabcf2e-a7f1-43cb-a646-c17503461966"},"vehicle_type_id":"4","last_reported":1751119728,"current_range_meters":13600,"station_id":"ce4bgs92rcd13ifvqcc0","pricing_plan_id":"cebpf4jnsgd1na2vs0mg"},{"bike_id":"3b4747d9-5fb3-4b09-a2c5-dc6ab0513641","system_id":"levelo_inurba_marseille","lat":43.28413,"lon":5.34987,"is_reserved":false,"is_disabled":false,"rental_uris":{"android":"levelo://app?vid=3b4747d9-5fb3-4b09-a2c5-dc6ab0513641","ios":"levelo://app?vid=3b4747d9-5fb3-4b09-a2c5-dc6ab0513641"},"vehicle_type_id":"4","last_reported":1751119728,"current_range_meters":13600,"station_id":"ce4bhbh2rcd13ifvqepg","pricing_plan_id":"cebpf4jnsgd1na2vs0mg"},{"bike_id":"5064fb04-62f8-442d-822c-3cc31b94799f","system_id":"levelo_inurba_marseille","lat":43.28408,"lon":5.34978,"is_reserved":false,"is_disabled":false,"rental_uris":{"android":"levelo://app?vid=5064fb04-62f8-442d-822c-3cc31b94799f","ios":"levelo://app?vid=5064fb04-62f8-442d-822c-3cc31b94799f"},"vehicle_type_id":"4","last_reported":1751119728,"current_range_meters":13600,"station_id":"ce4bhbh2rcd13ifvqepg","pricing_plan_id":"cebpf4jnsgd1na2vs0mg"},{"bike_id":"12c7fc9f-7c7b-4185-9b2f-badd0c17e36b","system_id":"levelo_inurba_marseille","lat":43.24746,"lon":5.37442,"is_reserved":false,"is_disabled":false,"rental_uris":{"android":"levelo://app?vid=12c7fc9f-7c7b-4185-9b2f-badd0c17e36b","ios":"levelo://app?vid=12c7fc9f-7c7b-4185-9b2f-badd0c17e36b"},"vehicle_type_id":"4","last_reported":1751119728,"current_range_meters":13600,"station_id":"ce4bhgh2rcd13ifvqfb0","pricing_plan_id":"cebpf4jnsgd1na2vs0mg"},{"bike_id":"a7883090-0e10-4075-944b-a3cca54bc544","system_id":"levelo_inurba_marseille","lat":43.22505,"lon":5.34783,"is_reserved":false,"is_disabled":false,"rental_uris":{"android":"levelo://app?vid=a7883090-0e10-4075-944b-a3cca54bc544","ios":"levelo://app?vid=a7883090-0e10-4075-944b-a3cca54bc544"},"vehicle_type_id":"4","last_reported":1751119728,"current_range_meters":13600,"station_id":"st_cvj5dfep6f1abm77gieg","pricing_plan_id":"cebpf4jnsgd1na2vs0mg"},{"bike_id":"db6aaebb-75a1-4c34-bf9a-52b3d4679d75","system_id":"levelo_inurba_marseille","lat":43.21718,"lon":5.34618,"is_reserved":false,"is_disabled":false,"rental_uris":{"android":"levelo://app?vid=db6aaebb-75a1-4c34-bf9a-52b3d4679d75","ios":"levelo://app?vid=db6aaebb-75a1-4c34-bf9a-52b3d4679d75"},"vehicle_type_id":"4","last_reported":1751119728,"current_range_meters":13600,"station_id":"st_cvj6r9ubvosntc0bgbag","pricing_plan_id":"cebpf4jnsgd1na2vs0mg"},{"bike_id":"964ceafc-a17f-4b98-a26e-079e76227c48","system_id":"levelo_inurba_marseille","lat":43.24184,"lon":5.36175,"is_reserved":false,"is_disabled":false,"rental_uris":{"android":"levelo://app?vid=964ceafc-a17f-4b98-a26e-079e76227c48","ios":"levelo://app?vid=964ceafc-a17f-4b98-a26e-079e76227c48"},"vehicle_type_id":"4","last_reported":1751119728,"current_range_meters":14000,"station_id":"","pricing_plan_id":"cebpf4jnsgd1na2vs0mg"},{"bike_id":"721165c1-ef6f-40cc-8d33-af3a7999864b","system_id":"levelo_inurba_marseille","lat":43.326506,"lon":5.378888,"is_reserved":false,"is_disabled":false,"rental_uris":{"android":"levelo://app?vid=721165c1-ef6f-40cc-8d33-af3a7999864b","ios":"levelo://app?vid=721165c1-ef6f-40cc-8d33-af3a7999864b"},"vehicle_type_id":"4","last_reported":1751119728,"current_range_meters":14000,"station_id":"","pricing_plan_id":"cebpf4jnsgd1na2vs0mg"},{"bike_id":"73e2ae3c-69be-42d2-aca9-d82d7eca1fce","system_id":"levelo_inurba_marseille","lat":43.31162,"lon":5.38719,"is_reserved":false,"is_disabled":false,"rental_uris":{"android":"levelo://app?vid=73e2ae3c-69be-42d2-aca9-d82d7eca1fce","ios":"levelo://app?vid=73e2ae3c-69be-42d2-aca9-d82d7eca1fce"},"vehicle_type_id":"4","last_reported":1751119728,"current_range_meters":14000,"station_id":"ce4bgv12rcd13ifvqcp0","pricing_plan_id":"cebpf4jnsgd1na2vs0mg"},{"bike_id":"465d715d-c466-435a-83c2-03d320454a0a","system_id":"levelo_inurba_marseille","lat":43.28411,"lon":5.34998,"is_reserved":false,"is_disabled":false,"rental_uris":{"android":"levelo://app?vid=465d715d-c466-435a-83c2-03d320454a0a","ios":"levelo://app?vid=465d715d-c466-435a-83c2-03d320454a0a"},"vehicle_type_id":"4","last_reported":1751119728,"current_range_meters":14000,"station_id":"ce4bhbh2rcd13ifvqepg","pricing_plan_id":"cebpf4jnsgd1na2vs0mg"},{"bike_id":"14e8ef37-e834-4d76-9946-e98f7a083a2f","system_id":"levelo_inurba_marseille","lat":43.21195,"lon":5.35075,"is_reserved":false,"is_disabled":false,"rental_uris":{"android":"levelo://app?vid=14e8ef37-e834-4d76-9946-e98f7a083a2f","ios":"levelo://app?vid=14e8ef37-e834-4d76-9946-e98f7a083a2f"},"vehicle_type_id":"4","last_reported":1751119728,"current_range_meters":14000,"station_id":"st_cvj6sg6p6f1abm77japg","pricing_plan_id":"cebpf4jnsgd1na2vs0mg"},{"bike_id":"0ca717a1-45d0-467a-befd-9d85a9b7f044","system_id":"levelo_inurba_marseille","lat":43.30328,"lon":5.40113,"is_reserved":false,"is_disabled":false,"rental_uris":{"android":"levelo://app?vid=0ca717a1-45d0-467a-befd-9d85a9b7f044","ios":"levelo://app?vid=0ca717a1-45d0-467a-befd-9d85a9b7f044"},"vehicle_type_id":"4","last_reported":1751119728,"current_range_meters":14400,"station_id":"","pricing_plan_id":"cebpf4jnsgd1na2vs0mg"},{"bike_id":"137a946d-57d1-488d-b092-46a93fc05b12","system_id":"levelo_inurba_marseille","lat":43.28272,"lon":5.35077,"is_reserved":false,"is_disabled":false,"rental_uris":{"android":"levelo://app?vid=137a946d-57d1-488d-b092-46a93fc05b12","ios":"levelo://app?vid=137a946d-57d1-488d-b092-46a93fc05b12"},"vehicle_type_id":"4","last_reported":1751119728,"current_range_meters":14400,"station_id":"ce4bhbp2rcd13ifvqerg","pricing_plan_id":"cebpf4jnsgd1na2vs0mg"},{"bike_id":"10e0cc2e-10cc-4c9b-ba21-9d4c088b1b63","system_id":"levelo_inurba_marseille","lat":43.29902,"lon":5.43667,"is_reserved":false,"is_disabled":false,"rental_uris":{"android":"levelo://app?vid=10e0cc2e-10cc-4c9b-ba21-9d4c088b1b63","ios":"levelo://app?vid=10e0cc2e-10cc-4c9b-ba21-9d4c088b1b63"},"vehicle_type_id":"4","last_reported":1751119728,"current_range_meters":14400,"station_id":"ce4bhpp2rcd13ifvqhfg","pricing_plan_id":"cebpf4jnsgd1na2vs0mg"},{"bike_id":"762acdc5-9b99-47a0-bda1-ee8060271245","system_id":"levelo_inurba_marseille","lat":43.21184,"lon":5.35087,"is_reserved":false,"is_disabled":false,"rental_uris":{"android":"levelo://app?vid=762acdc5-9b99-47a0-bda1-ee8060271245","ios":"levelo://app?vid=762acdc5-9b99-47a0-bda1-ee8060271245"},"vehicle_type_id":"4","last_reported":1751119728,"current_range_meters":14800,"station_id":"","pricing_plan_id":"cebpf4jnsgd1na2vs0mg"},{"bike_id":"0c803610-f6e9-41d4-936d-0b433fa62796","system_id":"levelo_inurba_marseille","lat":43.29351,"lon":5.37124,"is_reserved":false,"is_disabled":false,"rental_uris":{"android":"levelo://app?vid=0c803610-f6e9-41d4-936d-0b433fa62796","ios":"levelo://app?vid=0c803610-f6e9-41d4-936d-0b433fa62796"},"vehicle_type_id":"4","last_reported":1751119728,"current_range_meters":14800,"station_id":"","pricing_plan_id":"cebpf4jnsgd1na2vs0mg"},{"bike_id":"828d8821-81e4-46b4-8f8d-85911226e6b8","system_id":"levelo_inurba_marseille","lat":43.28459,"lon":5.35881,"is_reserved":false,"is_disabled":false,"rental_uris":{"android":"levelo://app?vid=828d8821-81e4-46b4-8f8d-85911226e6b8","ios":"levelo://app?vid=828d8821-81e4-46b4-8f8d-85911226e6b8"},"vehicle_type_id":"4","last_reported":1751119728,"current_range_meters":14800,"station_id":"ce4bhah2rcd13ifvqei0","pricing_plan_id":"cebpf4jnsgd1na2vs0mg"},{"bike_id":"1c65bfc3-ae68-44a0-8cca-6287af1d3354","system_id":"levelo_inurba_marseille","lat":43.265587,"lon":5.372837,"is_reserved":false,"is_disabled":false,"rental_uris":{"android":"levelo://app?vid=1c65bfc3-ae68-44a0-8cca-6287af1d3354","ios":"levelo://app?vid=1c65bfc3-ae68-44a0-8cca-6287af1d3354"},"vehicle_type_id":"4","last_reported":1751119728,"current_range_meters":14800,"station_id":"ce4bhg12rcd13ifvqf70","pricing_plan_id":"cebpf4jnsgd1na2vs0mg"},{"bike_id":"b1abe80e-0b82-4f6c-8de0-cb6a27e4b156","system_id":"levelo_inurba_marseille","lat":43.24165,"lon":5.3639,"is_reserved":false,"is_disabled":false,"rental_uris":{"android":"levelo://app?vid=b1abe80e-0b82-4f6c-8de0-cb6a27e4b156","ios":"levelo://app?vid=b1abe80e-0b82-4f6c-8de0-cb6a27e4b156"},"vehicle_type_id":"4","last_reported":1751119728,"current_range_meters":14800,"station_id":"cpo36qri1sfpv3e86is0","pricing_plan_id":"cebpf4jnsgd1na2vs0mg"},{"bike_id":"f0057ca2-de2d-4464-8902-068dc3677e00","system_id":"levelo_inurba_marseille","lat":43.21187,"lon":5.35068,"is_reserved":false,"is_disabled":false,"rental_uris":{"android":"levelo://app?vid=f0057ca2-de2d-4464-8902-068dc3677e00","ios":"levelo://app?vid=f0057ca2-de2d-4464-8902-068dc3677e00"},"vehicle_type_id":"4","last_reported":1751119728,"current_range_meters":14800,"station_id":"st_cvj6sg6p6f1abm77japg","pricing_plan_id":"cebpf4jnsgd1na2vs0mg"},{"bike_id":"c4e23027-fb76-4e12-a17a-e866f2d0c4a5","system_id":"levelo_inurba_marseille","lat":43.24806,"lon":5.37457,"is_reserved":false,"is_disabled":false,"rental_uris":{"android":"levelo://app?vid=c4e23027-fb76-4e12-a17a-e866f2d0c4a5","ios":"levelo://app?vid=c4e23027-fb76-4e12-a17a-e866f2d0c4a5"},"vehicle_type_id":"4","last_reported":1751119728,"current_range_meters":15200,"station_id":"","pricing_plan_id":"cebpf4jnsgd1na2vs0mg"},{"bike_id":"802b2630-8376-4119-a81f-42e77fef6b85","system_id":"levelo_inurba_marseille","lat":43.28424,"lon":5.35,"is_reserved":false,"is_disabled":false,"rental_uris":{"android":"levelo://app?vid=802b2630-8376-4119-a81f-42e77fef6b85","ios":"levelo://app?vid=802b2630-8376-4119-a81f-42e77fef6b85"},"vehicle_type_id":"4","last_reported":1751119728,"current_range_meters":15200,"station_id":"ce4bhbh2rcd13ifvqepg","pricing_plan_id":"cebpf4jnsgd1na2vs0mg"},{"bike_id":"44c39e9f-0576-4615-9eca-c0a36294ff55","system_id":"levelo_inurba_marseille","lat":43.26024,"lon":5.37551,"is_reserved":false,"is_disabled":false,"rental_uris":{"android":"levelo://app?vid=44c39e9f-0576-4615-9eca-c0a36294ff55","ios":"levelo://app?vid=44c39e9f-0576-4615-9eca-c0a36294ff55"},"vehicle_type_id":"4","last_reported":1751119728,"current_range_meters":15200,"station_id":"ce4bhgh2rcd13ifvqfa0","pricing_plan_id":"cebpf4jnsgd1na2vs0mg"},{"bike_id":"50e5799d-9c24-4046-8311-f74d035dee59","system_id":"levelo_inurba_marseille","lat":43.24081,"lon":5.37753,"is_reserved":false,"is_disabled":false,"rental_uris":{"android":"levelo://app?vid=50e5799d-9c24-4046-8311-f74d035dee59","ios":"levelo://app?vid=50e5799d-9c24-4046-8311-f74d035dee59"},"vehicle_type_id":"4","last_reported":1751119728,"current_range_meters":15200,"station_id":"ce4bhnp2rcd13ifvqgvg","pricing_plan_id":"cebpf4jnsgd1na2vs0mg"},{"bike_id":"6af79a00-84aa-4908-a347-34425e08c383","system_id":"levelo_inurba_marseille","lat":43.30279,"lon":5.37561,"is_reserved":false,"is_disabled":false,"rental_uris":{"android":"levelo://app?vid=6af79a00-84aa-4908-a347-34425e08c383","ios":"levelo://app?vid=6af79a00-84aa-4908-a347-34425e08c383"},"vehicle_type_id":"4","last_reported":1751119728,"current_range_meters":16000,"station_id":"","pricing_plan_id":"cebpf4jnsgd1na2vs0mg"},{"bike_id":"a030e09e-6025-4bf3-94ca-3962cb108236","system_id":"levelo_inurba_marseille","lat":43.30947,"lon":5.39021,"is_reserved":false,"is_disabled":false,"rental_uris":{"android":"levelo://app?vid=a030e09e-6025-4bf3-94ca-3962cb108236","ios":"levelo://app?vid=a030e09e-6025-4bf3-94ca-3962cb108236"},"vehicle_type_id":"4","last_reported":1751119728,"current_range_meters":16000,"station_id":"ce4bgup2rcd13ifvqco0","pricing_plan_id":"cebpf4jnsgd1na2vs0mg"},{"bike_id":"331ca44a-f01c-442b-9fc7-c89f2943d36b","system_id":"levelo_inurba_marseille","lat":43.28274,"lon":5.35058,"is_reserved":false,"is_disabled":false,"rental_uris":{"android":"levelo://app?vid=331ca44a-f01c-442b-9fc7-c89f2943d36b","ios":"levelo://app?vid=331ca44a-f01c-442b-9fc7-c89f2943d36b"},"vehicle_type_id":"4","last_reported":1751119728,"current_range_meters":16000,"station_id":"ce4bhbp2rcd13ifvqerg","pricing_plan_id":"cebpf4jnsgd1na2vs0mg"},{"bike_id":"7025df18-330e-42a4-bc8d-a4cf9b4b300e","system_id":"levelo_inurba_marseille","lat":43.24811,"lon":5.37444,"is_reserved":false,"is_disabled":false,"rental_uris":{"android":"levelo://app?vid=7025df18-330e-42a4-bc8d-a4cf9b4b300e","ios":"levelo://app?vid=7025df18-330e-42a4-bc8d-a4cf9b4b300e"},"vehicle_type_id":"4","last_reported":1751119728,"current_range_meters":16000,"station_id":"ce4bhgh2rcd13ifvqfb0","pricing_plan_id":"cebpf4jnsgd1na2vs0mg"},{"bike_id":"2a9a5366-8dad-42f1-bee6-ffb042c54776","system_id":"levelo_inurba_marseille","lat":43.21188,"lon":5.35075,"is_reserved":false,"is_disabled":false,"rental_uris":{"android":"levelo://app?vid=2a9a5366-8dad-42f1-bee6-ffb042c54776","ios":"levelo://app?vid=2a9a5366-8dad-42f1-bee6-ffb042c54776"},"vehicle_type_id":"4","last_reported":1751119728,"current_range_meters":16000,"station_id":"st_cvj6sg6p6f1abm77japg","pricing_plan_id":"cebpf4jnsgd1na2vs0mg"},{"bike_id":"e5e9e78b-4730-43b1-8651-5c571c638bbb","system_id":"levelo_inurba_marseille","lat":43.21187,"lon":5.35071,"is_reserved":false,"is_disabled":false,"rental_uris":{"android":"levelo://app?vid=e5e9e78b-4730-43b1-8651-5c571c638bbb","ios":"levelo://app?vid=e5e9e78b-4730-43b1-8651-5c571c638bbb"},"vehicle_type_id":"4","last_reported":1751119728,"current_range_meters":16000,"station_id":"st_cvj6sg6p6f1abm77japg","pricing_plan_id":"cebpf4jnsgd1na2vs0mg"},{"bike_id":"7a21c423-c0fd-4173-8e03-615baa766d94","system_id":"levelo_inurba_marseille","lat":43.30541,"lon":5.36552,"is_reserved":false,"is_disabled":false,"rental_uris":{"android":"levelo://app?vid=7a21c423-c0fd-4173-8e03-615baa766d94","ios":"levelo://app?vid=7a21c423-c0fd-4173-8e03-615baa766d94"},"vehicle_type_id":"4","last_reported":1751119728,"current_range_meters":16400,"station_id":"ce4bgs12rcd13ifvqcag","pricing_plan_id":"cebpf4jnsgd1na2vs0mg"},{"bike_id":"8e879c23-47a9-4571-98f1-53f2d3a027e2","system_id":"levelo_inurba_marseille","lat":43.30945,"lon":5.39049,"is_reserved":false,"is_disabled":false,"rental_uris":{"android":"levelo://app?vid=8e879c23-47a9-4571-98f1-53f2d3a027e2","ios":"levelo://app?vid=8e879c23-47a9-4571-98f1-53f2d3a027e2"},"vehicle_type_id":"4","last_reported":1751119728,"current_range_meters":16400,"station_id":"ce4bgup2rcd13ifvqco0","pricing_plan_id":"cebpf4jnsgd1na2vs0mg"},{"bike_id":"9a721d67-8eef-475d-96f7-78188a5b0787","system_id":"levelo_inurba_marseille","lat":43.28407,"lon":5.34999,"is_reserved":false,"is_disabled":false,"rental_uris":{"android":"levelo://app?vid=9a721d67-8eef-475d-96f7-78188a5b0787","ios":"levelo://app?vid=9a721d67-8eef-475d-96f7-78188a5b0787"},"vehicle_type_id":"4","last_reported":1751119728,"current_range_meters":16400,"station_id":"ce4bhbh2rcd13ifvqepg","pricing_plan_id":"cebpf4jnsgd1na2vs0mg"},{"bike_id":"f810be2a-3c00-446f-9ba1-1f3840ce349d","system_id":"levelo_inurba_marseille","lat":43.32109,"lon":5.36766,"is_reserved":false,"is_disabled":false,"rental_uris":{"android":"levelo://app?vid=f810be2a-3c00-446f-9ba1-1f3840ce349d","ios":"levelo://app?vid=f810be2a-3c00-446f-9ba1-1f3840ce349d"},"vehicle_type_id":"4","last_reported":1751119728,"current_range_meters":16400,"station_id":"ce4bhrh2rcd13ifvqhug","pricing_plan_id":"cebpf4jnsgd1na2vs0mg"},{"bike_id":"bf525adf-9539-4b47-9dea-a6c9ac31b7a5","system_id":"levelo_inurba_marseille","lat":43.22935,"lon":5.35389,"is_reserved":false,"is_disabled":false,"rental_uris":{"android":"levelo://app?vid=bf525adf-9539-4b47-9dea-a6c9ac31b7a5","ios":"levelo://app?vid=bf525adf-9539-4b47-9dea-a6c9ac31b7a5"},"vehicle_type_id":"4","last_reported":1751119728,"current_range_meters":16400,"station_id":"cpo3532slgdg3j2ikp40","pricing_plan_id":"cebpf4jnsgd1na2vs0mg"},{"bike_id":"c0a2de0a-20e3-4e62-848e-f0dbd6b2e588","system_id":"levelo_inurba_marseille","lat":43.22509,"lon":5.34771,"is_reserved":false,"is_disabled":false,"rental_uris":{"android":"levelo://app?vid=c0a2de0a-20e3-4e62-848e-f0dbd6b2e588","ios":"levelo://app?vid=c0a2de0a-20e3-4e62-848e-f0dbd6b2e588"},"vehicle_type_id":"4","last_reported":1751119728,"current_range_meters":16400,"station_id":"st_cvj5dfep6f1abm77gieg","pricing_plan_id":"cebpf4jnsgd1na2vs0mg"},{"bike_id":"3a75f00f-da7e-4c4b-9146-8b409ba68115","system_id":"levelo_inurba_marseille","lat":43.31229,"lon":5.36893,"is_reserved":false,"is_disabled":false,"rental_uris":{"android":"levelo://app?vid=3a75f00f-da7e-4c4b-9146-8b409ba68115","ios":"levelo://app?vid=3a75f00f-da7e-4c4b-9146-8b409ba68115"},"vehicle_type_id":"4","last_reported":1751119728,"current_range_meters":16800,"station_id":"ce4bgl92rcd13ifvqbq0","pricing_plan_id":"cebpf4jnsgd1na2vs0mg"},{"bike_id":"910652eb-a9d3-4ea9-95a8-4aadc7afb032","system_id":"levelo_inurba_marseille","lat":43.28419,"lon":5.35,"is_reserved":false,"is_disabled":false,"rental_uris":{"android":"levelo://app?vid=910652eb-a9d3-4ea9-95a8-4aadc7afb032","ios":"levelo://app?vid=910652eb-a9d3-4ea9-95a8-4aadc7afb032"},"vehicle_type_id":"4","last_reported":1751119728,"current_range_meters":16800,"station_id":"ce4bhbh2rcd13ifvqepg","pricing_plan_id":"cebpf4jnsgd1na2vs0mg"},{"bike_id":"2d64210f-bc56-457a-9e63-d4602ac1eb88","system_id":"levelo_inurba_marseille","lat":43.26217,"lon":5.37472,"is_reserved":false,"is_disabled":false,"rental_uris":{"android":"levelo://app?vid=2d64210f-bc56-457a-9e63-d4602ac1eb88","ios":"levelo://app?vid=2d64210f-bc56-457a-9e63-d4602ac1eb88"},"vehicle_type_id":"4","last_reported":1751119728,"current_range_meters":16800,"station_id":"ce4bhgp2rcd13ifvqfc0","pricing_plan_id":"cebpf4jnsgd1na2vs0mg"},{"bike_id":"4f7da216-f811-4c57-9e64-cdee7467bddd","system_id":"levelo_inurba_marseille","lat":43.22512,"lon":5.34786,"is_reserved":false,"is_disabled":false,"rental_uris":{"android":"levelo://app?vid=4f7da216-f811-4c57-9e64-cdee7467bddd","ios":"levelo://app?vid=4f7da216-f811-4c57-9e64-cdee7467bddd"},"vehicle_type_id":"4","last_reported":1751119728,"current_range_meters":16800,"station_id":"st_cvj5dfep6f1abm77gieg","pricing_plan_id":"cebpf4jnsgd1na2vs0mg"},{"bike_id":"735fb3ec-51d3-42a0-b0e0-35a6ef148211","system_id":"levelo_inurba_marseille","lat":43.312871,"lon":5.373139,"is_reserved":false,"is_disabled":false,"rental_uris":{"android":"levelo://app?vid=735fb3ec-51d3-42a0-b0e0-35a6ef148211","ios":"levelo://app?vid=735fb3ec-51d3-42a0-b0e0-35a6ef148211"},"vehicle_type_id":"4","last_reported":1751119728,"current_range_meters":17200,"station_id":"","pricing_plan_id":"cebpf4jnsgd1na2vs0mg"},{"bike_id":"d308c658-b19c-49c0-8014-5506ff26f69a","system_id":"levelo_inurba_marseille","lat":43.23074,"lon":5.40527,"is_reserved":false,"is_disabled":false,"rental_uris":{"android":"levelo://app?vid=d308c658-b19c-49c0-8014-5506ff26f69a","ios":"levelo://app?vid=d308c658-b19c-49c0-8014-5506ff26f69a"},"vehicle_type_id":"4","last_reported":1751119728,"current_range_meters":17200,"station_id":"","pricing_plan_id":"cebpf4jnsgd1na2vs0mg"},{"bike_id":"b661ac93-1e96-4042-a613-bf10cd09b2bb","system_id":"levelo_inurba_marseille","lat":43.3053,"lon":5.36554,"is_reserved":false,"is_disabled":false,"rental_uris":{"android":"levelo://app?vid=b661ac93-1e96-4042-a613-bf10cd09b2bb","ios":"levelo://app?vid=b661ac93-1e96-4042-a613-bf10cd09b2bb"},"vehicle_type_id":"4","last_reported":1751119728,"current_range_meters":17200,"station_id":"ce4bgs12rcd13ifvqcag","pricing_plan_id":"cebpf4jnsgd1na2vs0mg"},{"bike_id":"157b3150-36b1-47de-b8f3-24c9b4c3bc3f","system_id":"levelo_inurba_marseille","lat":43.31494,"lon":5.37302,"is_reserved":false,"is_disabled":false,"rental_uris":{"android":"levelo://app?vid=157b3150-36b1-47de-b8f3-24c9b4c3bc3f","ios":"levelo://app?vid=157b3150-36b1-47de-b8f3-24c9b4c3bc3f"},"vehicle_type_id":"4","last_reported":1751119728,"current_range_meters":17200,"station_id":"ce4bgt12rcd13ifvqcd0","pricing_plan_id":"cebpf4jnsgd1na2vs0mg"},{"bike_id":"f76a9a34-77de-4510-8e0e-4278bd9dcaf1","system_id":"levelo_inurba_marseille","lat":43.30426,"lon":5.39738,"is_reserved":false,"is_disabled":false,"rental_uris":{"android":"levelo://app?vid=f76a9a34-77de-4510-8e0e-4278bd9dcaf1","ios":"levelo://app?vid=f76a9a34-77de-4510-8e0e-4278bd9dcaf1"},"vehicle_type_id":"4","last_reported":1751119728,"current_range_meters":17200,"station_id":"ce4bh092rcd13ifvqd20","pricing_plan_id":"cebpf4jnsgd1na2vs0mg"},{"bike_id":"3367abdb-bfbc-4eaa-8300-39fa59528352","system_id":"levelo_inurba_marseille","lat":43.28257,"lon":5.35086,"is_reserved":false,"is_disabled":false,"rental_uris":{"android":"levelo://app?vid=3367abdb-bfbc-4eaa-8300-39fa59528352","ios":"levelo://app?vid=3367abdb-bfbc-4eaa-8300-39fa59528352"},"vehicle_type_id":"4","last_reported":1751119728,"current_range_meters":17200,"station_id":"ce4bhbp2rcd13ifvqerg","pricing_plan_id":"cebpf4jnsgd1na2vs0mg"},{"bike_id":"adea6328-3f72-443d-8be0-072d7aa29b1f","system_id":"levelo_inurba_marseille","lat":43.28257,"lon":5.35073,"is_reserved":false,"is_disabled":false,"rental_uris":{"android":"levelo://app?vid=adea6328-3f72-443d-8be0-072d7aa29b1f","ios":"levelo://app?vid=adea6328-3f72-443d-8be0-072d7aa29b1f"},"vehicle_type_id":"4","last_reported":1751119728,"current_range_meters":17200,"station_id":"ce4bhbp2rcd13ifvqerg","pricing_plan_id":"cebpf4jnsgd1na2vs0mg"},{"bike_id":"e5e3cd02-05df-4eb6-ae19-0375beaace7c","system_id":"levelo_inurba_marseille","lat":43.24179,"lon":5.36406,"is_reserved":false,"is_disabled":false,"rental_uris":{"android":"levelo://app?vid=e5e3cd02-05df-4eb6-ae19-0375beaace7c","ios":"levelo://app?vid=e5e3cd02-05df-4eb6-ae19-0375beaace7c"},"vehicle_type_id":"4","last_reported":1751119728,"current_range_meters":17200,"station_id":"cpo36qri1sfpv3e86is0","pricing_plan_id":"cebpf4jnsgd1na2vs0mg"},{"bike_id":"aff4423e-c2af-4b70-b9bd-2bdc17fafffc","system_id":"levelo_inurba_marseille","lat":43.24166,"lon":5.36411,"is_reserved":false,"is_disabled":false,"rental_uris":{"android":"levelo://app?vid=aff4423e-c2af-4b70-b9bd-2bdc17fafffc","ios":"levelo://app?vid=aff4423e-c2af-4b70-b9bd-2bdc17fafffc"},"vehicle_type_id":"4","last_reported":1751119728,"current_range_meters":17200,"station_id":"cpo36qri1sfpv3e86is0","pricing_plan_id":"cebpf4jnsgd1na2vs0mg"},{"bike_id":"5d5e13a4-10cc-485c-a362-06d02242e666","system_id":"levelo_inurba_marseille","lat":43.21183,"lon":5.35085,"is_reserved":false,"is_disabled":false,"rental_uris":{"android":"levelo://app?vid=5d5e13a4-10cc-485c-a362-06d02242e666","ios":"levelo://app?vid=5d5e13a4-10cc-485c-a362-06d02242e666"},"vehicle_type_id":"4","last_reported":1751119728,"current_range_meters":17200,"station_id":"st_cvj6sg6p6f1abm77japg","pricing_plan_id":"cebpf4jnsgd1na2vs0mg"},{"bike_id":"b13877a6-4825-4d82-b46b-67fa8ad66c5d","system_id":"levelo_inurba_marseille","lat":43.2119,"lon":5.35078,"is_reserved":false,"is_disabled":false,"rental_uris":{"android":"levelo://app?vid=b13877a6-4825-4d82-b46b-67fa8ad66c5d","ios":"levelo://app?vid=b13877a6-4825-4d82-b46b-67fa8ad66c5d"},"vehicle_type_id":"4","last_reported":1751119728,"current_range_meters":17200,"station_id":"st_cvj6sg6p6f1abm77japg","pricing_plan_id":"cebpf4jnsgd1na2vs0mg"},{"bike_id":"9063a283-04e6-416a-b7fe-b3ed16db32dd","system_id":"levelo_inurba_marseille","lat":43.21203,"lon":5.35076,"is_reserved":false,"is_disabled":false,"rental_uris":{"android":"levelo://app?vid=9063a283-04e6-416a-b7fe-b3ed16db32dd","ios":"levelo://app?vid=9063a283-04e6-416a-b7fe-b3ed16db32dd"},"vehicle_type_id":"4","last_reported":1751119728,"current_range_meters":17200,"station_id":"st_cvj6sg6p6f1abm77japg","pricing_plan_id":"cebpf4jnsgd1na2vs0mg"},{"bike_id":"de478231-6b12-4efe-b2ea-f1ebc98ee95c","system_id":"levelo_inurba_marseille","lat":43.24007,"lon":5.36698,"is_reserved":false,"is_disabled":false,"rental_uris":{"android":"levelo://app?vid=de478231-6b12-4efe-b2ea-f1ebc98ee95c","ios":"levelo://app?vid=de478231-6b12-4efe-b2ea-f1ebc98ee95c"},"vehicle_type_id":"4","last_reported":1751119728,"current_range_meters":17600,"station_id":"","pricing_plan_id":"cebpf4jnsgd1na2vs0mg"},{"bike_id":"70273705-0512-4b12-b8c8-41029d1b123c","system_id":"levelo_inurba_marseille","lat":43.30352,"lon":5.36784,"is_reserved":false,"is_disabled":false,"rental_uris":{"android":"levelo://app?vid=70273705-0512-4b12-b8c8-41029d1b123c","ios":"levelo://app?vid=70273705-0512-4b12-b8c8-41029d1b123c"},"vehicle_type_id":"4","last_reported":1751119728,"current_range_meters":17600,"station_id":"","pricing_plan_id":"cebpf4jnsgd1na2vs0mg"},{"bike_id":"6b6775f0-7d6c-48a8-97ed-ccb50dd61231","system_id":"levelo_inurba_marseille","lat":43.27906,"lon":5.380135,"is_reserved":false,"is_disabled":false,"rental_uris":{"android":"levelo://app?vid=6b6775f0-7d6c-48a8-97ed-ccb50dd61231","ios":"levelo://app?vid=6b6775f0-7d6c-48a8-97ed-ccb50dd61231"},"vehicle_type_id":"4","last_reported":1751119728,"current_range_meters":17600,"station_id":"ce4bhf92rcd13ifvqf50","pricing_plan_id":"cebpf4jnsgd1na2vs0mg"},{"bike_id":"908cd11d-d19a-40a4-a488-254614ce5263","system_id":"levelo_inurba_marseille","lat":43.23058,"lon":5.35489,"is_reserved":false,"is_disabled":false,"rental_uris":{"android":"levelo://app?vid=908cd11d-d19a-40a4-a488-254614ce5263","ios":"levelo://app?vid=908cd11d-d19a-40a4-a488-254614ce5263"},"vehicle_type_id":"4","last_reported":1751119728,"current_range_meters":17600,"station_id":"cpo3342slgdg3j2ifvpg","pricing_plan_id":"cebpf4jnsgd1na2vs0mg"},{"bike_id":"825e166b-6115-40a8-8f2f-179c774061fd","system_id":"levelo_inurba_marseille","lat":43.2175,"lon":5.34598,"is_reserved":false,"is_disabled":false,"rental_uris":{"android":"levelo://app?vid=825e166b-6115-40a8-8f2f-179c774061fd","ios":"levelo://app?vid=825e166b-6115-40a8-8f2f-179c774061fd"},"vehicle_type_id":"4","last_reported":1751119728,"current_range_meters":17600,"station_id":"st_cvj6r9ubvosntc0bgbag","pricing_plan_id":"cebpf4jnsgd1na2vs0mg"},{"bike_id":"66abb35b-0e37-4ddd-bf66-70dc62e8f63c","system_id":"levelo_inurba_marseille","lat":43.22888,"lon":5.35261,"is_reserved":false,"is_disabled":false,"rental_uris":{"android":"levelo://app?vid=66abb35b-0e37-4ddd-bf66-70dc62e8f63c","ios":"levelo://app?vid=66abb35b-0e37-4ddd-bf66-70dc62e8f63c"},"vehicle_type_id":"4","last_reported":1751119728,"current_range_meters":18000,"station_id":"","pricing_plan_id":"cebpf4jnsgd1na2vs0mg"},{"bike_id":"c595d0e1-c778-4abe-9c79-a9dd74f54e27","system_id":"levelo_inurba_marseille","lat":43.24467,"lon":5.37225,"is_reserved":false,"is_disabled":false,"rental_uris":{"android":"levelo://app?vid=c595d0e1-c778-4abe-9c79-a9dd74f54e27","ios":"levelo://app?vid=c595d0e1-c778-4abe-9c79-a9dd74f54e27"},"vehicle_type_id":"4","last_reported":1751119728,"current_range_meters":18000,"station_id":"","pricing_plan_id":"cebpf4jnsgd1na2vs0mg"},{"bike_id":"4a766989-c366-4043-bf49-dacb3b10aba5","system_id":"levelo_inurba_marseille","lat":43.28937,"lon":5.38411,"is_reserved":false,"is_disabled":false,"rental_uris":{"android":"levelo://app?vid=4a766989-c366-4043-bf49-dacb3b10aba5","ios":"levelo://app?vid=4a766989-c366-4043-bf49-dacb3b10aba5"},"vehicle_type_id":"4","last_reported":1751119728,"current_range_meters":18000,"station_id":"ce4bh612rcd13ifvqe6g","pricing_plan_id":"cebpf4jnsgd1na2vs0mg"},{"bike_id":"83f1b87f-21fa-4a78-9925-2a1d4f41e075","system_id":"levelo_inurba_marseille","lat":43.28453,"lon":5.35891,"is_reserved":false,"is_disabled":false,"rental_uris":{"android":"levelo://app?vid=83f1b87f-21fa-4a78-9925-2a1d4f41e075","ios":"levelo://app?vid=83f1b87f-21fa-4a78-9925-2a1d4f41e075"},"vehicle_type_id":"4","last_reported":1751119728,"current_range_meters":18000,"station_id":"ce4bhah2rcd13ifvqei0","pricing_plan_id":"cebpf4jnsgd1na2vs0mg"},{"bike_id":"b18670cb-dfc0-44c9-9f9a-405cfe4ca685","system_id":"levelo_inurba_marseille","lat":43.27383,"lon":5.36266,"is_reserved":false,"is_disabled":false,"rental_uris":{"android":"levelo://app?vid=b18670cb-dfc0-44c9-9f9a-405cfe4ca685","ios":"levelo://app?vid=b18670cb-dfc0-44c9-9f9a-405cfe4ca685"},"vehicle_type_id":"4","last_reported":1751119728,"current_range_meters":18000,"station_id":"ce4bhbh2rcd13ifvqeo0","pricing_plan_id":"cebpf4jnsgd1na2vs0mg"},{"bike_id":"ebb4429a-5f0a-4a79-8af3-b27bee1db28b","system_id":"levelo_inurba_marseille","lat":43.25505,"lon":5.3765,"is_reserved":false,"is_disabled":false,"rental_uris":{"android":"levelo://app?vid=ebb4429a-5f0a-4a79-8af3-b27bee1db28b","ios":"levelo://app?vid=ebb4429a-5f0a-4a79-8af3-b27bee1db28b"},"vehicle_type_id":"4","last_reported":1751119728,"current_range_meters":18000,"station_id":"ce4bhh12rcd13ifvqff0","pricing_plan_id":"cebpf4jnsgd1na2vs0mg"},{"bike_id":"37d19bb1-924a-4481-81ad-150c3a97924b","system_id":"levelo_inurba_marseille","lat":43.2439,"lon":5.37062,"is_reserved":false,"is_disabled":false,"rental_uris":{"android":"levelo://app?vid=37d19bb1-924a-4481-81ad-150c3a97924b","ios":"levelo://app?vid=37d19bb1-924a-4481-81ad-150c3a97924b"},"vehicle_type_id":"4","last_reported":1751119728,"current_range_meters":18000,"station_id":"ce4bhhh2rcd13ifvqfk0","pricing_plan_id":"cebpf4jnsgd1na2vs0mg"},{"bike_id":"e0d25799-cb17-4211-bfde-68ae2503bf1f","system_id":"levelo_inurba_marseille","lat":43.23057,"lon":5.35499,"is_reserved":false,"is_disabled":false,"rental_uris":{"android":"levelo://app?vid=e0d25799-cb17-4211-bfde-68ae2503bf1f","ios":"levelo://app?vid=e0d25799-cb17-4211-bfde-68ae2503bf1f"},"vehicle_type_id":"4","last_reported":1751119728,"current_range_meters":18000,"station_id":"cpo3342slgdg3j2ifvpg","pricing_plan_id":"cebpf4jnsgd1na2vs0mg"},{"bike_id":"8e41df63-5922-4cd3-94e1-83a309f71dc9","system_id":"levelo_inurba_marseille","lat":43.21193,"lon":5.35087,"is_reserved":false,"is_disabled":false,"rental_uris":{"android":"levelo://app?vid=8e41df63-5922-4cd3-94e1-83a309f71dc9","ios":"levelo://app?vid=8e41df63-5922-4cd3-94e1-83a309f71dc9"},"vehicle_type_id":"4","last_reported":1751119728,"current_range_meters":18000,"station_id":"st_cvj6sg6p6f1abm77japg","pricing_plan_id":"cebpf4jnsgd1na2vs0mg"},{"bike_id":"3a7e54b5-a2f5-42f3-a085-743ac5e93398","system_id":"levelo_inurba_marseille","lat":43.251927,"lon":5.421971,"is_reserved":false,"is_disabled":false,"rental_uris":{"android":"levelo://app?vid=3a7e54b5-a2f5-42f3-a085-743ac5e93398","ios":"levelo://app?vid=3a7e54b5-a2f5-42f3-a085-743ac5e93398"},"vehicle_type_id":"4","last_reported":1751119728,"current_range_meters":18800,"station_id":"","pricing_plan_id":"cebpf4jnsgd1na2vs0mg"},{"bike_id":"63cd8d22-aafd-45ff-8715-14b5a5b0080b","system_id":"levelo_inurba_marseille","lat":43.30878,"lon":5.37179,"is_reserved":false,"is_disabled":false,"rental_uris":{"android":"levelo://app?vid=63cd8d22-aafd-45ff-8715-14b5a5b0080b","ios":"levelo://app?vid=63cd8d22-aafd-45ff-8715-14b5a5b0080b"},"vehicle_type_id":"4","last_reported":1751119728,"current_range_meters":18800,"station_id":"ce4bguh2rcd13ifvqckg","pricing_plan_id":"cebpf4jnsgd1na2vs0mg"},{"bike_id":"aa5dd828-006c-438c-999f-08b99a457a0d","system_id":"levelo_inurba_marseille","lat":43.25492,"lon":5.37648,"is_reserved":false,"is_disabled":false,"rental_uris":{"android":"levelo://app?vid=aa5dd828-006c-438c-999f-08b99a457a0d","ios":"levelo://app?vid=aa5dd828-006c-438c-999f-08b99a457a0d"},"vehicle_type_id":"4","last_reported":1751119728,"current_range_meters":18800,"station_id":"ce4bhh12rcd13ifvqff0","pricing_plan_id":"cebpf4jnsgd1na2vs0mg"},{"bike_id":"e8ea605e-e138-4e5e-ba06-7b44d8d7c125","system_id":"levelo_inurba_marseille","lat":43.21216,"lon":5.35072,"is_reserved":false,"is_disabled":false,"rental_uris":{"android":"levelo://app?vid=e8ea605e-e138-4e5e-ba06-7b44d8d7c125","ios":"levelo://app?vid=e8ea605e-e138-4e5e-ba06-7b44d8d7c125"},"vehicle_type_id":"4","last_reported":1751119728,"current_range_meters":18800,"station_id":"st_cvj6sg6p6f1abm77japg","pricing_plan_id":"cebpf4jnsgd1na2vs0mg"},{"bike_id":"675afd1e-cb07-4d5e-85da-c7c30de6b23f","system_id":"levelo_inurba_marseille","lat":43.30598,"lon":5.37226,"is_reserved":false,"is_disabled":false,"rental_uris":{"android":"levelo://app?vid=675afd1e-cb07-4d5e-85da-c7c30de6b23f","ios":"levelo://app?vid=675afd1e-cb07-4d5e-85da-c7c30de6b23f"},"vehicle_type_id":"4","last_reported":1751119728,"current_range_meters":19200,"station_id":"ce4bgqh2rcd13ifvqc4g","pricing_plan_id":"cebpf4jnsgd1na2vs0mg"},{"bike_id":"621dc20b-04c0-43c4-98c6-a2ad34facde7","system_id":"levelo_inurba_marseille","lat":43.31358,"lon":5.38493,"is_reserved":false,"is_disabled":false,"rental_uris":{"android":"levelo://app?vid=621dc20b-04c0-43c4-98c6-a2ad34facde7","ios":"levelo://app?vid=621dc20b-04c0-43c4-98c6-a2ad34facde7"},"vehicle_type_id":"4","last_reported":1751119728,"current_range_meters":19200,"station_id":"ce4bgt92rcd13ifvqcf0","pricing_plan_id":"cebpf4jnsgd1na2vs0mg"},{"bike_id":"fede116f-fe8f-4996-bd86-bef08c43bb15","system_id":"levelo_inurba_marseille","lat":43.28417,"lon":5.34991,"is_reserved":false,"is_disabled":false,"rental_uris":{"android":"levelo://app?vid=fede116f-fe8f-4996-bd86-bef08c43bb15","ios":"levelo://app?vid=fede116f-fe8f-4996-bd86-bef08c43bb15"},"vehicle_type_id":"4","last_reported":1751119728,"current_range_meters":19200,"station_id":"ce4bhbh2rcd13ifvqepg","pricing_plan_id":"cebpf4jnsgd1na2vs0mg"},{"bike_id":"72df8c60-f190-4633-b0af-a27bfeb7314d","system_id":"levelo_inurba_marseille","lat":43.24163,"lon":5.36403,"is_reserved":false,"is_disabled":false,"rental_uris":{"android":"levelo://app?vid=72df8c60-f190-4633-b0af-a27bfeb7314d","ios":"levelo://app?vid=72df8c60-f190-4633-b0af-a27bfeb7314d"},"vehicle_type_id":"4","last_reported":1751119728,"current_range_meters":19200,"station_id":"cpo36qri1sfpv3e86is0","pricing_plan_id":"cebpf4jnsgd1na2vs0mg"},