{"last_updated":1728587219,"ttl":60,"version":"2.2","data":{"bikes":[{"bike_id":"035936c4-bd5e-4b83-a252-1c692f2631ff","system_id":"levelo_inurba_marseille","lat":43.27377,"lon":5.36261,"is_reserved":false,"is_disabled":false,"rental_uris":{"android":"levelo://app?vid=035936c4-bd5e-4b83-a252-1c692f2631ff","ios":"levelo://app?vid=035936c4-bd5e-4b83-a252-1c692f2631ff"},"vehicle_type_id":"4","last_reported":1728587220,"current_range_meters":8000,"station_id":"ce4bhbh2rcd13ifvqeo0","pricing_plan_id":"cebpf4jnsgd1na2vs0mg"},{"bike_id":"c14b88ec-3d2a-4316-bd35-4cf0db938732","system_id":"levelo_inurba_marseille","lat":43.335999,"lon":5.410327,"is_reserved":false,"is_disabled":false,"rental_uris":{"android":"levelo://app?vid=c14b88ec-3d2a-4316-bd35-4cf0db938732","ios":"levelo://app?vid=c14b88ec-3d2a-4316-bd35-4cf0db938732"},"vehicle_type_id":"4","last_reported":1728587220,"current_range_meters":12400,"station_id":"ce4bhqh2rcd13ifvqhmg","pricing_plan_id":"cebpf4jnsgd1na2vs0mg"},{"bike_id":"667bc980-297d-44e1-a945-3944fd8ebdae","system_id":"levelo_inurba_marseille","lat":43.265,"lon":5.39544,"is_reserved":false,"is_disabled":false,"rental_uris":{"android":"levelo://app?vid=667bc980-297d-44e1-a945-3944fd8ebdae","ios":"levelo://app?vid=667bc980-297d-44e1-a945-3944fd8ebdae"},"vehicle_type_id":"4","last_reported":1728587220,"current_range_meters":16000,"station_id":"ce4bhi12rcd13ifvqfq0","pricing_plan_id":"cebpf4jnsgd1na2vs0mg"},{"bike_id":"3342229a-448c-4e67-8c8b-1ef839d1dd73","system_id":"levelo_inurba_marseille","lat":43.26561,"lon":5.37286,"is_reserved":false,"is_disabled":false,"rental_uris":{"android":"levelo://app?vid=3342229a-448c-4e67-8c8b-1ef839d1dd73","ios":"levelo://app?vid=3342229a-448c-4e67-8c8b-1ef839d1dd73"},"vehicle_type_id":"4","last_reported":1728587220,"current_range_meters":38800,"station_id":"ce4bhg12rcd13ifvqf70","pricing_plan_id":"cebpf4jnsgd1na2vs0mg"},{"bike_id":"4df3827b-0c3a-4d8b-b99c-c7ce02d9fc6d","system_id":"levelo_inurba_marseille","lat":43.25493,"lon":5.3765,"is_reserved":false,"is_disabled":false,"rental_uris":{"android":"levelo://app?vid=4df3827b-0c3a-4d8b-b99c-c7ce02d9fc6d","ios":"levelo://app?vid=4df3827b-0c3a-4d8b-b99c-c7ce02d9fc6d"},"vehicle_type_id":"4","last_reported":1728587220,"current_range_meters":38800,"station_id":"ce4bhh12rcd13ifvqff0","pricing_plan_id":"cebpf4jnsgd1na2vs0mg"},{"bike_id":"94e04363-998a-4a79-91d9-267b90850d07","system_id":"levelo_inurba_marseille","lat":43.28728,"lon":5.37946,"is_reserved":false,"is_disabled":false,"rental_uris":{"android":"levelo://app?vid=94e04363-998a-4a79-91d9-267b90850d07","ios":"levelo://app?vid=94e04363-998a-4a79-91d9-267b90850d07"},"vehicle_type_id":"4","last_reported":1728587220,"current_range_meters":25200,"station_id":"ce4bh9p2rcd13ifvqec0","pricing_plan_id":"cebpf4jnsgd1na2vs0mg"},{"bike_id":"8eec92e8-e3d6-402c-aaa3-d6009d22a15f","system_id":"levelo_inurba_marseille","lat":43.30811,"lon":5.38162,"is_reserved":false,"is_disabled":false,"rental_uris":{"android":"levelo://app?vid=8eec92e8-e3d6-402c-aaa3-d6009d22a15f","ios":"levelo://app?vid=8eec92e8-e3d6-402c-aaa3-d6009d22a15f"},"vehicle_type_id":"4","last_reported":1728587220,"current_range_meters":27600,"station_id":"ce4bgt12rcd13ifvqce0","pricing_plan_id":"cebpf4jnsgd1na2vs0mg"},{"bike_id":"7a9b4a24-80bc-423f-86f6-90903bd77281","system_id":"levelo_inurba_marseille","lat":43.29277,"lon":5.3685,"is_reserved":false,"is_disabled":false,"rental_uris":{"android":"levelo://app?vid=7a9b4a24-80bc-423f-86f6-90903bd77281","ios":"levelo://app?vid=7a9b4a24-80bc-423f-86f6-90903bd77281"},"vehicle_type_id":"4","last_reported":1728587220,"current_range_meters":38800,"station_id":"ce4bhbp2rcd13ifvqesg","pricing_plan_id":"cebpf4jnsgd1na2vs0mg"},{"bike_id":"bb0df2a6-8e03-4467-a422-99f4012a27b9","system_id":"levelo_inurba_marseille","lat":43.287811,"lon":5.362383,"is_reserved":false,"is_disabled":false,"rental_uris":{"android":"levelo://app?vid=bb0df2a6-8e03-4467-a422-99f4012a27b9","ios":"levelo://app?vid=bb0df2a6-8e03-4467-a422-99f4012a27b9"},"vehicle_type_id":"4","last_reported":1728587220,"current_range_meters":2800,"station_id":"cki0cbj6b192h4jlfktg","pricing_plan_id":"cebpf4jnsgd1na2vs0mg"},{"bike_id":"2c2e046f-d872-4cf9-b532-788347ab1933","system_id":"levelo_inurba_marseille","lat":43.24665,"lon":5.38171,"is_reserved":false,"is_disabled":false,"rental_uris":{"android":"levelo://app?vid=2c2e046f-d872-4cf9-b532-788347ab1933","ios":"levelo://app?vid=2c2e046f-d872-4cf9-b532-788347ab1933"},"vehicle_type_id":"4","last_reported":1728587220,"current_range_meters":34000,"station_id":"ce4bhih2rcd13ifvqfr0","pricing_plan_id":"cebpf4jnsgd1na2vs0mg"},{"bike_id":"6cb2fd54-0aca-4f7d-aadb-bc057dc4fb59","system_id":"levelo_inurba_marseille","lat":43.23063,"lon":5.35492,"is_reserved":false,"is_disabled":false,"rental_uris":{"android":"levelo://app?vid=6cb2fd54-0aca-4f7d-aadb-bc057dc4fb59","ios":"levelo://app?vid=6cb2fd54-0aca-4f7d-aadb-bc057dc4fb59"},"vehicle_type_id":"4","last_reported":1728587220,"current_range_meters":32000,"station_id":"cpo3342slgdg3j2ifvpg","pricing_plan_id":"cebpf4jnsgd1na2vs0mg"},{"bike_id":"30c10d19-e37c-4bb5-9b6d-11fa2f8a369a","system_id":"levelo_inurba_marseille","lat":43.28156,"lon":5.42648,"is_reserved":false,"is_disabled":false,"rental_uris":{"android":"levelo://app?vid=30c10d19-e37c-4bb5-9b6d-11fa2f8a369a","ios":"levelo://app?vid=30c10d19-e37c-4bb5-9b6d-11fa2f8a369a"},"vehicle_type_id":"4","last_reported":1728587220,"current_range_meters":2000,"station_id":"ce4bhnh2rcd13ifvqgug","pricing_plan_id":"cebpf4jnsgd1na2vs0mg"},{"bike_id":"71f09f4d-23fe-4d11-a7ae-c9ae04e5446a","system_id":"levelo_inurba_marseille","lat":43.29232,"lon":5.36051,"is_reserved":false,"is_disabled":false,"rental_uris":{"android":"levelo://app?vid=71f09f4d-23fe-4d11-a7ae-c9ae04e5446a","ios":"levelo://app?vid=71f09f4d-23fe-4d11-a7ae-c9ae04e5446a"},"vehicle_type_id":"4","last_reported":1728587220,"current_range_meters":38000,"station_id":"ce4bhbh2rcd13ifvqeqg","pricing_plan_id":"cebpf4jnsgd1na2vs0mg"},{"bike_id":"64eed1d5-ad43-4843-90ca-92dd71d6f243","system_id":"levelo_inurba_marseille","lat":43.28462,"lon":5.35893,"is_reserved":false,"is_disabled":false,"rental_uris":{"android":"levelo://app?vid=64eed1d5-ad43-4843-90ca-92dd71d6f243","ios":"levelo://app?vid=64eed1d5-ad43-4843-90ca-92dd71d6f243"},"vehicle_type_id":"4","last_reported":1728587220,"current_range_meters":38800,"station_id":"ce4bhah2rcd13ifvqei0","pricing_plan_id":"cebpf4jnsgd1na2vs0mg"},{"bike_id":"87b7e2a2-a460-4531-9532-68beb1d090f5","system_id":"levelo_inurba_marseille","lat":43.28859,"lon":5.35863,"is_reserved":false,"is_disabled":false,"rental_uris":{"android":"levelo://app?vid=87b7e2a2-a460-4531-9532-68beb1d090f5","ios":"levelo://app?vid=87b7e2a2-a460-4531-9532-68beb1d090f5"},"vehicle_type_id":"4","last_reported":1728587220,"current_range_meters":38400,"station_id":"ce4bhb12rcd13ifvqem0","pricing_plan_id":"cebpf4jnsgd1na2vs0mg"},{"bike_id":"e3922387-448d-47fb-a213-f4adf9e12e50","system_id":"levelo_inurba_marseille","lat":43.28277,"lon":5.39832,"is_reserved":false,"is_disabled":false,"rental_uris":{"android":"levelo://app?vid=e3922387-448d-47fb-a213-f4adf9e12e50","ios":"levelo://app?vid=e3922387-448d-47fb-a213-f4adf9e12e50"},"vehicle_type_id":"4","last_reported":1728587220,"current_range_meters":3600,"station_id":"ce4bhn92rcd13ifvqgrg","pricing_plan_id":"cebpf4jnsgd1na2vs0mg"},{"bike_id":"6fccb379-adca-4617-bbeb-442137e4c023","system_id":"levelo_inurba_marseille","lat":43.28461,"lon":5.35887,"is_reserved":false,"is_disabled":false,"rental_uris":{"android":"levelo://app?vid=6fccb379-adca-4617-bbeb-442137e4c023","ios":"levelo://app?vid=6fccb379-adca-4617-bbeb-442137e4c023"},"vehicle_type_id":"4","last_reported":1728587220,"current_range_meters":22000,"station_id":"ce4bhah2rcd13ifvqei0","pricing_plan_id":"cebpf4jnsgd1na2vs0mg"},{"bike_id":"f21ff7cf-a5e7-4036-9a78-a2aa83b6340b","system_id":"levelo_inurba_marseille","lat":43.23193,"lon":5.3555,"is_reserved":false,"is_disabled":false,"rental_uris":{"android":"levelo://app?vid=f21ff7cf-a5e7-4036-9a78-a2aa83b6340b","ios":"levelo://app?vid=f21ff7cf-a5e7-4036-9a78-a2aa83b6340b"},"vehicle_type_id":"4","last_reported":1728587220,"current_range_meters":38800,"station_id":"ce4bhu92rcd13ifvqi70","pricing_plan_id":"cebpf4jnsgd1na2vs0mg"},{"bike_id":"5becdc3c-bd58-4f15-b696-f26349da31ac","system_id":"levelo_inurba_marseille","lat":43.2971,"lon":5.36618,"is_reserved":false,"is_disabled":false,"rental_uris":{"android":"levelo://app?vid=5becdc3c-bd58-4f15-b696-f26349da31ac","ios":"levelo://app?vid=5becdc3c-bd58-4f15-b696-f26349da31ac"},"vehicle_type_id":"4","last_reported":1728587220,"current_range_meters":26000,"station_id":"ce4bgn12rcd13ifvqbt0","pricing_plan_id":"cebpf4jnsgd1na2vs0mg"},{"bike_id":"e872fc30-3c57-4a83-b46e-c9748d4c279a","system_id":"levelo_inurba_marseille","lat":43.337224,"lon":5.391925,"is_reserved":false,"is_disabled":false,"rental_uris":{"android":"levelo://app?vid=e872fc30-3c57-4a83-b46e-c9748d4c279a","ios":"levelo://app?vid=e872fc30-3c57-4a83-b46e-c9748d4c279a"},"vehicle_type_id":"4","last_reported":1728587220,"current_range_meters":24400,"station_id":"ce4bhr92rcd13ifvqhsg","pricing_plan_id":"cebpf4jnsgd1na2vs0mg"},{"bike_id":"ab1385f4-fcaf-4819-ba52-4853e37dac54","system_id":"levelo_inurba_marseille","lat":43.306854,"lon":5.394973,"is_reserved":false,"is_disabled":false,"rental_uris":{"android":"levelo://app?vid=ab1385f4-fcaf-4819-ba52-4853e37dac54","ios":"levelo://app?vid=ab1385f4-fcaf-4819-ba52-4853e37dac54"},"vehicle_type_id":"4","last_reported":1728587220,"current_range_meters":38800,"station_id":"ce4bh012rcd13ifvqcv0","pricing_plan_id":"cebpf4jnsgd1na2vs0mg"},{"bike_id":"cee380f5-bd9a-4592-ae37-5061eadf16f5","system_id":"levelo_inurba_marseille","lat":43.29273,"lon":5.36838,"is_reserved":false,"is_disabled":false,"rental_uris":{"android":"levelo://app?vid=cee380f5-bd9a-4592-ae37-5061eadf16f5","ios":"levelo://app?vid=cee380f5-bd9a-4592-ae37-5061eadf16f5"},"vehicle_type_id":"4","last_reported":1728587220,"current_range_meters":38800,"station_id":"ce4bhbp2rcd13ifvqesg","pricing_plan_id":"cebpf4jnsgd1na2vs0mg"},{"bike_id":"8489a8f2-98b9-4f3f-82d7-366096c80597","system_id":"levelo_inurba_marseille","lat":43.315269,"lon":5.380276,"is_reserved":false,"is_disabled":false,"rental_uris":{"android":"levelo://app?vid=8489a8f2-98b9-4f3f-82d7-366096c80597","ios":"levelo://app?vid=8489a8f2-98b9-4f3f-82d7-366096c80597"},"vehicle_type_id":"4","last_reported":1728587220,"current_range_meters":8800,"station_id":"ce4bhsp2rcd13ifvqi50","pricing_plan_id":"cebpf4jnsgd1na2vs0mg"},{"bike_id":"57add596-5b6d-4189-8e90-4c3eff7a193a","system_id":"levelo_inurba_marseille","lat":43.31364,"lon":5.38499,"is_reserved":false,"is_disabled":false,"rental_uris":{"android":"levelo://app?vid=57add596-5b6d-4189-8e90-4c3eff7a193a","ios":"levelo://app?vid=57add596-5b6d-4189-8e90-4c3eff7a193a"},"vehicle_type_id":"4","last_reported":1728587220,"current_range_meters":8400,"station_id":"ce4bgt92rcd13ifvqcf0","pricing_plan_id":"cebpf4jnsgd1na2vs0mg"},{"bike_id":"9e09821f-6eb0-4b3e-a99e-8fcc4ec65b5e","system_id":"levelo_inurba_marseille","lat":43.29027,"lon":5.3863,"is_reserved":false,"is_disabled":false,"rental_uris":{"android":"levelo://app?vid=9e09821f-6eb0-4b3e-a99e-8fcc4ec65b5e","ios":"levelo://app?vid=9e09821f-6eb0-4b3e-a99e-8fcc4ec65b5e"},"vehicle_type_id":"4","last_reported":1728587220,"current_range_meters":38800,"station_id":"ce4bh4p2rcd13ifvqe0g","pricing_plan_id":"cebpf4jnsgd1na2vs0mg"},{"bike_id":"9db4d985-7949-4b7f-b898-6a0ca7ba3693","system_id":"levelo_inurba_marseille","lat":43.33782,"lon":5.37452,"is_reserved":false,"is_disabled":false,"rental_uris":{"android":"levelo://app?vid=9db4d985-7949-4b7f-b898-6a0ca7ba3693","ios":"levelo://app?vid=9db4d985-7949-4b7f-b898-6a0ca7ba3693"},"vehicle_type_id":"4","last_reported":1728587220,"current_range_meters":34000,"station_id":"ce4rr2p2rcd13i802rgg","pricing_plan_id":"cebpf4jnsgd1na2vs0mg"},{"bike_id":"6dc802b4-b8f3-47e1-a567-5aaa3d701067","system_id":"levelo_inurba_marseille","lat":43.30599,"lon":5.3936,"is_reserved":false,"is_disabled":false,"rental_uris":{"android":"levelo://app?vid=6dc802b4-b8f3-47e1-a567-5aaa3d701067","ios":"levelo://app?vid=6dc802b4-b8f3-47e1-a567-5aaa3d701067"},"vehicle_type_id":"4","last_reported":1728587220,"current_range_meters":38800,"station_id":"ce4bh0p2rcd13ifvqd80","pricing_plan_id":"cebpf4jnsgd1na2vs0mg"},{"bike_id":"993d1cf8-e533-4dda-8405-3f2a846d5998","system_id":"levelo_inurba_marseille","lat":43.28699,"lon":5.37398,"is_reserved":false,"is_disabled":false,"rental_uris":{"android":"levelo://app?vid=993d1cf8-e533-4dda-8405-3f2a846d5998","ios":"levelo://app?vid=993d1cf8-e533-4dda-8405-3f2a846d5998"},"vehicle_type_id":"4","last_reported":1728587220,"current_range_meters":38800,"station_id":"ce4bh3p2rcd13ifvqdq0","pricing_plan_id":"cebpf4jnsgd1na2vs0mg"},{"bike_id":"79983262-f8b4-48c7-a7ea-97b97d4cbffb","system_id":"levelo_inurba_marseille","lat":43.298338,"lon":5.362609,"is_reserved":false,"is_disabled":false,"rental_uris":{"android":"levelo://app?vid=79983262-f8b4-48c7-a7ea-97b97d4cbffb","ios":"levelo://app?vid=79983262-f8b4-48c7-a7ea-97b97d4cbffb"},"vehicle_type_id":"4","last_reported":1728587220,"current_range_meters":4400,"station_id":"ce4bgpp2rcd13ifvqc3g","pricing_plan_id":"cebpf4jnsgd1na2vs0mg"},{"bike_id":"c2709d8c-182c-4c66-9678-32143d413767","system_id":"levelo_inurba_marseille","lat":43.22936,"lon":5.35378,"is_reserved":false,"is_disabled":false,"rental_uris":{"android":"levelo://app?vid=c2709d8c-182c-4c66-9678-32143d413767","ios":"levelo://app?vid=c2709d8c-182c-4c66-9678-32143d413767"},"vehicle_type_id":"4","last_reported":1728587220,"current_range_meters":36000,"station_id":"cpo3532slgdg3j2ikp40","pricing_plan_id":"cebpf4jnsgd1na2vs0mg"},{"bike_id":"c3a17b2d-cd82-47e9-8868-432bf67072b4","system_id":"levelo_inurba_marseille","lat":43.29856,"lon":5.36296,"is_reserved":false,"is_disabled":false,"rental_uris":{"android":"levelo://app?vid=c3a17b2d-cd82-47e9-8868-432bf67072b4","ios":"levelo://app?vid=c3a17b2d-cd82-47e9-8868-432bf67072b4"},"vehicle_type_id":"4","last_reported":1728587220,"current_range_meters":4000,"station_id":"ce4bgpp2rcd13ifvqc3g","pricing_plan_id":"cebpf4jnsgd1na2vs0mg"},{"bike_id":"0ea03536-1625-40a3-9e84-a19dc051879d","system_id":"levelo_inurba_marseille","lat":43.28691,"lon":5.37398,"is_reserved":false,"is_disabled":false,"rental_uris":{"android":"levelo://app?vid=0ea03536-1625-40a3-9e84-a19dc051879d","ios":"levelo://app?vid=0ea03536-1625-40a3-9e84-a19dc051879d"},"vehicle_type_id":"4","last_reported":1728587220,"current_range_meters":38800,"station_id":"ce4bh3p2rcd13ifvqdq0","pricing_plan_id":"cebpf4jnsgd1na2vs0mg"},{"bike_id":"c9143359-18ec-448b-98d7-8caec7802696","system_id":"levelo_inurba_marseille","lat":43.294922,"lon":5.389673,"is_reserved":false,"is_disabled":false,"rental_uris":{"android":"levelo://app?vid=c9143359-18ec-448b-98d7-8caec7802696","ios":"levelo://app?vid=c9143359-18ec-448b-98d7-8caec7802696"},"vehicle_type_id":"4","last_reported":1728587220,"current_range_meters":6400,"station_id":"ce4bh3p2rcd13ifvqdp0","pricing_plan_id":"cebpf4jnsgd1na2vs0mg"},{"bike_id":"b4e8bd77-a3ff-4b3b-85c3-f17839ebfc15","system_id":"levelo_inurba_marseille","lat":43.31752,"lon":5.3903,"is_reserved":false,"is_disabled":false,"rental_uris":{"android":"levelo://app?vid=b4e8bd77-a3ff-4b3b-85c3-f17839ebfc15","ios":"levelo://app?vid=b4e8bd77-a3ff-4b3b-85c3-f17839ebfc15"},"vehicle_type_id":"4","last_reported":1728587220,"current_range_meters":7200,"station_id":"ce4bhqp2rcd13ifvqhng","pricing_plan_id":"cebpf4jnsgd1na2vs0mg"},{"bike_id":"0f930c1c-d332-4864-ac6e-660916694ec2","system_id":"levelo_inurba_marseille","lat":43.27617,"lon":5.36112,"is_reserved":false,"is_disabled":false,"rental_uris":{"android":"levelo://app?vid=0f930c1c-d332-4864-ac6e-660916694ec2","ios":"levelo://app?vid=0f930c1c-d332-4864-ac6e-660916694ec2"},"vehicle_type_id":"4","last_reported":1728587220,"current_range_meters":8800,"station_id":"ce4bgj92rcd13ifvqbe0","pricing_plan_id":"cebpf4jnsgd1na2vs0mg"},{"bike_id":"f92a9fb8-9f73-4cf9-bc9b-2bdf5b520248","system_id":"levelo_inurba_marseille","lat":43.3254,"lon":5.4144,"is_reserved":false,"is_disabled":false,"rental_uris":{"android":"levelo://app?vid=f92a9fb8-9f73-4cf9-bc9b-2bdf5b520248","ios":"levelo://app?vid=f92a9fb8-9f73-4cf9-bc9b-2bdf5b520248"},"vehicle_type_id":"4","last_reported":1728587220,"current_range_meters":38800,"station_id":"ce4bhq12rcd13ifvqhhg","pricing_plan_id":"cebpf4jnsgd1na2vs0mg"},{"bike_id":"4b7be203-7111-4ecd-9808-00597656e983","system_id":"levelo_inurba_marseille","lat":43.33026,"lon":5.39042,"is_reserved":false,"is_disabled":false,"rental_uris":{"android":"levelo://app?vid=4b7be203-7111-4ecd-9808-00597656e983","ios":"levelo://app?vid=4b7be203-7111-4ecd-9808-00597656e983"},"vehicle_type_id":"4","last_reported":1728587220,"current_range_meters":37600,"station_id":"ce4bhr92rcd13ifvqhrg","pricing_plan_id":"cebpf4jnsgd1na2vs0mg"},{"bike_id":"28936151-8c60-4860-95d8-04059152eaf1","system_id":"levelo_inurba_marseille","lat":43.29853,"lon":5.36297,"is_reserved":false,"is_disabled":false,"rental_uris":{"android":"levelo://app?vid=28936151-8c60-4860-95d8-04059152eaf1","ios":"levelo://app?vid=28936151-8c60-4860-95d8-04059152eaf1"},"vehicle_type_id":"4","last_reported":1728587220,"current_range_meters":12800,"station_id":"ce4bgpp2rcd13ifvqc3g","pricing_plan_id":"cebpf4jnsgd1na2vs0mg"},{"bike_id":"50aa4af7-94b4-48c9-959d-eeec3eaec001","system_id":"levelo_inurba_marseille","lat":43.23195,"lon":5.35549,"is_reserved":false,"is_disabled":false,"rental_uris":{"android":"levelo://app?vid=50aa4af7-94b4-48c9-959d-eeec3eaec001","ios":"levelo://app?vid=50aa4af7-94b4-48c9-959d-eeec3eaec001"},"vehicle_type_id":"4","last_reported":1728587220,"current_range_meters":38800,"station_id":"ce4bhu92rcd13ifvqi70","pricing_plan_id":"cebpf4jnsgd1na2vs0mg"},{"bike_id":"8f58235a-d4da-4cab-bb8e-7e93577e7259","system_id":"levelo_inurba_marseille","lat":43.2319,"lon":5.39993,"is_reserved":false,"is_disabled":false,"rental_uris":{"android":"levelo://app?vid=8f58235a-d4da-4cab-bb8e-7e93577e7259","ios":"levelo://app?vid=8f58235a-d4da-4cab-bb8e-7e93577e7259"},"vehicle_type_id":"4","last_reported":1728587220,"current_range_meters":38800,"station_id":"ce4bhn12rcd13ifvqgqg","pricing_plan_id":"cebpf4jnsgd1na2vs0mg"},{"bike_id":"84c30ed3-60f2-43c6-a6ef-72b2abd8f6b1","system_id":"levelo_inurba_marseille","lat":43.26692,"lon":5.38278,"is_reserved":false,"is_disabled":false,"rental_uris":{"android":"levelo://app?vid=84c30ed3-60f2-43c6-a6ef-72b2abd8f6b1","ios":"levelo://app?vid=84c30ed3-60f2-43c6-a6ef-72b2abd8f6b1"},"vehicle_type_id":"4","last_reported":1728587220,"current_range_meters":37600,"station_id":"ce4bhg92rcd13ifvqf90","pricing_plan_id":"cebpf4jnsgd1na2vs0mg"},{"bike_id":"254faf2c-a0ec-49fa-9a73-7624dc4a0e91","system_id":"levelo_inurba_marseille","lat":43.29853,"lon":5.36291,"is_reserved":false,"is_disabled":false,"rental_uris":{"android":"levelo://app?vid=254faf2c-a0ec-49fa-9a73-7624dc4a0e91","ios":"levelo://app?vid=254faf2c-a0ec-49fa-9a73-7624dc4a0e91"},"vehicle_type_id":"4","last_reported":1728587220,"current_range_meters":38800,"station_id":"ce4bgpp2rcd13ifvqc3g","pricing_plan_id":"cebpf4jnsgd1na2vs0mg"},{"bike_id":"255093a8-c98a-4773-851f-60ca2d6fabdf","system_id":"levelo_inurba_marseille","lat":43.33499,"lon":5.36775,"is_reserved":false,"is_disabled":false,"rental_uris":{"android":"levelo://app?vid=255093a8-c98a-4773-851f-60ca2d6fabdf","ios":"levelo://app?vid=255093a8-c98a-4773-851f-60ca2d6fabdf"},"vehicle_type_id":"4","last_reported":1728587220,"current_range_meters":34800,"station_id":"","pricing_plan_id":"cebpf4jnsgd1na2vs0mg"},{"bike_id":"04cdfc0e-0712-459a-a56c-8097add52c1d","system_id":"levelo_inurba_marseille","lat":43.28084,"lon":5.39661,"is_reserved":false,"is_disabled":false,"rental_uris":{"android":"levelo://app?vid=04cdfc0e-0712-459a-a56c-8097add52c1d","ios":"levelo://app?vid=04cdfc0e-0712-459a-a56c-8097add52c1d"},"vehicle_type_id":"4","last_reported":1728587220,"current_range_meters":10000,"station_id":"ce4bho12rcd13ifvqh2g","pricing_plan_id":"cebpf4jnsgd1na2vs0mg"},{"bike_id":"17b4ffa1-e5cc-41f5-9179-86ec5c0f02ca","system_id":"levelo_inurba_marseille","lat":43.29848,"lon":5.36281,"is_reserved":false,"is_disabled":false,"rental_uris":{"android":"levelo://app?vid=17b4ffa1-e5cc-41f5-9179-86ec5c0f02ca","ios":"levelo://app?vid=17b4ffa1-e5cc-41f5-9179-86ec5c0f02ca"},"vehicle_type_id":"4","last_reported":1728587220,"current_range_meters":27200,"station_id":"ce4bgpp2rcd13ifvqc3g","pricing_plan_id":"cebpf4jnsgd1na2vs0mg"},{"bike_id":"3e12e5be-28ee-4225-91b2-ed3b4564d194","system_id":"levelo_inurba_marseille","lat":43.25828,"lon":5.39439,"is_reserved":false,"is_disabled":false,"rental_uris":{"android":"levelo://app?vid=3e12e5be-28ee-4225-91b2-ed3b4564d194","ios":"levelo://app?vid=3e12e5be-28ee-4225-91b2-ed3b4564d194"},"vehicle_type_id":"4","last_reported":1728587220,"current_range_meters":29600,"station_id":"ce4bhip2rcd13ifvqft0","pricing_plan_id":"cebpf4jnsgd1na2vs0mg"},{"bike_id":"83671d62-48fd-4a45-9013-d19fc0b99460","system_id":"levelo_inurba_marseille","lat":43.29584,"lon":5.36745,"is_reserved":false,"is_disabled":false,"rental_uris":{"android":"levelo://app?vid=83671d62-48fd-4a45-9013-d19fc0b99460","ios":"levelo://app?vid=83671d62-48fd-4a45-9013-d19fc0b99460"},"vehicle_type_id":"4","last_reported":1728587220,"current_range_meters":10800,"station_id":"ce4bgph2rcd13ifvqc2g","pricing_plan_id":"cebpf4jnsgd1na2vs0mg"},{"bike_id":"f231d8e0-c0bf-4352-ab25-9cde863b20a8","system_id":"levelo_inurba_marseille","lat":43.29431,"lon":5.38631,"is_reserved":false,"is_disabled":false,"rental_uris":{"android":"levelo://app?vid=f231d8e0-c0bf-4352-ab25-9cde863b20a8","ios":"levelo://app?vid=f231d8e0-c0bf-4352-ab25-9cde863b20a8"},"vehicle_type_id":"4","last_reported":1728587220,"current_range_meters":38800,"station_id":"ce4bh2h2rcd13ifvqdh0","pricing_plan_id":"cebpf4jnsgd1na2vs0mg"},{"bike_id":"ff68b789-7173-415f-860f-fb58c1b9d01d","system_id":"levelo_inurba_marseille","lat":43.22928,"lon":5.35376,"is_reserved":false,"is_disabled":false,"rental_uris":{"android":"levelo://app?vid=ff68b789-7173-415f-860f-fb58c1b9d01d","ios":"levelo://app?vid=ff68b789-7173-415f-860f-fb58c1b9d01d"},"vehicle_type_id":"4","last_reported":1728587220,"current_range_meters":35200,"station_id":"cpo3532slgdg3j2ikp40","pricing_plan_id":"cebpf4jnsgd1na2vs0mg"},{"bike_id":"764a1729-cabc-4a4a-8bd7-5563f0826569","system_id":"levelo_inurba_marseille","lat":43.23193,"lon":5.35555,"is_reserved":false,"is_disabled":false,"rental_uris":{"android":"levelo://app?vid=764a1729-cabc-4a4a-8bd7-5563f0826569","ios":"levelo://app?vid=764a1729-cabc-4a4a-8bd7-5563f0826569"},"vehicle_type_id":"4","last_reported":1728587220,"current_range_meters":8800,"station_id":"ce4bhu92rcd13ifvqi70","pricing_plan_id":"cebpf4jnsgd1na2vs0mg"},{"bike_id":"15af7706-f039-4880-a405-acd56cf7761a","system_id":"levelo_inurba_marseille","lat":43.29585,"lon":5.36747,"is_reserved":false,"is_disabled":false,"rental_uris":{"android":"levelo://app?vid=15af7706-f039-4880-a405-acd56cf7761a","ios":"levelo://app?vid=15af7706-f039-4880-a405-acd56cf7761a"},"vehicle_type_id":"4","last_reported":1728587220,"current_range_meters":37600,"station_id":"ce4bgph2rcd13ifvqc2g","pricing_plan_id":"cebpf4jnsgd1na2vs0mg"},{"bike_id":"6cb5b02c-2401-484a-8b7d-b4d2106d6b08","system_id":"levelo_inurba_marseille","lat":43.23192,"lon":5.35557,"is_reserved":false,"is_disabled":false,"rental_uris":{"android":"levelo://app?vid=6cb5b02c-2401-484a-8b7d-b4d2106d6b08","ios":"levelo://app?vid=6cb5b02c-2401-484a-8b7d-b4d2106d6b08"},"vehicle_type_id":"4","last_reported":1728587220,"current_range_meters":38800,"station_id":"ce4bhu92rcd13ifvqi70","pricing_plan_id":"cebpf4jnsgd1na2vs0mg"},{"bike_id":"f255bdbb-a497-4549-91a5-4dbe27c9af42","system_id":"levelo_inurba_marseille","lat":43.24663,"lon":5.38159,"is_reserved":false,"is_disabled":false,"rental_uris":{"android":"levelo://app?vid=f255bdbb-a497-4549-91a5-4dbe27c9af42","ios":"levelo://app?vid=f255bdbb-a497-4549-91a5-4dbe27c9af42"},"vehicle_type_id":"4","last_reported":1728587220,"current_range_meters":27200,"station_id":"ce4bhih2rcd13ifvqfr0","pricing_plan_id":"cebpf4jnsgd1na2vs0mg"},{"bike_id":"fc34a4c2-5dda-43dc-8c76-0302a62a6427","system_id":"levelo_inurba_marseille","lat":43.23192,"lon":5.35555,"is_reserved":false,"is_disabled":false,"rental_uris":{"android":"levelo://app?vid=fc34a4c2-5dda-43dc-8c76-0302a62a6427","ios":"levelo://app?vid=fc34a4c2-5dda-43dc-8c76-0302a62a6427"},"vehicle_type_id":"4","last_reported":1728587220,"current_range_meters":35200,"station_id":"ce4bhu92rcd13ifvqi70","pricing_plan_id":"cebpf4jnsgd1na2vs0mg"},{"bike_id":"3d2a7115-6274-403e-8729-18831021d16d","system_id":"levelo_inurba_marseille","lat":43.30619,"lon":5.37242,"is_reserved":false,"is_disabled":false,"rental_uris":{"android":"levelo://app?vid=3d2a7115-6274-403e-8729-18831021d16d","ios":"levelo://app?vid=3d2a7115-6274-403e-8729-18831021d16d"},"vehicle_type_id":"4","last_reported":1728587220,"current_range_meters":5600,"station_id":"ce4bgqh2rcd13ifvqc4g","pricing_plan_id":"cebpf4jnsgd1na2vs0mg"},{"bike_id":"b43e010f-69ea-40f6-9796-119442586a51","system_id":"levelo_inurba_marseille","lat":43.31334,"lon":5.39702,"is_reserved":false,"is_disabled":false,"rental_uris":{"android":"levelo://app?vid=b43e010f-69ea-40f6-9796-119442586a51","ios":"levelo://app?vid=b43e010f-69ea-40f6-9796-119442586a51"},"vehicle_type_id":"4","last_reported":1728587220,"current_range_meters":8400,"station_id":"ce4bgvp2rcd13ifvqcu0","pricing_plan_id":"cebpf4jnsgd1na2vs0mg"},{"bike_id":"1704a246-a42a-4b7b-b5f1-ce812adf5f4b","system_id":"levelo_inurba_marseille","lat":43.29021,"lon":5.38642,"is_reserved":false,"is_disabled":false,"rental_uris":{"android":"levelo://app?vid=1704a246-a42a-4b7b-b5f1-ce812adf5f4b","ios":"levelo://app?vid=1704a246-a42a-4b7b-b5f1-ce812adf5f4b"},"vehicle_type_id":"4","last_reported":1728587220,"current_range_meters":39200,"station_id":"ce4bh4p2rcd13ifvqe0g","pricing_plan_id":"cebpf4jnsgd1na2vs0mg"},{"bike_id":"b88acc46-208f-442f-82c2-468418a3d08f","system_id":"levelo_inurba_marseille","lat":43.33731,"lon":5.39179,"is_reserved":false,"is_disabled":false,"rental_uris":{"android":"levelo://app?vid=b88acc46-208f-442f-82c2-468418a3d08f","ios":"levelo://app?vid=b88acc46-208f-442f-82c2-468418a3d08f"},"vehicle_type_id":"4","last_reported":1728587220,"current_range_meters":36400,"station_id":"ce4bhr92rcd13ifvqhsg","pricing_plan_id":"cebpf4jnsgd1na2vs0mg"},{"bike_id":"1d483a38-1dea-49a3-87d6-3e0ebf825f0a","system_id":"levelo_inurba_marseille","lat":43.32115,"lon":5.36773,"is_reserved":false,"is_disabled":false,"rental_uris":{"android":"levelo://app?vid=1d483a38-1dea-49a3-87d6-3e0ebf825f0a","ios":"levelo://app?vid=1d483a38-1dea-49a3-87d6-3e0ebf825f0a"},"vehicle_type_id":"4","last_reported":1728587220,"current_range_meters":8800,"station_id":"ce4bhrh2rcd13ifvqhug","pricing_plan_id":"cebpf4jnsgd1na2vs0mg"},{"bike_id":"309bfe29-c384-47a4-bfcf-94f8027d916f","system_id":"levelo_inurba_marseille","lat":43.289337,"lon":5.36639,"is_reserved":false,"is_disabled":false,"rental_uris":{"android":"levelo://app?vid=309bfe29-c384-47a4-bfcf-94f8027d916f","ios":"levelo://app?vid=309bfe29-c384-47a4-bfcf-94f8027d916f"},"vehicle_type_id":"4","last_reported":1728587220,"current_range_meters":8000,"station_id":"ce4bhap2rcd13ifvqek0","pricing_plan_id":"cebpf4jnsgd1na2vs0mg"},{"bike_id":"9a036f34-3358-4762-9579-baf8a3a207c5","system_id":"levelo_inurba_marseille","lat":43.28112,"lon":5.37839,"is_reserved":false,"is_disabled":false,"rental_uris":{"android":"levelo://app?vid=9a036f34-3358-4762-9579-baf8a3a207c5","ios":"levelo://app?vid=9a036f34-3358-4762-9579-baf8a3a207c5"},"vehicle_type_id":"4","last_reported":1728587220,"current_range_meters":38800,"station_id":"ce4bha12rcd13ifvqee0","pricing_plan_id":"cebpf4jnsgd1na2vs0mg"},{"bike_id":"9a3ef8f3-8740-4e39-9c24-cf98b0108ac8","system_id":"levelo_inurba_marseille","lat":43.28038,"lon":5.36942,"is_reserved":false,"is_disabled":false,"rental_uris":{"android":"levelo://app?vid=9a3ef8f3-8740-4e39-9c24-cf98b0108ac8","ios":"levelo://app?vid=9a3ef8f3-8740-4e39-9c24-cf98b0108ac8"},"vehicle_type_id":"4","last_reported":1728587220,"current_range_meters":19200,"station_id":"ce4bha12rcd13ifvqef0","pricing_plan_id":"cebpf4jnsgd1na2vs0mg"},{"bike_id":"b09dbff8-a830-491c-a572-644fce18b85a","system_id":"levelo_inurba_marseille","lat":43.24664,"lon":5.38167,"is_reserved":false,"is_disabled":false,"rental_uris":{"android":"levelo://app?vid=b09dbff8-a830-491c-a572-644fce18b85a","ios":"levelo://app?vid=b09dbff8-a830-491c-a572-644fce18b85a"},"vehicle_type_id":"4","last_reported":1728587220,"current_range_meters":32000,"station_id":"ce4bhih2rcd13ifvqfr0","pricing_plan_id":"cebpf4jnsgd1na2vs0mg"},{"bike_id":"b403c7ea-19b1-464d-a198-125a8524abb8","system_id":"levelo_inurba_marseille","lat":43.28457,"lon":5.35884,"is_reserved":false,"is_disabled":false,"rental_uris":{"android":"levelo://app?vid=b403c7ea-19b1-464d-a198-125a8524abb8","ios":"levelo://app?vid=b403c7ea-19b1-464d-a198-125a8524abb8"},"vehicle_type_id":"4","last_reported":1728587220,"current_range_meters":20000,"station_id":"ce4bhah2rcd13ifvqei0","pricing_plan_id":"cebpf4jnsgd1na2vs0mg"},{"bike_id":"85871c01-d2d0-4cc9-8922-dce432635c5d","system_id":"levelo_inurba_marseille","lat":43.24186,"lon":5.39744,"is_reserved":false,"is_disabled":false,"rental_uris":{"android":"levelo://app?vid=85871c01-d2d0-4cc9-8922-dce432635c5d","ios":"levelo://app?vid=85871c01-d2d0-4cc9-8922-dce432635c5d"},"vehicle_type_id":"4","last_reported":1728587220,"current_range_meters":34000,"station_id":"ce4bhn12rcd13ifvqgpg","pricing_plan_id":"cebpf4jnsgd1na2vs0mg"},{"bike_id":"3400ba9b-09e1-49d1-ae2e-736c42071eb9","system_id":"levelo_inurba_marseille","lat":43.28026,"lon":5.36949,"is_reserved":false,"is_disabled":false,"rental_uris":{"android":"levelo://app?vid=3400ba9b-09e1-49d1-ae2e-736c42071eb9","ios":"levelo://app?vid=3400ba9b-09e1-49d1-ae2e-736c42071eb9"},"vehicle_type_id":"4","last_reported":1728587220,"current_range_meters":3200,"station_id":"ce4bha12rcd13ifvqef0","pricing_plan_id":"cebpf4jnsgd1na2vs0mg"},{"bike_id":"a730ba2b-1601-4be0-ae6a-5a4701f6c020","system_id":"levelo_inurba_marseille","lat":43.29544,"lon":5.37518,"is_reserved":false,"is_disabled":false,"rental_uris":{"android":"levelo://app?vid=a730ba2b-1601-4be0-ae6a-5a4701f6c020","ios":"levelo://app?vid=a730ba2b-1601-4be0-ae6a-5a4701f6c020"},"vehicle_type_id":"4","last_reported":1728587220,"current_range_meters":20000,"station_id":"ce4bgkp2rcd13ifvqbmg","pricing_plan_id":"cebpf4jnsgd1na2vs0mg"},{"bike_id":"877ed964-322f-4757-a88a-affb2f324e4f","system_id":"levelo_inurba_marseille","lat":43.28079,"lon":5.39653,"is_reserved":false,"is_disabled":false,"rental_uris":{"android":"levelo://app?vid=877ed964-322f-4757-a88a-affb2f324e4f","ios":"levelo://app?vid=877ed964-322f-4757-a88a-affb2f324e4f"},"vehicle_type_id":"4","last_reported":1728587220,"current_range_meters":28800,"station_id":"ce4bho12rcd13ifvqh2g","pricing_plan_id":"cebpf4jnsgd1na2vs0mg"},{"bike_id":"73f76813-e7f3-4988-85f7-ffdb85ea1c79","system_id":"levelo_inurba_marseille","lat":43.2985,"lon":5.36291,"is_reserved":false,"is_disabled":false,"rental_uris":{"android":"levelo://app?vid=73f76813-e7f3-4988-85f7-ffdb85ea1c79","ios":"levelo://app?vid=73f76813-e7f3-4988-85f7-ffdb85ea1c79"},"vehicle_type_id":"4","last_reported":1728587220,"current_range_meters":19600,"station_id":"ce4bgpp2rcd13ifvqc3g","pricing_plan_id":"cebpf4jnsgd1na2vs0mg"},{"bike_id":"1e5f652c-4a49-4e5e-93d6-ba2d4440a647","system_id":"levelo_inurba_marseille","lat":43.31543,"lon":5.380427,"is_reserved":false,"is_disabled":false,"rental_uris":{"android":"levelo://app?vid=1e5f652c-4a49-4e5e-93d6-ba2d4440a647","ios":"levelo://app?vid=1e5f652c-4a49-4e5e-93d6-ba2d4440a647"},"vehicle_type_id":"4","last_reported":1728587220,"current_range_meters":6400,"station_id":"ce4bhsp2rcd13ifvqi50","pricing_plan_id":"cebpf4jnsgd1na2vs0mg"},{"bike_id":"6d108213-635a-4114-ae4a-3bc1cd0b51e5","system_id":"levelo_inurba_marseille","lat":43.30138,"lon":5.37414,"is_reserved":false,"is_disabled":false,"rental_uris":{"android":"levelo://app?vid=6d108213-635a-4114-ae4a-3bc1cd0b51e5","ios":"levelo://app?vid=6d108213-635a-4114-ae4a-3bc1cd0b51e5"},"vehicle_type_id":"4","last_reported":1728587220,"current_range_meters":14400,"station_id":"ce4bgs92rcd13ifvqcc0","pricing_plan_id":"cebpf4jnsgd1na2vs0mg"},{"bike_id":"32351642-6927-4fb9-8c7d-12e4382439d6","system_id":"levelo_inurba_marseille","lat":43.23151,"lon":5.43716,"is_reserved":false,"is_disabled":false,"rental_uris":{"android":"levelo://app?vid=32351642-6927-4fb9-8c7d-12e4382439d6","ios":"levelo://app?vid=32351642-6927-4fb9-8c7d-12e4382439d6"},"vehicle_type_id":"4","last_reported":1728587220,"current_range_meters":39200,"station_id":"ce4bhmp2rcd13ifvqgog","pricing_plan_id":"cebpf4jnsgd1na2vs0mg"},{"bike_id":"3e3cbfc5-44a1-440b-89a3-99ba51569c02","system_id":"levelo_inurba_marseille","lat":43.29258,"lon":5.40919,"is_reserved":false,"is_disabled":false,"rental_uris":{"android":"levelo://app?vid=3e3cbfc5-44a1-440b-89a3-99ba51569c02","ios":"levelo://app?vid=3e3cbfc5-44a1-440b-89a3-99ba51569c02"},"vehicle_type_id":"4","last_reported":1728587220,"current_range_meters":11200,"station_id":"ce4bh192rcd13ifvqdc0","pricing_plan_id":"cebpf4jnsgd1na2vs0mg"},{"bike_id":"484a4c63-4ef1-4433-b27a-9a9ca5ad2f9a","system_id":"levelo_inurba_marseille","lat":43.22929,"lon":5.35377,"is_reserved":false,"is_disabled":false,"rental_uris":{"android":"levelo://app?vid=484a4c63-4ef1-4433-b27a-9a9ca5ad2f9a","ios":"levelo://app?vid=484a4c63-4ef1-4433-b27a-9a9ca5ad2f9a"},"vehicle_type_id":"4","last_reported":1728587220,"current_range_meters":20400,"station_id":"cpo3532slgdg3j2ikp40","pricing_plan_id":"cebpf4jnsgd1na2vs0mg"},{"bike_id":"12c83419-78d9-4b5d-843e-b8eb13099505","system_id":"levelo_inurba_marseille","lat":43.26692,"lon":5.38281,"is_reserved":false,"is_disabled":false,"rental_uris":{"android":"levelo://app?vid=12c83419-78d9-4b5d-843e-b8eb13099505","ios":"levelo://app?vid=12c83419-78d9-4b5d-843e-b8eb13099505"},"vehicle_type_id":"4","last_reported":1728587220,"current_range_meters":35600,"station_id":"ce4bhg92rcd13ifvqf90","pricing_plan_id":"cebpf4jnsgd1na2vs0mg"},{"bike_id":"3bc0139c-b75b-4714-9259-b959caf57b72","system_id":"levelo_inurba_marseille","lat":43.30251,"lon":5.40085,"is_reserved":false,"is_disabled":false,"rental_uris":{"android":"levelo://app?vid=3bc0139c-b75b-4714-9259-b959caf57b72","ios":"levelo://app?vid=3bc0139c-b75b-4714-9259-b959caf57b72"},"vehicle_type_id":"4","last_reported":1728587220,"current_range_meters":18800,"station_id":"ce4bgvh2rcd13ifvqcs0","pricing_plan_id":"cebpf4jnsgd1na2vs0mg"},{"bike_id":"0d81f857-207f-4c04-bd23-1ca1a9f495cd","system_id":"levelo_inurba_marseille","lat":43.30912,"lon":5.36846,"is_reserved":false,"is_disabled":false,"rental_uris":{"android":"levelo://app?vid=0d81f857-207f-4c04-bd23-1ca1a9f495cd","ios":"levelo://app?vid=0d81f857-207f-4c04-bd23-1ca1a9f495cd"},"vehicle_type_id":"4","last_reported":1728587220,"current_range_meters":37600,"station_id":"ce4bgn92rcd13ifvqbvg","pricing_plan_id":"cebpf4jnsgd1na2vs0mg"},{"bike_id":"09a0da30-4545-4fe7-81d4-9f0a1461334c","system_id":"levelo_inurba_marseille","lat":43.30422,"lon":5.39772,"is_reserved":false,"is_disabled":false,"rental_uris":{"android":"levelo://app?vid=09a0da30-4545-4fe7-81d4-9f0a1461334c","ios":"levelo://app?vid=09a0da30-4545-4fe7-81d4-9f0a1461334c"},"vehicle_type_id":"4","last_reported":1728587220,"current_range_meters":24800,"station_id":"ce4bh092rcd13ifvqd20","pricing_plan_id":"cebpf4jnsgd1na2vs0mg"},{"bike_id":"830a55b5-b356-49d6-b4bd-23022c4ba6b3","system_id":"levelo_inurba_marseille","lat":43.28466,"lon":5.35892,"is_reserved":false,"is_disabled":false,"rental_uris":{"android":"levelo://app?vid=830a55b5-b356-49d6-b4bd-23022c4ba6b3","ios":"levelo://app?vid=830a55b5-b356-49d6-b4bd-23022c4ba6b3"},"vehicle_type_id":"4","last_reported":1728587220,"current_range_meters":7200,"station_id":"ce4bhah2rcd13ifvqei0","pricing_plan_id":"cebpf4jnsgd1na2vs0mg"},{"bike_id":"b7ed7acd-8c9b-4d58-8dfb-5e2e7d62fc5c","system_id":"levelo_inurba_marseille","lat":43.29036,"lon":5.38133,"is_reserved":false,"is_disabled":false,"rental_uris":{"android":"levelo://app?vid=b7ed7acd-8c9b-4d58-8dfb-5e2e7d62fc5c","ios":"levelo://app?vid=b7ed7acd-8c9b-4d58-8dfb-5e2e7d62fc5c"},"vehicle_type_id":"4","last_reported":1728587220,"current_range_meters":6000,"station_id":"ce4bh4p2rcd13ifvqe1g","pricing_plan_id":"cebpf4jnsgd1na2vs0mg"},{"bike_id":"660141e5-2226-4597-9b99-88b874427942","system_id":"levelo_inurba_marseille","lat":43.28704,"lon":5.37402,"is_reserved":false,"is_disabled":false,"rental_uris":{"android":"levelo://app?vid=660141e5-2226-4597-9b99-88b874427942","ios":"levelo://app?vid=660141e5-2226-4597-9b99-88b874427942"},"vehicle_type_id":"4","last_reported":1728587220,"current_range_meters":38000,"station_id":"ce4bh3p2rcd13ifvqdq0","pricing_plan_id":"cebpf4jnsgd1na2vs0mg"},{"bike_id":"3372ba1c-93af-4ac9-8ffa-34868b7baae2","system_id":"levelo_inurba_marseille","lat":43.31762,"lon":5.3902,"is_reserved":false,"is_disabled":false,"rental_uris":{"android":"levelo://app?vid=3372ba1c-93af-4ac9-8ffa-34868b7baae2","ios":"levelo://app?vid=3372ba1c-93af-4ac9-8ffa-34868b7baae2"},"vehicle_type_id":"4","last_reported":1728587220,"current_range_meters":16400,"station_id":"ce4bhqp2rcd13ifvqhng","pricing_plan_id":"cebpf4jnsgd1na2vs0mg"},{"bike_id":"95df0637-4095-48d9-8eaa-5a6c8c4d8acd","system_id":"levelo_inurba_marseille","lat":43.29846,"lon":5.36275,"is_reserved":false,"is_disabled":false,"rental_uris":{"android":"levelo://app?vid=95df0637-4095-48d9-8eaa-5a6c8c4d8acd","ios":"levelo://app?vid=95df0637-4095-48d9-8eaa-5a6c8c4d8acd"},"vehicle_type_id":"4","last_reported":1728587220,"current_range_meters":30000,"station_id":"ce4bgpp2rcd13ifvqc3g","pricing_plan_id":"cebpf4jnsgd1na2vs0mg"},{"bike_id":"d536ef4b-b253-4bee-9285-eb782f8f6cab","system_id":"levelo_inurba_marseille","lat":43.32596,"lon":5.40455,"is_reserved":false,"is_disabled":false,"rental_uris":{"android":"levelo://app?vid=d536ef4b-b253-4bee-9285-eb782f8f6cab","ios":"levelo://app?vid=d536ef4b-b253-4bee-9285-eb782f8f6cab"},"vehicle_type_id":"4","last_reported":1728587220,"current_range_meters":30800,"station_id":"","pricing_plan_id":"cebpf4jnsgd1na2vs0mg"},{"bike_id":"9bf4243d-1f44-4b3a-bebd-ba87a1effa0f","system_id":"levelo_inurba_marseille","lat":43.29529,"lon":5.39045,"is_reserved":false,"is_disabled":false,"rental_uris":{"android":"levelo://app?vid=9bf4243d-1f44-4b3a-bebd-ba87a1effa0f","ios":"levelo://app?vid=9bf4243d-1f44-4b3a-bebd-ba87a1effa0f"},"vehicle_type_id":"4","last_reported":1728587220,"current_range_meters":24400,"station_id":"ce4bh3p2rcd13ifvqdp0","pricing_plan_id":"cebpf4jnsgd1na2vs0mg"},{"bike_id":"90fbc6c8-74c8-4f7f-a927-f3891c5b89aa","system_id":"levelo_inurba_marseille","lat":43.27619,"lon":5.36107,"is_reserved":false,"is_disabled":false,"rental_uris":{"android":"levelo://app?vid=90fbc6c8-74c8-4f7f-a927-f3891c5b89aa","ios":"levelo://app?vid=90fbc6c8-74c8-4f7f-a927-f3891c5b89aa"},"vehicle_type_id":"4","last_reported":1728587220,"current_range_meters":39200,"station_id":"ce4bgj92rcd13ifvqbe0","pricing_plan_id":"cebpf4jnsgd1na2vs0mg"},{"bike_id":"cb50ef30-26f4-40c6-aa28-e8b640dc2b0d","system_id":"levelo_inurba_marseille","lat":43.29854,"lon":5.36302,"is_reserved":false,"is_disabled":false,"rental_uris":{"android":"levelo://app?vid=cb50ef30-26f4-40c6-aa28-e8b640dc2b0d","ios":"levelo://app?vid=cb50ef30-26f4-40c6-aa28-e8b640dc2b0d"},"vehicle_type_id":"4","last_reported":1728587220,"current_range_meters":8000,"station_id":"ce4bgpp2rcd13ifvqc3g","pricing_plan_id":"cebpf4jnsgd1na2vs0mg"},{"bike_id":"2fbd776f-eb6d-4eec-82f6-9578b46169b6","system_id":"levelo_inurba_marseille","lat":43.24648,"lon":5.3889,"is_reserved":false,"is_disabled":false,"rental_uris":{"android":"levelo://app?vid=2fbd776f-eb6d-4eec-82f6-9578b46169b6","ios":"levelo://app?vid=2fbd776f-eb6d-4eec-82f6-9578b46169b6"},"vehicle_type_id":"4","last_reported":1728587220,"current_range_meters":33600,"station_id":"ce4bhg12rcd13ifvqf60","pricing_plan_id":"cebpf4jnsgd1na2vs0mg"},{"bike_id":"8fb2b431-bcb9-46ba-80fb-e26e84592fc5","system_id":"levelo_inurba_marseille","lat":43.231865,"lon":5.355648,"is_reserved":false,"is_disabled":false,"rental_uris":{"android":"levelo://app?vid=8fb2b431-bcb9-46ba-80fb-e26e84592fc5","ios":"levelo://app?vid=8fb2b431-bcb9-46ba-80fb-e26e84592fc5"},"vehicle_type_id":"4","last_reported":1728587220,"current_range_meters":38800,"station_id":"ce4bhu92rcd13ifvqi70","pricing_plan_id":"cebpf4jnsgd1na2vs0mg"},{"bike_id":"b52993a9-e462-498b-b487-23dcf260a615","system_id":"levelo_inurba_marseille","lat":43.28283,"lon":5.35079,"is_reserved":false,"is_disabled":false,"rental_uris":{"android":"levelo://app?vid=b52993a9-e462-498b-b487-23dcf260a615","ios":"levelo://app?vid=b52993a9-e462-498b-b487-23dcf260a615"},"vehicle_type_id":"4","last_reported":1728587220,"current_range_meters":24400,"station_id":"ce4bhbp2rcd13ifvqerg","pricing_plan_id":"cebpf4jnsgd1na2vs0mg"},{"bike_id":"69379c60-2a52-47c6-be36-ae4324a423d0","system_id":"levelo_inurba_marseille","lat":43.29796,"lon":5.38108,"is_reserved":false,"is_disabled":false,"rental_uris":{"android":"levelo://app?vid=69379c60-2a52-47c6-be36-ae4324a423d0","ios":"levelo://app?vid=69379c60-2a52-47c6-be36-ae4324a423d0"},"vehicle_type_id":"4","last_reported":1728587220,"current_range_meters":12400,"station_id":"ce4bgip2rcd13ifvqbb0","pricing_plan_id":"cebpf4jnsgd1na2vs0mg"},{"bike_id":"ee60ecd2-97bd-4d53-acbb-464f7063c219","system_id":"levelo_inurba_marseille","lat":43.28677,"lon":5.38661,"is_reserved":false,"is_disabled":false,"rental_uris":{"android":"levelo://app?vid=ee60ecd2-97bd-4d53-acbb-464f7063c219","ios":"levelo://app?vid=ee60ecd2-97bd-4d53-acbb-464f7063c219"},"vehicle_type_id":"4","last_reported":1728587220,"current_range_meters":18000,"station_id":"ce4bh492rcd13ifvqdug","pricing_plan_id":"cebpf4jnsgd1na2vs0mg"},{"bike_id":"1d0c1677-0550-4316-b757-dab8c90e2832","system_id":"levelo_inurba_marseille","lat":43.317087,"lon":5.37756,"is_reserved":false,"is_disabled":false,"rental_uris":{"android":"levelo://app?vid=1d0c1677-0550-4316-b757-dab8c90e2832","ios":"levelo://app?vid=1d0c1677-0550-4316-b757-dab8c90e2832"},"vehicle_type_id":"4","last_reported":1728587220,"current_range_meters":33600,"station_id":"ce4bgth2rcd13ifvqch0","pricing_plan_id":"cebpf4jnsgd1na2vs0mg"},{"bike_id":"47e58452-78e8-4b80-bd1b-533509c8cfcd","system_id":"levelo_inurba_marseille","lat":43.25936,"lon":5.40913,"is_reserved":false,"is_disabled":false,"rental_uris":{"android":"levelo://app?vid=47e58452-78e8-4b80-bd1b-533509c8cfcd","ios":"levelo://app?vid=47e58452-78e8-4b80-bd1b-533509c8cfcd"},"vehicle_type_id":"4","last_reported":1728587220,"current_range_meters":10000,"station_id":"ce4bhm92rcd13ifvqglg","pricing_plan_id":"cebpf4jnsgd1na2vs0mg"},{"bike_id":"308cc5b1-650a-46f5-8879-e00584558dc5","system_id":"levelo_inurba_marseille","lat":43.29774,"lon":5.37097,"is_reserved":false,"is_disabled":false,"rental_uris":{"android":"levelo://app?vid=308cc5b1-650a-46f5-8879-e00584558dc5","ios":"levelo://app?vid=308cc5b1-650a-46f5-8879-e00584558dc5"},"vehicle_type_id":"4","last_reported":1728587220,"current_range_meters":38000,"station_id":"ce4bgop2rcd13ifvqc1g","pricing_plan_id":"cebpf4jnsgd1na2vs0mg"},{"bike_id":"100515e6-0aa5-4606-8b5f-b39339aa3e83","system_id":"levelo_inurba_marseille","lat":43.29833,"lon":5.36307,"is_reserved":false,"is_disabled":false,"rental_uris":{"android":"levelo://app?vid=100515e6-0aa5-4606-8b5f-b39339aa3e83","ios":"levelo://app?vid=100515e6-0aa5-4606-8b5f-b39339aa3e83"},"vehicle_type_id":"4","last_reported":1728587220,"current_range_meters":9200,"station_id":"ce4bgpp2rcd13ifvqc3g","pricing_plan_id":"cebpf4jnsgd1na2vs0mg"},{"bike_id":"dcea4eca-91fa-45a6-8d12-064391f6f154","system_id":"levelo_inurba_marseille","lat":43.33602,"lon":5.41036,"is_reserved":false,"is_disabled":false,"rental_uris":{"android":"levelo://app?vid=dcea4eca-91fa-45a6-8d12-064391f6f154","ios":"levelo://app?vid=dcea4eca-91fa-45a6-8d12-064391f6f154"},"vehicle_type_id":"4","last_reported":1728587220,"current_range_meters":12400,"station_id":"ce4bhqh2rcd13ifvqhmg","pricing_plan_id":"cebpf4jnsgd1na2vs0mg"},{"bike_id":"ad46e3d5-dec8-4f3c-8268-c4ab89585c4a","system_id":"levelo_inurba_marseille","lat":43.24181,"lon":5.39736,"is_reserved":false,"is_disabled":false,"rental_uris":{"android":"levelo://app?vid=ad46e3d5-dec8-4f3c-8268-c4ab89585c4a","ios":"levelo://app?vid=ad46e3d5-dec8-4f3c-8268-c4ab89585c4a"},"vehicle_type_id":"4","last_reported":1728587220,"current_range_meters":18000,"station_id":"ce4bhn12rcd13ifvqgpg","pricing_plan_id":"cebpf4jnsgd1na2vs0mg"},{"bike_id":"bda3fe94-6c86-4ae7-a299-1014f0b7764b","system_id":"levelo_inurba_marseille","lat":43.28029,"lon":5.36946,"is_reserved":false,"is_disabled":false,"rental_uris":{"android":"levelo://app?vid=bda3fe94-6c86-4ae7-a299-1014f0b7764b","ios":"levelo://app?vid=bda3fe94-6c86-4ae7-a299-1014f0b7764b"},"vehicle_type_id":"4","last_reported":1728587220,"current_range_meters":38800,"station_id":"ce4bha12rcd13ifvqef0","pricing_plan_id":"cebpf4jnsgd1na2vs0mg"},{"bike_id":"4e6a08ae-9e79-48c6-89f4-c318fef764a9","system_id":"levelo_inurba_marseille","lat":43.32001,"lon":5.38162,"is_reserved":false,"is_disabled":false,"rental_uris":{"android":"levelo://app?vid=4e6a08ae-9e79-48c6-89f4-c318fef764a9","ios":"levelo://app?vid=4e6a08ae-9e79-48c6-89f4-c318fef764a9"},"vehicle_type_id":"4","last_reported":1728587220,"current_range_meters":5600,"station_id":"ce4bhr12rcd13ifvqhpg","pricing_plan_id":"cebpf4jnsgd1na2vs0mg"},{"bike_id":"3ec06d54-57ad-4238-b8af-c24c96ad9fa2","system_id":"levelo_inurba_marseille","lat":43.23161,"lon":5.43718,"is_reserved":false,"is_disabled":false,"rental_uris":{"android":"levelo://app?vid=3ec06d54-57ad-4238-b8af-c24c96ad9fa2","ios":"levelo://app?vid=3ec06d54-57ad-4238-b8af-c24c96ad9fa2"},"vehicle_type_id":"4","last_reported":1728587220,"current_range_meters":38800,"station_id":"ce4bhmp2rcd13ifvqgog","pricing_plan_id":"cebpf4jnsgd1na2vs0mg"},{"bike_id":"c0aafa99-335a-412b-857f-d32ae5f44e1c","system_id":"levelo_inurba_marseille","lat":43.27893,"lon":5.38811,"is_reserved":false,"is_disabled":false,"rental_uris":{"android":"levelo://app?vid=c0aafa99-335a-412b-857f-d32ae5f44e1c","ios":"levelo://app?vid=c0aafa99-335a-412b-857f-d32ae5f44e1c"},"vehicle_type_id":"4","last_reported":1728587220,"current_range_meters":2800,"station_id":"","pricing_plan_id":"cebpf4jnsgd1na2vs0mg"},{"bike_id":"23946e33-3b6f-40d6-b842-84f7f4d2bcb7","system_id":"levelo_inurba_marseille","lat":43.28001,"lon":5.40029,"is_reserved":false,"is_disabled":false,"rental_uris":{"android":"levelo://app?vid=23946e33-3b6f-40d6-b842-84f7f4d2bcb7","ios":"levelo://app?vid=23946e33-3b6f-40d6-b842-84f7f4d2bcb7"},"vehicle_type_id":"4","last_reported":1728587220,"current_range_meters":39200,"station_id":"ce4bho92rcd13ifvqh4g","pricing_plan_id":"cebpf4jnsgd1na2vs0mg"},{"bike_id":"74e8d552-9502-4fd9-b4f2-2eea68199539","system_id":"levelo_inurba_marseille","lat":43.30215,"lon":5.39476,"is_reserved":false,"is_disabled":false,"rental_uris":{"android":"levelo://app?vid=74e8d552-9502-4fd9-b4f2-2eea68199539","ios":"levelo://app?vid=74e8d552-9502-4fd9-b4f2-2eea68199539"},"vehicle_type_id":"4","last_reported":1728587220,"current_range_meters":18800,"station_id":"ce4bh0p2rcd13ifvqd70","pricing_plan_id":"cebpf4jnsgd1na2vs0mg"},{"bike_id":"8fad239a-d79e-4ba8-9060-b1174d354365","system_id":"levelo_inurba_marseille","lat":43.29853,"lon":5.36295,"is_reserved":false,"is_disabled":false,"rental_uris":{"android":"levelo://app?vid=8fad239a-d79e-4ba8-9060-b1174d354365","ios":"levelo://app?vid=8fad239a-d79e-4ba8-9060-b1174d354365"},"vehicle_type_id":"4","last_reported":1728587220,"current_range_meters":38800,"station_id":"ce4bgpp2rcd13ifvqc3g","pricing_plan_id":"cebpf4jnsgd1na2vs0mg"},{"bike_id":"e4eba03b-aa59-4645-ac4b-ca77164202ba","system_id":"levelo_inurba_marseille","lat":43.29928,"lon":5.36551,"is_reserved":false,"is_disabled":false,"rental_uris":{"android":"levelo://app?vid=e4eba03b-aa59-4645-ac4b-ca77164202ba","ios":"levelo://app?vid=e4eba03b-aa59-4645-ac4b-ca77164202ba"},"vehicle_type_id":"4","last_reported":1728587220,"current_range_meters":38800,"station_id":"ce4bgm92rcd13ifvqbr0","pricing_plan_id":"cebpf4jnsgd1na2vs0mg"},{"bike_id":"33e72cb9-794e-4407-a0c0-be7d904fcc81","system_id":"levelo_inurba_marseille","lat":43.29101,"lon":5.38148,"is_reserved":false,"is_disabled":false,"rental_uris":{"android":"levelo://app?vid=33e72cb9-794e-4407-a0c0-be7d904fcc81","ios":"levelo://app?vid=33e72cb9-794e-4407-a0c0-be7d904fcc81"},"vehicle_type_id":"4","last_reported":1728587220,"current_range_meters":36400,"station_id":"ce4bh512rcd13ifvqe2g","pricing_plan_id":"cebpf4jnsgd1na2vs0mg"},{"bike_id":"5300edb4-3876-4f60-88f4-fd8b31aa185d","system_id":"levelo_inurba_marseille","lat":43.27207,"lon":5.391856,"is_reserved":false,"is_disabled":false,"rental_uris":{"android":"levelo://app?vid=5300edb4-3876-4f60-88f4-fd8b31aa185d","ios":"levelo://app?vid=5300edb4-3876-4f60-88f4-fd8b31aa185d"},"vehicle_type_id":"4","last_reported":1728587220,"current_range_meters":12800,"station_id":"ce4bhhp2rcd13ifvqfm0","pricing_plan_id":"cebpf4jnsgd1na2vs0mg"},{"bike_id":"2689c579-dbe8-445a-a4d8-442aefef51bd","system_id":"levelo_inurba_marseille","lat":43.28005,"lon":5.40022,"is_reserved":false,"is_disabled":false,"rental_uris":{"android":"levelo://app?vid=2689c579-dbe8-445a-a4d8-442aefef51bd","ios":"levelo://app?vid=2689c579-dbe8-445a-a4d8-442aefef51bd"},"vehicle_type_id":"4","last_reported":1728587220,"current_range_meters":38800,"station_id":"ce4bho92rcd13ifvqh4g","pricing_plan_id":"cebpf4jnsgd1na2vs0mg"},{"bike_id":"df8a2ca8-2e2e-4c28-983d-c66342896eed","system_id":"levelo_inurba_marseille","lat":43.29528,"lon":5.38556,"is_reserved":false,"is_disabled":false,"rental_uris":{"android":"levelo://app?vid=df8a2ca8-2e2e-4c28-983d-c66342896eed","ios":"levelo://app?vid=df8a2ca8-2e2e-4c28-983d-c66342896eed"},"vehicle_type_id":"4","last_reported":1728587220,"current_range_meters":11200,"station_id":"ce4bgih2rcd13ifvqba0","pricing_plan_id":"cebpf4jnsgd1na2vs0mg"},{"bike_id":"161b2231-2243-41a7-9a8c-6a3ec3fffc5b","system_id":"levelo_inurba_marseille","lat":43.265,"lon":5.39545,"is_reserved":false,"is_disabled":false,"rental_uris":{"android":"levelo://app?vid=161b2231-2243-41a7-9a8c-6a3ec3fffc5b","ios":"levelo://app?vid=161b2231-2243-41a7-9a8c-6a3ec3fffc5b"},"vehicle_type_id":"4","last_reported":1728587220,"current_range_meters":22800,"station_id":"ce4bhi12rcd13ifvqfq0","pricing_plan_id":"cebpf4jnsgd1na2vs0mg"},{"bike_id":"27482599-6ac1-4451-896d-9d27077a44e3","system_id":"levelo_inurba_marseille","lat":43.26024,"lon":5.37552,"is_reserved":false,"is_disabled":false,"rental_uris":{"android":"levelo://app?vid=27482599-6ac1-4451-896d-9d27077a44e3","ios":"levelo://app?vid=27482599-6ac1-4451-896d-9d27077a44e3"},"vehicle_type_id":"4","last_reported":1728587220,"current_range_meters":32400,"station_id":"ce4bhgh2rcd13ifvqfa0","pricing_plan_id":"cebpf4jnsgd1na2vs0mg"},{"bike_id":"aa75c41c-1391-4d5a-b0ad-fb29c317877d","system_id":"levelo_inurba_marseille","lat":43.2307,"lon":5.35496,"is_reserved":false,"is_disabled":false,"rental_uris":{"android":"levelo://app?vid=aa75c41c-1391-4d5a-b0ad-fb29c317877d","ios":"levelo://app?vid=aa75c41c-1391-4d5a-b0ad-fb29c317877d"},"vehicle_type_id":"4","last_reported":1728587220,"current_range_meters":9600,"station_id":"cpo3342slgdg3j2ifvpg","pricing_plan_id":"cebpf4jnsgd1na2vs0mg"},{"bike_id":"17719166-a495-4a39-a285-bfc57b2e9082","system_id":"levelo_inurba_marseille","lat":43.29423,"lon":5.38634,"is_reserved":false,"is_disabled":false,"rental_uris":{"android":"levelo://app?vid=17719166-a495-4a39-a285-bfc57b2e9082","ios":"levelo://app?vid=17719166-a495-4a39-a285-bfc57b2e9082"},"vehicle_type_id":"4","last_reported":1728587220,"current_range_meters":2800,"station_id":"ce4bh2h2rcd13ifvqdh0","pricing_plan_id":"cebpf4jnsgd1na2vs0mg"},{"bike_id":"3e8fd6be-9402-4689-a7a5-d48fe5c3da24","system_id":"levelo_inurba_marseille","lat":43.26684,"lon":5.38264,"is_reserved":false,"is_disabled":false,"rental_uris":{"android":"levelo://app?vid=3e8fd6be-9402-4689-a7a5-d48fe5c3da24","ios":"levelo://app?vid=3e8fd6be-9402-4689-a7a5-d48fe5c3da24"},"vehicle_type_id":"4","last_reported":1728587220,"current_range_meters":33200,"station_id":"ce4bhg92rcd13ifvqf90","pricing_plan_id":"cebpf4jnsgd1na2vs0mg"},{"bike_id":"b1009450-6152-462c-a724-90df51eeb6db","system_id":"levelo_inurba_marseille","lat":43.32382,"lon":5.38917,"is_reserved":false,"is_disabled":false,"rental_uris":{"android":"levelo://app?vid=b1009450-6152-462c-a724-90df51eeb6db","ios":"levelo://app?vid=b1009450-6152-462c-a724-90df51eeb6db"},"vehicle_type_id":"4","last_reported":1728587220,"current_range_meters":9200,"station_id":"ce4bhqp2rcd13ifvqhog","pricing_plan_id":"cebpf4jnsgd1na2vs0mg"},{"bike_id":"3afe5c79-428e-4c6b-968c-c70b973baacf","system_id":"levelo_inurba_marseille","lat":43.30972,"lon":5.3731,"is_reserved":false,"is_disabled":false,"rental_uris":{"android":"levelo://app?vid=3afe5c79-428e-4c6b-968c-c70b973baacf","ios":"levelo://app?vid=3afe5c79-428e-4c6b-968c-c70b973baacf"},"vehicle_type_id":"4","last_reported":1728587220,"current_range_meters":2800,"station_id":"ce4bguh2rcd13ifvqckg","pricing_plan_id":"cebpf4jnsgd1na2vs0mg"},{"bike_id":"d833f955-ca17-400c-aa80-add8af3791d2","system_id":"levelo_inurba_marseille","lat":43.294276,"lon":5.386296,"is_reserved":false,"is_disabled":false,"rental_uris":{"android":"levelo://app?vid=d833f955-ca17-400c-aa80-add8af3791d2","ios":"levelo://app?vid=d833f955-ca17-400c-aa80-add8af3791d2"},"vehicle_type_id":"4","last_reported":1728587220,"current_range_meters":24400,"station_id":"ce4bh2h2rcd13ifvqdh0","pricing_plan_id":"cebpf4jnsgd1na2vs0mg"},{"bike_id":"5aa99b40-79ab-41bf-992f-ef069b73460b","system_id":"levelo_inurba_marseille","lat":43.29781,"lon":5.37103,"is_reserved":false,"is_disabled":false,"rental_uris":{"android":"levelo://app?vid=5aa99b40-79ab-41bf-992f-ef069b73460b","ios":"levelo://app?vid=5aa99b40-79ab-41bf-992f-ef069b73460b"},"vehicle_type_id":"4","last_reported":1728587220,"current_range_meters":17600,"station_id":"ce4bgop2rcd13ifvqc1g","pricing_plan_id":"cebpf4jnsgd1na2vs0mg"},{"bike_id":"c4ed4aa4-f676-48ae-8c12-5757abae2598","system_id":"levelo_inurba_marseille","lat":43.28947,"lon":5.36392,"is_reserved":false,"is_disabled":false,"rental_uris":{"android":"levelo://app?vid=c4ed4aa4-f676-48ae-8c12-5757abae2598","ios":"levelo://app?vid=c4ed4aa4-f676-48ae-8c12-5757abae2598"},"vehicle_type_id":"4","last_reported":1728587220,"current_range_meters":3600,"station_id":"ce4bhc92rcd13ifvqetg","pricing_plan_id":"cebpf4jnsgd1na2vs0mg"},{"bike_id":"a1f9acd4-c2e4-45fc-b38b-0e0aceb1d442","system_id":"levelo_inurba_marseille","lat":43.24674,"lon":5.38159,"is_reserved":false,"is_disabled":false,"rental_uris":{"android":"levelo://app?vid=a1f9acd4-c2e4-45fc-b38b-0e0aceb1d442","ios":"levelo://app?vid=a1f9acd4-c2e4-45fc-b38b-0e0aceb1d442"},"vehicle_type_id":"4","last_reported":1728587220,"current_range_meters":12400,"station_id":"ce4bhih2rcd13ifvqfr0","pricing_plan_id":"cebpf4jnsgd1na2vs0mg"},{"bike_id":"7e9118c7-ac91-4dfd-a123-fd0171c1170c","system_id":"levelo_inurba_marseille","lat":43.32538,"lon":5.36811,"is_reserved":false,"is_disabled":false,"rental_uris":{"android":"levelo://app?vid=7e9118c7-ac91-4dfd-a123-fd0171c1170c","ios":"levelo://app?vid=7e9118c7-ac91-4dfd-a123-fd0171c1170c"},"vehicle_type_id":"4","last_reported":1728587220,"current_range_meters":7200,"station_id":"","pricing_plan_id":"cebpf4jnsgd1na2vs0mg"},{"bike_id":"cc60357c-1287-4dc9-a114-d849a29aed15","system_id":"levelo_inurba_marseille","lat":43.31181,"lon":5.38722,"is_reserved":false,"is_disabled":false,"rental_uris":{"android":"levelo://app?vid=cc60357c-1287-4dc9-a114-d849a29aed15","ios":"levelo://app?vid=cc60357c-1287-4dc9-a114-d849a29aed15"},"vehicle_type_id":"4","last_reported":1728587220,"current_range_meters":30000,"station_id":"ce4bgv12rcd13ifvqcp0","pricing_plan_id":"cebpf4jnsgd1na2vs0mg"},{"bike_id":"d61ac2e5-8a50-40a6-8d9e-54061f09a750","system_id":"levelo_inurba_marseille","lat":43.23965,"lon":5.36631,"is_reserved":false,"is_disabled":false,"rental_uris":{"android":"levelo://app?vid=d61ac2e5-8a50-40a6-8d9e-54061f09a750","ios":"levelo://app?vid=d61ac2e5-8a50-40a6-8d9e-54061f09a750"},"vehicle_type_id":"4","last_reported":1728587220,"current_range_meters":26800,"station_id":"ce4bhi12rcd13ifvqfp0","pricing_plan_id":"cebpf4jnsgd1na2vs0mg"},{"bike_id":"f3f44d1a-43c5-4b0c-a09e-5e1f2235b774","system_id":"levelo_inurba_marseille","lat":43.32291,"lon":5.38266,"is_reserved":false,"is_disabled":false,"rental_uris":{"android":"levelo://app?vid=f3f44d1a-43c5-4b0c-a09e-5e1f2235b774","ios":"levelo://app?vid=f3f44d1a-43c5-4b0c-a09e-5e1f2235b774"},"vehicle_type_id":"4","last_reported":1728587220,"current_range_meters":24800,"station_id":"ce4bhr12rcd13ifvqhqg","pricing_plan_id":"cebpf4jnsgd1na2vs0mg"},{"bike_id":"e4d69715-31b8-43a3-9208-69b751e15fcd","system_id":"levelo_inurba_marseille","lat":43.32365,"lon":5.3889,"is_reserved":false,"is_disabled":false,"rental_uris":{"android":"levelo://app?vid=e4d69715-31b8-43a3-9208-69b751e15fcd","ios":"levelo://app?vid=e4d69715-31b8-43a3-9208-69b751e15fcd"},"vehicle_type_id":"4","last_reported":1728587220,"current_range_meters":32000,"station_id":"ce4bhqp2rcd13ifvqhog","pricing_plan_id":"cebpf4jnsgd1na2vs0mg"},{"bike_id":"39faeb5d-2a8a-4363-a363-3bb53be640fd","system_id":"levelo_inurba_marseille","lat":43.2931,"lon":5.3746,"is_reserved":false,"is_disabled":false,"rental_uris":{"android":"levelo://app?vid=39faeb5d-2a8a-4363-a363-3bb53be640fd","ios":"levelo://app?vid=39faeb5d-2a8a-4363-a363-3bb53be640fd"},"vehicle_type_id":"4","last_reported":1728587220,"current_range_meters":38800,"station_id":"ce4bgi12rcd13ifvqb70","pricing_plan_id":"cebpf4jnsgd1na2vs0mg"},{"bike_id":"7f8ca378-4962-46a8-b93c-a0c767e3c983","system_id":"levelo_inurba_marseille","lat":43.26034,"lon":5.37551,"is_reserved":false,"is_disabled":false,"rental_uris":{"android":"levelo://app?vid=7f8ca378-4962-46a8-b93c-a0c767e3c983","ios":"levelo://app?vid=7f8ca378-4962-46a8-b93c-a0c767e3c983"},"vehicle_type_id":"4","last_reported":1728587220,"current_range_meters":16000,"station_id":"ce4bhgh2rcd13ifvqfa0","pricing_plan_id":"cebpf4jnsgd1na2vs0mg"},{"bike_id":"5211300e-8cc7-4ce3-90b9-f9f7a4a80867","system_id":"levelo_inurba_marseille","lat":43.23965,"lon":5.36626,"is_reserved":false,"is_disabled":false,"rental_uris":{"android":"levelo://app?vid=5211300e-8cc7-4ce3-90b9-f9f7a4a80867","ios":"levelo://app?vid=5211300e-8cc7-4ce3-90b9-f9f7a4a80867"},"vehicle_type_id":"4","last_reported":1728587220,"current_range_meters":18800,"station_id":"ce4bhi12rcd13ifvqfp0","pricing_plan_id":"cebpf4jnsgd1na2vs0mg"},{"bike_id":"8be59dfb-2e0b-4559-9e75-6f63a0a8fb8f","system_id":"levelo_inurba_marseille","lat":43.29283,"lon":5.36856,"is_reserved":false,"is_disabled":false,"rental_uris":{"android":"levelo://app?vid=8be59dfb-2e0b-4559-9e75-6f63a0a8fb8f","ios":"levelo://app?vid=8be59dfb-2e0b-4559-9e75-6f63a0a8fb8f"},"vehicle_type_id":"4","last_reported":1728587220,"current_range_meters":38800,"station_id":"ce4bhbp2rcd13ifvqesg","pricing_plan_id":"cebpf4jnsgd1na2vs0mg"},{"bike_id":"a8736bee-a84b-4ee6-9924-e01a00138d84","system_id":"levelo_inurba_marseille","lat":43.26216,"lon":5.37442,"is_reserved":false,"is_disabled":false,"rental_uris":{"android":"levelo://app?vid=a8736bee-a84b-4ee6-9924-e01a00138d84","ios":"levelo://app?vid=a8736bee-a84b-4ee6-9924-e01a00138d84"},"vehicle_type_id":"4","last_reported":1728587220,"current_range_meters":38800,"station_id":"ce4bhgp2rcd13ifvqfc0","pricing_plan_id":"cebpf4jnsgd1na2vs0mg"},{"bike_id":"2d7e9a09-7370-425f-a18a-b24d45ae2760","system_id":"levelo_inurba_marseille","lat":43.28942,"lon":5.36393,"is_reserved":false,"is_disabled":false,"rental_uris":{"android":"levelo://app?vid=2d7e9a09-7370-425f-a18a-b24d45ae2760","ios":"levelo://app?vid=2d7e9a09-7370-425f-a18a-b24d45ae2760"},"vehicle_type_id":"4","last_reported":1728587220,"current_range_meters":12800,"station_id":"ce4bhc92rcd13ifvqetg","pricing_plan_id":"cebpf4jnsgd1na2vs0mg"},{"bike_id":"013b30d5-884c-49f0-b04a-e9cb3a75770c","system_id":"levelo_inurba_marseille","lat":43.29032,"lon":5.3814,"is_reserved":false,"is_disabled":false,"rental_uris":{"android":"levelo://app?vid=013b30d5-884c-49f0-b04a-e9cb3a75770c","ios":"levelo://app?vid=013b30d5-884c-49f0-b04a-e9cb3a75770c"},"vehicle_type_id":"4","last_reported":1728587220,"current_range_meters":39200,"station_id":"ce4bh4p2rcd13ifvqe1g","pricing_plan_id":"cebpf4jnsgd1na2vs0mg"},{"bike_id":"94a0da88-0452-4315-9fdb-3d51b8a480c1","system_id":"levelo_inurba_marseille","lat":43.28355,"lon":5.38118,"is_reserved":false,"is_disabled":false,"rental_uris":{"android":"levelo://app?vid=94a0da88-0452-4315-9fdb-3d51b8a480c1","ios":"levelo://app?vid=94a0da88-0452-4315-9fdb-3d51b8a480c1"},"vehicle_type_id":"4","last_reported":1728587220,"current_range_meters":37600,"station_id":"ce4bh412rcd13ifvqdr0","pricing_plan_id":"cebpf4jnsgd1na2vs0mg"},{"bike_id":"c198aa29-8019-4b39-9fd2-fc4dbf5016db","system_id":"levelo_inurba_marseille","lat":43.28863,"lon":5.3585,"is_reserved":false,"is_disabled":false,"rental_uris":{"android":"levelo://app?vid=c198aa29-8019-4b39-9fd2-fc4dbf5016db","ios":"levelo://app?vid=c198aa29-8019-4b39-9fd2-fc4dbf5016db"},"vehicle_type_id":"4","last_reported":1728587220,"current_range_meters":38400,"station_id":"ce4bhb12rcd13ifvqem0","pricing_plan_id":"cebpf4jnsgd1na2vs0mg"},{"bike_id":"651bc208-aa05-4861-933e-d587b99a3b83","system_id":"levelo_inurba_marseille","lat":43.29022,"lon":5.38627,"is_reserved":false,"is_disabled":false,"rental_uris":{"android":"levelo://app?vid=651bc208-aa05-4861-933e-d587b99a3b83","ios":"levelo://app?vid=651bc208-aa05-4861-933e-d587b99a3b83"},"vehicle_type_id":"4","last_reported":1728587220,"current_range_meters":38800,"station_id":"ce4bh4p2rcd13ifvqe0g","pricing_plan_id":"cebpf4jnsgd1na2vs0mg"},{"bike_id":"bddabd11-ca19-4f46-9a6a-c5c059e44818","system_id":"levelo_inurba_marseille","lat":43.23194,"lon":5.35558,"is_reserved":false,"is_disabled":false,"rental_uris":{"android":"levelo://app?vid=bddabd11-ca19-4f46-9a6a-c5c059e44818","ios":"levelo://app?vid=bddabd11-ca19-4f46-9a6a-c5c059e44818"},"vehicle_type_id":"4","last_reported":1728587220,"current_range_meters":38800,"station_id":"ce4bhu92rcd13ifvqi70","pricing_plan_id":"cebpf4jnsgd1na2vs0mg"},{"bike_id":"3ae18fed-f345-4ef0-8ed2-3540202f3e73","system_id":"levelo_inurba_marseille","lat":43.337524,"lon":5.374565,"is_reserved":false,"is_disabled":false,"rental_uris":{"android":"levelo://app?vid=3ae18fed-f345-4ef0-8ed2-3540202f3e73","ios":"levelo://app?vid=3ae18fed-f345-4ef0-8ed2-3540202f3e73"},"vehicle_type_id":"4","last_reported":1728587220,"current_range_meters":31200,"station_id":"","pricing_plan_id":"cebpf4jnsgd1na2vs0mg"},{"bike_id":"11807e6b-d0f0-4a56-8136-5f9d78337ca2","system_id":"levelo_inurba_marseille","lat":43.28279,"lon":5.35087,"is_reserved":false,"is_disabled":false,"rental_uris":{"android":"levelo://app?vid=11807e6b-d0f0-4a56-8136-5f9d78337ca2","ios":"levelo://app?vid=11807e6b-d0f0-4a56-8136-5f9d78337ca2"},"vehicle_type_id":"4","last_reported":1728587220,"current_range_meters":38800,"station_id":"ce4bhbp2rcd13ifvqerg","pricing_plan_id":"cebpf4jnsgd1na2vs0mg"},{"bike_id":"e7f68ed5-baae-4523-9d06-9ce99d4d75b1","system_id":"levelo_inurba_marseille","lat":43.30894,"lon":5.37196,"is_reserved":false,"is_disabled":false,"rental_uris":{"android":"levelo://app?vid=e7f68ed5-baae-4523-9d06-9ce99d4d75b1","ios":"levelo://app?vid=e7f68ed5-baae-4523-9d06-9ce99d4d75b1"},"vehicle_type_id":"4","last_reported":1728587220,"current_range_meters":8400,"station_id":"ce4bguh2rcd13ifvqckg","pricing_plan_id":"cebpf4jnsgd1na2vs0mg"},{"bike_id":"d9dd7bbb-362c-4616-8adb-5cd1b0b2842d","system_id":"levelo_inurba_marseille","lat":43.30271,"lon":5.37728,"is_reserved":false,"is_disabled":false,"rental_uris":{"android":"levelo://app?vid=d9dd7bbb-362c-4616-8adb-5cd1b0b2842d","ios":"levelo://app?vid=d9dd7bbb-362c-4616-8adb-5cd1b0b2842d"},"vehicle_type_id":"4","last_reported":1728587220,"current_range_meters":30400,"station_id":"ce4bguh2rcd13ifvqcj0","pricing_plan_id":"cebpf4jnsgd1na2vs0mg"},{"bike_id":"f32a991d-b9e9-4198-859c-31fe2b1f1e9c","system_id":"levelo_inurba_marseille","lat":43.28859,"lon":5.39304,"is_reserved":false,"is_disabled":false,"rental_uris":{"android":"levelo://app?vid=f32a991d-b9e9-4198-859c-31fe2b1f1e9c","ios":"levelo://app?vid=f32a991d-b9e9-4198-859c-31fe2b1f1e9c"},"vehicle_type_id":"4","last_reported":1728587220,"current_range_meters":6000,"station_id":"ce4bh2p2rcd13ifvqdi0","pricing_plan_id":"cebpf4jnsgd1na2vs0mg"},{"bike_id":"5563e06b-a814-4b84-86f4-cb06a7c02f32","system_id":"levelo_inurba_marseille","lat":43.31265,"lon":5.40174,"is_reserved":false,"is_disabled":false,"rental_uris":{"android":"levelo://app?vid=5563e06b-a814-4b84-86f4-cb06a7c02f32","ios":"levelo://app?vid=5563e06b-a814-4b84-86f4-cb06a7c02f32"},"vehicle_type_id":"4","last_reported":1728587220,"current_range_meters":30400,"station_id":"ce4bh092rcd13ifvqd30","pricing_plan_id":"cebpf4jnsgd1na2vs0mg"},{"bike_id":"55114b5e-c28c-4c20-b151-c91bcd654403","system_id":"levelo_inurba_marseille","lat":43.31085,"lon":5.42433,"is_reserved":false,"is_disabled":false,"rental_uris":{"android":"levelo://app?vid=55114b5e-c28c-4c20-b151-c91bcd654403","ios":"levelo://app?vid=55114b5e-c28c-4c20-b151-c91bcd654403"},"vehicle_type_id":"4","last_reported":1728587220,"current_range_meters":15200,"station_id":"ce4bhp92rcd13ifvqhag","pricing_plan_id":"cebpf4jnsgd1na2vs0mg"},{"bike_id":"ffbea0e2-6524-4d8e-af64-a4a461ae232f","system_id":"levelo_inurba_marseille","lat":43.30206,"lon":5.36622,"is_reserved":false,"is_disabled":false,"rental_uris":{"android":"levelo://app?vid=ffbea0e2-6524-4d8e-af64-a4a461ae232f","ios":"levelo://app?vid=ffbea0e2-6524-4d8e-af64-a4a461ae232f"},"vehicle_type_id":"4","last_reported":1728587220,"current_range_meters":8800,"station_id":"ce4bgrh2rcd13ifvqc8g","pricing_plan_id":"cebpf4jnsgd1na2vs0mg"},{"bike_id":"72eecb27-b432-4793-adf6-633ad57fe1c1","system_id":"levelo_inurba_marseille","lat":43.31872,"lon":5.40763,"is_reserved":false,"is_disabled":false,"rental_uris":{"android":"levelo://app?vid=72eecb27-b432-4793-adf6-633ad57fe1c1","ios":"levelo://app?vid=72eecb27-b432-4793-adf6-633ad57fe1c1"},"vehicle_type_id":"4","last_reported":1728587220,"current_range_meters":38000,"station_id":"ce4bhq12rcd13ifvqhig","pricing_plan_id":"cebpf4jnsgd1na2vs0mg"},{"bike_id":"d3515cc2-9931-4d17-a2b9-231072d9e4d2","system_id":"levelo_inurba_marseille","lat":43.23195,"lon":5.35554,"is_reserved":false,"is_disabled":false,"rental_uris":{"android":"levelo://app?vid=d3515cc2-9931-4d17-a2b9-231072d9e4d2","ios":"levelo://app?vid=d3515cc2-9931-4d17-a2b9-231072d9e4d2"},"vehicle_type_id":"4","last_reported":1728587220,"current_range_meters":27200,"station_id":"ce4bhu92rcd13ifvqi70","pricing_plan_id":"cebpf4jnsgd1na2vs0mg"},{"bike_id":"312b792e-9ab3-4c50-bc39-0daa5da2e7cb","system_id":"levelo_inurba_marseille","lat":43.28467,"lon":5.35888,"is_reserved":false,"is_disabled":false,"rental_uris":{"android":"levelo://app?vid=312b792e-9ab3-4c50-bc39-0daa5da2e7cb","ios":"levelo://app?vid=312b792e-9ab3-4c50-bc39-0daa5da2e7cb"},"vehicle_type_id":"4","last_reported":1728587220,"current_range_meters":38800,"station_id":"ce4bhah2rcd13ifvqei0","pricing_plan_id":"cebpf4jnsgd1na2vs0mg"},{"bike_id":"ac4cb82b-ab13-45ee-be9e-27314186ba8e","system_id":"levelo_inurba_marseille","lat":43.25825,"lon":5.39441,"is_reserved":false,"is_disabled":false,"rental_uris":{"android":"levelo://app?vid=ac4cb82b-ab13-45ee-be9e-27314186ba8e","ios":"levelo://app?vid=ac4cb82b-ab13-45ee-be9e-27314186ba8e"},"vehicle_type_id":"4","last_reported":1728587220,"current_range_meters":22000,"station_id":"ce4bhip2rcd13ifvqft0","pricing_plan_id":"cebpf4jnsgd1na2vs0mg"},{"bike_id":"3eb19325-22a4-425e-a8ef-87280c633e2f","system_id":"levelo_inurba_marseille","lat":43.33025,"lon":5.39035,"is_reserved":false,"is_disabled":false,"rental_uris":{"android":"levelo://app?vid=3eb19325-22a4-425e-a8ef-87280c633e2f","ios":"levelo://app?vid=3eb19325-22a4-425e-a8ef-87280c633e2f"},"vehicle_type_id":"4","last_reported":1728587220,"current_range_meters":14000,"station_id":"ce4bhr92rcd13ifvqhrg","pricing_plan_id":"cebpf4jnsgd1na2vs0mg"},{"bike_id":"d57f526b-562a-46f4-9325-79a0105e5b05","system_id":"levelo_inurba_marseille","lat":43.28077,"lon":5.39664,"is_reserved":false,"is_disabled":false,"rental_uris":{"android":"levelo://app?vid=d57f526b-562a-46f4-9325-79a0105e5b05","ios":"levelo://app?vid=d57f526b-562a-46f4-9325-79a0105e5b05"},"vehicle_type_id":"4","last_reported":1728587220,"current_range_meters":4800,"station_id":"ce4bho12rcd13ifvqh2g","pricing_plan_id":"cebpf4jnsgd1na2vs0mg"},{"bike_id":"e3178d47-687f-409c-852e-554ca6d41303","system_id":"levelo_inurba_marseille","lat":43.27374,"lon":5.3626,"is_reserved":false,"is_disabled":false,"rental_uris":{"android":"levelo://app?vid=e3178d47-687f-409c-852e-554ca6d41303","ios":"levelo://app?vid=e3178d47-687f-409c-852e-554ca6d41303"},"vehicle_type_id":"4","last_reported":1728587220,"current_range_meters":24000,"station_id":"ce4bhbh2rcd13ifvqeo0","pricing_plan_id":"cebpf4jnsgd1na2vs0mg"},{"bike_id":"5ef7c175-5a45-4f68-b169-13e50d7e89bf","system_id":"levelo_inurba_marseille","lat":43.29939,"lon":5.3656,"is_reserved":false,"is_disabled":false,"rental_uris":{"android":"levelo://app?vid=5ef7c175-5a45-4f68-b169-13e50d7e89bf","ios":"levelo://app?vid=5ef7c175-5a45-4f68-b169-13e50d7e89bf"},"vehicle_type_id":"4","last_reported":1728587220,"current_range_meters":38800,"station_id":"ce4bgm92rcd13ifvqbr0","pricing_plan_id":"cebpf4jnsgd1na2vs0mg"},{"bike_id":"2e8156e9-8f12-442e-95f9-a57ad0a2409a","system_id":"levelo_inurba_marseille","lat":43.25117,"lon":5.40323,"is_reserved":false,"is_disabled":false,"rental_uris":{"android":"levelo://app?vid=2e8156e9-8f12-442e-95f9-a57ad0a2409a","ios":"levelo://app?vid=2e8156e9-8f12-442e-95f9-a57ad0a2409a"},"vehicle_type_id":"4","last_reported":1728587220,"current_range_meters":7200,"station_id":"ce4bhlh2rcd13ifvqgig","pricing_plan_id":"cebpf4jnsgd1na2vs0mg"},{"bike_id":"9b9de94e-44da-402f-a275-eb982c0624a4","system_id":"levelo_inurba_marseille","lat":43.27972,"lon":5.38744,"is_reserved":false,"is_disabled":false,"rental_uris":{"android":"levelo://app?vid=9b9de94e-44da-402f-a275-eb982c0624a4","ios":"levelo://app?vid=9b9de94e-44da-402f-a275-eb982c0624a4"},"vehicle_type_id":"4","last_reported":1728587220,"current_range_meters":2800,"station_id":"ce4bhg12rcd13ifvqf80","pricing_plan_id":"cebpf4jnsgd1na2vs0mg"},{"bike_id":"caf03d74-3c7c-425f-9529-3141607b843c","system_id":"levelo_inurba_marseille","lat":43.30532,"lon":5.36543,"is_reserved":false,"is_disabled":false,"rental_uris":{"android":"levelo://app?vid=caf03d74-3c7c-425f-9529-3141607b843c","ios":"levelo://app?vid=caf03d74-3c7c-425f-9529-3141607b843c"},"vehicle_type_id":"4","last_reported":1728587220,"current_range_meters":38800,"station_id":"ce4bgs12rcd13ifvqcag","pricing_plan_id":"cebpf4jnsgd1na2vs0mg"},{"bike_id":"9697dbdf-cd4f-4047-a8bd-b48a32d44365","system_id":"levelo_inurba_marseille","lat":43.28872,"lon":5.35839,"is_reserved":false,"is_disabled":false,"rental_uris":{"android":"levelo://app?vid=9697dbdf-cd4f-4047-a8bd-b48a32d44365","ios":"levelo://app?vid=9697dbdf-cd4f-4047-a8bd-b48a32d44365"},"vehicle_type_id":"4","last_reported":1728587220,"current_range_meters":8000,"station_id":"ce4bhb12rcd13ifvqem0","pricing_plan_id":"cebpf4jnsgd1na2vs0mg"},{"bike_id":"1e27d64c-804b-44d0-82cc-67730ab1c318","system_id":"levelo_inurba_marseille","lat":43.28458,"lon":5.3589,"is_reserved":false,"is_disabled":false,"rental_uris":{"android":"levelo://app?vid=1e27d64c-804b-44d0-82cc-67730ab1c318","ios":"levelo://app?vid=1e27d64c-804b-44d0-82cc-67730ab1c318"},"vehicle_type_id":"4","last_reported":1728587220,"current_range_meters":38800,"station_id":"ce4bhah2rcd13ifvqei0","pricing_plan_id":"cebpf4jnsgd1na2vs0mg"},{"bike_id":"134221d1-b882-4e18-a906-df55efd551f5","system_id":"levelo_inurba_marseille","lat":43.25121,"lon":5.40324,"is_reserved":false,"is_disabled":false,"rental_uris":{"android":"levelo://app?vid=134221d1-b882-4e18-a906-df55efd551f5","ios":"levelo://app?vid=134221d1-b882-4e18-a906-df55efd551f5"},"vehicle_type_id":"4","last_reported":1728587220,"current_range_meters":11200,"station_id":"ce4bhlh2rcd13ifvqgig","pricing_plan_id":"cebpf4jnsgd1na2vs0mg"},{"bike_id":"900b105d-fa8a-46a6-9a94-e96f53e4c987","system_id":"levelo_inurba_marseille","lat":43.29226,"lon":5.36061,"is_reserved":false,"is_disabled":false,"rental_uris":{"android":"levelo://app?vid=900b105d-fa8a-46a6-9a94-e96f53e4c987","ios":"levelo://app?vid=900b105d-fa8a-46a6-9a94-e96f53e4c987"},"vehicle_type_id":"4","last_reported":1728587220,"current_range_meters":38800,"station_id":"ce4bhbh2rcd13ifvqeqg","pricing_plan_id":"cebpf4jnsgd1na2vs0mg"},{"bike_id":"c462ac31-e294-4267-bc1b-a4f664716350","system_id":"levelo_inurba_marseille","lat":43.231971,"lon":5.355528,"is_reserved":false,"is_disabled":false,"rental_uris":{"android":"levelo://app?vid=c462ac31-e294-4267-bc1b-a4f664716350","ios":"levelo://app?vid=c462ac31-e294-4267-bc1b-a4f664716350"},"vehicle_type_id":"4","last_reported":1728587220,"current_range_meters":29600,"station_id":"ce4bhu92rcd13ifvqi70","pricing_plan_id":"cebpf4jnsgd1na2vs0mg"},{"bike_id":"b1a95130-ad51-41f9-b55e-93fe0146d5b9","system_id":"levelo_inurba_marseille","lat":43.29023,"lon":5.38151,"is_reserved":false,"is_disabled":false,"rental_uris":{"android":"levelo://app?vid=b1a95130-ad51-41f9-b55e-93fe0146d5b9","ios":"levelo://app?vid=b1a95130-ad51-41f9-b55e-93fe0146d5b9"},"vehicle_type_id":"4","last_reported":1728587220,"current_range_meters":6000,"station_id":"ce4bh4p2rcd13ifvqe1g","pricing_plan_id":"cebpf4jnsgd1na2vs0mg"},{"bike_id":"e8c3a09f-a0ea-41f2-915e-21537dab655b","system_id":"levelo_inurba_marseille","lat":43.28722,"lon":5.37944,"is_reserved":false,"is_disabled":false,"rental_uris":{"android":"levelo://app?vid=e8c3a09f-a0ea-41f2-915e-21537dab655b","ios":"levelo://app?vid=e8c3a09f-a0ea-41f2-915e-21537dab655b"},"vehicle_type_id":"4","last_reported":1728587220,"current_range_meters":27600,"station_id":"ce4bh9p2rcd13ifvqec0","pricing_plan_id":"cebpf4jnsgd1na2vs0mg"},{"bike_id":"31d1eda3-bb82-4b79-a803-751010039ce2","system_id":"levelo_inurba_marseille","lat":43.28931,"lon":5.36649,"is_reserved":false,"is_disabled":false,"rental_uris":{"android":"levelo://app?vid=31d1eda3-bb82-4b79-a803-751010039ce2","ios":"levelo://app?vid=31d1eda3-bb82-4b79-a803-751010039ce2"},"vehicle_type_id":"4","last_reported":1728587220,"current_range_meters":19200,"station_id":"ce4bhap2rcd13ifvqek0","pricing_plan_id":"cebpf4jnsgd1na2vs0mg"},{"bike_id":"50609abc-8576-4139-ab3a-468d8ab73772","system_id":"levelo_inurba_marseille","lat":43.29848,"lon":5.36288,"is_reserved":false,"is_disabled":false,"rental_uris":{"android":"levelo://app?vid=50609abc-8576-4139-ab3a-468d8ab73772","ios":"levelo://app?vid=50609abc-8576-4139-ab3a-468d8ab73772"},"vehicle_type_id":"4","last_reported":1728587220,"current_range_meters":19600,"station_id":"ce4bgpp2rcd13ifvqc3g","pricing_plan_id":"cebpf4jnsgd1na2vs0mg"},{"bike_id":"0b7f0a4e-9893-4842-867d-cde95d21d292","system_id":"levelo_inurba_marseille","lat":43.30607,"lon":5.37247,"is_reserved":false,"is_disabled":false,"rental_uris":{"android":"levelo://app?vid=0b7f0a4e-9893-4842-867d-cde95d21d292","ios":"levelo://app?vid=0b7f0a4e-9893-4842-867d-cde95d21d292"},"vehicle_type_id":"4","last_reported":1728587220,"current_range_meters":24400,"station_id":"ce4bgqh2rcd13ifvqc4g","pricing_plan_id":"cebpf4jnsgd1na2vs0mg"},{"bike_id":"b1198f5c-b57b-47ce-bb3d-2d0b934219f9","system_id":"levelo_inurba_marseille","lat":43.28709,"lon":5.39989,"is_reserved":false,"is_disabled":false,"rental_uris":{"android":"levelo://app?vid=b1198f5c-b57b-47ce-bb3d-2d0b934219f9","ios":"levelo://app?vid=b1198f5c-b57b-47ce-bb3d-2d0b934219f9"},"vehicle_type_id":"4","last_reported":1728587220,"current_range_meters":7200,"station_id":"ce4bho92rcd13ifvqh3g","pricing_plan_id":"cebpf4jnsgd1na2vs0mg"},{"bike_id":"79705559-d0ef-4f22-a273-d9ab0aad9c4f","system_id":"levelo_inurba_marseille","lat":43.31759,"lon":5.39026,"is_reserved":false,"is_disabled":false,"rental_uris":{"android":"levelo://app?vid=79705559-d0ef-4f22-a273-d9ab0aad9c4f","ios":"levelo://app?vid=79705559-d0ef-4f22-a273-d9ab0aad9c4f"},"vehicle_type_id":"4","last_reported":1728587220,"current_range_meters":9600,"station_id":"ce4bhqp2rcd13ifvqhng","pricing_plan_id":"cebpf4jnsgd1na2vs0mg"},{"bike_id":"4b49dcb8-89d5-43ba-8efb-790d338e91d5","system_id":"levelo_inurba_marseille","lat":43.29191,"lon":5.35801,"is_reserved":false,"is_disabled":false,"rental_uris":{"android":"levelo://app?vid=4b49dcb8-89d5-43ba-8efb-790d338e91d5","ios":"levelo://app?vid=4b49dcb8-89d5-43ba-8efb-790d338e91d5"},"vehicle_type_id":"4","last_reported":1728587220,"current_range_meters":36400,"station_id":"ce4bhb12rcd13ifvqel0","pricing_plan_id":"cebpf4jnsgd1na2vs0mg"},{"bike_id":"3721803c-8cf5-4a3f-a962-146f90910b9c","system_id":"levelo_inurba_marseille","lat":43.28415,"lon":5.37512,"is_reserved":false,"is_disabled":false,"rental_uris":{"android":"levelo://app?vid=3721803c-8cf5-4a3f-a962-146f90910b9c","ios":"levelo://app?vid=3721803c-8cf5-4a3f-a962-146f90910b9c"},"vehicle_type_id":"4","last_reported":1728587220,"current_range_meters":38800,"station_id":"ce4bh412rcd13ifvqds0","pricing_plan_id":"cebpf4jnsgd1na2vs0mg"},{"bike_id":"17a1973d-02eb-4ae3-9bbb-699926aef891","system_id":"levelo_inurba_marseille","lat":43.3014,"lon":5.37416,"is_reserved":false,"is_disabled":false,"rental_uris":{"android":"levelo://app?vid=17a1973d-02eb-4ae3-9bbb-699926aef891","ios":"levelo://app?vid=17a1973d-02eb-4ae3-9bbb-699926aef891"},"vehicle_type_id":"4","last_reported":1728587220,"current_range_meters":11600,"station_id":"ce4bgs92rcd13ifvqcc0","pricing_plan_id":"cebpf4jnsgd1na2vs0mg"},{"bike_id":"1890eb13-655c-43b0-9169-a9999b65f1bd","system_id":"levelo_inurba_marseille","lat":43.280138,"lon":5.38662,"is_reserved":false,"is_disabled":false,"rental_uris":{"android":"levelo://app?vid=1890eb13-655c-43b0-9169-a9999b65f1bd","ios":"levelo://app?vid=1890eb13-655c-43b0-9169-a9999b65f1bd"},"vehicle_type_id":"4","last_reported":1728587220,"current_range_meters":24800,"station_id":"ce4bhg12rcd13ifvqf80","pricing_plan_id":"cebpf4jnsgd1na2vs0mg"},{"bike_id":"90566049-4d52-436b-958a-c32a9644687e","system_id":"levelo_inurba_marseille","lat":43.33029,"lon":5.39058,"is_reserved":false,"is_disabled":false,"rental_uris":{"android":"levelo://app?vid=90566049-4d52-436b-958a-c32a9644687e","ios":"levelo://app?vid=90566049-4d52-436b-958a-c32a9644687e"},"vehicle_type_id":"4","last_reported":1728587220,"current_range_meters":28800,"station_id":"ce4bhr92rcd13ifvqhrg","pricing_plan_id":"cebpf4jnsgd1na2vs0mg"},{"bike_id":"28edc4d8-1fbd-43ee-aefb-19d6cd189dba","system_id":"levelo_inurba_marseille","lat":43.27921,"lon":5.39586,"is_reserved":false,"is_disabled":false,"rental_uris":{"android":"levelo://app?vid=28edc4d8-1fbd-43ee-aefb-19d6cd189dba","ios":"levelo://app?vid=28edc4d8-1fbd-43ee-aefb-19d6cd189dba"},"vehicle_type_id":"4","last_reported":1728587220,"current_range_meters":30400,"station_id":"ce4bhf92rcd13ifvqf40","pricing_plan_id":"cebpf4jnsgd1na2vs0mg"},{"bike_id":"47cacfc8-4c61-44e8-81c7-7b05ca1a72d4","system_id":"levelo_inurba_marseille","lat":43.29842,"lon":5.36272,"is_reserved":false,"is_disabled":false,"rental_uris":{"android":"levelo://app?vid=47cacfc8-4c61-44e8-81c7-7b05ca1a72d4","ios":"levelo://app?vid=47cacfc8-4c61-44e8-81c7-7b05ca1a72d4"},"vehicle_type_id":"4","last_reported":1728587220,"current_range_meters":21600,"station_id":"ce4bgpp2rcd13ifvqc3g","pricing_plan_id":"cebpf4jnsgd1na2vs0mg"},{"bike_id":"07af045b-9089-41cc-977e-a861145e88af","system_id":"levelo_inurba_marseille","lat":43.31543,"lon":5.38026,"is_reserved":false,"is_disabled":false,"rental_uris":{"android":"levelo://app?vid=07af045b-9089-41cc-977e-a861145e88af","ios":"levelo://app?vid=07af045b-9089-41cc-977e-a861145e88af"},"vehicle_type_id":"4","last_reported":1728587220,"current_range_meters":28400,"station_id":"ce4bhsp2rcd13ifvqi50","pricing_plan_id":"cebpf4jnsgd1na2vs0mg"},{"bike_id":"d56f1de0-e5b7-4130-9f1d-81bf7b39c7d0","system_id":"levelo_inurba_marseille","lat":43.295511,"lon":5.393057,"is_reserved":false,"is_disabled":false,"rental_uris":{"android":"levelo://app?vid=d56f1de0-e5b7-4130-9f1d-81bf7b39c7d0","ios":"levelo://app?vid=d56f1de0-e5b7-4130-9f1d-81bf7b39c7d0"},"vehicle_type_id":"4","last_reported":1728587220,"current_range_meters":22400,"station_id":"","pricing_plan_id":"cebpf4jnsgd1na2vs0mg"},{"bike_id":"9cf3db70-1431-4372-b452-2d0770d0c15d","system_id":"levelo_inurba_marseille","lat":43.23194,"lon":5.35553,"is_reserved":false,"is_disabled":false,"rental_uris":{"android":"levelo://app?vid=9cf3db70-1431-4372-b452-2d0770d0c15d","ios":"levelo://app?vid=9cf3db70-1431-4372-b452-2d0770d0c15d"},"vehicle_type_id":"4","last_reported":1728587220,"current_range_meters":37600,"station_id":"ce4bhu92rcd13ifvqi70","pricing_plan_id":"cebpf4jnsgd1na2vs0mg"},{"bike_id":"8ade804d-04bd-434e-ae52-3058d2f273e5","system_id":"levelo_inurba_marseille","lat":43.29933,"lon":5.36555,"is_reserved":false,"is_disabled":false,"rental_uris":{"android":"levelo://app?vid=8ade804d-04bd-434e-ae52-3058d2f273e5","ios":"levelo://app?vid=8ade804d-04bd-434e-ae52-3058d2f273e5"},"vehicle_type_id":"4","last_reported":1728587220,"current_range_meters":38800,"station_id":"ce4bgm92rcd13ifvqbr0","pricing_plan_id":"cebpf4jnsgd1na2vs0mg"},{"bike_id":"cdf123f8-4ca4-481a-8d7d-70350d7f56f5","system_id":"levelo_inurba_marseille","lat":43.31727,"lon":5.424,"is_reserved":false,"is_disabled":false,"rental_uris":{"android":"levelo://app?vid=cdf123f8-4ca4-481a-8d7d-70350d7f56f5","ios":"levelo://app?vid=cdf123f8-4ca4-481a-8d7d-70350d7f56f5"},"vehicle_type_id":"4","last_reported":1728587220,"current_range_meters":38800,"station_id":"ce4bhp92rcd13ifvqhbg","pricing_plan_id":"cebpf4jnsgd1na2vs0mg"},{"bike_id":"46b48d1d-371d-446e-9ee7-8b385254dead","system_id":"levelo_inurba_marseille","lat":43.29277,"lon":5.40121,"is_reserved":false,"is_disabled":false,"rental_uris":{"android":"levelo://app?vid=46b48d1d-371d-446e-9ee7-8b385254dead","ios":"levelo://app?vid=46b48d1d-371d-446e-9ee7-8b385254dead"},"vehicle_type_id":"4","last_reported":1728587220,"current_range_meters":9600,"station_id":"ce4bh312rcd13ifvqdk0","pricing_plan_id":"cebpf4jnsgd1na2vs0mg"},{"bike_id":"fe53b483-e6b0-4db0-a320-25d194226fd4","system_id":"levelo_inurba_marseille","lat":43.26215,"lon":5.37468,"is_reserved":false,"is_disabled":false,"rental_uris":{"android":"levelo://app?vid=fe53b483-e6b0-4db0-a320-25d194226fd4","ios":"levelo://app?vid=fe53b483-e6b0-4db0-a320-25d194226fd4"},"vehicle_type_id":"4","last_reported":1728587220,"current_range_meters":38800,"station_id":"ce4bhgp2rcd13ifvqfc0","pricing_plan_id":"cebpf4jnsgd1na2vs0mg"},{"bike_id":"e40983a8-e4df-4fb5-af1f-8e5b80028b71","system_id":"levelo_inurba_marseille","lat":43.30533,"lon":5.36727,"is_reserved":false,"is_disabled":false,"rental_uris":{"android":"levelo://app?vid=e40983a8-e4df-4fb5-af1f-8e5b80028b71","ios":"levelo://app?vid=e40983a8-e4df-4fb5-af1f-8e5b80028b71"},"vehicle_type_id":"4","last_reported":1728587220,"current_range_meters":20400,"station_id":"ce4bgrp2rcd13ifvqc9g","pricing_plan_id":"cebpf4jnsgd1na2vs0mg"},{"bike_id":"b60034ae-5b7b-4cb2-b6aa-72366a960fa1","system_id":"levelo_inurba_marseille","lat":43.28933,"lon":5.36642,"is_reserved":false,"is_disabled":false,"rental_uris":{"android":"levelo://app?vid=b60034ae-5b7b-4cb2-b6aa-72366a960fa1","ios":"levelo://app?vid=b60034ae-5b7b-4cb2-b6aa-72366a960fa1"},"vehicle_type_id":"4","last_reported":1728587220,"current_range_meters":14400,"station_id":"ce4bhap2rcd13ifvqek0","pricing_plan_id":"cebpf4jnsgd1na2vs0mg"},{"bike_id":"8109c887-4948-454f-a67d-4051d43fbc8a","system_id":"levelo_inurba_marseille","lat":43.29306,"lon":5.37459,"is_reserved":false,"is_disabled":false,"rental_uris":{"android":"levelo://app?vid=8109c887-4948-454f-a67d-4051d43fbc8a","ios":"levelo://app?vid=8109c887-4948-454f-a67d-4051d43fbc8a"},"vehicle_type_id":"4","last_reported":1728587220,"current_range_meters":38000,"station_id":"ce4bgi12rcd13ifvqb70","pricing_plan_id":"cebpf4jnsgd1na2vs0mg"},{"bike_id":"3c25dded-f8d5-4193-a336-9fad641c4aac","system_id":"levelo_inurba_marseille","lat":43.33766,"lon":5.37447,"is_reserved":false,"is_disabled":false,"rental_uris":{"android":"levelo://app?vid=3c25dded-f8d5-4193-a336-9fad641c4aac","ios":"levelo://app?vid=3c25dded-f8d5-4193-a336-9fad641c4aac"},"vehicle_type_id":"4","last_reported":1728587220,"current_range_meters":15200,"station_id":"","pricing_plan_id":"cebpf4jnsgd1na2vs0mg"},{"bike_id":"e42808f3-ea17-4f21-9d61-a63d9d572258","system_id":"levelo_inurba_marseille","lat":43.29007,"lon":5.356074,"is_reserved":false,"is_disabled":false,"rental_uris":{"android":"levelo://app?vid=e42808f3-ea17-4f21-9d61-a63d9d572258","ios":"levelo://app?vid=e42808f3-ea17-4f21-9d61-a63d9d572258"},"vehicle_type_id":"4","last_reported":1728587220,"current_range_meters":8400,"station_id":"ce4bhb92rcd13ifvqen0","pricing_plan_id":"cebpf4jnsgd1na2vs0mg"},{"bike_id":"6a2cdbb4-7b88-46c2-a4f2-99e4a99438d6","system_id":"levelo_inurba_marseille","lat":43.283539,"lon":5.397244,"is_reserved":false,"is_disabled":false,"rental_uris":{"android":"levelo://app?vid=6a2cdbb4-7b88-46c2-a4f2-99e4a99438d6","ios":"levelo://app?vid=6a2cdbb4-7b88-46c2-a4f2-99e4a99438d6"},"vehicle_type_id":"4","last_reported":1728587220,"current_range_meters":8400,"station_id":"ce4bh692rcd13ifvqea0","pricing_plan_id":"cebpf4jnsgd1na2vs0mg"},{"bike_id":"ef1378cd-75ef-4efe-bff4-68d694e26616","system_id":"levelo_inurba_marseille","lat":43.29435,"lon":5.3975,"is_reserved":false,"is_disabled":false,"rental_uris":{"android":"levelo://app?vid=ef1378cd-75ef-4efe-bff4-68d694e26616","ios":"levelo://app?vid=ef1378cd-75ef-4efe-bff4-68d694e26616"},"vehicle_type_id":"4","last_reported":1728587220,"current_range_meters":20000,"station_id":"ce4bh3h2rcd13ifvqdo0","pricing_plan_id":"cebpf4jnsgd1na2vs0mg"},{"bike_id":"3af4e8c0-9d50-4259-9383-c5a3004e9350","system_id":"levelo_inurba_marseille","lat":43.29844,"lon":5.36281,"is_reserved":false,"is_disabled":false,"rental_uris":{"android":"levelo://app?vid=3af4e8c0-9d50-4259-9383-c5a3004e9350","ios":"levelo://app?vid=3af4e8c0-9d50-4259-9383-c5a3004e9350"},"vehicle_type_id":"4","last_reported":1728587220,"current_range_meters":16800,"station_id":"ce4bgpp2rcd13ifvqc3g","pricing_plan_id":"cebpf4jnsgd1na2vs0mg"},{"bike_id":"7975faaf-f260-41c7-87cd-147b9a3b3ebf","system_id":"levelo_inurba_marseille","lat":43.23057,"lon":5.3549,"is_reserved":false,"is_disabled":false,"rental_uris":{"android":"levelo://app?vid=7975faaf-f260-41c7-87cd-147b9a3b3ebf","ios":"levelo://app?vid=7975faaf-f260-41c7-87cd-147b9a3b3ebf"},"vehicle_type_id":"4","last_reported":1728587220,"current_range_meters":18800,"station_id":"cpo3342slgdg3j2ifvpg","pricing_plan_id":"cebpf4jnsgd1na2vs0mg"},{"bike_id":"b8c0f829-6e8f-4d69-b6ad-924afdd7a32f","system_id":"levelo_inurba_marseille","lat":43.29854,"lon":5.36299,"is_reserved":false,"is_disabled":false,"rental_uris":{"android":"levelo://app?vid=b8c0f829-6e8f-4d69-b6ad-924afdd7a32f","ios":"levelo://app?vid=b8c0f829-6e8f-4d69-b6ad-924afdd7a32f"},"vehicle_type_id":"4","last_reported":1728587220,"current_range_meters":10000,"station_id":"ce4bgpp2rcd13ifvqc3g","pricing_plan_id":"cebpf4jnsgd1na2vs0mg"},{"bike_id":"a3ebfb13-1f95-4f7c-adb4-8a08b86f19ff","system_id":"levelo_inurba_marseille","lat":43.24169,"lon":5.36403,"is_reserved":false,"is_disabled":false,"rental_uris":{"android":"levelo://app?vid=a3ebfb13-1f95-4f7c-adb4-8a08b86f19ff","ios":"levelo://app?vid=a3ebfb13-1f95-4f7c-adb4-8a08b86f19ff"},"vehicle_type_id":"4","last_reported":1728587220,"current_range_meters":38800,"station_id":"cpo36qri1sfpv3e86is0","pricing_plan_id":"cebpf4jnsgd1na2vs0mg"},{"bike_id":"703d5faf-e8f5-42e8-a15c-36acb1ae64d2","system_id":"levelo_inurba_marseille","lat":43.22932,"lon":5.35382,"is_reserved":false,"is_disabled":false,"rental_uris":{"android":"levelo://app?vid=703d5faf-e8f5-42e8-a15c-36acb1ae64d2","ios":"levelo://app?vid=703d5faf-e8f5-42e8-a15c-36acb1ae64d2"},"vehicle_type_id":"4","last_reported":1728587220,"current_range_meters":8000,"station_id":"cpo3532slgdg3j2ikp40","pricing_plan_id":"cebpf4jnsgd1na2vs0mg"},{"bike_id":"930f0083-674f-4786-97b3-73836b5894b0","system_id":"levelo_inurba_marseille","lat":43.31333,"lon":5.39699,"is_reserved":false,"is_disabled":false,"rental_uris":{"android":"levelo://app?vid=930f0083-674f-4786-97b3-73836b5894b0","ios":"levelo://app?vid=930f0083-674f-4786-97b3-73836b5894b0"},"vehicle_type_id":"4","last_reported":1728587220,"current_range_meters":32000,"station_id":"ce4bgvp2rcd13ifvqcu0","pricing_plan_id":"cebpf4jnsgd1na2vs0mg"},{"bike_id":"4b65e5e5-d568-4114-bfd6-70b281240118","system_id":"levelo_inurba_marseille","lat":43.31725,"lon":5.42405,"is_reserved":false,"is_disabled":false,"rental_uris":{"android":"levelo://app?vid=4b65e5e5-d568-4114-bfd6-70b281240118","ios":"levelo://app?vid=4b65e5e5-d568-4114-bfd6-70b281240118"},"vehicle_type_id":"4","last_reported":1728587220,"current_range_meters":36400,"station_id":"ce4bhp92rcd13ifvqhbg","pricing_plan_id":"cebpf4jnsgd1na2vs0mg"},{"bike_id":"488ef068-b3ac-44de-a068-a36344566a29","system_id":"levelo_inurba_marseille","lat":43.32342,"lon":5.40626,"is_reserved":false,"is_disabled":false,"rental_uris":{"android":"levelo://app?vid=488ef068-b3ac-44de-a068-a36344566a29","ios":"levelo://app?vid=488ef068-b3ac-44de-a068-a36344566a29"},"vehicle_type_id":"4","last_reported":1728587220,"current_range_meters":2800,"station_id":"ce4bhq92rcd13ifvqhjg","pricing_plan_id":"cebpf4jnsgd1na2vs0mg"},{"bike_id":"9be8732e-f7a2-42fe-9dfb-94e236b934c3","system_id":"levelo_inurba_marseille","lat":43.28036,"lon":5.36953,"is_reserved":false,"is_disabled":false,"rental_uris":{"android":"levelo://app?vid=9be8732e-f7a2-42fe-9dfb-94e236b934c3","ios":"levelo://app?vid=9be8732e-f7a2-42fe-9dfb-94e236b934c3"},"vehicle_type_id":"4","last_reported":1728587220,"current_range_meters":35600,"station_id":"ce4bha12rcd13ifvqef0","pricing_plan_id":"cebpf4jnsgd1na2vs0mg"},{"bike_id":"de2256ad-412b-473d-a03f-ba956c03946b","system_id":"levelo_inurba_marseille","lat":43.29272,"lon":5.40907,"is_reserved":false,"is_disabled":false,"rental_uris":{"android":"levelo://app?vid=de2256ad-412b-473d-a03f-ba956c03946b","ios":"levelo://app?vid=de2256ad-412b-473d-a03f-ba956c03946b"},"vehicle_type_id":"4","last_reported":1728587220,"current_range_meters":22800,"station_id":"ce4bh192rcd13ifvqdc0","pricing_plan_id":"cebpf4jnsgd1na2vs0mg"},{"bike_id":"e7b49636-cefa-450a-ba52-4d5362cb1c52","system_id":"levelo_inurba_marseille","lat":43.23193,"lon":5.3555,"is_reserved":false,"is_disabled":false,"rental_uris":{"android":"levelo://app?vid=e7b49636-cefa-450a-ba52-4d5362cb1c52","ios":"levelo://app?vid=e7b49636-cefa-450a-ba52-4d5362cb1c52"},"vehicle_type_id":"4","last_reported":1728587220,"current_range_meters":27600,"station_id":"ce4bhu92rcd13ifvqi70","pricing_plan_id":"cebpf4jnsgd1na2vs0mg"},{"bike_id":"a82c6e41-0fa1-446d-b911-0cdace477784","system_id":"levelo_inurba_marseille","lat":43.25869,"lon":5.39897,"is_reserved":false,"is_disabled":false,"rental_uris":{"android":"levelo://app?vid=a82c6e41-0fa1-446d-b911-0cdace477784","ios":"levelo://app?vid=a82c6e41-0fa1-446d-b911-0cdace477784"},"vehicle_type_id":"4","last_reported":1728587220,"current_range_meters":12800,"station_id":"ce4bhl92rcd13ifvqghg","pricing_plan_id":"cebpf4jnsgd1na2vs0mg"},{"bike_id":"950117ef-8a03-48d3-b6a0-61fbe3a3ce25","system_id":"levelo_inurba_marseille","lat":43.25093,"lon":5.39526,"is_reserved":false,"is_disabled":false,"rental_uris":{"android":"levelo://app?vid=950117ef-8a03-48d3-b6a0-61fbe3a3ce25","ios":"levelo://app?vid=950117ef-8a03-48d3-b6a0-61fbe3a3ce25"},"vehicle_type_id":"4","last_reported":1728587220,"current_range_meters":20400,"station_id":"ce4bhm12rcd13ifvqgkg","pricing_plan_id":"cebpf4jnsgd1na2vs0mg"},{"bike_id":"006492ba-10bf-4c3d-bbcb-99ae3caf6235","system_id":"levelo_inurba_marseille","lat":43.2921,"lon":5.39322,"is_reserved":false,"is_disabled":false,"rental_uris":{"android":"levelo://app?vid=006492ba-10bf-4c3d-bbcb-99ae3caf6235","ios":"levelo://app?vid=006492ba-10bf-4c3d-bbcb-99ae3caf6235"},"vehicle_type_id":"4","last_reported":1728587220,"current_range_meters":10000,"station_id":"ce4bh192rcd13ifvqdd0","pricing_plan_id":"cebpf4jnsgd1na2vs0mg"},{"bike_id":"e3f008ab-58d0-4a79-a4f7-d68dc22590db","system_id":"levelo_inurba_marseille","lat":43.31763,"lon":5.39015,"is_reserved":false,"is_disabled":false,"rental_uris":{"android":"levelo://app?vid=e3f008ab-58d0-4a79-a4f7-d68dc22590db","ios":"levelo://app?vid=e3f008ab-58d0-4a79-a4f7-d68dc22590db"},"vehicle_type_id":"4","last_reported":1728587220,"current_range_meters":6000,"station_id":"ce4bhqp2rcd13ifvqhng","pricing_plan_id":"cebpf4jnsgd1na2vs0mg"},{"bike_id":"351f679a-a940-4e48-aaf6-88373129e2b5","system_id":"levelo_inurba_marseille","lat":43.31337,"lon":5.39697,"is_reserved":false,"is_disabled":false,"rental_uris":{"android":"levelo://app?vid=351f679a-a940-4e48-aaf6-88373129e2b5","ios":"levelo://app?vid=351f679a-a940-4e48-aaf6-88373129e2b5"},"vehicle_type_id":"4","last_reported":1728587220,"current_range_meters":22000,"station_id":"ce4bgvp2rcd13ifvqcu0","pricing_plan_id":"cebpf4jnsgd1na2vs0mg"},{"bike_id":"893807b5-0fe3-4add-9b45-b915f8455ca7","system_id":"levelo_inurba_marseille","lat":43.31429,"lon":5.37476,"is_reserved":false,"is_disabled":false,"rental_uris":{"android":"levelo://app?vid=893807b5-0fe3-4add-9b45-b915f8455ca7","ios":"levelo://app?vid=893807b5-0fe3-4add-9b45-b915f8455ca7"},"vehicle_type_id":"4","last_reported":1728587220,"current_range_meters":38400,"station_id":"","pricing_plan_id":"cebpf4jnsgd1na2vs0mg"},{"bike_id":"954ab46e-6a1f-46b0-8fc0-e70b77ddfd4a","system_id":"levelo_inurba_marseille","lat":43.28693,"lon":5.37387,"is_reserved":false,"is_disabled":false,"rental_uris":{"android":"levelo://app?vid=954ab46e-6a1f-46b0-8fc0-e70b77ddfd4a","ios":"levelo://app?vid=954ab46e-6a1f-46b0-8fc0-e70b77ddfd4a"},"vehicle_type_id":"4","last_reported":1728587220,"current_range_meters":38800,"station_id":"ce4bh3p2rcd13ifvqdq0","pricing_plan_id":"cebpf4jnsgd1na2vs0mg"},{"bike_id":"245fbd72-a8ea-4a50-b396-f3860863893b","system_id":"levelo_inurba_marseille","lat":43.23194,"lon":5.35555,"is_reserved":false,"is_disabled":false,"rental_uris":{"android":"levelo://app?vid=245fbd72-a8ea-4a50-b396-f3860863893b","ios":"levelo://app?vid=245fbd72-a8ea-4a50-b396-f3860863893b"},"vehicle_type_id":"4","last_reported":1728587220,"current_range_meters":36400,"station_id":"ce4bhu92rcd13ifvqi70","pricing_plan_id":"cebpf4jnsgd1na2vs0mg"},{"bike_id":"c7b383f6-070f-4019-a8a2-d964e60a1c9d","system_id":"levelo_inurba_marseille","lat":43.29846,"lon":5.36278,"is_reserved":false,"is_disabled":false,"rental_uris":{"android":"levelo://app?vid=c7b383f6-070f-4019-a8a2-d964e60a1c9d","ios":"levelo://app?vid=c7b383f6-070f-4019-a8a2-d964e60a1c9d"},"vehicle_type_id":"4","last_reported":1728587220,"current_range_meters":27200,"station_id":"ce4bgpp2rcd13ifvqc3g","pricing_plan_id":"cebpf4jnsgd1na2vs0mg"},{"bike_id":"43e99bd4-1ff8-4327-b36d-28d3c9ca8a0f","system_id":"levelo_inurba_marseille","lat":43.25826,"lon":5.39434,"is_reserved":false,"is_disabled":false,"rental_uris":{"android":"levelo://app?vid=43e99bd4-1ff8-4327-b36d-28d3c9ca8a0f","ios":"levelo://app?vid=43e99bd4-1ff8-4327-b36d-28d3c9ca8a0f"},"vehicle_type_id":"4","last_reported":1728587220,"current_range_meters":26800,"station_id":"ce4bhip2rcd13ifvqft0","pricing_plan_id":"cebpf4jnsgd1na2vs0mg"},{"bike_id":"736bb662-e829-4123-9083-cd9d2784fbba","system_id":"levelo_inurba_marseille","lat":43.2927,"lon":5.36848,"is_reserved":false,"is_disabled":false,"rental_uris":{"android":"levelo://app?vid=736bb662-e829-4123-9083-cd9d2784fbba","ios":"levelo://app?vid=736bb662-e829-4123-9083-cd9d2784fbba"},"vehicle_type_id":"4","last_reported":1728587220,"current_range_meters":38800,"station_id":"ce4bhbp2rcd13ifvqesg","pricing_plan_id":"cebpf4jnsgd1na2vs0mg"},{"bike_id":"98faeda8-701a-47fe-a17c-f23e98005b26","system_id":"levelo_inurba_marseille","lat":43.26034,"lon":5.37554,"is_reserved":false,"is_disabled":false,"rental_uris":{"android":"levelo://app?vid=98faeda8-701a-47fe-a17c-f23e98005b26","ios":"levelo://app?vid=98faeda8-701a-47fe-a17c-f23e98005b26"},"vehicle_type_id":"4","last_reported":1728587220,"current_range_meters":38000,"station_id":"ce4bhgh2rcd13ifvqfa0","pricing_plan_id":"cebpf4jnsgd1na2vs0mg"},{"bike_id":"6461cf45-08a8-4e34-a193-568beb7de18d","system_id":"levelo_inurba_marseille","lat":43.26062,"lon":5.39395,"is_reserved":false,"is_disabled":false,"rental_uris":{"android":"levelo://app?vid=6461cf45-08a8-4e34-a193-568beb7de18d","ios":"levelo://app?vid=6461cf45-08a8-4e34-a193-568beb7de18d"},"vehicle_type_id":"4","last_reported":1728587220,"current_range_meters":26800,"station_id":"ce4bhh92rcd13ifvqfj0","pricing_plan_id":"cebpf4jnsgd1na2vs0mg"},{"bike_id":"d0af47d5-71a2-4e6e-a4f7-a2d225b8e53a","system_id":"levelo_inurba_marseille","lat":43.23055,"lon":5.35493,"is_reserved":false,"is_disabled":false,"rental_uris":{"android":"levelo://app?vid=d0af47d5-71a2-4e6e-a4f7-a2d225b8e53a","ios":"levelo://app?vid=d0af47d5-71a2-4e6e-a4f7-a2d225b8e53a"},"vehicle_type_id":"4","last_reported":1728587220,"current_range_meters":20000,"station_id":"cpo3342slgdg3j2ifvpg","pricing_plan_id":"cebpf4jnsgd1na2vs0mg"},{"bike_id":"e3589fd5-da25-45cb-b980-0c6398254322","system_id":"levelo_inurba_marseille","lat":43.29849,"lon":5.36289,"is_reserved":false,"is_disabled":false,"rental_uris":{"android":"levelo://app?vid=e3589fd5-da25-45cb-b980-0c6398254322","ios":"levelo://app?vid=e3589fd5-da25-45cb-b980-0c6398254322"},"vehicle_type_id":"4","last_reported":1728587220,"current_range_meters":17200,"station_id":"ce4bgpp2rcd13ifvqc3g","pricing_plan_id":"cebpf4jnsgd1na2vs0mg"},{"bike_id":"6da62168-882d-4555-9c15-44d7b0a40498","system_id":"levelo_inurba_marseille","lat":43.26177,"lon":5.37939,"is_reserved":false,"is_disabled":false,"rental_uris":{"android":"levelo://app?vid=6da62168-882d-4555-9c15-44d7b0a40498","ios":"levelo://app?vid=6da62168-882d-4555-9c15-44d7b0a40498"},"vehicle_type_id":"4","last_reported":1728587220,"current_range_meters":32000,"station_id":"ce4bhjp2rcd13ifvqg90","pricing_plan_id":"cebpf4jnsgd1na2vs0mg"},{"bike_id":"a75f6b92-0e51-4f1c-ae0a-104738e5df62","system_id":"levelo_inurba_marseille","lat":43.291936,"lon":5.38036,"is_reserved":false,"is_disabled":false,"rental_uris":{"android":"levelo://app?vid=a75f6b92-0e51-4f1c-ae0a-104738e5df62","ios":"levelo://app?vid=a75f6b92-0e51-4f1c-ae0a-104738e5df62"},"vehicle_type_id":"4","last_reported":1728587220,"current_range_meters":20400,"station_id":"ce4bh4p2rcd13ifvqe1g","pricing_plan_id":"cebpf4jnsgd1na2vs0mg"},{"bike_id":"1025d20c-8df0-4e1b-b227-7ed788c9969d","system_id":"levelo_inurba_marseille","lat":43.25093,"lon":5.39522,"is_reserved":false,"is_disabled":false,"rental_uris":{"android":"levelo://app?vid=1025d20c-8df0-4e1b-b227-7ed788c9969d","ios":"levelo://app?vid=1025d20c-8df0-4e1b-b227-7ed788c9969d"},"vehicle_type_id":"4","last_reported":1728587220,"current_range_meters":25200,"station_id":"ce4bhm12rcd13ifvqgkg","pricing_plan_id":"cebpf4jnsgd1na2vs0mg"},{"bike_id":"ce07f70a-c572-4684-9855-d92451e274a7","system_id":"levelo_inurba_marseille","lat":43.29862,"lon":5.36292,"is_reserved":false,"is_disabled":false,"rental_uris":{"android":"levelo://app?vid=ce07f70a-c572-4684-9855-d92451e274a7","ios":"levelo://app?vid=ce07f70a-c572-4684-9855-d92451e274a7"},"vehicle_type_id":"4","last_reported":1728587220,"current_range_meters":38800,"station_id":"ce4bgpp2rcd13ifvqc3g","pricing_plan_id":"cebpf4jnsgd1na2vs0mg"},