{"last_updated":1729235370,"ttl":60,"version":"2.2","data":{"bikes":[{"bike_id":"827c24bf-14df-499c-8c0e-70e69a8ae529","system_id":"levelo_inurba_marseille","lat":43.29552,"lon":5.42296,"is_reserved":false,"is_disabled":false,"rental_uris":{"android":"levelo://app?vid=827c24bf-14df-499c-8c0e-70e69a8ae529","ios":"levelo://app?vid=827c24bf-14df-499c-8c0e-70e69a8ae529"},"vehicle_type_id":"4","last_reported":1729235370,"current_range_meters":38000,"station_id":"ce4bhph2rcd13ifvqhdg","pricing_plan_id":"cebpf4jnsgd1na2vs0mg"},{"bike_id":"dc817adb-8e01-4d9e-b0c8-b8b84b3116c9","system_id":"levelo_inurba_marseille","lat":43.25494,"lon":5.37649,"is_reserved":false,"is_disabled":false,"rental_uris":{"android":"levelo://app?vid=dc817adb-8e01-4d9e-b0c8-b8b84b3116c9","ios":"levelo://app?vid=dc817adb-8e01-4d9e-b0c8-b8b84b3116c9"},"vehicle_type_id":"4","last_reported":1729235370,"current_range_meters":36000,"station_id":"ce4bhh12rcd13ifvqff0","pricing_plan_id":"cebpf4jnsgd1na2vs0mg"},{"bike_id":"676ec6c4-6b42-43e0-81fe-327782965da5","system_id":"levelo_inurba_marseille","lat":43.33765,"lon":5.37484,"is_reserved":false,"is_disabled":false,"rental_uris":{"android":"levelo://app?vid=676ec6c4-6b42-43e0-81fe-327782965da5","ios":"levelo://app?vid=676ec6c4-6b42-43e0-81fe-327782965da5"},"vehicle_type_id":"4","last_reported":1729235370,"current_range_meters":19200,"station_id":"","pricing_plan_id":"cebpf4jnsgd1na2vs0mg"},{"bike_id":"c3bc217e-6b59-4db1-a7e9-dc7cde300865","system_id":"levelo_inurba_marseille","lat":43.30477,"lon":5.37894,"is_reserved":false,"is_disabled":false,"rental_uris":{"android":"levelo://app?vid=c3bc217e-6b59-4db1-a7e9-dc7cde300865","ios":"levelo://app?vid=c3bc217e-6b59-4db1-a7e9-dc7cde300865"},"vehicle_type_id":"4","last_reported":1729235370,"current_range_meters":36800,"station_id":"ce4bgup2rcd13ifvqcn0","pricing_plan_id":"cebpf4jnsgd1na2vs0mg"},{"bike_id":"dd36d869-9b55-4a5a-bb04-3c24db77b13f","system_id":"levelo_inurba_marseille","lat":43.25582,"lon":5.38243,"is_reserved":false,"is_disabled":false,"rental_uris":{"android":"levelo://app?vid=dd36d869-9b55-4a5a-bb04-3c24db77b13f","ios":"levelo://app?vid=dd36d869-9b55-4a5a-bb04-3c24db77b13f"},"vehicle_type_id":"4","last_reported":1729235370,"current_range_meters":36800,"station_id":"ce4bhih2rcd13ifvqfs0","pricing_plan_id":"cebpf4jnsgd1na2vs0mg"},{"bike_id":"a763a547-a6c4-4b30-a2c8-3c79edc4371a","system_id":"levelo_inurba_marseille","lat":43.31336,"lon":5.36724,"is_reserved":false,"is_disabled":false,"rental_uris":{"android":"levelo://app?vid=a763a547-a6c4-4b30-a2c8-3c79edc4371a","ios":"levelo://app?vid=a763a547-a6c4-4b30-a2c8-3c79edc4371a"},"vehicle_type_id":"4","last_reported":1729235370,"current_range_meters":22400,"station_id":"ce4bgr92rcd13ifvqc6g","pricing_plan_id":"cebpf4jnsgd1na2vs0mg"},{"bike_id":"e52a4ccd-6055-4b27-a3f6-84dbc34b1101","system_id":"levelo_inurba_marseille","lat":43.32479,"lon":5.36561,"is_reserved":false,"is_disabled":false,"rental_uris":{"android":"levelo://app?vid=e52a4ccd-6055-4b27-a3f6-84dbc34b1101","ios":"levelo://app?vid=e52a4ccd-6055-4b27-a3f6-84dbc34b1101"},"vehicle_type_id":"4","last_reported":1729235370,"current_range_meters":31200,"station_id":"ce4bhs12rcd13ifvqhvg","pricing_plan_id":"cebpf4jnsgd1na2vs0mg"},{"bike_id":"6a9ed101-6552-4f4b-8234-8907a8f23173","system_id":"levelo_inurba_marseille","lat":43.25932,"lon":5.40912,"is_reserved":false,"is_disabled":false,"rental_uris":{"android":"levelo://app?vid=6a9ed101-6552-4f4b-8234-8907a8f23173","ios":"levelo://app?vid=6a9ed101-6552-4f4b-8234-8907a8f23173"},"vehicle_type_id":"4","last_reported":1729235370,"current_range_meters":19200,"station_id":"ce4bhm92rcd13ifvqglg","pricing_plan_id":"cebpf4jnsgd1na2vs0mg"},{"bike_id":"cf30a138-86f7-4159-8eea-132a3e8b34e9","system_id":"levelo_inurba_marseille","lat":43.25934,"lon":5.40919,"is_reserved":false,"is_disabled":false,"rental_uris":{"android":"levelo://app?vid=cf30a138-86f7-4159-8eea-132a3e8b34e9","ios":"levelo://app?vid=cf30a138-86f7-4159-8eea-132a3e8b34e9"},"vehicle_type_id":"4","last_reported":1729235370,"current_range_meters":18000,"station_id":"ce4bhm92rcd13ifvqglg","pricing_plan_id":"cebpf4jnsgd1na2vs0mg"},{"bike_id":"c080f516-4079-491c-96b9-3e04ab00e030","system_id":"levelo_inurba_marseille","lat":43.30469,"lon":5.37904,"is_reserved":false,"is_disabled":false,"rental_uris":{"android":"levelo://app?vid=c080f516-4079-491c-96b9-3e04ab00e030","ios":"levelo://app?vid=c080f516-4079-491c-96b9-3e04ab00e030"},"vehicle_type_id":"4","last_reported":1729235370,"current_range_meters":32000,"station_id":"ce4bgup2rcd13ifvqcn0","pricing_plan_id":"cebpf4jnsgd1na2vs0mg"},{"bike_id":"301aff42-988e-4b11-aac8-8806f8b1e884","system_id":"levelo_inurba_marseille","lat":43.33027,"lon":5.39049,"is_reserved":false,"is_disabled":false,"rental_uris":{"android":"levelo://app?vid=301aff42-988e-4b11-aac8-8806f8b1e884","ios":"levelo://app?vid=301aff42-988e-4b11-aac8-8806f8b1e884"},"vehicle_type_id":"4","last_reported":1729235370,"current_range_meters":38800,"station_id":"ce4bhr92rcd13ifvqhrg","pricing_plan_id":"cebpf4jnsgd1na2vs0mg"},{"bike_id":"9e59a3fb-7ab2-4027-b776-69fc259c524a","system_id":"levelo_inurba_marseille","lat":43.3091,"lon":5.36852,"is_reserved":false,"is_disabled":false,"rental_uris":{"android":"levelo://app?vid=9e59a3fb-7ab2-4027-b776-69fc259c524a","ios":"levelo://app?vid=9e59a3fb-7ab2-4027-b776-69fc259c524a"},"vehicle_type_id":"4","last_reported":1729235370,"current_range_meters":32400,"station_id":"ce4bgn92rcd13ifvqbvg","pricing_plan_id":"cebpf4jnsgd1na2vs0mg"},{"bike_id":"0e9ad9af-e89b-412e-a7df-344fe8f113f7","system_id":"levelo_inurba_marseille","lat":43.25,"lon":5.38918,"is_reserved":false,"is_disabled":false,"rental_uris":{"android":"levelo://app?vid=0e9ad9af-e89b-412e-a7df-344fe8f113f7","ios":"levelo://app?vid=0e9ad9af-e89b-412e-a7df-344fe8f113f7"},"vehicle_type_id":"4","last_reported":1729235370,"current_range_meters":39200,"station_id":"ce4bhgp2rcd13ifvqfd0","pricing_plan_id":"cebpf4jnsgd1na2vs0mg"},{"bike_id":"91ac8fa7-b7c8-4143-be6d-e2ffbaedc096","system_id":"levelo_inurba_marseille","lat":43.27073,"lon":5.4228,"is_reserved":false,"is_disabled":false,"rental_uris":{"android":"levelo://app?vid=91ac8fa7-b7c8-4143-be6d-e2ffbaedc096","ios":"levelo://app?vid=91ac8fa7-b7c8-4143-be6d-e2ffbaedc096"},"vehicle_type_id":"4","last_reported":1729235370,"current_range_meters":35600,"station_id":"ce4bhk92rcd13ifvqgb0","pricing_plan_id":"cebpf4jnsgd1na2vs0mg"},{"bike_id":"e9d8d5db-0aa5-4111-9431-c35177157ef1","system_id":"levelo_inurba_marseille","lat":43.31492,"lon":5.37307,"is_reserved":false,"is_disabled":false,"rental_uris":{"android":"levelo://app?vid=e9d8d5db-0aa5-4111-9431-c35177157ef1","ios":"levelo://app?vid=e9d8d5db-0aa5-4111-9431-c35177157ef1"},"vehicle_type_id":"4","last_reported":1729235370,"current_range_meters":33200,"station_id":"ce4bgt12rcd13ifvqcd0","pricing_plan_id":"cebpf4jnsgd1na2vs0mg"},{"bike_id":"191b113b-be16-492e-a876-32c12d6b048b","system_id":"levelo_inurba_marseille","lat":43.24085,"lon":5.37752,"is_reserved":false,"is_disabled":false,"rental_uris":{"android":"levelo://app?vid=191b113b-be16-492e-a876-32c12d6b048b","ios":"levelo://app?vid=191b113b-be16-492e-a876-32c12d6b048b"},"vehicle_type_id":"4","last_reported":1729235370,"current_range_meters":19600,"station_id":"ce4bhnp2rcd13ifvqgvg","pricing_plan_id":"cebpf4jnsgd1na2vs0mg"},{"bike_id":"ef00c94a-e76e-4e00-bfec-e40b8a260288","system_id":"levelo_inurba_marseille","lat":43.24084,"lon":5.37754,"is_reserved":false,"is_disabled":false,"rental_uris":{"android":"levelo://app?vid=ef00c94a-e76e-4e00-bfec-e40b8a260288","ios":"levelo://app?vid=ef00c94a-e76e-4e00-bfec-e40b8a260288"},"vehicle_type_id":"4","last_reported":1729235370,"current_range_meters":32800,"station_id":"ce4bhnp2rcd13ifvqgvg","pricing_plan_id":"cebpf4jnsgd1na2vs0mg"},{"bike_id":"a71414de-d2ee-4a17-94ea-50f620ba8558","system_id":"levelo_inurba_marseille","lat":43.28422,"lon":5.34987,"is_reserved":false,"is_disabled":false,"rental_uris":{"android":"levelo://app?vid=a71414de-d2ee-4a17-94ea-50f620ba8558","ios":"levelo://app?vid=a71414de-d2ee-4a17-94ea-50f620ba8558"},"vehicle_type_id":"4","last_reported":1729235370,"current_range_meters":38800,"station_id":"ce4bhbh2rcd13ifvqepg","pricing_plan_id":"cebpf4jnsgd1na2vs0mg"},{"bike_id":"1b490cc6-71ed-4c96-ba76-2851bb80248f","system_id":"levelo_inurba_marseille","lat":43.24075,"lon":5.37759,"is_reserved":false,"is_disabled":false,"rental_uris":{"android":"levelo://app?vid=1b490cc6-71ed-4c96-ba76-2851bb80248f","ios":"levelo://app?vid=1b490cc6-71ed-4c96-ba76-2851bb80248f"},"vehicle_type_id":"4","last_reported":1729235370,"current_range_meters":29600,"station_id":"ce4bhnp2rcd13ifvqgvg","pricing_plan_id":"cebpf4jnsgd1na2vs0mg"},{"bike_id":"29d12a33-823d-4548-bba6-ab22c89ac591","system_id":"levelo_inurba_marseille","lat":43.26688,"lon":5.38275,"is_reserved":false,"is_disabled":false,"rental_uris":{"android":"levelo://app?vid=29d12a33-823d-4548-bba6-ab22c89ac591","ios":"levelo://app?vid=29d12a33-823d-4548-bba6-ab22c89ac591"},"vehicle_type_id":"4","last_reported":1729235370,"current_range_meters":25600,"station_id":"ce4bhg92rcd13ifvqf90","pricing_plan_id":"cebpf4jnsgd1na2vs0mg"},{"bike_id":"88ed0f9f-e90c-4cb7-aed8-4122cf81bf11","system_id":"levelo_inurba_marseille","lat":43.26033,"lon":5.37553,"is_reserved":false,"is_disabled":false,"rental_uris":{"android":"levelo://app?vid=88ed0f9f-e90c-4cb7-aed8-4122cf81bf11","ios":"levelo://app?vid=88ed0f9f-e90c-4cb7-aed8-4122cf81bf11"},"vehicle_type_id":"4","last_reported":1729235370,"current_range_meters":37600,"station_id":"ce4bhgh2rcd13ifvqfa0","pricing_plan_id":"cebpf4jnsgd1na2vs0mg"},{"bike_id":"4ae2c184-8c50-452d-87fb-8f7bf4f540f3","system_id":"levelo_inurba_marseille","lat":43.2465,"lon":5.38895,"is_reserved":false,"is_disabled":false,"rental_uris":{"android":"levelo://app?vid=4ae2c184-8c50-452d-87fb-8f7bf4f540f3","ios":"levelo://app?vid=4ae2c184-8c50-452d-87fb-8f7bf4f540f3"},"vehicle_type_id":"4","last_reported":1729235370,"current_range_meters":39200,"station_id":"ce4bhg12rcd13ifvqf60","pricing_plan_id":"cebpf4jnsgd1na2vs0mg"},{"bike_id":"7599a32a-7ee5-4e62-94ba-7a46049e6f09","system_id":"levelo_inurba_marseille","lat":43.269519,"lon":5.386201,"is_reserved":false,"is_disabled":false,"rental_uris":{"android":"levelo://app?vid=7599a32a-7ee5-4e62-94ba-7a46049e6f09","ios":"levelo://app?vid=7599a32a-7ee5-4e62-94ba-7a46049e6f09"},"vehicle_type_id":"4","last_reported":1729235370,"current_range_meters":13600,"station_id":"ce4bgl92rcd13ifvqbq0","pricing_plan_id":"cebpf4jnsgd1na2vs0mg"},{"bike_id":"de91a8c2-95e6-4d33-981f-0fa48e1f37fe","system_id":"levelo_inurba_marseille","lat":43.27311,"lon":5.39084,"is_reserved":false,"is_disabled":false,"rental_uris":{"android":"levelo://app?vid=de91a8c2-95e6-4d33-981f-0fa48e1f37fe","ios":"levelo://app?vid=de91a8c2-95e6-4d33-981f-0fa48e1f37fe"},"vehicle_type_id":"4","last_reported":1729235370,"current_range_meters":25600,"station_id":"ce4bhgp2rcd13ifvqfe0","pricing_plan_id":"cebpf4jnsgd1na2vs0mg"},{"bike_id":"3ca0cc00-5623-48b3-b9aa-c7974bb04c10","system_id":"levelo_inurba_marseille","lat":43.31347,"lon":5.36708,"is_reserved":false,"is_disabled":false,"rental_uris":{"android":"levelo://app?vid=3ca0cc00-5623-48b3-b9aa-c7974bb04c10","ios":"levelo://app?vid=3ca0cc00-5623-48b3-b9aa-c7974bb04c10"},"vehicle_type_id":"4","last_reported":1729235370,"current_range_meters":10800,"station_id":"ce4bgr92rcd13ifvqc6g","pricing_plan_id":"cebpf4jnsgd1na2vs0mg"},{"bike_id":"d5d87b96-496a-454b-9e81-b0e5a09c72cf","system_id":"levelo_inurba_marseille","lat":43.286074,"lon":5.370651,"is_reserved":false,"is_disabled":false,"rental_uris":{"android":"levelo://app?vid=d5d87b96-496a-454b-9e81-b0e5a09c72cf","ios":"levelo://app?vid=d5d87b96-496a-454b-9e81-b0e5a09c72cf"},"vehicle_type_id":"4","last_reported":1729235370,"current_range_meters":38000,"station_id":"ce4bht12rcd13ifvqi60","pricing_plan_id":"cebpf4jnsgd1na2vs0mg"},{"bike_id":"052b3563-392a-4857-8174-027696f961ab","system_id":"levelo_inurba_marseille","lat":43.24651,"lon":5.38904,"is_reserved":false,"is_disabled":false,"rental_uris":{"android":"levelo://app?vid=052b3563-392a-4857-8174-027696f961ab","ios":"levelo://app?vid=052b3563-392a-4857-8174-027696f961ab"},"vehicle_type_id":"4","last_reported":1729235370,"current_range_meters":19200,"station_id":"ce4bhg12rcd13ifvqf60","pricing_plan_id":"cebpf4jnsgd1na2vs0mg"},{"bike_id":"6897de91-a87c-480c-8eab-4b5f00d3f963","system_id":"levelo_inurba_marseille","lat":43.30471,"lon":5.37898,"is_reserved":false,"is_disabled":false,"rental_uris":{"android":"levelo://app?vid=6897de91-a87c-480c-8eab-4b5f00d3f963","ios":"levelo://app?vid=6897de91-a87c-480c-8eab-4b5f00d3f963"},"vehicle_type_id":"4","last_reported":1729235370,"current_range_meters":28800,"station_id":"ce4bgup2rcd13ifvqcn0","pricing_plan_id":"cebpf4jnsgd1na2vs0mg"},{"bike_id":"c664c061-e4f3-4e88-a3b3-53b8afa76dc4","system_id":"levelo_inurba_marseille","lat":43.32485,"lon":5.36566,"is_reserved":false,"is_disabled":false,"rental_uris":{"android":"levelo://app?vid=c664c061-e4f3-4e88-a3b3-53b8afa76dc4","ios":"levelo://app?vid=c664c061-e4f3-4e88-a3b3-53b8afa76dc4"},"vehicle_type_id":"4","last_reported":1729235370,"current_range_meters":11600,"station_id":"ce4bhs12rcd13ifvqhvg","pricing_plan_id":"cebpf4jnsgd1na2vs0mg"},{"bike_id":"fab51718-1e50-43f2-bc78-cc5a955e6f32","system_id":"levelo_inurba_marseille","lat":43.33608,"lon":5.41027,"is_reserved":false,"is_disabled":false,"rental_uris":{"android":"levelo://app?vid=fab51718-1e50-43f2-bc78-cc5a955e6f32","ios":"levelo://app?vid=fab51718-1e50-43f2-bc78-cc5a955e6f32"},"vehicle_type_id":"4","last_reported":1729235370,"current_range_meters":16000,"station_id":"ce4bhqh2rcd13ifvqhmg","pricing_plan_id":"cebpf4jnsgd1na2vs0mg"},{"bike_id":"14594cd4-c900-425c-ac1e-47833ce29ba2","system_id":"levelo_inurba_marseille","lat":43.28715,"lon":5.37941,"is_reserved":false,"is_disabled":false,"rental_uris":{"android":"levelo://app?vid=14594cd4-c900-425c-ac1e-47833ce29ba2","ios":"levelo://app?vid=14594cd4-c900-425c-ac1e-47833ce29ba2"},"vehicle_type_id":"4","last_reported":1729235370,"current_range_meters":27600,"station_id":"ce4bh9p2rcd13ifvqec0","pricing_plan_id":"cebpf4jnsgd1na2vs0mg"},{"bike_id":"14bc89c2-4375-4488-91e8-1027b3555b6b","system_id":"levelo_inurba_marseille","lat":43.2455,"lon":5.39525,"is_reserved":false,"is_disabled":false,"rental_uris":{"android":"levelo://app?vid=14bc89c2-4375-4488-91e8-1027b3555b6b","ios":"levelo://app?vid=14bc89c2-4375-4488-91e8-1027b3555b6b"},"vehicle_type_id":"4","last_reported":1729235370,"current_range_meters":38400,"station_id":"ce4bhlp2rcd13ifvqgjg","pricing_plan_id":"cebpf4jnsgd1na2vs0mg"},{"bike_id":"aa33b057-b1ff-43d6-8cc9-985994c510e4","system_id":"levelo_inurba_marseille","lat":43.24076,"lon":5.37758,"is_reserved":false,"is_disabled":false,"rental_uris":{"android":"levelo://app?vid=aa33b057-b1ff-43d6-8cc9-985994c510e4","ios":"levelo://app?vid=aa33b057-b1ff-43d6-8cc9-985994c510e4"},"vehicle_type_id":"4","last_reported":1729235370,"current_range_meters":24400,"station_id":"ce4bhnp2rcd13ifvqgvg","pricing_plan_id":"cebpf4jnsgd1na2vs0mg"},{"bike_id":"4e88f477-c87c-4fc5-bc5a-d19751e8fceb","system_id":"levelo_inurba_marseille","lat":43.28155,"lon":5.42646,"is_reserved":false,"is_disabled":false,"rental_uris":{"android":"levelo://app?vid=4e88f477-c87c-4fc5-bc5a-d19751e8fceb","ios":"levelo://app?vid=4e88f477-c87c-4fc5-bc5a-d19751e8fceb"},"vehicle_type_id":"4","last_reported":1729235370,"current_range_meters":36800,"station_id":"ce4bhnh2rcd13ifvqgug","pricing_plan_id":"cebpf4jnsgd1na2vs0mg"},{"bike_id":"42021a3d-ca74-4171-8c91-04c13070aabe","system_id":"levelo_inurba_marseille","lat":43.30532,"lon":5.36555,"is_reserved":false,"is_disabled":false,"rental_uris":{"android":"levelo://app?vid=42021a3d-ca74-4171-8c91-04c13070aabe","ios":"levelo://app?vid=42021a3d-ca74-4171-8c91-04c13070aabe"},"vehicle_type_id":"4","last_reported":1729235370,"current_range_meters":39200,"station_id":"ce4bgs12rcd13ifvqcag","pricing_plan_id":"cebpf4jnsgd1na2vs0mg"},{"bike_id":"531b6fca-18c8-401a-a854-621c908b7a27","system_id":"levelo_inurba_marseille","lat":43.304565,"lon":5.379006,"is_reserved":false,"is_disabled":false,"rental_uris":{"android":"levelo://app?vid=531b6fca-18c8-401a-a854-621c908b7a27","ios":"levelo://app?vid=531b6fca-18c8-401a-a854-621c908b7a27"},"vehicle_type_id":"4","last_reported":1729235370,"current_range_meters":38800,"station_id":"ce4bgup2rcd13ifvqcn0","pricing_plan_id":"cebpf4jnsgd1na2vs0mg"},{"bike_id":"278c2e6f-55c5-418e-802c-4af4cd9f1665","system_id":"levelo_inurba_marseille","lat":43.32487,"lon":5.36572,"is_reserved":false,"is_disabled":false,"rental_uris":{"android":"levelo://app?vid=278c2e6f-55c5-418e-802c-4af4cd9f1665","ios":"levelo://app?vid=278c2e6f-55c5-418e-802c-4af4cd9f1665"},"vehicle_type_id":"4","last_reported":1729235370,"current_range_meters":9600,"station_id":"ce4bhs12rcd13ifvqhvg","pricing_plan_id":"cebpf4jnsgd1na2vs0mg"},{"bike_id":"01674856-3d83-4a8e-b735-4c38ec423468","system_id":"levelo_inurba_marseille","lat":43.32541,"lon":5.4142,"is_reserved":false,"is_disabled":false,"rental_uris":{"android":"levelo://app?vid=01674856-3d83-4a8e-b735-4c38ec423468","ios":"levelo://app?vid=01674856-3d83-4a8e-b735-4c38ec423468"},"vehicle_type_id":"4","last_reported":1729235370,"current_range_meters":12000,"station_id":"ce4bhq12rcd13ifvqhhg","pricing_plan_id":"cebpf4jnsgd1na2vs0mg"},{"bike_id":"19b9cc88-52ac-43c8-9e9d-76cd5f8c8a4c","system_id":"levelo_inurba_marseille","lat":43.30271,"lon":5.37715,"is_reserved":false,"is_disabled":false,"rental_uris":{"android":"levelo://app?vid=19b9cc88-52ac-43c8-9e9d-76cd5f8c8a4c","ios":"levelo://app?vid=19b9cc88-52ac-43c8-9e9d-76cd5f8c8a4c"},"vehicle_type_id":"4","last_reported":1729235370,"current_range_meters":38800,"station_id":"ce4bguh2rcd13ifvqcj0","pricing_plan_id":"cebpf4jnsgd1na2vs0mg"},{"bike_id":"a5488ecc-feca-431e-8b7d-84d131dcd791","system_id":"levelo_inurba_marseille","lat":43.32531,"lon":5.41441,"is_reserved":false,"is_disabled":false,"rental_uris":{"android":"levelo://app?vid=a5488ecc-feca-431e-8b7d-84d131dcd791","ios":"levelo://app?vid=a5488ecc-feca-431e-8b7d-84d131dcd791"},"vehicle_type_id":"4","last_reported":1729235370,"current_range_meters":20400,"station_id":"ce4bhq12rcd13ifvqhhg","pricing_plan_id":"cebpf4jnsgd1na2vs0mg"},{"bike_id":"4361f052-08fb-4f1b-8a0a-4061ece8354c","system_id":"levelo_inurba_marseille","lat":43.31065,"lon":5.368,"is_reserved":false,"is_disabled":false,"rental_uris":{"android":"levelo://app?vid=4361f052-08fb-4f1b-8a0a-4061ece8354c","ios":"levelo://app?vid=4361f052-08fb-4f1b-8a0a-4061ece8354c"},"vehicle_type_id":"4","last_reported":1729235370,"current_range_meters":3200,"station_id":"ce4bhs12rcd13ifvqhvg","pricing_plan_id":"cebpf4jnsgd1na2vs0mg"},{"bike_id":"6813d1c5-5a41-4761-8bbb-54b1deb43b75","system_id":"levelo_inurba_marseille","lat":43.30357,"lon":5.41875,"is_reserved":false,"is_disabled":false,"rental_uris":{"android":"levelo://app?vid=6813d1c5-5a41-4761-8bbb-54b1deb43b75","ios":"levelo://app?vid=6813d1c5-5a41-4761-8bbb-54b1deb43b75"},"vehicle_type_id":"4","last_reported":1729235370,"current_range_meters":35200,"station_id":"ce4bhop2rcd13ifvqh7g","pricing_plan_id":"cebpf4jnsgd1na2vs0mg"},{"bike_id":"ea1bb887-98eb-4fdc-b9b8-ea8c5c0e6fd4","system_id":"levelo_inurba_marseille","lat":43.27924,"lon":5.39568,"is_reserved":false,"is_disabled":false,"rental_uris":{"android":"levelo://app?vid=ea1bb887-98eb-4fdc-b9b8-ea8c5c0e6fd4","ios":"levelo://app?vid=ea1bb887-98eb-4fdc-b9b8-ea8c5c0e6fd4"},"vehicle_type_id":"4","last_reported":1729235370,"current_range_meters":36800,"station_id":"ce4bhf92rcd13ifvqf40","pricing_plan_id":"cebpf4jnsgd1na2vs0mg"},{"bike_id":"6263be57-0fc0-4c12-a63b-da5f6339bbe3","system_id":"levelo_inurba_marseille","lat":43.25933,"lon":5.40916,"is_reserved":false,"is_disabled":false,"rental_uris":{"android":"levelo://app?vid=6263be57-0fc0-4c12-a63b-da5f6339bbe3","ios":"levelo://app?vid=6263be57-0fc0-4c12-a63b-da5f6339bbe3"},"vehicle_type_id":"4","last_reported":1729235370,"current_range_meters":27600,"station_id":"ce4bhm92rcd13ifvqglg","pricing_plan_id":"cebpf4jnsgd1na2vs0mg"},{"bike_id":"2706e4ee-f010-4993-b419-5ed4bc4ce716","system_id":"levelo_inurba_marseille","lat":43.30142,"lon":5.37419,"is_reserved":false,"is_disabled":false,"rental_uris":{"android":"levelo://app?vid=2706e4ee-f010-4993-b419-5ed4bc4ce716","ios":"levelo://app?vid=2706e4ee-f010-4993-b419-5ed4bc4ce716"},"vehicle_type_id":"4","last_reported":1729235370,"current_range_meters":28000,"station_id":"ce4bgs92rcd13ifvqcc0","pricing_plan_id":"cebpf4jnsgd1na2vs0mg"},{"bike_id":"3cc9ca15-d23c-4891-9216-c134fa816eb8","system_id":"levelo_inurba_marseille","lat":43.24179,"lon":5.39728,"is_reserved":false,"is_disabled":false,"rental_uris":{"android":"levelo://app?vid=3cc9ca15-d23c-4891-9216-c134fa816eb8","ios":"levelo://app?vid=3cc9ca15-d23c-4891-9216-c134fa816eb8"},"vehicle_type_id":"4","last_reported":1729235370,"current_range_meters":28800,"station_id":"ce4bhn12rcd13ifvqgpg","pricing_plan_id":"cebpf4jnsgd1na2vs0mg"},{"bike_id":"2185f387-886c-4021-b5b5-d4e24db50f85","system_id":"levelo_inurba_marseille","lat":43.29844,"lon":5.36269,"is_reserved":false,"is_disabled":false,"rental_uris":{"android":"levelo://app?vid=2185f387-886c-4021-b5b5-d4e24db50f85","ios":"levelo://app?vid=2185f387-886c-4021-b5b5-d4e24db50f85"},"vehicle_type_id":"4","last_reported":1729235370,"current_range_meters":28000,"station_id":"","pricing_plan_id":"cebpf4jnsgd1na2vs0mg"},{"bike_id":"2cdc1722-bbbd-4809-b0f9-3f52e41762bc","system_id":"levelo_inurba_marseille","lat":43.27488,"lon":5.42467,"is_reserved":false,"is_disabled":false,"rental_uris":{"android":"levelo://app?vid=2cdc1722-bbbd-4809-b0f9-3f52e41762bc","ios":"levelo://app?vid=2cdc1722-bbbd-4809-b0f9-3f52e41762bc"},"vehicle_type_id":"4","last_reported":1729235370,"current_range_meters":38800,"station_id":"ce4bhn92rcd13ifvqgrg","pricing_plan_id":"cebpf4jnsgd1na2vs0mg"},{"bike_id":"57b1dc49-6a81-434f-8366-5acf1ca9eff1","system_id":"levelo_inurba_marseille","lat":43.2749,"lon":5.42469,"is_reserved":false,"is_disabled":false,"rental_uris":{"android":"levelo://app?vid=57b1dc49-6a81-434f-8366-5acf1ca9eff1","ios":"levelo://app?vid=57b1dc49-6a81-434f-8366-5acf1ca9eff1"},"vehicle_type_id":"4","last_reported":1729235370,"current_range_meters":27600,"station_id":"ce4bhn92rcd13ifvqgrg","pricing_plan_id":"cebpf4jnsgd1na2vs0mg"},{"bike_id":"7182847d-3512-4e50-8685-13183a9f360a","system_id":"levelo_inurba_marseille","lat":43.30464,"lon":5.37893,"is_reserved":false,"is_disabled":false,"rental_uris":{"android":"levelo://app?vid=7182847d-3512-4e50-8685-13183a9f360a","ios":"levelo://app?vid=7182847d-3512-4e50-8685-13183a9f360a"},"vehicle_type_id":"4","last_reported":1729235370,"current_range_meters":24000,"station_id":"ce4bgup2rcd13ifvqcn0","pricing_plan_id":"cebpf4jnsgd1na2vs0mg"},{"bike_id":"a6de2d8f-4ce9-4376-b614-a9136f70032c","system_id":"levelo_inurba_marseille","lat":43.3254,"lon":5.41421,"is_reserved":false,"is_disabled":false,"rental_uris":{"android":"levelo://app?vid=a6de2d8f-4ce9-4376-b614-a9136f70032c","ios":"levelo://app?vid=a6de2d8f-4ce9-4376-b614-a9136f70032c"},"vehicle_type_id":"4","last_reported":1729235370,"current_range_meters":4400,"station_id":"ce4bhq12rcd13ifvqhhg","pricing_plan_id":"cebpf4jnsgd1na2vs0mg"},{"bike_id":"a21a4076-2382-4a76-a725-5253e8a6c4fc","system_id":"levelo_inurba_marseille","lat":43.28974,"lon":5.37833,"is_reserved":false,"is_disabled":false,"rental_uris":{"android":"levelo://app?vid=a21a4076-2382-4a76-a725-5253e8a6c4fc","ios":"levelo://app?vid=a21a4076-2382-4a76-a725-5253e8a6c4fc"},"vehicle_type_id":"4","last_reported":1729235370,"current_range_meters":32800,"station_id":"ce4bh9p2rcd13ifvqed0","pricing_plan_id":"cebpf4jnsgd1na2vs0mg"},{"bike_id":"b8951c7b-a93b-4535-9474-84658cb54f8b","system_id":"levelo_inurba_marseille","lat":43.29913,"lon":5.37485,"is_reserved":false,"is_disabled":false,"rental_uris":{"android":"levelo://app?vid=b8951c7b-a93b-4535-9474-84658cb54f8b","ios":"levelo://app?vid=b8951c7b-a93b-4535-9474-84658cb54f8b"},"vehicle_type_id":"4","last_reported":1729235370,"current_range_meters":38800,"station_id":"ce4bgjh2rcd13ifvqbg0","pricing_plan_id":"cebpf4jnsgd1na2vs0mg"},{"bike_id":"3d7546d0-4dba-4212-88c9-dfe9a2032237","system_id":"levelo_inurba_marseille","lat":43.241632,"lon":5.363973,"is_reserved":false,"is_disabled":false,"rental_uris":{"android":"levelo://app?vid=3d7546d0-4dba-4212-88c9-dfe9a2032237","ios":"levelo://app?vid=3d7546d0-4dba-4212-88c9-dfe9a2032237"},"vehicle_type_id":"4","last_reported":1729235370,"current_range_meters":38400,"station_id":"cpo36qri1sfpv3e86is0","pricing_plan_id":"cebpf4jnsgd1na2vs0mg"},{"bike_id":"d1154056-d441-47de-ba63-0affb4add459","system_id":"levelo_inurba_marseille","lat":43.29789,"lon":5.38117,"is_reserved":false,"is_disabled":false,"rental_uris":{"android":"levelo://app?vid=d1154056-d441-47de-ba63-0affb4add459","ios":"levelo://app?vid=d1154056-d441-47de-ba63-0affb4add459"},"vehicle_type_id":"4","last_reported":1729235370,"current_range_meters":36800,"station_id":"ce4bgip2rcd13ifvqbb0","pricing_plan_id":"cebpf4jnsgd1na2vs0mg"},{"bike_id":"5f66d9b1-dc9b-46e4-ab6f-979d6221f9ab","system_id":"levelo_inurba_marseille","lat":43.32284,"lon":5.38271,"is_reserved":false,"is_disabled":false,"rental_uris":{"android":"levelo://app?vid=5f66d9b1-dc9b-46e4-ab6f-979d6221f9ab","ios":"levelo://app?vid=5f66d9b1-dc9b-46e4-ab6f-979d6221f9ab"},"vehicle_type_id":"4","last_reported":1729235370,"current_range_meters":18800,"station_id":"ce4bhr12rcd13ifvqhqg","pricing_plan_id":"cebpf4jnsgd1na2vs0mg"},{"bike_id":"4c88a426-682d-4874-ba94-cabe50c6deae","system_id":"levelo_inurba_marseille","lat":43.324036,"lon":5.384232,"is_reserved":false,"is_disabled":false,"rental_uris":{"android":"levelo://app?vid=4c88a426-682d-4874-ba94-cabe50c6deae","ios":"levelo://app?vid=4c88a426-682d-4874-ba94-cabe50c6deae"},"vehicle_type_id":"4","last_reported":1729235370,"current_range_meters":27600,"station_id":"ce4bgth2rcd13ifvqch0","pricing_plan_id":"cebpf4jnsgd1na2vs0mg"},{"bike_id":"ff5b7d0a-ad12-45a6-9d4b-ae65b791be64","system_id":"levelo_inurba_marseille","lat":43.29561,"lon":5.42288,"is_reserved":false,"is_disabled":false,"rental_uris":{"android":"levelo://app?vid=ff5b7d0a-ad12-45a6-9d4b-ae65b791be64","ios":"levelo://app?vid=ff5b7d0a-ad12-45a6-9d4b-ae65b791be64"},"vehicle_type_id":"4","last_reported":1729235370,"current_range_meters":38800,"station_id":"ce4bhph2rcd13ifvqhdg","pricing_plan_id":"cebpf4jnsgd1na2vs0mg"},{"bike_id":"ceba77e4-817d-4911-8717-9b4015e9cd05","system_id":"levelo_inurba_marseille","lat":43.2315,"lon":5.4373,"is_reserved":false,"is_disabled":false,"rental_uris":{"android":"levelo://app?vid=ceba77e4-817d-4911-8717-9b4015e9cd05","ios":"levelo://app?vid=ceba77e4-817d-4911-8717-9b4015e9cd05"},"vehicle_type_id":"4","last_reported":1729235370,"current_range_meters":25200,"station_id":"ce4bhmp2rcd13ifvqgog","pricing_plan_id":"cebpf4jnsgd1na2vs0mg"},{"bike_id":"fbe9116f-5c4e-40ee-aa87-c56740e685fb","system_id":"levelo_inurba_marseille","lat":43.26946,"lon":5.38644,"is_reserved":false,"is_disabled":false,"rental_uris":{"android":"levelo://app?vid=fbe9116f-5c4e-40ee-aa87-c56740e685fb","ios":"levelo://app?vid=fbe9116f-5c4e-40ee-aa87-c56740e685fb"},"vehicle_type_id":"4","last_reported":1729235370,"current_range_meters":36800,"station_id":"ce4bhh92rcd13ifvqfh0","pricing_plan_id":"cebpf4jnsgd1na2vs0mg"},{"bike_id":"2a3e6989-f84c-4379-ae87-1b77f03971bf","system_id":"levelo_inurba_marseille","lat":43.28998,"lon":5.38822,"is_reserved":false,"is_disabled":false,"rental_uris":{"android":"levelo://app?vid=2a3e6989-f84c-4379-ae87-1b77f03971bf","ios":"levelo://app?vid=2a3e6989-f84c-4379-ae87-1b77f03971bf"},"vehicle_type_id":"4","last_reported":1729235370,"current_range_meters":18800,"station_id":"","pricing_plan_id":"cebpf4jnsgd1na2vs0mg"},{"bike_id":"90b7df2b-2805-4913-a745-07d80216980c","system_id":"levelo_inurba_marseille","lat":43.30801,"lon":5.43519,"is_reserved":false,"is_disabled":false,"rental_uris":{"android":"levelo://app?vid=90b7df2b-2805-4913-a745-07d80216980c","ios":"levelo://app?vid=90b7df2b-2805-4913-a745-07d80216980c"},"vehicle_type_id":"4","last_reported":1729235370,"current_range_meters":12800,"station_id":"ce4bhph2rcd13ifvqheg","pricing_plan_id":"cebpf4jnsgd1na2vs0mg"},{"bike_id":"32ce68a3-3fc7-4257-974f-ab657619c295","system_id":"levelo_inurba_marseille","lat":43.33739,"lon":5.3746,"is_reserved":false,"is_disabled":false,"rental_uris":{"android":"levelo://app?vid=32ce68a3-3fc7-4257-974f-ab657619c295","ios":"levelo://app?vid=32ce68a3-3fc7-4257-974f-ab657619c295"},"vehicle_type_id":"4","last_reported":1729235370,"current_range_meters":24800,"station_id":"","pricing_plan_id":"cebpf4jnsgd1na2vs0mg"},{"bike_id":"bf8efb0b-e266-4cfe-b4e0-f6c91cd91c1f","system_id":"levelo_inurba_marseille","lat":43.30207,"lon":5.37057,"is_reserved":false,"is_disabled":false,"rental_uris":{"android":"levelo://app?vid=bf8efb0b-e266-4cfe-b4e0-f6c91cd91c1f","ios":"levelo://app?vid=bf8efb0b-e266-4cfe-b4e0-f6c91cd91c1f"},"vehicle_type_id":"4","last_reported":1729235370,"current_range_meters":22800,"station_id":"ce4bgr92rcd13ifvqc7g","pricing_plan_id":"cebpf4jnsgd1na2vs0mg"},{"bike_id":"bbf4bc62-2aae-49ae-b779-d4253b940c56","system_id":"levelo_inurba_marseille","lat":43.31353,"lon":5.3669,"is_reserved":false,"is_disabled":false,"rental_uris":{"android":"levelo://app?vid=bbf4bc62-2aae-49ae-b779-d4253b940c56","ios":"levelo://app?vid=bbf4bc62-2aae-49ae-b779-d4253b940c56"},"vehicle_type_id":"4","last_reported":1729235370,"current_range_meters":14400,"station_id":"ce4bgr92rcd13ifvqc6g","pricing_plan_id":"cebpf4jnsgd1na2vs0mg"},{"bike_id":"52c8eb13-7c11-4cd0-a2fd-39c3c51b85d9","system_id":"levelo_inurba_marseille","lat":43.24614,"lon":5.41579,"is_reserved":false,"is_disabled":false,"rental_uris":{"android":"levelo://app?vid=52c8eb13-7c11-4cd0-a2fd-39c3c51b85d9","ios":"levelo://app?vid=52c8eb13-7c11-4cd0-a2fd-39c3c51b85d9"},"vehicle_type_id":"4","last_reported":1729235370,"current_range_meters":16400,"station_id":"","pricing_plan_id":"cebpf4jnsgd1na2vs0mg"},{"bike_id":"555ff3cf-777b-4ff4-b149-9575fc002950","system_id":"levelo_inurba_marseille","lat":43.24179,"lon":5.39733,"is_reserved":false,"is_disabled":false,"rental_uris":{"android":"levelo://app?vid=555ff3cf-777b-4ff4-b149-9575fc002950","ios":"levelo://app?vid=555ff3cf-777b-4ff4-b149-9575fc002950"},"vehicle_type_id":"4","last_reported":1729235370,"current_range_meters":33200,"station_id":"ce4bhn12rcd13ifvqgpg","pricing_plan_id":"cebpf4jnsgd1na2vs0mg"},{"bike_id":"fa7bbdc9-afbe-404d-8676-647037cc76a9","system_id":"levelo_inurba_marseille","lat":43.23193,"lon":5.35546,"is_reserved":false,"is_disabled":false,"rental_uris":{"android":"levelo://app?vid=fa7bbdc9-afbe-404d-8676-647037cc76a9","ios":"levelo://app?vid=fa7bbdc9-afbe-404d-8676-647037cc76a9"},"vehicle_type_id":"4","last_reported":1729235370,"current_range_meters":30000,"station_id":"ce4bhu92rcd13ifvqi70","pricing_plan_id":"cebpf4jnsgd1na2vs0mg"},{"bike_id":"d4eaa4f8-20ea-4c39-ae6f-ad39461b0345","system_id":"levelo_inurba_marseille","lat":43.341371,"lon":5.409462,"is_reserved":false,"is_disabled":false,"rental_uris":{"android":"levelo://app?vid=d4eaa4f8-20ea-4c39-ae6f-ad39461b0345","ios":"levelo://app?vid=d4eaa4f8-20ea-4c39-ae6f-ad39461b0345"},"vehicle_type_id":"4","last_reported":1729235370,"current_range_meters":22800,"station_id":"ce4bhq12rcd13ifvqhhg","pricing_plan_id":"cebpf4jnsgd1na2vs0mg"},{"bike_id":"090a631f-25bf-4ca2-b5e4-c2ed8415d21b","system_id":"levelo_inurba_marseille","lat":43.28719,"lon":5.37936,"is_reserved":false,"is_disabled":false,"rental_uris":{"android":"levelo://app?vid=090a631f-25bf-4ca2-b5e4-c2ed8415d21b","ios":"levelo://app?vid=090a631f-25bf-4ca2-b5e4-c2ed8415d21b"},"vehicle_type_id":"4","last_reported":1729235370,"current_range_meters":31200,"station_id":"ce4bh9p2rcd13ifvqec0","pricing_plan_id":"cebpf4jnsgd1na2vs0mg"},{"bike_id":"4d4e269c-fea1-48fa-a7d3-1aa391a4e4ac","system_id":"levelo_inurba_marseille","lat":43.32539,"lon":5.41426,"is_reserved":false,"is_disabled":false,"rental_uris":{"android":"levelo://app?vid=4d4e269c-fea1-48fa-a7d3-1aa391a4e4ac","ios":"levelo://app?vid=4d4e269c-fea1-48fa-a7d3-1aa391a4e4ac"},"vehicle_type_id":"4","last_reported":1729235370,"current_range_meters":36000,"station_id":"ce4bhq12rcd13ifvqhhg","pricing_plan_id":"cebpf4jnsgd1na2vs0mg"},{"bike_id":"f8d2e239-573b-4f9d-8955-e6720aa9663e","system_id":"levelo_inurba_marseille","lat":43.24647,"lon":5.38897,"is_reserved":false,"is_disabled":false,"rental_uris":{"android":"levelo://app?vid=f8d2e239-573b-4f9d-8955-e6720aa9663e","ios":"levelo://app?vid=f8d2e239-573b-4f9d-8955-e6720aa9663e"},"vehicle_type_id":"4","last_reported":1729235370,"current_range_meters":32800,"station_id":"ce4bhg12rcd13ifvqf60","pricing_plan_id":"cebpf4jnsgd1na2vs0mg"},{"bike_id":"76247823-f5da-4e69-a748-430804141594","system_id":"levelo_inurba_marseille","lat":43.31356,"lon":5.36726,"is_reserved":false,"is_disabled":false,"rental_uris":{"android":"levelo://app?vid=76247823-f5da-4e69-a748-430804141594","ios":"levelo://app?vid=76247823-f5da-4e69-a748-430804141594"},"vehicle_type_id":"4","last_reported":1729235370,"current_range_meters":38800,"station_id":"ce4bgr92rcd13ifvqc6g","pricing_plan_id":"cebpf4jnsgd1na2vs0mg"},{"bike_id":"0aec5848-a673-4e6c-81d5-84e25e701c81","system_id":"levelo_inurba_marseille","lat":43.30131,"lon":5.3878,"is_reserved":false,"is_disabled":false,"rental_uris":{"android":"levelo://app?vid=0aec5848-a673-4e6c-81d5-84e25e701c81","ios":"levelo://app?vid=0aec5848-a673-4e6c-81d5-84e25e701c81"},"vehicle_type_id":"4","last_reported":1729235370,"current_range_meters":33600,"station_id":"ce4bghh2rcd13ifvqb60","pricing_plan_id":"cebpf4jnsgd1na2vs0mg"},{"bike_id":"8c1ec6cb-2291-4814-837b-be8625c706f3","system_id":"levelo_inurba_marseille","lat":43.23196,"lon":5.35543,"is_reserved":false,"is_disabled":false,"rental_uris":{"android":"levelo://app?vid=8c1ec6cb-2291-4814-837b-be8625c706f3","ios":"levelo://app?vid=8c1ec6cb-2291-4814-837b-be8625c706f3"},"vehicle_type_id":"4","last_reported":1729235370,"current_range_meters":34000,"station_id":"ce4bhu92rcd13ifvqi70","pricing_plan_id":"cebpf4jnsgd1na2vs0mg"},{"bike_id":"e05a8545-65f7-4cf3-8739-ba534517b4f3","system_id":"levelo_inurba_marseille","lat":43.24084,"lon":5.37754,"is_reserved":false,"is_disabled":false,"rental_uris":{"android":"levelo://app?vid=e05a8545-65f7-4cf3-8739-ba534517b4f3","ios":"levelo://app?vid=e05a8545-65f7-4cf3-8739-ba534517b4f3"},"vehicle_type_id":"4","last_reported":1729235370,"current_range_meters":30000,"station_id":"ce4bhnp2rcd13ifvqgvg","pricing_plan_id":"cebpf4jnsgd1na2vs0mg"},{"bike_id":"109e6c8a-0c97-4977-80dc-2ed128d130e9","system_id":"levelo_inurba_marseille","lat":43.2695,"lon":5.38636,"is_reserved":false,"is_disabled":false,"rental_uris":{"android":"levelo://app?vid=109e6c8a-0c97-4977-80dc-2ed128d130e9","ios":"levelo://app?vid=109e6c8a-0c97-4977-80dc-2ed128d130e9"},"vehicle_type_id":"4","last_reported":1729235370,"current_range_meters":30800,"station_id":"ce4bhh92rcd13ifvqfh0","pricing_plan_id":"cebpf4jnsgd1na2vs0mg"},{"bike_id":"ffa7f721-a222-47ab-b269-7f3fd28e085f","system_id":"levelo_inurba_marseille","lat":43.28719,"lon":5.37935,"is_reserved":false,"is_disabled":false,"rental_uris":{"android":"levelo://app?vid=ffa7f721-a222-47ab-b269-7f3fd28e085f","ios":"levelo://app?vid=ffa7f721-a222-47ab-b269-7f3fd28e085f"},"vehicle_type_id":"4","last_reported":1729235370,"current_range_meters":32400,"station_id":"ce4bh9p2rcd13ifvqec0","pricing_plan_id":"cebpf4jnsgd1na2vs0mg"},{"bike_id":"67a6b7be-4be3-473a-9148-38e0734a0517","system_id":"levelo_inurba_marseille","lat":43.33607,"lon":5.41033,"is_reserved":false,"is_disabled":false,"rental_uris":{"android":"levelo://app?vid=67a6b7be-4be3-473a-9148-38e0734a0517","ios":"levelo://app?vid=67a6b7be-4be3-473a-9148-38e0734a0517"},"vehicle_type_id":"4","last_reported":1729235370,"current_range_meters":21600,"station_id":"ce4bhqh2rcd13ifvqhmg","pricing_plan_id":"cebpf4jnsgd1na2vs0mg"},{"bike_id":"22f00d5a-70ee-48ed-a43d-aa5efd39ff8b","system_id":"levelo_inurba_marseille","lat":43.25006,"lon":5.38922,"is_reserved":false,"is_disabled":false,"rental_uris":{"android":"levelo://app?vid=22f00d5a-70ee-48ed-a43d-aa5efd39ff8b","ios":"levelo://app?vid=22f00d5a-70ee-48ed-a43d-aa5efd39ff8b"},"vehicle_type_id":"4","last_reported":1729235370,"current_range_meters":4000,"station_id":"ce4bhgp2rcd13ifvqfd0","pricing_plan_id":"cebpf4jnsgd1na2vs0mg"},{"bike_id":"c89c2319-61a9-47ef-9229-e31c9eaab143","system_id":"levelo_inurba_marseille","lat":43.23192,"lon":5.35544,"is_reserved":false,"is_disabled":false,"rental_uris":{"android":"levelo://app?vid=c89c2319-61a9-47ef-9229-e31c9eaab143","ios":"levelo://app?vid=c89c2319-61a9-47ef-9229-e31c9eaab143"},"vehicle_type_id":"4","last_reported":1729235370,"current_range_meters":36800,"station_id":"ce4bhu92rcd13ifvqi70","pricing_plan_id":"cebpf4jnsgd1na2vs0mg"},{"bike_id":"eebd2710-b6e0-4f47-8a18-ffd45a96c57a","system_id":"levelo_inurba_marseille","lat":43.24075,"lon":5.37763,"is_reserved":false,"is_disabled":false,"rental_uris":{"android":"levelo://app?vid=eebd2710-b6e0-4f47-8a18-ffd45a96c57a","ios":"levelo://app?vid=eebd2710-b6e0-4f47-8a18-ffd45a96c57a"},"vehicle_type_id":"4","last_reported":1729235370,"current_range_meters":3200,"station_id":"ce4bhnp2rcd13ifvqgvg","pricing_plan_id":"cebpf4jnsgd1na2vs0mg"},{"bike_id":"15a59784-d515-4a97-ab9b-90e02c51b4d1","system_id":"levelo_inurba_marseille","lat":43.24996,"lon":5.38932,"is_reserved":false,"is_disabled":false,"rental_uris":{"android":"levelo://app?vid=15a59784-d515-4a97-ab9b-90e02c51b4d1","ios":"levelo://app?vid=15a59784-d515-4a97-ab9b-90e02c51b4d1"},"vehicle_type_id":"4","last_reported":1729235370,"current_range_meters":8000,"station_id":"ce4bhgp2rcd13ifvqfd0","pricing_plan_id":"cebpf4jnsgd1na2vs0mg"},{"bike_id":"1982426e-2f08-468c-9896-ce0026759c56","system_id":"levelo_inurba_marseille","lat":43.28947,"lon":5.36403,"is_reserved":false,"is_disabled":false,"rental_uris":{"android":"levelo://app?vid=1982426e-2f08-468c-9896-ce0026759c56","ios":"levelo://app?vid=1982426e-2f08-468c-9896-ce0026759c56"},"vehicle_type_id":"4","last_reported":1729235370,"current_range_meters":9600,"station_id":"ce4bhc92rcd13ifvqetg","pricing_plan_id":"cebpf4jnsgd1na2vs0mg"},{"bike_id":"794acdc8-c17c-4149-b903-ed4baea396b4","system_id":"levelo_inurba_marseille","lat":43.23187,"lon":5.39979,"is_reserved":false,"is_disabled":false,"rental_uris":{"android":"levelo://app?vid=794acdc8-c17c-4149-b903-ed4baea396b4","ios":"levelo://app?vid=794acdc8-c17c-4149-b903-ed4baea396b4"},"vehicle_type_id":"4","last_reported":1729235370,"current_range_meters":11600,"station_id":"ce4bhn12rcd13ifvqgqg","pricing_plan_id":"cebpf4jnsgd1na2vs0mg"},{"bike_id":"a14cfc8d-fbbd-40b0-aa99-e624d97946a6","system_id":"levelo_inurba_marseille","lat":43.30804,"lon":5.43521,"is_reserved":false,"is_disabled":false,"rental_uris":{"android":"levelo://app?vid=a14cfc8d-fbbd-40b0-aa99-e624d97946a6","ios":"levelo://app?vid=a14cfc8d-fbbd-40b0-aa99-e624d97946a6"},"vehicle_type_id":"4","last_reported":1729235370,"current_range_meters":29600,"station_id":"ce4bhph2rcd13ifvqheg","pricing_plan_id":"cebpf4jnsgd1na2vs0mg"},{"bike_id":"829ff204-f1fe-4f37-b928-9d0b522468d2","system_id":"levelo_inurba_marseille","lat":43.2907,"lon":5.37161,"is_reserved":false,"is_disabled":false,"rental_uris":{"android":"levelo://app?vid=829ff204-f1fe-4f37-b928-9d0b522468d2","ios":"levelo://app?vid=829ff204-f1fe-4f37-b928-9d0b522468d2"},"vehicle_type_id":"4","last_reported":1729235370,"current_range_meters":36800,"station_id":"ce4bh5p2rcd13ifvqe4g","pricing_plan_id":"cebpf4jnsgd1na2vs0mg"},{"bike_id":"534735be-5259-4af7-841b-b6f72efa2cd3","system_id":"levelo_inurba_marseille","lat":43.29229,"lon":5.36074,"is_reserved":false,"is_disabled":false,"rental_uris":{"android":"levelo://app?vid=534735be-5259-4af7-841b-b6f72efa2cd3","ios":"levelo://app?vid=534735be-5259-4af7-841b-b6f72efa2cd3"},"vehicle_type_id":"4","last_reported":1729235370,"current_range_meters":14000,"station_id":"ce4bhbh2rcd13ifvqeqg","pricing_plan_id":"cebpf4jnsgd1na2vs0mg"},{"bike_id":"bf2da088-4c9f-46c9-b0a3-3060225e4728","system_id":"levelo_inurba_marseille","lat":43.28724,"lon":5.37939,"is_reserved":false,"is_disabled":false,"rental_uris":{"android":"levelo://app?vid=bf2da088-4c9f-46c9-b0a3-3060225e4728","ios":"levelo://app?vid=bf2da088-4c9f-46c9-b0a3-3060225e4728"},"vehicle_type_id":"4","last_reported":1729235370,"current_range_meters":23200,"station_id":"ce4bh9p2rcd13ifvqec0","pricing_plan_id":"cebpf4jnsgd1na2vs0mg"},{"bike_id":"874494de-7452-4f47-9fec-c5ec79478035","system_id":"levelo_inurba_marseille","lat":43.23963,"lon":5.36639,"is_reserved":false,"is_disabled":false,"rental_uris":{"android":"levelo://app?vid=874494de-7452-4f47-9fec-c5ec79478035","ios":"levelo://app?vid=874494de-7452-4f47-9fec-c5ec79478035"},"vehicle_type_id":"4","last_reported":1729235370,"current_range_meters":24800,"station_id":"ce4bhi12rcd13ifvqfp0","pricing_plan_id":"cebpf4jnsgd1na2vs0mg"},{"bike_id":"8b33911e-5d42-46bd-b00d-c1d5ce72f577","system_id":"levelo_inurba_marseille","lat":43.23193,"lon":5.39985,"is_reserved":false,"is_disabled":false,"rental_uris":{"android":"levelo://app?vid=8b33911e-5d42-46bd-b00d-c1d5ce72f577","ios":"levelo://app?vid=8b33911e-5d42-46bd-b00d-c1d5ce72f577"},"vehicle_type_id":"4","last_reported":1729235370,"current_range_meters":38800,"station_id":"ce4bhn12rcd13ifvqgqg","pricing_plan_id":"cebpf4jnsgd1na2vs0mg"},{"bike_id":"b87f9f5e-58eb-4c9d-a532-529a7f767e15","system_id":"levelo_inurba_marseille","lat":43.31352,"lon":5.36708,"is_reserved":false,"is_disabled":false,"rental_uris":{"android":"levelo://app?vid=b87f9f5e-58eb-4c9d-a532-529a7f767e15","ios":"levelo://app?vid=b87f9f5e-58eb-4c9d-a532-529a7f767e15"},"vehicle_type_id":"4","last_reported":1729235370,"current_range_meters":32400,"station_id":"ce4bgr92rcd13ifvqc6g","pricing_plan_id":"cebpf4jnsgd1na2vs0mg"},{"bike_id":"852e865f-1f2a-406c-8b0a-0c57fbf7153f","system_id":"levelo_inurba_marseille","lat":43.31885,"lon":5.40738,"is_reserved":false,"is_disabled":false,"rental_uris":{"android":"levelo://app?vid=852e865f-1f2a-406c-8b0a-0c57fbf7153f","ios":"levelo://app?vid=852e865f-1f2a-406c-8b0a-0c57fbf7153f"},"vehicle_type_id":"4","last_reported":1729235370,"current_range_meters":24400,"station_id":"ce4bhq12rcd13ifvqhig","pricing_plan_id":"cebpf4jnsgd1na2vs0mg"},{"bike_id":"6dd67ec1-d844-4dbe-831d-85c3fcafe8d6","system_id":"levelo_inurba_marseille","lat":43.26206,"lon":5.37923,"is_reserved":false,"is_disabled":false,"rental_uris":{"android":"levelo://app?vid=6dd67ec1-d844-4dbe-831d-85c3fcafe8d6","ios":"levelo://app?vid=6dd67ec1-d844-4dbe-831d-85c3fcafe8d6"},"vehicle_type_id":"4","last_reported":1729235370,"current_range_meters":24400,"station_id":"ce4bhjp2rcd13ifvqg90","pricing_plan_id":"cebpf4jnsgd1na2vs0mg"},{"bike_id":"0994d7f0-fa2e-480f-b967-2b1e1b476b78","system_id":"levelo_inurba_marseille","lat":43.23184,"lon":5.35556,"is_reserved":false,"is_disabled":false,"rental_uris":{"android":"levelo://app?vid=0994d7f0-fa2e-480f-b967-2b1e1b476b78","ios":"levelo://app?vid=0994d7f0-fa2e-480f-b967-2b1e1b476b78"},"vehicle_type_id":"4","last_reported":1729235370,"current_range_meters":9600,"station_id":"ce4bhu92rcd13ifvqi70","pricing_plan_id":"cebpf4jnsgd1na2vs0mg"},{"bike_id":"cafacf31-3dc4-4662-b543-8a143108fe4d","system_id":"levelo_inurba_marseille","lat":43.23188,"lon":5.39977,"is_reserved":false,"is_disabled":false,"rental_uris":{"android":"levelo://app?vid=cafacf31-3dc4-4662-b543-8a143108fe4d","ios":"levelo://app?vid=cafacf31-3dc4-4662-b543-8a143108fe4d"},"vehicle_type_id":"4","last_reported":1729235370,"current_range_meters":19600,"station_id":"ce4bhn12rcd13ifvqgqg","pricing_plan_id":"cebpf4jnsgd1na2vs0mg"},{"bike_id":"22c39253-4373-4654-b8d6-6dd622f66580","system_id":"levelo_inurba_marseille","lat":43.3254,"lon":5.41442,"is_reserved":false,"is_disabled":false,"rental_uris":{"android":"levelo://app?vid=22c39253-4373-4654-b8d6-6dd622f66580","ios":"levelo://app?vid=22c39253-4373-4654-b8d6-6dd622f66580"},"vehicle_type_id":"4","last_reported":1729235370,"current_range_meters":28400,"station_id":"ce4bhq12rcd13ifvqhhg","pricing_plan_id":"cebpf4jnsgd1na2vs0mg"},{"bike_id":"66ccc46d-618e-4760-b09c-27382152bdab","system_id":"levelo_inurba_marseille","lat":43.232,"lon":5.35548,"is_reserved":false,"is_disabled":false,"rental_uris":{"android":"levelo://app?vid=66ccc46d-618e-4760-b09c-27382152bdab","ios":"levelo://app?vid=66ccc46d-618e-4760-b09c-27382152bdab"},"vehicle_type_id":"4","last_reported":1729235370,"current_range_meters":28800,"station_id":"ce4bhu92rcd13ifvqi70","pricing_plan_id":"cebpf4jnsgd1na2vs0mg"},{"bike_id":"eeaa6fb1-3c65-47c0-9f91-f0ae44ab158a","system_id":"levelo_inurba_marseille","lat":43.30885,"lon":5.3719,"is_reserved":false,"is_disabled":false,"rental_uris":{"android":"levelo://app?vid=eeaa6fb1-3c65-47c0-9f91-f0ae44ab158a","ios":"levelo://app?vid=eeaa6fb1-3c65-47c0-9f91-f0ae44ab158a"},"vehicle_type_id":"4","last_reported":1729235370,"current_range_meters":29600,"station_id":"ce4bguh2rcd13ifvqckg","pricing_plan_id":"cebpf4jnsgd1na2vs0mg"},{"bike_id":"459c9796-7014-4173-b550-5c1ca2dbf85f","system_id":"levelo_inurba_marseille","lat":43.30202,"lon":5.36626,"is_reserved":false,"is_disabled":false,"rental_uris":{"android":"levelo://app?vid=459c9796-7014-4173-b550-5c1ca2dbf85f","ios":"levelo://app?vid=459c9796-7014-4173-b550-5c1ca2dbf85f"},"vehicle_type_id":"4","last_reported":1729235370,"current_range_meters":29600,"station_id":"ce4bgrh2rcd13ifvqc8g","pricing_plan_id":"cebpf4jnsgd1na2vs0mg"},{"bike_id":"8d481af8-b62c-4acc-a2e6-1539cd665ab7","system_id":"levelo_inurba_marseille","lat":43.27486,"lon":5.42462,"is_reserved":false,"is_disabled":false,"rental_uris":{"android":"levelo://app?vid=8d481af8-b62c-4acc-a2e6-1539cd665ab7","ios":"levelo://app?vid=8d481af8-b62c-4acc-a2e6-1539cd665ab7"},"vehicle_type_id":"4","last_reported":1729235370,"current_range_meters":24400,"station_id":"ce4bhn92rcd13ifvqgrg","pricing_plan_id":"cebpf4jnsgd1na2vs0mg"},{"bike_id":"00898167-0eb0-40ce-9671-968a45c2492b","system_id":"levelo_inurba_marseille","lat":43.30471,"lon":5.379,"is_reserved":false,"is_disabled":false,"rental_uris":{"android":"levelo://app?vid=00898167-0eb0-40ce-9671-968a45c2492b","ios":"levelo://app?vid=00898167-0eb0-40ce-9671-968a45c2492b"},"vehicle_type_id":"4","last_reported":1729235370,"current_range_meters":23200,"station_id":"ce4bgup2rcd13ifvqcn0","pricing_plan_id":"cebpf4jnsgd1na2vs0mg"},{"bike_id":"72ce77f7-81c8-49a3-8760-dfcdc23fbddb","system_id":"levelo_inurba_marseille","lat":43.27075,"lon":5.42285,"is_reserved":false,"is_disabled":false,"rental_uris":{"android":"levelo://app?vid=72ce77f7-81c8-49a3-8760-dfcdc23fbddb","ios":"levelo://app?vid=72ce77f7-81c8-49a3-8760-dfcdc23fbddb"},"vehicle_type_id":"4","last_reported":1729235370,"current_range_meters":26800,"station_id":"ce4bhk92rcd13ifvqgb0","pricing_plan_id":"cebpf4jnsgd1na2vs0mg"},{"bike_id":"fc262b45-2b88-4d3d-8020-e7c946d1fec3","system_id":"levelo_inurba_marseille","lat":43.32113,"lon":5.36772,"is_reserved":false,"is_disabled":false,"rental_uris":{"android":"levelo://app?vid=fc262b45-2b88-4d3d-8020-e7c946d1fec3","ios":"levelo://app?vid=fc262b45-2b88-4d3d-8020-e7c946d1fec3"},"vehicle_type_id":"4","last_reported":1729235370,"current_range_meters":38400,"station_id":"ce4bhrh2rcd13ifvqhug","pricing_plan_id":"cebpf4jnsgd1na2vs0mg"},{"bike_id":"d7992096-705f-4c05-a4cb-e8657ad3ee19","system_id":"levelo_inurba_marseille","lat":43.31341,"lon":5.36735,"is_reserved":false,"is_disabled":false,"rental_uris":{"android":"levelo://app?vid=d7992096-705f-4c05-a4cb-e8657ad3ee19","ios":"levelo://app?vid=d7992096-705f-4c05-a4cb-e8657ad3ee19"},"vehicle_type_id":"4","last_reported":1729235370,"current_range_meters":32000,"station_id":"ce4bgr92rcd13ifvqc6g","pricing_plan_id":"cebpf4jnsgd1na2vs0mg"},{"bike_id":"2a8d8e0d-09f4-4ada-9e2b-a6718972e982","system_id":"levelo_inurba_marseille","lat":43.23158,"lon":5.43703,"is_reserved":false,"is_disabled":false,"rental_uris":{"android":"levelo://app?vid=2a8d8e0d-09f4-4ada-9e2b-a6718972e982","ios":"levelo://app?vid=2a8d8e0d-09f4-4ada-9e2b-a6718972e982"},"vehicle_type_id":"4","last_reported":1729235370,"current_range_meters":19600,"station_id":"ce4bhmp2rcd13ifvqgog","pricing_plan_id":"cebpf4jnsgd1na2vs0mg"},{"bike_id":"907d90e2-7e08-4846-bbc2-01977b54a9bd","system_id":"levelo_inurba_marseille","lat":43.24168,"lon":5.36392,"is_reserved":false,"is_disabled":false,"rental_uris":{"android":"levelo://app?vid=907d90e2-7e08-4846-bbc2-01977b54a9bd","ios":"levelo://app?vid=907d90e2-7e08-4846-bbc2-01977b54a9bd"},"vehicle_type_id":"4","last_reported":1729235370,"current_range_meters":19200,"station_id":"cpo36qri1sfpv3e86is0","pricing_plan_id":"cebpf4jnsgd1na2vs0mg"},{"bike_id":"de4c9c8f-6716-454d-ac5c-28217a9a06c6","system_id":"levelo_inurba_marseille","lat":43.31353,"lon":5.367,"is_reserved":false,"is_disabled":false,"rental_uris":{"android":"levelo://app?vid=de4c9c8f-6716-454d-ac5c-28217a9a06c6","ios":"levelo://app?vid=de4c9c8f-6716-454d-ac5c-28217a9a06c6"},"vehicle_type_id":"4","last_reported":1729235370,"current_range_meters":24800,"station_id":"ce4bgr92rcd13ifvqc6g","pricing_plan_id":"cebpf4jnsgd1na2vs0mg"},{"bike_id":"aae3b842-434b-48e3-983b-968be30e2581","system_id":"levelo_inurba_marseille","lat":43.24388,"lon":5.3706,"is_reserved":false,"is_disabled":false,"rental_uris":{"android":"levelo://app?vid=aae3b842-434b-48e3-983b-968be30e2581","ios":"levelo://app?vid=aae3b842-434b-48e3-983b-968be30e2581"},"vehicle_type_id":"4","last_reported":1729235370,"current_range_meters":28400,"station_id":"ce4bhhh2rcd13ifvqfk0","pricing_plan_id":"cebpf4jnsgd1na2vs0mg"},{"bike_id":"b8d7e703-5d73-4b1d-9a9a-ff71dfc558fd","system_id":"levelo_inurba_marseille","lat":43.30305,"lon":5.36906,"is_reserved":false,"is_disabled":false,"rental_uris":{"android":"levelo://app?vid=b8d7e703-5d73-4b1d-9a9a-ff71dfc558fd","ios":"levelo://app?vid=b8d7e703-5d73-4b1d-9a9a-ff71dfc558fd"},"vehicle_type_id":"4","last_reported":1729235370,"current_range_meters":32800,"station_id":"ce4bgqh2rcd13ifvqc5g","pricing_plan_id":"cebpf4jnsgd1na2vs0mg"},{"bike_id":"2db49f82-1252-4071-9057-14d5eafb22c3","system_id":"levelo_inurba_marseille","lat":43.27493,"lon":5.42461,"is_reserved":false,"is_disabled":false,"rental_uris":{"android":"levelo://app?vid=2db49f82-1252-4071-9057-14d5eafb22c3","ios":"levelo://app?vid=2db49f82-1252-4071-9057-14d5eafb22c3"},"vehicle_type_id":"4","last_reported":1729235370,"current_range_meters":30400,"station_id":"ce4bhn92rcd13ifvqgrg","pricing_plan_id":"cebpf4jnsgd1na2vs0mg"},{"bike_id":"67dd3882-dd10-43e1-ba00-29a021295e69","system_id":"levelo_inurba_marseille","lat":43.28941,"lon":5.36376,"is_reserved":false,"is_disabled":false,"rental_uris":{"android":"levelo://app?vid=67dd3882-dd10-43e1-ba00-29a021295e69","ios":"levelo://app?vid=67dd3882-dd10-43e1-ba00-29a021295e69"},"vehicle_type_id":"4","last_reported":1729235370,"current_range_meters":14400,"station_id":"ce4bhc92rcd13ifvqetg","pricing_plan_id":"cebpf4jnsgd1na2vs0mg"},{"bike_id":"19a802b0-18d9-4327-aaa6-2f16eac8c17f","system_id":"levelo_inurba_marseille","lat":43.29224,"lon":5.36069,"is_reserved":false,"is_disabled":false,"rental_uris":{"android":"levelo://app?vid=19a802b0-18d9-4327-aaa6-2f16eac8c17f","ios":"levelo://app?vid=19a802b0-18d9-4327-aaa6-2f16eac8c17f"},"vehicle_type_id":"4","last_reported":1729235370,"current_range_meters":38400,"station_id":"ce4bhbh2rcd13ifvqeqg","pricing_plan_id":"cebpf4jnsgd1na2vs0mg"},{"bike_id":"43fdde0f-33ee-4944-81bd-0a22df7d4f67","system_id":"levelo_inurba_marseille","lat":43.24075,"lon":5.37764,"is_reserved":false,"is_disabled":false,"rental_uris":{"android":"levelo://app?vid=43fdde0f-33ee-4944-81bd-0a22df7d4f67","ios":"levelo://app?vid=43fdde0f-33ee-4944-81bd-0a22df7d4f67"},"vehicle_type_id":"4","last_reported":1729235370,"current_range_meters":36400,"station_id":"ce4bhnp2rcd13ifvqgvg","pricing_plan_id":"cebpf4jnsgd1na2vs0mg"},{"bike_id":"94dad7f8-6585-4b37-b691-74420d23ef13","system_id":"levelo_inurba_marseille","lat":43.30799,"lon":5.43522,"is_reserved":false,"is_disabled":false,"rental_uris":{"android":"levelo://app?vid=94dad7f8-6585-4b37-b691-74420d23ef13","ios":"levelo://app?vid=94dad7f8-6585-4b37-b691-74420d23ef13"},"vehicle_type_id":"4","last_reported":1729235370,"current_range_meters":36800,"station_id":"ce4bhph2rcd13ifvqheg","pricing_plan_id":"cebpf4jnsgd1na2vs0mg"},{"bike_id":"935416bb-7ba0-4e30-8da3-f93785ee8717","system_id":"levelo_inurba_marseille","lat":43.30883,"lon":5.37194,"is_reserved":false,"is_disabled":false,"rental_uris":{"android":"levelo://app?vid=935416bb-7ba0-4e30-8da3-f93785ee8717","ios":"levelo://app?vid=935416bb-7ba0-4e30-8da3-f93785ee8717"},"vehicle_type_id":"4","last_reported":1729235370,"current_range_meters":36400,"station_id":"ce4bguh2rcd13ifvqckg","pricing_plan_id":"cebpf4jnsgd1na2vs0mg"},{"bike_id":"4562e9bb-7c1e-4e0e-95e1-858d0f8d86d1","system_id":"levelo_inurba_marseille","lat":43.2319,"lon":5.35544,"is_reserved":false,"is_disabled":false,"rental_uris":{"android":"levelo://app?vid=4562e9bb-7c1e-4e0e-95e1-858d0f8d86d1","ios":"levelo://app?vid=4562e9bb-7c1e-4e0e-95e1-858d0f8d86d1"},"vehicle_type_id":"4","last_reported":1729235370,"current_range_meters":36400,"station_id":"ce4bhu92rcd13ifvqi70","pricing_plan_id":"cebpf4jnsgd1na2vs0mg"},{"bike_id":"6837ac97-30a8-4145-8047-b6d6df61ac48","system_id":"levelo_inurba_marseille","lat":43.23185,"lon":5.39993,"is_reserved":false,"is_disabled":false,"rental_uris":{"android":"levelo://app?vid=6837ac97-30a8-4145-8047-b6d6df61ac48","ios":"levelo://app?vid=6837ac97-30a8-4145-8047-b6d6df61ac48"},"vehicle_type_id":"4","last_reported":1729235370,"current_range_meters":38800,"station_id":"ce4bhn12rcd13ifvqgqg","pricing_plan_id":"cebpf4jnsgd1na2vs0mg"},{"bike_id":"2140b6a3-5118-4150-823e-9225aeb56201","system_id":"levelo_inurba_marseille","lat":43.23199,"lon":5.35549,"is_reserved":false,"is_disabled":false,"rental_uris":{"android":"levelo://app?vid=2140b6a3-5118-4150-823e-9225aeb56201","ios":"levelo://app?vid=2140b6a3-5118-4150-823e-9225aeb56201"},"vehicle_type_id":"4","last_reported":1729235370,"current_range_meters":32800,"station_id":"ce4bhu92rcd13ifvqi70","pricing_plan_id":"cebpf4jnsgd1na2vs0mg"},{"bike_id":"2d26828d-d90f-4409-8e3f-2bdaa5ca0cb2","system_id":"levelo_inurba_marseille","lat":43.23189,"lon":5.39984,"is_reserved":false,"is_disabled":false,"rental_uris":{"android":"levelo://app?vid=2d26828d-d90f-4409-8e3f-2bdaa5ca0cb2","ios":"levelo://app?vid=2d26828d-d90f-4409-8e3f-2bdaa5ca0cb2"},"vehicle_type_id":"4","last_reported":1729235370,"current_range_meters":34000,"station_id":"ce4bhn12rcd13ifvqgqg","pricing_plan_id":"cebpf4jnsgd1na2vs0mg"},{"bike_id":"66b00399-45e1-4f0a-af69-00121535fe8c","system_id":"levelo_inurba_marseille","lat":43.30166,"lon":5.38073,"is_reserved":false,"is_disabled":false,"rental_uris":{"android":"levelo://app?vid=66b00399-45e1-4f0a-af69-00121535fe8c","ios":"levelo://app?vid=66b00399-45e1-4f0a-af69-00121535fe8c"},"vehicle_type_id":"4","last_reported":1729235370,"current_range_meters":20800,"station_id":"ce4bgjp2rcd13ifvqbh0","pricing_plan_id":"cebpf4jnsgd1na2vs0mg"},{"bike_id":"53434d6f-a84d-4c28-940d-dfe33ad91507","system_id":"levelo_inurba_marseille","lat":43.27497,"lon":5.42459,"is_reserved":false,"is_disabled":false,"rental_uris":{"android":"levelo://app?vid=53434d6f-a84d-4c28-940d-dfe33ad91507","ios":"levelo://app?vid=53434d6f-a84d-4c28-940d-dfe33ad91507"},"vehicle_type_id":"4","last_reported":1729235370,"current_range_meters":19200,"station_id":"ce4bhn92rcd13ifvqgrg","pricing_plan_id":"cebpf4jnsgd1na2vs0mg"},{"bike_id":"145173af-b612-433d-a62f-4987c6ba9cb7","system_id":"levelo_inurba_marseille","lat":43.30296,"lon":5.36867,"is_reserved":false,"is_disabled":false,"rental_uris":{"android":"levelo://app?vid=145173af-b612-433d-a62f-4987c6ba9cb7","ios":"levelo://app?vid=145173af-b612-433d-a62f-4987c6ba9cb7"},"vehicle_type_id":"4","last_reported":1729235370,"current_range_meters":7200,"station_id":"ce4bgqh2rcd13ifvqc5g","pricing_plan_id":"cebpf4jnsgd1na2vs0mg"},{"bike_id":"73571360-6624-497e-ae84-61a3fbd766b0","system_id":"levelo_inurba_marseille","lat":43.255,"lon":5.37653,"is_reserved":false,"is_disabled":false,"rental_uris":{"android":"levelo://app?vid=73571360-6624-497e-ae84-61a3fbd766b0","ios":"levelo://app?vid=73571360-6624-497e-ae84-61a3fbd766b0"},"vehicle_type_id":"4","last_reported":1729235370,"current_range_meters":38800,"station_id":"ce4bhh12rcd13ifvqff0","pricing_plan_id":"cebpf4jnsgd1na2vs0mg"},{"bike_id":"9a5adff2-e84f-41ae-84d8-ac0a797ab11c","system_id":"levelo_inurba_marseille","lat":43.27494,"lon":5.42453,"is_reserved":false,"is_disabled":false,"rental_uris":{"android":"levelo://app?vid=9a5adff2-e84f-41ae-84d8-ac0a797ab11c","ios":"levelo://app?vid=9a5adff2-e84f-41ae-84d8-ac0a797ab11c"},"vehicle_type_id":"4","last_reported":1729235370,"current_range_meters":32400,"station_id":"ce4bhn92rcd13ifvqgrg","pricing_plan_id":"cebpf4jnsgd1na2vs0mg"},{"bike_id":"fa9433b4-083f-47af-bd7b-c30153b643c4","system_id":"levelo_inurba_marseille","lat":43.27076,"lon":5.42285,"is_reserved":false,"is_disabled":false,"rental_uris":{"android":"levelo://app?vid=fa9433b4-083f-47af-bd7b-c30153b643c4","ios":"levelo://app?vid=fa9433b4-083f-47af-bd7b-c30153b643c4"},"vehicle_type_id":"4","last_reported":1729235370,"current_range_meters":24800,"station_id":"ce4bhk92rcd13ifvqgb0","pricing_plan_id":"cebpf4jnsgd1na2vs0mg"},{"bike_id":"8ccc49e7-b8f3-4403-a194-5aff3bdafcc3","system_id":"levelo_inurba_marseille","lat":43.33612,"lon":5.41034,"is_reserved":false,"is_disabled":false,"rental_uris":{"android":"levelo://app?vid=8ccc49e7-b8f3-4403-a194-5aff3bdafcc3","ios":"levelo://app?vid=8ccc49e7-b8f3-4403-a194-5aff3bdafcc3"},"vehicle_type_id":"4","last_reported":1729235370,"current_range_meters":20400,"station_id":"ce4bhqh2rcd13ifvqhmg","pricing_plan_id":"cebpf4jnsgd1na2vs0mg"},{"bike_id":"521c673e-7033-4999-9ba4-100fe2ca5465","system_id":"levelo_inurba_marseille","lat":43.24643,"lon":5.38892,"is_reserved":false,"is_disabled":false,"rental_uris":{"android":"levelo://app?vid=521c673e-7033-4999-9ba4-100fe2ca5465","ios":"levelo://app?vid=521c673e-7033-4999-9ba4-100fe2ca5465"},"vehicle_type_id":"4","last_reported":1729235370,"current_range_meters":32400,"station_id":"ce4bhg12rcd13ifvqf60","pricing_plan_id":"cebpf4jnsgd1na2vs0mg"},{"bike_id":"3e4e242e-8e51-4d53-b6f1-b097266b72b3","system_id":"levelo_inurba_marseille","lat":43.24081,"lon":5.37764,"is_reserved":false,"is_disabled":false,"rental_uris":{"android":"levelo://app?vid=3e4e242e-8e51-4d53-b6f1-b097266b72b3","ios":"levelo://app?vid=3e4e242e-8e51-4d53-b6f1-b097266b72b3"},"vehicle_type_id":"4","last_reported":1729235370,"current_range_meters":36400,"station_id":"ce4bhnp2rcd13ifvqgvg","pricing_plan_id":"cebpf4jnsgd1na2vs0mg"},{"bike_id":"43cd1e38-7127-44db-b64a-c536ff753899","system_id":"levelo_inurba_marseille","lat":43.29563,"lon":5.3996,"is_reserved":false,"is_disabled":false,"rental_uris":{"android":"levelo://app?vid=43cd1e38-7127-44db-b64a-c536ff753899","ios":"levelo://app?vid=43cd1e38-7127-44db-b64a-c536ff753899"},"vehicle_type_id":"4","last_reported":1729235370,"current_range_meters":10000,"station_id":"ce4bh312rcd13ifvqdj0","pricing_plan_id":"cebpf4jnsgd1na2vs0mg"},{"bike_id":"7772d39f-5e28-445c-af91-069b0cf63793","system_id":"levelo_inurba_marseille","lat":43.33765,"lon":5.37438,"is_reserved":false,"is_disabled":false,"rental_uris":{"android":"levelo://app?vid=7772d39f-5e28-445c-af91-069b0cf63793","ios":"levelo://app?vid=7772d39f-5e28-445c-af91-069b0cf63793"},"vehicle_type_id":"4","last_reported":1729235370,"current_range_meters":14400,"station_id":"","pricing_plan_id":"cebpf4jnsgd1na2vs0mg"},{"bike_id":"056a2429-d1d3-42a9-be72-93aecc9eb4c6","system_id":"levelo_inurba_marseille","lat":43.33024,"lon":5.3905,"is_reserved":false,"is_disabled":false,"rental_uris":{"android":"levelo://app?vid=056a2429-d1d3-42a9-be72-93aecc9eb4c6","ios":"levelo://app?vid=056a2429-d1d3-42a9-be72-93aecc9eb4c6"},"vehicle_type_id":"4","last_reported":1729235370,"current_range_meters":14400,"station_id":"ce4bhr92rcd13ifvqhrg","pricing_plan_id":"cebpf4jnsgd1na2vs0mg"},{"bike_id":"5d9373cb-e293-4e08-908a-5e40ac6e38b7","system_id":"levelo_inurba_marseille","lat":43.3254,"lon":5.41437,"is_reserved":false,"is_disabled":false,"rental_uris":{"android":"levelo://app?vid=5d9373cb-e293-4e08-908a-5e40ac6e38b7","ios":"levelo://app?vid=5d9373cb-e293-4e08-908a-5e40ac6e38b7"},"vehicle_type_id":"4","last_reported":1729235370,"current_range_meters":33200,"station_id":"ce4bhq12rcd13ifvqhhg","pricing_plan_id":"cebpf4jnsgd1na2vs0mg"},{"bike_id":"3213665e-989c-4d22-9f5a-31c8522597dd","system_id":"levelo_inurba_marseille","lat":43.296,"lon":5.36142,"is_reserved":false,"is_disabled":false,"rental_uris":{"android":"levelo://app?vid=3213665e-989c-4d22-9f5a-31c8522597dd","ios":"levelo://app?vid=3213665e-989c-4d22-9f5a-31c8522597dd"},"vehicle_type_id":"4","last_reported":1729235370,"current_range_meters":25200,"station_id":"","pricing_plan_id":"cebpf4jnsgd1na2vs0mg"},{"bike_id":"cddb2538-acdb-46a5-bc95-6e0a8d74ef0c","system_id":"levelo_inurba_marseille","lat":43.30801,"lon":5.43525,"is_reserved":false,"is_disabled":false,"rental_uris":{"android":"levelo://app?vid=cddb2538-acdb-46a5-bc95-6e0a8d74ef0c","ios":"levelo://app?vid=cddb2538-acdb-46a5-bc95-6e0a8d74ef0c"},"vehicle_type_id":"4","last_reported":1729235370,"current_range_meters":32800,"station_id":"ce4bhph2rcd13ifvqheg","pricing_plan_id":"cebpf4jnsgd1na2vs0mg"},{"bike_id":"8f431045-551e-4ac4-a635-d10b10d8159d","system_id":"levelo_inurba_marseille","lat":43.30534,"lon":5.36551,"is_reserved":false,"is_disabled":false,"rental_uris":{"android":"levelo://app?vid=8f431045-551e-4ac4-a635-d10b10d8159d","ios":"levelo://app?vid=8f431045-551e-4ac4-a635-d10b10d8159d"},"vehicle_type_id":"4","last_reported":1729235370,"current_range_meters":18800,"station_id":"ce4bgs12rcd13ifvqcag","pricing_plan_id":"cebpf4jnsgd1na2vs0mg"},{"bike_id":"5f50933a-822a-4388-8612-62a3f233b7b7","system_id":"levelo_inurba_marseille","lat":43.23155,"lon":5.43718,"is_reserved":false,"is_disabled":false,"rental_uris":{"android":"levelo://app?vid=5f50933a-822a-4388-8612-62a3f233b7b7","ios":"levelo://app?vid=5f50933a-822a-4388-8612-62a3f233b7b7"},"vehicle_type_id":"4","last_reported":1729235370,"current_range_meters":28400,"station_id":"ce4bhmp2rcd13ifvqgog","pricing_plan_id":"cebpf4jnsgd1na2vs0mg"},{"bike_id":"8f95a266-11aa-478e-82a1-83102654e976","system_id":"levelo_inurba_marseille","lat":43.27429,"lon":5.39407,"is_reserved":false,"is_disabled":false,"rental_uris":{"android":"levelo://app?vid=8f95a266-11aa-478e-82a1-83102654e976","ios":"levelo://app?vid=8f95a266-11aa-478e-82a1-83102654e976"},"vehicle_type_id":"4","last_reported":1729235370,"current_range_meters":38000,"station_id":"ce4bhdp2rcd13ifvqf20","pricing_plan_id":"cebpf4jnsgd1na2vs0mg"},{"bike_id":"1641b826-604a-4181-8231-dca386f637a6","system_id":"levelo_inurba_marseille","lat":43.23186,"lon":5.35555,"is_reserved":false,"is_disabled":false,"rental_uris":{"android":"levelo://app?vid=1641b826-604a-4181-8231-dca386f637a6","ios":"levelo://app?vid=1641b826-604a-4181-8231-dca386f637a6"},"vehicle_type_id":"4","last_reported":1729235370,"current_range_meters":30400,"station_id":"ce4bhu92rcd13ifvqi70","pricing_plan_id":"cebpf4jnsgd1na2vs0mg"},{"bike_id":"89211ee2-076f-4df3-92bd-cd8885f2e76d","system_id":"levelo_inurba_marseille","lat":43.23193,"lon":5.35544,"is_reserved":false,"is_disabled":false,"rental_uris":{"android":"levelo://app?vid=89211ee2-076f-4df3-92bd-cd8885f2e76d","ios":"levelo://app?vid=89211ee2-076f-4df3-92bd-cd8885f2e76d"},"vehicle_type_id":"4","last_reported":1729235370,"current_range_meters":29600,"station_id":"ce4bhu92rcd13ifvqi70","pricing_plan_id":"cebpf4jnsgd1na2vs0mg"},{"bike_id":"7e031d97-c21e-4a8d-92a1-2338d4aebb71","system_id":"levelo_inurba_marseille","lat":43.29982,"lon":5.3718,"is_reserved":false,"is_disabled":false,"rental_uris":{"android":"levelo://app?vid=7e031d97-c21e-4a8d-92a1-2338d4aebb71","ios":"levelo://app?vid=7e031d97-c21e-4a8d-92a1-2338d4aebb71"},"vehicle_type_id":"4","last_reported":1729235370,"current_range_meters":28000,"station_id":"","pricing_plan_id":"cebpf4jnsgd1na2vs0mg"},{"bike_id":"e2d96579-ea64-404c-b9fa-501833cdd63e","system_id":"levelo_inurba_marseille","lat":43.33613,"lon":5.41029,"is_reserved":false,"is_disabled":false,"rental_uris":{"android":"levelo://app?vid=e2d96579-ea64-404c-b9fa-501833cdd63e","ios":"levelo://app?vid=e2d96579-ea64-404c-b9fa-501833cdd63e"},"vehicle_type_id":"4","last_reported":1729235370,"current_range_meters":19200,"station_id":"ce4bhqh2rcd13ifvqhmg","pricing_plan_id":"cebpf4jnsgd1na2vs0mg"},{"bike_id":"c64cba4b-b182-401f-aebb-03a0c49ce9bb","system_id":"levelo_inurba_marseille","lat":43.25938,"lon":5.40906,"is_reserved":false,"is_disabled":false,"rental_uris":{"android":"levelo://app?vid=c64cba4b-b182-401f-aebb-03a0c49ce9bb","ios":"levelo://app?vid=c64cba4b-b182-401f-aebb-03a0c49ce9bb"},"vehicle_type_id":"4","last_reported":1729235370,"current_range_meters":2800,"station_id":"ce4bhm92rcd13ifvqglg","pricing_plan_id":"cebpf4jnsgd1na2vs0mg"},{"bike_id":"21d1f8ef-3dea-4cf6-ae2f-5dbc36b38fdb","system_id":"levelo_inurba_marseille","lat":43.32657,"lon":5.40994,"is_reserved":false,"is_disabled":false,"rental_uris":{"android":"levelo://app?vid=21d1f8ef-3dea-4cf6-ae2f-5dbc36b38fdb","ios":"levelo://app?vid=21d1f8ef-3dea-4cf6-ae2f-5dbc36b38fdb"},"vehicle_type_id":"4","last_reported":1729235370,"current_range_meters":38800,"station_id":"ce4bhpp2rcd13ifvqhgg","pricing_plan_id":"cebpf4jnsgd1na2vs0mg"},{"bike_id":"e8fa0c67-c553-4a87-9c32-6644007fca22","system_id":"levelo_inurba_marseille","lat":43.28616,"lon":5.35102,"is_reserved":false,"is_disabled":false,"rental_uris":{"android":"levelo://app?vid=e8fa0c67-c553-4a87-9c32-6644007fca22","ios":"levelo://app?vid=e8fa0c67-c553-4a87-9c32-6644007fca22"},"vehicle_type_id":"4","last_reported":1729235370,"current_range_meters":12000,"station_id":"ce4bhch2rcd13ifvqeug","pricing_plan_id":"cebpf4jnsgd1na2vs0mg"},{"bike_id":"6feb38a9-8bd5-465c-b980-a564a75f2489","system_id":"levelo_inurba_marseille","lat":43.31688,"lon":5.40471,"is_reserved":false,"is_disabled":false,"rental_uris":{"android":"levelo://app?vid=6feb38a9-8bd5-465c-b980-a564a75f2489","ios":"levelo://app?vid=6feb38a9-8bd5-465c-b980-a564a75f2489"},"vehicle_type_id":"4","last_reported":1729235370,"current_range_meters":38800,"station_id":"ce4bh012rcd13ifvqd00","pricing_plan_id":"cebpf4jnsgd1na2vs0mg"},{"bike_id":"422d485a-ee3c-4fc3-b2c4-fc8dab31d119","system_id":"levelo_inurba_marseille","lat":43.23964,"lon":5.36625,"is_reserved":false,"is_disabled":false,"rental_uris":{"android":"levelo://app?vid=422d485a-ee3c-4fc3-b2c4-fc8dab31d119","ios":"levelo://app?vid=422d485a-ee3c-4fc3-b2c4-fc8dab31d119"},"vehicle_type_id":"4","last_reported":1729235370,"current_range_meters":22000,"station_id":"ce4bhi12rcd13ifvqfp0","pricing_plan_id":"cebpf4jnsgd1na2vs0mg"},{"bike_id":"87440bd7-4730-412f-b52f-03b263c3d6ba","system_id":"levelo_inurba_marseille","lat":43.23191,"lon":5.35551,"is_reserved":false,"is_disabled":false,"rental_uris":{"android":"levelo://app?vid=87440bd7-4730-412f-b52f-03b263c3d6ba","ios":"levelo://app?vid=87440bd7-4730-412f-b52f-03b263c3d6ba"},"vehicle_type_id":"4","last_reported":1729235370,"current_range_meters":14400,"station_id":"ce4bhu92rcd13ifvqi70","pricing_plan_id":"cebpf4jnsgd1na2vs0mg"},{"bike_id":"ef4dd203-fcc5-4759-ae60-6c03f2e0543e","system_id":"levelo_inurba_marseille","lat":43.30903,"lon":5.36855,"is_reserved":false,"is_disabled":false,"rental_uris":{"android":"levelo://app?vid=ef4dd203-fcc5-4759-ae60-6c03f2e0543e","ios":"levelo://app?vid=ef4dd203-fcc5-4759-ae60-6c03f2e0543e"},"vehicle_type_id":"4","last_reported":1729235370,"current_range_meters":38800,"station_id":"ce4bgn92rcd13ifvqbvg","pricing_plan_id":"cebpf4jnsgd1na2vs0mg"},{"bike_id":"64142e18-e67e-4875-a8d4-91318022c6ab","system_id":"levelo_inurba_marseille","lat":43.24076,"lon":5.37755,"is_reserved":false,"is_disabled":false,"rental_uris":{"android":"levelo://app?vid=64142e18-e67e-4875-a8d4-91318022c6ab","ios":"levelo://app?vid=64142e18-e67e-4875-a8d4-91318022c6ab"},"vehicle_type_id":"4","last_reported":1729235370,"current_range_meters":27600,"station_id":"ce4bhnp2rcd13ifvqgvg","pricing_plan_id":"cebpf4jnsgd1na2vs0mg"},{"bike_id":"d4999d5e-6147-4891-a483-935ec145d5bd","system_id":"levelo_inurba_marseille","lat":43.24072,"lon":5.37768,"is_reserved":false,"is_disabled":false,"rental_uris":{"android":"levelo://app?vid=d4999d5e-6147-4891-a483-935ec145d5bd","ios":"levelo://app?vid=d4999d5e-6147-4891-a483-935ec145d5bd"},"vehicle_type_id":"4","last_reported":1729235370,"current_range_meters":35200,"station_id":"ce4bhnp2rcd13ifvqgvg","pricing_plan_id":"cebpf4jnsgd1na2vs0mg"},{"bike_id":"aca7886c-312e-4e20-85fd-b9012410bad6","system_id":"levelo_inurba_marseille","lat":43.30276,"lon":5.37716,"is_reserved":false,"is_disabled":false,"rental_uris":{"android":"levelo://app?vid=aca7886c-312e-4e20-85fd-b9012410bad6","ios":"levelo://app?vid=aca7886c-312e-4e20-85fd-b9012410bad6"},"vehicle_type_id":"4","last_reported":1729235370,"current_range_meters":37600,"station_id":"ce4bguh2rcd13ifvqcj0","pricing_plan_id":"cebpf4jnsgd1na2vs0mg"},{"bike_id":"f2e0eb79-06d2-4284-9540-1e16fe68288c","system_id":"levelo_inurba_marseille","lat":43.27492,"lon":5.42452,"is_reserved":false,"is_disabled":false,"rental_uris":{"android":"levelo://app?vid=f2e0eb79-06d2-4284-9540-1e16fe68288c","ios":"levelo://app?vid=f2e0eb79-06d2-4284-9540-1e16fe68288c"},"vehicle_type_id":"4","last_reported":1729235370,"current_range_meters":33600,"station_id":"ce4bhn92rcd13ifvqgrg","pricing_plan_id":"cebpf4jnsgd1na2vs0mg"},{"bike_id":"cb443c4a-3cc3-4c6a-a2f4-6f386431b5bc","system_id":"levelo_inurba_marseille","lat":43.27489,"lon":5.42459,"is_reserved":false,"is_disabled":false,"rental_uris":{"android":"levelo://app?vid=cb443c4a-3cc3-4c6a-a2f4-6f386431b5bc","ios":"levelo://app?vid=cb443c4a-3cc3-4c6a-a2f4-6f386431b5bc"},"vehicle_type_id":"4","last_reported":1729235370,"current_range_meters":36800,"station_id":"ce4bhn92rcd13ifvqgrg","pricing_plan_id":"cebpf4jnsgd1na2vs0mg"},{"bike_id":"7576d3b4-07d2-4a55-920d-3e058cf1e6b9","system_id":"levelo_inurba_marseille","lat":43.24078,"lon":5.37765,"is_reserved":false,"is_disabled":false,"rental_uris":{"android":"levelo://app?vid=7576d3b4-07d2-4a55-920d-3e058cf1e6b9","ios":"levelo://app?vid=7576d3b4-07d2-4a55-920d-3e058cf1e6b9"},"vehicle_type_id":"4","last_reported":1729235370,"current_range_meters":25600,"station_id":"ce4bhnp2rcd13ifvqgvg","pricing_plan_id":"cebpf4jnsgd1na2vs0mg"},{"bike_id":"76fec948-8355-4d95-b6f1-e20a2b9cb048","system_id":"levelo_inurba_marseille","lat":43.29798,"lon":5.38092,"is_reserved":false,"is_disabled":false,"rental_uris":{"android":"levelo://app?vid=76fec948-8355-4d95-b6f1-e20a2b9cb048","ios":"levelo://app?vid=76fec948-8355-4d95-b6f1-e20a2b9cb048"},"vehicle_type_id":"4","last_reported":1729235370,"current_range_meters":38000,"station_id":"ce4bgip2rcd13ifvqbb0","pricing_plan_id":"cebpf4jnsgd1na2vs0mg"},{"bike_id":"6d131fc0-fe48-4245-b0ff-86199c9e652e","system_id":"levelo_inurba_marseille","lat":43.30809,"lon":5.38158,"is_reserved":false,"is_disabled":false,"rental_uris":{"android":"levelo://app?vid=6d131fc0-fe48-4245-b0ff-86199c9e652e","ios":"levelo://app?vid=6d131fc0-fe48-4245-b0ff-86199c9e652e"},"vehicle_type_id":"4","last_reported":1729235370,"current_range_meters":24000,"station_id":"ce4bgt12rcd13ifvqce0","pricing_plan_id":"cebpf4jnsgd1na2vs0mg"},{"bike_id":"1be302f9-f11f-474a-bf33-e1b016bb397d","system_id":"levelo_inurba_marseille","lat":43.27487,"lon":5.42461,"is_reserved":false,"is_disabled":false,"rental_uris":{"android":"levelo://app?vid=1be302f9-f11f-474a-bf33-e1b016bb397d","ios":"levelo://app?vid=1be302f9-f11f-474a-bf33-e1b016bb397d"},"vehicle_type_id":"4","last_reported":1729235370,"current_range_meters":9200,"station_id":"ce4bhn92rcd13ifvqgrg","pricing_plan_id":"cebpf4jnsgd1na2vs0mg"},{"bike_id":"6cbc370e-c07a-44b5-ac57-a6e907e1eee6","system_id":"levelo_inurba_marseille","lat":43.3054,"lon":5.3841,"is_reserved":false,"is_disabled":false,"rental_uris":{"android":"levelo://app?vid=6cbc370e-c07a-44b5-ac57-a6e907e1eee6","ios":"levelo://app?vid=6cbc370e-c07a-44b5-ac57-a6e907e1eee6"},"vehicle_type_id":"4","last_reported":1729235370,"current_range_meters":8400,"station_id":"ce4bgg92rcd13ifvqb30","pricing_plan_id":"cebpf4jnsgd1na2vs0mg"},{"bike_id":"b2a5087f-ee0d-4b32-8a93-92715cb5d8a5","system_id":"levelo_inurba_marseille","lat":43.28611,"lon":5.35099,"is_reserved":false,"is_disabled":false,"rental_uris":{"android":"levelo://app?vid=b2a5087f-ee0d-4b32-8a93-92715cb5d8a5","ios":"levelo://app?vid=b2a5087f-ee0d-4b32-8a93-92715cb5d8a5"},"vehicle_type_id":"4","last_reported":1729235370,"current_range_meters":38400,"station_id":"ce4bhch2rcd13ifvqeug","pricing_plan_id":"cebpf4jnsgd1na2vs0mg"},{"bike_id":"63d58401-a2bc-4087-a099-ac5d3de9bc8d","system_id":"levelo_inurba_marseille","lat":43.278664,"lon":5.409974,"is_reserved":false,"is_disabled":false,"rental_uris":{"android":"levelo://app?vid=63d58401-a2bc-4087-a099-ac5d3de9bc8d","ios":"levelo://app?vid=63d58401-a2bc-4087-a099-ac5d3de9bc8d"},"vehicle_type_id":"4","last_reported":1729235370,"current_range_meters":24800,"station_id":"ce4bhnp2rcd13ifvqh0g","pricing_plan_id":"cebpf4jnsgd1na2vs0mg"},{"bike_id":"d98d0247-2955-49db-a184-b845710cd02a","system_id":"levelo_inurba_marseille","lat":43.25573,"lon":5.38225,"is_reserved":false,"is_disabled":false,"rental_uris":{"android":"levelo://app?vid=d98d0247-2955-49db-a184-b845710cd02a","ios":"levelo://app?vid=d98d0247-2955-49db-a184-b845710cd02a"},"vehicle_type_id":"4","last_reported":1729235370,"current_range_meters":28800,"station_id":"ce4bhih2rcd13ifvqfs0","pricing_plan_id":"cebpf4jnsgd1na2vs0mg"},{"bike_id":"f9f64464-c287-4ad0-a5f0-25af2e828287","system_id":"levelo_inurba_marseille","lat":43.29576,"lon":5.37522,"is_reserved":false,"is_disabled":false,"rental_uris":{"android":"levelo://app?vid=f9f64464-c287-4ad0-a5f0-25af2e828287","ios":"levelo://app?vid=f9f64464-c287-4ad0-a5f0-25af2e828287"},"vehicle_type_id":"4","last_reported":1729235370,"current_range_meters":22000,"station_id":"ce4bgh92rcd13ifvqb50","pricing_plan_id":"cebpf4jnsgd1na2vs0mg"},{"bike_id":"d5c7e43a-c647-4561-8463-bf44e98b22c0","system_id":"levelo_inurba_marseille","lat":43.28713,"lon":5.3793,"is_reserved":false,"is_disabled":false,"rental_uris":{"android":"levelo://app?vid=d5c7e43a-c647-4561-8463-bf44e98b22c0","ios":"levelo://app?vid=d5c7e43a-c647-4561-8463-bf44e98b22c0"},"vehicle_type_id":"4","last_reported":1729235370,"current_range_meters":37600,"station_id":"ce4bh9p2rcd13ifvqec0","pricing_plan_id":"cebpf4jnsgd1na2vs0mg"},{"bike_id":"cc6085c8-2d01-4692-a5e1-d2f70a28d205","system_id":"levelo_inurba_marseille","lat":43.24079,"lon":5.37753,"is_reserved":false,"is_disabled":false,"rental_uris":{"android":"levelo://app?vid=cc6085c8-2d01-4692-a5e1-d2f70a28d205","ios":"levelo://app?vid=cc6085c8-2d01-4692-a5e1-d2f70a28d205"},"vehicle_type_id":"4","last_reported":1729235370,"current_range_meters":22000,"station_id":"ce4bhnp2rcd13ifvqgvg","pricing_plan_id":"cebpf4jnsgd1na2vs0mg"},{"bike_id":"367a3c2e-2805-43ca-b1e7-67371bf0da03","system_id":"levelo_inurba_marseille","lat":43.26061,"lon":5.39395,"is_reserved":false,"is_disabled":false,"rental_uris":{"android":"levelo://app?vid=367a3c2e-2805-43ca-b1e7-67371bf0da03","ios":"levelo://app?vid=367a3c2e-2805-43ca-b1e7-67371bf0da03"},"vehicle_type_id":"4","last_reported":1729235370,"current_range_meters":25600,"station_id":"ce4bhh92rcd13ifvqfj0","pricing_plan_id":"cebpf4jnsgd1na2vs0mg"},{"bike_id":"915d8fda-eaef-4a60-9d36-992c88c1e042","system_id":"levelo_inurba_marseille","lat":43.25004,"lon":5.38926,"is_reserved":false,"is_disabled":false,"rental_uris":{"android":"levelo://app?vid=915d8fda-eaef-4a60-9d36-992c88c1e042","ios":"levelo://app?vid=915d8fda-eaef-4a60-9d36-992c88c1e042"},"vehicle_type_id":"4","last_reported":1729235370,"current_range_meters":39200,"station_id":"ce4bhgp2rcd13ifvqfd0","pricing_plan_id":"cebpf4jnsgd1na2vs0mg"},{"bike_id":"a4b88a8f-d604-4f6f-b1a1-e74abc504ac6","system_id":"levelo_inurba_marseille","lat":43.30561,"lon":5.36532,"is_reserved":false,"is_disabled":false,"rental_uris":{"android":"levelo://app?vid=a4b88a8f-d604-4f6f-b1a1-e74abc504ac6","ios":"levelo://app?vid=a4b88a8f-d604-4f6f-b1a1-e74abc504ac6"},"vehicle_type_id":"4","last_reported":1729235370,"current_range_meters":37600,"station_id":"ce4bgs12rcd13ifvqcag","pricing_plan_id":"cebpf4jnsgd1na2vs0mg"},{"bike_id":"a9295dde-ceb4-4ca6-940b-7dd28fc752be","system_id":"levelo_inurba_marseille","lat":43.32482,"lon":5.36566,"is_reserved":false,"is_disabled":false,"rental_uris":{"android":"levelo://app?vid=a9295dde-ceb4-4ca6-940b-7dd28fc752be","ios":"levelo://app?vid=a9295dde-ceb4-4ca6-940b-7dd28fc752be"},"vehicle_type_id":"4","last_reported":1729235370,"current_range_meters":24400,"station_id":"ce4bhs12rcd13ifvqhvg","pricing_plan_id":"cebpf4jnsgd1na2vs0mg"},{"bike_id":"f2fa2f4a-c894-477b-b08a-8bf3fc505540","system_id":"levelo_inurba_marseille","lat":43.28616,"lon":5.35104,"is_reserved":false,"is_disabled":false,"rental_uris":{"android":"levelo://app?vid=f2fa2f4a-c894-477b-b08a-8bf3fc505540","ios":"levelo://app?vid=f2fa2f4a-c894-477b-b08a-8bf3fc505540"},"vehicle_type_id":"4","last_reported":1729235370,"current_range_meters":38000,"station_id":"ce4bhch2rcd13ifvqeug","pricing_plan_id":"cebpf4jnsgd1na2vs0mg"},{"bike_id":"292b9425-1372-40d4-bf0a-fe57aa779a41","system_id":"levelo_inurba_marseille","lat":43.23057,"lon":5.35496,"is_reserved":false,"is_disabled":false,"rental_uris":{"android":"levelo://app?vid=292b9425-1372-40d4-bf0a-fe57aa779a41","ios":"levelo://app?vid=292b9425-1372-40d4-bf0a-fe57aa779a41"},"vehicle_type_id":"4","last_reported":1729235370,"current_range_meters":20800,"station_id":"cpo3342slgdg3j2ifvpg","pricing_plan_id":"cebpf4jnsgd1na2vs0mg"},{"bike_id":"2a5a501f-f647-467b-8667-933bcb0b6e1c","system_id":"levelo_inurba_marseille","lat":43.25938,"lon":5.40915,"is_reserved":false,"is_disabled":false,"rental_uris":{"android":"levelo://app?vid=2a5a501f-f647-467b-8667-933bcb0b6e1c","ios":"levelo://app?vid=2a5a501f-f647-467b-8667-933bcb0b6e1c"},"vehicle_type_id":"4","last_reported":1729235370,"current_range_meters":22000,"station_id":"ce4bhm92rcd13ifvqglg","pricing_plan_id":"cebpf4jnsgd1na2vs0mg"},{"bike_id":"cbb0509b-7841-4fe4-8474-aa3f9fae860f","system_id":"levelo_inurba_marseille","lat":43.2835,"lon":5.38104,"is_reserved":false,"is_disabled":false,"rental_uris":{"android":"levelo://app?vid=cbb0509b-7841-4fe4-8474-aa3f9fae860f","ios":"levelo://app?vid=cbb0509b-7841-4fe4-8474-aa3f9fae860f"},"vehicle_type_id":"4","last_reported":1729235370,"current_range_meters":40000,"station_id":"ce4bh412rcd13ifvqdr0","pricing_plan_id":"cebpf4jnsgd1na2vs0mg"},{"bike_id":"50bf49fe-9e6f-47f4-90e6-2b50195eeda2","system_id":"levelo_inurba_marseille","lat":43.2904,"lon":5.3591,"is_reserved":false,"is_disabled":false,"rental_uris":{"android":"levelo://app?vid=50bf49fe-9e6f-47f4-90e6-2b50195eeda2","ios":"levelo://app?vid=50bf49fe-9e6f-47f4-90e6-2b50195eeda2"},"vehicle_type_id":"4","last_reported":1729235370,"current_range_meters":32000,"station_id":"ce4bha92rcd13ifvqeg0","pricing_plan_id":"cebpf4jnsgd1na2vs0mg"},{"bike_id":"6a0c3d48-aa3b-4c9a-b420-ffd4b9f8b717","system_id":"levelo_inurba_marseille","lat":43.2749,"lon":5.42458,"is_reserved":false,"is_disabled":false,"rental_uris":{"android":"levelo://app?vid=6a0c3d48-aa3b-4c9a-b420-ffd4b9f8b717","ios":"levelo://app?vid=6a0c3d48-aa3b-4c9a-b420-ffd4b9f8b717"},"vehicle_type_id":"4","last_reported":1729235370,"current_range_meters":30800,"station_id":"ce4bhn92rcd13ifvqgrg","pricing_plan_id":"cebpf4jnsgd1na2vs0mg"},{"bike_id":"9f5004db-a03b-400a-a82b-0f673ea3c88e","system_id":"levelo_inurba_marseille","lat":43.2558,"lon":5.3824,"is_reserved":false,"is_disabled":false,"rental_uris":{"android":"levelo://app?vid=9f5004db-a03b-400a-a82b-0f673ea3c88e","ios":"levelo://app?vid=9f5004db-a03b-400a-a82b-0f673ea3c88e"},"vehicle_type_id":"4","last_reported":1729235370,"current_range_meters":9200,"station_id":"ce4bhih2rcd13ifvqfs0","pricing_plan_id":"cebpf4jnsgd1na2vs0mg"},{"bike_id":"38706bf9-3b79-442f-9546-e032d556aede","system_id":"levelo_inurba_marseille","lat":43.31495,"lon":5.37297,"is_reserved":false,"is_disabled":false,"rental_uris":{"android":"levelo://app?vid=38706bf9-3b79-442f-9546-e032d556aede","ios":"levelo://app?vid=38706bf9-3b79-442f-9546-e032d556aede"},"vehicle_type_id":"4","last_reported":1729235370,"current_range_meters":39200,"station_id":"ce4bgt12rcd13ifvqcd0","pricing_plan_id":"cebpf4jnsgd1na2vs0mg"},{"bike_id":"465ee291-2ec3-4077-aa38-371243e54d22","system_id":"levelo_inurba_marseille","lat":43.30948,"lon":5.39037,"is_reserved":false,"is_disabled":false,"rental_uris":{"android":"levelo://app?vid=465ee291-2ec3-4077-aa38-371243e54d22","ios":"levelo://app?vid=465ee291-2ec3-4077-aa38-371243e54d22"},"vehicle_type_id":"4","last_reported":1729235370,"current_range_meters":30800,"station_id":"ce4bgup2rcd13ifvqco0","pricing_plan_id":"cebpf4jnsgd1na2vs0mg"},{"bike_id":"c245b7ae-41c8-4093-bb89-0702e6edf091","system_id":"levelo_inurba_marseille","lat":43.24079,"lon":5.37764,"is_reserved":false,"is_disabled":false,"rental_uris":{"android":"levelo://app?vid=c245b7ae-41c8-4093-bb89-0702e6edf091","ios":"levelo://app?vid=c245b7ae-41c8-4093-bb89-0702e6edf091"},"vehicle_type_id":"4","last_reported":1729235370,"current_range_meters":38400,"station_id":"ce4bhnp2rcd13ifvqgvg","pricing_plan_id":"cebpf4jnsgd1na2vs0mg"},{"bike_id":"25fb4af7-3723-43d3-ae45-244f6abd285e","system_id":"levelo_inurba_marseille","lat":43.30153,"lon":5.38079,"is_reserved":false,"is_disabled":false,"rental_uris":{"android":"levelo://app?vid=25fb4af7-3723-43d3-ae45-244f6abd285e","ios":"levelo://app?vid=25fb4af7-3723-43d3-ae45-244f6abd285e"},"vehicle_type_id":"4","last_reported":1729235370,"current_range_meters":34800,"station_id":"ce4bgjp2rcd13ifvqbh0","pricing_plan_id":"cebpf4jnsgd1na2vs0mg"},{"bike_id":"c55708b3-319e-4537-81dd-d1d8798081d6","system_id":"levelo_inurba_marseille","lat":43.27494,"lon":5.42452,"is_reserved":false,"is_disabled":false,"rental_uris":{"android":"levelo://app?vid=c55708b3-319e-4537-81dd-d1d8798081d6","ios":"levelo://app?vid=c55708b3-319e-4537-81dd-d1d8798081d6"},"vehicle_type_id":"4","last_reported":1729235370,"current_range_meters":28000,"station_id":"ce4bhn92rcd13ifvqgrg","pricing_plan_id":"cebpf4jnsgd1na2vs0mg"},{"bike_id":"913ebbab-7fea-43af-a0d1-a41807f6a491","system_id":"levelo_inurba_marseille","lat":43.299179,"lon":5.374779,"is_reserved":false,"is_disabled":false,"rental_uris":{"android":"levelo://app?vid=913ebbab-7fea-43af-a0d1-a41807f6a491","ios":"levelo://app?vid=913ebbab-7fea-43af-a0d1-a41807f6a491"},"vehicle_type_id":"4","last_reported":1729235370,"current_range_meters":26800,"station_id":"ce4bgjh2rcd13ifvqbg0","pricing_plan_id":"cebpf4jnsgd1na2vs0mg"},{"bike_id":"937fcf6d-6510-425a-9b4e-4fa4d138cf63","system_id":"levelo_inurba_marseille","lat":43.29632,"lon":5.40606,"is_reserved":false,"is_disabled":false,"rental_uris":{"android":"levelo://app?vid=937fcf6d-6510-425a-9b4e-4fa4d138cf63","ios":"levelo://app?vid=937fcf6d-6510-425a-9b4e-4fa4d138cf63"},"vehicle_type_id":"4","last_reported":1729235370,"current_range_meters":31200,"station_id":"ce4bh0h2rcd13ifvqd60","pricing_plan_id":"cebpf4jnsgd1na2vs0mg"},{"bike_id":"e3ca7803-aaa7-4ddf-8937-86afb5d1cee8","system_id":"levelo_inurba_marseille","lat":43.31713,"lon":5.43703,"is_reserved":false,"is_disabled":false,"rental_uris":{"android":"levelo://app?vid=e3ca7803-aaa7-4ddf-8937-86afb5d1cee8","ios":"levelo://app?vid=e3ca7803-aaa7-4ddf-8937-86afb5d1cee8"},"vehicle_type_id":"4","last_reported":1729235370,"current_range_meters":22400,"station_id":"ce4bhp92rcd13ifvqhcg","pricing_plan_id":"cebpf4jnsgd1na2vs0mg"},{"bike_id":"c3d341cb-b075-4a76-8ce6-a19c6a141e8c","system_id":"levelo_inurba_marseille","lat":43.23153,"lon":5.4372,"is_reserved":false,"is_disabled":false,"rental_uris":{"android":"levelo://app?vid=c3d341cb-b075-4a76-8ce6-a19c6a141e8c","ios":"levelo://app?vid=c3d341cb-b075-4a76-8ce6-a19c6a141e8c"},"vehicle_type_id":"4","last_reported":1729235370,"current_range_meters":7200,"station_id":"ce4bhmp2rcd13ifvqgog","pricing_plan_id":"cebpf4jnsgd1na2vs0mg"},{"bike_id":"568ad7c3-61ab-4891-8036-e9ee4ec77a40","system_id":"levelo_inurba_marseille","lat":43.23182,"lon":5.39989,"is_reserved":false,"is_disabled":false,"rental_uris":{"android":"levelo://app?vid=568ad7c3-61ab-4891-8036-e9ee4ec77a40","ios":"levelo://app?vid=568ad7c3-61ab-4891-8036-e9ee4ec77a40"},"vehicle_type_id":"4","last_reported":1729235370,"current_range_meters":36800,"station_id":"ce4bhn12rcd13ifvqgqg","pricing_plan_id":"cebpf4jnsgd1na2vs0mg"},{"bike_id":"3664398f-378f-46f2-bd12-30042ad8db9d","system_id":"levelo_inurba_marseille","lat":43.23186,"lon":5.39979,"is_reserved":false,"is_disabled":false,"rental_uris":{"android":"levelo://app?vid=3664398f-378f-46f2-bd12-30042ad8db9d","ios":"levelo://app?vid=3664398f-378f-46f2-bd12-30042ad8db9d"},"vehicle_type_id":"4","last_reported":1729235370,"current_range_meters":30800,"station_id":"ce4bhn12rcd13ifvqgqg","pricing_plan_id":"cebpf4jnsgd1na2vs0mg"},{"bike_id":"b149e82b-afb3-4de8-adff-774d74fb2117","system_id":"levelo_inurba_marseille","lat":43.2707,"lon":5.42282,"is_reserved":false,"is_disabled":false,"rental_uris":{"android":"levelo://app?vid=b149e82b-afb3-4de8-adff-774d74fb2117","ios":"levelo://app?vid=b149e82b-afb3-4de8-adff-774d74fb2117"},"vehicle_type_id":"4","last_reported":1729235370,"current_range_meters":26800,"station_id":"ce4bhk92rcd13ifvqgb0","pricing_plan_id":"cebpf4jnsgd1na2vs0mg"},{"bike_id":"3c0b4095-688f-4a0f-88cc-dfe9db2b3c79","system_id":"levelo_inurba_marseille","lat":43.29848,"lon":5.36276,"is_reserved":false,"is_disabled":false,"rental_uris":{"android":"levelo://app?vid=3c0b4095-688f-4a0f-88cc-dfe9db2b3c79","ios":"levelo://app?vid=3c0b4095-688f-4a0f-88cc-dfe9db2b3c79"},"vehicle_type_id":"4","last_reported":1729235370,"current_range_meters":24000,"station_id":"ce4bgpp2rcd13ifvqc3g","pricing_plan_id":"cebpf4jnsgd1na2vs0mg"},{"bike_id":"a9d80141-cb04-4f88-bcc5-9763572e3517","system_id":"levelo_inurba_marseille","lat":43.23194,"lon":5.35546,"is_reserved":false,"is_disabled":false,"rental_uris":{"android":"levelo://app?vid=a9d80141-cb04-4f88-bcc5-9763572e3517","ios":"levelo://app?vid=a9d80141-cb04-4f88-bcc5-9763572e3517"},"vehicle_type_id":"4","last_reported":1729235370,"current_range_meters":29600,"station_id":"ce4bhu92rcd13ifvqi70","pricing_plan_id":"cebpf4jnsgd1na2vs0mg"},{"bike_id":"ac72b0b4-e4b8-42f9-bd0a-1bf1a2727d12","system_id":"levelo_inurba_marseille","lat":43.30542,"lon":5.36541,"is_reserved":false,"is_disabled":false,"rental_uris":{"android":"levelo://app?vid=ac72b0b4-e4b8-42f9-bd0a-1bf1a2727d12","ios":"levelo://app?vid=ac72b0b4-e4b8-42f9-bd0a-1bf1a2727d12"},"vehicle_type_id":"4","last_reported":1729235370,"current_range_meters":16400,"station_id":"ce4bgs12rcd13ifvqcag","pricing_plan_id":"cebpf4jnsgd1na2vs0mg"},{"bike_id":"3ab31a18-af13-40ac-ae62-308000937349","system_id":"levelo_inurba_marseille","lat":43.24079,"lon":5.37759,"is_reserved":false,"is_disabled":false,"rental_uris":{"android":"levelo://app?vid=3ab31a18-af13-40ac-ae62-308000937349","ios":"levelo://app?vid=3ab31a18-af13-40ac-ae62-308000937349"},"vehicle_type_id":"4","last_reported":1729235370,"current_range_meters":34000,"station_id":"ce4bhnp2rcd13ifvqgvg","pricing_plan_id":"cebpf4jnsgd1na2vs0mg"},{"bike_id":"4d9421f0-71f3-42f5-99e7-d0322f25dac8","system_id":"levelo_inurba_marseille","lat":43.29715,"lon":5.37687,"is_reserved":false,"is_disabled":false,"rental_uris":{"android":"levelo://app?vid=4d9421f0-71f3-42f5-99e7-d0322f25dac8","ios":"levelo://app?vid=4d9421f0-71f3-42f5-99e7-d0322f25dac8"},"vehicle_type_id":"4","last_reported":1729235370,"current_range_meters":24800,"station_id":"ce4bgkh2rcd13ifvqbl0","pricing_plan_id":"cebpf4jnsgd1na2vs0mg"},{"bike_id":"af52aa78-d0b5-4bff-b51e-229383967bb3","system_id":"levelo_inurba_marseille","lat":43.23155,"lon":5.43723,"is_reserved":false,"is_disabled":false,"rental_uris":{"android":"levelo://app?vid=af52aa78-d0b5-4bff-b51e-229383967bb3","ios":"levelo://app?vid=af52aa78-d0b5-4bff-b51e-229383967bb3"},"vehicle_type_id":"4","last_reported":1729235370,"current_range_meters":21600,"station_id":"ce4bhmp2rcd13ifvqgog","pricing_plan_id":"cebpf4jnsgd1na2vs0mg"},{"bike_id":"52fa57e0-e151-49d6-9c5d-a5122adf71fb","system_id":"levelo_inurba_marseille","lat":43.29632,"lon":5.37711,"is_reserved":false,"is_disabled":false,"rental_uris":{"android":"levelo://app?vid=52fa57e0-e151-49d6-9c5d-a5122adf71fb","ios":"levelo://app?vid=52fa57e0-e151-49d6-9c5d-a5122adf71fb"},"vehicle_type_id":"4","last_reported":1729235370,"current_range_meters":30000,"station_id":"ce4bgi92rcd13ifvqb90","pricing_plan_id":"cebpf4jnsgd1na2vs0mg"},{"bike_id":"fd495570-0604-40fb-9f36-3e2dfe8010cf","system_id":"levelo_inurba_marseille","lat":43.24079,"lon":5.37747,"is_reserved":false,"is_disabled":false,"rental_uris":{"android":"levelo://app?vid=fd495570-0604-40fb-9f36-3e2dfe8010cf","ios":"levelo://app?vid=fd495570-0604-40fb-9f36-3e2dfe8010cf"},"vehicle_type_id":"4","last_reported":1729235370,"current_range_meters":29600,"station_id":"ce4bhnp2rcd13ifvqgvg","pricing_plan_id":"cebpf4jnsgd1na2vs0mg"},{"bike_id":"35931f83-8596-4236-8a9f-77ad0e9618d6","system_id":"levelo_inurba_marseille","lat":43.29225,"lon":5.36069,"is_reserved":false,"is_disabled":false,"rental_uris":{"android":"levelo://app?vid=35931f83-8596-4236-8a9f-77ad0e9618d6","ios":"levelo://app?vid=35931f83-8596-4236-8a9f-77ad0e9618d6"},"vehicle_type_id":"4","last_reported":1729235370,"current_range_meters":18000,"station_id":"ce4bhbh2rcd13ifvqeqg","pricing_plan_id":"cebpf4jnsgd1na2vs0mg"},{"bike_id":"0776cba6-f971-4a41-bf07-9cbdc519ba6a","system_id":"levelo_inurba_marseille","lat":43.2928,"lon":5.36843,"is_reserved":false,"is_disabled":false,"rental_uris":{"android":"levelo://app?vid=0776cba6-f971-4a41-bf07-9cbdc519ba6a","ios":"levelo://app?vid=0776cba6-f971-4a41-bf07-9cbdc519ba6a"},"vehicle_type_id":"4","last_reported":1729235370,"current_range_meters":28000,"station_id":"ce4bhbp2rcd13ifvqesg","pricing_plan_id":"cebpf4jnsgd1na2vs0mg"},{"bike_id":"c9bf4f2f-c395-4348-a61a-af22ef7e335a","system_id":"levelo_inurba_marseille","lat":43.28617,"lon":5.351,"is_reserved":false,"is_disabled":false,"rental_uris":{"android":"levelo://app?vid=c9bf4f2f-c395-4348-a61a-af22ef7e335a","ios":"levelo://app?vid=c9bf4f2f-c395-4348-a61a-af22ef7e335a"},"vehicle_type_id":"4","last_reported":1729235370,"current_range_meters":20800,"station_id":"ce4bhch2rcd13ifvqeug","pricing_plan_id":"cebpf4jnsgd1na2vs0mg"},{"bike_id":"6e4e333b-836c-482b-82e6-9d51a678996a","system_id":"levelo_inurba_marseille","lat":43.33608,"lon":5.41011,"is_reserved":false,"is_disabled":false,"rental_uris":{"android":"levelo://app?vid=6e4e333b-836c-482b-82e6-9d51a678996a","ios":"levelo://app?vid=6e4e333b-836c-482b-82e6-9d51a678996a"},"vehicle_type_id":"4","last_reported":1729235370,"current_range_meters":7200,"station_id":"ce4bhqh2rcd13ifvqhmg","pricing_plan_id":"cebpf4jnsgd1na2vs0mg"},{"bike_id":"d41309ab-1a1f-4395-acaa-455483c3f8e1","system_id":"levelo_inurba_marseille","lat":43.23192,"lon":5.35548,"is_reserved":false,"is_disabled":false,"rental_uris":{"android":"levelo://app?vid=d41309ab-1a1f-4395-acaa-455483c3f8e1","ios":"levelo://app?vid=d41309ab-1a1f-4395-acaa-455483c3f8e1"},"vehicle_type_id":"4","last_reported":1729235370,"current_range_meters":32400,"station_id":"ce4bhu92rcd13ifvqi70","pricing_plan_id":"cebpf4jnsgd1na2vs0mg"},{"bike_id":"2cba6e3e-73a7-48cf-8a90-64bc0524aa1e","system_id":"levelo_inurba_marseille","lat":43.2963,"lon":5.37146,"is_reserved":false,"is_disabled":false,"rental_uris":{"android":"levelo://app?vid=2cba6e3e-73a7-48cf-8a90-64bc0524aa1e","ios":"levelo://app?vid=2cba6e3e-73a7-48cf-8a90-64bc0524aa1e"},"vehicle_type_id":"4","last_reported":1729235370,"current_range_meters":37600,"station_id":"ce4bgnh2rcd13ifvqc0g","pricing_plan_id":"cebpf4jnsgd1na2vs0mg"},{"bike_id":"5fddb870-3356-40ea-9d4c-e94558d08e33","system_id":"levelo_inurba_marseille","lat":43.30475,"lon":5.37898,"is_reserved":false,"is_disabled":false,"rental_uris":{"android":"levelo://app?vid=5fddb870-3356-40ea-9d4c-e94558d08e33","ios":"levelo://app?vid=5fddb870-3356-40ea-9d4c-e94558d08e33"},"vehicle_type_id":"4","last_reported":1729235370,"current_range_meters":38800,"station_id":"ce4bgup2rcd13ifvqcn0","pricing_plan_id":"cebpf4jnsgd1na2vs0mg"},{"bike_id":"f360b4f3-8c7d-4fd6-9a99-d030624b127b","system_id":"levelo_inurba_marseille","lat":43.24082,"lon":5.37762,"is_reserved":false,"is_disabled":false,"rental_uris":{"android":"levelo://app?vid=f360b4f3-8c7d-4fd6-9a99-d030624b127b","ios":"levelo://app?vid=f360b4f3-8c7d-4fd6-9a99-d030624b127b"},"vehicle_type_id":"4","last_reported":1729235370,"current_range_meters":36400,"station_id":"ce4bhnp2rcd13ifvqgvg","pricing_plan_id":"cebpf4jnsgd1na2vs0mg"},{"bike_id":"68a465a1-d091-473c-9715-d55aa8ab5b17","system_id":"levelo_inurba_marseille","lat":43.31701,"lon":5.40457,"is_reserved":false,"is_disabled":false,"rental_uris":{"android":"levelo://app?vid=68a465a1-d091-473c-9715-d55aa8ab5b17","ios":"levelo://app?vid=68a465a1-d091-473c-9715-d55aa8ab5b17"},"vehicle_type_id":"4","last_reported":1729235370,"current_range_meters":38000,"station_id":"ce4bh012rcd13ifvqd00","pricing_plan_id":"cebpf4jnsgd1na2vs0mg"},{"bike_id":"36d8ba3a-d12a-4676-bb38-0ba368f42049","system_id":"levelo_inurba_marseille","lat":43.31346,"lon":5.36731,"is_reserved":false,"is_disabled":false,"rental_uris":{"android":"levelo://app?vid=36d8ba3a-d12a-4676-bb38-0ba368f42049","ios":"levelo://app?vid=36d8ba3a-d12a-4676-bb38-0ba368f42049"},"vehicle_type_id":"4","last_reported":1729235370,"current_range_meters":35200,"station_id":"ce4bgr92rcd13ifvqc6g","pricing_plan_id":"cebpf4jnsgd1na2vs0mg"},{"bike_id":"f63915bf-31d8-4f44-860c-90acc1df9376","system_id":"levelo_inurba_marseille","lat":43.2861,"lon":5.37065,"is_reserved":false,"is_disabled":false,"rental_uris":{"android":"levelo://app?vid=f63915bf-31d8-4f44-860c-90acc1df9376","ios":"levelo://app?vid=f63915bf-31d8-4f44-860c-90acc1df9376"},"vehicle_type_id":"4","last_reported":1729235370,"current_range_meters":36800,"station_id":"ce4bht12rcd13ifvqi60","pricing_plan_id":"cebpf4jnsgd1na2vs0mg"},{"bike_id":"4a654c34-3ad0-46cf-88c7-c256edda0841","system_id":"levelo_inurba_marseille","lat":43.25944,"lon":5.40896,"is_reserved":false,"is_disabled":false,"rental_uris":{"android":"levelo://app?vid=4a654c34-3ad0-46cf-88c7-c256edda0841","ios":"levelo://app?vid=4a654c34-3ad0-46cf-88c7-c256edda0841"},"vehicle_type_id":"4","last_reported":1729235370,"current_range_meters":20000,"station_id":"ce4bhm92rcd13ifvqglg","pricing_plan_id":"cebpf4jnsgd1na2vs0mg"},{"bike_id":"f149d3f1-31b9-469f-a800-fc03ff10e61a","system_id":"levelo_inurba_marseille","lat":43.278103,"lon":5.407066,"is_reserved":false,"is_disabled":false,"rental_uris":{"android":"levelo://app?vid=f149d3f1-31b9-469f-a800-fc03ff10e61a","ios":"levelo://app?vid=f149d3f1-31b9-469f-a800-fc03ff10e61a"},"vehicle_type_id":"4","last_reported":1729235370,"current_range_meters":36800,"station_id":"","pricing_plan_id":"cebpf4jnsgd1na2vs0mg"},{"bike_id":"ca749036-87ae-437d-82a9-7df3571d2ebc","system_id":"levelo_inurba_marseille","lat":43.29028,"lon":5.37567,"is_reserved":false,"is_disabled":false,"rental_uris":{"android":"levelo://app?vid=ca749036-87ae-437d-82a9-7df3571d2ebc","ios":"levelo://app?vid=ca749036-87ae-437d-82a9-7df3571d2ebc"},"vehicle_type_id":"4","last_reported":1729235370,"current_range_meters":16000,"station_id":"ce4bh692rcd13ifvqe90","pricing_plan_id":"cebpf4jnsgd1na2vs0mg"},{"bike_id":"f69f689b-b642-476f-98f7-50b4900531b7","system_id":"levelo_inurba_marseille","lat":43.24083,"lon":5.37763,"is_reserved":false,"is_disabled":false,"rental_uris":{"android":"levelo://app?vid=f69f689b-b642-476f-98f7-50b4900531b7","ios":"levelo://app?vid=f69f689b-b642-476f-98f7-50b4900531b7"},"vehicle_type_id":"4","last_reported":1729235370,"current_range_meters":36000,"station_id":"ce4bhnp2rcd13ifvqgvg","pricing_plan_id":"cebpf4jnsgd1na2vs0mg"},{"bike_id":"4457f644-f52a-41eb-91d8-d3926cff2bfb","system_id":"levelo_inurba_marseille","lat":43.31151,"lon":5.38825,"is_reserved":false,"is_disabled":false,"rental_uris":{"android":"levelo://app?vid=4457f644-f52a-41eb-91d8-d3926cff2bfb","ios":"levelo://app?vid=4457f644-f52a-41eb-91d8-d3926cff2bfb"},"vehicle_type_id":"4","last_reported":1729235370,"current_range_meters":14000,"station_id":"ce4bh312rcd13ifvqdj0","pricing_plan_id":"cebpf4jnsgd1na2vs0mg"},{"bike_id":"3e3e5ac7-9f9e-45e7-81ef-377df815774f","system_id":"levelo_inurba_marseille","lat":43.25581,"lon":5.38226,"is_reserved":false,"is_disabled":false,"rental_uris":{"android":"levelo://app?vid=3e3e5ac7-9f9e-45e7-81ef-377df815774f","ios":"levelo://app?vid=3e3e5ac7-9f9e-45e7-81ef-377df815774f"},"vehicle_type_id":"4","last_reported":1729235370,"current_range_meters":25200,"station_id":"ce4bhih2rcd13ifvqfs0","pricing_plan_id":"cebpf4jnsgd1na2vs0mg"},{"bike_id":"0b989d41-081a-4564-ab22-c03a79cce635","system_id":"levelo_inurba_marseille","lat":43.29075,"lon":5.37164,"is_reserved":false,"is_disabled":false,"rental_uris":{"android":"levelo://app?vid=0b989d41-081a-4564-ab22-c03a79cce635","ios":"levelo://app?vid=0b989d41-081a-4564-ab22-c03a79cce635"},"vehicle_type_id":"4","last_reported":1729235370,"current_range_meters":30000,"station_id":"ce4bh5p2rcd13ifvqe4g","pricing_plan_id":"cebpf4jnsgd1na2vs0mg"},{"bike_id":"e7eec2ad-04dc-4001-8181-eb9d35377f96","system_id":"levelo_inurba_marseille","lat":43.24076,"lon":5.37759,"is_reserved":false,"is_disabled":false,"rental_uris":{"android":"levelo://app?vid=e7eec2ad-04dc-4001-8181-eb9d35377f96","ios":"levelo://app?vid=e7eec2ad-04dc-4001-8181-eb9d35377f96"},"vehicle_type_id":"4","last_reported":1729235370,"current_range_meters":27200,"station_id":"ce4bhnp2rcd13ifvqgvg","pricing_plan_id":"cebpf4jnsgd1na2vs0mg"},{"bike_id":"e06ba6b2-8c23-4d86-a085-bd25d80c50ff","system_id":"levelo_inurba_marseille","lat":43.33023,"lon":5.39044,"is_reserved":false,"is_disabled":false,"rental_uris":{"android":"levelo://app?vid=e06ba6b2-8c23-4d86-a085-bd25d80c50ff","ios":"levelo://app?vid=e06ba6b2-8c23-4d86-a085-bd25d80c50ff"},"vehicle_type_id":"4","last_reported":1729235370,"current_range_meters":4800,"station_id":"ce4bhr92rcd13ifvqhrg","pricing_plan_id":"cebpf4jnsgd1na2vs0mg"},{"bike_id":"202e45cf-2f18-4647-84ed-1d68cf160ca7","system_id":"levelo_inurba_marseille","lat":43.30206,"lon":5.37039,"is_reserved":false,"is_disabled":false,"rental_uris":{"android":"levelo://app?vid=202e45cf-2f18-4647-84ed-1d68cf160ca7","ios":"levelo://app?vid=202e45cf-2f18-4647-84ed-1d68cf160ca7"},"vehicle_type_id":"4","last_reported":1729235370,"current_range_meters":16000,"station_id":"ce4bgup2rcd13ifvqcn0","pricing_plan_id":"cebpf4jnsgd1na2vs0mg"},{"bike_id":"6aa0426c-26fb-47fa-b68a-73a19364ba21","system_id":"levelo_inurba_marseille","lat":43.26059,"lon":5.39398,"is_reserved":false,"is_disabled":false,"rental_uris":{"android":"levelo://app?vid=6aa0426c-26fb-47fa-b68a-73a19364ba21","ios":"levelo://app?vid=6aa0426c-26fb-47fa-b68a-73a19364ba21"},"vehicle_type_id":"4","last_reported":1729235370,"current_range_meters":10000,"station_id":"ce4bhh92rcd13ifvqfj0","pricing_plan_id":"cebpf4jnsgd1na2vs0mg"},{"bike_id":"23fadce8-4fb6-4fca-96f5-988665d34a0a","system_id":"levelo_inurba_marseille","lat":43.27182,"lon":5.40989,"is_reserved":false,"is_disabled":false,"rental_uris":{"android":"levelo://app?vid=23fadce8-4fb6-4fca-96f5-988665d34a0a","ios":"levelo://app?vid=23fadce8-4fb6-4fca-96f5-988665d34a0a"},"vehicle_type_id":"4","last_reported":1729235370,"current_range_meters":28400,"station_id":"ce4bhl12rcd13ifvqgf0","pricing_plan_id":"cebpf4jnsgd1na2vs0mg"},