{"last_updated":1716653279,"ttl":30,"version":"2.2","data":{"bikes":[{"bike_id":"787dc53b-2d3c-4ce2-84e8-cb656fa9b6fe","system_id":"levelo_inurba_marseille","lat":43.313391,"lon":5.36706,"is_reserved":false,"is_disabled":false,"rental_uris":{"android":"levelo://app?vid=787dc53b-2d3c-4ce2-84e8-cb656fa9b6fe","ios":"levelo://app?vid=787dc53b-2d3c-4ce2-84e8-cb656fa9b6fe"},"vehicle_type_id":"4","last_reported":1716653279,"current_range_meters":10800,"station_id":"ce4bgr92rcd13ifvqc6g","pricing_plan_id":"cebpf4jnsgd1na2vs0mg"},{"bike_id":"e844c903-fa3b-45c1-abbc-61e94941bfa8","system_id":"levelo_inurba_marseille","lat":43.313391,"lon":5.36706,"is_reserved":false,"is_disabled":false,"rental_uris":{"android":"levelo://app?vid=e844c903-fa3b-45c1-abbc-61e94941bfa8","ios":"levelo://app?vid=e844c903-fa3b-45c1-abbc-61e94941bfa8"},"vehicle_type_id":"4","last_reported":1716653279,"current_range_meters":17200,"station_id":"ce4bgr92rcd13ifvqc6g","pricing_plan_id":"cebpf4jnsgd1na2vs0mg"},{"bike_id":"b030173e-b17c-47c3-ade4-bd79ddb75df4","system_id":"levelo_inurba_marseille","lat":43.313391,"lon":5.36706,"is_reserved":false,"is_disabled":false,"rental_uris":{"android":"levelo://app?vid=b030173e-b17c-47c3-ade4-bd79ddb75df4","ios":"levelo://app?vid=b030173e-b17c-47c3-ade4-bd79ddb75df4"},"vehicle_type_id":"4","last_reported":1716653279,"current_range_meters":6000,"station_id":"ce4bgr92rcd13ifvqc6g","pricing_plan_id":"cebpf4jnsgd1na2vs0mg"},{"bike_id":"c90e0265-d03f-4e6d-8504-3df8008f1300","system_id":"levelo_inurba_marseille","lat":43.313391,"lon":5.36706,"is_reserved":false,"is_disabled":false,"rental_uris":{"android":"levelo://app?vid=c90e0265-d03f-4e6d-8504-3df8008f1300","ios":"levelo://app?vid=c90e0265-d03f-4e6d-8504-3df8008f1300"},"vehicle_type_id":"4","last_reported":1716653279,"current_range_meters":26400,"station_id":"ce4bgr92rcd13ifvqc6g","pricing_plan_id":"cebpf4jnsgd1na2vs0mg"},{"bike_id":"dfe77dfa-8cb6-4e75-9211-9b8039266f5c","system_id":"levelo_inurba_marseille","lat":43.312239,"lon":5.368562,"is_reserved":false,"is_disabled":false,"rental_uris":{"android":"levelo://app?vid=dfe77dfa-8cb6-4e75-9211-9b8039266f5c","ios":"levelo://app?vid=dfe77dfa-8cb6-4e75-9211-9b8039266f5c"},"vehicle_type_id":"4","last_reported":1716653279,"current_range_meters":30800,"station_id":"ce4bgl92rcd13ifvqbq0","pricing_plan_id":"cebpf4jnsgd1na2vs0mg"},{"bike_id":"b1eabe63-eb20-4d44-8e8d-8bf76148fcce","system_id":"levelo_inurba_marseille","lat":43.312239,"lon":5.368562,"is_reserved":false,"is_disabled":false,"rental_uris":{"android":"levelo://app?vid=b1eabe63-eb20-4d44-8e8d-8bf76148fcce","ios":"levelo://app?vid=b1eabe63-eb20-4d44-8e8d-8bf76148fcce"},"vehicle_type_id":"4","last_reported":1716653279,"current_range_meters":0,"station_id":"ce4bgl92rcd13ifvqbq0","pricing_plan_id":"cebpf4jnsgd1na2vs0mg"},{"bike_id":"f8f1d421-25b4-4497-b012-3a1f4327e5af","system_id":"levelo_inurba_marseille","lat":43.314811,"lon":5.373103,"is_reserved":false,"is_disabled":false,"rental_uris":{"android":"levelo://app?vid=f8f1d421-25b4-4497-b012-3a1f4327e5af","ios":"levelo://app?vid=f8f1d421-25b4-4497-b012-3a1f4327e5af"},"vehicle_type_id":"4","last_reported":1716653279,"current_range_meters":800,"station_id":"ce4bgt12rcd13ifvqcd0","pricing_plan_id":"cebpf4jnsgd1na2vs0mg"},{"bike_id":"cbf85e50-6202-469f-887f-aa10ffd57a21","system_id":"levelo_inurba_marseille","lat":43.31502,"lon":5.37308,"is_reserved":false,"is_disabled":false,"rental_uris":{"android":"levelo://app?vid=cbf85e50-6202-469f-887f-aa10ffd57a21","ios":"levelo://app?vid=cbf85e50-6202-469f-887f-aa10ffd57a21"},"vehicle_type_id":"4","last_reported":1716653279,"current_range_meters":0,"station_id":"ce4bgt12rcd13ifvqcd0","pricing_plan_id":"cebpf4jnsgd1na2vs0mg"},{"bike_id":"f607a2d9-dea8-4867-a264-a375240e5b9a","system_id":"levelo_inurba_marseille","lat":43.31672,"lon":5.3722,"is_reserved":false,"is_disabled":false,"rental_uris":{"android":"levelo://app?vid=f607a2d9-dea8-4867-a264-a375240e5b9a","ios":"levelo://app?vid=f607a2d9-dea8-4867-a264-a375240e5b9a"},"vehicle_type_id":"4","last_reported":1716653279,"current_range_meters":0,"station_id":"","pricing_plan_id":"cebpf4jnsgd1na2vs0mg"},{"bike_id":"44f27510-48cb-4ab3-98b3-5b21cfe478f2","system_id":"levelo_inurba_marseille","lat":43.305712,"lon":5.365641,"is_reserved":false,"is_disabled":false,"rental_uris":{"android":"levelo://app?vid=44f27510-48cb-4ab3-98b3-5b21cfe478f2","ios":"levelo://app?vid=44f27510-48cb-4ab3-98b3-5b21cfe478f2"},"vehicle_type_id":"4","last_reported":1716653279,"current_range_meters":28800,"station_id":"ce4bgs12rcd13ifvqcag","pricing_plan_id":"cebpf4jnsgd1na2vs0mg"},{"bike_id":"94856f22-2cf0-4caf-bbf8-9ee674f2352c","system_id":"levelo_inurba_marseille","lat":43.305714,"lon":5.365633,"is_reserved":false,"is_disabled":false,"rental_uris":{"android":"levelo://app?vid=94856f22-2cf0-4caf-bbf8-9ee674f2352c","ios":"levelo://app?vid=94856f22-2cf0-4caf-bbf8-9ee674f2352c"},"vehicle_type_id":"4","last_reported":1716653279,"current_range_meters":27200,"station_id":"ce4bgs12rcd13ifvqcag","pricing_plan_id":"cebpf4jnsgd1na2vs0mg"},{"bike_id":"085f8808-1d82-4a31-a42a-8e58df7e3717","system_id":"levelo_inurba_marseille","lat":43.305989,"lon":5.37225,"is_reserved":false,"is_disabled":false,"rental_uris":{"android":"levelo://app?vid=085f8808-1d82-4a31-a42a-8e58df7e3717","ios":"levelo://app?vid=085f8808-1d82-4a31-a42a-8e58df7e3717"},"vehicle_type_id":"4","last_reported":1716653279,"current_range_meters":31200,"station_id":"ce4bgqh2rcd13ifvqc4g","pricing_plan_id":"cebpf4jnsgd1na2vs0mg"},{"bike_id":"a8465c69-09ed-41a6-bddc-121d8e5e7ffe","system_id":"levelo_inurba_marseille","lat":43.31119,"lon":5.37771,"is_reserved":false,"is_disabled":false,"rental_uris":{"android":"levelo://app?vid=a8465c69-09ed-41a6-bddc-121d8e5e7ffe","ios":"levelo://app?vid=a8465c69-09ed-41a6-bddc-121d8e5e7ffe"},"vehicle_type_id":"4","last_reported":1716653279,"current_range_meters":0,"station_id":"ce4bgt92rcd13ifvqcg0","pricing_plan_id":"cebpf4jnsgd1na2vs0mg"},{"bike_id":"339da3f6-41c1-406e-9723-e33c04d574bd","system_id":"levelo_inurba_marseille","lat":43.317075,"lon":5.377367,"is_reserved":false,"is_disabled":false,"rental_uris":{"android":"levelo://app?vid=339da3f6-41c1-406e-9723-e33c04d574bd","ios":"levelo://app?vid=339da3f6-41c1-406e-9723-e33c04d574bd"},"vehicle_type_id":"4","last_reported":1716653279,"current_range_meters":17200,"station_id":"ce4bgth2rcd13ifvqch0","pricing_plan_id":"cebpf4jnsgd1na2vs0mg"},{"bike_id":"db288914-77e3-4859-9e43-a5483f5b7de4","system_id":"levelo_inurba_marseille","lat":43.301877,"lon":5.36608,"is_reserved":false,"is_disabled":false,"rental_uris":{"android":"levelo://app?vid=db288914-77e3-4859-9e43-a5483f5b7de4","ios":"levelo://app?vid=db288914-77e3-4859-9e43-a5483f5b7de4"},"vehicle_type_id":"4","last_reported":1716653279,"current_range_meters":0,"station_id":"ce4bgrh2rcd13ifvqc8g","pricing_plan_id":"cebpf4jnsgd1na2vs0mg"},{"bike_id":"f2037e05-5c35-4fe4-addf-caf7104c59f4","system_id":"levelo_inurba_marseille","lat":43.308012,"lon":5.381511,"is_reserved":false,"is_disabled":false,"rental_uris":{"android":"levelo://app?vid=f2037e05-5c35-4fe4-addf-caf7104c59f4","ios":"levelo://app?vid=f2037e05-5c35-4fe4-addf-caf7104c59f4"},"vehicle_type_id":"4","last_reported":1716653279,"current_range_meters":800,"station_id":"ce4bgt12rcd13ifvqce0","pricing_plan_id":"cebpf4jnsgd1na2vs0mg"},{"bike_id":"a59b88af-300a-497f-811e-76731877fe30","system_id":"levelo_inurba_marseille","lat":43.303199,"lon":5.374686,"is_reserved":false,"is_disabled":false,"rental_uris":{"android":"levelo://app?vid=a59b88af-300a-497f-811e-76731877fe30","ios":"levelo://app?vid=a59b88af-300a-497f-811e-76731877fe30"},"vehicle_type_id":"4","last_reported":1716653279,"current_range_meters":6000,"station_id":"","pricing_plan_id":"cebpf4jnsgd1na2vs0mg"},{"bike_id":"be97996b-db25-4246-aefc-c593c2562c6c","system_id":"levelo_inurba_marseille","lat":43.302832,"lon":5.374952,"is_reserved":false,"is_disabled":false,"rental_uris":{"android":"levelo://app?vid=be97996b-db25-4246-aefc-c593c2562c6c","ios":"levelo://app?vid=be97996b-db25-4246-aefc-c593c2562c6c"},"vehicle_type_id":"4","last_reported":1716653279,"current_range_meters":14000,"station_id":"","pricing_plan_id":"cebpf4jnsgd1na2vs0mg"},{"bike_id":"3dd8bfb8-3f4e-42f0-a329-59eba846f833","system_id":"levelo_inurba_marseille","lat":43.308012,"lon":5.381511,"is_reserved":false,"is_disabled":false,"rental_uris":{"android":"levelo://app?vid=3dd8bfb8-3f4e-42f0-a329-59eba846f833","ios":"levelo://app?vid=3dd8bfb8-3f4e-42f0-a329-59eba846f833"},"vehicle_type_id":"4","last_reported":1716653279,"current_range_meters":0,"station_id":"ce4bgt12rcd13ifvqce0","pricing_plan_id":"cebpf4jnsgd1na2vs0mg"},{"bike_id":"91b2e419-73fb-46f0-a073-79252e2fe1df","system_id":"levelo_inurba_marseille","lat":43.304606,"lon":5.379026,"is_reserved":false,"is_disabled":false,"rental_uris":{"android":"levelo://app?vid=91b2e419-73fb-46f0-a073-79252e2fe1df","ios":"levelo://app?vid=91b2e419-73fb-46f0-a073-79252e2fe1df"},"vehicle_type_id":"4","last_reported":1716653279,"current_range_meters":0,"station_id":"ce4bgup2rcd13ifvqcn0","pricing_plan_id":"cebpf4jnsgd1na2vs0mg"},{"bike_id":"7f5165f1-e91e-4e3b-9c9f-a604cabc23c4","system_id":"levelo_inurba_marseille","lat":43.324771,"lon":5.36557,"is_reserved":false,"is_disabled":false,"rental_uris":{"android":"levelo://app?vid=7f5165f1-e91e-4e3b-9c9f-a604cabc23c4","ios":"levelo://app?vid=7f5165f1-e91e-4e3b-9c9f-a604cabc23c4"},"vehicle_type_id":"4","last_reported":1716653279,"current_range_meters":16400,"station_id":"ce4bhs12rcd13ifvqhvg","pricing_plan_id":"cebpf4jnsgd1na2vs0mg"},{"bike_id":"71a56a80-db24-465f-af67-8ee54602e2c2","system_id":"levelo_inurba_marseille","lat":43.324771,"lon":5.36557,"is_reserved":false,"is_disabled":false,"rental_uris":{"android":"levelo://app?vid=71a56a80-db24-465f-af67-8ee54602e2c2","ios":"levelo://app?vid=71a56a80-db24-465f-af67-8ee54602e2c2"},"vehicle_type_id":"4","last_reported":1716653279,"current_range_meters":21600,"station_id":"ce4bhs12rcd13ifvqhvg","pricing_plan_id":"cebpf4jnsgd1na2vs0mg"},{"bike_id":"97aa767d-4a7c-4d81-b244-c5d3efb49efc","system_id":"levelo_inurba_marseille","lat":43.324801,"lon":5.365563,"is_reserved":false,"is_disabled":false,"rental_uris":{"android":"levelo://app?vid=97aa767d-4a7c-4d81-b244-c5d3efb49efc","ios":"levelo://app?vid=97aa767d-4a7c-4d81-b244-c5d3efb49efc"},"vehicle_type_id":"4","last_reported":1716653279,"current_range_meters":21600,"station_id":"ce4bhs12rcd13ifvqhvg","pricing_plan_id":"cebpf4jnsgd1na2vs0mg"},{"bike_id":"dec6bbc4-1aa5-4ae4-b13a-641f2ab79092","system_id":"levelo_inurba_marseille","lat":43.324771,"lon":5.36557,"is_reserved":false,"is_disabled":false,"rental_uris":{"android":"levelo://app?vid=dec6bbc4-1aa5-4ae4-b13a-641f2ab79092","ios":"levelo://app?vid=dec6bbc4-1aa5-4ae4-b13a-641f2ab79092"},"vehicle_type_id":"4","last_reported":1716653279,"current_range_meters":1200,"station_id":"ce4bhs12rcd13ifvqhvg","pricing_plan_id":"cebpf4jnsgd1na2vs0mg"},{"bike_id":"1e27f010-3bdb-4762-a3d2-70f5517cc08d","system_id":"levelo_inurba_marseille","lat":43.324771,"lon":5.36557,"is_reserved":false,"is_disabled":false,"rental_uris":{"android":"levelo://app?vid=1e27f010-3bdb-4762-a3d2-70f5517cc08d","ios":"levelo://app?vid=1e27f010-3bdb-4762-a3d2-70f5517cc08d"},"vehicle_type_id":"4","last_reported":1716653279,"current_range_meters":5200,"station_id":"ce4bhs12rcd13ifvqhvg","pricing_plan_id":"cebpf4jnsgd1na2vs0mg"},{"bike_id":"814ae5b8-d7ee-435a-bc6e-cdc304e28599","system_id":"levelo_inurba_marseille","lat":43.3249,"lon":5.365702,"is_reserved":false,"is_disabled":false,"rental_uris":{"android":"levelo://app?vid=814ae5b8-d7ee-435a-bc6e-cdc304e28599","ios":"levelo://app?vid=814ae5b8-d7ee-435a-bc6e-cdc304e28599"},"vehicle_type_id":"4","last_reported":1716653279,"current_range_meters":22800,"station_id":"ce4bhs12rcd13ifvqhvg","pricing_plan_id":"cebpf4jnsgd1na2vs0mg"},{"bike_id":"7ed028dc-f34b-4164-9af0-d6f56a93bfb3","system_id":"levelo_inurba_marseille","lat":43.310804,"lon":5.38359,"is_reserved":false,"is_disabled":false,"rental_uris":{"android":"levelo://app?vid=7ed028dc-f34b-4164-9af0-d6f56a93bfb3","ios":"levelo://app?vid=7ed028dc-f34b-4164-9af0-d6f56a93bfb3"},"vehicle_type_id":"4","last_reported":1716653279,"current_range_meters":0,"station_id":"ce4bgv92rcd13ifvqcr0","pricing_plan_id":"cebpf4jnsgd1na2vs0mg"},{"bike_id":"78b2d28d-600e-4679-9d0a-1521d77b6003","system_id":"levelo_inurba_marseille","lat":43.310804,"lon":5.38359,"is_reserved":false,"is_disabled":false,"rental_uris":{"android":"levelo://app?vid=78b2d28d-600e-4679-9d0a-1521d77b6003","ios":"levelo://app?vid=78b2d28d-600e-4679-9d0a-1521d77b6003"},"vehicle_type_id":"4","last_reported":1716653279,"current_range_meters":10400,"station_id":"ce4bgv92rcd13ifvqcr0","pricing_plan_id":"cebpf4jnsgd1na2vs0mg"},{"bike_id":"c6d6295f-2e90-48a4-80a4-47b3d1912b61","system_id":"levelo_inurba_marseille","lat":43.320045,"lon":5.415048,"is_reserved":false,"is_disabled":false,"rental_uris":{"android":"levelo://app?vid=c6d6295f-2e90-48a4-80a4-47b3d1912b61","ios":"levelo://app?vid=c6d6295f-2e90-48a4-80a4-47b3d1912b61"},"vehicle_type_id":"4","last_reported":1716653279,"current_range_meters":9200,"station_id":"ce4bhq92rcd13ifvqhkg","pricing_plan_id":"cebpf4jnsgd1na2vs0mg"},{"bike_id":"60980060-0f96-46f6-b65a-0e2208da4e13","system_id":"levelo_inurba_marseille","lat":43.319804,"lon":5.380913,"is_reserved":false,"is_disabled":false,"rental_uris":{"android":"levelo://app?vid=60980060-0f96-46f6-b65a-0e2208da4e13","ios":"levelo://app?vid=60980060-0f96-46f6-b65a-0e2208da4e13"},"vehicle_type_id":"4","last_reported":1716653279,"current_range_meters":2800,"station_id":"ce4bhr12rcd13ifvqhpg","pricing_plan_id":"cebpf4jnsgd1na2vs0mg"},{"bike_id":"fd4233f2-0798-465f-b9b5-b3a76bcfb788","system_id":"levelo_inurba_marseille","lat":43.301429,"lon":5.37413,"is_reserved":false,"is_disabled":false,"rental_uris":{"android":"levelo://app?vid=fd4233f2-0798-465f-b9b5-b3a76bcfb788","ios":"levelo://app?vid=fd4233f2-0798-465f-b9b5-b3a76bcfb788"},"vehicle_type_id":"4","last_reported":1716653279,"current_range_meters":4000,"station_id":"ce4bgs92rcd13ifvqcc0","pricing_plan_id":"cebpf4jnsgd1na2vs0mg"},{"bike_id":"03b2d0ac-4855-463a-a2f0-be21041dc802","system_id":"levelo_inurba_marseille","lat":43.305363,"lon":5.380828,"is_reserved":false,"is_disabled":false,"rental_uris":{"android":"levelo://app?vid=03b2d0ac-4855-463a-a2f0-be21041dc802","ios":"levelo://app?vid=03b2d0ac-4855-463a-a2f0-be21041dc802"},"vehicle_type_id":"4","last_reported":1716653279,"current_range_meters":30800,"station_id":"","pricing_plan_id":"cebpf4jnsgd1na2vs0mg"},{"bike_id":"3a4bf51d-bdde-4749-af26-ad42a77ec1be","system_id":"levelo_inurba_marseille","lat":43.305334,"lon":5.380836,"is_reserved":false,"is_disabled":false,"rental_uris":{"android":"levelo://app?vid=3a4bf51d-bdde-4749-af26-ad42a77ec1be","ios":"levelo://app?vid=3a4bf51d-bdde-4749-af26-ad42a77ec1be"},"vehicle_type_id":"4","last_reported":1716653279,"current_range_meters":11600,"station_id":"","pricing_plan_id":"cebpf4jnsgd1na2vs0mg"},{"bike_id":"2881e190-fdc7-4942-ae9f-fa5742ee64e5","system_id":"levelo_inurba_marseille","lat":43.300034,"lon":5.368676,"is_reserved":false,"is_disabled":false,"rental_uris":{"android":"levelo://app?vid=2881e190-fdc7-4942-ae9f-fa5742ee64e5","ios":"levelo://app?vid=2881e190-fdc7-4942-ae9f-fa5742ee64e5"},"vehicle_type_id":"4","last_reported":1716653279,"current_range_meters":12800,"station_id":"","pricing_plan_id":"cebpf4jnsgd1na2vs0mg"},{"bike_id":"2b2d5eea-b301-4cd7-b9a2-561e63b82a66","system_id":"levelo_inurba_marseille","lat":43.319935,"lon":5.381699,"is_reserved":false,"is_disabled":false,"rental_uris":{"android":"levelo://app?vid=2b2d5eea-b301-4cd7-b9a2-561e63b82a66","ios":"levelo://app?vid=2b2d5eea-b301-4cd7-b9a2-561e63b82a66"},"vehicle_type_id":"4","last_reported":1716653279,"current_range_meters":24000,"station_id":"ce4bhr12rcd13ifvqhpg","pricing_plan_id":"cebpf4jnsgd1na2vs0mg"},{"bike_id":"3bca11a9-b106-41ba-96fe-fcdf9d6b7c65","system_id":"levelo_inurba_marseille","lat":43.319935,"lon":5.381699,"is_reserved":false,"is_disabled":false,"rental_uris":{"android":"levelo://app?vid=3bca11a9-b106-41ba-96fe-fcdf9d6b7c65","ios":"levelo://app?vid=3bca11a9-b106-41ba-96fe-fcdf9d6b7c65"},"vehicle_type_id":"4","last_reported":1716653279,"current_range_meters":21200,"station_id":"ce4bhr12rcd13ifvqhpg","pricing_plan_id":"cebpf4jnsgd1na2vs0mg"},{"bike_id":"6634556b-5ca2-4313-b298-b4bfd299314a","system_id":"levelo_inurba_marseille","lat":43.299724,"lon":5.371829,"is_reserved":false,"is_disabled":false,"rental_uris":{"android":"levelo://app?vid=6634556b-5ca2-4313-b298-b4bfd299314a","ios":"levelo://app?vid=6634556b-5ca2-4313-b298-b4bfd299314a"},"vehicle_type_id":"4","last_reported":1716653279,"current_range_meters":800,"station_id":"ce4bgr92rcd13ifvqc7g","pricing_plan_id":"cebpf4jnsgd1na2vs0mg"},{"bike_id":"dbd92401-b474-4fae-9741-4b85d5ef6b5e","system_id":"levelo_inurba_marseille","lat":43.299749,"lon":5.371763,"is_reserved":false,"is_disabled":false,"rental_uris":{"android":"levelo://app?vid=dbd92401-b474-4fae-9741-4b85d5ef6b5e","ios":"levelo://app?vid=dbd92401-b474-4fae-9741-4b85d5ef6b5e"},"vehicle_type_id":"4","last_reported":1716653279,"current_range_meters":0,"station_id":"ce4bgr92rcd13ifvqc7g","pricing_plan_id":"cebpf4jnsgd1na2vs0mg"},{"bike_id":"8a12ebc8-3500-4b0a-91a2-abfa7441a6ed","system_id":"levelo_inurba_marseille","lat":43.301939,"lon":5.366286,"is_reserved":false,"is_disabled":false,"rental_uris":{"android":"levelo://app?vid=8a12ebc8-3500-4b0a-91a2-abfa7441a6ed","ios":"levelo://app?vid=8a12ebc8-3500-4b0a-91a2-abfa7441a6ed"},"vehicle_type_id":"4","last_reported":1716653279,"current_range_meters":8000,"station_id":"ce4bgrh2rcd13ifvqc8g","pricing_plan_id":"cebpf4jnsgd1na2vs0mg"},{"bike_id":"7c0279c4-785e-41cc-9875-11b1aa5697b0","system_id":"levelo_inurba_marseille","lat":43.298433,"lon":5.362774,"is_reserved":false,"is_disabled":false,"rental_uris":{"android":"levelo://app?vid=7c0279c4-785e-41cc-9875-11b1aa5697b0","ios":"levelo://app?vid=7c0279c4-785e-41cc-9875-11b1aa5697b0"},"vehicle_type_id":"4","last_reported":1716653279,"current_range_meters":27200,"station_id":"ce4bgpp2rcd13ifvqc3g","pricing_plan_id":"cebpf4jnsgd1na2vs0mg"},{"bike_id":"d1423335-1b78-41e4-876a-85ca3f75ee70","system_id":"levelo_inurba_marseille","lat":43.305364,"lon":5.384119,"is_reserved":false,"is_disabled":false,"rental_uris":{"android":"levelo://app?vid=d1423335-1b78-41e4-876a-85ca3f75ee70","ios":"levelo://app?vid=d1423335-1b78-41e4-876a-85ca3f75ee70"},"vehicle_type_id":"4","last_reported":1716653279,"current_range_meters":23600,"station_id":"ce4bgg92rcd13ifvqb30","pricing_plan_id":"cebpf4jnsgd1na2vs0mg"},{"bike_id":"04786399-7294-4271-ab48-d69fe7ee235c","system_id":"levelo_inurba_marseille","lat":43.31173,"lon":5.38709,"is_reserved":false,"is_disabled":false,"rental_uris":{"android":"levelo://app?vid=04786399-7294-4271-ab48-d69fe7ee235c","ios":"levelo://app?vid=04786399-7294-4271-ab48-d69fe7ee235c"},"vehicle_type_id":"4","last_reported":1716653279,"current_range_meters":0,"station_id":"ce4bgv12rcd13ifvqcp0","pricing_plan_id":"cebpf4jnsgd1na2vs0mg"},{"bike_id":"ce3555d7-49ce-44ef-886f-56a5682dfdda","system_id":"levelo_inurba_marseille","lat":43.311722,"lon":5.387247,"is_reserved":false,"is_disabled":false,"rental_uris":{"android":"levelo://app?vid=ce3555d7-49ce-44ef-886f-56a5682dfdda","ios":"levelo://app?vid=ce3555d7-49ce-44ef-886f-56a5682dfdda"},"vehicle_type_id":"4","last_reported":1716653279,"current_range_meters":25200,"station_id":"ce4bgv12rcd13ifvqcp0","pricing_plan_id":"cebpf4jnsgd1na2vs0mg"},{"bike_id":"b52579cd-847b-48a0-8ab8-940edc8dda00","system_id":"levelo_inurba_marseille","lat":43.311791,"lon":5.38718,"is_reserved":false,"is_disabled":false,"rental_uris":{"android":"levelo://app?vid=b52579cd-847b-48a0-8ab8-940edc8dda00","ios":"levelo://app?vid=b52579cd-847b-48a0-8ab8-940edc8dda00"},"vehicle_type_id":"4","last_reported":1716653279,"current_range_meters":14400,"station_id":"ce4bgv12rcd13ifvqcp0","pricing_plan_id":"cebpf4jnsgd1na2vs0mg"},{"bike_id":"1fb9de2a-38dd-4533-9022-cbfaa58d5cc7","system_id":"levelo_inurba_marseille","lat":43.311722,"lon":5.387247,"is_reserved":false,"is_disabled":false,"rental_uris":{"android":"levelo://app?vid=1fb9de2a-38dd-4533-9022-cbfaa58d5cc7","ios":"levelo://app?vid=1fb9de2a-38dd-4533-9022-cbfaa58d5cc7"},"vehicle_type_id":"4","last_reported":1716653279,"current_range_meters":0,"station_id":"ce4bgv12rcd13ifvqcp0","pricing_plan_id":"cebpf4jnsgd1na2vs0mg"},{"bike_id":"d50c644b-49bf-4947-ac00-36155e82d69c","system_id":"levelo_inurba_marseille","lat":43.311722,"lon":5.387247,"is_reserved":false,"is_disabled":false,"rental_uris":{"android":"levelo://app?vid=d50c644b-49bf-4947-ac00-36155e82d69c","ios":"levelo://app?vid=d50c644b-49bf-4947-ac00-36155e82d69c"},"vehicle_type_id":"4","last_reported":1716653279,"current_range_meters":10800,"station_id":"ce4bgv12rcd13ifvqcp0","pricing_plan_id":"cebpf4jnsgd1na2vs0mg"},{"bike_id":"fa80f5f8-3879-4bce-b809-87a998b104f3","system_id":"levelo_inurba_marseille","lat":43.299243,"lon":5.374807,"is_reserved":false,"is_disabled":false,"rental_uris":{"android":"levelo://app?vid=fa80f5f8-3879-4bce-b809-87a998b104f3","ios":"levelo://app?vid=fa80f5f8-3879-4bce-b809-87a998b104f3"},"vehicle_type_id":"4","last_reported":1716653279,"current_range_meters":2400,"station_id":"ce4bgjh2rcd13ifvqbg0","pricing_plan_id":"cebpf4jnsgd1na2vs0mg"},{"bike_id":"67b09338-c665-4d96-a07f-c9d94c712fca","system_id":"levelo_inurba_marseille","lat":43.311722,"lon":5.387247,"is_reserved":false,"is_disabled":false,"rental_uris":{"android":"levelo://app?vid=67b09338-c665-4d96-a07f-c9d94c712fca","ios":"levelo://app?vid=67b09338-c665-4d96-a07f-c9d94c712fca"},"vehicle_type_id":"4","last_reported":1716653279,"current_range_meters":15200,"station_id":"ce4bgv12rcd13ifvqcp0","pricing_plan_id":"cebpf4jnsgd1na2vs0mg"},{"bike_id":"2f97b8c7-85ec-4387-870a-3f7642cdbec1","system_id":"levelo_inurba_marseille","lat":43.311722,"lon":5.387247,"is_reserved":false,"is_disabled":false,"rental_uris":{"android":"levelo://app?vid=2f97b8c7-85ec-4387-870a-3f7642cdbec1","ios":"levelo://app?vid=2f97b8c7-85ec-4387-870a-3f7642cdbec1"},"vehicle_type_id":"4","last_reported":1716653279,"current_range_meters":12800,"station_id":"ce4bgv12rcd13ifvqcp0","pricing_plan_id":"cebpf4jnsgd1na2vs0mg"},{"bike_id":"ed492a4e-944e-43b3-bd26-4581a8e6f7a8","system_id":"levelo_inurba_marseille","lat":43.297794,"lon":5.370888,"is_reserved":false,"is_disabled":false,"rental_uris":{"android":"levelo://app?vid=ed492a4e-944e-43b3-bd26-4581a8e6f7a8","ios":"levelo://app?vid=ed492a4e-944e-43b3-bd26-4581a8e6f7a8"},"vehicle_type_id":"4","last_reported":1716653279,"current_range_meters":29600,"station_id":"ce4bgop2rcd13ifvqc1g","pricing_plan_id":"cebpf4jnsgd1na2vs0mg"},{"bike_id":"ca5f18c2-1aa0-476e-b86a-99f1532c2dfb","system_id":"levelo_inurba_marseille","lat":43.322872,"lon":5.382756,"is_reserved":false,"is_disabled":false,"rental_uris":{"android":"levelo://app?vid=ca5f18c2-1aa0-476e-b86a-99f1532c2dfb","ios":"levelo://app?vid=ca5f18c2-1aa0-476e-b86a-99f1532c2dfb"},"vehicle_type_id":"4","last_reported":1716653279,"current_range_meters":27200,"station_id":"ce4bhr12rcd13ifvqhqg","pricing_plan_id":"cebpf4jnsgd1na2vs0mg"},{"bike_id":"44991ac8-d706-4f51-9a70-e44937b720db","system_id":"levelo_inurba_marseille","lat":43.30219,"lon":5.38261,"is_reserved":false,"is_disabled":false,"rental_uris":{"android":"levelo://app?vid=44991ac8-d706-4f51-9a70-e44937b720db","ios":"levelo://app?vid=44991ac8-d706-4f51-9a70-e44937b720db"},"vehicle_type_id":"4","last_reported":1716653279,"current_range_meters":10000,"station_id":"","pricing_plan_id":"cebpf4jnsgd1na2vs0mg"},{"bike_id":"9d701e37-162a-4439-a4d9-083ae7488ae6","system_id":"levelo_inurba_marseille","lat":43.297163,"lon":5.365866,"is_reserved":false,"is_disabled":false,"rental_uris":{"android":"levelo://app?vid=9d701e37-162a-4439-a4d9-083ae7488ae6","ios":"levelo://app?vid=9d701e37-162a-4439-a4d9-083ae7488ae6"},"vehicle_type_id":"4","last_reported":1716653279,"current_range_meters":1600,"station_id":"ce4bgn12rcd13ifvqbt0","pricing_plan_id":"cebpf4jnsgd1na2vs0mg"},{"bike_id":"9d4e469c-cb90-4b76-a81f-43d44d9c517b","system_id":"levelo_inurba_marseille","lat":43.2968,"lon":5.37291,"is_reserved":false,"is_disabled":false,"rental_uris":{"android":"levelo://app?vid=9d4e469c-cb90-4b76-a81f-43d44d9c517b","ios":"levelo://app?vid=9d4e469c-cb90-4b76-a81f-43d44d9c517b"},"vehicle_type_id":"4","last_reported":1716653279,"current_range_meters":20400,"station_id":"ce4bgk12rcd13ifvqbj0","pricing_plan_id":"cebpf4jnsgd1na2vs0mg"},{"bike_id":"b0181dbd-d16d-4347-9382-b450da867146","system_id":"levelo_inurba_marseille","lat":43.29657,"lon":5.36162,"is_reserved":false,"is_disabled":false,"rental_uris":{"android":"levelo://app?vid=b0181dbd-d16d-4347-9382-b450da867146","ios":"levelo://app?vid=b0181dbd-d16d-4347-9382-b450da867146"},"vehicle_type_id":"4","last_reported":1716653279,"current_range_meters":8000,"station_id":"","pricing_plan_id":"cebpf4jnsgd1na2vs0mg"},{"bike_id":"2fc0afcd-fe3e-43b4-9df7-360215342c1d","system_id":"levelo_inurba_marseille","lat":43.296131,"lon":5.370791,"is_reserved":false,"is_disabled":false,"rental_uris":{"android":"levelo://app?vid=2fc0afcd-fe3e-43b4-9df7-360215342c1d","ios":"levelo://app?vid=2fc0afcd-fe3e-43b4-9df7-360215342c1d"},"vehicle_type_id":"4","last_reported":1716653279,"current_range_meters":8800,"station_id":"ce4bgnh2rcd13ifvqc0g","pricing_plan_id":"cebpf4jnsgd1na2vs0mg"},{"bike_id":"67efa602-8f75-4c9d-bb4c-cd3740a3304a","system_id":"levelo_inurba_marseille","lat":43.296131,"lon":5.370791,"is_reserved":false,"is_disabled":false,"rental_uris":{"android":"levelo://app?vid=67efa602-8f75-4c9d-bb4c-cd3740a3304a","ios":"levelo://app?vid=67efa602-8f75-4c9d-bb4c-cd3740a3304a"},"vehicle_type_id":"4","last_reported":1716653279,"current_range_meters":400,"station_id":"ce4bgnh2rcd13ifvqc0g","pricing_plan_id":"cebpf4jnsgd1na2vs0mg"},{"bike_id":"910aa3a1-e103-4650-9f4b-52dd580081a7","system_id":"levelo_inurba_marseille","lat":43.296129,"lon":5.370777,"is_reserved":false,"is_disabled":false,"rental_uris":{"android":"levelo://app?vid=910aa3a1-e103-4650-9f4b-52dd580081a7","ios":"levelo://app?vid=910aa3a1-e103-4650-9f4b-52dd580081a7"},"vehicle_type_id":"4","last_reported":1716653279,"current_range_meters":0,"station_id":"ce4bgnh2rcd13ifvqc0g","pricing_plan_id":"cebpf4jnsgd1na2vs0mg"},{"bike_id":"cac727a6-55fd-466f-8660-0f663a455471","system_id":"levelo_inurba_marseille","lat":43.296131,"lon":5.370773,"is_reserved":false,"is_disabled":false,"rental_uris":{"android":"levelo://app?vid=cac727a6-55fd-466f-8660-0f663a455471","ios":"levelo://app?vid=cac727a6-55fd-466f-8660-0f663a455471"},"vehicle_type_id":"4","last_reported":1716653279,"current_range_meters":5200,"station_id":"ce4bgnh2rcd13ifvqc0g","pricing_plan_id":"cebpf4jnsgd1na2vs0mg"},{"bike_id":"2a91ccda-0e42-4e01-8876-0a0e748d147e","system_id":"levelo_inurba_marseille","lat":43.296935,"lon":5.376544,"is_reserved":false,"is_disabled":false,"rental_uris":{"android":"levelo://app?vid=2a91ccda-0e42-4e01-8876-0a0e748d147e","ios":"levelo://app?vid=2a91ccda-0e42-4e01-8876-0a0e748d147e"},"vehicle_type_id":"4","last_reported":1716653279,"current_range_meters":15200,"station_id":"ce4bgkh2rcd13ifvqbl0","pricing_plan_id":"cebpf4jnsgd1na2vs0mg"},{"bike_id":"da0b63e0-7731-4c50-8e18-57270c8d8983","system_id":"levelo_inurba_marseille","lat":43.296921,"lon":5.376579,"is_reserved":false,"is_disabled":false,"rental_uris":{"android":"levelo://app?vid=da0b63e0-7731-4c50-8e18-57270c8d8983","ios":"levelo://app?vid=da0b63e0-7731-4c50-8e18-57270c8d8983"},"vehicle_type_id":"4","last_reported":1716653279,"current_range_meters":0,"station_id":"ce4bgkh2rcd13ifvqbl0","pricing_plan_id":"cebpf4jnsgd1na2vs0mg"},{"bike_id":"3f0b7d36-b9f5-49f3-9e17-58b6d1af2639","system_id":"levelo_inurba_marseille","lat":43.309589,"lon":5.390258,"is_reserved":false,"is_disabled":false,"rental_uris":{"android":"levelo://app?vid=3f0b7d36-b9f5-49f3-9e17-58b6d1af2639","ios":"levelo://app?vid=3f0b7d36-b9f5-49f3-9e17-58b6d1af2639"},"vehicle_type_id":"4","last_reported":1716653279,"current_range_meters":0,"station_id":"ce4bgup2rcd13ifvqco0","pricing_plan_id":"cebpf4jnsgd1na2vs0mg"},{"bike_id":"64d70e2f-4d1b-4798-b72f-4dbe8cb4d873","system_id":"levelo_inurba_marseille","lat":43.298037,"lon":5.381066,"is_reserved":false,"is_disabled":false,"rental_uris":{"android":"levelo://app?vid=64d70e2f-4d1b-4798-b72f-4dbe8cb4d873","ios":"levelo://app?vid=64d70e2f-4d1b-4798-b72f-4dbe8cb4d873"},"vehicle_type_id":"4","last_reported":1716653279,"current_range_meters":12400,"station_id":"ce4bgip2rcd13ifvqbb0","pricing_plan_id":"cebpf4jnsgd1na2vs0mg"},{"bike_id":"f69e6db4-29a2-4eab-951a-261e895764b7","system_id":"levelo_inurba_marseille","lat":43.298037,"lon":5.381066,"is_reserved":false,"is_disabled":false,"rental_uris":{"android":"levelo://app?vid=f69e6db4-29a2-4eab-951a-261e895764b7","ios":"levelo://app?vid=f69e6db4-29a2-4eab-951a-261e895764b7"},"vehicle_type_id":"4","last_reported":1716653279,"current_range_meters":2800,"station_id":"ce4bgip2rcd13ifvqbb0","pricing_plan_id":"cebpf4jnsgd1na2vs0mg"},{"bike_id":"c5b8c434-3b56-4785-8c30-067cb182cbad","system_id":"levelo_inurba_marseille","lat":43.29618,"lon":5.37706,"is_reserved":false,"is_disabled":false,"rental_uris":{"android":"levelo://app?vid=c5b8c434-3b56-4785-8c30-067cb182cbad","ios":"levelo://app?vid=c5b8c434-3b56-4785-8c30-067cb182cbad"},"vehicle_type_id":"4","last_reported":1716653279,"current_range_meters":0,"station_id":"ce4bgi92rcd13ifvqb90","pricing_plan_id":"cebpf4jnsgd1na2vs0mg"},{"bike_id":"4eead1b2-ccee-4ad8-94aa-61d80fb8ee59","system_id":"levelo_inurba_marseille","lat":43.304274,"lon":5.388873,"is_reserved":false,"is_disabled":false,"rental_uris":{"android":"levelo://app?vid=4eead1b2-ccee-4ad8-94aa-61d80fb8ee59","ios":"levelo://app?vid=4eead1b2-ccee-4ad8-94aa-61d80fb8ee59"},"vehicle_type_id":"4","last_reported":1716653279,"current_range_meters":7600,"station_id":"ce4bgk12rcd13ifvqbi0","pricing_plan_id":"cebpf4jnsgd1na2vs0mg"},{"bike_id":"a8d1f972-9f03-4b37-81c1-c71b4e841e34","system_id":"levelo_inurba_marseille","lat":43.29613,"lon":5.37717,"is_reserved":false,"is_disabled":false,"rental_uris":{"android":"levelo://app?vid=a8d1f972-9f03-4b37-81c1-c71b4e841e34","ios":"levelo://app?vid=a8d1f972-9f03-4b37-81c1-c71b4e841e34"},"vehicle_type_id":"4","last_reported":1716653279,"current_range_meters":10400,"station_id":"ce4bgi92rcd13ifvqb90","pricing_plan_id":"cebpf4jnsgd1na2vs0mg"},{"bike_id":"c9094782-f2b6-43ae-9b42-77bbc44c5363","system_id":"levelo_inurba_marseille","lat":43.29975,"lon":5.3849,"is_reserved":false,"is_disabled":false,"rental_uris":{"android":"levelo://app?vid=c9094782-f2b6-43ae-9b42-77bbc44c5363","ios":"levelo://app?vid=c9094782-f2b6-43ae-9b42-77bbc44c5363"},"vehicle_type_id":"4","last_reported":1716653279,"current_range_meters":0,"station_id":"ce4bgj92rcd13ifvqbd0","pricing_plan_id":"cebpf4jnsgd1na2vs0mg"},{"bike_id":"d014cf3e-048b-41f0-8f75-4b7171a47831","system_id":"levelo_inurba_marseille","lat":43.299724,"lon":5.384848,"is_reserved":false,"is_disabled":false,"rental_uris":{"android":"levelo://app?vid=d014cf3e-048b-41f0-8f75-4b7171a47831","ios":"levelo://app?vid=d014cf3e-048b-41f0-8f75-4b7171a47831"},"vehicle_type_id":"4","last_reported":1716653279,"current_range_meters":31200,"station_id":"ce4bgj92rcd13ifvqbd0","pricing_plan_id":"cebpf4jnsgd1na2vs0mg"},{"bike_id":"7cc0e144-b1a3-4318-9f18-50f1a5b02e37","system_id":"levelo_inurba_marseille","lat":43.299707,"lon":5.384859,"is_reserved":false,"is_disabled":false,"rental_uris":{"android":"levelo://app?vid=7cc0e144-b1a3-4318-9f18-50f1a5b02e37","ios":"levelo://app?vid=7cc0e144-b1a3-4318-9f18-50f1a5b02e37"},"vehicle_type_id":"4","last_reported":1716653279,"current_range_meters":0,"station_id":"ce4bgj92rcd13ifvqbd0","pricing_plan_id":"cebpf4jnsgd1na2vs0mg"},{"bike_id":"ea5c8d42-c861-4802-a2ac-9f57d3bd183f","system_id":"levelo_inurba_marseille","lat":43.299702,"lon":5.384961,"is_reserved":false,"is_disabled":false,"rental_uris":{"android":"levelo://app?vid=ea5c8d42-c861-4802-a2ac-9f57d3bd183f","ios":"levelo://app?vid=ea5c8d42-c861-4802-a2ac-9f57d3bd183f"},"vehicle_type_id":"4","last_reported":1716653279,"current_range_meters":31200,"station_id":"ce4bgj92rcd13ifvqbd0","pricing_plan_id":"cebpf4jnsgd1na2vs0mg"},{"bike_id":"facdccb6-1cca-4b06-b2ba-78f208b81083","system_id":"levelo_inurba_marseille","lat":43.304278,"lon":5.388868,"is_reserved":false,"is_disabled":false,"rental_uris":{"android":"levelo://app?vid=facdccb6-1cca-4b06-b2ba-78f208b81083","ios":"levelo://app?vid=facdccb6-1cca-4b06-b2ba-78f208b81083"},"vehicle_type_id":"4","last_reported":1716653279,"current_range_meters":0,"station_id":"ce4bgk12rcd13ifvqbi0","pricing_plan_id":"cebpf4jnsgd1na2vs0mg"},{"bike_id":"9684c11c-57a5-4d49-850e-eb16b2b216be","system_id":"levelo_inurba_marseille","lat":43.29967,"lon":5.384996,"is_reserved":false,"is_disabled":false,"rental_uris":{"android":"levelo://app?vid=9684c11c-57a5-4d49-850e-eb16b2b216be","ios":"levelo://app?vid=9684c11c-57a5-4d49-850e-eb16b2b216be"},"vehicle_type_id":"4","last_reported":1716653279,"current_range_meters":0,"station_id":"ce4bgj92rcd13ifvqbd0","pricing_plan_id":"cebpf4jnsgd1na2vs0mg"},{"bike_id":"22cf8311-28ca-40e3-9aec-162bbe0bc555","system_id":"levelo_inurba_marseille","lat":43.29965,"lon":5.38499,"is_reserved":false,"is_disabled":false,"rental_uris":{"android":"levelo://app?vid=22cf8311-28ca-40e3-9aec-162bbe0bc555","ios":"levelo://app?vid=22cf8311-28ca-40e3-9aec-162bbe0bc555"},"vehicle_type_id":"4","last_reported":1716653279,"current_range_meters":0,"station_id":"ce4bgj92rcd13ifvqbd0","pricing_plan_id":"cebpf4jnsgd1na2vs0mg"},{"bike_id":"2e3f0ee3-6ab6-4e31-893e-b77a2899d1e0","system_id":"levelo_inurba_marseille","lat":43.299293,"lon":5.38511,"is_reserved":false,"is_disabled":false,"rental_uris":{"android":"levelo://app?vid=2e3f0ee3-6ab6-4e31-893e-b77a2899d1e0","ios":"levelo://app?vid=2e3f0ee3-6ab6-4e31-893e-b77a2899d1e0"},"vehicle_type_id":"4","last_reported":1716653279,"current_range_meters":0,"station_id":"","pricing_plan_id":"cebpf4jnsgd1na2vs0mg"},{"bike_id":"78252e3e-8eff-4ccb-a142-6526e4cc39f4","system_id":"levelo_inurba_marseille","lat":43.30089,"lon":5.38729,"is_reserved":false,"is_disabled":false,"rental_uris":{"android":"levelo://app?vid=78252e3e-8eff-4ccb-a142-6526e4cc39f4","ios":"levelo://app?vid=78252e3e-8eff-4ccb-a142-6526e4cc39f4"},"vehicle_type_id":"4","last_reported":1716653279,"current_range_meters":0,"station_id":"","pricing_plan_id":"cebpf4jnsgd1na2vs0mg"},{"bike_id":"1e593bb2-160f-468e-9f14-55372ed2be9f","system_id":"levelo_inurba_marseille","lat":43.32367,"lon":5.388836,"is_reserved":false,"is_disabled":false,"rental_uris":{"android":"levelo://app?vid=1e593bb2-160f-468e-9f14-55372ed2be9f","ios":"levelo://app?vid=1e593bb2-160f-468e-9f14-55372ed2be9f"},"vehicle_type_id":"4","last_reported":1716653279,"current_range_meters":0,"station_id":"ce4bhqp2rcd13ifvqhog","pricing_plan_id":"cebpf4jnsgd1na2vs0mg"},{"bike_id":"c996a851-f571-4fa4-9e55-470275c91e47","system_id":"levelo_inurba_marseille","lat":43.32367,"lon":5.388836,"is_reserved":false,"is_disabled":false,"rental_uris":{"android":"levelo://app?vid=c996a851-f571-4fa4-9e55-470275c91e47","ios":"levelo://app?vid=c996a851-f571-4fa4-9e55-470275c91e47"},"vehicle_type_id":"4","last_reported":1716653279,"current_range_meters":2800,"station_id":"ce4bhqp2rcd13ifvqhog","pricing_plan_id":"cebpf4jnsgd1na2vs0mg"},{"bike_id":"a7f311c6-f9d3-4227-8de3-4bf7b4c9952c","system_id":"levelo_inurba_marseille","lat":43.293259,"lon":5.371586,"is_reserved":false,"is_disabled":false,"rental_uris":{"android":"levelo://app?vid=a7f311c6-f9d3-4227-8de3-4bf7b4c9952c","ios":"levelo://app?vid=a7f311c6-f9d3-4227-8de3-4bf7b4c9952c"},"vehicle_type_id":"4","last_reported":1716653279,"current_range_meters":19200,"station_id":"ce4bgh92rcd13ifvqb40","pricing_plan_id":"cebpf4jnsgd1na2vs0mg"},{"bike_id":"e5577034-d07a-4d0a-9c03-372c8379c96b","system_id":"levelo_inurba_marseille","lat":43.292749,"lon":5.368402,"is_reserved":false,"is_disabled":false,"rental_uris":{"android":"levelo://app?vid=e5577034-d07a-4d0a-9c03-372c8379c96b","ios":"levelo://app?vid=e5577034-d07a-4d0a-9c03-372c8379c96b"},"vehicle_type_id":"4","last_reported":1716653279,"current_range_meters":0,"station_id":"ce4bhbp2rcd13ifvqesg","pricing_plan_id":"cebpf4jnsgd1na2vs0mg"},{"bike_id":"0c8502e4-d8af-48ab-9b17-7f708233963f","system_id":"levelo_inurba_marseille","lat":43.293009,"lon":5.374584,"is_reserved":false,"is_disabled":false,"rental_uris":{"android":"levelo://app?vid=0c8502e4-d8af-48ab-9b17-7f708233963f","ios":"levelo://app?vid=0c8502e4-d8af-48ab-9b17-7f708233963f"},"vehicle_type_id":"4","last_reported":1716653279,"current_range_meters":4400,"station_id":"ce4bgi12rcd13ifvqb70","pricing_plan_id":"cebpf4jnsgd1na2vs0mg"},{"bike_id":"78aef376-dd98-4b5a-92a3-fc7ba99766b2","system_id":"levelo_inurba_marseille","lat":43.293009,"lon":5.374584,"is_reserved":false,"is_disabled":false,"rental_uris":{"android":"levelo://app?vid=78aef376-dd98-4b5a-92a3-fc7ba99766b2","ios":"levelo://app?vid=78aef376-dd98-4b5a-92a3-fc7ba99766b2"},"vehicle_type_id":"4","last_reported":1716653279,"current_range_meters":21200,"station_id":"ce4bgi12rcd13ifvqb70","pricing_plan_id":"cebpf4jnsgd1na2vs0mg"},{"bike_id":"c05a8a5f-4951-49c8-8284-ddef691547ff","system_id":"levelo_inurba_marseille","lat":43.305994,"lon":5.393687,"is_reserved":false,"is_disabled":false,"rental_uris":{"android":"levelo://app?vid=c05a8a5f-4951-49c8-8284-ddef691547ff","ios":"levelo://app?vid=c05a8a5f-4951-49c8-8284-ddef691547ff"},"vehicle_type_id":"4","last_reported":1716653279,"current_range_meters":24000,"station_id":"ce4bh0p2rcd13ifvqd80","pricing_plan_id":"cebpf4jnsgd1na2vs0mg"},{"bike_id":"ebbfe910-21f7-42d3-8cb6-ab82a5d413c3","system_id":"levelo_inurba_marseille","lat":43.302992,"lon":5.392136,"is_reserved":false,"is_disabled":false,"rental_uris":{"android":"levelo://app?vid=ebbfe910-21f7-42d3-8cb6-ab82a5d413c3","ios":"levelo://app?vid=ebbfe910-21f7-42d3-8cb6-ab82a5d413c3"},"vehicle_type_id":"4","last_reported":1716653279,"current_range_meters":19600,"station_id":"ce4bgkh2rcd13ifvqbk0","pricing_plan_id":"cebpf4jnsgd1na2vs0mg"},{"bike_id":"ea931a8c-7ce5-450e-a3de-eb496ac13a97","system_id":"levelo_inurba_marseille","lat":43.303002,"lon":5.392142,"is_reserved":false,"is_disabled":false,"rental_uris":{"android":"levelo://app?vid=ea931a8c-7ce5-450e-a3de-eb496ac13a97","ios":"levelo://app?vid=ea931a8c-7ce5-450e-a3de-eb496ac13a97"},"vehicle_type_id":"4","last_reported":1716653279,"current_range_meters":3600,"station_id":"ce4bgkh2rcd13ifvqbk0","pricing_plan_id":"cebpf4jnsgd1na2vs0mg"},{"bike_id":"1c8682e9-8496-4b84-8850-068f98acc65a","system_id":"levelo_inurba_marseille","lat":43.293741,"lon":5.378533,"is_reserved":false,"is_disabled":false,"rental_uris":{"android":"levelo://app?vid=1c8682e9-8496-4b84-8850-068f98acc65a","ios":"levelo://app?vid=1c8682e9-8496-4b84-8850-068f98acc65a"},"vehicle_type_id":"4","last_reported":1716653279,"current_range_meters":22800,"station_id":"","pricing_plan_id":"cebpf4jnsgd1na2vs0mg"},{"bike_id":"8467f2f7-90b9-49fb-944a-ff62309c2ca0","system_id":"levelo_inurba_marseille","lat":43.292311,"lon":5.360731,"is_reserved":false,"is_disabled":false,"rental_uris":{"android":"levelo://app?vid=8467f2f7-90b9-49fb-944a-ff62309c2ca0","ios":"levelo://app?vid=8467f2f7-90b9-49fb-944a-ff62309c2ca0"},"vehicle_type_id":"4","last_reported":1716653279,"current_range_meters":0,"station_id":"ce4bhbh2rcd13ifvqeqg","pricing_plan_id":"cebpf4jnsgd1na2vs0mg"},{"bike_id":"0c9510d9-77b4-48b7-9b15-a2d9ab4c135c","system_id":"levelo_inurba_marseille","lat":43.30085,"lon":5.390856,"is_reserved":false,"is_disabled":false,"rental_uris":{"android":"levelo://app?vid=0c9510d9-77b4-48b7-9b15-a2d9ab4c135c","ios":"levelo://app?vid=0c9510d9-77b4-48b7-9b15-a2d9ab4c135c"},"vehicle_type_id":"4","last_reported":1716653279,"current_range_meters":21200,"station_id":"ce4bh192rcd13ifvqdb0","pricing_plan_id":"cebpf4jnsgd1na2vs0mg"},{"bike_id":"7b837f57-a6d0-4347-808e-c6bb40d1e065","system_id":"levelo_inurba_marseille","lat":43.292311,"lon":5.360731,"is_reserved":false,"is_disabled":false,"rental_uris":{"android":"levelo://app?vid=7b837f57-a6d0-4347-808e-c6bb40d1e065","ios":"levelo://app?vid=7b837f57-a6d0-4347-808e-c6bb40d1e065"},"vehicle_type_id":"4","last_reported":1716653279,"current_range_meters":7200,"station_id":"ce4bhbh2rcd13ifvqeqg","pricing_plan_id":"cebpf4jnsgd1na2vs0mg"},{"bike_id":"4b1c43f4-a87e-48a7-a23e-7cccc2e08a17","system_id":"levelo_inurba_marseille","lat":43.292311,"lon":5.360731,"is_reserved":false,"is_disabled":false,"rental_uris":{"android":"levelo://app?vid=4b1c43f4-a87e-48a7-a23e-7cccc2e08a17","ios":"levelo://app?vid=4b1c43f4-a87e-48a7-a23e-7cccc2e08a17"},"vehicle_type_id":"4","last_reported":1716653279,"current_range_meters":0,"station_id":"ce4bhbh2rcd13ifvqeqg","pricing_plan_id":"cebpf4jnsgd1na2vs0mg"},{"bike_id":"acb6eb62-cc5a-4a00-877d-1e20a6b34b8f","system_id":"levelo_inurba_marseille","lat":43.292311,"lon":5.360731,"is_reserved":false,"is_disabled":false,"rental_uris":{"android":"levelo://app?vid=acb6eb62-cc5a-4a00-877d-1e20a6b34b8f","ios":"levelo://app?vid=acb6eb62-cc5a-4a00-877d-1e20a6b34b8f"},"vehicle_type_id":"4","last_reported":1716653279,"current_range_meters":0,"station_id":"ce4bhbh2rcd13ifvqeqg","pricing_plan_id":"cebpf4jnsgd1na2vs0mg"},{"bike_id":"f6df66a7-f62f-467a-aec4-d375a3bd275e","system_id":"levelo_inurba_marseille","lat":43.298764,"lon":5.388973,"is_reserved":false,"is_disabled":false,"rental_uris":{"android":"levelo://app?vid=f6df66a7-f62f-467a-aec4-d375a3bd275e","ios":"levelo://app?vid=f6df66a7-f62f-467a-aec4-d375a3bd275e"},"vehicle_type_id":"4","last_reported":1716653279,"current_range_meters":18400,"station_id":"ce4bh392rcd13ifvqdl0","pricing_plan_id":"cebpf4jnsgd1na2vs0mg"},{"bike_id":"8ed1fc01-5007-4b3d-8df3-39242a7f39f6","system_id":"levelo_inurba_marseille","lat":43.29164,"lon":5.37161,"is_reserved":false,"is_disabled":false,"rental_uris":{"android":"levelo://app?vid=8ed1fc01-5007-4b3d-8df3-39242a7f39f6","ios":"levelo://app?vid=8ed1fc01-5007-4b3d-8df3-39242a7f39f6"},"vehicle_type_id":"4","last_reported":1716653279,"current_range_meters":0,"station_id":"ce4bha92rcd13ifvqeh0","pricing_plan_id":"cebpf4jnsgd1na2vs0mg"},{"bike_id":"e7eb5406-6ab9-4702-84d7-6b6785cfe1fa","system_id":"levelo_inurba_marseille","lat":43.281044,"lon":5.378308,"is_reserved":false,"is_disabled":false,"rental_uris":{"android":"levelo://app?vid=e7eb5406-6ab9-4702-84d7-6b6785cfe1fa","ios":"levelo://app?vid=e7eb5406-6ab9-4702-84d7-6b6785cfe1fa"},"vehicle_type_id":"4","last_reported":1716653279,"current_range_meters":0,"station_id":"ce4bha12rcd13ifvqee0","pricing_plan_id":"cebpf4jnsgd1na2vs0mg"},{"bike_id":"34e066b6-5d52-4a09-8c1a-13997b5d947a","system_id":"levelo_inurba_marseille","lat":43.291952,"lon":5.35808,"is_reserved":false,"is_disabled":false,"rental_uris":{"android":"levelo://app?vid=34e066b6-5d52-4a09-8c1a-13997b5d947a","ios":"levelo://app?vid=34e066b6-5d52-4a09-8c1a-13997b5d947a"},"vehicle_type_id":"4","last_reported":1716653279,"current_range_meters":11600,"station_id":"ce4bhb12rcd13ifvqel0","pricing_plan_id":"cebpf4jnsgd1na2vs0mg"},{"bike_id":"1ebd76d4-da02-47a6-b99f-fcd5935a8006","system_id":"levelo_inurba_marseille","lat":43.313291,"lon":5.396838,"is_reserved":false,"is_disabled":false,"rental_uris":{"android":"levelo://app?vid=1ebd76d4-da02-47a6-b99f-fcd5935a8006","ios":"levelo://app?vid=1ebd76d4-da02-47a6-b99f-fcd5935a8006"},"vehicle_type_id":"4","last_reported":1716653279,"current_range_meters":13600,"station_id":"ce4bgvp2rcd13ifvqcu0","pricing_plan_id":"cebpf4jnsgd1na2vs0mg"},{"bike_id":"b1c7e14e-07d5-41d8-af21-ca572bf3fbf8","system_id":"levelo_inurba_marseille","lat":43.292005,"lon":5.357875,"is_reserved":false,"is_disabled":false,"rental_uris":{"android":"levelo://app?vid=b1c7e14e-07d5-41d8-af21-ca572bf3fbf8","ios":"levelo://app?vid=b1c7e14e-07d5-41d8-af21-ca572bf3fbf8"},"vehicle_type_id":"4","last_reported":1716653279,"current_range_meters":0,"station_id":"ce4bhb12rcd13ifvqel0","pricing_plan_id":"cebpf4jnsgd1na2vs0mg"},{"bike_id":"b00f24ca-c41c-4865-84be-4bac846a8ad6","system_id":"levelo_inurba_marseille","lat":43.309047,"lon":5.396551,"is_reserved":false,"is_disabled":false,"rental_uris":{"android":"levelo://app?vid=b00f24ca-c41c-4865-84be-4bac846a8ad6","ios":"levelo://app?vid=b00f24ca-c41c-4865-84be-4bac846a8ad6"},"vehicle_type_id":"4","last_reported":1716653279,"current_range_meters":22000,"station_id":"ce4bh012rcd13ifvqcv0","pricing_plan_id":"cebpf4jnsgd1na2vs0mg"},{"bike_id":"b9e841ae-2fb5-4fe1-bcbe-bc76af72797f","system_id":"levelo_inurba_marseille","lat":43.294162,"lon":5.386292,"is_reserved":false,"is_disabled":false,"rental_uris":{"android":"levelo://app?vid=b9e841ae-2fb5-4fe1-bcbe-bc76af72797f","ios":"levelo://app?vid=b9e841ae-2fb5-4fe1-bcbe-bc76af72797f"},"vehicle_type_id":"4","last_reported":1716653279,"current_range_meters":3200,"station_id":"ce4bh2h2rcd13ifvqdh0","pricing_plan_id":"cebpf4jnsgd1na2vs0mg"},{"bike_id":"d81619b7-29ef-407c-bfaf-d9cdb8589001","system_id":"levelo_inurba_marseille","lat":43.309038,"lon":5.396546,"is_reserved":false,"is_disabled":false,"rental_uris":{"android":"levelo://app?vid=d81619b7-29ef-407c-bfaf-d9cdb8589001","ios":"levelo://app?vid=d81619b7-29ef-407c-bfaf-d9cdb8589001"},"vehicle_type_id":"4","last_reported":1716653279,"current_range_meters":14000,"station_id":"ce4bh012rcd13ifvqcv0","pricing_plan_id":"cebpf4jnsgd1na2vs0mg"},{"bike_id":"5fb45de2-19f0-4ffc-94e3-6d7c28e667d2","system_id":"levelo_inurba_marseille","lat":43.29179,"lon":5.35796,"is_reserved":false,"is_disabled":false,"rental_uris":{"android":"levelo://app?vid=5fb45de2-19f0-4ffc-94e3-6d7c28e667d2","ios":"levelo://app?vid=5fb45de2-19f0-4ffc-94e3-6d7c28e667d2"},"vehicle_type_id":"4","last_reported":1716653279,"current_range_meters":0,"station_id":"ce4bhb12rcd13ifvqel0","pricing_plan_id":"cebpf4jnsgd1na2vs0mg"},{"bike_id":"e699614f-4153-44dd-84a7-587f13ef847d","system_id":"levelo_inurba_marseille","lat":43.29538,"lon":5.385431,"is_reserved":false,"is_disabled":false,"rental_uris":{"android":"levelo://app?vid=e699614f-4153-44dd-84a7-587f13ef847d","ios":"levelo://app?vid=e699614f-4153-44dd-84a7-587f13ef847d"},"vehicle_type_id":"4","last_reported":1716653279,"current_range_meters":0,"station_id":"ce4bgih2rcd13ifvqba0","pricing_plan_id":"cebpf4jnsgd1na2vs0mg"},{"bike_id":"a4522bc7-01fe-4073-b313-c7d9f94d4dc3","system_id":"levelo_inurba_marseille","lat":43.309017,"lon":5.396727,"is_reserved":false,"is_disabled":false,"rental_uris":{"android":"levelo://app?vid=a4522bc7-01fe-4073-b313-c7d9f94d4dc3","ios":"levelo://app?vid=a4522bc7-01fe-4073-b313-c7d9f94d4dc3"},"vehicle_type_id":"4","last_reported":1716653279,"current_range_meters":22000,"station_id":"","pricing_plan_id":"cebpf4jnsgd1na2vs0mg"},{"bike_id":"f42b7fab-9fe6-48c7-bc7c-3d8914886872","system_id":"levelo_inurba_marseille","lat":43.29529,"lon":5.385581,"is_reserved":false,"is_disabled":false,"rental_uris":{"android":"levelo://app?vid=f42b7fab-9fe6-48c7-bc7c-3d8914886872","ios":"levelo://app?vid=f42b7fab-9fe6-48c7-bc7c-3d8914886872"},"vehicle_type_id":"4","last_reported":1716653279,"current_range_meters":4800,"station_id":"ce4bgih2rcd13ifvqba0","pricing_plan_id":"cebpf4jnsgd1na2vs0mg"},{"bike_id":"514604a5-6dba-4551-9341-809ef206f861","system_id":"levelo_inurba_marseille","lat":43.29529,"lon":5.385581,"is_reserved":false,"is_disabled":false,"rental_uris":{"android":"levelo://app?vid=514604a5-6dba-4551-9341-809ef206f861","ios":"levelo://app?vid=514604a5-6dba-4551-9341-809ef206f861"},"vehicle_type_id":"4","last_reported":1716653279,"current_range_meters":0,"station_id":"ce4bgih2rcd13ifvqba0","pricing_plan_id":"cebpf4jnsgd1na2vs0mg"},{"bike_id":"b74d419c-faab-435d-903d-3fb715ebdb59","system_id":"levelo_inurba_marseille","lat":43.29529,"lon":5.385581,"is_reserved":false,"is_disabled":false,"rental_uris":{"android":"levelo://app?vid=b74d419c-faab-435d-903d-3fb715ebdb59","ios":"levelo://app?vid=b74d419c-faab-435d-903d-3fb715ebdb59"},"vehicle_type_id":"4","last_reported":1716653279,"current_range_meters":24800,"station_id":"ce4bgih2rcd13ifvqba0","pricing_plan_id":"cebpf4jnsgd1na2vs0mg"},{"bike_id":"2981e5f6-530b-4ffa-a250-78833ab69c31","system_id":"levelo_inurba_marseille","lat":43.290779,"lon":5.371482,"is_reserved":false,"is_disabled":false,"rental_uris":{"android":"levelo://app?vid=2981e5f6-530b-4ffa-a250-78833ab69c31","ios":"levelo://app?vid=2981e5f6-530b-4ffa-a250-78833ab69c31"},"vehicle_type_id":"4","last_reported":1716653279,"current_range_meters":8400,"station_id":"ce4bh5p2rcd13ifvqe4g","pricing_plan_id":"cebpf4jnsgd1na2vs0mg"},{"bike_id":"01872126-7cf1-466f-95e8-e27207e6663c","system_id":"levelo_inurba_marseille","lat":43.290779,"lon":5.371482,"is_reserved":false,"is_disabled":false,"rental_uris":{"android":"levelo://app?vid=01872126-7cf1-466f-95e8-e27207e6663c","ios":"levelo://app?vid=01872126-7cf1-466f-95e8-e27207e6663c"},"vehicle_type_id":"4","last_reported":1716653279,"current_range_meters":10800,"station_id":"ce4bh5p2rcd13ifvqe4g","pricing_plan_id":"cebpf4jnsgd1na2vs0mg"},{"bike_id":"fa98bc69-016c-4075-8fb9-a14d33bad5ed","system_id":"levelo_inurba_marseille","lat":43.290779,"lon":5.371482,"is_reserved":false,"is_disabled":false,"rental_uris":{"android":"levelo://app?vid=fa98bc69-016c-4075-8fb9-a14d33bad5ed","ios":"levelo://app?vid=fa98bc69-016c-4075-8fb9-a14d33bad5ed"},"vehicle_type_id":"4","last_reported":1716653279,"current_range_meters":20000,"station_id":"ce4bh5p2rcd13ifvqe4g","pricing_plan_id":"cebpf4jnsgd1na2vs0mg"},{"bike_id":"4e76e5fc-f609-471f-a687-fa751f590ca7","system_id":"levelo_inurba_marseille","lat":43.302008,"lon":5.394694,"is_reserved":false,"is_disabled":false,"rental_uris":{"android":"levelo://app?vid=4e76e5fc-f609-471f-a687-fa751f590ca7","ios":"levelo://app?vid=4e76e5fc-f609-471f-a687-fa751f590ca7"},"vehicle_type_id":"4","last_reported":1716653279,"current_range_meters":6800,"station_id":"ce4bh0p2rcd13ifvqd70","pricing_plan_id":"cebpf4jnsgd1na2vs0mg"},{"bike_id":"643d76fa-ed91-4ad3-ba55-70dbc5934b05","system_id":"levelo_inurba_marseille","lat":43.290631,"lon":5.359244,"is_reserved":false,"is_disabled":false,"rental_uris":{"android":"levelo://app?vid=643d76fa-ed91-4ad3-ba55-70dbc5934b05","ios":"levelo://app?vid=643d76fa-ed91-4ad3-ba55-70dbc5934b05"},"vehicle_type_id":"4","last_reported":1716653279,"current_range_meters":18000,"station_id":"ce4bha92rcd13ifvqeg0","pricing_plan_id":"cebpf4jnsgd1na2vs0mg"},{"bike_id":"ff7fc4d1-5315-45b8-a692-32f12372ae34","system_id":"levelo_inurba_marseille","lat":43.290624,"lon":5.359245,"is_reserved":false,"is_disabled":false,"rental_uris":{"android":"levelo://app?vid=ff7fc4d1-5315-45b8-a692-32f12372ae34","ios":"levelo://app?vid=ff7fc4d1-5315-45b8-a692-32f12372ae34"},"vehicle_type_id":"4","last_reported":1716653279,"current_range_meters":15200,"station_id":"ce4bha92rcd13ifvqeg0","pricing_plan_id":"cebpf4jnsgd1na2vs0mg"},{"bike_id":"7cfa2e9d-e3a3-4b49-b1db-e0a9299aa9d7","system_id":"levelo_inurba_marseille","lat":43.29091,"lon":5.35584,"is_reserved":false,"is_disabled":false,"rental_uris":{"android":"levelo://app?vid=7cfa2e9d-e3a3-4b49-b1db-e0a9299aa9d7","ios":"levelo://app?vid=7cfa2e9d-e3a3-4b49-b1db-e0a9299aa9d7"},"vehicle_type_id":"4","last_reported":1716653279,"current_range_meters":9200,"station_id":"ce4bha92rcd13ifvqeg0","pricing_plan_id":"cebpf4jnsgd1na2vs0mg"},{"bike_id":"d910cafa-c04b-4b93-9c24-d7191eaf2115","system_id":"levelo_inurba_marseille","lat":43.294153,"lon":5.386305,"is_reserved":false,"is_disabled":false,"rental_uris":{"android":"levelo://app?vid=d910cafa-c04b-4b93-9c24-d7191eaf2115","ios":"levelo://app?vid=d910cafa-c04b-4b93-9c24-d7191eaf2115"},"vehicle_type_id":"4","last_reported":1716653279,"current_range_meters":12800,"station_id":"ce4bh2h2rcd13ifvqdh0","pricing_plan_id":"cebpf4jnsgd1na2vs0mg"},{"bike_id":"915a8965-0e12-4e94-ac34-c10560d37fcd","system_id":"levelo_inurba_marseille","lat":43.294162,"lon":5.386292,"is_reserved":false,"is_disabled":false,"rental_uris":{"android":"levelo://app?vid=915a8965-0e12-4e94-ac34-c10560d37fcd","ios":"levelo://app?vid=915a8965-0e12-4e94-ac34-c10560d37fcd"},"vehicle_type_id":"4","last_reported":1716653279,"current_range_meters":10800,"station_id":"ce4bh2h2rcd13ifvqdh0","pricing_plan_id":"cebpf4jnsgd1na2vs0mg"},{"bike_id":"0a85871c-3760-4058-a17e-5e00dc86f0a0","system_id":"levelo_inurba_marseille","lat":43.289184,"lon":5.366408,"is_reserved":false,"is_disabled":false,"rental_uris":{"android":"levelo://app?vid=0a85871c-3760-4058-a17e-5e00dc86f0a0","ios":"levelo://app?vid=0a85871c-3760-4058-a17e-5e00dc86f0a0"},"vehicle_type_id":"4","last_reported":1716653279,"current_range_meters":30400,"station_id":"ce4bhap2rcd13ifvqek0","pricing_plan_id":"cebpf4jnsgd1na2vs0mg"},{"bike_id":"9430ff96-d8bf-48b7-a065-c8f6a1e980a2","system_id":"levelo_inurba_marseille","lat":43.289468,"lon":5.363719,"is_reserved":false,"is_disabled":false,"rental_uris":{"android":"levelo://app?vid=9430ff96-d8bf-48b7-a065-c8f6a1e980a2","ios":"levelo://app?vid=9430ff96-d8bf-48b7-a065-c8f6a1e980a2"},"vehicle_type_id":"4","last_reported":1716653279,"current_range_meters":2000,"station_id":"ce4bhc92rcd13ifvqetg","pricing_plan_id":"cebpf4jnsgd1na2vs0mg"},{"bike_id":"9378baa5-f3fa-43e5-b005-1205996e9a8c","system_id":"levelo_inurba_marseille","lat":43.289237,"lon":5.366924,"is_reserved":false,"is_disabled":false,"rental_uris":{"android":"levelo://app?vid=9378baa5-f3fa-43e5-b005-1205996e9a8c","ios":"levelo://app?vid=9378baa5-f3fa-43e5-b005-1205996e9a8c"},"vehicle_type_id":"4","last_reported":1716653279,"current_range_meters":3600,"station_id":"ce4bhap2rcd13ifvqek0","pricing_plan_id":"cebpf4jnsgd1na2vs0mg"},{"bike_id":"f6fc974b-d6b3-4562-8e83-05ef84d34d8b","system_id":"levelo_inurba_marseille","lat":43.292644,"lon":5.384257,"is_reserved":false,"is_disabled":false,"rental_uris":{"android":"levelo://app?vid=f6fc974b-d6b3-4562-8e83-05ef84d34d8b","ios":"levelo://app?vid=f6fc974b-d6b3-4562-8e83-05ef84d34d8b"},"vehicle_type_id":"4","last_reported":1716653279,"current_range_meters":22800,"station_id":"ce4bh692rcd13ifvqea0","pricing_plan_id":"cebpf4jnsgd1na2vs0mg"},{"bike_id":"4ff92941-2cf1-453a-876f-d4e74c6ef265","system_id":"levelo_inurba_marseille","lat":43.292644,"lon":5.384257,"is_reserved":false,"is_disabled":false,"rental_uris":{"android":"levelo://app?vid=4ff92941-2cf1-453a-876f-d4e74c6ef265","ios":"levelo://app?vid=4ff92941-2cf1-453a-876f-d4e74c6ef265"},"vehicle_type_id":"4","last_reported":1716653279,"current_range_meters":11200,"station_id":"ce4bh692rcd13ifvqea0","pricing_plan_id":"cebpf4jnsgd1na2vs0mg"},{"bike_id":"2ca6061e-f1da-4969-ba1e-84c186af4e4b","system_id":"levelo_inurba_marseille","lat":43.290103,"lon":5.356114,"is_reserved":false,"is_disabled":false,"rental_uris":{"android":"levelo://app?vid=2ca6061e-f1da-4969-ba1e-84c186af4e4b","ios":"levelo://app?vid=2ca6061e-f1da-4969-ba1e-84c186af4e4b"},"vehicle_type_id":"4","last_reported":1716653279,"current_range_meters":22800,"station_id":"ce4bhb92rcd13ifvqen0","pricing_plan_id":"cebpf4jnsgd1na2vs0mg"},{"bike_id":"35e226fd-1648-43e1-83b0-2451952085fe","system_id":"levelo_inurba_marseille","lat":43.290103,"lon":5.356114,"is_reserved":false,"is_disabled":false,"rental_uris":{"android":"levelo://app?vid=35e226fd-1648-43e1-83b0-2451952085fe","ios":"levelo://app?vid=35e226fd-1648-43e1-83b0-2451952085fe"},"vehicle_type_id":"4","last_reported":1716653279,"current_range_meters":0,"station_id":"ce4bhb92rcd13ifvqen0","pricing_plan_id":"cebpf4jnsgd1na2vs0mg"},{"bike_id":"38ca718c-22de-48f5-a288-2fa710d26110","system_id":"levelo_inurba_marseille","lat":43.290104,"lon":5.356111,"is_reserved":false,"is_disabled":false,"rental_uris":{"android":"levelo://app?vid=38ca718c-22de-48f5-a288-2fa710d26110","ios":"levelo://app?vid=38ca718c-22de-48f5-a288-2fa710d26110"},"vehicle_type_id":"4","last_reported":1716653279,"current_range_meters":3600,"station_id":"ce4bhb92rcd13ifvqen0","pricing_plan_id":"cebpf4jnsgd1na2vs0mg"},{"bike_id":"f45c8ee7-9e09-4262-abc5-b29241bbeb22","system_id":"levelo_inurba_marseille","lat":43.330442,"lon":5.389148,"is_reserved":false,"is_disabled":false,"rental_uris":{"android":"levelo://app?vid=f45c8ee7-9e09-4262-abc5-b29241bbeb22","ios":"levelo://app?vid=f45c8ee7-9e09-4262-abc5-b29241bbeb22"},"vehicle_type_id":"4","last_reported":1716653279,"current_range_meters":16000,"station_id":"ce4bhr92rcd13ifvqhrg","pricing_plan_id":"cebpf4jnsgd1na2vs0mg"},{"bike_id":"3c35d6c0-c914-4549-93d5-760d614b8a97","system_id":"levelo_inurba_marseille","lat":43.290103,"lon":5.356114,"is_reserved":false,"is_disabled":false,"rental_uris":{"android":"levelo://app?vid=3c35d6c0-c914-4549-93d5-760d614b8a97","ios":"levelo://app?vid=3c35d6c0-c914-4549-93d5-760d614b8a97"},"vehicle_type_id":"4","last_reported":1716653279,"current_range_meters":25200,"station_id":"ce4bhb92rcd13ifvqen0","pricing_plan_id":"cebpf4jnsgd1na2vs0mg"},{"bike_id":"6504db61-10c8-4476-8af5-5223390f340a","system_id":"levelo_inurba_marseille","lat":43.290103,"lon":5.356114,"is_reserved":false,"is_disabled":false,"rental_uris":{"android":"levelo://app?vid=6504db61-10c8-4476-8af5-5223390f340a","ios":"levelo://app?vid=6504db61-10c8-4476-8af5-5223390f340a"},"vehicle_type_id":"4","last_reported":1716653279,"current_range_meters":400,"station_id":"ce4bhb92rcd13ifvqen0","pricing_plan_id":"cebpf4jnsgd1na2vs0mg"},{"bike_id":"dcb97b11-4c2c-44ca-86a5-58eb65601df0","system_id":"levelo_inurba_marseille","lat":43.290104,"lon":5.356111,"is_reserved":false,"is_disabled":false,"rental_uris":{"android":"levelo://app?vid=dcb97b11-4c2c-44ca-86a5-58eb65601df0","ios":"levelo://app?vid=dcb97b11-4c2c-44ca-86a5-58eb65601df0"},"vehicle_type_id":"4","last_reported":1716653279,"current_range_meters":27600,"station_id":"ce4bhb92rcd13ifvqen0","pricing_plan_id":"cebpf4jnsgd1na2vs0mg"},{"bike_id":"2d498466-b77f-4f71-bfdf-71d515429415","system_id":"levelo_inurba_marseille","lat":43.290103,"lon":5.356114,"is_reserved":false,"is_disabled":false,"rental_uris":{"android":"levelo://app?vid=2d498466-b77f-4f71-bfdf-71d515429415","ios":"levelo://app?vid=2d498466-b77f-4f71-bfdf-71d515429415"},"vehicle_type_id":"4","last_reported":1716653279,"current_range_meters":0,"station_id":"ce4bhb92rcd13ifvqen0","pricing_plan_id":"cebpf4jnsgd1na2vs0mg"},{"bike_id":"31a92b11-19c3-4244-9dd1-95409ce40879","system_id":"levelo_inurba_marseille","lat":43.290103,"lon":5.356114,"is_reserved":false,"is_disabled":false,"rental_uris":{"android":"levelo://app?vid=31a92b11-19c3-4244-9dd1-95409ce40879","ios":"levelo://app?vid=31a92b11-19c3-4244-9dd1-95409ce40879"},"vehicle_type_id":"4","last_reported":1716653279,"current_range_meters":2000,"station_id":"ce4bhb92rcd13ifvqen0","pricing_plan_id":"cebpf4jnsgd1na2vs0mg"},{"bike_id":"cddfa788-d8ed-4a15-8573-3a677421edd9","system_id":"levelo_inurba_marseille","lat":43.297815,"lon":5.393548,"is_reserved":false,"is_disabled":false,"rental_uris":{"android":"levelo://app?vid=cddfa788-d8ed-4a15-8573-3a677421edd9","ios":"levelo://app?vid=cddfa788-d8ed-4a15-8573-3a677421edd9"},"vehicle_type_id":"4","last_reported":1716653279,"current_range_meters":24800,"station_id":"chh1huq6cuj3fo74tm60","pricing_plan_id":"cebpf4jnsgd1na2vs0mg"},{"bike_id":"ceb6ccf4-5551-4f2b-b8e1-4c48fdf5fa58","system_id":"levelo_inurba_marseille","lat":43.330442,"lon":5.389148,"is_reserved":false,"is_disabled":false,"rental_uris":{"android":"levelo://app?vid=ceb6ccf4-5551-4f2b-b8e1-4c48fdf5fa58","ios":"levelo://app?vid=ceb6ccf4-5551-4f2b-b8e1-4c48fdf5fa58"},"vehicle_type_id":"4","last_reported":1716653279,"current_range_meters":4400,"station_id":"ce4bhr92rcd13ifvqhrg","pricing_plan_id":"cebpf4jnsgd1na2vs0mg"},{"bike_id":"c41cd840-d86a-49e2-ac16-5269058407b2","system_id":"levelo_inurba_marseille","lat":43.289741,"lon":5.378306,"is_reserved":false,"is_disabled":false,"rental_uris":{"android":"levelo://app?vid=c41cd840-d86a-49e2-ac16-5269058407b2","ios":"levelo://app?vid=c41cd840-d86a-49e2-ac16-5269058407b2"},"vehicle_type_id":"4","last_reported":1716653279,"current_range_meters":400,"station_id":"ce4bh9p2rcd13ifvqed0","pricing_plan_id":"cebpf4jnsgd1na2vs0mg"},{"bike_id":"02d4a8ad-a24c-4eac-9775-06d0ccf4b3c5","system_id":"levelo_inurba_marseille","lat":43.33028,"lon":5.39045,"is_reserved":false,"is_disabled":false,"rental_uris":{"android":"levelo://app?vid=02d4a8ad-a24c-4eac-9775-06d0ccf4b3c5","ios":"levelo://app?vid=02d4a8ad-a24c-4eac-9775-06d0ccf4b3c5"},"vehicle_type_id":"4","last_reported":1716653279,"current_range_meters":12000,"station_id":"ce4bhr92rcd13ifvqhrg","pricing_plan_id":"cebpf4jnsgd1na2vs0mg"},{"bike_id":"8c648ded-2aee-4076-b2ea-010018c05b6e","system_id":"levelo_inurba_marseille","lat":43.289307,"lon":5.38406,"is_reserved":false,"is_disabled":false,"rental_uris":{"android":"levelo://app?vid=8c648ded-2aee-4076-b2ea-010018c05b6e","ios":"levelo://app?vid=8c648ded-2aee-4076-b2ea-010018c05b6e"},"vehicle_type_id":"4","last_reported":1716653279,"current_range_meters":24400,"station_id":"ce4bh612rcd13ifvqe6g","pricing_plan_id":"cebpf4jnsgd1na2vs0mg"},{"bike_id":"2a9f3d60-f135-4a67-a062-534dc8174cdc","system_id":"levelo_inurba_marseille","lat":43.28856,"lon":5.358371,"is_reserved":false,"is_disabled":false,"rental_uris":{"android":"levelo://app?vid=2a9f3d60-f135-4a67-a062-534dc8174cdc","ios":"levelo://app?vid=2a9f3d60-f135-4a67-a062-534dc8174cdc"},"vehicle_type_id":"4","last_reported":1716653279,"current_range_meters":23200,"station_id":"ce4bhb12rcd13ifvqem0","pricing_plan_id":"cebpf4jnsgd1na2vs0mg"},{"bike_id":"d266322b-8215-4588-bb79-86ed69f508e5","system_id":"levelo_inurba_marseille","lat":43.302759,"lon":5.400793,"is_reserved":false,"is_disabled":false,"rental_uris":{"android":"levelo://app?vid=d266322b-8215-4588-bb79-86ed69f508e5","ios":"levelo://app?vid=d266322b-8215-4588-bb79-86ed69f508e5"},"vehicle_type_id":"4","last_reported":1716653279,"current_range_meters":8400,"station_id":"ce4bgvh2rcd13ifvqcs0","pricing_plan_id":"cebpf4jnsgd1na2vs0mg"},{"bike_id":"ba7bba16-c57b-44f6-9f9c-c9839289854f","system_id":"levelo_inurba_marseille","lat":43.31065,"lon":5.40081,"is_reserved":false,"is_disabled":false,"rental_uris":{"android":"levelo://app?vid=ba7bba16-c57b-44f6-9f9c-c9839289854f","ios":"levelo://app?vid=ba7bba16-c57b-44f6-9f9c-c9839289854f"},"vehicle_type_id":"4","last_reported":1716653279,"current_range_meters":13600,"station_id":"","pricing_plan_id":"cebpf4jnsgd1na2vs0mg"},{"bike_id":"e7e729a9-7057-4170-8488-6e93850d79e3","system_id":"levelo_inurba_marseille","lat":43.290215,"lon":5.38121,"is_reserved":false,"is_disabled":false,"rental_uris":{"android":"levelo://app?vid=e7e729a9-7057-4170-8488-6e93850d79e3","ios":"levelo://app?vid=e7e729a9-7057-4170-8488-6e93850d79e3"},"vehicle_type_id":"4","last_reported":1716653279,"current_range_meters":0,"station_id":"ce4bh4p2rcd13ifvqe1g","pricing_plan_id":"cebpf4jnsgd1na2vs0mg"},{"bike_id":"1a1505af-a805-4e97-b6c5-ef86c8ad33ae","system_id":"levelo_inurba_marseille","lat":43.310618,"lon":5.40104,"is_reserved":false,"is_disabled":false,"rental_uris":{"android":"levelo://app?vid=1a1505af-a805-4e97-b6c5-ef86c8ad33ae","ios":"levelo://app?vid=1a1505af-a805-4e97-b6c5-ef86c8ad33ae"},"vehicle_type_id":"4","last_reported":1716653279,"current_range_meters":4800,"station_id":"","pricing_plan_id":"cebpf4jnsgd1na2vs0mg"},{"bike_id":"adb2f64d-2b5e-4233-8788-71367328bb12","system_id":"levelo_inurba_marseille","lat":43.28856,"lon":5.358371,"is_reserved":false,"is_disabled":false,"rental_uris":{"android":"levelo://app?vid=adb2f64d-2b5e-4233-8788-71367328bb12","ios":"levelo://app?vid=adb2f64d-2b5e-4233-8788-71367328bb12"},"vehicle_type_id":"4","last_reported":1716653279,"current_range_meters":0,"station_id":"ce4bhb12rcd13ifvqem0","pricing_plan_id":"cebpf4jnsgd1na2vs0mg"},{"bike_id":"fc32883c-c23b-4729-8ae9-e4ebc9ae0a66","system_id":"levelo_inurba_marseille","lat":43.28856,"lon":5.358371,"is_reserved":false,"is_disabled":false,"rental_uris":{"android":"levelo://app?vid=fc32883c-c23b-4729-8ae9-e4ebc9ae0a66","ios":"levelo://app?vid=fc32883c-c23b-4729-8ae9-e4ebc9ae0a66"},"vehicle_type_id":"4","last_reported":1716653279,"current_range_meters":24000,"station_id":"ce4bhb12rcd13ifvqem0","pricing_plan_id":"cebpf4jnsgd1na2vs0mg"},{"bike_id":"b2170ace-a65c-4b94-af24-b226be6057d4","system_id":"levelo_inurba_marseille","lat":43.28856,"lon":5.358371,"is_reserved":false,"is_disabled":false,"rental_uris":{"android":"levelo://app?vid=b2170ace-a65c-4b94-af24-b226be6057d4","ios":"levelo://app?vid=b2170ace-a65c-4b94-af24-b226be6057d4"},"vehicle_type_id":"4","last_reported":1716653279,"current_range_meters":24800,"station_id":"ce4bhb12rcd13ifvqem0","pricing_plan_id":"cebpf4jnsgd1na2vs0mg"},{"bike_id":"c817be8a-4d3f-428e-9e83-fb97be659edc","system_id":"levelo_inurba_marseille","lat":43.33739,"lon":5.37443,"is_reserved":false,"is_disabled":false,"rental_uris":{"android":"levelo://app?vid=c817be8a-4d3f-428e-9e83-fb97be659edc","ios":"levelo://app?vid=c817be8a-4d3f-428e-9e83-fb97be659edc"},"vehicle_type_id":"4","last_reported":1716653279,"current_range_meters":24400,"station_id":"","pricing_plan_id":"cebpf4jnsgd1na2vs0mg"},{"bike_id":"b8668c18-4440-441a-a8f8-31ff6ac172cb","system_id":"levelo_inurba_marseille","lat":43.312609,"lon":5.401662,"is_reserved":false,"is_disabled":false,"rental_uris":{"android":"levelo://app?vid=b8668c18-4440-441a-a8f8-31ff6ac172cb","ios":"levelo://app?vid=b8668c18-4440-441a-a8f8-31ff6ac172cb"},"vehicle_type_id":"4","last_reported":1716653279,"current_range_meters":0,"station_id":"ce4bh092rcd13ifvqd30","pricing_plan_id":"cebpf4jnsgd1na2vs0mg"},{"bike_id":"5e08015a-b315-49d5-b067-121fc243166b","system_id":"levelo_inurba_marseille","lat":43.33752,"lon":5.37436,"is_reserved":false,"is_disabled":false,"rental_uris":{"android":"levelo://app?vid=5e08015a-b315-49d5-b067-121fc243166b","ios":"levelo://app?vid=5e08015a-b315-49d5-b067-121fc243166b"},"vehicle_type_id":"4","last_reported":1716653279,"current_range_meters":19200,"station_id":"","pricing_plan_id":"cebpf4jnsgd1na2vs0mg"},{"bike_id":"efb0165a-ce5a-4a82-83d1-66c19656a534","system_id":"levelo_inurba_marseille","lat":43.30642,"lon":5.401031,"is_reserved":false,"is_disabled":false,"rental_uris":{"android":"levelo://app?vid=efb0165a-ce5a-4a82-83d1-66c19656a534","ios":"levelo://app?vid=efb0165a-ce5a-4a82-83d1-66c19656a534"},"vehicle_type_id":"4","last_reported":1716653279,"current_range_meters":20400,"station_id":"ce4bh112rcd13ifvqda0","pricing_plan_id":"cebpf4jnsgd1na2vs0mg"},{"bike_id":"4baa171a-6f41-4b4c-bcc1-759d97c52644","system_id":"levelo_inurba_marseille","lat":43.337567,"lon":5.374574,"is_reserved":false,"is_disabled":false,"rental_uris":{"android":"levelo://app?vid=4baa171a-6f41-4b4c-bcc1-759d97c52644","ios":"levelo://app?vid=4baa171a-6f41-4b4c-bcc1-759d97c52644"},"vehicle_type_id":"4","last_reported":1716653279,"current_range_meters":22400,"station_id":"","pricing_plan_id":"cebpf4jnsgd1na2vs0mg"},{"bike_id":"4d476eee-4013-46a3-be70-3fc5198fa0f9","system_id":"levelo_inurba_marseille","lat":43.33763,"lon":5.374318,"is_reserved":false,"is_disabled":false,"rental_uris":{"android":"levelo://app?vid=4d476eee-4013-46a3-be70-3fc5198fa0f9","ios":"levelo://app?vid=4d476eee-4013-46a3-be70-3fc5198fa0f9"},"vehicle_type_id":"4","last_reported":1716653279,"current_range_meters":16000,"station_id":"","pricing_plan_id":"cebpf4jnsgd1na2vs0mg"},{"bike_id":"ebdb2536-5cfb-4634-8239-02cc22422879","system_id":"levelo_inurba_marseille","lat":43.337625,"lon":5.374405,"is_reserved":false,"is_disabled":false,"rental_uris":{"android":"levelo://app?vid=ebdb2536-5cfb-4634-8239-02cc22422879","ios":"levelo://app?vid=ebdb2536-5cfb-4634-8239-02cc22422879"},"vehicle_type_id":"4","last_reported":1716653279,"current_range_meters":16000,"station_id":"","pricing_plan_id":"cebpf4jnsgd1na2vs0mg"},{"bike_id":"de609f3b-f2e7-4b37-96b4-3315c7ebe8bb","system_id":"levelo_inurba_marseille","lat":43.33764,"lon":5.37471,"is_reserved":false,"is_disabled":false,"rental_uris":{"android":"levelo://app?vid=de609f3b-f2e7-4b37-96b4-3315c7ebe8bb","ios":"levelo://app?vid=de609f3b-f2e7-4b37-96b4-3315c7ebe8bb"},"vehicle_type_id":"4","last_reported":1716653279,"current_range_meters":18400,"station_id":"","pricing_plan_id":"cebpf4jnsgd1na2vs0mg"},{"bike_id":"958b0c05-80bf-4b44-8a9f-8ddb75217d0d","system_id":"levelo_inurba_marseille","lat":43.30642,"lon":5.401031,"is_reserved":false,"is_disabled":false,"rental_uris":{"android":"levelo://app?vid=958b0c05-80bf-4b44-8a9f-8ddb75217d0d","ios":"levelo://app?vid=958b0c05-80bf-4b44-8a9f-8ddb75217d0d"},"vehicle_type_id":"4","last_reported":1716653279,"current_range_meters":10400,"station_id":"ce4bh112rcd13ifvqda0","pricing_plan_id":"cebpf4jnsgd1na2vs0mg"},{"bike_id":"402bb8ea-0652-4d6d-a4c1-4f2ae2883e70","system_id":"levelo_inurba_marseille","lat":43.306412,"lon":5.401035,"is_reserved":false,"is_disabled":false,"rental_uris":{"android":"levelo://app?vid=402bb8ea-0652-4d6d-a4c1-4f2ae2883e70","ios":"levelo://app?vid=402bb8ea-0652-4d6d-a4c1-4f2ae2883e70"},"vehicle_type_id":"4","last_reported":1716653279,"current_range_meters":19200,"station_id":"ce4bh112rcd13ifvqda0","pricing_plan_id":"cebpf4jnsgd1na2vs0mg"},{"bike_id":"825fa8d8-f677-44ea-959e-e28a76bf9c1f","system_id":"levelo_inurba_marseille","lat":43.33772,"lon":5.37468,"is_reserved":false,"is_disabled":false,"rental_uris":{"android":"levelo://app?vid=825fa8d8-f677-44ea-959e-e28a76bf9c1f","ios":"levelo://app?vid=825fa8d8-f677-44ea-959e-e28a76bf9c1f"},"vehicle_type_id":"4","last_reported":1716653279,"current_range_meters":20000,"station_id":"","pricing_plan_id":"cebpf4jnsgd1na2vs0mg"},{"bike_id":"3f87736a-1eb2-4b21-bc47-1b766f19c016","system_id":"levelo_inurba_marseille","lat":43.30642,"lon":5.401031,"is_reserved":false,"is_disabled":false,"rental_uris":{"android":"levelo://app?vid=3f87736a-1eb2-4b21-bc47-1b766f19c016","ios":"levelo://app?vid=3f87736a-1eb2-4b21-bc47-1b766f19c016"},"vehicle_type_id":"4","last_reported":1716653279,"current_range_meters":22000,"station_id":"ce4bh112rcd13ifvqda0","pricing_plan_id":"cebpf4jnsgd1na2vs0mg"},{"bike_id":"b72dc50c-01b6-45bb-b715-3629ba5fb719","system_id":"levelo_inurba_marseille","lat":43.298681,"lon":5.397225,"is_reserved":false,"is_disabled":false,"rental_uris":{"android":"levelo://app?vid=b72dc50c-01b6-45bb-b715-3629ba5fb719","ios":"levelo://app?vid=b72dc50c-01b6-45bb-b715-3629ba5fb719"},"vehicle_type_id":"4","last_reported":1716653279,"current_range_meters":9600,"station_id":"ce4bh0h2rcd13ifvqd50","pricing_plan_id":"cebpf4jnsgd1na2vs0mg"},{"bike_id":"59d98446-4af3-4df0-a3f4-bd3bc6ab36e3","system_id":"levelo_inurba_marseille","lat":43.298681,"lon":5.397225,"is_reserved":false,"is_disabled":false,"rental_uris":{"android":"levelo://app?vid=59d98446-4af3-4df0-a3f4-bd3bc6ab36e3","ios":"levelo://app?vid=59d98446-4af3-4df0-a3f4-bd3bc6ab36e3"},"vehicle_type_id":"4","last_reported":1716653279,"current_range_meters":10000,"station_id":"ce4bh0h2rcd13ifvqd50","pricing_plan_id":"cebpf4jnsgd1na2vs0mg"},{"bike_id":"e828a00f-4c8c-48dd-8484-6cf930c21f2f","system_id":"levelo_inurba_marseille","lat":43.298681,"lon":5.397225,"is_reserved":false,"is_disabled":false,"rental_uris":{"android":"levelo://app?vid=e828a00f-4c8c-48dd-8484-6cf930c21f2f","ios":"levelo://app?vid=e828a00f-4c8c-48dd-8484-6cf930c21f2f"},"vehicle_type_id":"4","last_reported":1716653279,"current_range_meters":11200,"station_id":"ce4bh0h2rcd13ifvqd50","pricing_plan_id":"cebpf4jnsgd1na2vs0mg"},{"bike_id":"380012e0-c616-4274-b72d-0555fca37ca9","system_id":"levelo_inurba_marseille","lat":43.295194,"lon":5.39397,"is_reserved":false,"is_disabled":false,"rental_uris":{"android":"levelo://app?vid=380012e0-c616-4274-b72d-0555fca37ca9","ios":"levelo://app?vid=380012e0-c616-4274-b72d-0555fca37ca9"},"vehicle_type_id":"4","last_reported":1716653279,"current_range_meters":8800,"station_id":"ce4bh292rcd13ifvqdf0","pricing_plan_id":"cebpf4jnsgd1na2vs0mg"},{"bike_id":"30de7a4d-64e3-4109-be47-45c4b477ec8d","system_id":"levelo_inurba_marseille","lat":43.302759,"lon":5.400793,"is_reserved":false,"is_disabled":false,"rental_uris":{"android":"levelo://app?vid=30de7a4d-64e3-4109-be47-45c4b477ec8d","ios":"levelo://app?vid=30de7a4d-64e3-4109-be47-45c4b477ec8d"},"vehicle_type_id":"4","last_reported":1716653279,"current_range_meters":400,"station_id":"ce4bgvh2rcd13ifvqcs0","pricing_plan_id":"cebpf4jnsgd1na2vs0mg"},{"bike_id":"b54384a2-291e-4f3b-8ce3-c823283a6820","system_id":"levelo_inurba_marseille","lat":43.302759,"lon":5.400793,"is_reserved":false,"is_disabled":false,"rental_uris":{"android":"levelo://app?vid=b54384a2-291e-4f3b-8ce3-c823283a6820","ios":"levelo://app?vid=b54384a2-291e-4f3b-8ce3-c823283a6820"},"vehicle_type_id":"4","last_reported":1716653279,"current_range_meters":0,"station_id":"ce4bgvh2rcd13ifvqcs0","pricing_plan_id":"cebpf4jnsgd1na2vs0mg"},{"bike_id":"1537b106-5e0a-4168-9b2f-e4705c70543d","system_id":"levelo_inurba_marseille","lat":43.302759,"lon":5.400793,"is_reserved":false,"is_disabled":false,"rental_uris":{"android":"levelo://app?vid=1537b106-5e0a-4168-9b2f-e4705c70543d","ios":"levelo://app?vid=1537b106-5e0a-4168-9b2f-e4705c70543d"},"vehicle_type_id":"4","last_reported":1716653279,"current_range_meters":5200,"station_id":"ce4bgvh2rcd13ifvqcs0","pricing_plan_id":"cebpf4jnsgd1na2vs0mg"},{"bike_id":"9a0b0ef5-217b-4989-86e6-e62dc497b729","system_id":"levelo_inurba_marseille","lat":43.301117,"lon":5.398795,"is_reserved":false,"is_disabled":false,"rental_uris":{"android":"levelo://app?vid=9a0b0ef5-217b-4989-86e6-e62dc497b729","ios":"levelo://app?vid=9a0b0ef5-217b-4989-86e6-e62dc497b729"},"vehicle_type_id":"4","last_reported":1716653279,"current_range_meters":0,"station_id":"ce4bh0h2rcd13ifvqd40","pricing_plan_id":"cebpf4jnsgd1na2vs0mg"},{"bike_id":"761252ca-c0be-4e8d-8b9a-7e2c6f4e990d","system_id":"levelo_inurba_marseille","lat":43.302759,"lon":5.400793,"is_reserved":false,"is_disabled":false,"rental_uris":{"android":"levelo://app?vid=761252ca-c0be-4e8d-8b9a-7e2c6f4e990d","ios":"levelo://app?vid=761252ca-c0be-4e8d-8b9a-7e2c6f4e990d"},"vehicle_type_id":"4","last_reported":1716653279,"current_range_meters":14000,"station_id":"ce4bgvh2rcd13ifvqcs0","pricing_plan_id":"cebpf4jnsgd1na2vs0mg"},{"bike_id":"6f11011f-5f9c-4e8b-a6bd-48d4ad3cd7dd","system_id":"levelo_inurba_marseille","lat":43.302759,"lon":5.400793,"is_reserved":false,"is_disabled":false,"rental_uris":{"android":"levelo://app?vid=6f11011f-5f9c-4e8b-a6bd-48d4ad3cd7dd","ios":"levelo://app?vid=6f11011f-5f9c-4e8b-a6bd-48d4ad3cd7dd"},"vehicle_type_id":"4","last_reported":1716653279,"current_range_meters":2000,"station_id":"ce4bgvh2rcd13ifvqcs0","pricing_plan_id":"cebpf4jnsgd1na2vs0mg"},{"bike_id":"f9de328d-dbcd-4034-9ad0-a9945424497d","system_id":"levelo_inurba_marseille","lat":43.302759,"lon":5.400793,"is_reserved":false,"is_disabled":false,"rental_uris":{"android":"levelo://app?vid=f9de328d-dbcd-4034-9ad0-a9945424497d","ios":"levelo://app?vid=f9de328d-dbcd-4034-9ad0-a9945424497d"},"vehicle_type_id":"4","last_reported":1716653279,"current_range_meters":4800,"station_id":"ce4bgvh2rcd13ifvqcs0","pricing_plan_id":"cebpf4jnsgd1na2vs0mg"},{"bike_id":"3c9cc820-3cfe-4a1e-9ac6-58fa15c693a0","system_id":"levelo_inurba_marseille","lat":43.286039,"lon":5.370679,"is_reserved":false,"is_disabled":false,"rental_uris":{"android":"levelo://app?vid=3c9cc820-3cfe-4a1e-9ac6-58fa15c693a0","ios":"levelo://app?vid=3c9cc820-3cfe-4a1e-9ac6-58fa15c693a0"},"vehicle_type_id":"4","last_reported":1716653279,"current_range_meters":22400,"station_id":"ce4bht12rcd13ifvqi60","pricing_plan_id":"cebpf4jnsgd1na2vs0mg"},{"bike_id":"22370bf8-4396-41fb-8697-623dfcebe6a3","system_id":"levelo_inurba_marseille","lat":43.287185,"lon":5.379373,"is_reserved":false,"is_disabled":false,"rental_uris":{"android":"levelo://app?vid=22370bf8-4396-41fb-8697-623dfcebe6a3","ios":"levelo://app?vid=22370bf8-4396-41fb-8697-623dfcebe6a3"},"vehicle_type_id":"4","last_reported":1716653279,"current_range_meters":1200,"station_id":"ce4bh9p2rcd13ifvqec0","pricing_plan_id":"cebpf4jnsgd1na2vs0mg"},{"bike_id":"7366f1c8-8d44-4c27-bb4f-e7d84de20e89","system_id":"levelo_inurba_marseille","lat":43.287184,"lon":5.37937,"is_reserved":false,"is_disabled":false,"rental_uris":{"android":"levelo://app?vid=7366f1c8-8d44-4c27-bb4f-e7d84de20e89","ios":"levelo://app?vid=7366f1c8-8d44-4c27-bb4f-e7d84de20e89"},"vehicle_type_id":"4","last_reported":1716653279,"current_range_meters":26000,"station_id":"ce4bh9p2rcd13ifvqec0","pricing_plan_id":"cebpf4jnsgd1na2vs0mg"},{"bike_id":"c9a28415-53fa-460c-94c2-52e1c862fa4b","system_id":"levelo_inurba_marseille","lat":43.287184,"lon":5.37937,"is_reserved":false,"is_disabled":false,"rental_uris":{"android":"levelo://app?vid=c9a28415-53fa-460c-94c2-52e1c862fa4b","ios":"levelo://app?vid=c9a28415-53fa-460c-94c2-52e1c862fa4b"},"vehicle_type_id":"4","last_reported":1716653279,"current_range_meters":0,"station_id":"ce4bh9p2rcd13ifvqec0","pricing_plan_id":"cebpf4jnsgd1na2vs0mg"},{"bike_id":"de5f6570-a91e-41d1-a91b-d752061d91b0","system_id":"levelo_inurba_marseille","lat":43.283498,"lon":5.380948,"is_reserved":false,"is_disabled":false,"rental_uris":{"android":"levelo://app?vid=de5f6570-a91e-41d1-a91b-d752061d91b0","ios":"levelo://app?vid=de5f6570-a91e-41d1-a91b-d752061d91b0"},"vehicle_type_id":"4","last_reported":1716653279,"current_range_meters":18000,"station_id":"ce4bh412rcd13ifvqdr0","pricing_plan_id":"cebpf4jnsgd1na2vs0mg"},{"bike_id":"fba791f4-4ede-40c5-9541-d87d77ac3a42","system_id":"levelo_inurba_marseille","lat":43.316821,"lon":5.404737,"is_reserved":false,"is_disabled":false,"rental_uris":{"android":"levelo://app?vid=fba791f4-4ede-40c5-9541-d87d77ac3a42","ios":"levelo://app?vid=fba791f4-4ede-40c5-9541-d87d77ac3a42"},"vehicle_type_id":"4","last_reported":1716653279,"current_range_meters":800,"station_id":"ce4bh012rcd13ifvqd00","pricing_plan_id":"cebpf4jnsgd1na2vs0mg"},{"bike_id":"7f5d78eb-7704-4918-9373-8c748f180123","system_id":"levelo_inurba_marseille","lat":43.285856,"lon":5.350771,"is_reserved":false,"is_disabled":false,"rental_uris":{"android":"levelo://app?vid=7f5d78eb-7704-4918-9373-8c748f180123","ios":"levelo://app?vid=7f5d78eb-7704-4918-9373-8c748f180123"},"vehicle_type_id":"4","last_reported":1716653279,"current_range_meters":26000,"station_id":"ce4bhch2rcd13ifvqeug","pricing_plan_id":"cebpf4jnsgd1na2vs0mg"},{"bike_id":"a2b1d29c-626c-4953-a773-eb09beb07f60","system_id":"levelo_inurba_marseille","lat":43.291994,"lon":5.392907,"is_reserved":false,"is_disabled":false,"rental_uris":{"android":"levelo://app?vid=a2b1d29c-626c-4953-a773-eb09beb07f60","ios":"levelo://app?vid=a2b1d29c-626c-4953-a773-eb09beb07f60"},"vehicle_type_id":"4","last_reported":1716653279,"current_range_meters":11600,"station_id":"ce4bh192rcd13ifvqdd0","pricing_plan_id":"cebpf4jnsgd1na2vs0mg"},{"bike_id":"c6db0e71-0078-4f57-9399-ad458a179860","system_id":"levelo_inurba_marseille","lat":43.284534,"lon":5.358662,"is_reserved":false,"is_disabled":false,"rental_uris":{"android":"levelo://app?vid=c6db0e71-0078-4f57-9399-ad458a179860","ios":"levelo://app?vid=c6db0e71-0078-4f57-9399-ad458a179860"},"vehicle_type_id":"4","last_reported":1716653279,"current_range_meters":8000,"station_id":"ce4bhah2rcd13ifvqei0","pricing_plan_id":"cebpf4jnsgd1na2vs0mg"},{"bike_id":"7489cc4c-3fdc-45cc-b8ed-e0589b175864","system_id":"levelo_inurba_marseille","lat":43.284722,"lon":5.359185,"is_reserved":false,"is_disabled":false,"rental_uris":{"android":"levelo://app?vid=7489cc4c-3fdc-45cc-b8ed-e0589b175864","ios":"levelo://app?vid=7489cc4c-3fdc-45cc-b8ed-e0589b175864"},"vehicle_type_id":"4","last_reported":1716653279,"current_range_meters":15600,"station_id":"","pricing_plan_id":"cebpf4jnsgd1na2vs0mg"},{"bike_id":"db99be0d-67b3-4723-ac5f-053fb6de1fd8","system_id":"levelo_inurba_marseille","lat":43.284538,"lon":5.358657,"is_reserved":false,"is_disabled":false,"rental_uris":{"android":"levelo://app?vid=db99be0d-67b3-4723-ac5f-053fb6de1fd8","ios":"levelo://app?vid=db99be0d-67b3-4723-ac5f-053fb6de1fd8"},"vehicle_type_id":"4","last_reported":1716653279,"current_range_meters":14400,"station_id":"ce4bhah2rcd13ifvqei0","pricing_plan_id":"cebpf4jnsgd1na2vs0mg"},{"bike_id":"2f401c9e-f187-4d6d-afa1-ae6d359ed3a3","system_id":"levelo_inurba_marseille","lat":43.284538,"lon":5.358657,"is_reserved":false,"is_disabled":false,"rental_uris":{"android":"levelo://app?vid=2f401c9e-f187-4d6d-afa1-ae6d359ed3a3","ios":"levelo://app?vid=2f401c9e-f187-4d6d-afa1-ae6d359ed3a3"},"vehicle_type_id":"4","last_reported":1716653279,"current_range_meters":1600,"station_id":"ce4bhah2rcd13ifvqei0","pricing_plan_id":"cebpf4jnsgd1na2vs0mg"},{"bike_id":"60c905f4-0f5f-4423-b792-e88c1114c83e","system_id":"levelo_inurba_marseille","lat":43.284538,"lon":5.358657,"is_reserved":false,"is_disabled":false,"rental_uris":{"android":"levelo://app?vid=60c905f4-0f5f-4423-b792-e88c1114c83e","ios":"levelo://app?vid=60c905f4-0f5f-4423-b792-e88c1114c83e"},"vehicle_type_id":"4","last_reported":1716653279,"current_range_meters":8800,"station_id":"ce4bhah2rcd13ifvqei0","pricing_plan_id":"cebpf4jnsgd1na2vs0mg"},{"bike_id":"6d4d285d-aff6-4f81-818e-a7bc93ce14c2","system_id":"levelo_inurba_marseille","lat":43.284538,"lon":5.358657,"is_reserved":false,"is_disabled":false,"rental_uris":{"android":"levelo://app?vid=6d4d285d-aff6-4f81-818e-a7bc93ce14c2","ios":"levelo://app?vid=6d4d285d-aff6-4f81-818e-a7bc93ce14c2"},"vehicle_type_id":"4","last_reported":1716653279,"current_range_meters":4400,"station_id":"ce4bhah2rcd13ifvqei0","pricing_plan_id":"cebpf4jnsgd1na2vs0mg"},{"bike_id":"bb0685ea-4791-4eed-be3c-aff0c40730c7","system_id":"levelo_inurba_marseille","lat":43.284534,"lon":5.358662,"is_reserved":false,"is_disabled":false,"rental_uris":{"android":"levelo://app?vid=bb0685ea-4791-4eed-be3c-aff0c40730c7","ios":"levelo://app?vid=bb0685ea-4791-4eed-be3c-aff0c40730c7"},"vehicle_type_id":"4","last_reported":1716653279,"current_range_meters":25200,"station_id":"ce4bhah2rcd13ifvqei0","pricing_plan_id":"cebpf4jnsgd1na2vs0mg"},{"bike_id":"9c38de1f-f6a2-4ecf-8201-12fb69d393a3","system_id":"levelo_inurba_marseille","lat":43.284534,"lon":5.358662,"is_reserved":false,"is_disabled":false,"rental_uris":{"android":"levelo://app?vid=9c38de1f-f6a2-4ecf-8201-12fb69d393a3","ios":"levelo://app?vid=9c38de1f-f6a2-4ecf-8201-12fb69d393a3"},"vehicle_type_id":"4","last_reported":1716653279,"current_range_meters":19600,"station_id":"ce4bhah2rcd13ifvqei0","pricing_plan_id":"cebpf4jnsgd1na2vs0mg"},{"bike_id":"f16edde4-0a11-4b5b-835b-88745056836d","system_id":"levelo_inurba_marseille","lat":43.284534,"lon":5.358662,"is_reserved":false,"is_disabled":false,"rental_uris":{"android":"levelo://app?vid=f16edde4-0a11-4b5b-835b-88745056836d","ios":"levelo://app?vid=f16edde4-0a11-4b5b-835b-88745056836d"},"vehicle_type_id":"4","last_reported":1716653279,"current_range_meters":22400,"station_id":"ce4bhah2rcd13ifvqei0","pricing_plan_id":"cebpf4jnsgd1na2vs0mg"},{"bike_id":"289d5129-3507-42d8-b938-6a580bf29882","system_id":"levelo_inurba_marseille","lat":43.284534,"lon":5.358662,"is_reserved":false,"is_disabled":false,"rental_uris":{"android":"levelo://app?vid=289d5129-3507-42d8-b938-6a580bf29882","ios":"levelo://app?vid=289d5129-3507-42d8-b938-6a580bf29882"},"vehicle_type_id":"4","last_reported":1716653279,"current_range_meters":12000,"station_id":"ce4bhah2rcd13ifvqei0","pricing_plan_id":"cebpf4jnsgd1na2vs0mg"},{"bike_id":"510a6579-ed59-4deb-a3d6-13e4e8b99287","system_id":"levelo_inurba_marseille","lat":43.284538,"lon":5.358657,"is_reserved":false,"is_disabled":false,"rental_uris":{"android":"levelo://app?vid=510a6579-ed59-4deb-a3d6-13e4e8b99287","ios":"levelo://app?vid=510a6579-ed59-4deb-a3d6-13e4e8b99287"},"vehicle_type_id":"4","last_reported":1716653279,"current_range_meters":18400,"station_id":"ce4bhah2rcd13ifvqei0","pricing_plan_id":"cebpf4jnsgd1na2vs0mg"},{"bike_id":"5792db4f-da32-4733-a03b-0d19fd047cd5","system_id":"levelo_inurba_marseille","lat":43.29437,"lon":5.39763,"is_reserved":false,"is_disabled":false,"rental_uris":{"android":"levelo://app?vid=5792db4f-da32-4733-a03b-0d19fd047cd5","ios":"levelo://app?vid=5792db4f-da32-4733-a03b-0d19fd047cd5"},"vehicle_type_id":"4","last_reported":1716653279,"current_range_meters":0,"station_id":"ce4bh3h2rcd13ifvqdo0","pricing_plan_id":"cebpf4jnsgd1na2vs0mg"},{"bike_id":"01895f0d-68e3-4926-b958-15d8ab2813cb","system_id":"levelo_inurba_marseille","lat":43.285856,"lon":5.350771,"is_reserved":false,"is_disabled":false,"rental_uris":{"android":"levelo://app?vid=01895f0d-68e3-4926-b958-15d8ab2813cb","ios":"levelo://app?vid=01895f0d-68e3-4926-b958-15d8ab2813cb"},"vehicle_type_id":"4","last_reported":1716653279,"current_range_meters":28400,"station_id":"ce4bhch2rcd13ifvqeug","pricing_plan_id":"cebpf4jnsgd1na2vs0mg"},{"bike_id":"db119063-19a9-4b20-908c-eee9533c0c2b","system_id":"levelo_inurba_marseille","lat":43.285856,"lon":5.350771,"is_reserved":false,"is_disabled":false,"rental_uris":{"android":"levelo://app?vid=db119063-19a9-4b20-908c-eee9533c0c2b","ios":"levelo://app?vid=db119063-19a9-4b20-908c-eee9533c0c2b"},"vehicle_type_id":"4","last_reported":1716653279,"current_range_meters":6400,"station_id":"ce4bhch2rcd13ifvqeug","pricing_plan_id":"cebpf4jnsgd1na2vs0mg"},{"bike_id":"37ab3d43-94a6-4757-b575-78b09977eca0","system_id":"levelo_inurba_marseille","lat":43.285856,"lon":5.350771,"is_reserved":false,"is_disabled":false,"rental_uris":{"android":"levelo://app?vid=37ab3d43-94a6-4757-b575-78b09977eca0","ios":"levelo://app?vid=37ab3d43-94a6-4757-b575-78b09977eca0"},"vehicle_type_id":"4","last_reported":1716653279,"current_range_meters":12800,"station_id":"ce4bhch2rcd13ifvqeug","pricing_plan_id":"cebpf4jnsgd1na2vs0mg"},{"bike_id":"b14a63ab-79a8-4377-b610-92f92501d4d3","system_id":"levelo_inurba_marseille","lat":43.285856,"lon":5.350771,"is_reserved":false,"is_disabled":false,"rental_uris":{"android":"levelo://app?vid=b14a63ab-79a8-4377-b610-92f92501d4d3","ios":"levelo://app?vid=b14a63ab-79a8-4377-b610-92f92501d4d3"},"vehicle_type_id":"4","last_reported":1716653279,"current_range_meters":25600,"station_id":"ce4bhch2rcd13ifvqeug","pricing_plan_id":"cebpf4jnsgd1na2vs0mg"},{"bike_id":"c4472d01-dc3d-4867-b884-3913eca49da4","system_id":"levelo_inurba_marseille","lat":43.28616,"lon":5.35106,"is_reserved":false,"is_disabled":false,"rental_uris":{"android":"levelo://app?vid=c4472d01-dc3d-4867-b884-3913eca49da4","ios":"levelo://app?vid=c4472d01-dc3d-4867-b884-3913eca49da4"},"vehicle_type_id":"4","last_reported":1716653279,"current_range_meters":22800,"station_id":"ce4bhch2rcd13ifvqeug","pricing_plan_id":"cebpf4jnsgd1na2vs0mg"},{"bike_id":"01c2ccbe-a39e-4c12-aba2-dfe59018d9ac","system_id":"levelo_inurba_marseille","lat":43.28615,"lon":5.35104,"is_reserved":false,"is_disabled":false,"rental_uris":{"android":"levelo://app?vid=01c2ccbe-a39e-4c12-aba2-dfe59018d9ac","ios":"levelo://app?vid=01c2ccbe-a39e-4c12-aba2-dfe59018d9ac"},"vehicle_type_id":"4","last_reported":1716653279,"current_range_meters":6800,"station_id":"ce4bhch2rcd13ifvqeug","pricing_plan_id":"cebpf4jnsgd1na2vs0mg"},{"bike_id":"db6aff89-f188-4279-9c76-1cd34c092499","system_id":"levelo_inurba_marseille","lat":43.28615,"lon":5.35101,"is_reserved":false,"is_disabled":false,"rental_uris":{"android":"levelo://app?vid=db6aff89-f188-4279-9c76-1cd34c092499","ios":"levelo://app?vid=db6aff89-f188-4279-9c76-1cd34c092499"},"vehicle_type_id":"4","last_reported":1716653279,"current_range_meters":23200,"station_id":"ce4bhch2rcd13ifvqeug","pricing_plan_id":"cebpf4jnsgd1na2vs0mg"},{"bike_id":"1588f39c-475f-4408-ae08-ccad1d53d1da","system_id":"levelo_inurba_marseille","lat":43.28615,"lon":5.35101,"is_reserved":false,"is_disabled":false,"rental_uris":{"android":"levelo://app?vid=1588f39c-475f-4408-ae08-ccad1d53d1da","ios":"levelo://app?vid=1588f39c-475f-4408-ae08-ccad1d53d1da"},"vehicle_type_id":"4","last_reported":1716653279,"current_range_meters":23200,"station_id":"ce4bhch2rcd13ifvqeug","pricing_plan_id":"cebpf4jnsgd1na2vs0mg"},{"bike_id":"97da534e-7832-4906-8edc-e2de74e328e8","system_id":"levelo_inurba_marseille","lat":43.28615,"lon":5.35099,"is_reserved":false,"is_disabled":false,"rental_uris":{"android":"levelo://app?vid=97da534e-7832-4906-8edc-e2de74e328e8","ios":"levelo://app?vid=97da534e-7832-4906-8edc-e2de74e328e8"},"vehicle_type_id":"4","last_reported":1716653279,"current_range_meters":19200,"station_id":"ce4bhch2rcd13ifvqeug","pricing_plan_id":"cebpf4jnsgd1na2vs0mg"},{"bike_id":"fb44cf6c-6683-4d09-b412-a8a1b21175a5","system_id":"levelo_inurba_marseille","lat":43.28612,"lon":5.35107,"is_reserved":false,"is_disabled":false,"rental_uris":{"android":"levelo://app?vid=fb44cf6c-6683-4d09-b412-a8a1b21175a5","ios":"levelo://app?vid=fb44cf6c-6683-4d09-b412-a8a1b21175a5"},"vehicle_type_id":"4","last_reported":1716653279,"current_range_meters":24800,"station_id":"ce4bhch2rcd13ifvqeug","pricing_plan_id":"cebpf4jnsgd1na2vs0mg"},{"bike_id":"886541ec-6ef3-40b9-909e-e7e2e0cf0566","system_id":"levelo_inurba_marseille","lat":43.286102,"lon":5.351043,"is_reserved":false,"is_disabled":false,"rental_uris":{"android":"levelo://app?vid=886541ec-6ef3-40b9-909e-e7e2e0cf0566","ios":"levelo://app?vid=886541ec-6ef3-40b9-909e-e7e2e0cf0566"},"vehicle_type_id":"4","last_reported":1716653279,"current_range_meters":24800,"station_id":"ce4bhch2rcd13ifvqeug","pricing_plan_id":"cebpf4jnsgd1na2vs0mg"},{"bike_id":"1442b655-5024-4479-9fbd-fe226131ce50","system_id":"levelo_inurba_marseille","lat":43.28614,"lon":5.3509,"is_reserved":false,"is_disabled":false,"rental_uris":{"android":"levelo://app?vid=1442b655-5024-4479-9fbd-fe226131ce50","ios":"levelo://app?vid=1442b655-5024-4479-9fbd-fe226131ce50"},"vehicle_type_id":"4","last_reported":1716653279,"current_range_meters":24800,"station_id":"ce4bhch2rcd13ifvqeug","pricing_plan_id":"cebpf4jnsgd1na2vs0mg"},{"bike_id":"32a3ba22-afc0-4ccf-a791-e71a363e51be","system_id":"levelo_inurba_marseille","lat":43.28613,"lon":5.35092,"is_reserved":false,"is_disabled":false,"rental_uris":{"android":"levelo://app?vid=32a3ba22-afc0-4ccf-a791-e71a363e51be","ios":"levelo://app?vid=32a3ba22-afc0-4ccf-a791-e71a363e51be"},"vehicle_type_id":"4","last_reported":1716653279,"current_range_meters":25600,"station_id":"","pricing_plan_id":"cebpf4jnsgd1na2vs0mg"},{"bike_id":"cb15779f-852a-4fbf-9b6b-9cc9b8604235","system_id":"levelo_inurba_marseille","lat":43.28608,"lon":5.35107,"is_reserved":false,"is_disabled":false,"rental_uris":{"android":"levelo://app?vid=cb15779f-852a-4fbf-9b6b-9cc9b8604235","ios":"levelo://app?vid=cb15779f-852a-4fbf-9b6b-9cc9b8604235"},"vehicle_type_id":"4","last_reported":1716653279,"current_range_meters":15200,"station_id":"ce4bhch2rcd13ifvqeug","pricing_plan_id":"cebpf4jnsgd1na2vs0mg"},{"bike_id":"530dc779-9005-42bc-9590-10b6dbd245dd","system_id":"levelo_inurba_marseille","lat":43.28609,"lon":5.35101,"is_reserved":false,"is_disabled":false,"rental_uris":{"android":"levelo://app?vid=530dc779-9005-42bc-9590-10b6dbd245dd","ios":"levelo://app?vid=530dc779-9005-42bc-9590-10b6dbd245dd"},"vehicle_type_id":"4","last_reported":1716653279,"current_range_meters":8000,"station_id":"ce4bhch2rcd13ifvqeug","pricing_plan_id":"cebpf4jnsgd1na2vs0mg"},{"bike_id":"aaeaae5a-771f-4c4e-b906-f32231623912","system_id":"levelo_inurba_marseille","lat":43.29984,"lon":5.40274,"is_reserved":false,"is_disabled":false,"rental_uris":{"android":"levelo://app?vid=aaeaae5a-771f-4c4e-b906-f32231623912","ios":"levelo://app?vid=aaeaae5a-771f-4c4e-b906-f32231623912"},"vehicle_type_id":"4","last_reported":1716653279,"current_range_meters":19600,"station_id":"","pricing_plan_id":"cebpf4jnsgd1na2vs0mg"},{"bike_id":"660f09cf-52f4-4063-b765-ab78c2b7336f","system_id":"levelo_inurba_marseille","lat":43.29955,"lon":5.40261,"is_reserved":false,"is_disabled":false,"rental_uris":{"android":"levelo://app?vid=660f09cf-52f4-4063-b765-ab78c2b7336f","ios":"levelo://app?vid=660f09cf-52f4-4063-b765-ab78c2b7336f"},"vehicle_type_id":"4","last_reported":1716653279,"current_range_meters":19600,"station_id":"","pricing_plan_id":"cebpf4jnsgd1na2vs0mg"},{"bike_id":"9146be09-effc-44d1-9fa4-6a0f33987463","system_id":"levelo_inurba_marseille","lat":43.284538,"lon":5.358657,"is_reserved":false,"is_disabled":false,"rental_uris":{"android":"levelo://app?vid=9146be09-effc-44d1-9fa4-6a0f33987463","ios":"levelo://app?vid=9146be09-effc-44d1-9fa4-6a0f33987463"},"vehicle_type_id":"4","last_reported":1716653279,"current_range_meters":2000,"station_id":"ce4bhah2rcd13ifvqei0","pricing_plan_id":"cebpf4jnsgd1na2vs0mg"},{"bike_id":"91fe246b-566c-4669-9c33-e29f87fdbe0f","system_id":"levelo_inurba_marseille","lat":43.295713,"lon":5.399639,"is_reserved":false,"is_disabled":false,"rental_uris":{"android":"levelo://app?vid=91fe246b-566c-4669-9c33-e29f87fdbe0f","ios":"levelo://app?vid=91fe246b-566c-4669-9c33-e29f87fdbe0f"},"vehicle_type_id":"4","last_reported":1716653279,"current_range_meters":2800,"station_id":"ce4bh312rcd13ifvqdj0","pricing_plan_id":"cebpf4jnsgd1na2vs0mg"},{"bike_id":"48eeb5ee-d4e3-44bc-a4ef-be650d6c1f20","system_id":"levelo_inurba_marseille","lat":43.283998,"lon":5.375062,"is_reserved":false,"is_disabled":false,"rental_uris":{"android":"levelo://app?vid=48eeb5ee-d4e3-44bc-a4ef-be650d6c1f20","ios":"levelo://app?vid=48eeb5ee-d4e3-44bc-a4ef-be650d6c1f20"},"vehicle_type_id":"4","last_reported":1716653279,"current_range_meters":11600,"station_id":"ce4bh412rcd13ifvqds0","pricing_plan_id":"cebpf4jnsgd1na2vs0mg"},{"bike_id":"4bcdbeb6-699f-40ca-87d3-9d73a2e1764d","system_id":"levelo_inurba_marseille","lat":43.29957,"lon":5.40293,"is_reserved":false,"is_disabled":false,"rental_uris":{"android":"levelo://app?vid=4bcdbeb6-699f-40ca-87d3-9d73a2e1764d","ios":"levelo://app?vid=4bcdbeb6-699f-40ca-87d3-9d73a2e1764d"},"vehicle_type_id":"4","last_reported":1716653279,"current_range_meters":13600,"station_id":"","pricing_plan_id":"cebpf4jnsgd1na2vs0mg"},{"bike_id":"36fb3490-a76c-4542-9cbf-99d28c86583e","system_id":"levelo_inurba_marseille","lat":43.29945,"lon":5.40293,"is_reserved":false,"is_disabled":false,"rental_uris":{"android":"levelo://app?vid=36fb3490-a76c-4542-9cbf-99d28c86583e","ios":"levelo://app?vid=36fb3490-a76c-4542-9cbf-99d28c86583e"},"vehicle_type_id":"4","last_reported":1716653279,"current_range_meters":14000,"station_id":"","pricing_plan_id":"cebpf4jnsgd1na2vs0mg"},{"bike_id":"0d86e62a-23f7-443b-8d3f-9a795149154a","system_id":"levelo_inurba_marseille","lat":43.286774,"lon":5.386471,"is_reserved":false,"is_disabled":false,"rental_uris":{"android":"levelo://app?vid=0d86e62a-23f7-443b-8d3f-9a795149154a","ios":"levelo://app?vid=0d86e62a-23f7-443b-8d3f-9a795149154a"},"vehicle_type_id":"4","last_reported":1716653279,"current_range_meters":0,"station_id":"ce4bh492rcd13ifvqdug","pricing_plan_id":"cebpf4jnsgd1na2vs0mg"},{"bike_id":"26879562-a620-4492-9fea-8aefe63ff97d","system_id":"levelo_inurba_marseille","lat":43.286595,"lon":5.386795,"is_reserved":false,"is_disabled":false,"rental_uris":{"android":"levelo://app?vid=26879562-a620-4492-9fea-8aefe63ff97d","ios":"levelo://app?vid=26879562-a620-4492-9fea-8aefe63ff97d"},"vehicle_type_id":"4","last_reported":1716653279,"current_range_meters":30800,"station_id":"ce4bh492rcd13ifvqdug","pricing_plan_id":"cebpf4jnsgd1na2vs0mg"},{"bike_id":"90b23253-ca9a-4f1a-a927-172c63708b30","system_id":"levelo_inurba_marseille","lat":43.284038,"lon":5.355758,"is_reserved":false,"is_disabled":false,"rental_uris":{"android":"levelo://app?vid=90b23253-ca9a-4f1a-a927-172c63708b30","ios":"levelo://app?vid=90b23253-ca9a-4f1a-a927-172c63708b30"},"vehicle_type_id":"4","last_reported":1716653279,"current_range_meters":0,"station_id":"","pricing_plan_id":"cebpf4jnsgd1na2vs0mg"},{"bike_id":"311d92bc-63c2-4289-9f34-9b2f10d27f11","system_id":"levelo_inurba_marseille","lat":43.311722,"lon":5.387247,"is_reserved":false,"is_disabled":false,"rental_uris":{"android":"levelo://app?vid=311d92bc-63c2-4289-9f34-9b2f10d27f11","ios":"levelo://app?vid=311d92bc-63c2-4289-9f34-9b2f10d27f11"},"vehicle_type_id":"4","last_reported":1716653279,"current_range_meters":28000,"station_id":"ce4bgv12rcd13ifvqcp0","pricing_plan_id":"cebpf4jnsgd1na2vs0mg"},{"bike_id":"3ebaf820-7f15-4e64-9413-fb5e14b032e5","system_id":"levelo_inurba_marseille","lat":43.337168,"lon":5.391825,"is_reserved":false,"is_disabled":false,"rental_uris":{"android":"levelo://app?vid=3ebaf820-7f15-4e64-9413-fb5e14b032e5","ios":"levelo://app?vid=3ebaf820-7f15-4e64-9413-fb5e14b032e5"},"vehicle_type_id":"4","last_reported":1716653279,"current_range_meters":27200,"station_id":"ce4bhr92rcd13ifvqhsg","pricing_plan_id":"cebpf4jnsgd1na2vs0mg"},{"bike_id":"2108751f-62ff-46a9-a012-a5d11abb8d69","system_id":"levelo_inurba_marseille","lat":43.323464,"lon":5.406297,"is_reserved":false,"is_disabled":false,"rental_uris":{"android":"levelo://app?vid=2108751f-62ff-46a9-a012-a5d11abb8d69","ios":"levelo://app?vid=2108751f-62ff-46a9-a012-a5d11abb8d69"},"vehicle_type_id":"4","last_reported":1716653279,"current_range_meters":8400,"station_id":"ce4bhq92rcd13ifvqhjg","pricing_plan_id":"cebpf4jnsgd1na2vs0mg"},{"bike_id":"01947273-04b4-4ebd-a056-d0e2cb2b0573","system_id":"levelo_inurba_marseille","lat":43.284793,"lon":5.384113,"is_reserved":false,"is_disabled":false,"rental_uris":{"android":"levelo://app?vid=01947273-04b4-4ebd-a056-d0e2cb2b0573","ios":"levelo://app?vid=01947273-04b4-4ebd-a056-d0e2cb2b0573"},"vehicle_type_id":"4","last_reported":1716653279,"current_range_meters":10800,"station_id":"ce4bh512rcd13ifvqe3g","pricing_plan_id":"cebpf4jnsgd1na2vs0mg"},{"bike_id":"5e6b5909-e40f-46ad-950e-3d8cb919fd45","system_id":"levelo_inurba_marseille","lat":43.284632,"lon":5.350019,"is_reserved":false,"is_disabled":false,"rental_uris":{"android":"levelo://app?vid=5e6b5909-e40f-46ad-950e-3d8cb919fd45","ios":"levelo://app?vid=5e6b5909-e40f-46ad-950e-3d8cb919fd45"},"vehicle_type_id":"4","last_reported":1716653279,"current_range_meters":0,"station_id":"","pricing_plan_id":"cebpf4jnsgd1na2vs0mg"},{"bike_id":"817ffebe-a9b3-4fbd-9101-dd1ea2cd30b4","system_id":"levelo_inurba_marseille","lat":43.297946,"lon":5.404063,"is_reserved":false,"is_disabled":false,"rental_uris":{"android":"levelo://app?vid=817ffebe-a9b3-4fbd-9101-dd1ea2cd30b4","ios":"levelo://app?vid=817ffebe-a9b3-4fbd-9101-dd1ea2cd30b4"},"vehicle_type_id":"4","last_reported":1716653279,"current_range_meters":800,"station_id":"ce4bh112rcd13ifvqd90","pricing_plan_id":"cebpf4jnsgd1na2vs0mg"},{"bike_id":"9b243183-7db7-4875-a0a0-af7c746ea272","system_id":"levelo_inurba_marseille","lat":43.284793,"lon":5.384119,"is_reserved":false,"is_disabled":false,"rental_uris":{"android":"levelo://app?vid=9b243183-7db7-4875-a0a0-af7c746ea272","ios":"levelo://app?vid=9b243183-7db7-4875-a0a0-af7c746ea272"},"vehicle_type_id":"4","last_reported":1716653279,"current_range_meters":0,"station_id":"ce4bh512rcd13ifvqe3g","pricing_plan_id":"cebpf4jnsgd1na2vs0mg"},{"bike_id":"15be2cee-d91a-481d-b6e9-f15db7eab9ce","system_id":"levelo_inurba_marseille","lat":43.310672,"lon":5.409173,"is_reserved":false,"is_disabled":false,"rental_uris":{"android":"levelo://app?vid=15be2cee-d91a-481d-b6e9-f15db7eab9ce","ios":"levelo://app?vid=15be2cee-d91a-481d-b6e9-f15db7eab9ce"},"vehicle_type_id":"4","last_reported":1716653279,"current_range_meters":0,"station_id":"","pricing_plan_id":"cebpf4jnsgd1na2vs0mg"},{"bike_id":"d9777e88-cf3e-4f60-a7e0-8dc8d5688c5d","system_id":"levelo_inurba_marseille","lat":43.283498,"lon":5.380948,"is_reserved":false,"is_disabled":false,"rental_uris":{"android":"levelo://app?vid=d9777e88-cf3e-4f60-a7e0-8dc8d5688c5d","ios":"levelo://app?vid=d9777e88-cf3e-4f60-a7e0-8dc8d5688c5d"},"vehicle_type_id":"4","last_reported":1716653279,"current_range_meters":0,"station_id":"ce4bh412rcd13ifvqdr0","pricing_plan_id":"cebpf4jnsgd1na2vs0mg"},{"bike_id":"08120a06-1aaf-44c3-a07b-b1e26487a384","system_id":"levelo_inurba_marseille","lat":43.283494,"lon":5.380945,"is_reserved":false,"is_disabled":false,"rental_uris":{"android":"levelo://app?vid=08120a06-1aaf-44c3-a07b-b1e26487a384","ios":"levelo://app?vid=08120a06-1aaf-44c3-a07b-b1e26487a384"},