{"last_updated":1749640176,"ttl":60,"version":"2.2","data":{"bikes":[{"bike_id":"1ca346f7-31ac-4bb8-921b-e315b7c42a31","system_id":"levelo_inurba_marseille","lat":43.25578,"lon":5.38249,"is_reserved":false,"is_disabled":false,"rental_uris":{"android":"levelo://app?vid=1ca346f7-31ac-4bb8-921b-e315b7c42a31","ios":"levelo://app?vid=1ca346f7-31ac-4bb8-921b-e315b7c42a31"},"vehicle_type_id":"4","last_reported":1749640176,"current_range_meters":3200,"station_id":"ce4bhih2rcd13ifvqfs0","pricing_plan_id":"cebpf4jnsgd1na2vs0mg"},{"bike_id":"269b7e59-8988-44a7-a882-ecf8cca9f8e4","system_id":"levelo_inurba_marseille","lat":43.292256,"lon":5.360388,"is_reserved":false,"is_disabled":false,"rental_uris":{"android":"levelo://app?vid=269b7e59-8988-44a7-a882-ecf8cca9f8e4","ios":"levelo://app?vid=269b7e59-8988-44a7-a882-ecf8cca9f8e4"},"vehicle_type_id":"4","last_reported":1749640176,"current_range_meters":3200,"station_id":"ce4bhbh2rcd13ifvqeqg","pricing_plan_id":"cebpf4jnsgd1na2vs0mg"},{"bike_id":"71a6ad24-4e18-4bd8-917d-5666aa0c4d76","system_id":"levelo_inurba_marseille","lat":43.33753,"lon":5.37494,"is_reserved":false,"is_disabled":false,"rental_uris":{"android":"levelo://app?vid=71a6ad24-4e18-4bd8-917d-5666aa0c4d76","ios":"levelo://app?vid=71a6ad24-4e18-4bd8-917d-5666aa0c4d76"},"vehicle_type_id":"4","last_reported":1749640176,"current_range_meters":3200,"station_id":"","pricing_plan_id":"cebpf4jnsgd1na2vs0mg"},{"bike_id":"9b9513f2-4092-4af3-ad86-081ef414508d","system_id":"levelo_inurba_marseille","lat":43.27626,"lon":5.3611,"is_reserved":false,"is_disabled":false,"rental_uris":{"android":"levelo://app?vid=9b9513f2-4092-4af3-ad86-081ef414508d","ios":"levelo://app?vid=9b9513f2-4092-4af3-ad86-081ef414508d"},"vehicle_type_id":"4","last_reported":1749640176,"current_range_meters":3200,"station_id":"ce4bgj92rcd13ifvqbe0","pricing_plan_id":"cebpf4jnsgd1na2vs0mg"},{"bike_id":"2571a535-aaa6-4fff-bcf7-e6e4f76c600b","system_id":"levelo_inurba_marseille","lat":43.30136,"lon":5.38771,"is_reserved":false,"is_disabled":false,"rental_uris":{"android":"levelo://app?vid=2571a535-aaa6-4fff-bcf7-e6e4f76c600b","ios":"levelo://app?vid=2571a535-aaa6-4fff-bcf7-e6e4f76c600b"},"vehicle_type_id":"4","last_reported":1749640176,"current_range_meters":3200,"station_id":"ce4bghh2rcd13ifvqb60","pricing_plan_id":"cebpf4jnsgd1na2vs0mg"},{"bike_id":"1c284be8-9952-496a-8271-5e6456b50c28","system_id":"levelo_inurba_marseille","lat":43.28268,"lon":5.35069,"is_reserved":false,"is_disabled":false,"rental_uris":{"android":"levelo://app?vid=1c284be8-9952-496a-8271-5e6456b50c28","ios":"levelo://app?vid=1c284be8-9952-496a-8271-5e6456b50c28"},"vehicle_type_id":"4","last_reported":1749640176,"current_range_meters":3600,"station_id":"ce4bhbp2rcd13ifvqerg","pricing_plan_id":"cebpf4jnsgd1na2vs0mg"},{"bike_id":"76fb5c7f-1eb4-44e6-853b-01b3e9ad1879","system_id":"levelo_inurba_marseille","lat":43.2903,"lon":5.38133,"is_reserved":false,"is_disabled":false,"rental_uris":{"android":"levelo://app?vid=76fb5c7f-1eb4-44e6-853b-01b3e9ad1879","ios":"levelo://app?vid=76fb5c7f-1eb4-44e6-853b-01b3e9ad1879"},"vehicle_type_id":"4","last_reported":1749640176,"current_range_meters":3200,"station_id":"ce4bh4p2rcd13ifvqe1g","pricing_plan_id":"cebpf4jnsgd1na2vs0mg"},{"bike_id":"6b7bdf4a-e9c8-4b16-bc05-fc0d4e8dc5b9","system_id":"levelo_inurba_marseille","lat":43.29041,"lon":5.37568,"is_reserved":false,"is_disabled":false,"rental_uris":{"android":"levelo://app?vid=6b7bdf4a-e9c8-4b16-bc05-fc0d4e8dc5b9","ios":"levelo://app?vid=6b7bdf4a-e9c8-4b16-bc05-fc0d4e8dc5b9"},"vehicle_type_id":"4","last_reported":1749640176,"current_range_meters":4000,"station_id":"ce4bh692rcd13ifvqe90","pricing_plan_id":"cebpf4jnsgd1na2vs0mg"},{"bike_id":"17534276-e5fb-42b2-981a-f5e948082345","system_id":"levelo_inurba_marseille","lat":43.27125,"lon":5.38959,"is_reserved":false,"is_disabled":false,"rental_uris":{"android":"levelo://app?vid=17534276-e5fb-42b2-981a-f5e948082345","ios":"levelo://app?vid=17534276-e5fb-42b2-981a-f5e948082345"},"vehicle_type_id":"4","last_reported":1749640176,"current_range_meters":4400,"station_id":"","pricing_plan_id":"cebpf4jnsgd1na2vs0mg"},{"bike_id":"88113087-f0bb-4133-ab2a-bbfce1f3d99a","system_id":"levelo_inurba_marseille","lat":43.31713,"lon":5.40479,"is_reserved":false,"is_disabled":false,"rental_uris":{"android":"levelo://app?vid=88113087-f0bb-4133-ab2a-bbfce1f3d99a","ios":"levelo://app?vid=88113087-f0bb-4133-ab2a-bbfce1f3d99a"},"vehicle_type_id":"4","last_reported":1749640176,"current_range_meters":4800,"station_id":"ce4bh012rcd13ifvqd00","pricing_plan_id":"cebpf4jnsgd1na2vs0mg"},{"bike_id":"e0a95cf7-362d-4e43-bb89-5b46b6699bae","system_id":"levelo_inurba_marseille","lat":43.28616,"lon":5.35111,"is_reserved":false,"is_disabled":false,"rental_uris":{"android":"levelo://app?vid=e0a95cf7-362d-4e43-bb89-5b46b6699bae","ios":"levelo://app?vid=e0a95cf7-362d-4e43-bb89-5b46b6699bae"},"vehicle_type_id":"4","last_reported":1749640176,"current_range_meters":4800,"station_id":"ce4bhch2rcd13ifvqeug","pricing_plan_id":"cebpf4jnsgd1na2vs0mg"},{"bike_id":"f8fe442b-f94a-4365-a66b-4961c022fcc9","system_id":"levelo_inurba_marseille","lat":43.27371,"lon":5.36257,"is_reserved":false,"is_disabled":false,"rental_uris":{"android":"levelo://app?vid=f8fe442b-f94a-4365-a66b-4961c022fcc9","ios":"levelo://app?vid=f8fe442b-f94a-4365-a66b-4961c022fcc9"},"vehicle_type_id":"4","last_reported":1749640176,"current_range_meters":5600,"station_id":"ce4bhbh2rcd13ifvqeo0","pricing_plan_id":"cebpf4jnsgd1na2vs0mg"},{"bike_id":"499844e9-6f3f-4c9c-9a93-60e580fc15b2","system_id":"levelo_inurba_marseille","lat":43.28271,"lon":5.3507,"is_reserved":false,"is_disabled":false,"rental_uris":{"android":"levelo://app?vid=499844e9-6f3f-4c9c-9a93-60e580fc15b2","ios":"levelo://app?vid=499844e9-6f3f-4c9c-9a93-60e580fc15b2"},"vehicle_type_id":"4","last_reported":1749640176,"current_range_meters":5600,"station_id":"ce4bhbp2rcd13ifvqerg","pricing_plan_id":"cebpf4jnsgd1na2vs0mg"},{"bike_id":"3da569e0-c959-4d1f-ac62-4312880875ab","system_id":"levelo_inurba_marseille","lat":43.25582,"lon":5.38234,"is_reserved":false,"is_disabled":false,"rental_uris":{"android":"levelo://app?vid=3da569e0-c959-4d1f-ac62-4312880875ab","ios":"levelo://app?vid=3da569e0-c959-4d1f-ac62-4312880875ab"},"vehicle_type_id":"4","last_reported":1749640176,"current_range_meters":5600,"station_id":"ce4bhih2rcd13ifvqfs0","pricing_plan_id":"cebpf4jnsgd1na2vs0mg"},{"bike_id":"cc7ca7ac-2f15-43f4-9d9e-930c02e8f80c","system_id":"levelo_inurba_marseille","lat":43.257217,"lon":5.411212,"is_reserved":false,"is_disabled":false,"rental_uris":{"android":"levelo://app?vid=cc7ca7ac-2f15-43f4-9d9e-930c02e8f80c","ios":"levelo://app?vid=cc7ca7ac-2f15-43f4-9d9e-930c02e8f80c"},"vehicle_type_id":"4","last_reported":1749640176,"current_range_meters":6000,"station_id":"ce4bhkp2rcd13ifvqgd0","pricing_plan_id":"cebpf4jnsgd1na2vs0mg"},{"bike_id":"50f61e4f-d269-40ab-a00e-dc359cb2a1ff","system_id":"levelo_inurba_marseille","lat":43.29085,"lon":5.38151,"is_reserved":false,"is_disabled":false,"rental_uris":{"android":"levelo://app?vid=50f61e4f-d269-40ab-a00e-dc359cb2a1ff","ios":"levelo://app?vid=50f61e4f-d269-40ab-a00e-dc359cb2a1ff"},"vehicle_type_id":"4","last_reported":1749640176,"current_range_meters":6400,"station_id":"ce4bh512rcd13ifvqe2g","pricing_plan_id":"cebpf4jnsgd1na2vs0mg"},{"bike_id":"e21c586d-f1a0-4539-8eec-cf053fc8e35a","system_id":"levelo_inurba_marseille","lat":43.23183,"lon":5.39981,"is_reserved":false,"is_disabled":false,"rental_uris":{"android":"levelo://app?vid=e21c586d-f1a0-4539-8eec-cf053fc8e35a","ios":"levelo://app?vid=e21c586d-f1a0-4539-8eec-cf053fc8e35a"},"vehicle_type_id":"4","last_reported":1749640176,"current_range_meters":6400,"station_id":"ce4bhn12rcd13ifvqgqg","pricing_plan_id":"cebpf4jnsgd1na2vs0mg"},{"bike_id":"325adbf7-3210-4f42-9fa3-23c5b94ad930","system_id":"levelo_inurba_marseille","lat":43.29619,"lon":5.371599,"is_reserved":false,"is_disabled":false,"rental_uris":{"android":"levelo://app?vid=325adbf7-3210-4f42-9fa3-23c5b94ad930","ios":"levelo://app?vid=325adbf7-3210-4f42-9fa3-23c5b94ad930"},"vehicle_type_id":"4","last_reported":1749640176,"current_range_meters":6800,"station_id":"","pricing_plan_id":"cebpf4jnsgd1na2vs0mg"},{"bike_id":"39d32260-51d5-455a-ba53-6471389bd255","system_id":"levelo_inurba_marseille","lat":43.31976,"lon":5.376096,"is_reserved":false,"is_disabled":false,"rental_uris":{"android":"levelo://app?vid=39d32260-51d5-455a-ba53-6471389bd255","ios":"levelo://app?vid=39d32260-51d5-455a-ba53-6471389bd255"},"vehicle_type_id":"4","last_reported":1749640176,"current_range_meters":6800,"station_id":"","pricing_plan_id":"cebpf4jnsgd1na2vs0mg"},{"bike_id":"74ca7513-09a8-4a66-a8df-9699a60305b2","system_id":"levelo_inurba_marseille","lat":43.2658,"lon":5.39013,"is_reserved":false,"is_disabled":false,"rental_uris":{"android":"levelo://app?vid=74ca7513-09a8-4a66-a8df-9699a60305b2","ios":"levelo://app?vid=74ca7513-09a8-4a66-a8df-9699a60305b2"},"vehicle_type_id":"4","last_reported":1749640176,"current_range_meters":6800,"station_id":"ce4bhe12rcd13ifvqf30","pricing_plan_id":"cebpf4jnsgd1na2vs0mg"},{"bike_id":"88bb55a2-02a0-4760-a1b0-3ccb875085c7","system_id":"levelo_inurba_marseille","lat":43.26213,"lon":5.37439,"is_reserved":false,"is_disabled":false,"rental_uris":{"android":"levelo://app?vid=88bb55a2-02a0-4760-a1b0-3ccb875085c7","ios":"levelo://app?vid=88bb55a2-02a0-4760-a1b0-3ccb875085c7"},"vehicle_type_id":"4","last_reported":1749640176,"current_range_meters":6800,"station_id":"ce4bhgp2rcd13ifvqfc0","pricing_plan_id":"cebpf4jnsgd1na2vs0mg"},{"bike_id":"1e532920-9e26-4275-b7c0-535f652566f3","system_id":"levelo_inurba_marseille","lat":43.31349,"lon":5.36689,"is_reserved":false,"is_disabled":false,"rental_uris":{"android":"levelo://app?vid=1e532920-9e26-4275-b7c0-535f652566f3","ios":"levelo://app?vid=1e532920-9e26-4275-b7c0-535f652566f3"},"vehicle_type_id":"4","last_reported":1749640176,"current_range_meters":6800,"station_id":"ce4bgr92rcd13ifvqc6g","pricing_plan_id":"cebpf4jnsgd1na2vs0mg"},{"bike_id":"e523f706-8c3e-4c14-b599-8e03c9d72beb","system_id":"levelo_inurba_marseille","lat":43.31695,"lon":5.40454,"is_reserved":false,"is_disabled":false,"rental_uris":{"android":"levelo://app?vid=e523f706-8c3e-4c14-b599-8e03c9d72beb","ios":"levelo://app?vid=e523f706-8c3e-4c14-b599-8e03c9d72beb"},"vehicle_type_id":"4","last_reported":1749640176,"current_range_meters":7200,"station_id":"ce4bh012rcd13ifvqd00","pricing_plan_id":"cebpf4jnsgd1na2vs0mg"},{"bike_id":"ab6f20fc-bd2e-4bfa-9dd7-5b74c4d5811f","system_id":"levelo_inurba_marseille","lat":43.291643,"lon":5.39945,"is_reserved":false,"is_disabled":true,"rental_uris":{"android":"levelo://app?vid=ab6f20fc-bd2e-4bfa-9dd7-5b74c4d5811f","ios":"levelo://app?vid=ab6f20fc-bd2e-4bfa-9dd7-5b74c4d5811f"},"vehicle_type_id":"4","last_reported":1749640176,"current_range_meters":7200,"station_id":"","pricing_plan_id":"cebpf4jnsgd1na2vs0mg"},{"bike_id":"46433278-4457-48a5-b661-2c97fabebad4","system_id":"levelo_inurba_marseille","lat":43.27913,"lon":5.39575,"is_reserved":false,"is_disabled":false,"rental_uris":{"android":"levelo://app?vid=46433278-4457-48a5-b661-2c97fabebad4","ios":"levelo://app?vid=46433278-4457-48a5-b661-2c97fabebad4"},"vehicle_type_id":"4","last_reported":1749640176,"current_range_meters":7200,"station_id":"","pricing_plan_id":"cebpf4jnsgd1na2vs0mg"},{"bike_id":"a9334c0d-cdfc-464f-8eab-e98192ed3454","system_id":"levelo_inurba_marseille","lat":43.29239,"lon":5.39937,"is_reserved":false,"is_disabled":false,"rental_uris":{"android":"levelo://app?vid=a9334c0d-cdfc-464f-8eab-e98192ed3454","ios":"levelo://app?vid=a9334c0d-cdfc-464f-8eab-e98192ed3454"},"vehicle_type_id":"4","last_reported":1749640176,"current_range_meters":7200,"station_id":"","pricing_plan_id":"cebpf4jnsgd1na2vs0mg"},{"bike_id":"3c420e9a-eb17-4c36-b131-ac7860a1f0a2","system_id":"levelo_inurba_marseille","lat":43.29844,"lon":5.36276,"is_reserved":false,"is_disabled":false,"rental_uris":{"android":"levelo://app?vid=3c420e9a-eb17-4c36-b131-ac7860a1f0a2","ios":"levelo://app?vid=3c420e9a-eb17-4c36-b131-ac7860a1f0a2"},"vehicle_type_id":"4","last_reported":1749640176,"current_range_meters":7200,"station_id":"ce4bgpp2rcd13ifvqc3g","pricing_plan_id":"cebpf4jnsgd1na2vs0mg"},{"bike_id":"8eaff34a-ae89-41b8-8948-7c805862f79b","system_id":"levelo_inurba_marseille","lat":43.296265,"lon":5.377163,"is_reserved":false,"is_disabled":false,"rental_uris":{"android":"levelo://app?vid=8eaff34a-ae89-41b8-8948-7c805862f79b","ios":"levelo://app?vid=8eaff34a-ae89-41b8-8948-7c805862f79b"},"vehicle_type_id":"4","last_reported":1749640176,"current_range_meters":7200,"station_id":"ce4bgi92rcd13ifvqb90","pricing_plan_id":"cebpf4jnsgd1na2vs0mg"},{"bike_id":"44aae613-18ef-4f06-940f-bbcbba8ceb61","system_id":"levelo_inurba_marseille","lat":43.27178,"lon":5.40985,"is_reserved":false,"is_disabled":true,"rental_uris":{"android":"levelo://app?vid=44aae613-18ef-4f06-940f-bbcbba8ceb61","ios":"levelo://app?vid=44aae613-18ef-4f06-940f-bbcbba8ceb61"},"vehicle_type_id":"4","last_reported":1749640176,"current_range_meters":7200,"station_id":"ce4bhl12rcd13ifvqgf0","pricing_plan_id":"cebpf4jnsgd1na2vs0mg"},{"bike_id":"32ccbd24-15ff-4623-98f2-8a0eaa71d538","system_id":"levelo_inurba_marseille","lat":43.283428,"lon":5.381059,"is_reserved":false,"is_disabled":false,"rental_uris":{"android":"levelo://app?vid=32ccbd24-15ff-4623-98f2-8a0eaa71d538","ios":"levelo://app?vid=32ccbd24-15ff-4623-98f2-8a0eaa71d538"},"vehicle_type_id":"4","last_reported":1749640176,"current_range_meters":8000,"station_id":"ce4bh412rcd13ifvqdr0","pricing_plan_id":"cebpf4jnsgd1na2vs0mg"},{"bike_id":"e1f194ce-0bae-4802-a8bb-ea19d2aed5d3","system_id":"levelo_inurba_marseille","lat":43.33616,"lon":5.41039,"is_reserved":false,"is_disabled":false,"rental_uris":{"android":"levelo://app?vid=e1f194ce-0bae-4802-a8bb-ea19d2aed5d3","ios":"levelo://app?vid=e1f194ce-0bae-4802-a8bb-ea19d2aed5d3"},"vehicle_type_id":"4","last_reported":1749640176,"current_range_meters":8000,"station_id":"ce4bhqh2rcd13ifvqhmg","pricing_plan_id":"cebpf4jnsgd1na2vs0mg"},{"bike_id":"125bd855-10ed-4a56-9707-403f3a8b58a0","system_id":"levelo_inurba_marseille","lat":43.33084,"lon":5.40499,"is_reserved":false,"is_disabled":false,"rental_uris":{"android":"levelo://app?vid=125bd855-10ed-4a56-9707-403f3a8b58a0","ios":"levelo://app?vid=125bd855-10ed-4a56-9707-403f3a8b58a0"},"vehicle_type_id":"4","last_reported":1749640176,"current_range_meters":8000,"station_id":"","pricing_plan_id":"cebpf4jnsgd1na2vs0mg"},{"bike_id":"00793cc7-3aa4-4db5-b4eb-b976b8442b97","system_id":"levelo_inurba_marseille","lat":43.30804,"lon":5.43523,"is_reserved":false,"is_disabled":false,"rental_uris":{"android":"levelo://app?vid=00793cc7-3aa4-4db5-b4eb-b976b8442b97","ios":"levelo://app?vid=00793cc7-3aa4-4db5-b4eb-b976b8442b97"},"vehicle_type_id":"4","last_reported":1749640176,"current_range_meters":8400,"station_id":"ce4bhph2rcd13ifvqheg","pricing_plan_id":"cebpf4jnsgd1na2vs0mg"},{"bike_id":"60f440a3-f416-4034-8f3c-58318f9cd70c","system_id":"levelo_inurba_marseille","lat":43.32504,"lon":5.41452,"is_reserved":false,"is_disabled":false,"rental_uris":{"android":"levelo://app?vid=60f440a3-f416-4034-8f3c-58318f9cd70c","ios":"levelo://app?vid=60f440a3-f416-4034-8f3c-58318f9cd70c"},"vehicle_type_id":"4","last_reported":1749640176,"current_range_meters":8400,"station_id":"ce4bhq12rcd13ifvqhhg","pricing_plan_id":"cebpf4jnsgd1na2vs0mg"},{"bike_id":"87f5e89d-02c9-4f41-a798-7fcd0a619c8b","system_id":"levelo_inurba_marseille","lat":43.2978,"lon":5.38111,"is_reserved":false,"is_disabled":false,"rental_uris":{"android":"levelo://app?vid=87f5e89d-02c9-4f41-a798-7fcd0a619c8b","ios":"levelo://app?vid=87f5e89d-02c9-4f41-a798-7fcd0a619c8b"},"vehicle_type_id":"4","last_reported":1749640176,"current_range_meters":8400,"station_id":"ce4bgip2rcd13ifvqbb0","pricing_plan_id":"cebpf4jnsgd1na2vs0mg"},{"bike_id":"2fb82a4e-0ee1-4839-87e1-0819fb18ed3d","system_id":"levelo_inurba_marseille","lat":43.27068,"lon":5.42266,"is_reserved":false,"is_disabled":true,"rental_uris":{"android":"levelo://app?vid=2fb82a4e-0ee1-4839-87e1-0819fb18ed3d","ios":"levelo://app?vid=2fb82a4e-0ee1-4839-87e1-0819fb18ed3d"},"vehicle_type_id":"4","last_reported":1749640176,"current_range_meters":8400,"station_id":"ce4bhk92rcd13ifvqgb0","pricing_plan_id":"cebpf4jnsgd1na2vs0mg"},{"bike_id":"5077581b-cebb-46fc-ba69-4fa8272d4810","system_id":"levelo_inurba_marseille","lat":43.21362,"lon":5.35519,"is_reserved":false,"is_disabled":false,"rental_uris":{"android":"levelo://app?vid=5077581b-cebb-46fc-ba69-4fa8272d4810","ios":"levelo://app?vid=5077581b-cebb-46fc-ba69-4fa8272d4810"},"vehicle_type_id":"4","last_reported":1749640176,"current_range_meters":8800,"station_id":"","pricing_plan_id":"cebpf4jnsgd1na2vs0mg"},{"bike_id":"067e2ee8-1101-4b3d-8f2a-2f3961754b72","system_id":"levelo_inurba_marseille","lat":43.25942,"lon":5.40917,"is_reserved":false,"is_disabled":false,"rental_uris":{"android":"levelo://app?vid=067e2ee8-1101-4b3d-8f2a-2f3961754b72","ios":"levelo://app?vid=067e2ee8-1101-4b3d-8f2a-2f3961754b72"},"vehicle_type_id":"4","last_reported":1749640176,"current_range_meters":8800,"station_id":"ce4bhm92rcd13ifvqglg","pricing_plan_id":"cebpf4jnsgd1na2vs0mg"},{"bike_id":"a679cb80-4242-4d18-a97e-ea4a60dc83be","system_id":"levelo_inurba_marseille","lat":43.32188,"lon":5.41301,"is_reserved":false,"is_disabled":false,"rental_uris":{"android":"levelo://app?vid=a679cb80-4242-4d18-a97e-ea4a60dc83be","ios":"levelo://app?vid=a679cb80-4242-4d18-a97e-ea4a60dc83be"},"vehicle_type_id":"4","last_reported":1749640176,"current_range_meters":8800,"station_id":"","pricing_plan_id":"cebpf4jnsgd1na2vs0mg"},{"bike_id":"f099f1d3-8f7a-4cc3-a178-0fbb1ea0f192","system_id":"levelo_inurba_marseille","lat":43.29016,"lon":5.38131,"is_reserved":false,"is_disabled":true,"rental_uris":{"android":"levelo://app?vid=f099f1d3-8f7a-4cc3-a178-0fbb1ea0f192","ios":"levelo://app?vid=f099f1d3-8f7a-4cc3-a178-0fbb1ea0f192"},"vehicle_type_id":"4","last_reported":1749640176,"current_range_meters":8800,"station_id":"ce4bh4p2rcd13ifvqe1g","pricing_plan_id":"cebpf4jnsgd1na2vs0mg"},{"bike_id":"20143d3c-dc87-4723-9fb0-22eb45319649","system_id":"levelo_inurba_marseille","lat":43.2841,"lon":5.34987,"is_reserved":false,"is_disabled":false,"rental_uris":{"android":"levelo://app?vid=20143d3c-dc87-4723-9fb0-22eb45319649","ios":"levelo://app?vid=20143d3c-dc87-4723-9fb0-22eb45319649"},"vehicle_type_id":"4","last_reported":1749640176,"current_range_meters":8800,"station_id":"ce4bhbh2rcd13ifvqepg","pricing_plan_id":"cebpf4jnsgd1na2vs0mg"},{"bike_id":"6f58405a-0710-424d-b733-748033866066","system_id":"levelo_inurba_marseille","lat":43.29632,"lon":5.40593,"is_reserved":false,"is_disabled":false,"rental_uris":{"android":"levelo://app?vid=6f58405a-0710-424d-b733-748033866066","ios":"levelo://app?vid=6f58405a-0710-424d-b733-748033866066"},"vehicle_type_id":"4","last_reported":1749640176,"current_range_meters":9200,"station_id":"ce4bh0h2rcd13ifvqd60","pricing_plan_id":"cebpf4jnsgd1na2vs0mg"},{"bike_id":"1b706761-11e7-48e7-b29b-cfea8925cbb3","system_id":"levelo_inurba_marseille","lat":43.28169,"lon":5.42645,"is_reserved":false,"is_disabled":false,"rental_uris":{"android":"levelo://app?vid=1b706761-11e7-48e7-b29b-cfea8925cbb3","ios":"levelo://app?vid=1b706761-11e7-48e7-b29b-cfea8925cbb3"},"vehicle_type_id":"4","last_reported":1749640176,"current_range_meters":9200,"station_id":"ce4bhnh2rcd13ifvqgug","pricing_plan_id":"cebpf4jnsgd1na2vs0mg"},{"bike_id":"edb15927-3897-485c-8446-1504786de2b2","system_id":"levelo_inurba_marseille","lat":43.31079,"lon":5.38354,"is_reserved":false,"is_disabled":false,"rental_uris":{"android":"levelo://app?vid=edb15927-3897-485c-8446-1504786de2b2","ios":"levelo://app?vid=edb15927-3897-485c-8446-1504786de2b2"},"vehicle_type_id":"4","last_reported":1749640176,"current_range_meters":9200,"station_id":"ce4bgv92rcd13ifvqcr0","pricing_plan_id":"cebpf4jnsgd1na2vs0mg"},{"bike_id":"fb7a0414-68de-4bcf-a069-8b76b50de836","system_id":"levelo_inurba_marseille","lat":43.25887,"lon":5.40923,"is_reserved":false,"is_disabled":true,"rental_uris":{"android":"levelo://app?vid=fb7a0414-68de-4bcf-a069-8b76b50de836","ios":"levelo://app?vid=fb7a0414-68de-4bcf-a069-8b76b50de836"},"vehicle_type_id":"4","last_reported":1749640176,"current_range_meters":9200,"station_id":"ce4bhm92rcd13ifvqglg","pricing_plan_id":"cebpf4jnsgd1na2vs0mg"},{"bike_id":"ab5d796b-6f87-4b6e-a5bd-6ac051fcacd1","system_id":"levelo_inurba_marseille","lat":43.32488,"lon":5.36558,"is_reserved":false,"is_disabled":false,"rental_uris":{"android":"levelo://app?vid=ab5d796b-6f87-4b6e-a5bd-6ac051fcacd1","ios":"levelo://app?vid=ab5d796b-6f87-4b6e-a5bd-6ac051fcacd1"},"vehicle_type_id":"4","last_reported":1749640176,"current_range_meters":9200,"station_id":"ce4bhs12rcd13ifvqhvg","pricing_plan_id":"cebpf4jnsgd1na2vs0mg"},{"bike_id":"ca27e12a-1f2d-4cf2-be29-12a2b9ff1547","system_id":"levelo_inurba_marseille","lat":43.31708,"lon":5.42403,"is_reserved":false,"is_disabled":false,"rental_uris":{"android":"levelo://app?vid=ca27e12a-1f2d-4cf2-be29-12a2b9ff1547","ios":"levelo://app?vid=ca27e12a-1f2d-4cf2-be29-12a2b9ff1547"},"vehicle_type_id":"4","last_reported":1749640176,"current_range_meters":9200,"station_id":"ce4bhp92rcd13ifvqhbg","pricing_plan_id":"cebpf4jnsgd1na2vs0mg"},{"bike_id":"d50897ce-f1d9-41e4-8103-05e69d7f0ac6","system_id":"levelo_inurba_marseille","lat":43.27956,"lon":5.38709,"is_reserved":false,"is_disabled":false,"rental_uris":{"android":"levelo://app?vid=d50897ce-f1d9-41e4-8103-05e69d7f0ac6","ios":"levelo://app?vid=d50897ce-f1d9-41e4-8103-05e69d7f0ac6"},"vehicle_type_id":"4","last_reported":1749640176,"current_range_meters":9200,"station_id":"ce4bhg12rcd13ifvqf80","pricing_plan_id":"cebpf4jnsgd1na2vs0mg"},{"bike_id":"9ba0f9dd-6287-4bce-9907-3017e300f676","system_id":"levelo_inurba_marseille","lat":43.28414,"lon":5.34985,"is_reserved":false,"is_disabled":false,"rental_uris":{"android":"levelo://app?vid=9ba0f9dd-6287-4bce-9907-3017e300f676","ios":"levelo://app?vid=9ba0f9dd-6287-4bce-9907-3017e300f676"},"vehicle_type_id":"4","last_reported":1749640176,"current_range_meters":9200,"station_id":"ce4bhbh2rcd13ifvqepg","pricing_plan_id":"cebpf4jnsgd1na2vs0mg"},{"bike_id":"13a57aaa-1aba-4511-b931-ab383353dbe3","system_id":"levelo_inurba_marseille","lat":43.29935,"lon":5.3749,"is_reserved":false,"is_disabled":false,"rental_uris":{"android":"levelo://app?vid=13a57aaa-1aba-4511-b931-ab383353dbe3","ios":"levelo://app?vid=13a57aaa-1aba-4511-b931-ab383353dbe3"},"vehicle_type_id":"4","last_reported":1749640176,"current_range_meters":9600,"station_id":"","pricing_plan_id":"cebpf4jnsgd1na2vs0mg"},{"bike_id":"ad5fea89-943a-4619-9edc-0ace3e829ee1","system_id":"levelo_inurba_marseille","lat":43.32537,"lon":5.41453,"is_reserved":false,"is_disabled":false,"rental_uris":{"android":"levelo://app?vid=ad5fea89-943a-4619-9edc-0ace3e829ee1","ios":"levelo://app?vid=ad5fea89-943a-4619-9edc-0ace3e829ee1"},"vehicle_type_id":"4","last_reported":1749640176,"current_range_meters":9600,"station_id":"ce4bhq12rcd13ifvqhhg","pricing_plan_id":"cebpf4jnsgd1na2vs0mg"},{"bike_id":"35f4750d-5a36-4341-bbad-b177dd45c9c5","system_id":"levelo_inurba_marseille","lat":43.30938,"lon":5.4016,"is_reserved":false,"is_disabled":false,"rental_uris":{"android":"levelo://app?vid=35f4750d-5a36-4341-bbad-b177dd45c9c5","ios":"levelo://app?vid=35f4750d-5a36-4341-bbad-b177dd45c9c5"},"vehicle_type_id":"4","last_reported":1749640176,"current_range_meters":9600,"station_id":"ce4bgvp2rcd13ifvqct0","pricing_plan_id":"cebpf4jnsgd1na2vs0mg"},{"bike_id":"2e7bcf76-77eb-42a2-9ae3-8c7b16b8103f","system_id":"levelo_inurba_marseille","lat":43.32111,"lon":5.36767,"is_reserved":false,"is_disabled":false,"rental_uris":{"android":"levelo://app?vid=2e7bcf76-77eb-42a2-9ae3-8c7b16b8103f","ios":"levelo://app?vid=2e7bcf76-77eb-42a2-9ae3-8c7b16b8103f"},"vehicle_type_id":"4","last_reported":1749640176,"current_range_meters":9600,"station_id":"ce4bhrh2rcd13ifvqhug","pricing_plan_id":"cebpf4jnsgd1na2vs0mg"},{"bike_id":"e8be42d7-afc7-4a86-845b-44a44df3b6a0","system_id":"levelo_inurba_marseille","lat":43.29196,"lon":5.357992,"is_reserved":false,"is_disabled":false,"rental_uris":{"android":"levelo://app?vid=e8be42d7-afc7-4a86-845b-44a44df3b6a0","ios":"levelo://app?vid=e8be42d7-afc7-4a86-845b-44a44df3b6a0"},"vehicle_type_id":"4","last_reported":1749640176,"current_range_meters":9600,"station_id":"","pricing_plan_id":"cebpf4jnsgd1na2vs0mg"},{"bike_id":"57ae981b-f992-4b9e-bd1e-447b95ce922f","system_id":"levelo_inurba_marseille","lat":43.30704,"lon":5.38058,"is_reserved":false,"is_disabled":false,"rental_uris":{"android":"levelo://app?vid=57ae981b-f992-4b9e-bd1e-447b95ce922f","ios":"levelo://app?vid=57ae981b-f992-4b9e-bd1e-447b95ce922f"},"vehicle_type_id":"4","last_reported":1749640176,"current_range_meters":9600,"station_id":"","pricing_plan_id":"cebpf4jnsgd1na2vs0mg"},{"bike_id":"187b0a7b-e256-4c19-9794-bb250a6c5653","system_id":"levelo_inurba_marseille","lat":43.31861,"lon":5.37964,"is_reserved":false,"is_disabled":false,"rental_uris":{"android":"levelo://app?vid=187b0a7b-e256-4c19-9794-bb250a6c5653","ios":"levelo://app?vid=187b0a7b-e256-4c19-9794-bb250a6c5653"},"vehicle_type_id":"4","last_reported":1749640176,"current_range_meters":9600,"station_id":"","pricing_plan_id":"cebpf4jnsgd1na2vs0mg"},{"bike_id":"90d05cba-7c4e-4eb6-a0d6-6247b8cbf83c","system_id":"levelo_inurba_marseille","lat":43.29159,"lon":5.3715,"is_reserved":false,"is_disabled":false,"rental_uris":{"android":"levelo://app?vid=90d05cba-7c4e-4eb6-a0d6-6247b8cbf83c","ios":"levelo://app?vid=90d05cba-7c4e-4eb6-a0d6-6247b8cbf83c"},"vehicle_type_id":"4","last_reported":1749640176,"current_range_meters":9600,"station_id":"ce4bha92rcd13ifvqeh0","pricing_plan_id":"cebpf4jnsgd1na2vs0mg"},{"bike_id":"15138ce4-9850-4a09-9eb2-0da12393d0d8","system_id":"levelo_inurba_marseille","lat":43.3171,"lon":5.43694,"is_reserved":false,"is_disabled":false,"rental_uris":{"android":"levelo://app?vid=15138ce4-9850-4a09-9eb2-0da12393d0d8","ios":"levelo://app?vid=15138ce4-9850-4a09-9eb2-0da12393d0d8"},"vehicle_type_id":"4","last_reported":1749640176,"current_range_meters":9600,"station_id":"ce4bhp92rcd13ifvqhcg","pricing_plan_id":"cebpf4jnsgd1na2vs0mg"},{"bike_id":"65514be9-267b-4528-941f-4afad8d5ee85","system_id":"levelo_inurba_marseille","lat":43.28479,"lon":5.38436,"is_reserved":false,"is_disabled":false,"rental_uris":{"android":"levelo://app?vid=65514be9-267b-4528-941f-4afad8d5ee85","ios":"levelo://app?vid=65514be9-267b-4528-941f-4afad8d5ee85"},"vehicle_type_id":"4","last_reported":1749640176,"current_range_meters":10000,"station_id":"ce4bh512rcd13ifvqe3g","pricing_plan_id":"cebpf4jnsgd1na2vs0mg"},{"bike_id":"1ac3a52d-c97e-475e-b2e4-698717ab1182","system_id":"levelo_inurba_marseille","lat":43.29278,"lon":5.40114,"is_reserved":false,"is_disabled":false,"rental_uris":{"android":"levelo://app?vid=1ac3a52d-c97e-475e-b2e4-698717ab1182","ios":"levelo://app?vid=1ac3a52d-c97e-475e-b2e4-698717ab1182"},"vehicle_type_id":"4","last_reported":1749640176,"current_range_meters":10000,"station_id":"ce4bh312rcd13ifvqdk0","pricing_plan_id":"cebpf4jnsgd1na2vs0mg"},{"bike_id":"1e20f032-0f6a-40b2-ad29-e4d2225496fa","system_id":"levelo_inurba_marseille","lat":43.30296,"lon":5.3704,"is_reserved":false,"is_disabled":false,"rental_uris":{"android":"levelo://app?vid=1e20f032-0f6a-40b2-ad29-e4d2225496fa","ios":"levelo://app?vid=1e20f032-0f6a-40b2-ad29-e4d2225496fa"},"vehicle_type_id":"4","last_reported":1749640176,"current_range_meters":10000,"station_id":"","pricing_plan_id":"cebpf4jnsgd1na2vs0mg"},{"bike_id":"24677b43-078a-4210-ad8c-935106b74628","system_id":"levelo_inurba_marseille","lat":43.3032,"lon":5.36899,"is_reserved":false,"is_disabled":false,"rental_uris":{"android":"levelo://app?vid=24677b43-078a-4210-ad8c-935106b74628","ios":"levelo://app?vid=24677b43-078a-4210-ad8c-935106b74628"},"vehicle_type_id":"4","last_reported":1749640176,"current_range_meters":10000,"station_id":"ce4bgqh2rcd13ifvqc5g","pricing_plan_id":"cebpf4jnsgd1na2vs0mg"},{"bike_id":"09cb43ef-e60e-4591-8494-977a340e5cb7","system_id":"levelo_inurba_marseille","lat":43.301477,"lon":5.374188,"is_reserved":false,"is_disabled":false,"rental_uris":{"android":"levelo://app?vid=09cb43ef-e60e-4591-8494-977a340e5cb7","ios":"levelo://app?vid=09cb43ef-e60e-4591-8494-977a340e5cb7"},"vehicle_type_id":"4","last_reported":1749640176,"current_range_meters":10000,"station_id":"ce4bgs92rcd13ifvqcc0","pricing_plan_id":"cebpf4jnsgd1na2vs0mg"},{"bike_id":"095c404e-3ed6-4231-9a49-3753c4a89718","system_id":"levelo_inurba_marseille","lat":43.28267,"lon":5.35064,"is_reserved":false,"is_disabled":false,"rental_uris":{"android":"levelo://app?vid=095c404e-3ed6-4231-9a49-3753c4a89718","ios":"levelo://app?vid=095c404e-3ed6-4231-9a49-3753c4a89718"},"vehicle_type_id":"4","last_reported":1749640176,"current_range_meters":10800,"station_id":"ce4bhbp2rcd13ifvqerg","pricing_plan_id":"cebpf4jnsgd1na2vs0mg"},{"bike_id":"937a0fb5-47be-43e9-94c4-a99a87ac199c","system_id":"levelo_inurba_marseille","lat":43.247788,"lon":5.374091,"is_reserved":false,"is_disabled":false,"rental_uris":{"android":"levelo://app?vid=937a0fb5-47be-43e9-94c4-a99a87ac199c","ios":"levelo://app?vid=937a0fb5-47be-43e9-94c4-a99a87ac199c"},"vehicle_type_id":"4","last_reported":1749640176,"current_range_meters":10800,"station_id":"ce4bhgh2rcd13ifvqfb0","pricing_plan_id":"cebpf4jnsgd1na2vs0mg"},{"bike_id":"e6d67648-0d34-4392-8e2c-f83f208c9d05","system_id":"levelo_inurba_marseille","lat":43.316942,"lon":5.404571,"is_reserved":false,"is_disabled":false,"rental_uris":{"android":"levelo://app?vid=e6d67648-0d34-4392-8e2c-f83f208c9d05","ios":"levelo://app?vid=e6d67648-0d34-4392-8e2c-f83f208c9d05"},"vehicle_type_id":"4","last_reported":1749640176,"current_range_meters":10800,"station_id":"ce4bh012rcd13ifvqd00","pricing_plan_id":"cebpf4jnsgd1na2vs0mg"},{"bike_id":"a9e4d503-4de5-4d5f-9c30-65091f082a27","system_id":"levelo_inurba_marseille","lat":43.30887,"lon":5.39657,"is_reserved":false,"is_disabled":false,"rental_uris":{"android":"levelo://app?vid=a9e4d503-4de5-4d5f-9c30-65091f082a27","ios":"levelo://app?vid=a9e4d503-4de5-4d5f-9c30-65091f082a27"},"vehicle_type_id":"4","last_reported":1749640176,"current_range_meters":10800,"station_id":"ce4bh012rcd13ifvqcv0","pricing_plan_id":"cebpf4jnsgd1na2vs0mg"},{"bike_id":"95a4714c-a866-44aa-9e9e-fdb62ac73ac9","system_id":"levelo_inurba_marseille","lat":43.29257,"lon":5.37608,"is_reserved":false,"is_disabled":false,"rental_uris":{"android":"levelo://app?vid=95a4714c-a866-44aa-9e9e-fdb62ac73ac9","ios":"levelo://app?vid=95a4714c-a866-44aa-9e9e-fdb62ac73ac9"},"vehicle_type_id":"4","last_reported":1749640176,"current_range_meters":10800,"station_id":"ce4bgi12rcd13ifvqb80","pricing_plan_id":"cebpf4jnsgd1na2vs0mg"},{"bike_id":"acecc9dd-9f66-4fc9-b678-7dfbfc49612a","system_id":"levelo_inurba_marseille","lat":43.303746,"lon":5.424806,"is_reserved":false,"is_disabled":false,"rental_uris":{"android":"levelo://app?vid=acecc9dd-9f66-4fc9-b678-7dfbfc49612a","ios":"levelo://app?vid=acecc9dd-9f66-4fc9-b678-7dfbfc49612a"},"vehicle_type_id":"4","last_reported":1749640176,"current_range_meters":11200,"station_id":"ce4bhoh2rcd13ifvqh6g","pricing_plan_id":"cebpf4jnsgd1na2vs0mg"},{"bike_id":"40f16355-2f8e-45f3-b634-ead36a11d31e","system_id":"levelo_inurba_marseille","lat":43.27058,"lon":5.40257,"is_reserved":false,"is_disabled":false,"rental_uris":{"android":"levelo://app?vid=40f16355-2f8e-45f3-b634-ead36a11d31e","ios":"levelo://app?vid=40f16355-2f8e-45f3-b634-ead36a11d31e"},"vehicle_type_id":"4","last_reported":1749640176,"current_range_meters":11200,"station_id":"ce4bhk92rcd13ifvqgc0","pricing_plan_id":"cebpf4jnsgd1na2vs0mg"},{"bike_id":"9713fb10-d3dd-42e0-87d9-e4459c6c991a","system_id":"levelo_inurba_marseille","lat":43.21752,"lon":5.34605,"is_reserved":false,"is_disabled":false,"rental_uris":{"android":"levelo://app?vid=9713fb10-d3dd-42e0-87d9-e4459c6c991a","ios":"levelo://app?vid=9713fb10-d3dd-42e0-87d9-e4459c6c991a"},"vehicle_type_id":"4","last_reported":1749640176,"current_range_meters":11200,"station_id":"st_cvj6r9ubvosntc0bgbag","pricing_plan_id":"cebpf4jnsgd1na2vs0mg"},{"bike_id":"262903a9-22b9-4b2d-96c2-2e5dbd155090","system_id":"levelo_inurba_marseille","lat":43.32481,"lon":5.36565,"is_reserved":false,"is_disabled":false,"rental_uris":{"android":"levelo://app?vid=262903a9-22b9-4b2d-96c2-2e5dbd155090","ios":"levelo://app?vid=262903a9-22b9-4b2d-96c2-2e5dbd155090"},"vehicle_type_id":"4","last_reported":1749640176,"current_range_meters":11600,"station_id":"ce4bhs12rcd13ifvqhvg","pricing_plan_id":"cebpf4jnsgd1na2vs0mg"},{"bike_id":"9dfa60d6-b835-4d54-95f8-e6616010c7ab","system_id":"levelo_inurba_marseille","lat":43.283606,"lon":5.386336,"is_reserved":false,"is_disabled":false,"rental_uris":{"android":"levelo://app?vid=9dfa60d6-b835-4d54-95f8-e6616010c7ab","ios":"levelo://app?vid=9dfa60d6-b835-4d54-95f8-e6616010c7ab"},"vehicle_type_id":"4","last_reported":1749640176,"current_range_meters":11600,"station_id":"ce4bh492rcd13ifvqdvg","pricing_plan_id":"cebpf4jnsgd1na2vs0mg"},{"bike_id":"a6a9aa78-7299-47ac-a784-76282a099506","system_id":"levelo_inurba_marseille","lat":43.30183,"lon":5.38107,"is_reserved":false,"is_disabled":true,"rental_uris":{"android":"levelo://app?vid=a6a9aa78-7299-47ac-a784-76282a099506","ios":"levelo://app?vid=a6a9aa78-7299-47ac-a784-76282a099506"},"vehicle_type_id":"4","last_reported":1749640176,"current_range_meters":11600,"station_id":"ce4bgjp2rcd13ifvqbh0","pricing_plan_id":"cebpf4jnsgd1na2vs0mg"},{"bike_id":"cefaf597-5249-449d-bcdf-755cf25eceba","system_id":"levelo_inurba_marseille","lat":43.2962,"lon":5.37714,"is_reserved":false,"is_disabled":false,"rental_uris":{"android":"levelo://app?vid=cefaf597-5249-449d-bcdf-755cf25eceba","ios":"levelo://app?vid=cefaf597-5249-449d-bcdf-755cf25eceba"},"vehicle_type_id":"4","last_reported":1749640176,"current_range_meters":11600,"station_id":"ce4bgi92rcd13ifvqb90","pricing_plan_id":"cebpf4jnsgd1na2vs0mg"},{"bike_id":"84f5a926-1dd6-4535-b647-2764ce0ca103","system_id":"levelo_inurba_marseille","lat":43.32115,"lon":5.36768,"is_reserved":false,"is_disabled":false,"rental_uris":{"android":"levelo://app?vid=84f5a926-1dd6-4535-b647-2764ce0ca103","ios":"levelo://app?vid=84f5a926-1dd6-4535-b647-2764ce0ca103"},"vehicle_type_id":"4","last_reported":1749640176,"current_range_meters":11600,"station_id":"ce4bhrh2rcd13ifvqhug","pricing_plan_id":"cebpf4jnsgd1na2vs0mg"},{"bike_id":"44ebdb0e-21ec-49f2-8f50-c43388514a24","system_id":"levelo_inurba_marseille","lat":43.29974,"lon":5.37174,"is_reserved":false,"is_disabled":false,"rental_uris":{"android":"levelo://app?vid=44ebdb0e-21ec-49f2-8f50-c43388514a24","ios":"levelo://app?vid=44ebdb0e-21ec-49f2-8f50-c43388514a24"},"vehicle_type_id":"4","last_reported":1749640176,"current_range_meters":11600,"station_id":"ce4bgr92rcd13ifvqc7g","pricing_plan_id":"cebpf4jnsgd1na2vs0mg"},{"bike_id":"040cb1ed-40cd-4283-83e7-809e74adc357","system_id":"levelo_inurba_marseille","lat":43.29627,"lon":5.377043,"is_reserved":false,"is_disabled":false,"rental_uris":{"android":"levelo://app?vid=040cb1ed-40cd-4283-83e7-809e74adc357","ios":"levelo://app?vid=040cb1ed-40cd-4283-83e7-809e74adc357"},"vehicle_type_id":"4","last_reported":1749640176,"current_range_meters":11600,"station_id":"ce4bgi92rcd13ifvqb90","pricing_plan_id":"cebpf4jnsgd1na2vs0mg"},{"bike_id":"e7d3a594-edd4-4788-8a37-c60e561c8e5f","system_id":"levelo_inurba_marseille","lat":43.29264,"lon":5.40892,"is_reserved":false,"is_disabled":false,"rental_uris":{"android":"levelo://app?vid=e7d3a594-edd4-4788-8a37-c60e561c8e5f","ios":"levelo://app?vid=e7d3a594-edd4-4788-8a37-c60e561c8e5f"},"vehicle_type_id":"4","last_reported":1749640176,"current_range_meters":12000,"station_id":"ce4bh192rcd13ifvqdc0","pricing_plan_id":"cebpf4jnsgd1na2vs0mg"},{"bike_id":"f5db53c2-39c8-4781-b30f-b57c98968b37","system_id":"levelo_inurba_marseille","lat":43.29411,"lon":5.386245,"is_reserved":false,"is_disabled":true,"rental_uris":{"android":"levelo://app?vid=f5db53c2-39c8-4781-b30f-b57c98968b37","ios":"levelo://app?vid=f5db53c2-39c8-4781-b30f-b57c98968b37"},"vehicle_type_id":"4","last_reported":1749640176,"current_range_meters":12000,"station_id":"ce4bh2h2rcd13ifvqdh0","pricing_plan_id":"cebpf4jnsgd1na2vs0mg"},{"bike_id":"ac93e481-922d-4f59-beed-2260d25e4cb1","system_id":"levelo_inurba_marseille","lat":43.29733,"lon":5.37687,"is_reserved":false,"is_disabled":false,"rental_uris":{"android":"levelo://app?vid=ac93e481-922d-4f59-beed-2260d25e4cb1","ios":"levelo://app?vid=ac93e481-922d-4f59-beed-2260d25e4cb1"},"vehicle_type_id":"4","last_reported":1749640176,"current_range_meters":12000,"station_id":"ce4bgkh2rcd13ifvqbl0","pricing_plan_id":"cebpf4jnsgd1na2vs0mg"},{"bike_id":"b4e5bd5b-7335-4d47-8807-e22ca871e57c","system_id":"levelo_inurba_marseille","lat":43.22932,"lon":5.35376,"is_reserved":false,"is_disabled":false,"rental_uris":{"android":"levelo://app?vid=b4e5bd5b-7335-4d47-8807-e22ca871e57c","ios":"levelo://app?vid=b4e5bd5b-7335-4d47-8807-e22ca871e57c"},"vehicle_type_id":"4","last_reported":1749640176,"current_range_meters":12400,"station_id":"cpo3532slgdg3j2ikp40","pricing_plan_id":"cebpf4jnsgd1na2vs0mg"},{"bike_id":"3367d2f7-dcf4-4630-af4c-6402988a83aa","system_id":"levelo_inurba_marseille","lat":43.29593,"lon":5.37707,"is_reserved":false,"is_disabled":false,"rental_uris":{"android":"levelo://app?vid=3367d2f7-dcf4-4630-af4c-6402988a83aa","ios":"levelo://app?vid=3367d2f7-dcf4-4630-af4c-6402988a83aa"},"vehicle_type_id":"4","last_reported":1749640176,"current_range_meters":12400,"station_id":"ce4bgi92rcd13ifvqb90","pricing_plan_id":"cebpf4jnsgd1na2vs0mg"},{"bike_id":"4edd9fd3-b748-4bb7-98c5-e081c84b5105","system_id":"levelo_inurba_marseille","lat":43.28721,"lon":5.379969,"is_reserved":false,"is_disabled":false,"rental_uris":{"android":"levelo://app?vid=4edd9fd3-b748-4bb7-98c5-e081c84b5105","ios":"levelo://app?vid=4edd9fd3-b748-4bb7-98c5-e081c84b5105"},"vehicle_type_id":"4","last_reported":1749640176,"current_range_meters":12400,"station_id":"ce4bh9p2rcd13ifvqec0","pricing_plan_id":"cebpf4jnsgd1na2vs0mg"},{"bike_id":"0602a7fa-750f-4781-a072-6ef8476abef6","system_id":"levelo_inurba_marseille","lat":43.29651,"lon":5.37172,"is_reserved":false,"is_disabled":false,"rental_uris":{"android":"levelo://app?vid=0602a7fa-750f-4781-a072-6ef8476abef6","ios":"levelo://app?vid=0602a7fa-750f-4781-a072-6ef8476abef6"},"vehicle_type_id":"4","last_reported":1749640176,"current_range_meters":12400,"station_id":"ce4bgnh2rcd13ifvqc0g","pricing_plan_id":"cebpf4jnsgd1na2vs0mg"},{"bike_id":"39784479-c11a-4043-b0bc-9e2d6a3d23ac","system_id":"levelo_inurba_marseille","lat":43.31226,"lon":5.36846,"is_reserved":false,"is_disabled":false,"rental_uris":{"android":"levelo://app?vid=39784479-c11a-4043-b0bc-9e2d6a3d23ac","ios":"levelo://app?vid=39784479-c11a-4043-b0bc-9e2d6a3d23ac"},"vehicle_type_id":"4","last_reported":1749640176,"current_range_meters":12400,"station_id":"ce4bgl92rcd13ifvqbq0","pricing_plan_id":"cebpf4jnsgd1na2vs0mg"},{"bike_id":"91252cb4-db98-4cff-ba49-0337a6eacf8f","system_id":"levelo_inurba_marseille","lat":43.31976,"lon":5.38786,"is_reserved":false,"is_disabled":false,"rental_uris":{"android":"levelo://app?vid=91252cb4-db98-4cff-ba49-0337a6eacf8f","ios":"levelo://app?vid=91252cb4-db98-4cff-ba49-0337a6eacf8f"},"vehicle_type_id":"4","last_reported":1749640176,"current_range_meters":12400,"station_id":"","pricing_plan_id":"cebpf4jnsgd1na2vs0mg"},{"bike_id":"752ebfa1-a8e9-4725-b808-58aa618033e5","system_id":"levelo_inurba_marseille","lat":43.2827,"lon":5.35072,"is_reserved":false,"is_disabled":false,"rental_uris":{"android":"levelo://app?vid=752ebfa1-a8e9-4725-b808-58aa618033e5","ios":"levelo://app?vid=752ebfa1-a8e9-4725-b808-58aa618033e5"},"vehicle_type_id":"4","last_reported":1749640176,"current_range_meters":12800,"station_id":"ce4bhbp2rcd13ifvqerg","pricing_plan_id":"cebpf4jnsgd1na2vs0mg"},{"bike_id":"0b193d91-1005-43f2-a074-0bd92319b273","system_id":"levelo_inurba_marseille","lat":43.26974,"lon":5.38633,"is_reserved":false,"is_disabled":false,"rental_uris":{"android":"levelo://app?vid=0b193d91-1005-43f2-a074-0bd92319b273","ios":"levelo://app?vid=0b193d91-1005-43f2-a074-0bd92319b273"},"vehicle_type_id":"4","last_reported":1749640176,"current_range_meters":12800,"station_id":"ce4bhh92rcd13ifvqfh0","pricing_plan_id":"cebpf4jnsgd1na2vs0mg"},{"bike_id":"7ae3a7b0-7b0a-4f25-af57-b23dbe5bb116","system_id":"levelo_inurba_marseille","lat":43.29029,"lon":5.39985,"is_reserved":false,"is_disabled":false,"rental_uris":{"android":"levelo://app?vid=7ae3a7b0-7b0a-4f25-af57-b23dbe5bb116","ios":"levelo://app?vid=7ae3a7b0-7b0a-4f25-af57-b23dbe5bb116"},"vehicle_type_id":"4","last_reported":1749640176,"current_range_meters":12800,"station_id":"ce4bh392rcd13ifvqdm0","pricing_plan_id":"cebpf4jnsgd1na2vs0mg"},{"bike_id":"28cf6428-bf21-42b5-b43a-7798f74aba34","system_id":"levelo_inurba_marseille","lat":43.28004,"lon":5.40009,"is_reserved":false,"is_disabled":false,"rental_uris":{"android":"levelo://app?vid=28cf6428-bf21-42b5-b43a-7798f74aba34","ios":"levelo://app?vid=28cf6428-bf21-42b5-b43a-7798f74aba34"},"vehicle_type_id":"4","last_reported":1749640176,"current_range_meters":12800,"station_id":"ce4bho92rcd13ifvqh4g","pricing_plan_id":"cebpf4jnsgd1na2vs0mg"},{"bike_id":"398fc2d5-304a-4200-ba54-ed87b973990b","system_id":"levelo_inurba_marseille","lat":43.25929,"lon":5.40906,"is_reserved":false,"is_disabled":true,"rental_uris":{"android":"levelo://app?vid=398fc2d5-304a-4200-ba54-ed87b973990b","ios":"levelo://app?vid=398fc2d5-304a-4200-ba54-ed87b973990b"},"vehicle_type_id":"4","last_reported":1749640176,"current_range_meters":12800,"station_id":"ce4bhm92rcd13ifvqglg","pricing_plan_id":"cebpf4jnsgd1na2vs0mg"},{"bike_id":"1acfb620-cad7-48c0-8901-d7a5b74a5b65","system_id":"levelo_inurba_marseille","lat":43.33751,"lon":5.37456,"is_reserved":false,"is_disabled":false,"rental_uris":{"android":"levelo://app?vid=1acfb620-cad7-48c0-8901-d7a5b74a5b65","ios":"levelo://app?vid=1acfb620-cad7-48c0-8901-d7a5b74a5b65"},"vehicle_type_id":"4","last_reported":1749640176,"current_range_meters":12800,"station_id":"","pricing_plan_id":"cebpf4jnsgd1na2vs0mg"},{"bike_id":"8a7ed6b2-1c3a-45e9-9fdf-4bc0c77245af","system_id":"levelo_inurba_marseille","lat":43.27069,"lon":5.42278,"is_reserved":false,"is_disabled":false,"rental_uris":{"android":"levelo://app?vid=8a7ed6b2-1c3a-45e9-9fdf-4bc0c77245af","ios":"levelo://app?vid=8a7ed6b2-1c3a-45e9-9fdf-4bc0c77245af"},"vehicle_type_id":"4","last_reported":1749640176,"current_range_meters":13600,"station_id":"","pricing_plan_id":"cebpf4jnsgd1na2vs0mg"},{"bike_id":"e2ab8eba-7083-4745-9245-927a9e9c668c","system_id":"levelo_inurba_marseille","lat":43.28415,"lon":5.34987,"is_reserved":false,"is_disabled":false,"rental_uris":{"android":"levelo://app?vid=e2ab8eba-7083-4745-9245-927a9e9c668c","ios":"levelo://app?vid=e2ab8eba-7083-4745-9245-927a9e9c668c"},"vehicle_type_id":"4","last_reported":1749640176,"current_range_meters":13600,"station_id":"ce4bhbh2rcd13ifvqepg","pricing_plan_id":"cebpf4jnsgd1na2vs0mg"},{"bike_id":"b9cf6616-385a-40c3-92c9-9c68a295ea42","system_id":"levelo_inurba_marseille","lat":43.29291,"lon":5.37426,"is_reserved":false,"is_disabled":false,"rental_uris":{"android":"levelo://app?vid=b9cf6616-385a-40c3-92c9-9c68a295ea42","ios":"levelo://app?vid=b9cf6616-385a-40c3-92c9-9c68a295ea42"},"vehicle_type_id":"4","last_reported":1749640176,"current_range_meters":13600,"station_id":"ce4bgi12rcd13ifvqb70","pricing_plan_id":"cebpf4jnsgd1na2vs0mg"},{"bike_id":"5bb201ea-d2d4-420e-81c4-c3de03ec8ca5","system_id":"levelo_inurba_marseille","lat":43.28265,"lon":5.35064,"is_reserved":false,"is_disabled":false,"rental_uris":{"android":"levelo://app?vid=5bb201ea-d2d4-420e-81c4-c3de03ec8ca5","ios":"levelo://app?vid=5bb201ea-d2d4-420e-81c4-c3de03ec8ca5"},"vehicle_type_id":"4","last_reported":1749640176,"current_range_meters":14000,"station_id":"ce4bhbp2rcd13ifvqerg","pricing_plan_id":"cebpf4jnsgd1na2vs0mg"},{"bike_id":"8afb6112-33a3-4866-adc8-e3fe04e3f604","system_id":"levelo_inurba_marseille","lat":43.282677,"lon":5.350621,"is_reserved":false,"is_disabled":false,"rental_uris":{"android":"levelo://app?vid=8afb6112-33a3-4866-adc8-e3fe04e3f604","ios":"levelo://app?vid=8afb6112-33a3-4866-adc8-e3fe04e3f604"},"vehicle_type_id":"4","last_reported":1749640176,"current_range_meters":14000,"station_id":"ce4bhbp2rcd13ifvqerg","pricing_plan_id":"cebpf4jnsgd1na2vs0mg"},{"bike_id":"2c7a13aa-9a16-4880-8e65-7cb3af8d8d1b","system_id":"levelo_inurba_marseille","lat":43.28974,"lon":5.37829,"is_reserved":false,"is_disabled":false,"rental_uris":{"android":"levelo://app?vid=2c7a13aa-9a16-4880-8e65-7cb3af8d8d1b","ios":"levelo://app?vid=2c7a13aa-9a16-4880-8e65-7cb3af8d8d1b"},"vehicle_type_id":"4","last_reported":1749640176,"current_range_meters":14000,"station_id":"ce4bh9p2rcd13ifvqed0","pricing_plan_id":"cebpf4jnsgd1na2vs0mg"},{"bike_id":"754b5eaf-467c-4683-b305-04ab0a7d7c74","system_id":"levelo_inurba_marseille","lat":43.24649,"lon":5.38888,"is_reserved":false,"is_disabled":false,"rental_uris":{"android":"levelo://app?vid=754b5eaf-467c-4683-b305-04ab0a7d7c74","ios":"levelo://app?vid=754b5eaf-467c-4683-b305-04ab0a7d7c74"},"vehicle_type_id":"4","last_reported":1749640176,"current_range_meters":14400,"station_id":"ce4bhg12rcd13ifvqf60","pricing_plan_id":"cebpf4jnsgd1na2vs0mg"},{"bike_id":"058ec474-c044-4918-bc5a-2a5432bb9486","system_id":"levelo_inurba_marseille","lat":43.2903,"lon":5.38155,"is_reserved":false,"is_disabled":false,"rental_uris":{"android":"levelo://app?vid=058ec474-c044-4918-bc5a-2a5432bb9486","ios":"levelo://app?vid=058ec474-c044-4918-bc5a-2a5432bb9486"},"vehicle_type_id":"4","last_reported":1749640176,"current_range_meters":14400,"station_id":"ce4bh4p2rcd13ifvqe1g","pricing_plan_id":"cebpf4jnsgd1na2vs0mg"},{"bike_id":"417ca2b8-7d77-499a-8b51-a2212f0e9abf","system_id":"levelo_inurba_marseille","lat":43.25112,"lon":5.4032,"is_reserved":false,"is_disabled":false,"rental_uris":{"android":"levelo://app?vid=417ca2b8-7d77-499a-8b51-a2212f0e9abf","ios":"levelo://app?vid=417ca2b8-7d77-499a-8b51-a2212f0e9abf"},"vehicle_type_id":"4","last_reported":1749640176,"current_range_meters":14400,"station_id":"ce4bhlh2rcd13ifvqgig","pricing_plan_id":"cebpf4jnsgd1na2vs0mg"},{"bike_id":"68c7cd7d-5234-4bd5-a02e-5a89ffc2fdb6","system_id":"levelo_inurba_marseille","lat":43.241824,"lon":5.397214,"is_reserved":false,"is_disabled":false,"rental_uris":{"android":"levelo://app?vid=68c7cd7d-5234-4bd5-a02e-5a89ffc2fdb6","ios":"levelo://app?vid=68c7cd7d-5234-4bd5-a02e-5a89ffc2fdb6"},"vehicle_type_id":"4","last_reported":1749640176,"current_range_meters":14800,"station_id":"ce4bhn12rcd13ifvqgpg","pricing_plan_id":"cebpf4jnsgd1na2vs0mg"},{"bike_id":"d6515318-ac2c-47f0-b0e4-ac5ab2c5d151","system_id":"levelo_inurba_marseille","lat":43.24165,"lon":5.36397,"is_reserved":false,"is_disabled":false,"rental_uris":{"android":"levelo://app?vid=d6515318-ac2c-47f0-b0e4-ac5ab2c5d151","ios":"levelo://app?vid=d6515318-ac2c-47f0-b0e4-ac5ab2c5d151"},"vehicle_type_id":"4","last_reported":1749640176,"current_range_meters":14800,"station_id":"cpo36qri1sfpv3e86is0","pricing_plan_id":"cebpf4jnsgd1na2vs0mg"},{"bike_id":"9e00e8eb-32ec-498e-b90d-d5e42567a6a7","system_id":"levelo_inurba_marseille","lat":43.29279,"lon":5.37446,"is_reserved":false,"is_disabled":false,"rental_uris":{"android":"levelo://app?vid=9e00e8eb-32ec-498e-b90d-d5e42567a6a7","ios":"levelo://app?vid=9e00e8eb-32ec-498e-b90d-d5e42567a6a7"},"vehicle_type_id":"4","last_reported":1749640176,"current_range_meters":14800,"station_id":"ce4bgi12rcd13ifvqb70","pricing_plan_id":"cebpf4jnsgd1na2vs0mg"},{"bike_id":"4e81aa29-a2bd-4fd7-9d39-20882e20f01a","system_id":"levelo_inurba_marseille","lat":43.28705,"lon":5.3998,"is_reserved":false,"is_disabled":false,"rental_uris":{"android":"levelo://app?vid=4e81aa29-a2bd-4fd7-9d39-20882e20f01a","ios":"levelo://app?vid=4e81aa29-a2bd-4fd7-9d39-20882e20f01a"},"vehicle_type_id":"4","last_reported":1749640176,"current_range_meters":14800,"station_id":"ce4bho92rcd13ifvqh3g","pricing_plan_id":"cebpf4jnsgd1na2vs0mg"},{"bike_id":"3447c9d6-291c-496f-a251-3b38220bfb4f","system_id":"levelo_inurba_marseille","lat":43.23193,"lon":5.35553,"is_reserved":false,"is_disabled":false,"rental_uris":{"android":"levelo://app?vid=3447c9d6-291c-496f-a251-3b38220bfb4f","ios":"levelo://app?vid=3447c9d6-291c-496f-a251-3b38220bfb4f"},"vehicle_type_id":"4","last_reported":1749640176,"current_range_meters":14800,"station_id":"ce4bhu92rcd13ifvqi70","pricing_plan_id":"cebpf4jnsgd1na2vs0mg"},{"bike_id":"314bac2c-e47f-46cd-afcd-53cd84a7d142","system_id":"levelo_inurba_marseille","lat":43.27611,"lon":5.36116,"is_reserved":false,"is_disabled":true,"rental_uris":{"android":"levelo://app?vid=314bac2c-e47f-46cd-afcd-53cd84a7d142","ios":"levelo://app?vid=314bac2c-e47f-46cd-afcd-53cd84a7d142"},"vehicle_type_id":"4","last_reported":1749640176,"current_range_meters":14800,"station_id":"","pricing_plan_id":"cebpf4jnsgd1na2vs0mg"},{"bike_id":"dc6fca2e-5f1c-4ae8-aefe-7f65f0547e41","system_id":"levelo_inurba_marseille","lat":43.33817,"lon":5.37438,"is_reserved":false,"is_disabled":false,"rental_uris":{"android":"levelo://app?vid=dc6fca2e-5f1c-4ae8-aefe-7f65f0547e41","ios":"levelo://app?vid=dc6fca2e-5f1c-4ae8-aefe-7f65f0547e41"},"vehicle_type_id":"4","last_reported":1749640176,"current_range_meters":15200,"station_id":"","pricing_plan_id":"cebpf4jnsgd1na2vs0mg"},{"bike_id":"9bc15633-6564-457e-9faf-2326665a2ea7","system_id":"levelo_inurba_marseille","lat":43.33614,"lon":5.41034,"is_reserved":false,"is_disabled":false,"rental_uris":{"android":"levelo://app?vid=9bc15633-6564-457e-9faf-2326665a2ea7","ios":"levelo://app?vid=9bc15633-6564-457e-9faf-2326665a2ea7"},"vehicle_type_id":"4","last_reported":1749640176,"current_range_meters":15200,"station_id":"ce4bhqh2rcd13ifvqhmg","pricing_plan_id":"cebpf4jnsgd1na2vs0mg"},{"bike_id":"c263836e-2a5b-4685-8cfd-9bcd44ad6a3d","system_id":"levelo_inurba_marseille","lat":43.303071,"lon":5.368967,"is_reserved":false,"is_disabled":false,"rental_uris":{"android":"levelo://app?vid=c263836e-2a5b-4685-8cfd-9bcd44ad6a3d","ios":"levelo://app?vid=c263836e-2a5b-4685-8cfd-9bcd44ad6a3d"},"vehicle_type_id":"4","last_reported":1749640176,"current_range_meters":15200,"station_id":"ce4bgqh2rcd13ifvqc5g","pricing_plan_id":"cebpf4jnsgd1na2vs0mg"},{"bike_id":"362f4ac8-b1bc-4964-923e-5a59881cab8e","system_id":"levelo_inurba_marseille","lat":43.288575,"lon":5.393305,"is_reserved":false,"is_disabled":false,"rental_uris":{"android":"levelo://app?vid=362f4ac8-b1bc-4964-923e-5a59881cab8e","ios":"levelo://app?vid=362f4ac8-b1bc-4964-923e-5a59881cab8e"},"vehicle_type_id":"4","last_reported":1749640176,"current_range_meters":15200,"station_id":"ce4bh2p2rcd13ifvqdi0","pricing_plan_id":"cebpf4jnsgd1na2vs0mg"},{"bike_id":"eb597e63-7dd8-4cd0-ae41-4ac36ec7f758","system_id":"levelo_inurba_marseille","lat":43.31116,"lon":5.37778,"is_reserved":false,"is_disabled":false,"rental_uris":{"android":"levelo://app?vid=eb597e63-7dd8-4cd0-ae41-4ac36ec7f758","ios":"levelo://app?vid=eb597e63-7dd8-4cd0-ae41-4ac36ec7f758"},"vehicle_type_id":"4","last_reported":1749640176,"current_range_meters":16000,"station_id":"ce4bgt92rcd13ifvqcg0","pricing_plan_id":"cebpf4jnsgd1na2vs0mg"},{"bike_id":"a2421370-e442-436f-a98a-844d44299694","system_id":"levelo_inurba_marseille","lat":43.32347,"lon":5.3673,"is_reserved":false,"is_disabled":false,"rental_uris":{"android":"levelo://app?vid=a2421370-e442-436f-a98a-844d44299694","ios":"levelo://app?vid=a2421370-e442-436f-a98a-844d44299694"},"vehicle_type_id":"4","last_reported":1749640176,"current_range_meters":16000,"station_id":"ce4bhsh2rcd13ifvqi2g","pricing_plan_id":"cebpf4jnsgd1na2vs0mg"},{"bike_id":"03e99185-e778-4ccf-af48-bb80112546c3","system_id":"levelo_inurba_marseille","lat":43.26209,"lon":5.3744,"is_reserved":false,"is_disabled":false,"rental_uris":{"android":"levelo://app?vid=03e99185-e778-4ccf-af48-bb80112546c3","ios":"levelo://app?vid=03e99185-e778-4ccf-af48-bb80112546c3"},"vehicle_type_id":"4","last_reported":1749640176,"current_range_meters":16000,"station_id":"ce4bhgp2rcd13ifvqfc0","pricing_plan_id":"cebpf4jnsgd1na2vs0mg"},{"bike_id":"01b53ea9-5963-4456-ac52-b335e6cee31c","system_id":"levelo_inurba_marseille","lat":43.28412,"lon":5.34985,"is_reserved":false,"is_disabled":false,"rental_uris":{"android":"levelo://app?vid=01b53ea9-5963-4456-ac52-b335e6cee31c","ios":"levelo://app?vid=01b53ea9-5963-4456-ac52-b335e6cee31c"},"vehicle_type_id":"4","last_reported":1749640176,"current_range_meters":16000,"station_id":"ce4bhbh2rcd13ifvqepg","pricing_plan_id":"cebpf4jnsgd1na2vs0mg"},{"bike_id":"6b4301fd-da9b-44ea-b9b4-e1cf2680d71c","system_id":"levelo_inurba_marseille","lat":43.292583,"lon":5.37618,"is_reserved":false,"is_disabled":false,"rental_uris":{"android":"levelo://app?vid=6b4301fd-da9b-44ea-b9b4-e1cf2680d71c","ios":"levelo://app?vid=6b4301fd-da9b-44ea-b9b4-e1cf2680d71c"},"vehicle_type_id":"4","last_reported":1749640176,"current_range_meters":16000,"station_id":"ce4bgi12rcd13ifvqb80","pricing_plan_id":"cebpf4jnsgd1na2vs0mg"},{"bike_id":"8e97af57-47d5-4f74-ba56-3a87157a2093","system_id":"levelo_inurba_marseille","lat":43.27618,"lon":5.36119,"is_reserved":false,"is_disabled":false,"rental_uris":{"android":"levelo://app?vid=8e97af57-47d5-4f74-ba56-3a87157a2093","ios":"levelo://app?vid=8e97af57-47d5-4f74-ba56-3a87157a2093"},"vehicle_type_id":"4","last_reported":1749640176,"current_range_meters":16000,"station_id":"ce4bgj92rcd13ifvqbe0","pricing_plan_id":"cebpf4jnsgd1na2vs0mg"},{"bike_id":"62c0da7f-aff9-4ffa-86b8-6966d8f0e555","system_id":"levelo_inurba_marseille","lat":43.21193,"lon":5.35074,"is_reserved":false,"is_disabled":false,"rental_uris":{"android":"levelo://app?vid=62c0da7f-aff9-4ffa-86b8-6966d8f0e555","ios":"levelo://app?vid=62c0da7f-aff9-4ffa-86b8-6966d8f0e555"},"vehicle_type_id":"4","last_reported":1749640176,"current_range_meters":16000,"station_id":"st_cvj6sg6p6f1abm77japg","pricing_plan_id":"cebpf4jnsgd1na2vs0mg"},{"bike_id":"f10adc7e-6a3a-4a5d-9515-dc52fefe2058","system_id":"levelo_inurba_marseille","lat":43.32345,"lon":5.36741,"is_reserved":false,"is_disabled":false,"rental_uris":{"android":"levelo://app?vid=f10adc7e-6a3a-4a5d-9515-dc52fefe2058","ios":"levelo://app?vid=f10adc7e-6a3a-4a5d-9515-dc52fefe2058"},"vehicle_type_id":"4","last_reported":1749640176,"current_range_meters":16000,"station_id":"ce4bhsh2rcd13ifvqi2g","pricing_plan_id":"cebpf4jnsgd1na2vs0mg"},{"bike_id":"03906049-57aa-48a6-8be7-b52b4263eb22","system_id":"levelo_inurba_marseille","lat":43.290057,"lon":5.356265,"is_reserved":false,"is_disabled":false,"rental_uris":{"android":"levelo://app?vid=03906049-57aa-48a6-8be7-b52b4263eb22","ios":"levelo://app?vid=03906049-57aa-48a6-8be7-b52b4263eb22"},"vehicle_type_id":"4","last_reported":1749640176,"current_range_meters":16000,"station_id":"","pricing_plan_id":"cebpf4jnsgd1na2vs0mg"},{"bike_id":"a172b0cf-62c4-4c52-a818-ce564350df02","system_id":"levelo_inurba_marseille","lat":43.21182,"lon":5.35076,"is_reserved":false,"is_disabled":false,"rental_uris":{"android":"levelo://app?vid=a172b0cf-62c4-4c52-a818-ce564350df02","ios":"levelo://app?vid=a172b0cf-62c4-4c52-a818-ce564350df02"},"vehicle_type_id":"4","last_reported":1749640176,"current_range_meters":16000,"station_id":"st_cvj6sg6p6f1abm77japg","pricing_plan_id":"cebpf4jnsgd1na2vs0mg"},{"bike_id":"ff6779a1-4f4c-471b-ab85-6c361d5c8c03","system_id":"levelo_inurba_marseille","lat":43.31367,"lon":5.36724,"is_reserved":false,"is_disabled":false,"rental_uris":{"android":"levelo://app?vid=ff6779a1-4f4c-471b-ab85-6c361d5c8c03","ios":"levelo://app?vid=ff6779a1-4f4c-471b-ab85-6c361d5c8c03"},"vehicle_type_id":"4","last_reported":1749640176,"current_range_meters":16000,"station_id":"ce4bgr92rcd13ifvqc6g","pricing_plan_id":"cebpf4jnsgd1na2vs0mg"},{"bike_id":"e8f98ba5-6f43-4b77-83b2-9d599d9b18cb","system_id":"levelo_inurba_marseille","lat":43.265544,"lon":5.372819,"is_reserved":false,"is_disabled":false,"rental_uris":{"android":"levelo://app?vid=e8f98ba5-6f43-4b77-83b2-9d599d9b18cb","ios":"levelo://app?vid=e8f98ba5-6f43-4b77-83b2-9d599d9b18cb"},"vehicle_type_id":"4","last_reported":1749640176,"current_range_meters":16400,"station_id":"ce4bhg12rcd13ifvqf70","pricing_plan_id":"cebpf4jnsgd1na2vs0mg"},{"bike_id":"28b271f5-5095-4d81-b0fe-38f4f1beea4a","system_id":"levelo_inurba_marseille","lat":43.29438,"lon":5.39747,"is_reserved":false,"is_disabled":false,"rental_uris":{"android":"levelo://app?vid=28b271f5-5095-4d81-b0fe-38f4f1beea4a","ios":"levelo://app?vid=28b271f5-5095-4d81-b0fe-38f4f1beea4a"},"vehicle_type_id":"4","last_reported":1749640176,"current_range_meters":16400,"station_id":"ce4bh3h2rcd13ifvqdo0","pricing_plan_id":"cebpf4jnsgd1na2vs0mg"},{"bike_id":"b1a9a8a4-dbb9-4db2-9f04-3c1f79933aad","system_id":"levelo_inurba_marseille","lat":43.23155,"lon":5.43716,"is_reserved":false,"is_disabled":false,"rental_uris":{"android":"levelo://app?vid=b1a9a8a4-dbb9-4db2-9f04-3c1f79933aad","ios":"levelo://app?vid=b1a9a8a4-dbb9-4db2-9f04-3c1f79933aad"},"vehicle_type_id":"4","last_reported":1749640176,"current_range_meters":16400,"station_id":"ce4bhmp2rcd13ifvqgog","pricing_plan_id":"cebpf4jnsgd1na2vs0mg"},{"bike_id":"ba74330e-e7e1-47b7-aac8-f61ede63b89c","system_id":"levelo_inurba_marseille","lat":43.28152,"lon":5.42629,"is_reserved":false,"is_disabled":false,"rental_uris":{"android":"levelo://app?vid=ba74330e-e7e1-47b7-aac8-f61ede63b89c","ios":"levelo://app?vid=ba74330e-e7e1-47b7-aac8-f61ede63b89c"},"vehicle_type_id":"4","last_reported":1749640176,"current_range_meters":16400,"station_id":"ce4bhnh2rcd13ifvqgug","pricing_plan_id":"cebpf4jnsgd1na2vs0mg"},{"bike_id":"74edc1dc-7a48-4483-a47b-ca5db14398e1","system_id":"levelo_inurba_marseille","lat":43.29548,"lon":5.42285,"is_reserved":false,"is_disabled":false,"rental_uris":{"android":"levelo://app?vid=74edc1dc-7a48-4483-a47b-ca5db14398e1","ios":"levelo://app?vid=74edc1dc-7a48-4483-a47b-ca5db14398e1"},"vehicle_type_id":"4","last_reported":1749640176,"current_range_meters":16400,"station_id":"ce4bhph2rcd13ifvqhdg","pricing_plan_id":"cebpf4jnsgd1na2vs0mg"},{"bike_id":"3d23968c-8e49-46af-b681-e5dfc9caa061","system_id":"levelo_inurba_marseille","lat":43.28411,"lon":5.3498,"is_reserved":false,"is_disabled":false,"rental_uris":{"android":"levelo://app?vid=3d23968c-8e49-46af-b681-e5dfc9caa061","ios":"levelo://app?vid=3d23968c-8e49-46af-b681-e5dfc9caa061"},"vehicle_type_id":"4","last_reported":1749640176,"current_range_meters":16800,"station_id":"ce4bhbh2rcd13ifvqepg","pricing_plan_id":"cebpf4jnsgd1na2vs0mg"},{"bike_id":"ea29e60c-290e-4978-823f-6cdca8f05833","system_id":"levelo_inurba_marseille","lat":43.28726,"lon":5.36075,"is_reserved":false,"is_disabled":false,"rental_uris":{"android":"levelo://app?vid=ea29e60c-290e-4978-823f-6cdca8f05833","ios":"levelo://app?vid=ea29e60c-290e-4978-823f-6cdca8f05833"},"vehicle_type_id":"4","last_reported":1749640176,"current_range_meters":16800,"station_id":"cki0cbj6b192h4jlfktg","pricing_plan_id":"cebpf4jnsgd1na2vs0mg"},{"bike_id":"c476f4b4-27f9-40c9-8279-e62af33c9689","system_id":"levelo_inurba_marseille","lat":43.29566,"lon":5.37499,"is_reserved":false,"is_disabled":false,"rental_uris":{"android":"levelo://app?vid=c476f4b4-27f9-40c9-8279-e62af33c9689","ios":"levelo://app?vid=c476f4b4-27f9-40c9-8279-e62af33c9689"},"vehicle_type_id":"4","last_reported":1749640176,"current_range_meters":16800,"station_id":"ce4bgh92rcd13ifvqb50","pricing_plan_id":"cebpf4jnsgd1na2vs0mg"},{"bike_id":"c0bd4251-d527-48a7-9378-e4e80c1c274f","system_id":"levelo_inurba_marseille","lat":43.31815,"lon":5.37369,"is_reserved":false,"is_disabled":false,"rental_uris":{"android":"levelo://app?vid=c0bd4251-d527-48a7-9378-e4e80c1c274f","ios":"levelo://app?vid=c0bd4251-d527-48a7-9378-e4e80c1c274f"},"vehicle_type_id":"4","last_reported":1749640176,"current_range_meters":16800,"station_id":"","pricing_plan_id":"cebpf4jnsgd1na2vs0mg"},{"bike_id":"c44fce3a-4253-42ce-abb7-ff87479af0be","system_id":"levelo_inurba_marseille","lat":43.23147,"lon":5.43703,"is_reserved":false,"is_disabled":false,"rental_uris":{"android":"levelo://app?vid=c44fce3a-4253-42ce-abb7-ff87479af0be","ios":"levelo://app?vid=c44fce3a-4253-42ce-abb7-ff87479af0be"},"vehicle_type_id":"4","last_reported":1749640176,"current_range_meters":16800,"station_id":"ce4bhmp2rcd13ifvqgog","pricing_plan_id":"cebpf4jnsgd1na2vs0mg"},{"bike_id":"54265529-c802-41ea-a434-8efe037aed4d","system_id":"levelo_inurba_marseille","lat":43.28414,"lon":5.34972,"is_reserved":false,"is_disabled":false,"rental_uris":{"android":"levelo://app?vid=54265529-c802-41ea-a434-8efe037aed4d","ios":"levelo://app?vid=54265529-c802-41ea-a434-8efe037aed4d"},"vehicle_type_id":"4","last_reported":1749640176,"current_range_meters":16800,"station_id":"ce4bhbh2rcd13ifvqepg","pricing_plan_id":"cebpf4jnsgd1na2vs0mg"},{"bike_id":"9eb21e17-0e92-4365-a752-c5612cb309f6","system_id":"levelo_inurba_marseille","lat":43.286158,"lon":5.350952,"is_reserved":false,"is_disabled":false,"rental_uris":{"android":"levelo://app?vid=9eb21e17-0e92-4365-a752-c5612cb309f6","ios":"levelo://app?vid=9eb21e17-0e92-4365-a752-c5612cb309f6"},"vehicle_type_id":"4","last_reported":1749640176,"current_range_meters":16800,"station_id":"","pricing_plan_id":"cebpf4jnsgd1na2vs0mg"},{"bike_id":"be7a325d-66cb-45d0-9c0d-a7fc5fc6ceb9","system_id":"levelo_inurba_marseille","lat":43.23967,"lon":5.3665,"is_reserved":false,"is_disabled":false,"rental_uris":{"android":"levelo://app?vid=be7a325d-66cb-45d0-9c0d-a7fc5fc6ceb9","ios":"levelo://app?vid=be7a325d-66cb-45d0-9c0d-a7fc5fc6ceb9"},"vehicle_type_id":"4","last_reported":1749640176,"current_range_meters":16800,"station_id":"ce4bhi12rcd13ifvqfp0","pricing_plan_id":"cebpf4jnsgd1na2vs0mg"},{"bike_id":"fb7efc96-eaa8-4557-9112-8ae53649a458","system_id":"levelo_inurba_marseille","lat":43.2862,"lon":5.35106,"is_reserved":false,"is_disabled":false,"rental_uris":{"android":"levelo://app?vid=fb7efc96-eaa8-4557-9112-8ae53649a458","ios":"levelo://app?vid=fb7efc96-eaa8-4557-9112-8ae53649a458"},"vehicle_type_id":"4","last_reported":1749640176,"current_range_meters":16800,"station_id":"ce4bhch2rcd13ifvqeug","pricing_plan_id":"cebpf4jnsgd1na2vs0mg"},{"bike_id":"71d23069-4b53-4c59-89de-c54de3aeb2cf","system_id":"levelo_inurba_marseille","lat":43.24569,"lon":5.41601,"is_reserved":false,"is_disabled":false,"rental_uris":{"android":"levelo://app?vid=71d23069-4b53-4c59-89de-c54de3aeb2cf","ios":"levelo://app?vid=71d23069-4b53-4c59-89de-c54de3aeb2cf"},"vehicle_type_id":"4","last_reported":1749640176,"current_range_meters":16800,"station_id":"","pricing_plan_id":"cebpf4jnsgd1na2vs0mg"},{"bike_id":"82e09dc2-8b7c-4a66-bfb5-1076e3b05584","system_id":"levelo_inurba_marseille","lat":43.286646,"lon":5.363451,"is_reserved":false,"is_disabled":false,"rental_uris":{"android":"levelo://app?vid=82e09dc2-8b7c-4a66-bfb5-1076e3b05584","ios":"levelo://app?vid=82e09dc2-8b7c-4a66-bfb5-1076e3b05584"},"vehicle_type_id":"4","last_reported":1749640176,"current_range_meters":16800,"station_id":"ce4bhah2rcd13ifvqej0","pricing_plan_id":"cebpf4jnsgd1na2vs0mg"},{"bike_id":"1c57ebc8-3857-4ca9-8806-e89310c9b4ed","system_id":"levelo_inurba_marseille","lat":43.3059,"lon":5.39354,"is_reserved":false,"is_disabled":false,"rental_uris":{"android":"levelo://app?vid=1c57ebc8-3857-4ca9-8806-e89310c9b4ed","ios":"levelo://app?vid=1c57ebc8-3857-4ca9-8806-e89310c9b4ed"},"vehicle_type_id":"4","last_reported":1749640176,"current_range_meters":16800,"station_id":"ce4bh0p2rcd13ifvqd80","pricing_plan_id":"cebpf4jnsgd1na2vs0mg"},{"bike_id":"46d086cb-16cb-4f85-94d7-5a36da00beaf","system_id":"levelo_inurba_marseille","lat":43.25496,"lon":5.37648,"is_reserved":false,"is_disabled":false,"rental_uris":{"android":"levelo://app?vid=46d086cb-16cb-4f85-94d7-5a36da00beaf","ios":"levelo://app?vid=46d086cb-16cb-4f85-94d7-5a36da00beaf"},"vehicle_type_id":"4","last_reported":1749640176,"current_range_meters":16800,"station_id":"ce4bhh12rcd13ifvqff0","pricing_plan_id":"cebpf4jnsgd1na2vs0mg"},{"bike_id":"9498b4fc-a3ac-4aa5-91ff-16c83c473e19","system_id":"levelo_inurba_marseille","lat":43.25488,"lon":5.37646,"is_reserved":false,"is_disabled":false,"rental_uris":{"android":"levelo://app?vid=9498b4fc-a3ac-4aa5-91ff-16c83c473e19","ios":"levelo://app?vid=9498b4fc-a3ac-4aa5-91ff-16c83c473e19"},"vehicle_type_id":"4","last_reported":1749640176,"current_range_meters":16800,"station_id":"ce4bhh12rcd13ifvqff0","pricing_plan_id":"cebpf4jnsgd1na2vs0mg"},{"bike_id":"2a471939-28b8-4680-9f3a-e29f61a44ac8","system_id":"levelo_inurba_marseille","lat":43.29892,"lon":5.3628,"is_reserved":false,"is_disabled":false,"rental_uris":{"android":"levelo://app?vid=2a471939-28b8-4680-9f3a-e29f61a44ac8","ios":"levelo://app?vid=2a471939-28b8-4680-9f3a-e29f61a44ac8"},"vehicle_type_id":"4","last_reported":1749640176,"current_range_meters":17200,"station_id":"","pricing_plan_id":"cebpf4jnsgd1na2vs0mg"},{"bike_id":"638b9117-c70b-47a3-9192-610d8a8acdda","system_id":"levelo_inurba_marseille","lat":43.29891,"lon":5.43653,"is_reserved":false,"is_disabled":false,"rental_uris":{"android":"levelo://app?vid=638b9117-c70b-47a3-9192-610d8a8acdda","ios":"levelo://app?vid=638b9117-c70b-47a3-9192-610d8a8acdda"},"vehicle_type_id":"4","last_reported":1749640176,"current_range_meters":17200,"station_id":"ce4bhpp2rcd13ifvqhfg","pricing_plan_id":"cebpf4jnsgd1na2vs0mg"},{"bike_id":"8a2d97db-031a-48a1-b256-52d007dcb4a5","system_id":"levelo_inurba_marseille","lat":43.31681,"lon":5.40471,"is_reserved":false,"is_disabled":false,"rental_uris":{"android":"levelo://app?vid=8a2d97db-031a-48a1-b256-52d007dcb4a5","ios":"levelo://app?vid=8a2d97db-031a-48a1-b256-52d007dcb4a5"},"vehicle_type_id":"4","last_reported":1749640176,"current_range_meters":17200,"station_id":"ce4bh012rcd13ifvqd00","pricing_plan_id":"cebpf4jnsgd1na2vs0mg"},{"bike_id":"707fb64a-4983-4a34-ade7-ee60c8e43453","system_id":"levelo_inurba_marseille","lat":43.231613,"lon":5.43644,"is_reserved":false,"is_disabled":false,"rental_uris":{"android":"levelo://app?vid=707fb64a-4983-4a34-ade7-ee60c8e43453","ios":"levelo://app?vid=707fb64a-4983-4a34-ade7-ee60c8e43453"},"vehicle_type_id":"4","last_reported":1749640176,"current_range_meters":17200,"station_id":"ce4bhmp2rcd13ifvqgog","pricing_plan_id":"cebpf4jnsgd1na2vs0mg"},{"bike_id":"04f107b7-020e-49a3-8513-6c594c244cad","system_id":"levelo_inurba_marseille","lat":43.31346,"lon":5.38484,"is_reserved":false,"is_disabled":false,"rental_uris":{"android":"levelo://app?vid=04f107b7-020e-49a3-8513-6c594c244cad","ios":"levelo://app?vid=04f107b7-020e-49a3-8513-6c594c244cad"},"vehicle_type_id":"4","last_reported":1749640176,"current_range_meters":17200,"station_id":"ce4bgt92rcd13ifvqcf0","pricing_plan_id":"cebpf4jnsgd1na2vs0mg"},{"bike_id":"32b62a51-6893-43fc-a047-9897e164dcd4","system_id":"levelo_inurba_marseille","lat":43.31775,"lon":5.37784,"is_reserved":false,"is_disabled":false,"rental_uris":{"android":"levelo://app?vid=32b62a51-6893-43fc-a047-9897e164dcd4","ios":"levelo://app?vid=32b62a51-6893-43fc-a047-9897e164dcd4"},"vehicle_type_id":"4","last_reported":1749640176,"current_range_meters":17600,"station_id":"","pricing_plan_id":"cebpf4jnsgd1na2vs0mg"},{"bike_id":"136a956b-c67e-4ee7-bafc-f4953a39f893","system_id":"levelo_inurba_marseille","lat":43.25152,"lon":5.39643,"is_reserved":false,"is_disabled":false,"rental_uris":{"android":"levelo://app?vid=136a956b-c67e-4ee7-bafc-f4953a39f893","ios":"levelo://app?vid=136a956b-c67e-4ee7-bafc-f4953a39f893"},"vehicle_type_id":"4","last_reported":1749640176,"current_range_meters":17600,"station_id":"","pricing_plan_id":"cebpf4jnsgd1na2vs0mg"},{"bike_id":"7b1cfe02-109e-4836-ae59-8aad9c4f2698","system_id":"levelo_inurba_marseille","lat":43.32336,"lon":5.40634,"is_reserved":false,"is_disabled":false,"rental_uris":{"android":"levelo://app?vid=7b1cfe02-109e-4836-ae59-8aad9c4f2698","ios":"levelo://app?vid=7b1cfe02-109e-4836-ae59-8aad9c4f2698"},"vehicle_type_id":"4","last_reported":1749640176,"current_range_meters":17600,"station_id":"ce4bhq92rcd13ifvqhjg","pricing_plan_id":"cebpf4jnsgd1na2vs0mg"},{"bike_id":"165ecccf-321b-45ee-abfd-553d9801aac0","system_id":"levelo_inurba_marseille","lat":43.29065,"lon":5.35444,"is_reserved":false,"is_disabled":false,"rental_uris":{"android":"levelo://app?vid=165ecccf-321b-45ee-abfd-553d9801aac0","ios":"levelo://app?vid=165ecccf-321b-45ee-abfd-553d9801aac0"},"vehicle_type_id":"4","last_reported":1749640176,"current_range_meters":17600,"station_id":"","pricing_plan_id":"cebpf4jnsgd1na2vs0mg"},{"bike_id":"9f739310-7917-4622-8f19-b23534f4b5b8","system_id":"levelo_inurba_marseille","lat":43.27365,"lon":5.36241,"is_reserved":false,"is_disabled":false,"rental_uris":{"android":"levelo://app?vid=9f739310-7917-4622-8f19-b23534f4b5b8","ios":"levelo://app?vid=9f739310-7917-4622-8f19-b23534f4b5b8"},"vehicle_type_id":"4","last_reported":1749640176,"current_range_meters":17600,"station_id":"ce4bhbh2rcd13ifvqeo0","pricing_plan_id":"cebpf4jnsgd1na2vs0mg"},{"bike_id":"99ccb411-d7f9-4fcb-b612-4d8582e16182","system_id":"levelo_inurba_marseille","lat":43.337224,"lon":5.391836,"is_reserved":false,"is_disabled":false,"rental_uris":{"android":"levelo://app?vid=99ccb411-d7f9-4fcb-b612-4d8582e16182","ios":"levelo://app?vid=99ccb411-d7f9-4fcb-b612-4d8582e16182"},"vehicle_type_id":"4","last_reported":1749640176,"current_range_meters":17600,"station_id":"ce4bhr92rcd13ifvqhsg","pricing_plan_id":"cebpf4jnsgd1na2vs0mg"},{"bike_id":"415d307a-18cd-4efb-a2ea-509f707e5bc8","system_id":"levelo_inurba_marseille","lat":43.309514,"lon":5.39036,"is_reserved":false,"is_disabled":false,"rental_uris":{"android":"levelo://app?vid=415d307a-18cd-4efb-a2ea-509f707e5bc8","ios":"levelo://app?vid=415d307a-18cd-4efb-a2ea-509f707e5bc8"},"vehicle_type_id":"4","last_reported":1749640176,"current_range_meters":17600,"station_id":"ce4bghh2rcd13ifvqb60","pricing_plan_id":"cebpf4jnsgd1na2vs0mg"},{"bike_id":"4abfa60e-8084-4232-addd-4516ef74b4dd","system_id":"levelo_inurba_marseille","lat":43.29037,"lon":5.39966,"is_reserved":false,"is_disabled":false,"rental_uris":{"android":"levelo://app?vid=4abfa60e-8084-4232-addd-4516ef74b4dd","ios":"levelo://app?vid=4abfa60e-8084-4232-addd-4516ef74b4dd"},"vehicle_type_id":"4","last_reported":1749640176,"current_range_meters":18000,"station_id":"ce4bh392rcd13ifvqdm0","pricing_plan_id":"cebpf4jnsgd1na2vs0mg"},{"bike_id":"cfbd8a25-6b08-4933-860d-36fe8a73be5a","system_id":"levelo_inurba_marseille","lat":43.241391,"lon":5.364076,"is_reserved":false,"is_disabled":false,"rental_uris":{"android":"levelo://app?vid=cfbd8a25-6b08-4933-860d-36fe8a73be5a","ios":"levelo://app?vid=cfbd8a25-6b08-4933-860d-36fe8a73be5a"},"vehicle_type_id":"4","last_reported":1749640176,"current_range_meters":18000,"station_id":"cpo36qri1sfpv3e86is0","pricing_plan_id":"cebpf4jnsgd1na2vs0mg"},{"bike_id":"8d4182e4-ebdd-4608-9457-fd3a4c2f8581","system_id":"levelo_inurba_marseille","lat":43.24182,"lon":5.39724,"is_reserved":false,"is_disabled":false,"rental_uris":{"android":"levelo://app?vid=8d4182e4-ebdd-4608-9457-fd3a4c2f8581","ios":"levelo://app?vid=8d4182e4-ebdd-4608-9457-fd3a4c2f8581"},"vehicle_type_id":"4","last_reported":1749640176,"current_range_meters":18000,"station_id":"ce4bhn12rcd13ifvqgpg","pricing_plan_id":"cebpf4jnsgd1na2vs0mg"},{"bike_id":"f8bba6a3-6a7c-4403-bd17-d0f16ff3dffb","system_id":"levelo_inurba_marseille","lat":43.2954,"lon":5.39029,"is_reserved":false,"is_disabled":false,"rental_uris":{"android":"levelo://app?vid=f8bba6a3-6a7c-4403-bd17-d0f16ff3dffb","ios":"levelo://app?vid=f8bba6a3-6a7c-4403-bd17-d0f16ff3dffb"},"vehicle_type_id":"4","last_reported":1749640176,"current_range_meters":18000,"station_id":"ce4bh3p2rcd13ifvqdp0","pricing_plan_id":"cebpf4jnsgd1na2vs0mg"},{"bike_id":"27c3ce4c-2f83-41ff-abde-3fb4e2e068fb","system_id":"levelo_inurba_marseille","lat":43.30998,"lon":5.37476,"is_reserved":false,"is_disabled":false,"rental_uris":{"android":"levelo://app?vid=27c3ce4c-2f83-41ff-abde-3fb4e2e068fb","ios":"levelo://app?vid=27c3ce4c-2f83-41ff-abde-3fb4e2e068fb"},"vehicle_type_id":"4","last_reported":1749640176,"current_range_meters":18000,"station_id":"","pricing_plan_id":"cebpf4jnsgd1na2vs0mg"},{"bike_id":"1a3b0ef4-fd99-41cb-bbbe-2863e96b819d","system_id":"levelo_inurba_marseille","lat":43.31381,"lon":5.36783,"is_reserved":false,"is_disabled":false,"rental_uris":{"android":"levelo://app?vid=1a3b0ef4-fd99-41cb-bbbe-2863e96b819d","ios":"levelo://app?vid=1a3b0ef4-fd99-41cb-bbbe-2863e96b819d"},"vehicle_type_id":"4","last_reported":1749640176,"current_range_meters":18000,"station_id":"","pricing_plan_id":"cebpf4jnsgd1na2vs0mg"},{"bike_id":"61c65c12-2f66-41c4-bb38-dbd56f58e8e9","system_id":"levelo_inurba_marseille","lat":43.28622,"lon":5.35105,"is_reserved":false,"is_disabled":false,"rental_uris":{"android":"levelo://app?vid=61c65c12-2f66-41c4-bb38-dbd56f58e8e9","ios":"levelo://app?vid=61c65c12-2f66-41c4-bb38-dbd56f58e8e9"},"vehicle_type_id":"4","last_reported":1749640176,"current_range_meters":18800,"station_id":"ce4bhch2rcd13ifvqeug","pricing_plan_id":"cebpf4jnsgd1na2vs0mg"},{"bike_id":"d0f5fd5e-82d0-4068-b904-613e884eaef5","system_id":"levelo_inurba_marseille","lat":43.28277,"lon":5.35075,"is_reserved":false,"is_disabled":false,"rental_uris":{"android":"levelo://app?vid=d0f5fd5e-82d0-4068-b904-613e884eaef5","ios":"levelo://app?vid=d0f5fd5e-82d0-4068-b904-613e884eaef5"},"vehicle_type_id":"4","last_reported":1749640176,"current_range_meters":18800,"station_id":"ce4bhbp2rcd13ifvqerg","pricing_plan_id":"cebpf4jnsgd1na2vs0mg"},{"bike_id":"245ba149-e534-4bb2-b899-aff79ba0b660","system_id":"levelo_inurba_marseille","lat":43.29027,"lon":5.38121,"is_reserved":false,"is_disabled":false,"rental_uris":{"android":"levelo://app?vid=245ba149-e534-4bb2-b899-aff79ba0b660","ios":"levelo://app?vid=245ba149-e534-4bb2-b899-aff79ba0b660"},"vehicle_type_id":"4","last_reported":1749640176,"current_range_meters":18800,"station_id":"ce4bh4p2rcd13ifvqe1g","pricing_plan_id":"cebpf4jnsgd1na2vs0mg"},{"bike_id":"b21450a4-463f-4eb5-a5b1-a818c0abb90a","system_id":"levelo_inurba_marseille","lat":43.29889,"lon":5.43653,"is_reserved":false,"is_disabled":false,"rental_uris":{"android":"levelo://app?vid=b21450a4-463f-4eb5-a5b1-a818c0abb90a","ios":"levelo://app?vid=b21450a4-463f-4eb5-a5b1-a818c0abb90a"},"vehicle_type_id":"4","last_reported":1749640176,"current_range_meters":18800,"station_id":"ce4bhpp2rcd13ifvqhfg","pricing_plan_id":"cebpf4jnsgd1na2vs0mg"},{"bike_id":"fb47eb45-610f-405a-a40f-61c2aaf6f855","system_id":"levelo_inurba_marseille","lat":43.30543,"lon":5.36532,"is_reserved":false,"is_disabled":false,"rental_uris":{"android":"levelo://app?vid=fb47eb45-610f-405a-a40f-61c2aaf6f855","ios":"levelo://app?vid=fb47eb45-610f-405a-a40f-61c2aaf6f855"},"vehicle_type_id":"4","last_reported":1749640176,"current_range_meters":18800,"station_id":"ce4bgs12rcd13ifvqcag","pricing_plan_id":"cebpf4jnsgd1na2vs0mg"},{"bike_id":"0207293a-a3b2-4296-92d4-1a624b173f1c","system_id":"levelo_inurba_marseille","lat":43.28464,"lon":5.35881,"is_reserved":false,"is_disabled":false,"rental_uris":{"android":"levelo://app?vid=0207293a-a3b2-4296-92d4-1a624b173f1c","ios":"levelo://app?vid=0207293a-a3b2-4296-92d4-1a624b173f1c"},"vehicle_type_id":"4","last_reported":1749640176,"current_range_meters":18800,"station_id":"ce4bhah2rcd13ifvqei0","pricing_plan_id":"cebpf4jnsgd1na2vs0mg"},{"bike_id":"908d7a87-70bf-41b9-aafc-1cb3b0cab55f","system_id":"levelo_inurba_marseille","lat":43.24551,"lon":5.39509,"is_reserved":false,"is_disabled":false,"rental_uris":{"android":"levelo://app?vid=908d7a87-70bf-41b9-aafc-1cb3b0cab55f","ios":"levelo://app?vid=908d7a87-70bf-41b9-aafc-1cb3b0cab55f"},"vehicle_type_id":"4","last_reported":1749640176,"current_range_meters":18800,"station_id":"ce4bhlp2rcd13ifvqgjg","pricing_plan_id":"cebpf4jnsgd1na2vs0mg"},{"bike_id":"39c79ce6-ced9-4104-be2d-06d5679ce550","system_id":"levelo_inurba_marseille","lat":43.31207,"lon":5.36838,"is_reserved":false,"is_disabled":false,"rental_uris":{"android":"levelo://app?vid=39c79ce6-ced9-4104-be2d-06d5679ce550","ios":"levelo://app?vid=39c79ce6-ced9-4104-be2d-06d5679ce550"},"vehicle_type_id":"4","last_reported":1749640176,"current_range_meters":18800,"station_id":"ce4bgl92rcd13ifvqbq0","pricing_plan_id":"cebpf4jnsgd1na2vs0mg"},{"bike_id":"3ef2d92c-c4b8-4514-ab63-da6683f58b00","system_id":"levelo_inurba_marseille","lat":43.29629,"lon":5.40594,"is_reserved":false,"is_disabled":false,"rental_uris":{"android":"levelo://app?vid=3ef2d92c-c4b8-4514-ab63-da6683f58b00","ios":"levelo://app?vid=3ef2d92c-c4b8-4514-ab63-da6683f58b00"},"vehicle_type_id":"4","last_reported":1749640176,"current_range_meters":19200,"station_id":"ce4bh0h2rcd13ifvqd60","pricing_plan_id":"cebpf4jnsgd1na2vs0mg"},{"bike_id":"1b986ab5-899b-45c0-ae8f-5234203e90af","system_id":"levelo_inurba_marseille","lat":43.32126,"lon":5.36806,"is_reserved":false,"is_disabled":false,"rental_uris":{"android":"levelo://app?vid=1b986ab5-899b-45c0-ae8f-5234203e90af","ios":"levelo://app?vid=1b986ab5-899b-45c0-ae8f-5234203e90af"},"vehicle_type_id":"4","last_reported":1749640176,"current_range_meters":19200,"station_id":"","pricing_plan_id":"cebpf4jnsgd1na2vs0mg"},{"bike_id":"6eade2f4-f51c-4071-9b54-7cdee3b10071","system_id":"levelo_inurba_marseille","lat":43.297937,"lon":5.380918,"is_reserved":false,"is_disabled":false,"rental_uris":{"android":"levelo://app?vid=6eade2f4-f51c-4071-9b54-7cdee3b10071","ios":"levelo://app?vid=6eade2f4-f51c-4071-9b54-7cdee3b10071"},"vehicle_type_id":"4","last_reported":1749640176,"current_range_meters":19200,"station_id":"ce4bgip2rcd13ifvqbb0","pricing_plan_id":"cebpf4jnsgd1na2vs0mg"},{"bike_id":"35ec1437-0e0d-46cb-8a2a-0646d871a5c1","system_id":"levelo_inurba_marseille","lat":43.24072,"lon":5.3776,"is_reserved":false,"is_disabled":false,"rental_uris":{"android":"levelo://app?vid=35ec1437-0e0d-46cb-8a2a-0646d871a5c1","ios":"levelo://app?vid=35ec1437-0e0d-46cb-8a2a-0646d871a5c1"},"vehicle_type_id":"4","last_reported":1749640176,"current_range_meters":19200,"station_id":"ce4bhnp2rcd13ifvqgvg","pricing_plan_id":"cebpf4jnsgd1na2vs0mg"},{"bike_id":"7f4f7888-35ab-47a9-81fe-a06ceb3350e4","system_id":"levelo_inurba_marseille","lat":43.23963,"lon":5.36629,"is_reserved":false,"is_disabled":false,"rental_uris":{"android":"levelo://app?vid=7f4f7888-35ab-47a9-81fe-a06ceb3350e4","ios":"levelo://app?vid=7f4f7888-35ab-47a9-81fe-a06ceb3350e4"},"vehicle_type_id":"4","last_reported":1749640176,"current_range_meters":19200,"station_id":"ce4bhi12rcd13ifvqfp0","pricing_plan_id":"cebpf4jnsgd1na2vs0mg"},{"bike_id":"22a70375-cac2-44f6-803c-d0dcc1930eba","system_id":"levelo_inurba_marseille","lat":43.261277,"lon":5.374802,"is_reserved":false,"is_disabled":false,"rental_uris":{"android":"levelo://app?vid=22a70375-cac2-44f6-803c-d0dcc1930eba","ios":"levelo://app?vid=22a70375-cac2-44f6-803c-d0dcc1930eba"},"vehicle_type_id":"4","last_reported":1749640176,"current_range_meters":19200,"station_id":"ce4bhgh2rcd13ifvqfb0","pricing_plan_id":"cebpf4jnsgd1na2vs0mg"},{"bike_id":"aaf03e04-5bf0-4283-8596-452224344e8e","system_id":"levelo_inurba_marseille","lat":43.2961,"lon":5.37722,"is_reserved":false,"is_disabled":false,"rental_uris":{"android":"levelo://app?vid=aaf03e04-5bf0-4283-8596-452224344e8e","ios":"levelo://app?vid=aaf03e04-5bf0-4283-8596-452224344e8e"},"vehicle_type_id":"4","last_reported":1749640176,"current_range_meters":19600,"station_id":"ce4bgi92rcd13ifvqb90","pricing_plan_id":"cebpf4jnsgd1na2vs0mg"},{"bike_id":"25f44d50-dfa4-43f3-be93-b16f8e24d2db","system_id":"levelo_inurba_marseille","lat":43.25491,"lon":5.3765,"is_reserved":false,"is_disabled":false,"rental_uris":{"android":"levelo://app?vid=25f44d50-dfa4-43f3-be93-b16f8e24d2db","ios":"levelo://app?vid=25f44d50-dfa4-43f3-be93-b16f8e24d2db"},"vehicle_type_id":"4","last_reported":1749640176,"current_range_meters":19600,"station_id":"ce4bhh12rcd13ifvqff0","pricing_plan_id":"cebpf4jnsgd1na2vs0mg"},{"bike_id":"0db40102-158a-42a7-9960-74ab1bdde2a2","system_id":"levelo_inurba_marseille","lat":43.30733,"lon":5.37286,"is_reserved":false,"is_disabled":false,"rental_uris":{"android":"levelo://app?vid=0db40102-158a-42a7-9960-74ab1bdde2a2","ios":"levelo://app?vid=0db40102-158a-42a7-9960-74ab1bdde2a2"},"vehicle_type_id":"4","last_reported":1749640176,"current_range_meters":19600,"station_id":"","pricing_plan_id":"cebpf4jnsgd1na2vs0mg"},{"bike_id":"5052172b-50e7-43e9-ab91-ceffc936f635","system_id":"levelo_inurba_marseille","lat":43.26683,"lon":5.38281,"is_reserved":false,"is_disabled":true,"rental_uris":{"android":"levelo://app?vid=5052172b-50e7-43e9-ab91-ceffc936f635","ios":"levelo://app?vid=5052172b-50e7-43e9-ab91-ceffc936f635"},"vehicle_type_id":"4","last_reported":1749640176,"current_range_meters":19600,"station_id":"ce4bhg92rcd13ifvqf90","pricing_plan_id":"cebpf4jnsgd1na2vs0mg"},{"bike_id":"95e8abf6-d5d2-48ce-9373-77b918d7d06e","system_id":"levelo_inurba_marseille","lat":43.27074,"lon":5.42279,"is_reserved":false,"is_disabled":false,"rental_uris":{"android":"levelo://app?vid=95e8abf6-d5d2-48ce-9373-77b918d7d06e","ios":"levelo://app?vid=95e8abf6-d5d2-48ce-9373-77b918d7d06e"},"vehicle_type_id":"4","last_reported":1749640176,"current_range_meters":19600,"station_id":"ce4bhk92rcd13ifvqgb0","pricing_plan_id":"cebpf4jnsgd1na2vs0mg"},{"bike_id":"7003b93c-725d-412e-9127-fbade718cbc3","system_id":"levelo_inurba_marseille","lat":43.21194,"lon":5.35068,"is_reserved":false,"is_disabled":false,"rental_uris":{"android":"levelo://app?vid=7003b93c-725d-412e-9127-fbade718cbc3","ios":"levelo://app?vid=7003b93c-725d-412e-9127-fbade718cbc3"},"vehicle_type_id":"4","last_reported":1749640176,"current_range_meters":19600,"station_id":"st_cvj6sg6p6f1abm77japg","pricing_plan_id":"cebpf4jnsgd1na2vs0mg"},{"bike_id":"38b07900-bd7f-410f-b9ea-d6eac0d22afb","system_id":"levelo_inurba_marseille","lat":43.298914,"lon":5.381466,"is_reserved":false,"is_disabled":false,"rental_uris":{"android":"levelo://app?vid=38b07900-bd7f-410f-b9ea-d6eac0d22afb","ios":"levelo://app?vid=38b07900-bd7f-410f-b9ea-d6eac0d22afb"},"vehicle_type_id":"4","last_reported":1749640176,"current_range_meters":19600,"station_id":"ce4bgj12rcd13ifvqbc0","pricing_plan_id":"cebpf4jnsgd1na2vs0mg"},{"bike_id":"2a7344b5-7126-4cc1-bbd1-a9bb0e44b7bd","system_id":"levelo_inurba_marseille","lat":43.23062,"lon":5.35472,"is_reserved":false,"is_disabled":false,"rental_uris":{"android":"levelo://app?vid=2a7344b5-7126-4cc1-bbd1-a9bb0e44b7bd","ios":"levelo://app?vid=2a7344b5-7126-4cc1-bbd1-a9bb0e44b7bd"},"vehicle_type_id":"4","last_reported":1749640176,"current_range_meters":19600,"station_id":"cpo3342slgdg3j2ifvpg","pricing_plan_id":"cebpf4jnsgd1na2vs0mg"},{"bike_id":"3f091ab2-d036-4a00-b99c-c40a7c14c235","system_id":"levelo_inurba_marseille","lat":43.32414,"lon":5.36541,"is_reserved":false,"is_disabled":false,"rental_uris":{"android":"levelo://app?vid=3f091ab2-d036-4a00-b99c-c40a7c14c235","ios":"levelo://app?vid=3f091ab2-d036-4a00-b99c-c40a7c14c235"},"vehicle_type_id":"4","last_reported":1749640176,"current_range_meters":19600,"station_id":"","pricing_plan_id":"cebpf4jnsgd1na2vs0mg"},{"bike_id":"5716c0ea-e662-4b11-8c02-10165dc0e18c","system_id":"levelo_inurba_marseille","lat":43.24175,"lon":5.39731,"is_reserved":false,"is_disabled":false,"rental_uris":{"android":"levelo://app?vid=5716c0ea-e662-4b11-8c02-10165dc0e18c","ios":"levelo://app?vid=5716c0ea-e662-4b11-8c02-10165dc0e18c"},"vehicle_type_id":"4","last_reported":1749640176,"current_range_meters":19600,"station_id":"ce4bhn12rcd13ifvqgpg","pricing_plan_id":"cebpf4jnsgd1na2vs0mg"},{"bike_id":"f9ba2e76-62e9-4c4d-8d9c-0342e60cf9b9","system_id":"levelo_inurba_marseille","lat":43.273693,"lon":5.362481,"is_reserved":false,"is_disabled":false,"rental_uris":{"android":"levelo://app?vid=f9ba2e76-62e9-4c4d-8d9c-0342e60cf9b9","ios":"levelo://app?vid=f9ba2e76-62e9-4c4d-8d9c-0342e60cf9b9"},"vehicle_type_id":"4","last_reported":1749640176,"current_range_meters":19600,"station_id":"ce4bhbh2rcd13ifvqeo0","pricing_plan_id":"cebpf4jnsgd1na2vs0mg"},{"bike_id":"aa7b5f10-b17c-416c-b21b-c84ea1213b8c","system_id":"levelo_inurba_marseille","lat":43.22504,"lon":5.34786,"is_reserved":false,"is_disabled":false,"rental_uris":{"android":"levelo://app?vid=aa7b5f10-b17c-416c-b21b-c84ea1213b8c","ios":"levelo://app?vid=aa7b5f10-b17c-416c-b21b-c84ea1213b8c"},"vehicle_type_id":"4","last_reported":1749640176,"current_range_meters":19600,"station_id":"","pricing_plan_id":"cebpf4jnsgd1na2vs0mg"},{"bike_id":"3db8fde5-dc25-47f9-adb5-1429f5338e31","system_id":"levelo_inurba_marseille","lat":43.31758,"lon":5.38471,"is_reserved":false,"is_disabled":false,"rental_uris":{"android":"levelo://app?vid=3db8fde5-dc25-47f9-adb5-1429f5338e31","ios":"levelo://app?vid=3db8fde5-dc25-47f9-adb5-1429f5338e31"},"vehicle_type_id":"4","last_reported":1749640176,"current_range_meters":19600,"station_id":"","pricing_plan_id":"cebpf4jnsgd1na2vs0mg"},{"bike_id":"dafc8aeb-ce17-4909-8fd8-49bd182ca255","system_id":"levelo_inurba_marseille","lat":43.2867,"lon":5.38656,"is_reserved":false,"is_disabled":false,"rental_uris":{"android":"levelo://app?vid=dafc8aeb-ce17-4909-8fd8-49bd182ca255","ios":"levelo://app?vid=dafc8aeb-ce17-4909-8fd8-49bd182ca255"},"vehicle_type_id":"4","last_reported":1749640176,"current_range_meters":19600,"station_id":"ce4bh492rcd13ifvqdug","pricing_plan_id":"cebpf4jnsgd1na2vs0mg"},{"bike_id":"3f721d0a-a8f4-479e-aaa6-6ed8f7b1d35e","system_id":"levelo_inurba_marseille","lat":43.26205,"lon":5.37932,"is_reserved":false,"is_disabled":false,"rental_uris":{"android":"levelo://app?vid=3f721d0a-a8f4-479e-aaa6-6ed8f7b1d35e","ios":"levelo://app?vid=3f721d0a-a8f4-479e-aaa6-6ed8f7b1d35e"},"vehicle_type_id":"4","last_reported":1749640176,"current_range_meters":20000,"station_id":"ce4bhjp2rcd13ifvqg90","pricing_plan_id":"cebpf4jnsgd1na2vs0mg"},{"bike_id":"c0fa86ca-1642-4005-8990-d5a62ed40d14","system_id":"levelo_inurba_marseille","lat":43.30934,"lon":5.40145,"is_reserved":false,"is_disabled":false,"rental_uris":{"android":"levelo://app?vid=c0fa86ca-1642-4005-8990-d5a62ed40d14","ios":"levelo://app?vid=c0fa86ca-1642-4005-8990-d5a62ed40d14"},"vehicle_type_id":"4","last_reported":1749640176,"current_range_meters":20000,"station_id":"ce4bgvp2rcd13ifvqct0","pricing_plan_id":"cebpf4jnsgd1na2vs0mg"},{"bike_id":"98855dfb-7f1a-4ad2-b5c8-6854d863a5f3","system_id":"levelo_inurba_marseille","lat":43.281507,"lon":5.426367,"is_reserved":false,"is_disabled":false,"rental_uris":{"android":"levelo://app?vid=98855dfb-7f1a-4ad2-b5c8-6854d863a5f3","ios":"levelo://app?vid=98855dfb-7f1a-4ad2-b5c8-6854d863a5f3"},"vehicle_type_id":"4","last_reported":1749640176,"current_range_meters":20000,"station_id":"ce4bhnh2rcd13ifvqgug","pricing_plan_id":"cebpf4jnsgd1na2vs0mg"},{"bike_id":"87fec7c1-a9b0-4a27-87c3-43e400d52367","system_id":"levelo_inurba_marseille","lat":43.30948,"lon":5.39033,"is_reserved":false,"is_disabled":false,"rental_uris":{"android":"levelo://app?vid=87fec7c1-a9b0-4a27-87c3-43e400d52367","ios":"levelo://app?vid=87fec7c1-a9b0-4a27-87c3-43e400d52367"},"vehicle_type_id":"4","last_reported":1749640176,"current_range_meters":20000,"station_id":"ce4bgup2rcd13ifvqco0","pricing_plan_id":"cebpf4jnsgd1na2vs0mg"},{"bike_id":"6704b62e-3335-4396-9bc6-066acbdd99dd","system_id":"levelo_inurba_marseille","lat":43.29716,"lon":5.37696,"is_reserved":false,"is_disabled":false,"rental_uris":{"android":"levelo://app?vid=6704b62e-3335-4396-9bc6-066acbdd99dd","ios":"levelo://app?vid=6704b62e-3335-4396-9bc6-066acbdd99dd"},"vehicle_type_id":"4","last_reported":1749640176,"current_range_meters":20000,"station_id":"ce4bgkh2rcd13ifvqbl0","pricing_plan_id":"cebpf4jnsgd1na2vs0mg"},{"bike_id":"6837c64c-5dc7-447a-af75-872adbf8e022","system_id":"levelo_inurba_marseille","lat":43.29261,"lon":5.38434,"is_reserved":false,"is_disabled":false,"rental_uris":{"android":"levelo://app?vid=6837c64c-5dc7-447a-af75-872adbf8e022","ios":"levelo://app?vid=6837c64c-5dc7-447a-af75-872adbf8e022"},"vehicle_type_id":"4","last_reported":1749640176,"current_range_meters":20000,"station_id":"ce4bh692rcd13ifvqea0","pricing_plan_id":"cebpf4jnsgd1na2vs0mg"},{"bike_id":"e0249f4b-8d8b-4dc7-a224-9ea697947c37","system_id":"levelo_inurba_marseille","lat":43.31725,"lon":5.42413,"is_reserved":false,"is_disabled":false,"rental_uris":{"android":"levelo://app?vid=e0249f4b-8d8b-4dc7-a224-9ea697947c37","ios":"levelo://app?vid=e0249f4b-8d8b-4dc7-a224-9ea697947c37"},"vehicle_type_id":"4","last_reported":1749640176,"current_range_meters":20000,"station_id":"ce4bhp92rcd13ifvqhbg","pricing_plan_id":"cebpf4jnsgd1na2vs0mg"},{"bike_id":"a5780e05-0cb9-498f-833b-d09a36dfc72e","system_id":"levelo_inurba_marseille","lat":43.28256,"lon":5.35076,"is_reserved":false,"is_disabled":false,"rental_uris":{"android":"levelo://app?vid=a5780e05-0cb9-498f-833b-d09a36dfc72e","ios":"levelo://app?vid=a5780e05-0cb9-498f-833b-d09a36dfc72e"},"vehicle_type_id":"4","last_reported":1749640176,"current_range_meters":20000,"station_id":"ce4bhbp2rcd13ifvqerg","pricing_plan_id":"cebpf4jnsgd1na2vs0mg"},{"bike_id":"11926c67-c581-4a5d-8203-15313e951bcf","system_id":"levelo_inurba_marseille","lat":43.2176,"lon":5.34596,"is_reserved":false,"is_disabled":false,"rental_uris":{"android":"levelo://app?vid=11926c67-c581-4a5d-8203-15313e951bcf","ios":"levelo://app?vid=11926c67-c581-4a5d-8203-15313e951bcf"},"vehicle_type_id":"4","last_reported":1749640176,"current_range_meters":20000,"station_id":"","pricing_plan_id":"cebpf4jnsgd1na2vs0mg"},{"bike_id":"a4f2c754-0822-46ab-8630-21af4e95e119","system_id":"levelo_inurba_marseille","lat":43.28615,"lon":5.35106,"is_reserved":false,"is_disabled":false,"rental_uris":{"android":"levelo://app?vid=a4f2c754-0822-46ab-8630-21af4e95e119","ios":"levelo://app?vid=a4f2c754-0822-46ab-8630-21af4e95e119"},"vehicle_type_id":"4","last_reported":1749640176,"current_range_meters":20000,"station_id":"ce4bhch2rcd13ifvqeug","pricing_plan_id":"cebpf4jnsgd1na2vs0mg"},{"bike_id":"f62ed1fe-2483-4001-9465-c5ffb5c4908b","system_id":"levelo_inurba_marseille","lat":43.29007,"lon":5.356161,"is_reserved":false,"is_disabled":false,"rental_uris":{"android":"levelo://app?vid=f62ed1fe-2483-4001-9465-c5ffb5c4908b","ios":"levelo://app?vid=f62ed1fe-2483-4001-9465-c5ffb5c4908b"},"vehicle_type_id":"4","last_reported":1749640176,"current_range_meters":20000,"station_id":"ce4bhb92rcd13ifvqen0","pricing_plan_id":"cebpf4jnsgd1na2vs0mg"},{"bike_id":"55bc0395-de10-44b5-b483-90b3850fb6a2","system_id":"levelo_inurba_marseille","lat":43.31341,"lon":5.36714,"is_reserved":false,"is_disabled":false,"rental_uris":{"android":"levelo://app?vid=55bc0395-de10-44b5-b483-90b3850fb6a2","ios":"levelo://app?vid=55bc0395-de10-44b5-b483-90b3850fb6a2"},"vehicle_type_id":"4","last_reported":1749640176,"current_range_meters":20400,"station_id":"ce4bgr92rcd13ifvqc6g","pricing_plan_id":"cebpf4jnsgd1na2vs0mg"},{"bike_id":"80c4481f-3a94-40c5-bcb5-c1363c06279d","system_id":"levelo_inurba_marseille","lat":43.25959,"lon":5.40896,"is_reserved":false,"is_disabled":true,"rental_uris":{"android":"levelo://app?vid=80c4481f-3a94-40c5-bcb5-c1363c06279d","ios":"levelo://app?vid=80c4481f-3a94-40c5-bcb5-c1363c06279d"},"vehicle_type_id":"4","last_reported":1749640176,"current_range_meters":20400,"station_id":"ce4bhm92rcd13ifvqglg","pricing_plan_id":"cebpf4jnsgd1na2vs0mg"},{"bike_id":"e042e80e-2b90-4dc1-b8bb-43522c1461d1","system_id":"levelo_inurba_marseille","lat":43.28699,"lon":5.39991,"is_reserved":false,"is_disabled":false,"rental_uris":{"android":"levelo://app?vid=e042e80e-2b90-4dc1-b8bb-43522c1461d1","ios":"levelo://app?vid=e042e80e-2b90-4dc1-b8bb-43522c1461d1"},"vehicle_type_id":"4","last_reported":1749640176,"current_range_meters":20400,"station_id":"ce4bho92rcd13ifvqh3g","pricing_plan_id":"cebpf4jnsgd1na2vs0mg"},{"bike_id":"09194826-376d-4daf-8fea-79c8176a062e","system_id":"levelo_inurba_marseille","lat":43.28854,"lon":5.35853,"is_reserved":false,"is_disabled":false,"rental_uris":{"android":"levelo://app?vid=09194826-376d-4daf-8fea-79c8176a062e","ios":"levelo://app?vid=09194826-376d-4daf-8fea-79c8176a062e"},"vehicle_type_id":"4","last_reported":1749640176,"current_range_meters":20400,"station_id":"ce4bhb12rcd13ifvqem0","pricing_plan_id":"cebpf4jnsgd1na2vs0mg"},{"bike_id":"eaa653d4-bd1c-4bc5-890c-dbc84dccb428","system_id":"levelo_inurba_marseille","lat":43.315707,"lon":5.389368,"is_reserved":false,"is_disabled":false,"rental_uris":{"android":"levelo://app?vid=eaa653d4-bd1c-4bc5-890c-dbc84dccb428","ios":"levelo://app?vid=eaa653d4-bd1c-4bc5-890c-dbc84dccb428"},"vehicle_type_id":"4","last_reported":1749640176,"current_range_meters":20400,"station_id":"ce4bhr12rcd13ifvqhqg","pricing_plan_id":"cebpf4jnsgd1na2vs0mg"},{"bike_id":"3cb0af7c-994a-4b71-98dc-211ebea626ad","system_id":"levelo_inurba_marseille","lat":43.32341,"lon":5.36714,"is_reserved":false,"is_disabled":false,"rental_uris":{"android":"levelo://app?vid=3cb0af7c-994a-4b71-98dc-211ebea626ad","ios":"levelo://app?vid=3cb0af7c-994a-4b71-98dc-211ebea626ad"},"vehicle_type_id":"4","last_reported":1749640176,"current_range_meters":20400,"station_id":"ce4bhsh2rcd13ifvqi2g","pricing_plan_id":"cebpf4jnsgd1na2vs0mg"},{"bike_id":"a8806540-0812-4d40-ba8b-a27c31242c41","system_id":"levelo_inurba_marseille","lat":43.290597,"lon":5.381145,"is_reserved":false,"is_disabled":false,"rental_uris":{"android":"levelo://app?vid=a8806540-0812-4d40-ba8b-a27c31242c41","ios":"levelo://app?vid=a8806540-0812-4d40-ba8b-a27c31242c41"},"vehicle_type_id":"4","last_reported":1749640176,"current_range_meters":20400,"station_id":"ce4bh4p2rcd13ifvqe1g","pricing_plan_id":"cebpf4jnsgd1na2vs0mg"},{"bike_id":"b7bcd2ae-bc7d-48af-ad49-5c7777f1738c","system_id":"levelo_inurba_marseille","lat":43.284801,"lon":5.385628,"is_reserved":false,"is_disabled":false,"rental_uris":{"android":"levelo://app?vid=b7bcd2ae-bc7d-48af-ad49-5c7777f1738c","ios":"levelo://app?vid=b7bcd2ae-bc7d-48af-ad49-5c7777f1738c"},"vehicle_type_id":"4","last_reported":1749640176,"current_range_meters":20400,"station_id":"ce4bh8p2rcd13ifvqeb0","pricing_plan_id":"cebpf4jnsgd1na2vs0mg"},{"bike_id":"b184421a-40c6-4680-9475-38367f02cdce","system_id":"levelo_inurba_marseille","lat":43.26553,"lon":5.37286,"is_reserved":false,"is_disabled":false,"rental_uris":{"android":"levelo://app?vid=b184421a-40c6-4680-9475-38367f02cdce","ios":"levelo://app?vid=b184421a-40c6-4680-9475-38367f02cdce"},"vehicle_type_id":"4","last_reported":1749640176,"current_range_meters":20400,"station_id":"ce4bhg12rcd13ifvqf70","pricing_plan_id":"cebpf4jnsgd1na2vs0mg"},{"bike_id":"6e464720-93b0-4699-80fe-881649eb71cd","system_id":"levelo_inurba_marseille","lat":43.23255,"lon":5.35577,"is_reserved":false,"is_disabled":false,"rental_uris":{"android":"levelo://app?vid=6e464720-93b0-4699-80fe-881649eb71cd","ios":"levelo://app?vid=6e464720-93b0-4699-80fe-881649eb71cd"},"vehicle_type_id":"4","last_reported":1749640176,"current_range_meters":20400,"station_id":"","pricing_plan_id":"cebpf4jnsgd1na2vs0mg"},{"bike_id":"5240f6fd-7c4d-480e-89e7-ad5430e3da82","system_id":"levelo_inurba_marseille","lat":43.2841,"lon":5.34986,"is_reserved":false,"is_disabled":false,"rental_uris":{"android":"levelo://app?vid=5240f6fd-7c4d-480e-89e7-ad5430e3da82","ios":"levelo://app?vid=5240f6fd-7c4d-480e-89e7-ad5430e3da82"},"vehicle_type_id":"4","last_reported":1749640176,"current_range_meters":20800,"station_id":"ce4bhbh2rcd13ifvqepg","pricing_plan_id":"cebpf4jnsgd1na2vs0mg"},{"bike_id":"2f99db09-d814-46ca-8d37-72806b69e461","system_id":"levelo_inurba_marseille","lat":43.29791,"lon":5.38124,"is_reserved":false,"is_disabled":false,"rental_uris":{"android":"levelo://app?vid=2f99db09-d814-46ca-8d37-72806b69e461","ios":"levelo://app?vid=2f99db09-d814-46ca-8d37-72806b69e461"},"vehicle_type_id":"4","last_reported":1749640176,"current_range_meters":20800,"station_id":"ce4bgip2rcd13ifvqbb0","pricing_plan_id":"cebpf4jnsgd1na2vs0mg"},{"bike_id":"d14381ea-ca78-40a2-9679-fea47eb566cf","system_id":"levelo_inurba_marseille","lat":43.30584,"lon":5.39358,"is_reserved":false,"is_disabled":false,"rental_uris":{"android":"levelo://app?vid=d14381ea-ca78-40a2-9679-fea47eb566cf","ios":"levelo://app?vid=d14381ea-ca78-40a2-9679-fea47eb566cf"},"vehicle_type_id":"4","last_reported":1749640176,"current_range_meters":20800,"station_id":"ce4bh0p2rcd13ifvqd80","pricing_plan_id":"cebpf4jnsgd1na2vs0mg"},{"bike_id":"d1684cb9-47dd-43c3-9e23-61f69d989e14","system_id":"levelo_inurba_marseille","lat":43.28476,"lon":5.38541,"is_reserved":false,"is_disabled":false,"rental_uris":{"android":"levelo://app?vid=d1684cb9-47dd-43c3-9e23-61f69d989e14","ios":"levelo://app?vid=d1684cb9-47dd-43c3-9e23-61f69d989e14"},"vehicle_type_id":"4","last_reported":1749640176,"current_range_meters":20800,"station_id":"ce4bh8p2rcd13ifvqeb0","pricing_plan_id":"cebpf4jnsgd1na2vs0mg"},{"bike_id":"bfbc9dc7-b209-4d45-9d07-9d9524980124","system_id":"levelo_inurba_marseille","lat":43.21193,"lon":5.35069,"is_reserved":false,"is_disabled":false,"rental_uris":{"android":"levelo://app?vid=bfbc9dc7-b209-4d45-9d07-9d9524980124","ios":"levelo://app?vid=bfbc9dc7-b209-4d45-9d07-9d9524980124"},"vehicle_type_id":"4","last_reported":1749640176,"current_range_meters":20800,"station_id":"st_cvj6sg6p6f1abm77japg","pricing_plan_id":"cebpf4jnsgd1na2vs0mg"},{"bike_id":"7fbf7060-9fe6-459f-a89b-67942ed5711e","system_id":"levelo_inurba_marseille","lat":43.29516,"lon":5.37436,"is_reserved":false,"is_disabled":false,"rental_uris":{"android":"levelo://app?vid=7fbf7060-9fe6-459f-a89b-67942ed5711e","ios":"levelo://app?vid=7fbf7060-9fe6-459f-a89b-67942ed5711e"},"vehicle_type_id":"4","last_reported":1749640176,"current_range_meters":20800,"station_id":"ce4bgnh2rcd13ifvqc0g","pricing_plan_id":"cebpf4jnsgd1na2vs0mg"},{"bike_id":"2276c90b-1abb-4801-97fa-4b4a67305a9b","system_id":"levelo_inurba_marseille","lat":43.28266,"lon":5.35065,"is_reserved":false,"is_disabled":false,"rental_uris":{"android":"levelo://app?vid=2276c90b-1abb-4801-97fa-4b4a67305a9b","ios":"levelo://app?vid=2276c90b-1abb-4801-97fa-4b4a67305a9b"},"vehicle_type_id":"4","last_reported":1749640176,"current_range_meters":20800,"station_id":"ce4bhbp2rcd13ifvqerg","pricing_plan_id":"cebpf4jnsgd1na2vs0mg"},{"bike_id":"c8543a84-f32c-47fe-ba57-150278e49a21","system_id":"levelo_inurba_marseille","lat":43.28452,"lon":5.35883,"is_reserved":false,"is_disabled":false,"rental_uris":{"android":"levelo://app?vid=c8543a84-f32c-47fe-ba57-150278e49a21","ios":"levelo://app?vid=c8543a84-f32c-47fe-ba57-150278e49a21"},"vehicle_type_id":"4","last_reported":1749640176,"current_range_meters":21600,"station_id":"ce4bhah2rcd13ifvqei0","pricing_plan_id":"cebpf4jnsgd1na2vs0mg"},{"bike_id":"da88bfe3-52ff-4a7b-89db-6d0bfc3837d8","system_id":"levelo_inurba_marseille","lat":43.263829,"lon":5.389478,"is_reserved":false,"is_disabled":false,"rental_uris":{"android":"levelo://app?vid=da88bfe3-52ff-4a7b-89db-6d0bfc3837d8","ios":"levelo://app?vid=da88bfe3-52ff-4a7b-89db-6d0bfc3837d8"},"vehicle_type_id":"4","last_reported":1749640176,"current_range_meters":21600,"station_id":"ce4bhih2rcd13ifvqfs0","pricing_plan_id":"cebpf4jnsgd1na2vs0mg"},{"bike_id":"377f91de-42ad-424f-b550-df9318d4482f","system_id":"levelo_inurba_marseille","lat":43.284783,"lon":5.385682,"is_reserved":false,"is_disabled":false,"rental_uris":{"android":"levelo://app?vid=377f91de-42ad-424f-b550-df9318d4482f","ios":"levelo://app?vid=377f91de-42ad-424f-b550-df9318d4482f"},"vehicle_type_id":"4","last_reported":1749640176,"current_range_meters":21600,"station_id":"ce4bh8p2rcd13ifvqeb0","pricing_plan_id":"cebpf4jnsgd1na2vs0mg"},{"bike_id":"346f3f80-6b15-4406-b905-bb78596f5bac","system_id":"levelo_inurba_marseille","lat":43.32353,"lon":5.36762,"is_reserved":false,"is_disabled":false,"rental_uris":{"android":"levelo://app?vid=346f3f80-6b15-4406-b905-bb78596f5bac","ios":"levelo://app?vid=346f3f80-6b15-4406-b905-bb78596f5bac"},"vehicle_type_id":"4","last_reported":1749640176,"current_range_meters":21600,"station_id":"ce4bhsh2rcd13ifvqi2g","pricing_plan_id":"cebpf4jnsgd1na2vs0mg"},