{"last_updated":1740271895,"ttl":60,"version":"2.2","data":{"bikes":[{"bike_id":"ca4df272-5395-4c1a-ab10-52dae73f2f99","system_id":"levelo_inurba_marseille","lat":43.27072,"lon":5.40295,"is_reserved":false,"is_disabled":true,"rental_uris":{"android":"levelo://app?vid=ca4df272-5395-4c1a-ab10-52dae73f2f99","ios":"levelo://app?vid=ca4df272-5395-4c1a-ab10-52dae73f2f99"},"vehicle_type_id":"4","last_reported":1740271895,"current_range_meters":2800,"station_id":"","pricing_plan_id":"cebpf4jnsgd1na2vs0mg"},{"bike_id":"e06a5e51-884b-4021-a6aa-38076e5c4adf","system_id":"levelo_inurba_marseille","lat":43.29258,"lon":5.37623,"is_reserved":false,"is_disabled":true,"rental_uris":{"android":"levelo://app?vid=e06a5e51-884b-4021-a6aa-38076e5c4adf","ios":"levelo://app?vid=e06a5e51-884b-4021-a6aa-38076e5c4adf"},"vehicle_type_id":"4","last_reported":1740271895,"current_range_meters":2800,"station_id":"ce4bgi12rcd13ifvqb80","pricing_plan_id":"cebpf4jnsgd1na2vs0mg"},{"bike_id":"f2e5b7dc-4ecb-4a89-afcd-161b852d64a0","system_id":"levelo_inurba_marseille","lat":43.29559,"lon":5.39961,"is_reserved":false,"is_disabled":true,"rental_uris":{"android":"levelo://app?vid=f2e5b7dc-4ecb-4a89-afcd-161b852d64a0","ios":"levelo://app?vid=f2e5b7dc-4ecb-4a89-afcd-161b852d64a0"},"vehicle_type_id":"4","last_reported":1740271895,"current_range_meters":3200,"station_id":"ce4bh312rcd13ifvqdj0","pricing_plan_id":"cebpf4jnsgd1na2vs0mg"},{"bike_id":"7513a470-27ae-4803-984c-3d01857f3acd","system_id":"levelo_inurba_marseille","lat":43.30811,"lon":5.37304,"is_reserved":false,"is_disabled":false,"rental_uris":{"android":"levelo://app?vid=7513a470-27ae-4803-984c-3d01857f3acd","ios":"levelo://app?vid=7513a470-27ae-4803-984c-3d01857f3acd"},"vehicle_type_id":"4","last_reported":1740271895,"current_range_meters":3200,"station_id":"","pricing_plan_id":"cebpf4jnsgd1na2vs0mg"},{"bike_id":"c88db752-a503-4091-9b54-3394b97545f9","system_id":"levelo_inurba_marseille","lat":43.25517,"lon":5.37659,"is_reserved":false,"is_disabled":false,"rental_uris":{"android":"levelo://app?vid=c88db752-a503-4091-9b54-3394b97545f9","ios":"levelo://app?vid=c88db752-a503-4091-9b54-3394b97545f9"},"vehicle_type_id":"4","last_reported":1740271895,"current_range_meters":3600,"station_id":"ce4bhh12rcd13ifvqff0","pricing_plan_id":"cebpf4jnsgd1na2vs0mg"},{"bike_id":"cb533fa1-27a0-45e8-865a-273bc58d3884","system_id":"levelo_inurba_marseille","lat":43.26555,"lon":5.39009,"is_reserved":false,"is_disabled":true,"rental_uris":{"android":"levelo://app?vid=cb533fa1-27a0-45e8-865a-273bc58d3884","ios":"levelo://app?vid=cb533fa1-27a0-45e8-865a-273bc58d3884"},"vehicle_type_id":"4","last_reported":1740271895,"current_range_meters":4000,"station_id":"ce4bhe12rcd13ifvqf30","pricing_plan_id":"cebpf4jnsgd1na2vs0mg"},{"bike_id":"9efbd46b-03ae-4719-ad26-099118679150","system_id":"levelo_inurba_marseille","lat":43.29272,"lon":5.40124,"is_reserved":false,"is_disabled":false,"rental_uris":{"android":"levelo://app?vid=9efbd46b-03ae-4719-ad26-099118679150","ios":"levelo://app?vid=9efbd46b-03ae-4719-ad26-099118679150"},"vehicle_type_id":"4","last_reported":1740271895,"current_range_meters":4400,"station_id":"ce4bh312rcd13ifvqdk0","pricing_plan_id":"cebpf4jnsgd1na2vs0mg"},{"bike_id":"f7985a54-4568-4112-817a-be3dbfd217a9","system_id":"levelo_inurba_marseille","lat":43.26546,"lon":5.37298,"is_reserved":false,"is_disabled":false,"rental_uris":{"android":"levelo://app?vid=f7985a54-4568-4112-817a-be3dbfd217a9","ios":"levelo://app?vid=f7985a54-4568-4112-817a-be3dbfd217a9"},"vehicle_type_id":"4","last_reported":1740271895,"current_range_meters":4400,"station_id":"ce4bhg12rcd13ifvqf70","pricing_plan_id":"cebpf4jnsgd1na2vs0mg"},{"bike_id":"e830549e-a3d2-4e74-b9cf-804b79951dc9","system_id":"levelo_inurba_marseille","lat":43.24178,"lon":5.39734,"is_reserved":false,"is_disabled":false,"rental_uris":{"android":"levelo://app?vid=e830549e-a3d2-4e74-b9cf-804b79951dc9","ios":"levelo://app?vid=e830549e-a3d2-4e74-b9cf-804b79951dc9"},"vehicle_type_id":"4","last_reported":1740271895,"current_range_meters":4400,"station_id":"ce4bhn12rcd13ifvqgpg","pricing_plan_id":"cebpf4jnsgd1na2vs0mg"},{"bike_id":"d433b073-e6a8-4509-92da-7bba4b65d94d","system_id":"levelo_inurba_marseille","lat":43.3124,"lon":5.36871,"is_reserved":false,"is_disabled":false,"rental_uris":{"android":"levelo://app?vid=d433b073-e6a8-4509-92da-7bba4b65d94d","ios":"levelo://app?vid=d433b073-e6a8-4509-92da-7bba4b65d94d"},"vehicle_type_id":"4","last_reported":1740271895,"current_range_meters":4400,"station_id":"ce4bgl92rcd13ifvqbq0","pricing_plan_id":"cebpf4jnsgd1na2vs0mg"},{"bike_id":"43594bf6-f3dc-4b5b-9661-ddab55ea24a4","system_id":"levelo_inurba_marseille","lat":43.30881,"lon":5.39645,"is_reserved":false,"is_disabled":false,"rental_uris":{"android":"levelo://app?vid=43594bf6-f3dc-4b5b-9661-ddab55ea24a4","ios":"levelo://app?vid=43594bf6-f3dc-4b5b-9661-ddab55ea24a4"},"vehicle_type_id":"4","last_reported":1740271895,"current_range_meters":4400,"station_id":"ce4bh012rcd13ifvqcv0","pricing_plan_id":"cebpf4jnsgd1na2vs0mg"},{"bike_id":"f18d1838-680b-457b-a152-6f1832c81492","system_id":"levelo_inurba_marseille","lat":43.23971,"lon":5.36619,"is_reserved":false,"is_disabled":false,"rental_uris":{"android":"levelo://app?vid=f18d1838-680b-457b-a152-6f1832c81492","ios":"levelo://app?vid=f18d1838-680b-457b-a152-6f1832c81492"},"vehicle_type_id":"4","last_reported":1740271895,"current_range_meters":4800,"station_id":"ce4bhi12rcd13ifvqfp0","pricing_plan_id":"cebpf4jnsgd1na2vs0mg"},{"bike_id":"54392dcf-9098-4ade-a5f9-07d42853ec29","system_id":"levelo_inurba_marseille","lat":43.23963,"lon":5.36636,"is_reserved":false,"is_disabled":false,"rental_uris":{"android":"levelo://app?vid=54392dcf-9098-4ade-a5f9-07d42853ec29","ios":"levelo://app?vid=54392dcf-9098-4ade-a5f9-07d42853ec29"},"vehicle_type_id":"4","last_reported":1740271895,"current_range_meters":4800,"station_id":"ce4bhi12rcd13ifvqfp0","pricing_plan_id":"cebpf4jnsgd1na2vs0mg"},{"bike_id":"0ba51a4d-af75-4536-8ba3-23ca4c811291","system_id":"levelo_inurba_marseille","lat":43.29414,"lon":5.38617,"is_reserved":false,"is_disabled":false,"rental_uris":{"android":"levelo://app?vid=0ba51a4d-af75-4536-8ba3-23ca4c811291","ios":"levelo://app?vid=0ba51a4d-af75-4536-8ba3-23ca4c811291"},"vehicle_type_id":"4","last_reported":1740271895,"current_range_meters":5600,"station_id":"ce4bghh2rcd13ifvqb60","pricing_plan_id":"cebpf4jnsgd1na2vs0mg"},{"bike_id":"6016dcf8-bb49-4674-a9c8-924f4815c3cf","system_id":"levelo_inurba_marseille","lat":43.304622,"lon":5.379049,"is_reserved":false,"is_disabled":false,"rental_uris":{"android":"levelo://app?vid=6016dcf8-bb49-4674-a9c8-924f4815c3cf","ios":"levelo://app?vid=6016dcf8-bb49-4674-a9c8-924f4815c3cf"},"vehicle_type_id":"4","last_reported":1740271895,"current_range_meters":5600,"station_id":"ce4bgup2rcd13ifvqcn0","pricing_plan_id":"cebpf4jnsgd1na2vs0mg"},{"bike_id":"a796ac80-1911-4214-a458-24bc9f421151","system_id":"levelo_inurba_marseille","lat":43.313308,"lon":5.373391,"is_reserved":false,"is_disabled":false,"rental_uris":{"android":"levelo://app?vid=a796ac80-1911-4214-a458-24bc9f421151","ios":"levelo://app?vid=a796ac80-1911-4214-a458-24bc9f421151"},"vehicle_type_id":"4","last_reported":1740271895,"current_range_meters":6000,"station_id":"","pricing_plan_id":"cebpf4jnsgd1na2vs0mg"},{"bike_id":"e260edc9-94c2-49ca-89b2-378a3b2e09df","system_id":"levelo_inurba_marseille","lat":43.26552,"lon":5.37304,"is_reserved":false,"is_disabled":false,"rental_uris":{"android":"levelo://app?vid=e260edc9-94c2-49ca-89b2-378a3b2e09df","ios":"levelo://app?vid=e260edc9-94c2-49ca-89b2-378a3b2e09df"},"vehicle_type_id":"4","last_reported":1740271895,"current_range_meters":6400,"station_id":"ce4bhg12rcd13ifvqf70","pricing_plan_id":"cebpf4jnsgd1na2vs0mg"},{"bike_id":"c3c30985-02be-4a13-90af-d702f6922290","system_id":"levelo_inurba_marseille","lat":43.23958,"lon":5.36639,"is_reserved":false,"is_disabled":false,"rental_uris":{"android":"levelo://app?vid=c3c30985-02be-4a13-90af-d702f6922290","ios":"levelo://app?vid=c3c30985-02be-4a13-90af-d702f6922290"},"vehicle_type_id":"4","last_reported":1740271895,"current_range_meters":6400,"station_id":"ce4bhi12rcd13ifvqfp0","pricing_plan_id":"cebpf4jnsgd1na2vs0mg"},{"bike_id":"15c210db-35bf-42a6-b2c9-131b81bf4ea7","system_id":"levelo_inurba_marseille","lat":43.30433,"lon":5.38886,"is_reserved":false,"is_disabled":false,"rental_uris":{"android":"levelo://app?vid=15c210db-35bf-42a6-b2c9-131b81bf4ea7","ios":"levelo://app?vid=15c210db-35bf-42a6-b2c9-131b81bf4ea7"},"vehicle_type_id":"4","last_reported":1740271895,"current_range_meters":6400,"station_id":"ce4bgk12rcd13ifvqbi0","pricing_plan_id":"cebpf4jnsgd1na2vs0mg"},{"bike_id":"551296f6-9c25-41a0-8804-ba4f656ebdc2","system_id":"levelo_inurba_marseille","lat":43.23191,"lon":5.39981,"is_reserved":false,"is_disabled":false,"rental_uris":{"android":"levelo://app?vid=551296f6-9c25-41a0-8804-ba4f656ebdc2","ios":"levelo://app?vid=551296f6-9c25-41a0-8804-ba4f656ebdc2"},"vehicle_type_id":"4","last_reported":1740271895,"current_range_meters":6400,"station_id":"ce4bhn12rcd13ifvqgqg","pricing_plan_id":"cebpf4jnsgd1na2vs0mg"},{"bike_id":"241008e9-c8f3-48c9-ba68-53214d34be88","system_id":"levelo_inurba_marseille","lat":43.23188,"lon":5.39986,"is_reserved":false,"is_disabled":false,"rental_uris":{"android":"levelo://app?vid=241008e9-c8f3-48c9-ba68-53214d34be88","ios":"levelo://app?vid=241008e9-c8f3-48c9-ba68-53214d34be88"},"vehicle_type_id":"4","last_reported":1740271895,"current_range_meters":6400,"station_id":"ce4bhn12rcd13ifvqgqg","pricing_plan_id":"cebpf4jnsgd1na2vs0mg"},{"bike_id":"a7787bdf-f967-4ec4-a4a5-aaabd53b1877","system_id":"levelo_inurba_marseille","lat":43.26193,"lon":5.4208,"is_reserved":false,"is_disabled":false,"rental_uris":{"android":"levelo://app?vid=a7787bdf-f967-4ec4-a4a5-aaabd53b1877","ios":"levelo://app?vid=a7787bdf-f967-4ec4-a4a5-aaabd53b1877"},"vehicle_type_id":"4","last_reported":1740271895,"current_range_meters":6400,"station_id":"","pricing_plan_id":"cebpf4jnsgd1na2vs0mg"},{"bike_id":"3c67cc1a-74e7-4eac-a66c-b18cf35850c0","system_id":"levelo_inurba_marseille","lat":43.25865,"lon":5.39896,"is_reserved":false,"is_disabled":false,"rental_uris":{"android":"levelo://app?vid=3c67cc1a-74e7-4eac-a66c-b18cf35850c0","ios":"levelo://app?vid=3c67cc1a-74e7-4eac-a66c-b18cf35850c0"},"vehicle_type_id":"4","last_reported":1740271895,"current_range_meters":6400,"station_id":"ce4bhl92rcd13ifvqghg","pricing_plan_id":"cebpf4jnsgd1na2vs0mg"},{"bike_id":"aa1d7723-b0b3-4df2-ae47-21d0329d4073","system_id":"levelo_inurba_marseille","lat":43.24074,"lon":5.37773,"is_reserved":false,"is_disabled":false,"rental_uris":{"android":"levelo://app?vid=aa1d7723-b0b3-4df2-ae47-21d0329d4073","ios":"levelo://app?vid=aa1d7723-b0b3-4df2-ae47-21d0329d4073"},"vehicle_type_id":"4","last_reported":1740271895,"current_range_meters":6800,"station_id":"ce4bhnp2rcd13ifvqgvg","pricing_plan_id":"cebpf4jnsgd1na2vs0mg"},{"bike_id":"91cd9c50-a708-4ca7-8c38-9684716b8855","system_id":"levelo_inurba_marseille","lat":43.33789,"lon":5.37438,"is_reserved":false,"is_disabled":false,"rental_uris":{"android":"levelo://app?vid=91cd9c50-a708-4ca7-8c38-9684716b8855","ios":"levelo://app?vid=91cd9c50-a708-4ca7-8c38-9684716b8855"},"vehicle_type_id":"4","last_reported":1740271895,"current_range_meters":6800,"station_id":"","pricing_plan_id":"cebpf4jnsgd1na2vs0mg"},{"bike_id":"35ec6f05-b64c-4e4d-8ca3-6066c738a1dd","system_id":"levelo_inurba_marseille","lat":43.26227,"lon":5.40472,"is_reserved":false,"is_disabled":false,"rental_uris":{"android":"levelo://app?vid=35ec6f05-b64c-4e4d-8ca3-6066c738a1dd","ios":"levelo://app?vid=35ec6f05-b64c-4e4d-8ca3-6066c738a1dd"},"vehicle_type_id":"4","last_reported":1740271895,"current_range_meters":6800,"station_id":"ce4bhmh2rcd13ifvqgmg","pricing_plan_id":"cebpf4jnsgd1na2vs0mg"},{"bike_id":"91817d94-291a-47c9-91fa-831208abfdc7","system_id":"levelo_inurba_marseille","lat":43.230657,"lon":5.354862,"is_reserved":false,"is_disabled":false,"rental_uris":{"android":"levelo://app?vid=91817d94-291a-47c9-91fa-831208abfdc7","ios":"levelo://app?vid=91817d94-291a-47c9-91fa-831208abfdc7"},"vehicle_type_id":"4","last_reported":1740271895,"current_range_meters":6800,"station_id":"cpo3342slgdg3j2ifvpg","pricing_plan_id":"cebpf4jnsgd1na2vs0mg"},{"bike_id":"fa83beb1-2405-4db0-9826-c091cb751783","system_id":"levelo_inurba_marseille","lat":43.25123,"lon":5.40332,"is_reserved":false,"is_disabled":true,"rental_uris":{"android":"levelo://app?vid=fa83beb1-2405-4db0-9826-c091cb751783","ios":"levelo://app?vid=fa83beb1-2405-4db0-9826-c091cb751783"},"vehicle_type_id":"4","last_reported":1740271895,"current_range_meters":6800,"station_id":"ce4bhlh2rcd13ifvqgig","pricing_plan_id":"cebpf4jnsgd1na2vs0mg"},{"bike_id":"df3e86cb-ab3f-42d7-abef-aec5ae629ddf","system_id":"levelo_inurba_marseille","lat":43.25569,"lon":5.38224,"is_reserved":false,"is_disabled":false,"rental_uris":{"android":"levelo://app?vid=df3e86cb-ab3f-42d7-abef-aec5ae629ddf","ios":"levelo://app?vid=df3e86cb-ab3f-42d7-abef-aec5ae629ddf"},"vehicle_type_id":"4","last_reported":1740271895,"current_range_meters":6800,"station_id":"ce4bhih2rcd13ifvqfs0","pricing_plan_id":"cebpf4jnsgd1na2vs0mg"},{"bike_id":"a760c25b-8a2d-434b-8cd7-4ec1f7db14f8","system_id":"levelo_inurba_marseille","lat":43.28612,"lon":5.37051,"is_reserved":false,"is_disabled":false,"rental_uris":{"android":"levelo://app?vid=a760c25b-8a2d-434b-8cd7-4ec1f7db14f8","ios":"levelo://app?vid=a760c25b-8a2d-434b-8cd7-4ec1f7db14f8"},"vehicle_type_id":"4","last_reported":1740271895,"current_range_meters":6800,"station_id":"ce4bht12rcd13ifvqi60","pricing_plan_id":"cebpf4jnsgd1na2vs0mg"},{"bike_id":"f080cb1f-4034-4a4a-a885-e96d071e2498","system_id":"levelo_inurba_marseille","lat":43.26558,"lon":5.37306,"is_reserved":false,"is_disabled":false,"rental_uris":{"android":"levelo://app?vid=f080cb1f-4034-4a4a-a885-e96d071e2498","ios":"levelo://app?vid=f080cb1f-4034-4a4a-a885-e96d071e2498"},"vehicle_type_id":"4","last_reported":1740271895,"current_range_meters":6800,"station_id":"ce4bhg12rcd13ifvqf70","pricing_plan_id":"cebpf4jnsgd1na2vs0mg"},{"bike_id":"b451e9e8-6b74-469a-bf29-40374926f13d","system_id":"levelo_inurba_marseille","lat":43.28701,"lon":5.37404,"is_reserved":false,"is_disabled":false,"rental_uris":{"android":"levelo://app?vid=b451e9e8-6b74-469a-bf29-40374926f13d","ios":"levelo://app?vid=b451e9e8-6b74-469a-bf29-40374926f13d"},"vehicle_type_id":"4","last_reported":1740271895,"current_range_meters":7200,"station_id":"ce4bh3p2rcd13ifvqdq0","pricing_plan_id":"cebpf4jnsgd1na2vs0mg"},{"bike_id":"700f5425-d83c-4f39-b716-2e9ae3592d01","system_id":"levelo_inurba_marseille","lat":43.29554,"lon":5.42294,"is_reserved":false,"is_disabled":false,"rental_uris":{"android":"levelo://app?vid=700f5425-d83c-4f39-b716-2e9ae3592d01","ios":"levelo://app?vid=700f5425-d83c-4f39-b716-2e9ae3592d01"},"vehicle_type_id":"4","last_reported":1740271895,"current_range_meters":7200,"station_id":"ce4bhph2rcd13ifvqhdg","pricing_plan_id":"cebpf4jnsgd1na2vs0mg"},{"bike_id":"f126b5c1-ac6b-428c-b324-5fd5bdcc9c61","system_id":"levelo_inurba_marseille","lat":43.28695,"lon":5.39989,"is_reserved":false,"is_disabled":false,"rental_uris":{"android":"levelo://app?vid=f126b5c1-ac6b-428c-b324-5fd5bdcc9c61","ios":"levelo://app?vid=f126b5c1-ac6b-428c-b324-5fd5bdcc9c61"},"vehicle_type_id":"4","last_reported":1740271895,"current_range_meters":7200,"station_id":"ce4bho92rcd13ifvqh3g","pricing_plan_id":"cebpf4jnsgd1na2vs0mg"},{"bike_id":"2ad42377-b477-483d-859e-7f2d785ab169","system_id":"levelo_inurba_marseille","lat":43.299,"lon":5.37462,"is_reserved":false,"is_disabled":false,"rental_uris":{"android":"levelo://app?vid=2ad42377-b477-483d-859e-7f2d785ab169","ios":"levelo://app?vid=2ad42377-b477-483d-859e-7f2d785ab169"},"vehicle_type_id":"4","last_reported":1740271895,"current_range_meters":7200,"station_id":"ce4bgjh2rcd13ifvqbg0","pricing_plan_id":"cebpf4jnsgd1na2vs0mg"},{"bike_id":"2ed41e63-2c80-4276-ad34-8378b59c3754","system_id":"levelo_inurba_marseille","lat":43.30965,"lon":5.40153,"is_reserved":false,"is_disabled":false,"rental_uris":{"android":"levelo://app?vid=2ed41e63-2c80-4276-ad34-8378b59c3754","ios":"levelo://app?vid=2ed41e63-2c80-4276-ad34-8378b59c3754"},"vehicle_type_id":"4","last_reported":1740271895,"current_range_meters":7200,"station_id":"ce4bgvp2rcd13ifvqct0","pricing_plan_id":"cebpf4jnsgd1na2vs0mg"},{"bike_id":"86303d63-4d1b-4024-9402-c1e856b883e9","system_id":"levelo_inurba_marseille","lat":43.30603,"lon":5.39347,"is_reserved":false,"is_disabled":false,"rental_uris":{"android":"levelo://app?vid=86303d63-4d1b-4024-9402-c1e856b883e9","ios":"levelo://app?vid=86303d63-4d1b-4024-9402-c1e856b883e9"},"vehicle_type_id":"4","last_reported":1740271895,"current_range_meters":7200,"station_id":"ce4bh0p2rcd13ifvqd80","pricing_plan_id":"cebpf4jnsgd1na2vs0mg"},{"bike_id":"c28b88a6-4142-4efa-946c-e35f3eacfbab","system_id":"levelo_inurba_marseille","lat":43.28612,"lon":5.37073,"is_reserved":false,"is_disabled":false,"rental_uris":{"android":"levelo://app?vid=c28b88a6-4142-4efa-946c-e35f3eacfbab","ios":"levelo://app?vid=c28b88a6-4142-4efa-946c-e35f3eacfbab"},"vehicle_type_id":"4","last_reported":1740271895,"current_range_meters":7200,"station_id":"ce4bht12rcd13ifvqi60","pricing_plan_id":"cebpf4jnsgd1na2vs0mg"},{"bike_id":"ab46b189-6bae-4129-a7fd-10b3ccd5a48e","system_id":"levelo_inurba_marseille","lat":43.27208,"lon":5.40015,"is_reserved":false,"is_disabled":false,"rental_uris":{"android":"levelo://app?vid=ab46b189-6bae-4129-a7fd-10b3ccd5a48e","ios":"levelo://app?vid=ab46b189-6bae-4129-a7fd-10b3ccd5a48e"},"vehicle_type_id":"4","last_reported":1740271895,"current_range_meters":7200,"station_id":"","pricing_plan_id":"cebpf4jnsgd1na2vs0mg"},{"bike_id":"7c5e1f9d-7428-4aba-95df-9502f27ceb66","system_id":"levelo_inurba_marseille","lat":43.24647,"lon":5.38888,"is_reserved":false,"is_disabled":false,"rental_uris":{"android":"levelo://app?vid=7c5e1f9d-7428-4aba-95df-9502f27ceb66","ios":"levelo://app?vid=7c5e1f9d-7428-4aba-95df-9502f27ceb66"},"vehicle_type_id":"4","last_reported":1740271895,"current_range_meters":7200,"station_id":"ce4bhg12rcd13ifvqf60","pricing_plan_id":"cebpf4jnsgd1na2vs0mg"},{"bike_id":"ef54e20e-0f58-4c7f-ab28-5183a4842ffc","system_id":"levelo_inurba_marseille","lat":43.29313,"lon":5.37169,"is_reserved":false,"is_disabled":false,"rental_uris":{"android":"levelo://app?vid=ef54e20e-0f58-4c7f-ab28-5183a4842ffc","ios":"levelo://app?vid=ef54e20e-0f58-4c7f-ab28-5183a4842ffc"},"vehicle_type_id":"4","last_reported":1740271895,"current_range_meters":7200,"station_id":"ce4bgh92rcd13ifvqb40","pricing_plan_id":"cebpf4jnsgd1na2vs0mg"},{"bike_id":"8dfb7310-3485-4866-8da8-02e27a46b8fa","system_id":"levelo_inurba_marseille","lat":43.31683,"lon":5.40474,"is_reserved":false,"is_disabled":false,"rental_uris":{"android":"levelo://app?vid=8dfb7310-3485-4866-8da8-02e27a46b8fa","ios":"levelo://app?vid=8dfb7310-3485-4866-8da8-02e27a46b8fa"},"vehicle_type_id":"4","last_reported":1740271895,"current_range_meters":7200,"station_id":"ce4bh012rcd13ifvqd00","pricing_plan_id":"cebpf4jnsgd1na2vs0mg"},{"bike_id":"3edf878a-b077-47d4-bf89-8453f040639a","system_id":"levelo_inurba_marseille","lat":43.30642,"lon":5.40074,"is_reserved":false,"is_disabled":false,"rental_uris":{"android":"levelo://app?vid=3edf878a-b077-47d4-bf89-8453f040639a","ios":"levelo://app?vid=3edf878a-b077-47d4-bf89-8453f040639a"},"vehicle_type_id":"4","last_reported":1740271895,"current_range_meters":7200,"station_id":"ce4bh112rcd13ifvqda0","pricing_plan_id":"cebpf4jnsgd1na2vs0mg"},{"bike_id":"f32fe46d-1120-4c2c-97c5-cdbf2de4ccec","system_id":"levelo_inurba_marseille","lat":43.25938,"lon":5.40892,"is_reserved":false,"is_disabled":false,"rental_uris":{"android":"levelo://app?vid=f32fe46d-1120-4c2c-97c5-cdbf2de4ccec","ios":"levelo://app?vid=f32fe46d-1120-4c2c-97c5-cdbf2de4ccec"},"vehicle_type_id":"4","last_reported":1740271895,"current_range_meters":8000,"station_id":"ce4bhm92rcd13ifvqglg","pricing_plan_id":"cebpf4jnsgd1na2vs0mg"},{"bike_id":"9116b8ac-629d-459b-b44d-248b2c2649b7","system_id":"levelo_inurba_marseille","lat":43.27953,"lon":5.41047,"is_reserved":false,"is_disabled":true,"rental_uris":{"android":"levelo://app?vid=9116b8ac-629d-459b-b44d-248b2c2649b7","ios":"levelo://app?vid=9116b8ac-629d-459b-b44d-248b2c2649b7"},"vehicle_type_id":"4","last_reported":1740271895,"current_range_meters":8000,"station_id":"ce4bhnp2rcd13ifvqh0g","pricing_plan_id":"cebpf4jnsgd1na2vs0mg"},{"bike_id":"098ba318-f0ee-4c81-991e-ba2f5a0cbad4","system_id":"levelo_inurba_marseille","lat":43.27618,"lon":5.36112,"is_reserved":false,"is_disabled":false,"rental_uris":{"android":"levelo://app?vid=098ba318-f0ee-4c81-991e-ba2f5a0cbad4","ios":"levelo://app?vid=098ba318-f0ee-4c81-991e-ba2f5a0cbad4"},"vehicle_type_id":"4","last_reported":1740271895,"current_range_meters":8000,"station_id":"ce4bgj92rcd13ifvqbe0","pricing_plan_id":"cebpf4jnsgd1na2vs0mg"},{"bike_id":"6d48938c-9b80-49b7-89e5-950ba7a6ce63","system_id":"levelo_inurba_marseille","lat":43.25932,"lon":5.40904,"is_reserved":false,"is_disabled":false,"rental_uris":{"android":"levelo://app?vid=6d48938c-9b80-49b7-89e5-950ba7a6ce63","ios":"levelo://app?vid=6d48938c-9b80-49b7-89e5-950ba7a6ce63"},"vehicle_type_id":"4","last_reported":1740271895,"current_range_meters":8000,"station_id":"ce4bhm92rcd13ifvqglg","pricing_plan_id":"cebpf4jnsgd1na2vs0mg"},{"bike_id":"25918f34-e86b-42a6-9b4e-60475435efc1","system_id":"levelo_inurba_marseille","lat":43.31226,"lon":5.36878,"is_reserved":false,"is_disabled":false,"rental_uris":{"android":"levelo://app?vid=25918f34-e86b-42a6-9b4e-60475435efc1","ios":"levelo://app?vid=25918f34-e86b-42a6-9b4e-60475435efc1"},"vehicle_type_id":"4","last_reported":1740271895,"current_range_meters":8000,"station_id":"ce4bgl92rcd13ifvqbq0","pricing_plan_id":"cebpf4jnsgd1na2vs0mg"},{"bike_id":"f01bc604-d3fe-484b-ab17-16d012a9acf2","system_id":"levelo_inurba_marseille","lat":43.27992,"lon":5.41664,"is_reserved":false,"is_disabled":false,"rental_uris":{"android":"levelo://app?vid=f01bc604-d3fe-484b-ab17-16d012a9acf2","ios":"levelo://app?vid=f01bc604-d3fe-484b-ab17-16d012a9acf2"},"vehicle_type_id":"4","last_reported":1740271895,"current_range_meters":8000,"station_id":"ce4bho12rcd13ifvqh1g","pricing_plan_id":"cebpf4jnsgd1na2vs0mg"},{"bike_id":"6c6000dd-d631-4057-b372-f83b5c6fd465","system_id":"levelo_inurba_marseille","lat":43.26546,"lon":5.39043,"is_reserved":false,"is_disabled":false,"rental_uris":{"android":"levelo://app?vid=6c6000dd-d631-4057-b372-f83b5c6fd465","ios":"levelo://app?vid=6c6000dd-d631-4057-b372-f83b5c6fd465"},"vehicle_type_id":"4","last_reported":1740271895,"current_range_meters":8000,"station_id":"ce4bhe12rcd13ifvqf30","pricing_plan_id":"cebpf4jnsgd1na2vs0mg"},{"bike_id":"dd865ce5-df75-405f-92a1-0fc508e41c4c","system_id":"levelo_inurba_marseille","lat":43.24663,"lon":5.38152,"is_reserved":false,"is_disabled":false,"rental_uris":{"android":"levelo://app?vid=dd865ce5-df75-405f-92a1-0fc508e41c4c","ios":"levelo://app?vid=dd865ce5-df75-405f-92a1-0fc508e41c4c"},"vehicle_type_id":"4","last_reported":1740271895,"current_range_meters":8000,"station_id":"ce4bhih2rcd13ifvqfr0","pricing_plan_id":"cebpf4jnsgd1na2vs0mg"},{"bike_id":"a8896e4e-d267-4f58-952d-dba9725f4e05","system_id":"levelo_inurba_marseille","lat":43.24078,"lon":5.37771,"is_reserved":false,"is_disabled":false,"rental_uris":{"android":"levelo://app?vid=a8896e4e-d267-4f58-952d-dba9725f4e05","ios":"levelo://app?vid=a8896e4e-d267-4f58-952d-dba9725f4e05"},"vehicle_type_id":"4","last_reported":1740271895,"current_range_meters":8400,"station_id":"ce4bhnp2rcd13ifvqgvg","pricing_plan_id":"cebpf4jnsgd1na2vs0mg"},{"bike_id":"d6304c24-34fc-41d9-b5c1-e9bbec4a030a","system_id":"levelo_inurba_marseille","lat":43.2511,"lon":5.40321,"is_reserved":false,"is_disabled":false,"rental_uris":{"android":"levelo://app?vid=d6304c24-34fc-41d9-b5c1-e9bbec4a030a","ios":"levelo://app?vid=d6304c24-34fc-41d9-b5c1-e9bbec4a030a"},"vehicle_type_id":"4","last_reported":1740271895,"current_range_meters":8400,"station_id":"ce4bhlh2rcd13ifvqgig","pricing_plan_id":"cebpf4jnsgd1na2vs0mg"},{"bike_id":"8e6bfea0-d14f-44ca-ab8c-c3bb8964d7f3","system_id":"levelo_inurba_marseille","lat":43.2467,"lon":5.38162,"is_reserved":false,"is_disabled":false,"rental_uris":{"android":"levelo://app?vid=8e6bfea0-d14f-44ca-ab8c-c3bb8964d7f3","ios":"levelo://app?vid=8e6bfea0-d14f-44ca-ab8c-c3bb8964d7f3"},"vehicle_type_id":"4","last_reported":1740271895,"current_range_meters":8400,"station_id":"ce4bhih2rcd13ifvqfr0","pricing_plan_id":"cebpf4jnsgd1na2vs0mg"},{"bike_id":"2e7dd93b-d38e-4cae-9ed0-bea68b87add4","system_id":"levelo_inurba_marseille","lat":43.23963,"lon":5.36625,"is_reserved":false,"is_disabled":false,"rental_uris":{"android":"levelo://app?vid=2e7dd93b-d38e-4cae-9ed0-bea68b87add4","ios":"levelo://app?vid=2e7dd93b-d38e-4cae-9ed0-bea68b87add4"},"vehicle_type_id":"4","last_reported":1740271895,"current_range_meters":8400,"station_id":"ce4bhi12rcd13ifvqfp0","pricing_plan_id":"cebpf4jnsgd1na2vs0mg"},{"bike_id":"c675158f-14ed-4a9f-9475-d8b69f298fd9","system_id":"levelo_inurba_marseille","lat":43.25827,"lon":5.39434,"is_reserved":false,"is_disabled":false,"rental_uris":{"android":"levelo://app?vid=c675158f-14ed-4a9f-9475-d8b69f298fd9","ios":"levelo://app?vid=c675158f-14ed-4a9f-9475-d8b69f298fd9"},"vehicle_type_id":"4","last_reported":1740271895,"current_range_meters":8400,"station_id":"ce4bhip2rcd13ifvqft0","pricing_plan_id":"cebpf4jnsgd1na2vs0mg"},{"bike_id":"2a7165b4-60a1-4418-90cd-83d9915280e2","system_id":"levelo_inurba_marseille","lat":43.28008,"lon":5.40597,"is_reserved":false,"is_disabled":false,"rental_uris":{"android":"levelo://app?vid=2a7165b4-60a1-4418-90cd-83d9915280e2","ios":"levelo://app?vid=2a7165b4-60a1-4418-90cd-83d9915280e2"},"vehicle_type_id":"4","last_reported":1740271895,"current_range_meters":8400,"station_id":"","pricing_plan_id":"cebpf4jnsgd1na2vs0mg"},{"bike_id":"06c7d04b-0c73-473f-9f55-ff858732e591","system_id":"levelo_inurba_marseille","lat":43.26559,"lon":5.39017,"is_reserved":false,"is_disabled":false,"rental_uris":{"android":"levelo://app?vid=06c7d04b-0c73-473f-9f55-ff858732e591","ios":"levelo://app?vid=06c7d04b-0c73-473f-9f55-ff858732e591"},"vehicle_type_id":"4","last_reported":1740271895,"current_range_meters":8400,"station_id":"ce4bhe12rcd13ifvqf30","pricing_plan_id":"cebpf4jnsgd1na2vs0mg"},{"bike_id":"59b8d769-0474-45e8-96b3-bc1cd61c73c5","system_id":"levelo_inurba_marseille","lat":43.304664,"lon":5.379097,"is_reserved":false,"is_disabled":false,"rental_uris":{"android":"levelo://app?vid=59b8d769-0474-45e8-96b3-bc1cd61c73c5","ios":"levelo://app?vid=59b8d769-0474-45e8-96b3-bc1cd61c73c5"},"vehicle_type_id":"4","last_reported":1740271895,"current_range_meters":8400,"station_id":"ce4bgup2rcd13ifvqcn0","pricing_plan_id":"cebpf4jnsgd1na2vs0mg"},{"bike_id":"9f4fdd8e-e9cb-4768-9896-2f4363435504","system_id":"levelo_inurba_marseille","lat":43.286957,"lon":5.373937,"is_reserved":false,"is_disabled":false,"rental_uris":{"android":"levelo://app?vid=9f4fdd8e-e9cb-4768-9896-2f4363435504","ios":"levelo://app?vid=9f4fdd8e-e9cb-4768-9896-2f4363435504"},"vehicle_type_id":"4","last_reported":1740271895,"current_range_meters":8400,"station_id":"ce4bh3p2rcd13ifvqdq0","pricing_plan_id":"cebpf4jnsgd1na2vs0mg"},{"bike_id":"f65e14d9-9d98-4273-878d-64aa1ddbd1a3","system_id":"levelo_inurba_marseille","lat":43.24077,"lon":5.37763,"is_reserved":false,"is_disabled":false,"rental_uris":{"android":"levelo://app?vid=f65e14d9-9d98-4273-878d-64aa1ddbd1a3","ios":"levelo://app?vid=f65e14d9-9d98-4273-878d-64aa1ddbd1a3"},"vehicle_type_id":"4","last_reported":1740271895,"current_range_meters":8400,"station_id":"ce4bhnp2rcd13ifvqgvg","pricing_plan_id":"cebpf4jnsgd1na2vs0mg"},{"bike_id":"b985ad1f-1942-453b-b5eb-7462cafd1e31","system_id":"levelo_inurba_marseille","lat":43.23189,"lon":5.35565,"is_reserved":false,"is_disabled":false,"rental_uris":{"android":"levelo://app?vid=b985ad1f-1942-453b-b5eb-7462cafd1e31","ios":"levelo://app?vid=b985ad1f-1942-453b-b5eb-7462cafd1e31"},"vehicle_type_id":"4","last_reported":1740271895,"current_range_meters":8400,"station_id":"ce4bhu92rcd13ifvqi70","pricing_plan_id":"cebpf4jnsgd1na2vs0mg"},{"bike_id":"78ccc1b5-e05d-4c30-bc5b-473f9d97e2cd","system_id":"levelo_inurba_marseille","lat":43.30113,"lon":5.37805,"is_reserved":false,"is_disabled":false,"rental_uris":{"android":"levelo://app?vid=78ccc1b5-e05d-4c30-bc5b-473f9d97e2cd","ios":"levelo://app?vid=78ccc1b5-e05d-4c30-bc5b-473f9d97e2cd"},"vehicle_type_id":"4","last_reported":1740271895,"current_range_meters":8800,"station_id":"","pricing_plan_id":"cebpf4jnsgd1na2vs0mg"},{"bike_id":"23bc9759-d26d-4f40-b4f4-88a9beb1aae8","system_id":"levelo_inurba_marseille","lat":43.25877,"lon":5.39893,"is_reserved":false,"is_disabled":false,"rental_uris":{"android":"levelo://app?vid=23bc9759-d26d-4f40-b4f4-88a9beb1aae8","ios":"levelo://app?vid=23bc9759-d26d-4f40-b4f4-88a9beb1aae8"},"vehicle_type_id":"4","last_reported":1740271895,"current_range_meters":8800,"station_id":"ce4bhl92rcd13ifvqghg","pricing_plan_id":"cebpf4jnsgd1na2vs0mg"},{"bike_id":"050367b7-8a54-4a5c-8db7-b52ce040e297","system_id":"levelo_inurba_marseille","lat":43.24675,"lon":5.38164,"is_reserved":false,"is_disabled":false,"rental_uris":{"android":"levelo://app?vid=050367b7-8a54-4a5c-8db7-b52ce040e297","ios":"levelo://app?vid=050367b7-8a54-4a5c-8db7-b52ce040e297"},"vehicle_type_id":"4","last_reported":1740271895,"current_range_meters":9200,"station_id":"ce4bhih2rcd13ifvqfr0","pricing_plan_id":"cebpf4jnsgd1na2vs0mg"},{"bike_id":"be5f18c6-d773-4035-9538-497c8eccebd5","system_id":"levelo_inurba_marseille","lat":43.275721,"lon":5.384146,"is_reserved":false,"is_disabled":false,"rental_uris":{"android":"levelo://app?vid=be5f18c6-d773-4035-9538-497c8eccebd5","ios":"levelo://app?vid=be5f18c6-d773-4035-9538-497c8eccebd5"},"vehicle_type_id":"4","last_reported":1740271895,"current_range_meters":9200,"station_id":"ce4bhh92rcd13ifvqfi0","pricing_plan_id":"cebpf4jnsgd1na2vs0mg"},{"bike_id":"f4c73116-43d3-41d9-88bb-9461dbbb405f","system_id":"levelo_inurba_marseille","lat":43.25413,"lon":5.41586,"is_reserved":false,"is_disabled":false,"rental_uris":{"android":"levelo://app?vid=f4c73116-43d3-41d9-88bb-9461dbbb405f","ios":"levelo://app?vid=f4c73116-43d3-41d9-88bb-9461dbbb405f"},"vehicle_type_id":"4","last_reported":1740271895,"current_range_meters":9200,"station_id":"","pricing_plan_id":"cebpf4jnsgd1na2vs0mg"},{"bike_id":"590c2d4d-a6f8-41f2-86bc-cf779452c419","system_id":"levelo_inurba_marseille","lat":43.27199,"lon":5.40993,"is_reserved":false,"is_disabled":false,"rental_uris":{"android":"levelo://app?vid=590c2d4d-a6f8-41f2-86bc-cf779452c419","ios":"levelo://app?vid=590c2d4d-a6f8-41f2-86bc-cf779452c419"},"vehicle_type_id":"4","last_reported":1740271895,"current_range_meters":9200,"station_id":"ce4bhl12rcd13ifvqgf0","pricing_plan_id":"cebpf4jnsgd1na2vs0mg"},{"bike_id":"bb9ffa60-bdcd-4c6e-a08c-d2ba136111f9","system_id":"levelo_inurba_marseille","lat":43.28659,"lon":5.3635,"is_reserved":false,"is_disabled":false,"rental_uris":{"android":"levelo://app?vid=bb9ffa60-bdcd-4c6e-a08c-d2ba136111f9","ios":"levelo://app?vid=bb9ffa60-bdcd-4c6e-a08c-d2ba136111f9"},"vehicle_type_id":"4","last_reported":1740271895,"current_range_meters":9200,"station_id":"ce4bhah2rcd13ifvqej0","pricing_plan_id":"cebpf4jnsgd1na2vs0mg"},{"bike_id":"7da45adf-58f5-45bd-aa7e-aa8ab6c11351","system_id":"levelo_inurba_marseille","lat":43.26562,"lon":5.37291,"is_reserved":false,"is_disabled":false,"rental_uris":{"android":"levelo://app?vid=7da45adf-58f5-45bd-aa7e-aa8ab6c11351","ios":"levelo://app?vid=7da45adf-58f5-45bd-aa7e-aa8ab6c11351"},"vehicle_type_id":"4","last_reported":1740271895,"current_range_meters":9200,"station_id":"ce4bhg12rcd13ifvqf70","pricing_plan_id":"cebpf4jnsgd1na2vs0mg"},{"bike_id":"827ec7e5-1ae5-45b8-890e-b6822ea9bc11","system_id":"levelo_inurba_marseille","lat":43.23952,"lon":5.36653,"is_reserved":false,"is_disabled":false,"rental_uris":{"android":"levelo://app?vid=827ec7e5-1ae5-45b8-890e-b6822ea9bc11","ios":"levelo://app?vid=827ec7e5-1ae5-45b8-890e-b6822ea9bc11"},"vehicle_type_id":"4","last_reported":1740271895,"current_range_meters":9200,"station_id":"ce4bhi12rcd13ifvqfp0","pricing_plan_id":"cebpf4jnsgd1na2vs0mg"},{"bike_id":"1a10fd59-4523-44b6-b95d-9c8ecd2de736","system_id":"levelo_inurba_marseille","lat":43.25862,"lon":5.39903,"is_reserved":false,"is_disabled":false,"rental_uris":{"android":"levelo://app?vid=1a10fd59-4523-44b6-b95d-9c8ecd2de736","ios":"levelo://app?vid=1a10fd59-4523-44b6-b95d-9c8ecd2de736"},"vehicle_type_id":"4","last_reported":1740271895,"current_range_meters":9200,"station_id":"ce4bhl92rcd13ifvqghg","pricing_plan_id":"cebpf4jnsgd1na2vs0mg"},{"bike_id":"bd0f0fb7-276d-4481-b5d8-ffa82acd63a0","system_id":"levelo_inurba_marseille","lat":43.28462,"lon":5.35885,"is_reserved":false,"is_disabled":false,"rental_uris":{"android":"levelo://app?vid=bd0f0fb7-276d-4481-b5d8-ffa82acd63a0","ios":"levelo://app?vid=bd0f0fb7-276d-4481-b5d8-ffa82acd63a0"},"vehicle_type_id":"4","last_reported":1740271895,"current_range_meters":9600,"station_id":"ce4bhah2rcd13ifvqei0","pricing_plan_id":"cebpf4jnsgd1na2vs0mg"},{"bike_id":"f09eba20-0f4a-4914-99c1-c9ee54b93142","system_id":"levelo_inurba_marseille","lat":43.27811,"lon":5.40724,"is_reserved":false,"is_disabled":false,"rental_uris":{"android":"levelo://app?vid=f09eba20-0f4a-4914-99c1-c9ee54b93142","ios":"levelo://app?vid=f09eba20-0f4a-4914-99c1-c9ee54b93142"},"vehicle_type_id":"4","last_reported":1740271895,"current_range_meters":9600,"station_id":"ce4bhnh2rcd13ifvqgtg","pricing_plan_id":"cebpf4jnsgd1na2vs0mg"},{"bike_id":"f059cbcc-b7ad-4e49-87a3-054a01f702f4","system_id":"levelo_inurba_marseille","lat":43.30883,"lon":5.3966,"is_reserved":false,"is_disabled":false,"rental_uris":{"android":"levelo://app?vid=f059cbcc-b7ad-4e49-87a3-054a01f702f4","ios":"levelo://app?vid=f059cbcc-b7ad-4e49-87a3-054a01f702f4"},"vehicle_type_id":"4","last_reported":1740271895,"current_range_meters":9600,"station_id":"ce4bh012rcd13ifvqcv0","pricing_plan_id":"cebpf4jnsgd1na2vs0mg"},{"bike_id":"2cda7e99-d6ab-402a-bfd9-2fc555f34a99","system_id":"levelo_inurba_marseille","lat":43.2955,"lon":5.422753,"is_reserved":false,"is_disabled":false,"rental_uris":{"android":"levelo://app?vid=2cda7e99-d6ab-402a-bfd9-2fc555f34a99","ios":"levelo://app?vid=2cda7e99-d6ab-402a-bfd9-2fc555f34a99"},"vehicle_type_id":"4","last_reported":1740271895,"current_range_meters":9600,"station_id":"ce4bhph2rcd13ifvqhdg","pricing_plan_id":"cebpf4jnsgd1na2vs0mg"},{"bike_id":"46bf26b4-5256-4da6-9688-39ebee5a9b96","system_id":"levelo_inurba_marseille","lat":43.28339,"lon":5.38108,"is_reserved":false,"is_disabled":false,"rental_uris":{"android":"levelo://app?vid=46bf26b4-5256-4da6-9688-39ebee5a9b96","ios":"levelo://app?vid=46bf26b4-5256-4da6-9688-39ebee5a9b96"},"vehicle_type_id":"4","last_reported":1740271895,"current_range_meters":9600,"station_id":"ce4bh412rcd13ifvqdr0","pricing_plan_id":"cebpf4jnsgd1na2vs0mg"},{"bike_id":"ee554508-1e8e-460d-8962-fdf29706e6d6","system_id":"levelo_inurba_marseille","lat":43.27174,"lon":5.40998,"is_reserved":false,"is_disabled":false,"rental_uris":{"android":"levelo://app?vid=ee554508-1e8e-460d-8962-fdf29706e6d6","ios":"levelo://app?vid=ee554508-1e8e-460d-8962-fdf29706e6d6"},"vehicle_type_id":"4","last_reported":1740271895,"current_range_meters":9600,"station_id":"ce4bhl12rcd13ifvqgf0","pricing_plan_id":"cebpf4jnsgd1na2vs0mg"},{"bike_id":"8bfc0974-2905-4812-85f9-a44f579d2d2c","system_id":"levelo_inurba_marseille","lat":43.30095,"lon":5.39091,"is_reserved":false,"is_disabled":false,"rental_uris":{"android":"levelo://app?vid=8bfc0974-2905-4812-85f9-a44f579d2d2c","ios":"levelo://app?vid=8bfc0974-2905-4812-85f9-a44f579d2d2c"},"vehicle_type_id":"4","last_reported":1740271895,"current_range_meters":9600,"station_id":"ce4bh192rcd13ifvqdb0","pricing_plan_id":"cebpf4jnsgd1na2vs0mg"},{"bike_id":"c6a1ef00-1084-493b-8248-9658c4452943","system_id":"levelo_inurba_marseille","lat":43.28249,"lon":5.3907,"is_reserved":false,"is_disabled":false,"rental_uris":{"android":"levelo://app?vid=c6a1ef00-1084-493b-8248-9658c4452943","ios":"levelo://app?vid=c6a1ef00-1084-493b-8248-9658c4452943"},"vehicle_type_id":"4","last_reported":1740271895,"current_range_meters":9600,"station_id":"","pricing_plan_id":"cebpf4jnsgd1na2vs0mg"},{"bike_id":"2c6fe07a-1775-49e8-bb36-4bb755c649ab","system_id":"levelo_inurba_marseille","lat":43.28721,"lon":5.36092,"is_reserved":false,"is_disabled":false,"rental_uris":{"android":"levelo://app?vid=2c6fe07a-1775-49e8-bb36-4bb755c649ab","ios":"levelo://app?vid=2c6fe07a-1775-49e8-bb36-4bb755c649ab"},"vehicle_type_id":"4","last_reported":1740271895,"current_range_meters":9600,"station_id":"cki0cbj6b192h4jlfktg","pricing_plan_id":"cebpf4jnsgd1na2vs0mg"},{"bike_id":"cf253d53-9441-412c-89eb-edc6cab7409a","system_id":"levelo_inurba_marseille","lat":43.30965,"lon":5.39044,"is_reserved":false,"is_disabled":false,"rental_uris":{"android":"levelo://app?vid=cf253d53-9441-412c-89eb-edc6cab7409a","ios":"levelo://app?vid=cf253d53-9441-412c-89eb-edc6cab7409a"},"vehicle_type_id":"4","last_reported":1740271895,"current_range_meters":9600,"station_id":"ce4bgup2rcd13ifvqco0","pricing_plan_id":"cebpf4jnsgd1na2vs0mg"},{"bike_id":"1b218dd3-cbf0-4126-858c-bdfc514e6cf8","system_id":"levelo_inurba_marseille","lat":43.303046,"lon":5.368987,"is_reserved":false,"is_disabled":false,"rental_uris":{"android":"levelo://app?vid=1b218dd3-cbf0-4126-858c-bdfc514e6cf8","ios":"levelo://app?vid=1b218dd3-cbf0-4126-858c-bdfc514e6cf8"},"vehicle_type_id":"4","last_reported":1740271895,"current_range_meters":9600,"station_id":"ce4bgi12rcd13ifvqb70","pricing_plan_id":"cebpf4jnsgd1na2vs0mg"},{"bike_id":"5fcb0a33-39cc-43ca-ada8-f133ba1cb445","system_id":"levelo_inurba_marseille","lat":43.280753,"lon":5.396583,"is_reserved":false,"is_disabled":false,"rental_uris":{"android":"levelo://app?vid=5fcb0a33-39cc-43ca-ada8-f133ba1cb445","ios":"levelo://app?vid=5fcb0a33-39cc-43ca-ada8-f133ba1cb445"},"vehicle_type_id":"4","last_reported":1740271895,"current_range_meters":10000,"station_id":"ce4bho12rcd13ifvqh2g","pricing_plan_id":"cebpf4jnsgd1na2vs0mg"},{"bike_id":"bb127142-502c-4b61-b74c-d7410317905c","system_id":"levelo_inurba_marseille","lat":43.26799,"lon":5.4025,"is_reserved":false,"is_disabled":false,"rental_uris":{"android":"levelo://app?vid=bb127142-502c-4b61-b74c-d7410317905c","ios":"levelo://app?vid=bb127142-502c-4b61-b74c-d7410317905c"},"vehicle_type_id":"4","last_reported":1740271895,"current_range_meters":10000,"station_id":"ce501612rcd8frsf0b60","pricing_plan_id":"cebpf4jnsgd1na2vs0mg"},{"bike_id":"519c0d90-c598-4074-9c80-d5e1565ff705","system_id":"levelo_inurba_marseille","lat":43.23068,"lon":5.35513,"is_reserved":false,"is_disabled":false,"rental_uris":{"android":"levelo://app?vid=519c0d90-c598-4074-9c80-d5e1565ff705","ios":"levelo://app?vid=519c0d90-c598-4074-9c80-d5e1565ff705"},"vehicle_type_id":"4","last_reported":1740271895,"current_range_meters":10000,"station_id":"cpo3342slgdg3j2ifvpg","pricing_plan_id":"cebpf4jnsgd1na2vs0mg"},{"bike_id":"d17e9f43-52a6-4c0c-9e57-c49dabb8fed4","system_id":"levelo_inurba_marseille","lat":43.30478,"lon":5.38192,"is_reserved":false,"is_disabled":false,"rental_uris":{"android":"levelo://app?vid=d17e9f43-52a6-4c0c-9e57-c49dabb8fed4","ios":"levelo://app?vid=d17e9f43-52a6-4c0c-9e57-c49dabb8fed4"},"vehicle_type_id":"4","last_reported":1740271895,"current_range_meters":10000,"station_id":"","pricing_plan_id":"cebpf4jnsgd1na2vs0mg"},{"bike_id":"9134b4ec-cb90-4668-8650-961ee5f82b16","system_id":"levelo_inurba_marseille","lat":43.30317,"lon":5.36902,"is_reserved":false,"is_disabled":false,"rental_uris":{"android":"levelo://app?vid=9134b4ec-cb90-4668-8650-961ee5f82b16","ios":"levelo://app?vid=9134b4ec-cb90-4668-8650-961ee5f82b16"},"vehicle_type_id":"4","last_reported":1740271895,"current_range_meters":10000,"station_id":"ce4bgqh2rcd13ifvqc5g","pricing_plan_id":"cebpf4jnsgd1na2vs0mg"},{"bike_id":"d167782e-6c4c-4178-bdbb-5bd05c5ff4ef","system_id":"levelo_inurba_marseille","lat":43.27812,"lon":5.40745,"is_reserved":false,"is_disabled":false,"rental_uris":{"android":"levelo://app?vid=d167782e-6c4c-4178-bdbb-5bd05c5ff4ef","ios":"levelo://app?vid=d167782e-6c4c-4178-bdbb-5bd05c5ff4ef"},"vehicle_type_id":"4","last_reported":1740271895,"current_range_meters":10000,"station_id":"ce4bhnh2rcd13ifvqgtg","pricing_plan_id":"cebpf4jnsgd1na2vs0mg"},{"bike_id":"c76531ac-1214-4592-9c1c-6b2ce2bc0cf8","system_id":"levelo_inurba_marseille","lat":43.23191,"lon":5.35551,"is_reserved":false,"is_disabled":false,"rental_uris":{"android":"levelo://app?vid=c76531ac-1214-4592-9c1c-6b2ce2bc0cf8","ios":"levelo://app?vid=c76531ac-1214-4592-9c1c-6b2ce2bc0cf8"},"vehicle_type_id":"4","last_reported":1740271895,"current_range_meters":10000,"station_id":"ce4bhu92rcd13ifvqi70","pricing_plan_id":"cebpf4jnsgd1na2vs0mg"},{"bike_id":"67a30d2b-3780-4f47-a2fd-3290c6c1c257","system_id":"levelo_inurba_marseille","lat":43.31491,"lon":5.37306,"is_reserved":false,"is_disabled":false,"rental_uris":{"android":"levelo://app?vid=67a30d2b-3780-4f47-a2fd-3290c6c1c257","ios":"levelo://app?vid=67a30d2b-3780-4f47-a2fd-3290c6c1c257"},"vehicle_type_id":"4","last_reported":1740271895,"current_range_meters":10000,"station_id":"ce4bgt12rcd13ifvqcd0","pricing_plan_id":"cebpf4jnsgd1na2vs0mg"},{"bike_id":"697316fb-3768-4e97-980b-6f61f76a273d","system_id":"levelo_inurba_marseille","lat":43.30931,"lon":5.40137,"is_reserved":false,"is_disabled":false,"rental_uris":{"android":"levelo://app?vid=697316fb-3768-4e97-980b-6f61f76a273d","ios":"levelo://app?vid=697316fb-3768-4e97-980b-6f61f76a273d"},"vehicle_type_id":"4","last_reported":1740271895,"current_range_meters":10000,"station_id":"ce4bgvp2rcd13ifvqct0","pricing_plan_id":"cebpf4jnsgd1na2vs0mg"},{"bike_id":"65a2b506-9f18-4086-90d7-6bbdf970a117","system_id":"levelo_inurba_marseille","lat":43.29537,"lon":5.38551,"is_reserved":false,"is_disabled":true,"rental_uris":{"android":"levelo://app?vid=65a2b506-9f18-4086-90d7-6bbdf970a117","ios":"levelo://app?vid=65a2b506-9f18-4086-90d7-6bbdf970a117"},"vehicle_type_id":"4","last_reported":1740271895,"current_range_meters":10800,"station_id":"ce4bgih2rcd13ifvqba0","pricing_plan_id":"cebpf4jnsgd1na2vs0mg"},{"bike_id":"b9222f6b-bd56-490b-9d8a-83f7d51fce2a","system_id":"levelo_inurba_marseille","lat":43.27062,"lon":5.40249,"is_reserved":false,"is_disabled":false,"rental_uris":{"android":"levelo://app?vid=b9222f6b-bd56-490b-9d8a-83f7d51fce2a","ios":"levelo://app?vid=b9222f6b-bd56-490b-9d8a-83f7d51fce2a"},"vehicle_type_id":"4","last_reported":1740271895,"current_range_meters":10800,"station_id":"ce4bhk92rcd13ifvqgc0","pricing_plan_id":"cebpf4jnsgd1na2vs0mg"},{"bike_id":"5d52fe5a-dfb3-40bb-a0d1-9a7b3f23529e","system_id":"levelo_inurba_marseille","lat":43.26207,"lon":5.40423,"is_reserved":false,"is_disabled":false,"rental_uris":{"android":"levelo://app?vid=5d52fe5a-dfb3-40bb-a0d1-9a7b3f23529e","ios":"levelo://app?vid=5d52fe5a-dfb3-40bb-a0d1-9a7b3f23529e"},"vehicle_type_id":"4","last_reported":1740271895,"current_range_meters":10800,"station_id":"ce4bhmh2rcd13ifvqgmg","pricing_plan_id":"cebpf4jnsgd1na2vs0mg"},{"bike_id":"0b35ef10-1d1d-4e8a-949e-c3122c5e3874","system_id":"levelo_inurba_marseille","lat":43.23956,"lon":5.36635,"is_reserved":false,"is_disabled":false,"rental_uris":{"android":"levelo://app?vid=0b35ef10-1d1d-4e8a-949e-c3122c5e3874","ios":"levelo://app?vid=0b35ef10-1d1d-4e8a-949e-c3122c5e3874"},"vehicle_type_id":"4","last_reported":1740271895,"current_range_meters":10800,"station_id":"ce4bhi12rcd13ifvqfp0","pricing_plan_id":"cebpf4jnsgd1na2vs0mg"},{"bike_id":"9d49efd4-a238-4a72-8787-13c506ac8d9b","system_id":"levelo_inurba_marseille","lat":43.27196,"lon":5.40985,"is_reserved":false,"is_disabled":false,"rental_uris":{"android":"levelo://app?vid=9d49efd4-a238-4a72-8787-13c506ac8d9b","ios":"levelo://app?vid=9d49efd4-a238-4a72-8787-13c506ac8d9b"},"vehicle_type_id":"4","last_reported":1740271895,"current_range_meters":10800,"station_id":"ce4bhl12rcd13ifvqgf0","pricing_plan_id":"cebpf4jnsgd1na2vs0mg"},{"bike_id":"ddb48cd1-bcb3-4cac-8164-1ae412ca1019","system_id":"levelo_inurba_marseille","lat":43.29332,"lon":5.37243,"is_reserved":false,"is_disabled":false,"rental_uris":{"android":"levelo://app?vid=ddb48cd1-bcb3-4cac-8164-1ae412ca1019","ios":"levelo://app?vid=ddb48cd1-bcb3-4cac-8164-1ae412ca1019"},"vehicle_type_id":"4","last_reported":1740271895,"current_range_meters":10800,"station_id":"","pricing_plan_id":"cebpf4jnsgd1na2vs0mg"},{"bike_id":"5ff929ae-3905-42e7-b689-a32704e51eed","system_id":"levelo_inurba_marseille","lat":43.30137,"lon":5.39859,"is_reserved":false,"is_disabled":false,"rental_uris":{"android":"levelo://app?vid=5ff929ae-3905-42e7-b689-a32704e51eed","ios":"levelo://app?vid=5ff929ae-3905-42e7-b689-a32704e51eed"},"vehicle_type_id":"4","last_reported":1740271895,"current_range_meters":10800,"station_id":"ce4bh0h2rcd13ifvqd40","pricing_plan_id":"cebpf4jnsgd1na2vs0mg"},{"bike_id":"26a2d076-f5f2-45a7-98f5-29542790fe7d","system_id":"levelo_inurba_marseille","lat":43.32352,"lon":5.36748,"is_reserved":false,"is_disabled":false,"rental_uris":{"android":"levelo://app?vid=26a2d076-f5f2-45a7-98f5-29542790fe7d","ios":"levelo://app?vid=26a2d076-f5f2-45a7-98f5-29542790fe7d"},"vehicle_type_id":"4","last_reported":1740271895,"current_range_meters":10800,"station_id":"ce4bhsh2rcd13ifvqi2g","pricing_plan_id":"cebpf4jnsgd1na2vs0mg"},{"bike_id":"09486dc5-7654-4904-afc6-3b8a40308aeb","system_id":"levelo_inurba_marseille","lat":43.25416,"lon":5.41585,"is_reserved":false,"is_disabled":false,"rental_uris":{"android":"levelo://app?vid=09486dc5-7654-4904-afc6-3b8a40308aeb","ios":"levelo://app?vid=09486dc5-7654-4904-afc6-3b8a40308aeb"},"vehicle_type_id":"4","last_reported":1740271895,"current_range_meters":11200,"station_id":"","pricing_plan_id":"cebpf4jnsgd1na2vs0mg"},{"bike_id":"49e1c317-c43a-4e17-be08-ea23dc8d6739","system_id":"levelo_inurba_marseille","lat":43.30163,"lon":5.39583,"is_reserved":false,"is_disabled":true,"rental_uris":{"android":"levelo://app?vid=49e1c317-c43a-4e17-be08-ea23dc8d6739","ios":"levelo://app?vid=49e1c317-c43a-4e17-be08-ea23dc8d6739"},"vehicle_type_id":"4","last_reported":1740271895,"current_range_meters":11200,"station_id":"","pricing_plan_id":"cebpf4jnsgd1na2vs0mg"},{"bike_id":"ad184f0e-d5c6-4a9c-ba11-7ab7f337e022","system_id":"levelo_inurba_marseille","lat":43.25828,"lon":5.3943,"is_reserved":false,"is_disabled":false,"rental_uris":{"android":"levelo://app?vid=ad184f0e-d5c6-4a9c-ba11-7ab7f337e022","ios":"levelo://app?vid=ad184f0e-d5c6-4a9c-ba11-7ab7f337e022"},"vehicle_type_id":"4","last_reported":1740271895,"current_range_meters":11200,"station_id":"ce4bhip2rcd13ifvqft0","pricing_plan_id":"cebpf4jnsgd1na2vs0mg"},{"bike_id":"580cd37a-010c-47d8-955d-e1bf99f50654","system_id":"levelo_inurba_marseille","lat":43.28365,"lon":5.38628,"is_reserved":false,"is_disabled":false,"rental_uris":{"android":"levelo://app?vid=580cd37a-010c-47d8-955d-e1bf99f50654","ios":"levelo://app?vid=580cd37a-010c-47d8-955d-e1bf99f50654"},"vehicle_type_id":"4","last_reported":1740271895,"current_range_meters":11200,"station_id":"ce4bh492rcd13ifvqdvg","pricing_plan_id":"cebpf4jnsgd1na2vs0mg"},{"bike_id":"e2f62125-3a72-42e8-8935-2e0ba3bfe398","system_id":"levelo_inurba_marseille","lat":43.25584,"lon":5.38236,"is_reserved":false,"is_disabled":false,"rental_uris":{"android":"levelo://app?vid=e2f62125-3a72-42e8-8935-2e0ba3bfe398","ios":"levelo://app?vid=e2f62125-3a72-42e8-8935-2e0ba3bfe398"},"vehicle_type_id":"4","last_reported":1740271895,"current_range_meters":11600,"station_id":"ce4bhih2rcd13ifvqfs0","pricing_plan_id":"cebpf4jnsgd1na2vs0mg"},{"bike_id":"1b0d6542-f74d-4dd5-b78b-1cd1115ff80b","system_id":"levelo_inurba_marseille","lat":43.30667,"lon":5.37475,"is_reserved":false,"is_disabled":false,"rental_uris":{"android":"levelo://app?vid=1b0d6542-f74d-4dd5-b78b-1cd1115ff80b","ios":"levelo://app?vid=1b0d6542-f74d-4dd5-b78b-1cd1115ff80b"},"vehicle_type_id":"4","last_reported":1740271895,"current_range_meters":11600,"station_id":"","pricing_plan_id":"cebpf4jnsgd1na2vs0mg"},{"bike_id":"d88699b9-7a50-415c-9cdb-a35fdc00ed80","system_id":"levelo_inurba_marseille","lat":43.29934,"lon":5.37193,"is_reserved":false,"is_disabled":false,"rental_uris":{"android":"levelo://app?vid=d88699b9-7a50-415c-9cdb-a35fdc00ed80","ios":"levelo://app?vid=d88699b9-7a50-415c-9cdb-a35fdc00ed80"},"vehicle_type_id":"4","last_reported":1740271895,"current_range_meters":11600,"station_id":"","pricing_plan_id":"cebpf4jnsgd1na2vs0mg"},{"bike_id":"d05c064c-9a3b-4b64-8d3a-a0eb3ad8d78e","system_id":"levelo_inurba_marseille","lat":43.29534,"lon":5.39029,"is_reserved":false,"is_disabled":false,"rental_uris":{"android":"levelo://app?vid=d05c064c-9a3b-4b64-8d3a-a0eb3ad8d78e","ios":"levelo://app?vid=d05c064c-9a3b-4b64-8d3a-a0eb3ad8d78e"},"vehicle_type_id":"4","last_reported":1740271895,"current_range_meters":11600,"station_id":"ce4bh3p2rcd13ifvqdp0","pricing_plan_id":"cebpf4jnsgd1na2vs0mg"},{"bike_id":"e786e064-4552-41a1-a037-b0f5f3d3f15f","system_id":"levelo_inurba_marseille","lat":43.31483,"lon":5.37294,"is_reserved":false,"is_disabled":false,"rental_uris":{"android":"levelo://app?vid=e786e064-4552-41a1-a037-b0f5f3d3f15f","ios":"levelo://app?vid=e786e064-4552-41a1-a037-b0f5f3d3f15f"},"vehicle_type_id":"4","last_reported":1740271895,"current_range_meters":11600,"station_id":"ce4bgt12rcd13ifvqcd0","pricing_plan_id":"cebpf4jnsgd1na2vs0mg"},{"bike_id":"1f7411cd-9379-4bab-a8bc-411b928d8602","system_id":"levelo_inurba_marseille","lat":43.27494,"lon":5.4247,"is_reserved":false,"is_disabled":false,"rental_uris":{"android":"levelo://app?vid=1f7411cd-9379-4bab-a8bc-411b928d8602","ios":"levelo://app?vid=1f7411cd-9379-4bab-a8bc-411b928d8602"},"vehicle_type_id":"4","last_reported":1740271895,"current_range_meters":12000,"station_id":"ce4bhn92rcd13ifvqgrg","pricing_plan_id":"cebpf4jnsgd1na2vs0mg"},{"bike_id":"0e853235-21f7-4f1b-8713-c7df142dfb62","system_id":"levelo_inurba_marseille","lat":43.274242,"lon":5.394237,"is_reserved":false,"is_disabled":false,"rental_uris":{"android":"levelo://app?vid=0e853235-21f7-4f1b-8713-c7df142dfb62","ios":"levelo://app?vid=0e853235-21f7-4f1b-8713-c7df142dfb62"},"vehicle_type_id":"4","last_reported":1740271895,"current_range_meters":12000,"station_id":"cki0cbj6b192h4jlfktg","pricing_plan_id":"cebpf4jnsgd1na2vs0mg"},{"bike_id":"3fd2a98c-7939-498c-8625-9658300a849b","system_id":"levelo_inurba_marseille","lat":43.25936,"lon":5.40903,"is_reserved":false,"is_disabled":false,"rental_uris":{"android":"levelo://app?vid=3fd2a98c-7939-498c-8625-9658300a849b","ios":"levelo://app?vid=3fd2a98c-7939-498c-8625-9658300a849b"},"vehicle_type_id":"4","last_reported":1740271895,"current_range_meters":12000,"station_id":"ce4bhm92rcd13ifvqglg","pricing_plan_id":"cebpf4jnsgd1na2vs0mg"},{"bike_id":"e64ff07f-c2cf-4166-9163-32e5f1609d23","system_id":"levelo_inurba_marseille","lat":43.30634,"lon":5.40095,"is_reserved":false,"is_disabled":false,"rental_uris":{"android":"levelo://app?vid=e64ff07f-c2cf-4166-9163-32e5f1609d23","ios":"levelo://app?vid=e64ff07f-c2cf-4166-9163-32e5f1609d23"},"vehicle_type_id":"4","last_reported":1740271895,"current_range_meters":12000,"station_id":"ce4bh112rcd13ifvqda0","pricing_plan_id":"cebpf4jnsgd1na2vs0mg"},{"bike_id":"2e6cf355-a9c0-46c3-a1bf-590c7f00230b","system_id":"levelo_inurba_marseille","lat":43.30953,"lon":5.39035,"is_reserved":false,"is_disabled":false,"rental_uris":{"android":"levelo://app?vid=2e6cf355-a9c0-46c3-a1bf-590c7f00230b","ios":"levelo://app?vid=2e6cf355-a9c0-46c3-a1bf-590c7f00230b"},"vehicle_type_id":"4","last_reported":1740271895,"current_range_meters":12000,"station_id":"ce4bgup2rcd13ifvqco0","pricing_plan_id":"cebpf4jnsgd1na2vs0mg"},{"bike_id":"b52a7c21-6b06-4366-aed5-34786c44f10f","system_id":"levelo_inurba_marseille","lat":43.29548,"lon":5.42279,"is_reserved":false,"is_disabled":false,"rental_uris":{"android":"levelo://app?vid=b52a7c21-6b06-4366-aed5-34786c44f10f","ios":"levelo://app?vid=b52a7c21-6b06-4366-aed5-34786c44f10f"},"vehicle_type_id":"4","last_reported":1740271895,"current_range_meters":12400,"station_id":"ce4bhph2rcd13ifvqhdg","pricing_plan_id":"cebpf4jnsgd1na2vs0mg"},{"bike_id":"8dc51aab-29d3-43fa-a37e-6c47cc4c2e69","system_id":"levelo_inurba_marseille","lat":43.24151,"lon":5.3641,"is_reserved":false,"is_disabled":false,"rental_uris":{"android":"levelo://app?vid=8dc51aab-29d3-43fa-a37e-6c47cc4c2e69","ios":"levelo://app?vid=8dc51aab-29d3-43fa-a37e-6c47cc4c2e69"},"vehicle_type_id":"4","last_reported":1740271895,"current_range_meters":12400,"station_id":"cpo36qri1sfpv3e86is0","pricing_plan_id":"cebpf4jnsgd1na2vs0mg"},{"bike_id":"59794df7-ea55-4b69-a3ed-2e184bacdf1a","system_id":"levelo_inurba_marseille","lat":43.31406,"lon":5.38544,"is_reserved":false,"is_disabled":false,"rental_uris":{"android":"levelo://app?vid=59794df7-ea55-4b69-a3ed-2e184bacdf1a","ios":"levelo://app?vid=59794df7-ea55-4b69-a3ed-2e184bacdf1a"},"vehicle_type_id":"4","last_reported":1740271895,"current_range_meters":12400,"station_id":"ce4bgt92rcd13ifvqcf0","pricing_plan_id":"cebpf4jnsgd1na2vs0mg"},{"bike_id":"4177e995-807d-40d8-9b40-d51883f9ac50","system_id":"levelo_inurba_marseille","lat":43.24649,"lon":5.38171,"is_reserved":false,"is_disabled":false,"rental_uris":{"android":"levelo://app?vid=4177e995-807d-40d8-9b40-d51883f9ac50","ios":"levelo://app?vid=4177e995-807d-40d8-9b40-d51883f9ac50"},"vehicle_type_id":"4","last_reported":1740271895,"current_range_meters":12400,"station_id":"ce4bhih2rcd13ifvqfr0","pricing_plan_id":"cebpf4jnsgd1na2vs0mg"},{"bike_id":"00512656-56f1-478d-a7b5-5569da3029b1","system_id":"levelo_inurba_marseille","lat":43.23961,"lon":5.36644,"is_reserved":false,"is_disabled":false,"rental_uris":{"android":"levelo://app?vid=00512656-56f1-478d-a7b5-5569da3029b1","ios":"levelo://app?vid=00512656-56f1-478d-a7b5-5569da3029b1"},"vehicle_type_id":"4","last_reported":1740271895,"current_range_meters":12400,"station_id":"ce4bhi12rcd13ifvqfp0","pricing_plan_id":"cebpf4jnsgd1na2vs0mg"},{"bike_id":"97ecfce5-1345-4264-9caa-09b38454c8ce","system_id":"levelo_inurba_marseille","lat":43.25723,"lon":5.41125,"is_reserved":false,"is_disabled":false,"rental_uris":{"android":"levelo://app?vid=97ecfce5-1345-4264-9caa-09b38454c8ce","ios":"levelo://app?vid=97ecfce5-1345-4264-9caa-09b38454c8ce"},"vehicle_type_id":"4","last_reported":1740271895,"current_range_meters":12400,"station_id":"ce4bhkp2rcd13ifvqgd0","pricing_plan_id":"cebpf4jnsgd1na2vs0mg"},{"bike_id":"c396fa84-c871-4546-85c3-45e8ee86c4ed","system_id":"levelo_inurba_marseille","lat":43.29196,"lon":5.39331,"is_reserved":false,"is_disabled":false,"rental_uris":{"android":"levelo://app?vid=c396fa84-c871-4546-85c3-45e8ee86c4ed","ios":"levelo://app?vid=c396fa84-c871-4546-85c3-45e8ee86c4ed"},"vehicle_type_id":"4","last_reported":1740271895,"current_range_meters":12400,"station_id":"","pricing_plan_id":"cebpf4jnsgd1na2vs0mg"},{"bike_id":"9d0945d2-38eb-410a-a9b2-58bb6a88a0d9","system_id":"levelo_inurba_marseille","lat":43.28702,"lon":5.39988,"is_reserved":false,"is_disabled":false,"rental_uris":{"android":"levelo://app?vid=9d0945d2-38eb-410a-a9b2-58bb6a88a0d9","ios":"levelo://app?vid=9d0945d2-38eb-410a-a9b2-58bb6a88a0d9"},"vehicle_type_id":"4","last_reported":1740271895,"current_range_meters":12400,"station_id":"ce4bho92rcd13ifvqh3g","pricing_plan_id":"cebpf4jnsgd1na2vs0mg"},{"bike_id":"3c365e39-539a-46af-9911-c2f992ed555f","system_id":"levelo_inurba_marseille","lat":43.2963,"lon":5.40592,"is_reserved":false,"is_disabled":false,"rental_uris":{"android":"levelo://app?vid=3c365e39-539a-46af-9911-c2f992ed555f","ios":"levelo://app?vid=3c365e39-539a-46af-9911-c2f992ed555f"},"vehicle_type_id":"4","last_reported":1740271895,"current_range_meters":12400,"station_id":"ce4bh0h2rcd13ifvqd60","pricing_plan_id":"cebpf4jnsgd1na2vs0mg"},{"bike_id":"6cfc58a9-02b0-4986-9602-a8fc067f1c21","system_id":"levelo_inurba_marseille","lat":43.30353,"lon":5.41887,"is_reserved":false,"is_disabled":false,"rental_uris":{"android":"levelo://app?vid=6cfc58a9-02b0-4986-9602-a8fc067f1c21","ios":"levelo://app?vid=6cfc58a9-02b0-4986-9602-a8fc067f1c21"},"vehicle_type_id":"4","last_reported":1740271895,"current_range_meters":12400,"station_id":"ce4bhop2rcd13ifvqh7g","pricing_plan_id":"cebpf4jnsgd1na2vs0mg"},{"bike_id":"9b635f80-24f7-45b8-9292-74be56bcf183","system_id":"levelo_inurba_marseille","lat":43.27668,"lon":5.38926,"is_reserved":false,"is_disabled":false,"rental_uris":{"android":"levelo://app?vid=9b635f80-24f7-45b8-9292-74be56bcf183","ios":"levelo://app?vid=9b635f80-24f7-45b8-9292-74be56bcf183"},"vehicle_type_id":"4","last_reported":1740271895,"current_range_meters":12400,"station_id":"ce4bhi12rcd13ifvqfo0","pricing_plan_id":"cebpf4jnsgd1na2vs0mg"},{"bike_id":"8e403f8a-b998-4fb1-bb90-54bf70e024a5","system_id":"levelo_inurba_marseille","lat":43.26935,"lon":5.389166,"is_reserved":false,"is_disabled":false,"rental_uris":{"android":"levelo://app?vid=8e403f8a-b998-4fb1-bb90-54bf70e024a5","ios":"levelo://app?vid=8e403f8a-b998-4fb1-bb90-54bf70e024a5"},"vehicle_type_id":"4","last_reported":1740271895,"current_range_meters":12800,"station_id":"ce4bhhh2rcd13ifvqfl0","pricing_plan_id":"cebpf4jnsgd1na2vs0mg"},{"bike_id":"d5785c9b-5e24-4171-ab25-039888b91745","system_id":"levelo_inurba_marseille","lat":43.28093,"lon":5.3787,"is_reserved":false,"is_disabled":false,"rental_uris":{"android":"levelo://app?vid=d5785c9b-5e24-4171-ab25-039888b91745","ios":"levelo://app?vid=d5785c9b-5e24-4171-ab25-039888b91745"},"vehicle_type_id":"4","last_reported":1740271895,"current_range_meters":13600,"station_id":"ce4bha12rcd13ifvqee0","pricing_plan_id":"cebpf4jnsgd1na2vs0mg"},{"bike_id":"bf955d35-f5d5-4c7a-acee-2eb7e71c40f9","system_id":"levelo_inurba_marseille","lat":43.26698,"lon":5.38278,"is_reserved":false,"is_disabled":false,"rental_uris":{"android":"levelo://app?vid=bf955d35-f5d5-4c7a-acee-2eb7e71c40f9","ios":"levelo://app?vid=bf955d35-f5d5-4c7a-acee-2eb7e71c40f9"},"vehicle_type_id":"4","last_reported":1740271895,"current_range_meters":13600,"station_id":"ce4bhg92rcd13ifvqf90","pricing_plan_id":"cebpf4jnsgd1na2vs0mg"},{"bike_id":"2043b63c-86fb-4771-99cf-582d1705e048","system_id":"levelo_inurba_marseille","lat":43.26562,"lon":5.37283,"is_reserved":false,"is_disabled":false,"rental_uris":{"android":"levelo://app?vid=2043b63c-86fb-4771-99cf-582d1705e048","ios":"levelo://app?vid=2043b63c-86fb-4771-99cf-582d1705e048"},"vehicle_type_id":"4","last_reported":1740271895,"current_range_meters":13600,"station_id":"ce4bhg12rcd13ifvqf70","pricing_plan_id":"cebpf4jnsgd1na2vs0mg"},{"bike_id":"f722012e-1739-49c8-9180-9ed269051b48","system_id":"levelo_inurba_marseille","lat":43.29015,"lon":5.38128,"is_reserved":false,"is_disabled":false,"rental_uris":{"android":"levelo://app?vid=f722012e-1739-49c8-9180-9ed269051b48","ios":"levelo://app?vid=f722012e-1739-49c8-9180-9ed269051b48"},"vehicle_type_id":"4","last_reported":1740271895,"current_range_meters":13600,"station_id":"ce4bh4p2rcd13ifvqe1g","pricing_plan_id":"cebpf4jnsgd1na2vs0mg"},{"bike_id":"07e94c33-65a8-4be0-90bf-399fe126c10e","system_id":"levelo_inurba_marseille","lat":43.25028,"lon":5.38933,"is_reserved":false,"is_disabled":false,"rental_uris":{"android":"levelo://app?vid=07e94c33-65a8-4be0-90bf-399fe126c10e","ios":"levelo://app?vid=07e94c33-65a8-4be0-90bf-399fe126c10e"},"vehicle_type_id":"4","last_reported":1740271895,"current_range_meters":13600,"station_id":"ce4bhgp2rcd13ifvqfd0","pricing_plan_id":"cebpf4jnsgd1na2vs0mg"},{"bike_id":"095d5026-b6cb-411c-ab71-6c60703e2b2f","system_id":"levelo_inurba_marseille","lat":43.230556,"lon":5.354943,"is_reserved":false,"is_disabled":true,"rental_uris":{"android":"levelo://app?vid=095d5026-b6cb-411c-ab71-6c60703e2b2f","ios":"levelo://app?vid=095d5026-b6cb-411c-ab71-6c60703e2b2f"},"vehicle_type_id":"4","last_reported":1740271895,"current_range_meters":14000,"station_id":"cpo3342slgdg3j2ifvpg","pricing_plan_id":"cebpf4jnsgd1na2vs0mg"},{"bike_id":"7edad6f1-bb02-4747-8467-5494540e990b","system_id":"levelo_inurba_marseille","lat":43.25019,"lon":5.38921,"is_reserved":false,"is_disabled":false,"rental_uris":{"android":"levelo://app?vid=7edad6f1-bb02-4747-8467-5494540e990b","ios":"levelo://app?vid=7edad6f1-bb02-4747-8467-5494540e990b"},"vehicle_type_id":"4","last_reported":1740271895,"current_range_meters":14000,"station_id":"ce4bhgp2rcd13ifvqfd0","pricing_plan_id":"cebpf4jnsgd1na2vs0mg"},{"bike_id":"18cd1975-a0d8-4c4a-a2c1-27681d7705c0","system_id":"levelo_inurba_marseille","lat":43.27815,"lon":5.40692,"is_reserved":false,"is_disabled":false,"rental_uris":{"android":"levelo://app?vid=18cd1975-a0d8-4c4a-a2c1-27681d7705c0","ios":"levelo://app?vid=18cd1975-a0d8-4c4a-a2c1-27681d7705c0"},"vehicle_type_id":"4","last_reported":1740271895,"current_range_meters":14000,"station_id":"ce4bhnh2rcd13ifvqgtg","pricing_plan_id":"cebpf4jnsgd1na2vs0mg"},{"bike_id":"6e7453d3-b596-416f-a44e-21daef2820ad","system_id":"levelo_inurba_marseille","lat":43.2558,"lon":5.38217,"is_reserved":false,"is_disabled":false,"rental_uris":{"android":"levelo://app?vid=6e7453d3-b596-416f-a44e-21daef2820ad","ios":"levelo://app?vid=6e7453d3-b596-416f-a44e-21daef2820ad"},"vehicle_type_id":"4","last_reported":1740271895,"current_range_meters":14400,"station_id":"ce4bhih2rcd13ifvqfs0","pricing_plan_id":"cebpf4jnsgd1na2vs0mg"},{"bike_id":"fdbcb8e1-2e4e-454d-9bd8-1cbd05122eda","system_id":"levelo_inurba_marseille","lat":43.28454,"lon":5.3587,"is_reserved":false,"is_disabled":false,"rental_uris":{"android":"levelo://app?vid=fdbcb8e1-2e4e-454d-9bd8-1cbd05122eda","ios":"levelo://app?vid=fdbcb8e1-2e4e-454d-9bd8-1cbd05122eda"},"vehicle_type_id":"4","last_reported":1740271895,"current_range_meters":14400,"station_id":"ce4bhah2rcd13ifvqei0","pricing_plan_id":"cebpf4jnsgd1na2vs0mg"},{"bike_id":"86293d1b-93d4-40b3-96d8-d87e56d36b60","system_id":"levelo_inurba_marseille","lat":43.30965,"lon":5.39033,"is_reserved":false,"is_disabled":false,"rental_uris":{"android":"levelo://app?vid=86293d1b-93d4-40b3-96d8-d87e56d36b60","ios":"levelo://app?vid=86293d1b-93d4-40b3-96d8-d87e56d36b60"},"vehicle_type_id":"4","last_reported":1740271895,"current_range_meters":14400,"station_id":"ce4bgup2rcd13ifvqco0","pricing_plan_id":"cebpf4jnsgd1na2vs0mg"},{"bike_id":"f5043b92-9d4a-4bb2-9e78-864d7e12fcea","system_id":"levelo_inurba_marseille","lat":43.28708,"lon":5.37392,"is_reserved":false,"is_disabled":false,"rental_uris":{"android":"levelo://app?vid=f5043b92-9d4a-4bb2-9e78-864d7e12fcea","ios":"levelo://app?vid=f5043b92-9d4a-4bb2-9e78-864d7e12fcea"},"vehicle_type_id":"4","last_reported":1740271895,"current_range_meters":14400,"station_id":"ce4bh3p2rcd13ifvqdq0","pricing_plan_id":"cebpf4jnsgd1na2vs0mg"},{"bike_id":"6cee15f5-f5b0-4f78-80d2-62dd5deb5a0a","system_id":"levelo_inurba_marseille","lat":43.26555,"lon":5.39021,"is_reserved":false,"is_disabled":false,"rental_uris":{"android":"levelo://app?vid=6cee15f5-f5b0-4f78-80d2-62dd5deb5a0a","ios":"levelo://app?vid=6cee15f5-f5b0-4f78-80d2-62dd5deb5a0a"},"vehicle_type_id":"4","last_reported":1740271895,"current_range_meters":14800,"station_id":"ce4bhe12rcd13ifvqf30","pricing_plan_id":"cebpf4jnsgd1na2vs0mg"},{"bike_id":"e9e84655-f128-4a92-9255-de39e929243a","system_id":"levelo_inurba_marseille","lat":43.27974,"lon":5.38735,"is_reserved":false,"is_disabled":false,"rental_uris":{"android":"levelo://app?vid=e9e84655-f128-4a92-9255-de39e929243a","ios":"levelo://app?vid=e9e84655-f128-4a92-9255-de39e929243a"},"vehicle_type_id":"4","last_reported":1740271895,"current_range_meters":14800,"station_id":"ce4bhg12rcd13ifvqf80","pricing_plan_id":"cebpf4jnsgd1na2vs0mg"},{"bike_id":"ab7da9df-c7ed-482b-9961-43b5cca3e34b","system_id":"levelo_inurba_marseille","lat":43.31121,"lon":5.37778,"is_reserved":false,"is_disabled":true,"rental_uris":{"android":"levelo://app?vid=ab7da9df-c7ed-482b-9961-43b5cca3e34b","ios":"levelo://app?vid=ab7da9df-c7ed-482b-9961-43b5cca3e34b"},"vehicle_type_id":"4","last_reported":1740271895,"current_range_meters":14800,"station_id":"ce4bgt92rcd13ifvqcg0","pricing_plan_id":"cebpf4jnsgd1na2vs0mg"},{"bike_id":"0960003d-eea6-4d26-a89e-510626acdaa2","system_id":"levelo_inurba_marseille","lat":43.27941,"lon":5.4104,"is_reserved":false,"is_disabled":false,"rental_uris":{"android":"levelo://app?vid=0960003d-eea6-4d26-a89e-510626acdaa2","ios":"levelo://app?vid=0960003d-eea6-4d26-a89e-510626acdaa2"},"vehicle_type_id":"4","last_reported":1740271895,"current_range_meters":14800,"station_id":"ce4bhnp2rcd13ifvqh0g","pricing_plan_id":"cebpf4jnsgd1na2vs0mg"},{"bike_id":"ef3363ef-243d-4e64-9745-b3d41e1095dd","system_id":"levelo_inurba_marseille","lat":43.27815,"lon":5.40708,"is_reserved":false,"is_disabled":false,"rental_uris":{"android":"levelo://app?vid=ef3363ef-243d-4e64-9745-b3d41e1095dd","ios":"levelo://app?vid=ef3363ef-243d-4e64-9745-b3d41e1095dd"},"vehicle_type_id":"4","last_reported":1740271895,"current_range_meters":14800,"station_id":"ce4bhnh2rcd13ifvqgtg","pricing_plan_id":"cebpf4jnsgd1na2vs0mg"},{"bike_id":"d27c24ce-78c7-4f09-abf2-7ddaacddeacb","system_id":"levelo_inurba_marseille","lat":43.27058,"lon":5.40269,"is_reserved":false,"is_disabled":false,"rental_uris":{"android":"levelo://app?vid=d27c24ce-78c7-4f09-abf2-7ddaacddeacb","ios":"levelo://app?vid=d27c24ce-78c7-4f09-abf2-7ddaacddeacb"},"vehicle_type_id":"4","last_reported":1740271895,"current_range_meters":14800,"station_id":"ce4bhk92rcd13ifvqgc0","pricing_plan_id":"cebpf4jnsgd1na2vs0mg"},{"bike_id":"33cc0fcb-f6e1-44bc-9328-d3f75a5791c5","system_id":"levelo_inurba_marseille","lat":43.232,"lon":5.35561,"is_reserved":false,"is_disabled":false,"rental_uris":{"android":"levelo://app?vid=33cc0fcb-f6e1-44bc-9328-d3f75a5791c5","ios":"levelo://app?vid=33cc0fcb-f6e1-44bc-9328-d3f75a5791c5"},"vehicle_type_id":"4","last_reported":1740271895,"current_range_meters":15200,"station_id":"ce4bhu92rcd13ifvqi70","pricing_plan_id":"cebpf4jnsgd1na2vs0mg"},{"bike_id":"71ea0e24-4fe0-4cf7-b058-966698bb0042","system_id":"levelo_inurba_marseille","lat":43.25441,"lon":5.378312,"is_reserved":false,"is_disabled":false,"rental_uris":{"android":"levelo://app?vid=71ea0e24-4fe0-4cf7-b058-966698bb0042","ios":"levelo://app?vid=71ea0e24-4fe0-4cf7-b058-966698bb0042"},"vehicle_type_id":"4","last_reported":1740271895,"current_range_meters":16000,"station_id":"ce4bhg12rcd13ifvqf60","pricing_plan_id":"cebpf4jnsgd1na2vs0mg"},{"bike_id":"133eda79-8c18-4ed5-8caf-521ff4896829","system_id":"levelo_inurba_marseille","lat":43.28603,"lon":5.37063,"is_reserved":false,"is_disabled":false,"rental_uris":{"android":"levelo://app?vid=133eda79-8c18-4ed5-8caf-521ff4896829","ios":"levelo://app?vid=133eda79-8c18-4ed5-8caf-521ff4896829"},"vehicle_type_id":"4","last_reported":1740271895,"current_range_meters":16000,"station_id":"ce4bht12rcd13ifvqi60","pricing_plan_id":"cebpf4jnsgd1na2vs0mg"},{"bike_id":"80e30e07-59ff-4807-b06b-c6dc1a9e08e2","system_id":"levelo_inurba_marseille","lat":43.3363,"lon":5.40991,"is_reserved":false,"is_disabled":true,"rental_uris":{"android":"levelo://app?vid=80e30e07-59ff-4807-b06b-c6dc1a9e08e2","ios":"levelo://app?vid=80e30e07-59ff-4807-b06b-c6dc1a9e08e2"},"vehicle_type_id":"4","last_reported":1740271895,"current_range_meters":16000,"station_id":"ce4bhqh2rcd13ifvqhmg","pricing_plan_id":"cebpf4jnsgd1na2vs0mg"},{"bike_id":"e636832d-d31d-492b-9bcd-b899a106503d","system_id":"levelo_inurba_marseille","lat":43.2417,"lon":5.3639,"is_reserved":false,"is_disabled":false,"rental_uris":{"android":"levelo://app?vid=e636832d-d31d-492b-9bcd-b899a106503d","ios":"levelo://app?vid=e636832d-d31d-492b-9bcd-b899a106503d"},"vehicle_type_id":"4","last_reported":1740271895,"current_range_meters":16000,"station_id":"cpo36qri1sfpv3e86is0","pricing_plan_id":"cebpf4jnsgd1na2vs0mg"},{"bike_id":"f4fe54f8-7e2d-442b-b50c-1d0c64822e08","system_id":"levelo_inurba_marseille","lat":43.2869,"lon":5.38321,"is_reserved":false,"is_disabled":false,"rental_uris":{"android":"levelo://app?vid=f4fe54f8-7e2d-442b-b50c-1d0c64822e08","ios":"levelo://app?vid=f4fe54f8-7e2d-442b-b50c-1d0c64822e08"},"vehicle_type_id":"4","last_reported":1740271895,"current_range_meters":16000,"station_id":"","pricing_plan_id":"cebpf4jnsgd1na2vs0mg"},{"bike_id":"6e15618d-4d2d-4cdc-9d90-2b87c6806ce4","system_id":"levelo_inurba_marseille","lat":43.271995,"lon":5.410086,"is_reserved":false,"is_disabled":false,"rental_uris":{"android":"levelo://app?vid=6e15618d-4d2d-4cdc-9d90-2b87c6806ce4","ios":"levelo://app?vid=6e15618d-4d2d-4cdc-9d90-2b87c6806ce4"},"vehicle_type_id":"4","last_reported":1740271895,"current_range_meters":16000,"station_id":"ce4bgjh2rcd13ifvqbf0","pricing_plan_id":"cebpf4jnsgd1na2vs0mg"},{"bike_id":"7d4b257a-c60d-48e8-85d7-7dc3f985241e","system_id":"levelo_inurba_marseille","lat":43.29629,"lon":5.38562,"is_reserved":false,"is_disabled":false,"rental_uris":{"android":"levelo://app?vid=7d4b257a-c60d-48e8-85d7-7dc3f985241e","ios":"levelo://app?vid=7d4b257a-c60d-48e8-85d7-7dc3f985241e"},"vehicle_type_id":"4","last_reported":1740271895,"current_range_meters":16000,"station_id":"","pricing_plan_id":"cebpf4jnsgd1na2vs0mg"},{"bike_id":"a3610751-bbe4-4d3e-a717-1a0eebd2fb2a","system_id":"levelo_inurba_marseille","lat":43.306703,"lon":5.375316,"is_reserved":false,"is_disabled":false,"rental_uris":{"android":"levelo://app?vid=a3610751-bbe4-4d3e-a717-1a0eebd2fb2a","ios":"levelo://app?vid=a3610751-bbe4-4d3e-a717-1a0eebd2fb2a"},"vehicle_type_id":"4","last_reported":1740271895,"current_range_meters":16000,"station_id":"","pricing_plan_id":"cebpf4jnsgd1na2vs0mg"},{"bike_id":"de9ec628-305d-4847-8e52-87fc2b76f757","system_id":"levelo_inurba_marseille","lat":43.30204,"lon":5.3948,"is_reserved":false,"is_disabled":false,"rental_uris":{"android":"levelo://app?vid=de9ec628-305d-4847-8e52-87fc2b76f757","ios":"levelo://app?vid=de9ec628-305d-4847-8e52-87fc2b76f757"},"vehicle_type_id":"4","last_reported":1740271895,"current_range_meters":16000,"station_id":"ce4bh0p2rcd13ifvqd70","pricing_plan_id":"cebpf4jnsgd1na2vs0mg"},{"bike_id":"cff5de6c-d1d8-4938-8fd9-71c62e4771ab","system_id":"levelo_inurba_marseille","lat":43.31216,"lon":5.36875,"is_reserved":false,"is_disabled":false,"rental_uris":{"android":"levelo://app?vid=cff5de6c-d1d8-4938-8fd9-71c62e4771ab","ios":"levelo://app?vid=cff5de6c-d1d8-4938-8fd9-71c62e4771ab"},"vehicle_type_id":"4","last_reported":1740271895,"current_range_meters":16000,"station_id":"ce4bgl92rcd13ifvqbq0","pricing_plan_id":"cebpf4jnsgd1na2vs0mg"},{"bike_id":"a695eda3-8555-4ce3-85ff-990506cef133","system_id":"levelo_inurba_marseille","lat":43.28103,"lon":5.37844,"is_reserved":false,"is_disabled":false,"rental_uris":{"android":"levelo://app?vid=a695eda3-8555-4ce3-85ff-990506cef133","ios":"levelo://app?vid=a695eda3-8555-4ce3-85ff-990506cef133"},"vehicle_type_id":"4","last_reported":1740271895,"current_range_meters":16400,"station_id":"ce4bha12rcd13ifvqee0","pricing_plan_id":"cebpf4jnsgd1na2vs0mg"},{"bike_id":"4caf490d-10e5-4073-8dae-a68a285775aa","system_id":"levelo_inurba_marseille","lat":43.24375,"lon":5.37044,"is_reserved":false,"is_disabled":false,"rental_uris":{"android":"levelo://app?vid=4caf490d-10e5-4073-8dae-a68a285775aa","ios":"levelo://app?vid=4caf490d-10e5-4073-8dae-a68a285775aa"},"vehicle_type_id":"4","last_reported":1740271895,"current_range_meters":16400,"station_id":"ce4bhhh2rcd13ifvqfk0","pricing_plan_id":"cebpf4jnsgd1na2vs0mg"},{"bike_id":"3a65e98c-6fc0-442b-97a2-ccd814e231ae","system_id":"levelo_inurba_marseille","lat":43.24061,"lon":5.37766,"is_reserved":false,"is_disabled":false,"rental_uris":{"android":"levelo://app?vid=3a65e98c-6fc0-442b-97a2-ccd814e231ae","ios":"levelo://app?vid=3a65e98c-6fc0-442b-97a2-ccd814e231ae"},"vehicle_type_id":"4","last_reported":1740271895,"current_range_meters":16400,"station_id":"ce4bhnp2rcd13ifvqgvg","pricing_plan_id":"cebpf4jnsgd1na2vs0mg"},{"bike_id":"855caca9-cd59-4c97-ad51-a64e28ee341f","system_id":"levelo_inurba_marseille","lat":43.30875,"lon":5.39655,"is_reserved":false,"is_disabled":true,"rental_uris":{"android":"levelo://app?vid=855caca9-cd59-4c97-ad51-a64e28ee341f","ios":"levelo://app?vid=855caca9-cd59-4c97-ad51-a64e28ee341f"},"vehicle_type_id":"4","last_reported":1740271895,"current_range_meters":16400,"station_id":"ce4bh012rcd13ifvqcv0","pricing_plan_id":"cebpf4jnsgd1na2vs0mg"},{"bike_id":"4bf95473-2b8f-4dfa-85d3-1f987c13c8a4","system_id":"levelo_inurba_marseille","lat":43.30361,"lon":5.41873,"is_reserved":false,"is_disabled":false,"rental_uris":{"android":"levelo://app?vid=4bf95473-2b8f-4dfa-85d3-1f987c13c8a4","ios":"levelo://app?vid=4bf95473-2b8f-4dfa-85d3-1f987c13c8a4"},"vehicle_type_id":"4","last_reported":1740271895,"current_range_meters":16400,"station_id":"ce4bhop2rcd13ifvqh7g","pricing_plan_id":"cebpf4jnsgd1na2vs0mg"},{"bike_id":"7330758a-b186-4c5c-af68-65980e50c2ac","system_id":"levelo_inurba_marseille","lat":43.2803,"lon":5.36952,"is_reserved":false,"is_disabled":false,"rental_uris":{"android":"levelo://app?vid=7330758a-b186-4c5c-af68-65980e50c2ac","ios":"levelo://app?vid=7330758a-b186-4c5c-af68-65980e50c2ac"},"vehicle_type_id":"4","last_reported":1740271895,"current_range_meters":16400,"station_id":"ce4bha12rcd13ifvqef0","pricing_plan_id":"cebpf4jnsgd1na2vs0mg"},{"bike_id":"9fdc5228-e835-4793-ad30-e5834cfd975b","system_id":"levelo_inurba_marseille","lat":43.25851,"lon":5.39917,"is_reserved":false,"is_disabled":false,"rental_uris":{"android":"levelo://app?vid=9fdc5228-e835-4793-ad30-e5834cfd975b","ios":"levelo://app?vid=9fdc5228-e835-4793-ad30-e5834cfd975b"},"vehicle_type_id":"4","last_reported":1740271895,"current_range_meters":16400,"station_id":"ce4bhl92rcd13ifvqghg","pricing_plan_id":"cebpf4jnsgd1na2vs0mg"},{"bike_id":"b935ebb4-5af5-4ed7-bd99-8d9c48d9f266","system_id":"levelo_inurba_marseille","lat":43.3141,"lon":5.36665,"is_reserved":false,"is_disabled":false,"rental_uris":{"android":"levelo://app?vid=b935ebb4-5af5-4ed7-bd99-8d9c48d9f266","ios":"levelo://app?vid=b935ebb4-5af5-4ed7-bd99-8d9c48d9f266"},"vehicle_type_id":"4","last_reported":1740271895,"current_range_meters":16800,"station_id":"","pricing_plan_id":"cebpf4jnsgd1na2vs0mg"},{"bike_id":"8a35fb25-95ae-4aeb-919d-551b72325d65","system_id":"levelo_inurba_marseille","lat":43.276215,"lon":5.361046,"is_reserved":false,"is_disabled":false,"rental_uris":{"android":"levelo://app?vid=8a35fb25-95ae-4aeb-919d-551b72325d65","ios":"levelo://app?vid=8a35fb25-95ae-4aeb-919d-551b72325d65"},"vehicle_type_id":"4","last_reported":1740271895,"current_range_meters":16800,"station_id":"ce4bh2h2rcd13ifvqdh0","pricing_plan_id":"cebpf4jnsgd1na2vs0mg"},{"bike_id":"0e17628e-77f1-4b2d-9900-e51a8c9f0181","system_id":"levelo_inurba_marseille","lat":43.28875,"lon":5.44978,"is_reserved":false,"is_disabled":false,"rental_uris":{"android":"levelo://app?vid=0e17628e-77f1-4b2d-9900-e51a8c9f0181","ios":"levelo://app?vid=0e17628e-77f1-4b2d-9900-e51a8c9f0181"},"vehicle_type_id":"4","last_reported":1740271895,"current_range_meters":16800,"station_id":"","pricing_plan_id":"cebpf4jnsgd1na2vs0mg"},{"bike_id":"be3828a1-b36a-4668-acc5-bef44c90048a","system_id":"levelo_inurba_marseille","lat":43.29991,"lon":5.37182,"is_reserved":false,"is_disabled":false,"rental_uris":{"android":"levelo://app?vid=be3828a1-b36a-4668-acc5-bef44c90048a","ios":"levelo://app?vid=be3828a1-b36a-4668-acc5-bef44c90048a"},"vehicle_type_id":"4","last_reported":1740271895,"current_range_meters":16800,"station_id":"ce4bgr92rcd13ifvqc7g","pricing_plan_id":"cebpf4jnsgd1na2vs0mg"},{"bike_id":"2bdc35be-c87d-4858-a812-b27d436edeb5","system_id":"levelo_inurba_marseille","lat":43.28244,"lon":5.3509,"is_reserved":false,"is_disabled":false,"rental_uris":{"android":"levelo://app?vid=2bdc35be-c87d-4858-a812-b27d436edeb5","ios":"levelo://app?vid=2bdc35be-c87d-4858-a812-b27d436edeb5"},"vehicle_type_id":"4","last_reported":1740271895,"current_range_meters":16800,"station_id":"ce4bhbp2rcd13ifvqerg","pricing_plan_id":"cebpf4jnsgd1na2vs0mg"},{"bike_id":"35f7fe5f-b05d-405c-a155-dda0758733e2","system_id":"levelo_inurba_marseille","lat":43.28152,"lon":5.42602,"is_reserved":false,"is_disabled":true,"rental_uris":{"android":"levelo://app?vid=35f7fe5f-b05d-405c-a155-dda0758733e2","ios":"levelo://app?vid=35f7fe5f-b05d-405c-a155-dda0758733e2"},"vehicle_type_id":"4","last_reported":1740271895,"current_range_meters":16800,"station_id":"ce4bhnh2rcd13ifvqgug","pricing_plan_id":"cebpf4jnsgd1na2vs0mg"},{"bike_id":"8fc31c78-c8e6-4958-93e7-cd72d5cbd989","system_id":"levelo_inurba_marseille","lat":43.31308,"lon":5.39692,"is_reserved":false,"is_disabled":false,"rental_uris":{"android":"levelo://app?vid=8fc31c78-c8e6-4958-93e7-cd72d5cbd989","ios":"levelo://app?vid=8fc31c78-c8e6-4958-93e7-cd72d5cbd989"},"vehicle_type_id":"4","last_reported":1740271895,"current_range_meters":16800,"station_id":"ce4bgvp2rcd13ifvqcu0","pricing_plan_id":"cebpf4jnsgd1na2vs0mg"},{"bike_id":"24371844-0388-4325-bd72-54e6291e85e8","system_id":"levelo_inurba_marseille","lat":43.27643,"lon":5.36124,"is_reserved":false,"is_disabled":false,"rental_uris":{"android":"levelo://app?vid=24371844-0388-4325-bd72-54e6291e85e8","ios":"levelo://app?vid=24371844-0388-4325-bd72-54e6291e85e8"},"vehicle_type_id":"4","last_reported":1740271895,"current_range_meters":16800,"station_id":"ce4bgj92rcd13ifvqbe0","pricing_plan_id":"cebpf4jnsgd1na2vs0mg"},{"bike_id":"e501be99-a171-4e91-9e5b-ac547e4c06f2","system_id":"levelo_inurba_marseille","lat":43.232,"lon":5.35559,"is_reserved":false,"is_disabled":false,"rental_uris":{"android":"levelo://app?vid=e501be99-a171-4e91-9e5b-ac547e4c06f2","ios":"levelo://app?vid=e501be99-a171-4e91-9e5b-ac547e4c06f2"},"vehicle_type_id":"4","last_reported":1740271895,"current_range_meters":16800,"station_id":"ce4bhu92rcd13ifvqi70","pricing_plan_id":"cebpf4jnsgd1na2vs0mg"},{"bike_id":"32f327f9-b577-4c3c-a746-3092ee67a262","system_id":"levelo_inurba_marseille","lat":43.29225,"lon":5.3607,"is_reserved":false,"is_disabled":false,"rental_uris":{"android":"levelo://app?vid=32f327f9-b577-4c3c-a746-3092ee67a262","ios":"levelo://app?vid=32f327f9-b577-4c3c-a746-3092ee67a262"},"vehicle_type_id":"4","last_reported":1740271895,"current_range_meters":17200,"station_id":"ce4bhbh2rcd13ifvqeqg","pricing_plan_id":"cebpf4jnsgd1na2vs0mg"},{"bike_id":"94d81672-f077-455d-ad5d-d4332136c2a8","system_id":"levelo_inurba_marseille","lat":43.22938,"lon":5.35434,"is_reserved":false,"is_disabled":false,"rental_uris":{"android":"levelo://app?vid=94d81672-f077-455d-ad5d-d4332136c2a8","ios":"levelo://app?vid=94d81672-f077-455d-ad5d-d4332136c2a8"},"vehicle_type_id":"4","last_reported":1740271895,"current_range_meters":17200,"station_id":"cpo3532slgdg3j2ikp40","pricing_plan_id":"cebpf4jnsgd1na2vs0mg"},{"bike_id":"9faf844a-413f-419f-bdea-64830f7f2bfb","system_id":"levelo_inurba_marseille","lat":43.2994,"lon":5.37857,"is_reserved":false,"is_disabled":false,"rental_uris":{"android":"levelo://app?vid=9faf844a-413f-419f-bdea-64830f7f2bfb","ios":"levelo://app?vid=9faf844a-413f-419f-bdea-64830f7f2bfb"},"vehicle_type_id":"4","last_reported":1740271895,"current_range_meters":17200,"station_id":"","pricing_plan_id":"cebpf4jnsgd1na2vs0mg"},{"bike_id":"d11f8e8f-64ba-4e30-9bb1-e71abe31654c","system_id":"levelo_inurba_marseille","lat":43.30312,"lon":5.36897,"is_reserved":false,"is_disabled":false,"rental_uris":{"android":"levelo://app?vid=d11f8e8f-64ba-4e30-9bb1-e71abe31654c","ios":"levelo://app?vid=d11f8e8f-64ba-4e30-9bb1-e71abe31654c"},"vehicle_type_id":"4","last_reported":1740271895,"current_range_meters":17200,"station_id":"ce4bgqh2rcd13ifvqc5g","pricing_plan_id":"cebpf4jnsgd1na2vs0mg"},{"bike_id":"85b5bbcd-7da2-4232-8e5a-a25680dad453","system_id":"levelo_inurba_marseille","lat":43.23951,"lon":5.36644,"is_reserved":false,"is_disabled":false,"rental_uris":{"android":"levelo://app?vid=85b5bbcd-7da2-4232-8e5a-a25680dad453","ios":"levelo://app?vid=85b5bbcd-7da2-4232-8e5a-a25680dad453"},"vehicle_type_id":"4","last_reported":1740271895,"current_range_meters":17200,"station_id":"ce4bhi12rcd13ifvqfp0","pricing_plan_id":"cebpf4jnsgd1na2vs0mg"},{"bike_id":"7e68d2dc-c00f-4e58-8247-38224da8b835","system_id":"levelo_inurba_marseille","lat":43.23109,"lon":5.43708,"is_reserved":false,"is_disabled":false,"rental_uris":{"android":"levelo://app?vid=7e68d2dc-c00f-4e58-8247-38224da8b835","ios":"levelo://app?vid=7e68d2dc-c00f-4e58-8247-38224da8b835"},"vehicle_type_id":"4","last_reported":1740271895,"current_range_meters":17200,"station_id":"ce4bhmp2rcd13ifvqgog","pricing_plan_id":"cebpf4jnsgd1na2vs0mg"},{"bike_id":"6d7d234d-cc63-4c93-a437-cbbae2704dad","system_id":"levelo_inurba_marseille","lat":43.31231,"lon":5.36865,"is_reserved":false,"is_disabled":false,"rental_uris":{"android":"levelo://app?vid=6d7d234d-cc63-4c93-a437-cbbae2704dad","ios":"levelo://app?vid=6d7d234d-cc63-4c93-a437-cbbae2704dad"},"vehicle_type_id":"4","last_reported":1740271895,"current_range_meters":17200,"station_id":"ce4bgl92rcd13ifvqbq0","pricing_plan_id":"cebpf4jnsgd1na2vs0mg"},{"bike_id":"47c58b1f-0f04-4a95-ba73-4d794abee5f2","system_id":"levelo_inurba_marseille","lat":43.30454,"lon":5.38909,"is_reserved":false,"is_disabled":true,"rental_uris":{"android":"levelo://app?vid=47c58b1f-0f04-4a95-ba73-4d794abee5f2","ios":"levelo://app?vid=47c58b1f-0f04-4a95-ba73-4d794abee5f2"},"vehicle_type_id":"4","last_reported":1740271895,"current_range_meters":17600,"station_id":"ce4bgk12rcd13ifvqbi0","pricing_plan_id":"cebpf4jnsgd1na2vs0mg"},{"bike_id":"4fd90cf5-0719-47d5-a493-0ca6596204e5","system_id":"levelo_inurba_marseille","lat":43.27984,"lon":5.4168,"is_reserved":false,"is_disabled":false,"rental_uris":{"android":"levelo://app?vid=4fd90cf5-0719-47d5-a493-0ca6596204e5","ios":"levelo://app?vid=4fd90cf5-0719-47d5-a493-0ca6596204e5"},"vehicle_type_id":"4","last_reported":1740271895,"current_range_meters":17600,"station_id":"ce4bho12rcd13ifvqh1g","pricing_plan_id":"cebpf4jnsgd1na2vs0mg"},{"bike_id":"fea78874-3733-4df0-874f-aa7d40e872c3","system_id":"levelo_inurba_marseille","lat":43.30953,"lon":5.39035,"is_reserved":false,"is_disabled":false,"rental_uris":{"android":"levelo://app?vid=fea78874-3733-4df0-874f-aa7d40e872c3","ios":"levelo://app?vid=fea78874-3733-4df0-874f-aa7d40e872c3"},"vehicle_type_id":"4","last_reported":1740271895,"current_range_meters":17600,"station_id":"ce4bgup2rcd13ifvqco0","pricing_plan_id":"cebpf4jnsgd1na2vs0mg"},{"bike_id":"faeb2e28-4e2f-4cbb-aea8-2733d5daab0d","system_id":"levelo_inurba_marseille","lat":43.28708,"lon":5.37386,"is_reserved":false,"is_disabled":false,"rental_uris":{"android":"levelo://app?vid=faeb2e28-4e2f-4cbb-aea8-2733d5daab0d","ios":"levelo://app?vid=faeb2e28-4e2f-4cbb-aea8-2733d5daab0d"},"vehicle_type_id":"4","last_reported":1740271895,"current_range_meters":17600,"station_id":"ce4bh3p2rcd13ifvqdq0","pricing_plan_id":"cebpf4jnsgd1na2vs0mg"},{"bike_id":"e0eaa8ed-822d-43b8-9829-b90003beb400","system_id":"levelo_inurba_marseille","lat":43.24075,"lon":5.37758,"is_reserved":false,"is_disabled":false,"rental_uris":{"android":"levelo://app?vid=e0eaa8ed-822d-43b8-9829-b90003beb400","ios":"levelo://app?vid=e0eaa8ed-822d-43b8-9829-b90003beb400"},"vehicle_type_id":"4","last_reported":1740271895,"current_range_meters":17600,"station_id":"ce4bhnp2rcd13ifvqgvg","pricing_plan_id":"cebpf4jnsgd1na2vs0mg"},{"bike_id":"391f162b-99de-4179-b8aa-3ffcc41a6126","system_id":"levelo_inurba_marseille","lat":43.27815,"lon":5.40714,"is_reserved":false,"is_disabled":false,"rental_uris":{"android":"levelo://app?vid=391f162b-99de-4179-b8aa-3ffcc41a6126","ios":"levelo://app?vid=391f162b-99de-4179-b8aa-3ffcc41a6126"},"vehicle_type_id":"4","last_reported":1740271895,"current_range_meters":18000,"station_id":"ce4bhnh2rcd13ifvqgtg","pricing_plan_id":"cebpf4jnsgd1na2vs0mg"},{"bike_id":"e8cfa923-e620-4e13-b5ef-9869f485a1f8","system_id":"levelo_inurba_marseille","lat":43.30948,"lon":5.39047,"is_reserved":false,"is_disabled":false,"rental_uris":{"android":"levelo://app?vid=e8cfa923-e620-4e13-b5ef-9869f485a1f8","ios":"levelo://app?vid=e8cfa923-e620-4e13-b5ef-9869f485a1f8"},"vehicle_type_id":"4","last_reported":1740271895,"current_range_meters":18000,"station_id":"ce4bgup2rcd13ifvqco0","pricing_plan_id":"cebpf4jnsgd1na2vs0mg"},{"bike_id":"7d7f1242-da83-4a5d-99d6-3b5ee2b1158d","system_id":"levelo_inurba_marseille","lat":43.30603,"lon":5.37225,"is_reserved":false,"is_disabled":false,"rental_uris":{"android":"levelo://app?vid=7d7f1242-da83-4a5d-99d6-3b5ee2b1158d","ios":"levelo://app?vid=7d7f1242-da83-4a5d-99d6-3b5ee2b1158d"},"vehicle_type_id":"4","last_reported":1740271895,"current_range_meters":18000,"station_id":"ce4bgqh2rcd13ifvqc4g","pricing_plan_id":"cebpf4jnsgd1na2vs0mg"},{"bike_id":"e672cd00-72b0-400a-8535-9ab04e4611c6","system_id":"levelo_inurba_marseille","lat":43.244,"lon":5.37076,"is_reserved":false,"is_disabled":false,"rental_uris":{"android":"levelo://app?vid=e672cd00-72b0-400a-8535-9ab04e4611c6","ios":"levelo://app?vid=e672cd00-72b0-400a-8535-9ab04e4611c6"},"vehicle_type_id":"4","last_reported":1740271895,"current_range_meters":18000,"station_id":"ce4bhhh2rcd13ifvqfk0","pricing_plan_id":"cebpf4jnsgd1na2vs0mg"},{"bike_id":"363f0669-564f-4e66-9a10-8ae097530bbe","system_id":"levelo_inurba_marseille","lat":43.29554,"lon":5.42298,"is_reserved":false,"is_disabled":false,"rental_uris":{"android":"levelo://app?vid=363f0669-564f-4e66-9a10-8ae097530bbe","ios":"levelo://app?vid=363f0669-564f-4e66-9a10-8ae097530bbe"},"vehicle_type_id":"4","last_reported":1740271895,"current_range_meters":18000,"station_id":"ce4bhph2rcd13ifvqhdg","pricing_plan_id":"cebpf4jnsgd1na2vs0mg"},{"bike_id":"72286043-07e3-456e-9252-7f50bc355704","system_id":"levelo_inurba_marseille","lat":43.25123,"lon":5.40309,"is_reserved":false,"is_disabled":false,"rental_uris":{"android":"levelo://app?vid=72286043-07e3-456e-9252-7f50bc355704","ios":"levelo://app?vid=72286043-07e3-456e-9252-7f50bc355704"},"vehicle_type_id":"4","last_reported":1740271895,"current_range_meters":18000,"station_id":"ce4bhlh2rcd13ifvqgig","pricing_plan_id":"cebpf4jnsgd1na2vs0mg"},{"bike_id":"7540bb76-9c83-4856-b875-c71e42b1428c","system_id":"levelo_inurba_marseille","lat":43.29706,"lon":5.36639,"is_reserved":false,"is_disabled":false,"rental_uris":{"android":"levelo://app?vid=7540bb76-9c83-4856-b875-c71e42b1428c","ios":"levelo://app?vid=7540bb76-9c83-4856-b875-c71e42b1428c"},"vehicle_type_id":"4","last_reported":1740271895,"current_range_meters":18000,"station_id":"ce4bgn12rcd13ifvqbt0","pricing_plan_id":"cebpf4jnsgd1na2vs0mg"},{"bike_id":"bce8ff4e-7e32-4ed9-90a6-bb011609363d","system_id":"levelo_inurba_marseille","lat":43.2809,"lon":5.37848,"is_reserved":false,"is_disabled":false,"rental_uris":{"android":"levelo://app?vid=bce8ff4e-7e32-4ed9-90a6-bb011609363d","ios":"levelo://app?vid=bce8ff4e-7e32-4ed9-90a6-bb011609363d"},"vehicle_type_id":"4","last_reported":1740271895,"current_range_meters":18800,"station_id":"ce4bha12rcd13ifvqee0","pricing_plan_id":"cebpf4jnsgd1na2vs0mg"},{"bike_id":"6866b5d5-41bf-40cc-8ac4-3a3c24f2b178","system_id":"levelo_inurba_marseille","lat":43.28733,"lon":5.37929,"is_reserved":false,"is_disabled":false,"rental_uris":{"android":"levelo://app?vid=6866b5d5-41bf-40cc-8ac4-3a3c24f2b178","ios":"levelo://app?vid=6866b5d5-41bf-40cc-8ac4-3a3c24f2b178"},"vehicle_type_id":"4","last_reported":1740271895,"current_range_meters":18800,"station_id":"ce4bh9p2rcd13ifvqec0","pricing_plan_id":"cebpf4jnsgd1na2vs0mg"},{"bike_id":"592492f6-aa56-43ac-bc32-ab8897d7e571","system_id":"levelo_inurba_marseille","lat":43.31219,"lon":5.36863,"is_reserved":false,"is_disabled":false,"rental_uris":{"android":"levelo://app?vid=592492f6-aa56-43ac-bc32-ab8897d7e571","ios":"levelo://app?vid=592492f6-aa56-43ac-bc32-ab8897d7e571"},"vehicle_type_id":"4","last_reported":1740271895,"current_range_meters":18800,"station_id":"ce4bgl92rcd13ifvqbq0","pricing_plan_id":"cebpf4jnsgd1na2vs0mg"},{"bike_id":"04d2baed-6020-49da-a94e-5cd3cc1cd370","system_id":"levelo_inurba_marseille","lat":43.25835,"lon":5.39419,"is_reserved":false,"is_disabled":false,"rental_uris":{"android":"levelo://app?vid=04d2baed-6020-49da-a94e-5cd3cc1cd370","ios":"levelo://app?vid=04d2baed-6020-49da-a94e-5cd3cc1cd370"},"vehicle_type_id":"4","last_reported":1740271895,"current_range_meters":18800,"station_id":"ce4bhip2rcd13ifvqft0","pricing_plan_id":"cebpf4jnsgd1na2vs0mg"},{"bike_id":"86fa219d-c746-4562-8c07-640b3df1911d","system_id":"levelo_inurba_marseille","lat":43.31245,"lon":5.36873,"is_reserved":false,"is_disabled":false,"rental_uris":{"android":"levelo://app?vid=86fa219d-c746-4562-8c07-640b3df1911d","ios":"levelo://app?vid=86fa219d-c746-4562-8c07-640b3df1911d"},"vehicle_type_id":"4","last_reported":1740271895,"current_range_meters":18800,"station_id":"ce4bgl92rcd13ifvqbq0","pricing_plan_id":"cebpf4jnsgd1na2vs0mg"},{"bike_id":"e45ca616-119b-4eca-990b-2198f0690a4c","system_id":"levelo_inurba_marseille","lat":43.28413,"lon":5.37506,"is_reserved":false,"is_disabled":false,"rental_uris":{"android":"levelo://app?vid=e45ca616-119b-4eca-990b-2198f0690a4c","ios":"levelo://app?vid=e45ca616-119b-4eca-990b-2198f0690a4c"},"vehicle_type_id":"4","last_reported":1740271895,"current_range_meters":18800,"station_id":"ce4bh412rcd13ifvqds0","pricing_plan_id":"cebpf4jnsgd1na2vs0mg"},{"bike_id":"68c1cb49-7da1-4934-a025-4e78e338d091","system_id":"levelo_inurba_marseille","lat":43.337638,"lon":5.374412,"is_reserved":false,"is_disabled":false,"rental_uris":{"android":"levelo://app?vid=68c1cb49-7da1-4934-a025-4e78e338d091","ios":"levelo://app?vid=68c1cb49-7da1-4934-a025-4e78e338d091"},"vehicle_type_id":"4","last_reported":1740271895,"current_range_meters":18800,"station_id":"","pricing_plan_id":"cebpf4jnsgd1na2vs0mg"},{"bike_id":"ac4aa88a-447c-4d16-b97d-644ae2566d1f","system_id":"levelo_inurba_marseille","lat":43.30562,"lon":5.3653,"is_reserved":false,"is_disabled":false,"rental_uris":{"android":"levelo://app?vid=ac4aa88a-447c-4d16-b97d-644ae2566d1f","ios":"levelo://app?vid=ac4aa88a-447c-4d16-b97d-644ae2566d1f"},"vehicle_type_id":"4","last_reported":1740271895,"current_range_meters":18800,"station_id":"ce4bgs12rcd13ifvqcag","pricing_plan_id":"cebpf4jnsgd1na2vs0mg"},{"bike_id":"fc93a0cd-d658-4fe7-9e6a-52a49333f268","system_id":"levelo_inurba_marseille","lat":43.308259,"lon":5.381906,"is_reserved":false,"is_disabled":false,"rental_uris":{"android":"levelo://app?vid=fc93a0cd-d658-4fe7-9e6a-52a49333f268","ios":"levelo://app?vid=fc93a0cd-d658-4fe7-9e6a-52a49333f268"},"vehicle_type_id":"4","last_reported":1740271895,"current_range_meters":18800,"station_id":"ce4bgt12rcd13ifvqce0","pricing_plan_id":"cebpf4jnsgd1na2vs0mg"},{"bike_id":"93fdfdf1-b786-4b32-bcc1-ecfe37b984d0","system_id":"levelo_inurba_marseille","lat":43.30411,"lon":5.4128,"is_reserved":false,"is_disabled":false,"rental_uris":{"android":"levelo://app?vid=93fdfdf1-b786-4b32-bcc1-ecfe37b984d0","ios":"levelo://app?vid=93fdfdf1-b786-4b32-bcc1-ecfe37b984d0"},"vehicle_type_id":"4","last_reported":1740271895,"current_range_meters":19200,"station_id":"ce4bhop2rcd13ifvqh8g","pricing_plan_id":"cebpf4jnsgd1na2vs0mg"},{"bike_id":"0ab8f8c4-7aa8-4128-a2cd-ff233900785f","system_id":"levelo_inurba_marseille","lat":43.30549,"lon":5.37155,"is_reserved":false,"is_disabled":false,"rental_uris":{"android":"levelo://app?vid=0ab8f8c4-7aa8-4128-a2cd-ff233900785f","ios":"levelo://app?vid=0ab8f8c4-7aa8-4128-a2cd-ff233900785f"},"vehicle_type_id":"4","last_reported":1740271895,"current_range_meters":19200,"station_id":"ce4bgqh2rcd13ifvqc4g","pricing_plan_id":"cebpf4jnsgd1na2vs0mg"},{"bike_id":"51c7c09f-82e9-4a4b-a201-54869c0fba8f","system_id":"levelo_inurba_marseille","lat":43.25096,"lon":5.39518,"is_reserved":false,"is_disabled":true,"rental_uris":{"android":"levelo://app?vid=51c7c09f-82e9-4a4b-a201-54869c0fba8f","ios":"levelo://app?vid=51c7c09f-82e9-4a4b-a201-54869c0fba8f"},"vehicle_type_id":"4","last_reported":1740271895,"current_range_meters":19200,"station_id":"ce4bhm12rcd13ifvqgkg","pricing_plan_id":"cebpf4jnsgd1na2vs0mg"},{"bike_id":"8e5d8ee8-3ab6-431c-8183-aaf067d6c91b","system_id":"levelo_inurba_marseille","lat":43.25012,"lon":5.38919,"is_reserved":false,"is_disabled":false,"rental_uris":{"android":"levelo://app?vid=8e5d8ee8-3ab6-431c-8183-aaf067d6c91b","ios":"levelo://app?vid=8e5d8ee8-3ab6-431c-8183-aaf067d6c91b"},"vehicle_type_id":"4","last_reported":1740271895,"current_range_meters":19200,"station_id":"ce4bhgp2rcd13ifvqfd0","pricing_plan_id":"cebpf4jnsgd1na2vs0mg"},{"bike_id":"87c93845-143c-4613-9a0d-08836448a26d","system_id":"levelo_inurba_marseille","lat":43.23959,"lon":5.36618,"is_reserved":false,"is_disabled":false,"rental_uris":{"android":"levelo://app?vid=87c93845-143c-4613-9a0d-08836448a26d","ios":"levelo://app?vid=87c93845-143c-4613-9a0d-08836448a26d"},"vehicle_type_id":"4","last_reported":1740271895,"current_range_meters":19200,"station_id":"ce4bhi12rcd13ifvqfp0","pricing_plan_id":"cebpf4jnsgd1na2vs0mg"},{"bike_id":"1f724299-518e-43e9-b32e-7282b81b7214","system_id":"levelo_inurba_marseille","lat":43.25926,"lon":5.40871,"is_reserved":false,"is_disabled":false,"rental_uris":{"android":"levelo://app?vid=1f724299-518e-43e9-b32e-7282b81b7214","ios":"levelo://app?vid=1f724299-518e-43e9-b32e-7282b81b7214"},"vehicle_type_id":"4","last_reported":1740271895,"current_range_meters":19200,"station_id":"ce4bhm92rcd13ifvqglg","pricing_plan_id":"cebpf4jnsgd1na2vs0mg"},{"bike_id":"10ef97ed-34d8-4649-924a-f68e48b166be","system_id":"levelo_inurba_marseille","lat":43.26226,"lon":5.40468,"is_reserved":false,"is_disabled":false,"rental_uris":{"android":"levelo://app?vid=10ef97ed-34d8-4649-924a-f68e48b166be","ios":"levelo://app?vid=10ef97ed-34d8-4649-924a-f68e48b166be"},"vehicle_type_id":"4","last_reported":1740271895,"current_range_meters":19200,"station_id":"ce4bhmh2rcd13ifvqgmg","pricing_plan_id":"cebpf4jnsgd1na2vs0mg"},{"bike_id":"9d7c969d-ee67-4fd6-9d50-a91ee3e019cb","system_id":"levelo_inurba_marseille","lat":43.23186,"lon":5.39992,"is_reserved":false,"is_disabled":false,"rental_uris":{"android":"levelo://app?vid=9d7c969d-ee67-4fd6-9d50-a91ee3e019cb","ios":"levelo://app?vid=9d7c969d-ee67-4fd6-9d50-a91ee3e019cb"},"vehicle_type_id":"4","last_reported":1740271895,"current_range_meters":19600,"station_id":"ce4bhn12rcd13ifvqgqg","pricing_plan_id":"cebpf4jnsgd1na2vs0mg"},{"bike_id":"c3b8410f-ad26-42cd-a750-eba90a7511c7","system_id":"levelo_inurba_marseille","lat":43.3122,"lon":5.36866,"is_reserved":false,"is_disabled":false,"rental_uris":{"android":"levelo://app?vid=c3b8410f-ad26-42cd-a750-eba90a7511c7","ios":"levelo://app?vid=c3b8410f-ad26-42cd-a750-eba90a7511c7"},"vehicle_type_id":"4","last_reported":1740271895,"current_range_meters":19600,"station_id":"ce4bgl92rcd13ifvqbq0","pricing_plan_id":"cebpf4jnsgd1na2vs0mg"},{"bike_id":"d1eba90c-d4c6-4023-8346-355d67474153","system_id":"levelo_inurba_marseille","lat":43.290304,"lon":5.375524,"is_reserved":false,"is_disabled":false,"rental_uris":{"android":"levelo://app?vid=d1eba90c-d4c6-4023-8346-355d67474153","ios":"levelo://app?vid=d1eba90c-d4c6-4023-8346-355d67474153"},"vehicle_type_id":"4","last_reported":1740271895,"current_range_meters":19600,"station_id":"ce4bh692rcd13ifvqe90","pricing_plan_id":"cebpf4jnsgd1na2vs0mg"},{"bike_id":"dfd73891-7692-4880-af8b-db2b9051ddf4","system_id":"levelo_inurba_marseille","lat":43.30872,"lon":5.39656,"is_reserved":false,"is_disabled":false,"rental_uris":{"android":"levelo://app?vid=dfd73891-7692-4880-af8b-db2b9051ddf4","ios":"levelo://app?vid=dfd73891-7692-4880-af8b-db2b9051ddf4"},"vehicle_type_id":"4","last_reported":1740271895,"current_range_meters":19600,"station_id":"ce4bh012rcd13ifvqcv0","pricing_plan_id":"cebpf4jnsgd1na2vs0mg"},{"bike_id":"ee82f77f-f9d3-4009-b8ec-39bce07c2f58","system_id":"levelo_inurba_marseille","lat":43.27494,"lon":5.42476,"is_reserved":false,"is_disabled":false,"rental_uris":{"android":"levelo://app?vid=ee82f77f-f9d3-4009-b8ec-39bce07c2f58","ios":"levelo://app?vid=ee82f77f-f9d3-4009-b8ec-39bce07c2f58"},"vehicle_type_id":"4","last_reported":1740271895,"current_range_meters":19600,"station_id":"ce4bhn92rcd13ifvqgrg","pricing_plan_id":"cebpf4jnsgd1na2vs0mg"},{"bike_id":"980588cb-aa59-436a-9bc0-01f90b14b9b4","system_id":"levelo_inurba_marseille","lat":43.24158,"lon":5.36401,"is_reserved":false,"is_disabled":false,"rental_uris":{"android":"levelo://app?vid=980588cb-aa59-436a-9bc0-01f90b14b9b4","ios":"levelo://app?vid=980588cb-aa59-436a-9bc0-01f90b14b9b4"},"vehicle_type_id":"4","last_reported":1740271895,"current_range_meters":20000,"station_id":"cpo36qri1sfpv3e86is0","pricing_plan_id":"cebpf4jnsgd1na2vs0mg"},{"bike_id":"93d7ddf0-f756-4a6d-9a46-e27158768e77","system_id":"levelo_inurba_marseille","lat":43.30903,"lon":5.36859,"is_reserved":false,"is_disabled":false,"rental_uris":{"android":"levelo://app?vid=93d7ddf0-f756-4a6d-9a46-e27158768e77","ios":"levelo://app?vid=93d7ddf0-f756-4a6d-9a46-e27158768e77"},"vehicle_type_id":"4","last_reported":1740271895,"current_range_meters":19600,"station_id":"ce4bgn92rcd13ifvqbvg","pricing_plan_id":"cebpf4jnsgd1na2vs0mg"},{"bike_id":"b3a62955-8f81-4b82-bacf-cd1ac5807c40","system_id":"levelo_inurba_marseille","lat":43.28738,"lon":5.36074,"is_reserved":false,"is_disabled":false,"rental_uris":{"android":"levelo://app?vid=b3a62955-8f81-4b82-bacf-cd1ac5807c40","ios":"levelo://app?vid=b3a62955-8f81-4b82-bacf-cd1ac5807c40"},"vehicle_type_id":"4","last_reported":1740271895,"current_range_meters":20000,"station_id":"cki0cbj6b192h4jlfktg","pricing_plan_id":"cebpf4jnsgd1na2vs0mg"},{"bike_id":"7fe0996e-2e24-4a3a-b975-03a2a20f6506","system_id":"levelo_inurba_marseille","lat":43.32366,"lon":5.3676,"is_reserved":false,"is_disabled":false,"rental_uris":{"android":"levelo://app?vid=7fe0996e-2e24-4a3a-b975-03a2a20f6506","ios":"levelo://app?vid=7fe0996e-2e24-4a3a-b975-03a2a20f6506"},"vehicle_type_id":"4","last_reported":1740271895,"current_range_meters":20000,"station_id":"ce4bhsh2rcd13ifvqi2g","pricing_plan_id":"cebpf4jnsgd1na2vs0mg"},{"bike_id":"7a4fddc5-3a27-4dda-9bbf-9e9908f2cdee","system_id":"levelo_inurba_marseille","lat":43.28692,"lon":5.37395,"is_reserved":false,"is_disabled":false,"rental_uris":{"android":"levelo://app?vid=7a4fddc5-3a27-4dda-9bbf-9e9908f2cdee","ios":"levelo://app?vid=7a4fddc5-3a27-4dda-9bbf-9e9908f2cdee"},"vehicle_type_id":"4","last_reported":1740271895,"current_range_meters":20000,"station_id":"ce4bh3p2rcd13ifvqdq0","pricing_plan_id":"cebpf4jnsgd1na2vs0mg"},{"bike_id":"53e844bc-891e-4610-8717-2dff11b33bba","system_id":"levelo_inurba_marseille","lat":43.26779,"lon":5.39419,"is_reserved":false,"is_disabled":false,"rental_uris":{"android":"levelo://app?vid=53e844bc-891e-4610-8717-2dff11b33bba","ios":"levelo://app?vid=53e844bc-891e-4610-8717-2dff11b33bba"},"vehicle_type_id":"4","last_reported":1740271895,"current_range_meters":20000,"station_id":"ce4bhh12rcd13ifvqfg0","pricing_plan_id":"cebpf4jnsgd1na2vs0mg"},{"bike_id":"12d537d0-986c-45a4-b597-9935b1acfa04","system_id":"levelo_inurba_marseille","lat":43.29248,"lon":5.40141,"is_reserved":false,"is_disabled":true,"rental_uris":{"android":"levelo://app?vid=12d537d0-986c-45a4-b597-9935b1acfa04","ios":"levelo://app?vid=12d537d0-986c-45a4-b597-9935b1acfa04"},"vehicle_type_id":"4","last_reported":1740271895,"current_range_meters":20000,"station_id":"ce4bh312rcd13ifvqdk0","pricing_plan_id":"cebpf4jnsgd1na2vs0mg"},{"bike_id":"ba813adc-b3be-4863-8bf7-d2455ae04443","system_id":"levelo_inurba_marseille","lat":43.27209,"lon":5.40991,"is_reserved":false,"is_disabled":false,"rental_uris":{"android":"levelo://app?vid=ba813adc-b3be-4863-8bf7-d2455ae04443","ios":"levelo://app?vid=ba813adc-b3be-4863-8bf7-d2455ae04443"},"vehicle_type_id":"4","last_reported":1740271895,"current_range_meters":20000,"station_id":"ce4bhl12rcd13ifvqgf0","pricing_plan_id":"cebpf4jnsgd1na2vs0mg"},{"bike_id":"92ffc13c-13ce-4d33-8b49-d16e4760e200","system_id":"levelo_inurba_marseille","lat":43.260267,"lon":5.375531,"is_reserved":false,"is_disabled":false,"rental_uris":{"android":"levelo://app?vid=92ffc13c-13ce-4d33-8b49-d16e4760e200","ios":"levelo://app?vid=92ffc13c-13ce-4d33-8b49-d16e4760e200"},