{"last_updated":1728288684,"ttl":60,"version":"2.2","data":{"bikes":[{"bike_id":"8d953d74-dd59-4323-a506-88c89656cb96","system_id":"levelo_inurba_marseille","lat":43.278351,"lon":5.392032,"is_reserved":false,"is_disabled":false,"rental_uris":{"android":"levelo://app?vid=8d953d74-dd59-4323-a506-88c89656cb96","ios":"levelo://app?vid=8d953d74-dd59-4323-a506-88c89656cb96"},"vehicle_type_id":"4","last_reported":1728288684,"current_range_meters":17600,"station_id":"ce4bhjp2rcd13ifvqga0","pricing_plan_id":"cebpf4jnsgd1na2vs0mg"},{"bike_id":"7a74c89a-bd19-403a-b9c7-f4acb6b6649d","system_id":"levelo_inurba_marseille","lat":43.2749,"lon":5.42456,"is_reserved":false,"is_disabled":false,"rental_uris":{"android":"levelo://app?vid=7a74c89a-bd19-403a-b9c7-f4acb6b6649d","ios":"levelo://app?vid=7a74c89a-bd19-403a-b9c7-f4acb6b6649d"},"vehicle_type_id":"4","last_reported":1728288684,"current_range_meters":26000,"station_id":"ce4bhn92rcd13ifvqgrg","pricing_plan_id":"cebpf4jnsgd1na2vs0mg"},{"bike_id":"601e0a35-ef0a-4c9d-bad9-539b9b5f5dd5","system_id":"levelo_inurba_marseille","lat":43.23149,"lon":5.4372,"is_reserved":false,"is_disabled":false,"rental_uris":{"android":"levelo://app?vid=601e0a35-ef0a-4c9d-bad9-539b9b5f5dd5","ios":"levelo://app?vid=601e0a35-ef0a-4c9d-bad9-539b9b5f5dd5"},"vehicle_type_id":"4","last_reported":1728288684,"current_range_meters":25200,"station_id":"ce4bhmp2rcd13ifvqgog","pricing_plan_id":"cebpf4jnsgd1na2vs0mg"},{"bike_id":"9840128e-20cc-4d85-941b-d961e61c1c08","system_id":"levelo_inurba_marseille","lat":43.2315,"lon":5.43726,"is_reserved":false,"is_disabled":false,"rental_uris":{"android":"levelo://app?vid=9840128e-20cc-4d85-941b-d961e61c1c08","ios":"levelo://app?vid=9840128e-20cc-4d85-941b-d961e61c1c08"},"vehicle_type_id":"4","last_reported":1728288684,"current_range_meters":8400,"station_id":"ce4bhmp2rcd13ifvqgog","pricing_plan_id":"cebpf4jnsgd1na2vs0mg"},{"bike_id":"ef6956f5-eddf-4312-b28a-5d86c6b10f7c","system_id":"levelo_inurba_marseille","lat":43.3028,"lon":5.37715,"is_reserved":false,"is_disabled":false,"rental_uris":{"android":"levelo://app?vid=ef6956f5-eddf-4312-b28a-5d86c6b10f7c","ios":"levelo://app?vid=ef6956f5-eddf-4312-b28a-5d86c6b10f7c"},"vehicle_type_id":"4","last_reported":1728288684,"current_range_meters":38800,"station_id":"ce4bguh2rcd13ifvqcj0","pricing_plan_id":"cebpf4jnsgd1na2vs0mg"},{"bike_id":"58c1bf6d-a6a5-40ca-92f1-de0adfd036e6","system_id":"levelo_inurba_marseille","lat":43.29904,"lon":5.38126,"is_reserved":false,"is_disabled":false,"rental_uris":{"android":"levelo://app?vid=58c1bf6d-a6a5-40ca-92f1-de0adfd036e6","ios":"levelo://app?vid=58c1bf6d-a6a5-40ca-92f1-de0adfd036e6"},"vehicle_type_id":"4","last_reported":1728288684,"current_range_meters":27600,"station_id":"ce4bgj12rcd13ifvqbc0","pricing_plan_id":"cebpf4jnsgd1na2vs0mg"},{"bike_id":"3edccbad-c604-40df-acb2-6e9d91b67298","system_id":"levelo_inurba_marseille","lat":43.23056,"lon":5.35487,"is_reserved":false,"is_disabled":false,"rental_uris":{"android":"levelo://app?vid=3edccbad-c604-40df-acb2-6e9d91b67298","ios":"levelo://app?vid=3edccbad-c604-40df-acb2-6e9d91b67298"},"vehicle_type_id":"4","last_reported":1728288684,"current_range_meters":22400,"station_id":"cpo3342slgdg3j2ifvpg","pricing_plan_id":"cebpf4jnsgd1na2vs0mg"},{"bike_id":"788ae801-7e44-4103-8c25-851c057cbb99","system_id":"levelo_inurba_marseille","lat":43.30139,"lon":5.38079,"is_reserved":false,"is_disabled":false,"rental_uris":{"android":"levelo://app?vid=788ae801-7e44-4103-8c25-851c057cbb99","ios":"levelo://app?vid=788ae801-7e44-4103-8c25-851c057cbb99"},"vehicle_type_id":"4","last_reported":1728288684,"current_range_meters":28000,"station_id":"ce4bgjp2rcd13ifvqbh0","pricing_plan_id":"cebpf4jnsgd1na2vs0mg"},{"bike_id":"63f105d8-13e1-41eb-aca8-809b7a33f4c5","system_id":"levelo_inurba_marseille","lat":43.31335,"lon":5.36734,"is_reserved":false,"is_disabled":false,"rental_uris":{"android":"levelo://app?vid=63f105d8-13e1-41eb-aca8-809b7a33f4c5","ios":"levelo://app?vid=63f105d8-13e1-41eb-aca8-809b7a33f4c5"},"vehicle_type_id":"4","last_reported":1728288684,"current_range_meters":20400,"station_id":"ce4bgr92rcd13ifvqc6g","pricing_plan_id":"cebpf4jnsgd1na2vs0mg"},{"bike_id":"355bb0b2-399f-438c-9353-d3c0a226d2b1","system_id":"levelo_inurba_marseille","lat":43.29912,"lon":5.38146,"is_reserved":false,"is_disabled":false,"rental_uris":{"android":"levelo://app?vid=355bb0b2-399f-438c-9353-d3c0a226d2b1","ios":"levelo://app?vid=355bb0b2-399f-438c-9353-d3c0a226d2b1"},"vehicle_type_id":"4","last_reported":1728288684,"current_range_meters":37600,"station_id":"ce4bgj12rcd13ifvqbc0","pricing_plan_id":"cebpf4jnsgd1na2vs0mg"},{"bike_id":"afd7d590-4416-4ae6-95b0-0b78d34378ab","system_id":"levelo_inurba_marseille","lat":43.30944,"lon":5.39033,"is_reserved":false,"is_disabled":false,"rental_uris":{"android":"levelo://app?vid=afd7d590-4416-4ae6-95b0-0b78d34378ab","ios":"levelo://app?vid=afd7d590-4416-4ae6-95b0-0b78d34378ab"},"vehicle_type_id":"4","last_reported":1728288684,"current_range_meters":24000,"station_id":"ce4bgup2rcd13ifvqco0","pricing_plan_id":"cebpf4jnsgd1na2vs0mg"},{"bike_id":"9b90015d-afd1-4ef9-a9ac-a8694f237c16","system_id":"levelo_inurba_marseille","lat":43.2315,"lon":5.43714,"is_reserved":false,"is_disabled":false,"rental_uris":{"android":"levelo://app?vid=9b90015d-afd1-4ef9-a9ac-a8694f237c16","ios":"levelo://app?vid=9b90015d-afd1-4ef9-a9ac-a8694f237c16"},"vehicle_type_id":"4","last_reported":1728288684,"current_range_meters":10000,"station_id":"ce4bhmp2rcd13ifvqgog","pricing_plan_id":"cebpf4jnsgd1na2vs0mg"},{"bike_id":"eecf6576-e26a-4403-ae90-06848eaeed26","system_id":"levelo_inurba_marseille","lat":43.2989,"lon":5.38143,"is_reserved":false,"is_disabled":false,"rental_uris":{"android":"levelo://app?vid=eecf6576-e26a-4403-ae90-06848eaeed26","ios":"levelo://app?vid=eecf6576-e26a-4403-ae90-06848eaeed26"},"vehicle_type_id":"4","last_reported":1728288684,"current_range_meters":38000,"station_id":"ce4bgj12rcd13ifvqbc0","pricing_plan_id":"cebpf4jnsgd1na2vs0mg"},{"bike_id":"8a580326-db88-4863-a202-f5a24dc6b40d","system_id":"levelo_inurba_marseille","lat":43.29175,"lon":5.371594,"is_reserved":false,"is_disabled":false,"rental_uris":{"android":"levelo://app?vid=8a580326-db88-4863-a202-f5a24dc6b40d","ios":"levelo://app?vid=8a580326-db88-4863-a202-f5a24dc6b40d"},"vehicle_type_id":"4","last_reported":1728288684,"current_range_meters":7200,"station_id":"ce4bha92rcd13ifvqeh0","pricing_plan_id":"cebpf4jnsgd1na2vs0mg"},{"bike_id":"7c3acb4c-8811-42c8-98ab-05cf388495cd","system_id":"levelo_inurba_marseille","lat":43.25933,"lon":5.40917,"is_reserved":false,"is_disabled":false,"rental_uris":{"android":"levelo://app?vid=7c3acb4c-8811-42c8-98ab-05cf388495cd","ios":"levelo://app?vid=7c3acb4c-8811-42c8-98ab-05cf388495cd"},"vehicle_type_id":"4","last_reported":1728288684,"current_range_meters":27600,"station_id":"ce4bhm92rcd13ifvqglg","pricing_plan_id":"cebpf4jnsgd1na2vs0mg"},{"bike_id":"3d3e93be-8a67-4628-9af2-2661c9a0daa4","system_id":"levelo_inurba_marseille","lat":43.2293,"lon":5.35381,"is_reserved":false,"is_disabled":false,"rental_uris":{"android":"levelo://app?vid=3d3e93be-8a67-4628-9af2-2661c9a0daa4","ios":"levelo://app?vid=3d3e93be-8a67-4628-9af2-2661c9a0daa4"},"vehicle_type_id":"4","last_reported":1728288684,"current_range_meters":32000,"station_id":"cpo3532slgdg3j2ikp40","pricing_plan_id":"cebpf4jnsgd1na2vs0mg"},{"bike_id":"83bd8e08-648e-4fc6-8901-05219804adac","system_id":"levelo_inurba_marseille","lat":43.22931,"lon":5.35378,"is_reserved":false,"is_disabled":false,"rental_uris":{"android":"levelo://app?vid=83bd8e08-648e-4fc6-8901-05219804adac","ios":"levelo://app?vid=83bd8e08-648e-4fc6-8901-05219804adac"},"vehicle_type_id":"4","last_reported":1728288684,"current_range_meters":26800,"station_id":"cpo3532slgdg3j2ikp40","pricing_plan_id":"cebpf4jnsgd1na2vs0mg"},{"bike_id":"28d256fe-26e1-4599-8073-4a3ed0606a74","system_id":"levelo_inurba_marseille","lat":43.30898,"lon":5.36841,"is_reserved":false,"is_disabled":false,"rental_uris":{"android":"levelo://app?vid=28d256fe-26e1-4599-8073-4a3ed0606a74","ios":"levelo://app?vid=28d256fe-26e1-4599-8073-4a3ed0606a74"},"vehicle_type_id":"4","last_reported":1728288684,"current_range_meters":6400,"station_id":"ce4bgpp2rcd13ifvqc3g","pricing_plan_id":"cebpf4jnsgd1na2vs0mg"},{"bike_id":"81b07a05-4c57-4e76-99d6-5f6e3acbb201","system_id":"levelo_inurba_marseille","lat":43.23059,"lon":5.35495,"is_reserved":false,"is_disabled":false,"rental_uris":{"android":"levelo://app?vid=81b07a05-4c57-4e76-99d6-5f6e3acbb201","ios":"levelo://app?vid=81b07a05-4c57-4e76-99d6-5f6e3acbb201"},"vehicle_type_id":"4","last_reported":1728288684,"current_range_meters":14000,"station_id":"cpo3342slgdg3j2ifvpg","pricing_plan_id":"cebpf4jnsgd1na2vs0mg"},{"bike_id":"43e59f9f-431a-4eb6-a882-f4556cb506b5","system_id":"levelo_inurba_marseille","lat":43.28467,"lon":5.38421,"is_reserved":false,"is_disabled":false,"rental_uris":{"android":"levelo://app?vid=43e59f9f-431a-4eb6-a882-f4556cb506b5","ios":"levelo://app?vid=43e59f9f-431a-4eb6-a882-f4556cb506b5"},"vehicle_type_id":"4","last_reported":1728288684,"current_range_meters":7200,"station_id":"ce4bh512rcd13ifvqe3g","pricing_plan_id":"cebpf4jnsgd1na2vs0mg"},{"bike_id":"b74b9d27-7c15-4067-b86d-5ff62ebac916","system_id":"levelo_inurba_marseille","lat":43.275619,"lon":5.384372,"is_reserved":false,"is_disabled":false,"rental_uris":{"android":"levelo://app?vid=b74b9d27-7c15-4067-b86d-5ff62ebac916","ios":"levelo://app?vid=b74b9d27-7c15-4067-b86d-5ff62ebac916"},"vehicle_type_id":"4","last_reported":1728288684,"current_range_meters":25600,"station_id":"ce4bhh92rcd13ifvqfi0","pricing_plan_id":"cebpf4jnsgd1na2vs0mg"},{"bike_id":"7b5acb30-7728-4d2f-b8de-cc88114cf385","system_id":"levelo_inurba_marseille","lat":43.23153,"lon":5.43721,"is_reserved":false,"is_disabled":false,"rental_uris":{"android":"levelo://app?vid=7b5acb30-7728-4d2f-b8de-cc88114cf385","ios":"levelo://app?vid=7b5acb30-7728-4d2f-b8de-cc88114cf385"},"vehicle_type_id":"4","last_reported":1728288684,"current_range_meters":38800,"station_id":"ce4bhmp2rcd13ifvqgog","pricing_plan_id":"cebpf4jnsgd1na2vs0mg"},{"bike_id":"2861f3e3-0324-4046-963b-1508529b940f","system_id":"levelo_inurba_marseille","lat":43.3135,"lon":5.36708,"is_reserved":false,"is_disabled":false,"rental_uris":{"android":"levelo://app?vid=2861f3e3-0324-4046-963b-1508529b940f","ios":"levelo://app?vid=2861f3e3-0324-4046-963b-1508529b940f"},"vehicle_type_id":"4","last_reported":1728288684,"current_range_meters":30800,"station_id":"ce4bgr92rcd13ifvqc6g","pricing_plan_id":"cebpf4jnsgd1na2vs0mg"},{"bike_id":"e2200a0d-12da-4459-b8f5-161f17ffb2d2","system_id":"levelo_inurba_marseille","lat":43.31361,"lon":5.36701,"is_reserved":false,"is_disabled":false,"rental_uris":{"android":"levelo://app?vid=e2200a0d-12da-4459-b8f5-161f17ffb2d2","ios":"levelo://app?vid=e2200a0d-12da-4459-b8f5-161f17ffb2d2"},"vehicle_type_id":"4","last_reported":1728288684,"current_range_meters":34800,"station_id":"ce4bgr92rcd13ifvqc6g","pricing_plan_id":"cebpf4jnsgd1na2vs0mg"},{"bike_id":"6601027d-e3e4-4aee-81e2-2ce4f906b542","system_id":"levelo_inurba_marseille","lat":43.30137,"lon":5.37422,"is_reserved":false,"is_disabled":false,"rental_uris":{"android":"levelo://app?vid=6601027d-e3e4-4aee-81e2-2ce4f906b542","ios":"levelo://app?vid=6601027d-e3e4-4aee-81e2-2ce4f906b542"},"vehicle_type_id":"4","last_reported":1728288684,"current_range_meters":26000,"station_id":"ce4bgs92rcd13ifvqcc0","pricing_plan_id":"cebpf4jnsgd1na2vs0mg"},{"bike_id":"32ab325a-0e98-4bb3-809c-c26d46577549","system_id":"levelo_inurba_marseille","lat":43.22935,"lon":5.35385,"is_reserved":false,"is_disabled":false,"rental_uris":{"android":"levelo://app?vid=32ab325a-0e98-4bb3-809c-c26d46577549","ios":"levelo://app?vid=32ab325a-0e98-4bb3-809c-c26d46577549"},"vehicle_type_id":"4","last_reported":1728288684,"current_range_meters":22800,"station_id":"cpo3532slgdg3j2ikp40","pricing_plan_id":"cebpf4jnsgd1na2vs0mg"},{"bike_id":"21814611-01da-4a56-bde2-76253f0cdaa1","system_id":"levelo_inurba_marseille","lat":43.27071,"lon":5.42276,"is_reserved":false,"is_disabled":false,"rental_uris":{"android":"levelo://app?vid=21814611-01da-4a56-bde2-76253f0cdaa1","ios":"levelo://app?vid=21814611-01da-4a56-bde2-76253f0cdaa1"},"vehicle_type_id":"4","last_reported":1728288684,"current_range_meters":39200,"station_id":"ce4bhk92rcd13ifvqgb0","pricing_plan_id":"cebpf4jnsgd1na2vs0mg"},{"bike_id":"18749b06-c9ac-4c46-8ed2-88a7738c54d2","system_id":"levelo_inurba_marseille","lat":43.26199,"lon":5.3793,"is_reserved":false,"is_disabled":false,"rental_uris":{"android":"levelo://app?vid=18749b06-c9ac-4c46-8ed2-88a7738c54d2","ios":"levelo://app?vid=18749b06-c9ac-4c46-8ed2-88a7738c54d2"},"vehicle_type_id":"4","last_reported":1728288684,"current_range_meters":32000,"station_id":"ce4bhjp2rcd13ifvqg90","pricing_plan_id":"cebpf4jnsgd1na2vs0mg"},{"bike_id":"33724117-1e49-4fb7-97f6-39cb0cea3d10","system_id":"levelo_inurba_marseille","lat":43.29575,"lon":5.36747,"is_reserved":false,"is_disabled":false,"rental_uris":{"android":"levelo://app?vid=33724117-1e49-4fb7-97f6-39cb0cea3d10","ios":"levelo://app?vid=33724117-1e49-4fb7-97f6-39cb0cea3d10"},"vehicle_type_id":"4","last_reported":1728288684,"current_range_meters":33200,"station_id":"ce4bgph2rcd13ifvqc2g","pricing_plan_id":"cebpf4jnsgd1na2vs0mg"},{"bike_id":"aea6280b-cdd4-4154-919f-9a5c82db0da6","system_id":"levelo_inurba_marseille","lat":43.33612,"lon":5.41028,"is_reserved":false,"is_disabled":false,"rental_uris":{"android":"levelo://app?vid=aea6280b-cdd4-4154-919f-9a5c82db0da6","ios":"levelo://app?vid=aea6280b-cdd4-4154-919f-9a5c82db0da6"},"vehicle_type_id":"4","last_reported":1728288684,"current_range_meters":26000,"station_id":"ce4bhqh2rcd13ifvqhmg","pricing_plan_id":"cebpf4jnsgd1na2vs0mg"},{"bike_id":"8c4ede2a-8479-4951-912b-e9104b176599","system_id":"levelo_inurba_marseille","lat":43.33728,"lon":5.39192,"is_reserved":false,"is_disabled":false,"rental_uris":{"android":"levelo://app?vid=8c4ede2a-8479-4951-912b-e9104b176599","ios":"levelo://app?vid=8c4ede2a-8479-4951-912b-e9104b176599"},"vehicle_type_id":"4","last_reported":1728288684,"current_range_meters":3200,"station_id":"ce4bhr92rcd13ifvqhsg","pricing_plan_id":"cebpf4jnsgd1na2vs0mg"},{"bike_id":"55b7d87e-4999-4f26-8051-59470ab7dc86","system_id":"levelo_inurba_marseille","lat":43.27919,"lon":5.39572,"is_reserved":false,"is_disabled":false,"rental_uris":{"android":"levelo://app?vid=55b7d87e-4999-4f26-8051-59470ab7dc86","ios":"levelo://app?vid=55b7d87e-4999-4f26-8051-59470ab7dc86"},"vehicle_type_id":"4","last_reported":1728288684,"current_range_meters":36800,"station_id":"ce4bhf92rcd13ifvqf40","pricing_plan_id":"cebpf4jnsgd1na2vs0mg"},{"bike_id":"5b8f0a30-9eed-4db0-b2a8-9b55c1a6fc53","system_id":"levelo_inurba_marseille","lat":43.31338,"lon":5.36742,"is_reserved":false,"is_disabled":false,"rental_uris":{"android":"levelo://app?vid=5b8f0a30-9eed-4db0-b2a8-9b55c1a6fc53","ios":"levelo://app?vid=5b8f0a30-9eed-4db0-b2a8-9b55c1a6fc53"},"vehicle_type_id":"4","last_reported":1728288684,"current_range_meters":25200,"station_id":"ce4bgr92rcd13ifvqc6g","pricing_plan_id":"cebpf4jnsgd1na2vs0mg"},{"bike_id":"4018fa26-9a2a-4214-af21-76b3667a940b","system_id":"levelo_inurba_marseille","lat":43.29901,"lon":5.38156,"is_reserved":false,"is_disabled":false,"rental_uris":{"android":"levelo://app?vid=4018fa26-9a2a-4214-af21-76b3667a940b","ios":"levelo://app?vid=4018fa26-9a2a-4214-af21-76b3667a940b"},"vehicle_type_id":"4","last_reported":1728288684,"current_range_meters":27200,"station_id":"ce4bgj12rcd13ifvqbc0","pricing_plan_id":"cebpf4jnsgd1na2vs0mg"},{"bike_id":"899f8af6-7016-4b1f-b914-b288e7248067","system_id":"levelo_inurba_marseille","lat":43.26196,"lon":5.37934,"is_reserved":false,"is_disabled":false,"rental_uris":{"android":"levelo://app?vid=899f8af6-7016-4b1f-b914-b288e7248067","ios":"levelo://app?vid=899f8af6-7016-4b1f-b914-b288e7248067"},"vehicle_type_id":"4","last_reported":1728288684,"current_range_meters":27600,"station_id":"ce4bhjp2rcd13ifvqg90","pricing_plan_id":"cebpf4jnsgd1na2vs0mg"},{"bike_id":"35db5aab-a536-4286-87d7-90ec43783f24","system_id":"levelo_inurba_marseille","lat":43.23194,"lon":5.35553,"is_reserved":false,"is_disabled":false,"rental_uris":{"android":"levelo://app?vid=35db5aab-a536-4286-87d7-90ec43783f24","ios":"levelo://app?vid=35db5aab-a536-4286-87d7-90ec43783f24"},"vehicle_type_id":"4","last_reported":1728288684,"current_range_meters":36800,"station_id":"ce4bhu92rcd13ifvqi70","pricing_plan_id":"cebpf4jnsgd1na2vs0mg"},{"bike_id":"ac7477e2-647f-4698-b2f1-05ac6bd7ca79","system_id":"levelo_inurba_marseille","lat":43.27376,"lon":5.36259,"is_reserved":false,"is_disabled":false,"rental_uris":{"android":"levelo://app?vid=ac7477e2-647f-4698-b2f1-05ac6bd7ca79","ios":"levelo://app?vid=ac7477e2-647f-4698-b2f1-05ac6bd7ca79"},"vehicle_type_id":"4","last_reported":1728288684,"current_range_meters":28800,"station_id":"ce4bhbh2rcd13ifvqeo0","pricing_plan_id":"cebpf4jnsgd1na2vs0mg"},{"bike_id":"df401d57-95f4-4085-940e-877f7cc05993","system_id":"levelo_inurba_marseille","lat":43.31489,"lon":5.37298,"is_reserved":false,"is_disabled":false,"rental_uris":{"android":"levelo://app?vid=df401d57-95f4-4085-940e-877f7cc05993","ios":"levelo://app?vid=df401d57-95f4-4085-940e-877f7cc05993"},"vehicle_type_id":"4","last_reported":1728288684,"current_range_meters":39200,"station_id":"ce4bgt12rcd13ifvqcd0","pricing_plan_id":"cebpf4jnsgd1na2vs0mg"},{"bike_id":"a46676ac-5700-49d2-b010-5353fb1bcffd","system_id":"levelo_inurba_marseille","lat":43.29862,"lon":5.39732,"is_reserved":false,"is_disabled":false,"rental_uris":{"android":"levelo://app?vid=a46676ac-5700-49d2-b010-5353fb1bcffd","ios":"levelo://app?vid=a46676ac-5700-49d2-b010-5353fb1bcffd"},"vehicle_type_id":"4","last_reported":1728288684,"current_range_meters":29600,"station_id":"ce4bh0h2rcd13ifvqd50","pricing_plan_id":"cebpf4jnsgd1na2vs0mg"},{"bike_id":"62dfd99c-f976-4937-b2d0-5b50f5ae699f","system_id":"levelo_inurba_marseille","lat":43.24166,"lon":5.36405,"is_reserved":false,"is_disabled":false,"rental_uris":{"android":"levelo://app?vid=62dfd99c-f976-4937-b2d0-5b50f5ae699f","ios":"levelo://app?vid=62dfd99c-f976-4937-b2d0-5b50f5ae699f"},"vehicle_type_id":"4","last_reported":1728288684,"current_range_meters":10800,"station_id":"cpo36qri1sfpv3e86is0","pricing_plan_id":"cebpf4jnsgd1na2vs0mg"},{"bike_id":"77a45e4d-697e-49fb-8e02-d19bb9146007","system_id":"levelo_inurba_marseille","lat":43.29528,"lon":5.37493,"is_reserved":false,"is_disabled":false,"rental_uris":{"android":"levelo://app?vid=77a45e4d-697e-49fb-8e02-d19bb9146007","ios":"levelo://app?vid=77a45e4d-697e-49fb-8e02-d19bb9146007"},"vehicle_type_id":"4","last_reported":1728288684,"current_range_meters":8000,"station_id":"ce4bgkp2rcd13ifvqbmg","pricing_plan_id":"cebpf4jnsgd1na2vs0mg"},{"bike_id":"a6530365-194e-4e15-a9ab-70c867665fe4","system_id":"levelo_inurba_marseille","lat":43.26064,"lon":5.39394,"is_reserved":false,"is_disabled":false,"rental_uris":{"android":"levelo://app?vid=a6530365-194e-4e15-a9ab-70c867665fe4","ios":"levelo://app?vid=a6530365-194e-4e15-a9ab-70c867665fe4"},"vehicle_type_id":"4","last_reported":1728288684,"current_range_meters":30400,"station_id":"ce4bhh92rcd13ifvqfj0","pricing_plan_id":"cebpf4jnsgd1na2vs0mg"},{"bike_id":"7c931afa-d134-43eb-91ff-64f620622820","system_id":"levelo_inurba_marseille","lat":43.33612,"lon":5.41028,"is_reserved":false,"is_disabled":false,"rental_uris":{"android":"levelo://app?vid=7c931afa-d134-43eb-91ff-64f620622820","ios":"levelo://app?vid=7c931afa-d134-43eb-91ff-64f620622820"},"vehicle_type_id":"4","last_reported":1728288684,"current_range_meters":25600,"station_id":"ce4bhqh2rcd13ifvqhmg","pricing_plan_id":"cebpf4jnsgd1na2vs0mg"},{"bike_id":"491813ec-5bcd-4eda-acb2-c01ccb4e9894","system_id":"levelo_inurba_marseille","lat":43.299,"lon":5.38145,"is_reserved":false,"is_disabled":false,"rental_uris":{"android":"levelo://app?vid=491813ec-5bcd-4eda-acb2-c01ccb4e9894","ios":"levelo://app?vid=491813ec-5bcd-4eda-acb2-c01ccb4e9894"},"vehicle_type_id":"4","last_reported":1728288684,"current_range_meters":20400,"station_id":"ce4bgj12rcd13ifvqbc0","pricing_plan_id":"cebpf4jnsgd1na2vs0mg"},{"bike_id":"23c14b3c-a751-4109-bb74-0ad6b39787af","system_id":"levelo_inurba_marseille","lat":43.24078,"lon":5.37754,"is_reserved":false,"is_disabled":false,"rental_uris":{"android":"levelo://app?vid=23c14b3c-a751-4109-bb74-0ad6b39787af","ios":"levelo://app?vid=23c14b3c-a751-4109-bb74-0ad6b39787af"},"vehicle_type_id":"4","last_reported":1728288684,"current_range_meters":38400,"station_id":"ce4bhnp2rcd13ifvqgvg","pricing_plan_id":"cebpf4jnsgd1na2vs0mg"},{"bike_id":"ae15bf0e-081e-4272-b73c-ff1d32656f13","system_id":"levelo_inurba_marseille","lat":43.24545,"lon":5.39517,"is_reserved":false,"is_disabled":false,"rental_uris":{"android":"levelo://app?vid=ae15bf0e-081e-4272-b73c-ff1d32656f13","ios":"levelo://app?vid=ae15bf0e-081e-4272-b73c-ff1d32656f13"},"vehicle_type_id":"4","last_reported":1728288684,"current_range_meters":38800,"station_id":"ce4bhlp2rcd13ifvqgjg","pricing_plan_id":"cebpf4jnsgd1na2vs0mg"},{"bike_id":"a7d39e11-88db-47a1-b559-47b761427f0e","system_id":"levelo_inurba_marseille","lat":43.25937,"lon":5.40908,"is_reserved":false,"is_disabled":false,"rental_uris":{"android":"levelo://app?vid=a7d39e11-88db-47a1-b559-47b761427f0e","ios":"levelo://app?vid=a7d39e11-88db-47a1-b559-47b761427f0e"},"vehicle_type_id":"4","last_reported":1728288684,"current_range_meters":34000,"station_id":"ce4bhm92rcd13ifvqglg","pricing_plan_id":"cebpf4jnsgd1na2vs0mg"},{"bike_id":"6ecc3250-1b8f-4fe4-9af2-4af6d50ffd76","system_id":"levelo_inurba_marseille","lat":43.25933,"lon":5.40909,"is_reserved":false,"is_disabled":false,"rental_uris":{"android":"levelo://app?vid=6ecc3250-1b8f-4fe4-9af2-4af6d50ffd76","ios":"levelo://app?vid=6ecc3250-1b8f-4fe4-9af2-4af6d50ffd76"},"vehicle_type_id":"4","last_reported":1728288684,"current_range_meters":16000,"station_id":"ce4bhm92rcd13ifvqglg","pricing_plan_id":"cebpf4jnsgd1na2vs0mg"},{"bike_id":"baba7691-81ff-4c7d-90d9-c89eba9696cb","system_id":"levelo_inurba_marseille","lat":43.25931,"lon":5.40913,"is_reserved":false,"is_disabled":false,"rental_uris":{"android":"levelo://app?vid=baba7691-81ff-4c7d-90d9-c89eba9696cb","ios":"levelo://app?vid=baba7691-81ff-4c7d-90d9-c89eba9696cb"},"vehicle_type_id":"4","last_reported":1728288684,"current_range_meters":28000,"station_id":"ce4bhm92rcd13ifvqglg","pricing_plan_id":"cebpf4jnsgd1na2vs0mg"},{"bike_id":"b1a42782-3ee6-4e5c-aa06-ed242166d1ed","system_id":"levelo_inurba_marseille","lat":43.3211,"lon":5.3677,"is_reserved":false,"is_disabled":false,"rental_uris":{"android":"levelo://app?vid=b1a42782-3ee6-4e5c-aa06-ed242166d1ed","ios":"levelo://app?vid=b1a42782-3ee6-4e5c-aa06-ed242166d1ed"},"vehicle_type_id":"4","last_reported":1728288684,"current_range_meters":33600,"station_id":"ce4bhrh2rcd13ifvqhug","pricing_plan_id":"cebpf4jnsgd1na2vs0mg"},{"bike_id":"fec885cd-387f-4f71-9e64-7a12f33aa81b","system_id":"levelo_inurba_marseille","lat":43.24384,"lon":5.37049,"is_reserved":false,"is_disabled":false,"rental_uris":{"android":"levelo://app?vid=fec885cd-387f-4f71-9e64-7a12f33aa81b","ios":"levelo://app?vid=fec885cd-387f-4f71-9e64-7a12f33aa81b"},"vehicle_type_id":"4","last_reported":1728288684,"current_range_meters":30400,"station_id":"ce4bhhh2rcd13ifvqfk0","pricing_plan_id":"cebpf4jnsgd1na2vs0mg"},{"bike_id":"ec9c2a56-2b62-49bb-9e7d-3f85dfb294ae","system_id":"levelo_inurba_marseille","lat":43.30187,"lon":5.36609,"is_reserved":false,"is_disabled":false,"rental_uris":{"android":"levelo://app?vid=ec9c2a56-2b62-49bb-9e7d-3f85dfb294ae","ios":"levelo://app?vid=ec9c2a56-2b62-49bb-9e7d-3f85dfb294ae"},"vehicle_type_id":"4","last_reported":1728288684,"current_range_meters":36000,"station_id":"ce4bgrh2rcd13ifvqc8g","pricing_plan_id":"cebpf4jnsgd1na2vs0mg"},{"bike_id":"7f334d30-97d0-4c4d-8024-379ac3ae8438","system_id":"levelo_inurba_marseille","lat":43.30211,"lon":5.39457,"is_reserved":false,"is_disabled":false,"rental_uris":{"android":"levelo://app?vid=7f334d30-97d0-4c4d-8024-379ac3ae8438","ios":"levelo://app?vid=7f334d30-97d0-4c4d-8024-379ac3ae8438"},"vehicle_type_id":"4","last_reported":1728288684,"current_range_meters":19600,"station_id":"ce4bh0p2rcd13ifvqd70","pricing_plan_id":"cebpf4jnsgd1na2vs0mg"},{"bike_id":"6ae7d0e0-1623-4439-8d68-fec3c5db110c","system_id":"levelo_inurba_marseille","lat":43.22936,"lon":5.3538,"is_reserved":false,"is_disabled":false,"rental_uris":{"android":"levelo://app?vid=6ae7d0e0-1623-4439-8d68-fec3c5db110c","ios":"levelo://app?vid=6ae7d0e0-1623-4439-8d68-fec3c5db110c"},"vehicle_type_id":"4","last_reported":1728288684,"current_range_meters":33200,"station_id":"cpo3532slgdg3j2ikp40","pricing_plan_id":"cebpf4jnsgd1na2vs0mg"},{"bike_id":"c73f082a-a25e-488f-bfd2-4d4b6315be75","system_id":"levelo_inurba_marseille","lat":43.24798,"lon":5.37447,"is_reserved":false,"is_disabled":false,"rental_uris":{"android":"levelo://app?vid=c73f082a-a25e-488f-bfd2-4d4b6315be75","ios":"levelo://app?vid=c73f082a-a25e-488f-bfd2-4d4b6315be75"},"vehicle_type_id":"4","last_reported":1728288684,"current_range_meters":34800,"station_id":"ce4bhgh2rcd13ifvqfb0","pricing_plan_id":"cebpf4jnsgd1na2vs0mg"},{"bike_id":"4af55307-045f-4c66-a045-a91d88bb4c16","system_id":"levelo_inurba_marseille","lat":43.22926,"lon":5.35372,"is_reserved":false,"is_disabled":false,"rental_uris":{"android":"levelo://app?vid=4af55307-045f-4c66-a045-a91d88bb4c16","ios":"levelo://app?vid=4af55307-045f-4c66-a045-a91d88bb4c16"},"vehicle_type_id":"4","last_reported":1728288684,"current_range_meters":27600,"station_id":"cpo3532slgdg3j2ikp40","pricing_plan_id":"cebpf4jnsgd1na2vs0mg"},{"bike_id":"006496ac-b336-4e13-b5f8-bcdc1e7d1b98","system_id":"levelo_inurba_marseille","lat":43.29729,"lon":5.37684,"is_reserved":false,"is_disabled":false,"rental_uris":{"android":"levelo://app?vid=006496ac-b336-4e13-b5f8-bcdc1e7d1b98","ios":"levelo://app?vid=006496ac-b336-4e13-b5f8-bcdc1e7d1b98"},"vehicle_type_id":"4","last_reported":1728288684,"current_range_meters":14800,"station_id":"ce4bgkh2rcd13ifvqbl0","pricing_plan_id":"cebpf4jnsgd1na2vs0mg"},{"bike_id":"13a35d1a-1c21-4cdd-9282-17040c700716","system_id":"levelo_inurba_marseille","lat":43.32534,"lon":5.41439,"is_reserved":false,"is_disabled":false,"rental_uris":{"android":"levelo://app?vid=13a35d1a-1c21-4cdd-9282-17040c700716","ios":"levelo://app?vid=13a35d1a-1c21-4cdd-9282-17040c700716"},"vehicle_type_id":"4","last_reported":1728288684,"current_range_meters":30800,"station_id":"ce4bhq12rcd13ifvqhhg","pricing_plan_id":"cebpf4jnsgd1na2vs0mg"},{"bike_id":"6482b1fb-67cb-4384-a7c9-6c0a7b56e3b4","system_id":"levelo_inurba_marseille","lat":43.28855,"lon":5.43323,"is_reserved":false,"is_disabled":false,"rental_uris":{"android":"levelo://app?vid=6482b1fb-67cb-4384-a7c9-6c0a7b56e3b4","ios":"levelo://app?vid=6482b1fb-67cb-4384-a7c9-6c0a7b56e3b4"},"vehicle_type_id":"4","last_reported":1728288684,"current_range_meters":6800,"station_id":"","pricing_plan_id":"cebpf4jnsgd1na2vs0mg"},{"bike_id":"489f53b7-c684-4184-9256-adc6cd911843","system_id":"levelo_inurba_marseille","lat":43.30464,"lon":5.37893,"is_reserved":false,"is_disabled":false,"rental_uris":{"android":"levelo://app?vid=489f53b7-c684-4184-9256-adc6cd911843","ios":"levelo://app?vid=489f53b7-c684-4184-9256-adc6cd911843"},"vehicle_type_id":"4","last_reported":1728288684,"current_range_meters":16400,"station_id":"ce4bgup2rcd13ifvqcn0","pricing_plan_id":"cebpf4jnsgd1na2vs0mg"},{"bike_id":"1e592842-3390-46e6-95ec-f120a36922c9","system_id":"levelo_inurba_marseille","lat":43.23151,"lon":5.43704,"is_reserved":false,"is_disabled":false,"rental_uris":{"android":"levelo://app?vid=1e592842-3390-46e6-95ec-f120a36922c9","ios":"levelo://app?vid=1e592842-3390-46e6-95ec-f120a36922c9"},"vehicle_type_id":"4","last_reported":1728288684,"current_range_meters":17600,"station_id":"ce4bhmp2rcd13ifvqgog","pricing_plan_id":"cebpf4jnsgd1na2vs0mg"},{"bike_id":"51842b27-beea-4920-8795-3d8051a1ca32","system_id":"levelo_inurba_marseille","lat":43.31353,"lon":5.36707,"is_reserved":false,"is_disabled":false,"rental_uris":{"android":"levelo://app?vid=51842b27-beea-4920-8795-3d8051a1ca32","ios":"levelo://app?vid=51842b27-beea-4920-8795-3d8051a1ca32"},"vehicle_type_id":"4","last_reported":1728288684,"current_range_meters":20000,"station_id":"ce4bgr92rcd13ifvqc6g","pricing_plan_id":"cebpf4jnsgd1na2vs0mg"},{"bike_id":"6d5b171e-c5b4-4ff2-9ca1-4e4eb1f43478","system_id":"levelo_inurba_marseille","lat":43.24077,"lon":5.37756,"is_reserved":false,"is_disabled":false,"rental_uris":{"android":"levelo://app?vid=6d5b171e-c5b4-4ff2-9ca1-4e4eb1f43478","ios":"levelo://app?vid=6d5b171e-c5b4-4ff2-9ca1-4e4eb1f43478"},"vehicle_type_id":"4","last_reported":1728288684,"current_range_meters":28000,"station_id":"ce4bhnp2rcd13ifvqgvg","pricing_plan_id":"cebpf4jnsgd1na2vs0mg"},{"bike_id":"9fc0fede-eafe-4fe5-b639-8db65855cbcb","system_id":"levelo_inurba_marseille","lat":43.30127,"lon":5.389559,"is_reserved":false,"is_disabled":false,"rental_uris":{"android":"levelo://app?vid=9fc0fede-eafe-4fe5-b639-8db65855cbcb","ios":"levelo://app?vid=9fc0fede-eafe-4fe5-b639-8db65855cbcb"},"vehicle_type_id":"4","last_reported":1728288684,"current_range_meters":8800,"station_id":"ce4bhn92rcd13ifvqgrg","pricing_plan_id":"cebpf4jnsgd1na2vs0mg"},{"bike_id":"97ef281f-c717-429c-a078-d6a368902950","system_id":"levelo_inurba_marseille","lat":43.24166,"lon":5.36393,"is_reserved":false,"is_disabled":false,"rental_uris":{"android":"levelo://app?vid=97ef281f-c717-429c-a078-d6a368902950","ios":"levelo://app?vid=97ef281f-c717-429c-a078-d6a368902950"},"vehicle_type_id":"4","last_reported":1728288684,"current_range_meters":20800,"station_id":"cpo36qri1sfpv3e86is0","pricing_plan_id":"cebpf4jnsgd1na2vs0mg"},{"bike_id":"68e7fb09-d99f-46a0-9dc4-bd616ae559ff","system_id":"levelo_inurba_marseille","lat":43.31348,"lon":5.36708,"is_reserved":false,"is_disabled":false,"rental_uris":{"android":"levelo://app?vid=68e7fb09-d99f-46a0-9dc4-bd616ae559ff","ios":"levelo://app?vid=68e7fb09-d99f-46a0-9dc4-bd616ae559ff"},"vehicle_type_id":"4","last_reported":1728288684,"current_range_meters":16800,"station_id":"ce4bgr92rcd13ifvqc6g","pricing_plan_id":"cebpf4jnsgd1na2vs0mg"},{"bike_id":"f59a34ef-affd-4876-9736-e71a1bdc3c72","system_id":"levelo_inurba_marseille","lat":43.2749,"lon":5.42452,"is_reserved":false,"is_disabled":false,"rental_uris":{"android":"levelo://app?vid=f59a34ef-affd-4876-9736-e71a1bdc3c72","ios":"levelo://app?vid=f59a34ef-affd-4876-9736-e71a1bdc3c72"},"vehicle_type_id":"4","last_reported":1728288684,"current_range_meters":26000,"station_id":"ce4bhn92rcd13ifvqgrg","pricing_plan_id":"cebpf4jnsgd1na2vs0mg"},{"bike_id":"e1704012-6167-48bd-b1bd-4b574f1af2b2","system_id":"levelo_inurba_marseille","lat":43.29514,"lon":5.37513,"is_reserved":false,"is_disabled":false,"rental_uris":{"android":"levelo://app?vid=e1704012-6167-48bd-b1bd-4b574f1af2b2","ios":"levelo://app?vid=e1704012-6167-48bd-b1bd-4b574f1af2b2"},"vehicle_type_id":"4","last_reported":1728288684,"current_range_meters":30000,"station_id":"ce4bgkp2rcd13ifvqbmg","pricing_plan_id":"cebpf4jnsgd1na2vs0mg"},{"bike_id":"3afbbf28-ca7e-45de-880a-b8a6feb8f75f","system_id":"levelo_inurba_marseille","lat":43.31106,"lon":5.37772,"is_reserved":false,"is_disabled":false,"rental_uris":{"android":"levelo://app?vid=3afbbf28-ca7e-45de-880a-b8a6feb8f75f","ios":"levelo://app?vid=3afbbf28-ca7e-45de-880a-b8a6feb8f75f"},"vehicle_type_id":"4","last_reported":1728288684,"current_range_meters":37600,"station_id":"ce4bgt92rcd13ifvqcg0","pricing_plan_id":"cebpf4jnsgd1na2vs0mg"},{"bike_id":"0d8c132e-6028-490d-b78f-9ee244fd1c97","system_id":"levelo_inurba_marseille","lat":43.25502,"lon":5.37652,"is_reserved":false,"is_disabled":false,"rental_uris":{"android":"levelo://app?vid=0d8c132e-6028-490d-b78f-9ee244fd1c97","ios":"levelo://app?vid=0d8c132e-6028-490d-b78f-9ee244fd1c97"},"vehicle_type_id":"4","last_reported":1728288684,"current_range_meters":38800,"station_id":"ce4bhh12rcd13ifvqff0","pricing_plan_id":"cebpf4jnsgd1na2vs0mg"},{"bike_id":"e8866f89-0b50-4171-8f17-ff8cb3d22a9a","system_id":"levelo_inurba_marseille","lat":43.32479,"lon":5.36567,"is_reserved":false,"is_disabled":false,"rental_uris":{"android":"levelo://app?vid=e8866f89-0b50-4171-8f17-ff8cb3d22a9a","ios":"levelo://app?vid=e8866f89-0b50-4171-8f17-ff8cb3d22a9a"},"vehicle_type_id":"4","last_reported":1728288684,"current_range_meters":5600,"station_id":"ce4bhs12rcd13ifvqhvg","pricing_plan_id":"cebpf4jnsgd1na2vs0mg"},{"bike_id":"85a8b07e-682b-4725-800e-b0749654fba5","system_id":"levelo_inurba_marseille","lat":43.24168,"lon":5.36393,"is_reserved":false,"is_disabled":false,"rental_uris":{"android":"levelo://app?vid=85a8b07e-682b-4725-800e-b0749654fba5","ios":"levelo://app?vid=85a8b07e-682b-4725-800e-b0749654fba5"},"vehicle_type_id":"4","last_reported":1728288684,"current_range_meters":24800,"station_id":"cpo36qri1sfpv3e86is0","pricing_plan_id":"cebpf4jnsgd1na2vs0mg"},{"bike_id":"742b0a39-2ee6-4a7f-970b-979e89ae43ed","system_id":"levelo_inurba_marseille","lat":43.30909,"lon":5.37435,"is_reserved":false,"is_disabled":false,"rental_uris":{"android":"levelo://app?vid=742b0a39-2ee6-4a7f-970b-979e89ae43ed","ios":"levelo://app?vid=742b0a39-2ee6-4a7f-970b-979e89ae43ed"},"vehicle_type_id":"4","last_reported":1728288684,"current_range_meters":17600,"station_id":"","pricing_plan_id":"cebpf4jnsgd1na2vs0mg"},{"bike_id":"9f64bd7c-b7ed-499d-a167-bfe463a60a1b","system_id":"levelo_inurba_marseille","lat":43.29916,"lon":5.38138,"is_reserved":false,"is_disabled":false,"rental_uris":{"android":"levelo://app?vid=9f64bd7c-b7ed-499d-a167-bfe463a60a1b","ios":"levelo://app?vid=9f64bd7c-b7ed-499d-a167-bfe463a60a1b"},"vehicle_type_id":"4","last_reported":1728288684,"current_range_meters":38800,"station_id":"ce4bgj12rcd13ifvqbc0","pricing_plan_id":"cebpf4jnsgd1na2vs0mg"},{"bike_id":"7d2cc212-b6cb-4185-944b-accc5c2f99a0","system_id":"levelo_inurba_marseille","lat":43.29282,"lon":5.40119,"is_reserved":false,"is_disabled":false,"rental_uris":{"android":"levelo://app?vid=7d2cc212-b6cb-4185-944b-accc5c2f99a0","ios":"levelo://app?vid=7d2cc212-b6cb-4185-944b-accc5c2f99a0"},"vehicle_type_id":"4","last_reported":1728288684,"current_range_meters":17200,"station_id":"ce4bh312rcd13ifvqdk0","pricing_plan_id":"cebpf4jnsgd1na2vs0mg"},{"bike_id":"3b5e0662-8d29-4834-92fa-9f5a70cd2485","system_id":"levelo_inurba_marseille","lat":43.30424,"lon":5.41286,"is_reserved":false,"is_disabled":false,"rental_uris":{"android":"levelo://app?vid=3b5e0662-8d29-4834-92fa-9f5a70cd2485","ios":"levelo://app?vid=3b5e0662-8d29-4834-92fa-9f5a70cd2485"},"vehicle_type_id":"4","last_reported":1728288684,"current_range_meters":38800,"station_id":"ce4bhop2rcd13ifvqh8g","pricing_plan_id":"cebpf4jnsgd1na2vs0mg"},{"bike_id":"05ddab4b-2219-453e-b9f6-9211ae63c830","system_id":"levelo_inurba_marseille","lat":43.2417,"lon":5.36395,"is_reserved":false,"is_disabled":false,"rental_uris":{"android":"levelo://app?vid=05ddab4b-2219-453e-b9f6-9211ae63c830","ios":"levelo://app?vid=05ddab4b-2219-453e-b9f6-9211ae63c830"},"vehicle_type_id":"4","last_reported":1728288684,"current_range_meters":28800,"station_id":"cpo36qri1sfpv3e86is0","pricing_plan_id":"cebpf4jnsgd1na2vs0mg"},{"bike_id":"d0ca1193-12e8-4ac2-9a60-4ae6e0040151","system_id":"levelo_inurba_marseille","lat":43.22933,"lon":5.35379,"is_reserved":false,"is_disabled":false,"rental_uris":{"android":"levelo://app?vid=d0ca1193-12e8-4ac2-9a60-4ae6e0040151","ios":"levelo://app?vid=d0ca1193-12e8-4ac2-9a60-4ae6e0040151"},"vehicle_type_id":"4","last_reported":1728288684,"current_range_meters":24400,"station_id":"cpo3532slgdg3j2ikp40","pricing_plan_id":"cebpf4jnsgd1na2vs0mg"},{"bike_id":"2557af00-c03e-42bb-8bb5-4007fd210a1c","system_id":"levelo_inurba_marseille","lat":43.23152,"lon":5.43701,"is_reserved":false,"is_disabled":false,"rental_uris":{"android":"levelo://app?vid=2557af00-c03e-42bb-8bb5-4007fd210a1c","ios":"levelo://app?vid=2557af00-c03e-42bb-8bb5-4007fd210a1c"},"vehicle_type_id":"4","last_reported":1728288684,"current_range_meters":12800,"station_id":"ce4bhmp2rcd13ifvqgog","pricing_plan_id":"cebpf4jnsgd1na2vs0mg"},{"bike_id":"000e9510-d2f6-45de-a4ee-4b2733684efb","system_id":"levelo_inurba_marseille","lat":43.30153,"lon":5.38081,"is_reserved":false,"is_disabled":false,"rental_uris":{"android":"levelo://app?vid=000e9510-d2f6-45de-a4ee-4b2733684efb","ios":"levelo://app?vid=000e9510-d2f6-45de-a4ee-4b2733684efb"},"vehicle_type_id":"4","last_reported":1728288684,"current_range_meters":3600,"station_id":"ce4bgjp2rcd13ifvqbh0","pricing_plan_id":"cebpf4jnsgd1na2vs0mg"},{"bike_id":"7d902036-f605-451d-b851-af3d9644846b","system_id":"levelo_inurba_marseille","lat":43.23138,"lon":5.43706,"is_reserved":false,"is_disabled":false,"rental_uris":{"android":"levelo://app?vid=7d902036-f605-451d-b851-af3d9644846b","ios":"levelo://app?vid=7d902036-f605-451d-b851-af3d9644846b"},"vehicle_type_id":"4","last_reported":1728288684,"current_range_meters":17600,"station_id":"ce4bhmp2rcd13ifvqgog","pricing_plan_id":"cebpf4jnsgd1na2vs0mg"},{"bike_id":"d8bc2066-a7d9-41d7-b5ad-d46901326b60","system_id":"levelo_inurba_marseille","lat":43.31361,"lon":5.367,"is_reserved":false,"is_disabled":false,"rental_uris":{"android":"levelo://app?vid=d8bc2066-a7d9-41d7-b5ad-d46901326b60","ios":"levelo://app?vid=d8bc2066-a7d9-41d7-b5ad-d46901326b60"},"vehicle_type_id":"4","last_reported":1728288684,"current_range_meters":22000,"station_id":"ce4bgr92rcd13ifvqc6g","pricing_plan_id":"cebpf4jnsgd1na2vs0mg"},{"bike_id":"5fd97b48-8eeb-44e8-bc7a-e8fa9d0cf5b6","system_id":"levelo_inurba_marseille","lat":43.30725,"lon":5.39725,"is_reserved":false,"is_disabled":false,"rental_uris":{"android":"levelo://app?vid=5fd97b48-8eeb-44e8-bc7a-e8fa9d0cf5b6","ios":"levelo://app?vid=5fd97b48-8eeb-44e8-bc7a-e8fa9d0cf5b6"},"vehicle_type_id":"4","last_reported":1728288684,"current_range_meters":9600,"station_id":"","pricing_plan_id":"cebpf4jnsgd1na2vs0mg"},{"bike_id":"c8a9b141-db7b-47d0-9367-e8aeade551b5","system_id":"levelo_inurba_marseille","lat":43.25823,"lon":5.39437,"is_reserved":false,"is_disabled":false,"rental_uris":{"android":"levelo://app?vid=c8a9b141-db7b-47d0-9367-e8aeade551b5","ios":"levelo://app?vid=c8a9b141-db7b-47d0-9367-e8aeade551b5"},"vehicle_type_id":"4","last_reported":1728288684,"current_range_meters":25600,"station_id":"ce4bhip2rcd13ifvqft0","pricing_plan_id":"cebpf4jnsgd1na2vs0mg"},{"bike_id":"38f238e3-faac-4b85-9e0e-8d5557d9a402","system_id":"levelo_inurba_marseille","lat":43.30281,"lon":5.37699,"is_reserved":false,"is_disabled":false,"rental_uris":{"android":"levelo://app?vid=38f238e3-faac-4b85-9e0e-8d5557d9a402","ios":"levelo://app?vid=38f238e3-faac-4b85-9e0e-8d5557d9a402"},"vehicle_type_id":"4","last_reported":1728288684,"current_range_meters":29600,"station_id":"ce4bguh2rcd13ifvqcj0","pricing_plan_id":"cebpf4jnsgd1na2vs0mg"},{"bike_id":"e8f38f77-6572-42be-9296-0cbe6e7cb972","system_id":"levelo_inurba_marseille","lat":43.23054,"lon":5.35492,"is_reserved":false,"is_disabled":false,"rental_uris":{"android":"levelo://app?vid=e8f38f77-6572-42be-9296-0cbe6e7cb972","ios":"levelo://app?vid=e8f38f77-6572-42be-9296-0cbe6e7cb972"},"vehicle_type_id":"4","last_reported":1728288684,"current_range_meters":37600,"station_id":"cpo3342slgdg3j2ifvpg","pricing_plan_id":"cebpf4jnsgd1na2vs0mg"},{"bike_id":"5cf641ec-28f1-4dc2-86f7-80690bd724c8","system_id":"levelo_inurba_marseille","lat":43.29568,"lon":5.37512,"is_reserved":false,"is_disabled":false,"rental_uris":{"android":"levelo://app?vid=5cf641ec-28f1-4dc2-86f7-80690bd724c8","ios":"levelo://app?vid=5cf641ec-28f1-4dc2-86f7-80690bd724c8"},"vehicle_type_id":"4","last_reported":1728288684,"current_range_meters":5600,"station_id":"ce4bgh92rcd13ifvqb50","pricing_plan_id":"cebpf4jnsgd1na2vs0mg"},{"bike_id":"35979177-019c-42cd-afd9-290448d834e6","system_id":"levelo_inurba_marseille","lat":43.31114,"lon":5.37763,"is_reserved":false,"is_disabled":false,"rental_uris":{"android":"levelo://app?vid=35979177-019c-42cd-afd9-290448d834e6","ios":"levelo://app?vid=35979177-019c-42cd-afd9-290448d834e6"},"vehicle_type_id":"4","last_reported":1728288684,"current_range_meters":18000,"station_id":"ce4bgt92rcd13ifvqcg0","pricing_plan_id":"cebpf4jnsgd1na2vs0mg"},{"bike_id":"9104149d-6799-4106-8d19-23a2361a119a","system_id":"levelo_inurba_marseille","lat":43.2678,"lon":5.39411,"is_reserved":false,"is_disabled":false,"rental_uris":{"android":"levelo://app?vid=9104149d-6799-4106-8d19-23a2361a119a","ios":"levelo://app?vid=9104149d-6799-4106-8d19-23a2361a119a"},"vehicle_type_id":"4","last_reported":1728288684,"current_range_meters":18800,"station_id":"ce4bhh12rcd13ifvqfg0","pricing_plan_id":"cebpf4jnsgd1na2vs0mg"},{"bike_id":"081fbb8e-54fc-4dd0-8205-f26bfd34c2ca","system_id":"levelo_inurba_marseille","lat":43.29005,"lon":5.35615,"is_reserved":false,"is_disabled":false,"rental_uris":{"android":"levelo://app?vid=081fbb8e-54fc-4dd0-8205-f26bfd34c2ca","ios":"levelo://app?vid=081fbb8e-54fc-4dd0-8205-f26bfd34c2ca"},"vehicle_type_id":"4","last_reported":1728288684,"current_range_meters":18800,"station_id":"ce4bhb92rcd13ifvqen0","pricing_plan_id":"cebpf4jnsgd1na2vs0mg"},{"bike_id":"1e59dc56-c7a7-4844-bc4a-73bca0ed3bba","system_id":"levelo_inurba_marseille","lat":43.30322,"lon":5.4044,"is_reserved":false,"is_disabled":false,"rental_uris":{"android":"levelo://app?vid=1e59dc56-c7a7-4844-bc4a-73bca0ed3bba","ios":"levelo://app?vid=1e59dc56-c7a7-4844-bc4a-73bca0ed3bba"},"vehicle_type_id":"4","last_reported":1728288684,"current_range_meters":22400,"station_id":"ce4bh012rcd13ifvqd10","pricing_plan_id":"cebpf4jnsgd1na2vs0mg"},{"bike_id":"b3576681-ace2-4183-b12d-e87c0c5a344d","system_id":"levelo_inurba_marseille","lat":43.25499,"lon":5.37646,"is_reserved":false,"is_disabled":false,"rental_uris":{"android":"levelo://app?vid=b3576681-ace2-4183-b12d-e87c0c5a344d","ios":"levelo://app?vid=b3576681-ace2-4183-b12d-e87c0c5a344d"},"vehicle_type_id":"4","last_reported":1728288684,"current_range_meters":36400,"station_id":"ce4bhh12rcd13ifvqff0","pricing_plan_id":"cebpf4jnsgd1na2vs0mg"},{"bike_id":"f728ea68-5d9e-4ef4-a72d-5aeb9f227bf5","system_id":"levelo_inurba_marseille","lat":43.28155,"lon":5.42641,"is_reserved":false,"is_disabled":false,"rental_uris":{"android":"levelo://app?vid=f728ea68-5d9e-4ef4-a72d-5aeb9f227bf5","ios":"levelo://app?vid=f728ea68-5d9e-4ef4-a72d-5aeb9f227bf5"},"vehicle_type_id":"4","last_reported":1728288684,"current_range_meters":10000,"station_id":"ce4bhnh2rcd13ifvqgug","pricing_plan_id":"cebpf4jnsgd1na2vs0mg"},{"bike_id":"1dad735d-481e-47ff-8bf7-942577eed167","system_id":"levelo_inurba_marseille","lat":43.23151,"lon":5.43706,"is_reserved":false,"is_disabled":false,"rental_uris":{"android":"levelo://app?vid=1dad735d-481e-47ff-8bf7-942577eed167","ios":"levelo://app?vid=1dad735d-481e-47ff-8bf7-942577eed167"},"vehicle_type_id":"4","last_reported":1728288684,"current_range_meters":20800,"station_id":"ce4bhmp2rcd13ifvqgog","pricing_plan_id":"cebpf4jnsgd1na2vs0mg"},{"bike_id":"15a9c6ab-56e2-4921-b8a1-61aadacd9402","system_id":"levelo_inurba_marseille","lat":43.27075,"lon":5.42272,"is_reserved":false,"is_disabled":false,"rental_uris":{"android":"levelo://app?vid=15a9c6ab-56e2-4921-b8a1-61aadacd9402","ios":"levelo://app?vid=15a9c6ab-56e2-4921-b8a1-61aadacd9402"},"vehicle_type_id":"4","last_reported":1728288684,"current_range_meters":38400,"station_id":"ce4bhk92rcd13ifvqgb0","pricing_plan_id":"cebpf4jnsgd1na2vs0mg"},{"bike_id":"c91f7103-63c0-4e88-ad9d-c5194f82620f","system_id":"levelo_inurba_marseille","lat":43.28427,"lon":5.4108,"is_reserved":false,"is_disabled":false,"rental_uris":{"android":"levelo://app?vid=c91f7103-63c0-4e88-ad9d-c5194f82620f","ios":"levelo://app?vid=c91f7103-63c0-4e88-ad9d-c5194f82620f"},"vehicle_type_id":"4","last_reported":1728288684,"current_range_meters":37600,"station_id":"","pricing_plan_id":"cebpf4jnsgd1na2vs0mg"},{"bike_id":"490889b1-cee9-4892-9db5-299333956c90","system_id":"levelo_inurba_marseille","lat":43.34143,"lon":5.40898,"is_reserved":false,"is_disabled":false,"rental_uris":{"android":"levelo://app?vid=490889b1-cee9-4892-9db5-299333956c90","ios":"levelo://app?vid=490889b1-cee9-4892-9db5-299333956c90"},"vehicle_type_id":"4","last_reported":1728288684,"current_range_meters":38800,"station_id":"ce4bhqh2rcd13ifvqhlg","pricing_plan_id":"cebpf4jnsgd1na2vs0mg"},{"bike_id":"931a1d8e-4090-4299-b271-43413a8cf3bf","system_id":"levelo_inurba_marseille","lat":43.30535,"lon":5.36696,"is_reserved":false,"is_disabled":false,"rental_uris":{"android":"levelo://app?vid=931a1d8e-4090-4299-b271-43413a8cf3bf","ios":"levelo://app?vid=931a1d8e-4090-4299-b271-43413a8cf3bf"},"vehicle_type_id":"4","last_reported":1728288684,"current_range_meters":38800,"station_id":"ce4bgrp2rcd13ifvqc9g","pricing_plan_id":"cebpf4jnsgd1na2vs0mg"},{"bike_id":"ea30e775-8466-430d-96e1-a121d270f1bd","system_id":"levelo_inurba_marseille","lat":43.24642,"lon":5.38888,"is_reserved":false,"is_disabled":false,"rental_uris":{"android":"levelo://app?vid=ea30e775-8466-430d-96e1-a121d270f1bd","ios":"levelo://app?vid=ea30e775-8466-430d-96e1-a121d270f1bd"},"vehicle_type_id":"4","last_reported":1728288684,"current_range_meters":37600,"station_id":"ce4bhg12rcd13ifvqf60","pricing_plan_id":"cebpf4jnsgd1na2vs0mg"},{"bike_id":"fcd7bd13-51f4-4d3b-972c-46130ae37495","system_id":"levelo_inurba_marseille","lat":43.25115,"lon":5.40315,"is_reserved":false,"is_disabled":false,"rental_uris":{"android":"levelo://app?vid=fcd7bd13-51f4-4d3b-972c-46130ae37495","ios":"levelo://app?vid=fcd7bd13-51f4-4d3b-972c-46130ae37495"},"vehicle_type_id":"4","last_reported":1728288684,"current_range_meters":20000,"station_id":"ce4bhlh2rcd13ifvqgig","pricing_plan_id":"cebpf4jnsgd1na2vs0mg"},{"bike_id":"4378a0dd-7ddd-4246-9294-1e2af02e0700","system_id":"levelo_inurba_marseille","lat":43.23192,"lon":5.35545,"is_reserved":false,"is_disabled":false,"rental_uris":{"android":"levelo://app?vid=4378a0dd-7ddd-4246-9294-1e2af02e0700","ios":"levelo://app?vid=4378a0dd-7ddd-4246-9294-1e2af02e0700"},"vehicle_type_id":"4","last_reported":1728288684,"current_range_meters":6400,"station_id":"ce4bhu92rcd13ifvqi70","pricing_plan_id":"cebpf4jnsgd1na2vs0mg"},{"bike_id":"3533b554-93d6-4b5f-9e0a-f5ac5a855cad","system_id":"levelo_inurba_marseille","lat":43.3021,"lon":5.39468,"is_reserved":false,"is_disabled":false,"rental_uris":{"android":"levelo://app?vid=3533b554-93d6-4b5f-9e0a-f5ac5a855cad","ios":"levelo://app?vid=3533b554-93d6-4b5f-9e0a-f5ac5a855cad"},"vehicle_type_id":"4","last_reported":1728288684,"current_range_meters":10800,"station_id":"ce4bh0p2rcd13ifvqd70","pricing_plan_id":"cebpf4jnsgd1na2vs0mg"},{"bike_id":"11c38f25-728a-4ba9-b492-cd81a7e21762","system_id":"levelo_inurba_marseille","lat":43.251,"lon":5.40325,"is_reserved":false,"is_disabled":false,"rental_uris":{"android":"levelo://app?vid=11c38f25-728a-4ba9-b492-cd81a7e21762","ios":"levelo://app?vid=11c38f25-728a-4ba9-b492-cd81a7e21762"},"vehicle_type_id":"4","last_reported":1728288684,"current_range_meters":18000,"station_id":"ce4bhlh2rcd13ifvqgig","pricing_plan_id":"cebpf4jnsgd1na2vs0mg"},{"bike_id":"594a551f-028c-4b5b-8770-f76d6722f290","system_id":"levelo_inurba_marseille","lat":43.33607,"lon":5.41036,"is_reserved":false,"is_disabled":false,"rental_uris":{"android":"levelo://app?vid=594a551f-028c-4b5b-8770-f76d6722f290","ios":"levelo://app?vid=594a551f-028c-4b5b-8770-f76d6722f290"},"vehicle_type_id":"4","last_reported":1728288684,"current_range_meters":8400,"station_id":"ce4bhqh2rcd13ifvqhmg","pricing_plan_id":"cebpf4jnsgd1na2vs0mg"},{"bike_id":"1fbb66fa-7e57-4df8-9848-092ef367157f","system_id":"levelo_inurba_marseille","lat":43.25932,"lon":5.40901,"is_reserved":false,"is_disabled":false,"rental_uris":{"android":"levelo://app?vid=1fbb66fa-7e57-4df8-9848-092ef367157f","ios":"levelo://app?vid=1fbb66fa-7e57-4df8-9848-092ef367157f"},"vehicle_type_id":"4","last_reported":1728288684,"current_range_meters":20000,"station_id":"ce4bhm92rcd13ifvqglg","pricing_plan_id":"cebpf4jnsgd1na2vs0mg"},{"bike_id":"785c014f-55f4-4665-b780-c97578cef27c","system_id":"levelo_inurba_marseille","lat":43.3091,"lon":5.36854,"is_reserved":false,"is_disabled":false,"rental_uris":{"android":"levelo://app?vid=785c014f-55f4-4665-b780-c97578cef27c","ios":"levelo://app?vid=785c014f-55f4-4665-b780-c97578cef27c"},"vehicle_type_id":"4","last_reported":1728288684,"current_range_meters":7200,"station_id":"ce4bgn92rcd13ifvqbvg","pricing_plan_id":"cebpf4jnsgd1na2vs0mg"},{"bike_id":"42d15a18-60a2-4a83-b713-12e79302f026","system_id":"levelo_inurba_marseille","lat":43.25817,"lon":5.3943,"is_reserved":false,"is_disabled":false,"rental_uris":{"android":"levelo://app?vid=42d15a18-60a2-4a83-b713-12e79302f026","ios":"levelo://app?vid=42d15a18-60a2-4a83-b713-12e79302f026"},"vehicle_type_id":"4","last_reported":1728288684,"current_range_meters":38800,"station_id":"ce4bhip2rcd13ifvqft0","pricing_plan_id":"cebpf4jnsgd1na2vs0mg"},{"bike_id":"e68d221a-42b6-44a7-a4d9-d20a6c628b49","system_id":"levelo_inurba_marseille","lat":43.2409,"lon":5.3775,"is_reserved":false,"is_disabled":false,"rental_uris":{"android":"levelo://app?vid=e68d221a-42b6-44a7-a4d9-d20a6c628b49","ios":"levelo://app?vid=e68d221a-42b6-44a7-a4d9-d20a6c628b49"},"vehicle_type_id":"4","last_reported":1728288684,"current_range_meters":31200,"station_id":"ce4bhnp2rcd13ifvqgvg","pricing_plan_id":"cebpf4jnsgd1na2vs0mg"},{"bike_id":"93d45870-2e1c-4ed1-9664-7b219a4ed443","system_id":"levelo_inurba_marseille","lat":43.22931,"lon":5.35382,"is_reserved":false,"is_disabled":false,"rental_uris":{"android":"levelo://app?vid=93d45870-2e1c-4ed1-9664-7b219a4ed443","ios":"levelo://app?vid=93d45870-2e1c-4ed1-9664-7b219a4ed443"},"vehicle_type_id":"4","last_reported":1728288684,"current_range_meters":37600,"station_id":"cpo3532slgdg3j2ikp40","pricing_plan_id":"cebpf4jnsgd1na2vs0mg"},{"bike_id":"a5e8f575-8d4f-4087-ba11-18a9bc791d8e","system_id":"levelo_inurba_marseille","lat":43.26198,"lon":5.3793,"is_reserved":false,"is_disabled":false,"rental_uris":{"android":"levelo://app?vid=a5e8f575-8d4f-4087-ba11-18a9bc791d8e","ios":"levelo://app?vid=a5e8f575-8d4f-4087-ba11-18a9bc791d8e"},"vehicle_type_id":"4","last_reported":1728288684,"current_range_meters":14000,"station_id":"ce4bhjp2rcd13ifvqg90","pricing_plan_id":"cebpf4jnsgd1na2vs0mg"},{"bike_id":"427c953f-0ea6-4680-b2fa-440c826f8259","system_id":"levelo_inurba_marseille","lat":43.31353,"lon":5.36706,"is_reserved":false,"is_disabled":false,"rental_uris":{"android":"levelo://app?vid=427c953f-0ea6-4680-b2fa-440c826f8259","ios":"levelo://app?vid=427c953f-0ea6-4680-b2fa-440c826f8259"},"vehicle_type_id":"4","last_reported":1728288684,"current_range_meters":9600,"station_id":"ce4bgr92rcd13ifvqc6g","pricing_plan_id":"cebpf4jnsgd1na2vs0mg"},{"bike_id":"775a53a5-831c-4a9f-a127-bafca0f9736b","system_id":"levelo_inurba_marseille","lat":43.337444,"lon":5.374475,"is_reserved":false,"is_disabled":false,"rental_uris":{"android":"levelo://app?vid=775a53a5-831c-4a9f-a127-bafca0f9736b","ios":"levelo://app?vid=775a53a5-831c-4a9f-a127-bafca0f9736b"},"vehicle_type_id":"4","last_reported":1728288684,"current_range_meters":38800,"station_id":"","pricing_plan_id":"cebpf4jnsgd1na2vs0mg"},{"bike_id":"26d2440b-d4e3-4faf-a92b-d9f12aadb4e5","system_id":"levelo_inurba_marseille","lat":43.29259,"lon":5.36845,"is_reserved":false,"is_disabled":false,"rental_uris":{"android":"levelo://app?vid=26d2440b-d4e3-4faf-a92b-d9f12aadb4e5","ios":"levelo://app?vid=26d2440b-d4e3-4faf-a92b-d9f12aadb4e5"},"vehicle_type_id":"4","last_reported":1728288684,"current_range_meters":12800,"station_id":"","pricing_plan_id":"cebpf4jnsgd1na2vs0mg"},{"bike_id":"6e512044-ef12-457b-bcca-26bd86c5618a","system_id":"levelo_inurba_marseille","lat":43.23062,"lon":5.35492,"is_reserved":false,"is_disabled":false,"rental_uris":{"android":"levelo://app?vid=6e512044-ef12-457b-bcca-26bd86c5618a","ios":"levelo://app?vid=6e512044-ef12-457b-bcca-26bd86c5618a"},"vehicle_type_id":"4","last_reported":1728288684,"current_range_meters":37600,"station_id":"cpo3342slgdg3j2ifvpg","pricing_plan_id":"cebpf4jnsgd1na2vs0mg"},{"bike_id":"fe5dcab0-0dab-4e81-9dc6-41b25a1747fa","system_id":"levelo_inurba_marseille","lat":43.31345,"lon":5.36712,"is_reserved":false,"is_disabled":false,"rental_uris":{"android":"levelo://app?vid=fe5dcab0-0dab-4e81-9dc6-41b25a1747fa","ios":"levelo://app?vid=fe5dcab0-0dab-4e81-9dc6-41b25a1747fa"},"vehicle_type_id":"4","last_reported":1728288684,"current_range_meters":24800,"station_id":"ce4bgr92rcd13ifvqc6g","pricing_plan_id":"cebpf4jnsgd1na2vs0mg"},{"bike_id":"346069af-42ee-4546-bffa-91c1e2a8987a","system_id":"levelo_inurba_marseille","lat":43.25501,"lon":5.37646,"is_reserved":false,"is_disabled":false,"rental_uris":{"android":"levelo://app?vid=346069af-42ee-4546-bffa-91c1e2a8987a","ios":"levelo://app?vid=346069af-42ee-4546-bffa-91c1e2a8987a"},"vehicle_type_id":"4","last_reported":1728288684,"current_range_meters":4400,"station_id":"ce4bhh12rcd13ifvqff0","pricing_plan_id":"cebpf4jnsgd1na2vs0mg"},{"bike_id":"4763d0af-e928-46b5-8892-d3f301bb3fbd","system_id":"levelo_inurba_marseille","lat":43.30209,"lon":5.39464,"is_reserved":false,"is_disabled":false,"rental_uris":{"android":"levelo://app?vid=4763d0af-e928-46b5-8892-d3f301bb3fbd","ios":"levelo://app?vid=4763d0af-e928-46b5-8892-d3f301bb3fbd"},"vehicle_type_id":"4","last_reported":1728288684,"current_range_meters":14800,"station_id":"ce4bh0p2rcd13ifvqd70","pricing_plan_id":"cebpf4jnsgd1na2vs0mg"},{"bike_id":"35a78822-1c4e-4139-9be0-ed7dd76a0786","system_id":"levelo_inurba_marseille","lat":43.25865,"lon":5.39892,"is_reserved":false,"is_disabled":false,"rental_uris":{"android":"levelo://app?vid=35a78822-1c4e-4139-9be0-ed7dd76a0786","ios":"levelo://app?vid=35a78822-1c4e-4139-9be0-ed7dd76a0786"},"vehicle_type_id":"4","last_reported":1728288684,"current_range_meters":38400,"station_id":"ce4bhl92rcd13ifvqghg","pricing_plan_id":"cebpf4jnsgd1na2vs0mg"},{"bike_id":"270b90ca-7521-4165-af49-e1c727e5fa34","system_id":"levelo_inurba_marseille","lat":43.24165,"lon":5.36395,"is_reserved":false,"is_disabled":false,"rental_uris":{"android":"levelo://app?vid=270b90ca-7521-4165-af49-e1c727e5fa34","ios":"levelo://app?vid=270b90ca-7521-4165-af49-e1c727e5fa34"},"vehicle_type_id":"4","last_reported":1728288684,"current_range_meters":30000,"station_id":"cpo36qri1sfpv3e86is0","pricing_plan_id":"cebpf4jnsgd1na2vs0mg"},{"bike_id":"4996f5d1-529e-4afd-9b8e-6ad6732e4a45","system_id":"levelo_inurba_marseille","lat":43.2872,"lon":5.37938,"is_reserved":false,"is_disabled":false,"rental_uris":{"android":"levelo://app?vid=4996f5d1-529e-4afd-9b8e-6ad6732e4a45","ios":"levelo://app?vid=4996f5d1-529e-4afd-9b8e-6ad6732e4a45"},"vehicle_type_id":"4","last_reported":1728288684,"current_range_meters":18800,"station_id":"ce4bh9p2rcd13ifvqec0","pricing_plan_id":"cebpf4jnsgd1na2vs0mg"},{"bike_id":"9a9a82ec-7cc8-4545-888a-5d37bbe19e65","system_id":"levelo_inurba_marseille","lat":43.29215,"lon":5.36053,"is_reserved":false,"is_disabled":false,"rental_uris":{"android":"levelo://app?vid=9a9a82ec-7cc8-4545-888a-5d37bbe19e65","ios":"levelo://app?vid=9a9a82ec-7cc8-4545-888a-5d37bbe19e65"},"vehicle_type_id":"4","last_reported":1728288684,"current_range_meters":35200,"station_id":"ce4bhbh2rcd13ifvqeqg","pricing_plan_id":"cebpf4jnsgd1na2vs0mg"},{"bike_id":"74d3464e-a929-4d8f-9816-e38b964f7774","system_id":"levelo_inurba_marseille","lat":43.27489,"lon":5.42455,"is_reserved":false,"is_disabled":false,"rental_uris":{"android":"levelo://app?vid=74d3464e-a929-4d8f-9816-e38b964f7774","ios":"levelo://app?vid=74d3464e-a929-4d8f-9816-e38b964f7774"},"vehicle_type_id":"4","last_reported":1728288684,"current_range_meters":32400,"station_id":"ce4bhn92rcd13ifvqgrg","pricing_plan_id":"cebpf4jnsgd1na2vs0mg"},{"bike_id":"71a7348c-c075-4626-90c9-7417a7722aa2","system_id":"levelo_inurba_marseille","lat":43.295707,"lon":5.375279,"is_reserved":false,"is_disabled":false,"rental_uris":{"android":"levelo://app?vid=71a7348c-c075-4626-90c9-7417a7722aa2","ios":"levelo://app?vid=71a7348c-c075-4626-90c9-7417a7722aa2"},"vehicle_type_id":"4","last_reported":1728288684,"current_range_meters":7200,"station_id":"cjm6bp8fraef2m0cb0m0","pricing_plan_id":"cebpf4jnsgd1na2vs0mg"},{"bike_id":"824e294a-c810-4688-b9ec-efc7382fd889","system_id":"levelo_inurba_marseille","lat":43.31085,"lon":5.42428,"is_reserved":false,"is_disabled":false,"rental_uris":{"android":"levelo://app?vid=824e294a-c810-4688-b9ec-efc7382fd889","ios":"levelo://app?vid=824e294a-c810-4688-b9ec-efc7382fd889"},"vehicle_type_id":"4","last_reported":1728288684,"current_range_meters":26800,"station_id":"ce4bhp92rcd13ifvqhag","pricing_plan_id":"cebpf4jnsgd1na2vs0mg"},{"bike_id":"a9c548e3-9a04-40b1-8d8f-14281b242750","system_id":"levelo_inurba_marseille","lat":43.30193,"lon":5.36596,"is_reserved":false,"is_disabled":false,"rental_uris":{"android":"levelo://app?vid=a9c548e3-9a04-40b1-8d8f-14281b242750","ios":"levelo://app?vid=a9c548e3-9a04-40b1-8d8f-14281b242750"},"vehicle_type_id":"4","last_reported":1728288684,"current_range_meters":20400,"station_id":"ce4bgrh2rcd13ifvqc8g","pricing_plan_id":"cebpf4jnsgd1na2vs0mg"},{"bike_id":"4bc0179e-567a-4881-b408-bcdc2a2ba939","system_id":"levelo_inurba_marseille","lat":43.29521,"lon":5.37512,"is_reserved":false,"is_disabled":false,"rental_uris":{"android":"levelo://app?vid=4bc0179e-567a-4881-b408-bcdc2a2ba939","ios":"levelo://app?vid=4bc0179e-567a-4881-b408-bcdc2a2ba939"},"vehicle_type_id":"4","last_reported":1728288684,"current_range_meters":20800,"station_id":"ce4bgkp2rcd13ifvqbmg","pricing_plan_id":"cebpf4jnsgd1na2vs0mg"},{"bike_id":"ca5f4c34-3469-41d3-9f12-b240f1be893e","system_id":"levelo_inurba_marseille","lat":43.22933,"lon":5.35378,"is_reserved":false,"is_disabled":false,"rental_uris":{"android":"levelo://app?vid=ca5f4c34-3469-41d3-9f12-b240f1be893e","ios":"levelo://app?vid=ca5f4c34-3469-41d3-9f12-b240f1be893e"},"vehicle_type_id":"4","last_reported":1728288684,"current_range_meters":16400,"station_id":"cpo3532slgdg3j2ikp40","pricing_plan_id":"cebpf4jnsgd1na2vs0mg"},{"bike_id":"668a5359-536e-41ae-9f8f-dfb263ca4d79","system_id":"levelo_inurba_marseille","lat":43.266785,"lon":5.382681,"is_reserved":false,"is_disabled":false,"rental_uris":{"android":"levelo://app?vid=668a5359-536e-41ae-9f8f-dfb263ca4d79","ios":"levelo://app?vid=668a5359-536e-41ae-9f8f-dfb263ca4d79"},"vehicle_type_id":"4","last_reported":1728288684,"current_range_meters":29600,"station_id":"ce4bhg92rcd13ifvqf90","pricing_plan_id":"cebpf4jnsgd1na2vs0mg"},{"bike_id":"605343d4-ac6d-4fac-b9a4-eb891878b20f","system_id":"levelo_inurba_marseille","lat":43.3046,"lon":5.3789,"is_reserved":false,"is_disabled":false,"rental_uris":{"android":"levelo://app?vid=605343d4-ac6d-4fac-b9a4-eb891878b20f","ios":"levelo://app?vid=605343d4-ac6d-4fac-b9a4-eb891878b20f"},"vehicle_type_id":"4","last_reported":1728288684,"current_range_meters":24000,"station_id":"ce4bgup2rcd13ifvqcn0","pricing_plan_id":"cebpf4jnsgd1na2vs0mg"},{"bike_id":"dd6a25d9-00db-44b2-8ae4-0f81038e536f","system_id":"levelo_inurba_marseille","lat":43.32531,"lon":5.41432,"is_reserved":false,"is_disabled":false,"rental_uris":{"android":"levelo://app?vid=dd6a25d9-00db-44b2-8ae4-0f81038e536f","ios":"levelo://app?vid=dd6a25d9-00db-44b2-8ae4-0f81038e536f"},"vehicle_type_id":"4","last_reported":1728288684,"current_range_meters":38400,"station_id":"ce4bhq12rcd13ifvqhhg","pricing_plan_id":"cebpf4jnsgd1na2vs0mg"},{"bike_id":"85081b74-3c48-4b75-b6b6-b181683e784a","system_id":"levelo_inurba_marseille","lat":43.25723,"lon":5.41114,"is_reserved":false,"is_disabled":false,"rental_uris":{"android":"levelo://app?vid=85081b74-3c48-4b75-b6b6-b181683e784a","ios":"levelo://app?vid=85081b74-3c48-4b75-b6b6-b181683e784a"},"vehicle_type_id":"4","last_reported":1728288684,"current_range_meters":35600,"station_id":"ce4bhkp2rcd13ifvqgd0","pricing_plan_id":"cebpf4jnsgd1na2vs0mg"},{"bike_id":"ca150432-5632-417f-a220-d6e10e3598a2","system_id":"levelo_inurba_marseille","lat":43.29895,"lon":5.43656,"is_reserved":false,"is_disabled":false,"rental_uris":{"android":"levelo://app?vid=ca150432-5632-417f-a220-d6e10e3598a2","ios":"levelo://app?vid=ca150432-5632-417f-a220-d6e10e3598a2"},"vehicle_type_id":"4","last_reported":1728288684,"current_range_meters":38800,"station_id":"ce4bhpp2rcd13ifvqhfg","pricing_plan_id":"cebpf4jnsgd1na2vs0mg"},{"bike_id":"e209dd5c-0d10-4561-adda-dad860e62fd5","system_id":"levelo_inurba_marseille","lat":43.30543,"lon":5.3671,"is_reserved":false,"is_disabled":false,"rental_uris":{"android":"levelo://app?vid=e209dd5c-0d10-4561-adda-dad860e62fd5","ios":"levelo://app?vid=e209dd5c-0d10-4561-adda-dad860e62fd5"},"vehicle_type_id":"4","last_reported":1728288684,"current_range_meters":38800,"station_id":"ce4bgrp2rcd13ifvqc9g","pricing_plan_id":"cebpf4jnsgd1na2vs0mg"},{"bike_id":"60463173-f6ba-4391-bc18-8dc57e121270","system_id":"levelo_inurba_marseille","lat":43.30462,"lon":5.37897,"is_reserved":false,"is_disabled":false,"rental_uris":{"android":"levelo://app?vid=60463173-f6ba-4391-bc18-8dc57e121270","ios":"levelo://app?vid=60463173-f6ba-4391-bc18-8dc57e121270"},"vehicle_type_id":"4","last_reported":1728288684,"current_range_meters":8400,"station_id":"ce4bgup2rcd13ifvqcn0","pricing_plan_id":"cebpf4jnsgd1na2vs0mg"},{"bike_id":"7cba0374-be77-4d49-8476-e0da3cccc891","system_id":"levelo_inurba_marseille","lat":43.24168,"lon":5.36393,"is_reserved":false,"is_disabled":false,"rental_uris":{"android":"levelo://app?vid=7cba0374-be77-4d49-8476-e0da3cccc891","ios":"levelo://app?vid=7cba0374-be77-4d49-8476-e0da3cccc891"},"vehicle_type_id":"4","last_reported":1728288684,"current_range_meters":28000,"station_id":"cpo36qri1sfpv3e86is0","pricing_plan_id":"cebpf4jnsgd1na2vs0mg"},{"bike_id":"de7b61ce-9a77-48b8-b281-c8a3b04be6be","system_id":"levelo_inurba_marseille","lat":43.30596,"lon":5.36584,"is_reserved":false,"is_disabled":false,"rental_uris":{"android":"levelo://app?vid=de7b61ce-9a77-48b8-b281-c8a3b04be6be","ios":"levelo://app?vid=de7b61ce-9a77-48b8-b281-c8a3b04be6be"},"vehicle_type_id":"4","last_reported":1728288684,"current_range_meters":20800,"station_id":"ce4bgs12rcd13ifvqcag","pricing_plan_id":"cebpf4jnsgd1na2vs0mg"},{"bike_id":"c2eafa11-ad6c-4f3b-b6e4-6e6fc5d9785c","system_id":"levelo_inurba_marseille","lat":43.29898,"lon":5.4366,"is_reserved":false,"is_disabled":false,"rental_uris":{"android":"levelo://app?vid=c2eafa11-ad6c-4f3b-b6e4-6e6fc5d9785c","ios":"levelo://app?vid=c2eafa11-ad6c-4f3b-b6e4-6e6fc5d9785c"},"vehicle_type_id":"4","last_reported":1728288684,"current_range_meters":38800,"station_id":"ce4bhpp2rcd13ifvqhfg","pricing_plan_id":"cebpf4jnsgd1na2vs0mg"},{"bike_id":"b0dfacd3-cb0a-4f11-98c2-f679c9ce3099","system_id":"levelo_inurba_marseille","lat":43.31355,"lon":5.36713,"is_reserved":false,"is_disabled":false,"rental_uris":{"android":"levelo://app?vid=b0dfacd3-cb0a-4f11-98c2-f679c9ce3099","ios":"levelo://app?vid=b0dfacd3-cb0a-4f11-98c2-f679c9ce3099"},"vehicle_type_id":"4","last_reported":1728288684,"current_range_meters":26800,"station_id":"ce4bgr92rcd13ifvqc6g","pricing_plan_id":"cebpf4jnsgd1na2vs0mg"},{"bike_id":"a25e47d8-0720-4df5-baa4-a99c9ba5e5da","system_id":"levelo_inurba_marseille","lat":43.32477,"lon":5.3656,"is_reserved":false,"is_disabled":false,"rental_uris":{"android":"levelo://app?vid=a25e47d8-0720-4df5-baa4-a99c9ba5e5da","ios":"levelo://app?vid=a25e47d8-0720-4df5-baa4-a99c9ba5e5da"},"vehicle_type_id":"4","last_reported":1728288684,"current_range_meters":19200,"station_id":"ce4bhs12rcd13ifvqhvg","pricing_plan_id":"cebpf4jnsgd1na2vs0mg"},{"bike_id":"d6a904eb-96a5-4bea-a586-e8aaeedf5f4c","system_id":"levelo_inurba_marseille","lat":43.25723,"lon":5.41111,"is_reserved":false,"is_disabled":false,"rental_uris":{"android":"levelo://app?vid=d6a904eb-96a5-4bea-a586-e8aaeedf5f4c","ios":"levelo://app?vid=d6a904eb-96a5-4bea-a586-e8aaeedf5f4c"},"vehicle_type_id":"4","last_reported":1728288684,"current_range_meters":36400,"station_id":"ce4bhkp2rcd13ifvqgd0","pricing_plan_id":"cebpf4jnsgd1na2vs0mg"},{"bike_id":"f6849e98-e59e-4bc2-8e5a-02bcbb272aa6","system_id":"levelo_inurba_marseille","lat":43.33774,"lon":5.37472,"is_reserved":false,"is_disabled":false,"rental_uris":{"android":"levelo://app?vid=f6849e98-e59e-4bc2-8e5a-02bcbb272aa6","ios":"levelo://app?vid=f6849e98-e59e-4bc2-8e5a-02bcbb272aa6"},"vehicle_type_id":"4","last_reported":1728288684,"current_range_meters":38800,"station_id":"","pricing_plan_id":"cebpf4jnsgd1na2vs0mg"},{"bike_id":"09fb0b57-2324-4bd9-a741-e90822f89c25","system_id":"levelo_inurba_marseille","lat":43.24076,"lon":5.37762,"is_reserved":false,"is_disabled":false,"rental_uris":{"android":"levelo://app?vid=09fb0b57-2324-4bd9-a741-e90822f89c25","ios":"levelo://app?vid=09fb0b57-2324-4bd9-a741-e90822f89c25"},"vehicle_type_id":"4","last_reported":1728288684,"current_range_meters":38400,"station_id":"ce4bhnp2rcd13ifvqgvg","pricing_plan_id":"cebpf4jnsgd1na2vs0mg"},{"bike_id":"b4da9d8b-9301-478c-9f01-3fa9f5b15d66","system_id":"levelo_inurba_marseille","lat":43.336009,"lon":5.410294,"is_reserved":false,"is_disabled":false,"rental_uris":{"android":"levelo://app?vid=b4da9d8b-9301-478c-9f01-3fa9f5b15d66","ios":"levelo://app?vid=b4da9d8b-9301-478c-9f01-3fa9f5b15d66"},"vehicle_type_id":"4","last_reported":1728288684,"current_range_meters":36800,"station_id":"ce4bhqh2rcd13ifvqhmg","pricing_plan_id":"cebpf4jnsgd1na2vs0mg"},{"bike_id":"1acc1cdb-3607-49f5-b4fe-c81d4211d176","system_id":"levelo_inurba_marseille","lat":43.31998,"lon":5.38145,"is_reserved":false,"is_disabled":false,"rental_uris":{"android":"levelo://app?vid=1acc1cdb-3607-49f5-b4fe-c81d4211d176","ios":"levelo://app?vid=1acc1cdb-3607-49f5-b4fe-c81d4211d176"},"vehicle_type_id":"4","last_reported":1728288684,"current_range_meters":37600,"station_id":"ce4bhr12rcd13ifvqhpg","pricing_plan_id":"cebpf4jnsgd1na2vs0mg"},{"bike_id":"bc6ec38e-77b7-4a9c-af9d-a03499e93331","system_id":"levelo_inurba_marseille","lat":43.293037,"lon":5.374567,"is_reserved":false,"is_disabled":false,"rental_uris":{"android":"levelo://app?vid=bc6ec38e-77b7-4a9c-af9d-a03499e93331","ios":"levelo://app?vid=bc6ec38e-77b7-4a9c-af9d-a03499e93331"},"vehicle_type_id":"4","last_reported":1728288684,"current_range_meters":25200,"station_id":"ce4bgi12rcd13ifvqb70","pricing_plan_id":"cebpf4jnsgd1na2vs0mg"},{"bike_id":"d564790b-0852-4675-98f3-130b2123dbf4","system_id":"levelo_inurba_marseille","lat":43.2558,"lon":5.38233,"is_reserved":false,"is_disabled":false,"rental_uris":{"android":"levelo://app?vid=d564790b-0852-4675-98f3-130b2123dbf4","ios":"levelo://app?vid=d564790b-0852-4675-98f3-130b2123dbf4"},"vehicle_type_id":"4","last_reported":1728288684,"current_range_meters":38800,"station_id":"ce4bhih2rcd13ifvqfs0","pricing_plan_id":"cebpf4jnsgd1na2vs0mg"},{"bike_id":"b19c065e-115c-4e09-aaf9-cb329323f3a3","system_id":"levelo_inurba_marseille","lat":43.31227,"lon":5.36868,"is_reserved":false,"is_disabled":false,"rental_uris":{"android":"levelo://app?vid=b19c065e-115c-4e09-aaf9-cb329323f3a3","ios":"levelo://app?vid=b19c065e-115c-4e09-aaf9-cb329323f3a3"},"vehicle_type_id":"4","last_reported":1728288684,"current_range_meters":38000,"station_id":"ce4bgl92rcd13ifvqbq0","pricing_plan_id":"cebpf4jnsgd1na2vs0mg"},{"bike_id":"acc4a158-79c4-46ea-892f-f92f49cbf36e","system_id":"levelo_inurba_marseille","lat":43.29852,"lon":5.36285,"is_reserved":false,"is_disabled":false,"rental_uris":{"android":"levelo://app?vid=acc4a158-79c4-46ea-892f-f92f49cbf36e","ios":"levelo://app?vid=acc4a158-79c4-46ea-892f-f92f49cbf36e"},"vehicle_type_id":"4","last_reported":1728288684,"current_range_meters":35200,"station_id":"ce4bgpp2rcd13ifvqc3g","pricing_plan_id":"cebpf4jnsgd1na2vs0mg"},{"bike_id":"0fae0579-21a9-437c-87f5-9c07357a6f20","system_id":"levelo_inurba_marseille","lat":43.25929,"lon":5.40903,"is_reserved":false,"is_disabled":false,"rental_uris":{"android":"levelo://app?vid=0fae0579-21a9-437c-87f5-9c07357a6f20","ios":"levelo://app?vid=0fae0579-21a9-437c-87f5-9c07357a6f20"},"vehicle_type_id":"4","last_reported":1728288684,"current_range_meters":22800,"station_id":"ce4bhm92rcd13ifvqglg","pricing_plan_id":"cebpf4jnsgd1na2vs0mg"},{"bike_id":"a5f43e21-aab5-4ada-a340-8e9929bfea7f","system_id":"levelo_inurba_marseille","lat":43.30541,"lon":5.36708,"is_reserved":false,"is_disabled":false,"rental_uris":{"android":"levelo://app?vid=a5f43e21-aab5-4ada-a340-8e9929bfea7f","ios":"levelo://app?vid=a5f43e21-aab5-4ada-a340-8e9929bfea7f"},"vehicle_type_id":"4","last_reported":1728288684,"current_range_meters":38800,"station_id":"ce4bgrp2rcd13ifvqc9g","pricing_plan_id":"cebpf4jnsgd1na2vs0mg"},{"bike_id":"66a81085-1a96-4f65-934a-3195a2059afa","system_id":"levelo_inurba_marseille","lat":43.24646,"lon":5.38904,"is_reserved":false,"is_disabled":false,"rental_uris":{"android":"levelo://app?vid=66a81085-1a96-4f65-934a-3195a2059afa","ios":"levelo://app?vid=66a81085-1a96-4f65-934a-3195a2059afa"},"vehicle_type_id":"4","last_reported":1728288684,"current_range_meters":38800,"station_id":"ce4bhg12rcd13ifvqf60","pricing_plan_id":"cebpf4jnsgd1na2vs0mg"},{"bike_id":"031f577b-a28b-49d3-af1b-2a52b893974b","system_id":"levelo_inurba_marseille","lat":43.24068,"lon":5.37763,"is_reserved":false,"is_disabled":false,"rental_uris":{"android":"levelo://app?vid=031f577b-a28b-49d3-af1b-2a52b893974b","ios":"levelo://app?vid=031f577b-a28b-49d3-af1b-2a52b893974b"},"vehicle_type_id":"4","last_reported":1728288684,"current_range_meters":29600,"station_id":"ce4bhnp2rcd13ifvqgvg","pricing_plan_id":"cebpf4jnsgd1na2vs0mg"},{"bike_id":"2bdb65cd-1e63-4874-80ab-bd72b908164f","system_id":"levelo_inurba_marseille","lat":43.2442,"lon":5.43766,"is_reserved":false,"is_disabled":false,"rental_uris":{"android":"levelo://app?vid=2bdb65cd-1e63-4874-80ab-bd72b908164f","ios":"levelo://app?vid=2bdb65cd-1e63-4874-80ab-bd72b908164f"},"vehicle_type_id":"4","last_reported":1728288684,"current_range_meters":26000,"station_id":"","pricing_plan_id":"cebpf4jnsgd1na2vs0mg"},{"bike_id":"025b2914-5a55-4831-9515-ed51afbb3e15","system_id":"levelo_inurba_marseille","lat":43.23151,"lon":5.43705,"is_reserved":false,"is_disabled":false,"rental_uris":{"android":"levelo://app?vid=025b2914-5a55-4831-9515-ed51afbb3e15","ios":"levelo://app?vid=025b2914-5a55-4831-9515-ed51afbb3e15"},"vehicle_type_id":"4","last_reported":1728288684,"current_range_meters":19200,"station_id":"ce4bhmp2rcd13ifvqgog","pricing_plan_id":"cebpf4jnsgd1na2vs0mg"},{"bike_id":"202fb834-8b0d-4c08-ae90-55fb4c9ffdc2","system_id":"levelo_inurba_marseille","lat":43.29,"lon":5.35617,"is_reserved":false,"is_disabled":false,"rental_uris":{"android":"levelo://app?vid=202fb834-8b0d-4c08-ae90-55fb4c9ffdc2","ios":"levelo://app?vid=202fb834-8b0d-4c08-ae90-55fb4c9ffdc2"},"vehicle_type_id":"4","last_reported":1728288684,"current_range_meters":25600,"station_id":"ce4bhb92rcd13ifvqen0","pricing_plan_id":"cebpf4jnsgd1na2vs0mg"},{"bike_id":"adc273cf-a1ca-4f79-a20a-3a9996d1055c","system_id":"levelo_inurba_marseille","lat":43.30259,"lon":5.40055,"is_reserved":false,"is_disabled":false,"rental_uris":{"android":"levelo://app?vid=adc273cf-a1ca-4f79-a20a-3a9996d1055c","ios":"levelo://app?vid=adc273cf-a1ca-4f79-a20a-3a9996d1055c"},"vehicle_type_id":"4","last_reported":1728288684,"current_range_meters":6400,"station_id":"ce4bgvh2rcd13ifvqcs0","pricing_plan_id":"cebpf4jnsgd1na2vs0mg"},{"bike_id":"714ca429-1512-493a-b47a-15905dbac610","system_id":"levelo_inurba_marseille","lat":43.266826,"lon":5.382686,"is_reserved":false,"is_disabled":false,"rental_uris":{"android":"levelo://app?vid=714ca429-1512-493a-b47a-15905dbac610","ios":"levelo://app?vid=714ca429-1512-493a-b47a-15905dbac610"},"vehicle_type_id":"4","last_reported":1728288684,"current_range_meters":3600,"station_id":"ce4bhg92rcd13ifvqf90","pricing_plan_id":"cebpf4jnsgd1na2vs0mg"},{"bike_id":"939cae65-7d7c-411b-8bcf-03c03afbfc93","system_id":"levelo_inurba_marseille","lat":43.26785,"lon":5.39408,"is_reserved":false,"is_disabled":false,"rental_uris":{"android":"levelo://app?vid=939cae65-7d7c-411b-8bcf-03c03afbfc93","ios":"levelo://app?vid=939cae65-7d7c-411b-8bcf-03c03afbfc93"},"vehicle_type_id":"4","last_reported":1728288684,"current_range_meters":18000,"station_id":"ce4bhh12rcd13ifvqfg0","pricing_plan_id":"cebpf4jnsgd1na2vs0mg"},{"bike_id":"02a67eee-aeac-4da1-8fef-5d62a4c68b76","system_id":"levelo_inurba_marseille","lat":43.30467,"lon":5.37897,"is_reserved":false,"is_disabled":false,"rental_uris":{"android":"levelo://app?vid=02a67eee-aeac-4da1-8fef-5d62a4c68b76","ios":"levelo://app?vid=02a67eee-aeac-4da1-8fef-5d62a4c68b76"},"vehicle_type_id":"4","last_reported":1728288684,"current_range_meters":28000,"station_id":"ce4bgup2rcd13ifvqcn0","pricing_plan_id":"cebpf4jnsgd1na2vs0mg"},{"bike_id":"27e454fe-53f1-4c58-a3fe-9e10f753b6d5","system_id":"levelo_inurba_marseille","lat":43.27918,"lon":5.39573,"is_reserved":false,"is_disabled":false,"rental_uris":{"android":"levelo://app?vid=27e454fe-53f1-4c58-a3fe-9e10f753b6d5","ios":"levelo://app?vid=27e454fe-53f1-4c58-a3fe-9e10f753b6d5"},"vehicle_type_id":"4","last_reported":1728288684,"current_range_meters":8800,"station_id":"ce4bhf92rcd13ifvqf40","pricing_plan_id":"cebpf4jnsgd1na2vs0mg"},{"bike_id":"15b80bb6-23b2-44d1-81ad-bfa9519791eb","system_id":"levelo_inurba_marseille","lat":43.30086,"lon":5.39078,"is_reserved":false,"is_disabled":false,"rental_uris":{"android":"levelo://app?vid=15b80bb6-23b2-44d1-81ad-bfa9519791eb","ios":"levelo://app?vid=15b80bb6-23b2-44d1-81ad-bfa9519791eb"},"vehicle_type_id":"4","last_reported":1728288684,"current_range_meters":36000,"station_id":"ce4bh192rcd13ifvqdb0","pricing_plan_id":"cebpf4jnsgd1na2vs0mg"},{"bike_id":"38a75b2c-00b2-46e1-88e1-8643a3bae83e","system_id":"levelo_inurba_marseille","lat":43.30462,"lon":5.37905,"is_reserved":false,"is_disabled":false,"rental_uris":{"android":"levelo://app?vid=38a75b2c-00b2-46e1-88e1-8643a3bae83e","ios":"levelo://app?vid=38a75b2c-00b2-46e1-88e1-8643a3bae83e"},"vehicle_type_id":"4","last_reported":1728288684,"current_range_meters":3200,"station_id":"ce4bgup2rcd13ifvqcn0","pricing_plan_id":"cebpf4jnsgd1na2vs0mg"},{"bike_id":"13b0039f-a583-46cf-9deb-910985564f65","system_id":"levelo_inurba_marseille","lat":43.29552,"lon":5.42281,"is_reserved":false,"is_disabled":false,"rental_uris":{"android":"levelo://app?vid=13b0039f-a583-46cf-9deb-910985564f65","ios":"levelo://app?vid=13b0039f-a583-46cf-9deb-910985564f65"},"vehicle_type_id":"4","last_reported":1728288684,"current_range_meters":38800,"station_id":"ce4bhph2rcd13ifvqhdg","pricing_plan_id":"cebpf4jnsgd1na2vs0mg"},{"bike_id":"a4c26559-f6ee-4675-ba78-78554db23dd2","system_id":"levelo_inurba_marseille","lat":43.2835,"lon":5.381,"is_reserved":false,"is_disabled":false,"rental_uris":{"android":"levelo://app?vid=a4c26559-f6ee-4675-ba78-78554db23dd2","ios":"levelo://app?vid=a4c26559-f6ee-4675-ba78-78554db23dd2"},"vehicle_type_id":"4","last_reported":1728288684,"current_range_meters":10800,"station_id":"ce4bh412rcd13ifvqdr0","pricing_plan_id":"cebpf4jnsgd1na2vs0mg"},{"bike_id":"f84a8922-779c-40a0-b82e-d439a7fc24ba","system_id":"levelo_inurba_marseille","lat":43.2799,"lon":5.42468,"is_reserved":false,"is_disabled":false,"rental_uris":{"android":"levelo://app?vid=f84a8922-779c-40a0-b82e-d439a7fc24ba","ios":"levelo://app?vid=f84a8922-779c-40a0-b82e-d439a7fc24ba"},"vehicle_type_id":"4","last_reported":1728288684,"current_range_meters":30800,"station_id":"","pricing_plan_id":"cebpf4jnsgd1na2vs0mg"},{"bike_id":"2951c746-0db3-4309-871e-f21bd026a284","system_id":"levelo_inurba_marseille","lat":43.29028,"lon":5.38649,"is_reserved":false,"is_disabled":false,"rental_uris":{"android":"levelo://app?vid=2951c746-0db3-4309-871e-f21bd026a284","ios":"levelo://app?vid=2951c746-0db3-4309-871e-f21bd026a284"},"vehicle_type_id":"4","last_reported":1728288684,"current_range_meters":4400,"station_id":"ce4bh4p2rcd13ifvqe0g","pricing_plan_id":"cebpf4jnsgd1na2vs0mg"},{"bike_id":"1bb1f55d-5c9c-46ca-a726-37ac75c4e222","system_id":"levelo_inurba_marseille","lat":43.23156,"lon":5.43706,"is_reserved":false,"is_disabled":false,"rental_uris":{"android":"levelo://app?vid=1bb1f55d-5c9c-46ca-a726-37ac75c4e222","ios":"levelo://app?vid=1bb1f55d-5c9c-46ca-a726-37ac75c4e222"},"vehicle_type_id":"4","last_reported":1728288684,"current_range_meters":10800,"station_id":"ce4bhmp2rcd13ifvqgog","pricing_plan_id":"cebpf4jnsgd1na2vs0mg"},{"bike_id":"b9b14ef1-a4fd-4ec7-acf3-b0d47c2e6c33","system_id":"levelo_inurba_marseille","lat":43.29025,"lon":5.37557,"is_reserved":false,"is_disabled":false,"rental_uris":{"android":"levelo://app?vid=b9b14ef1-a4fd-4ec7-acf3-b0d47c2e6c33","ios":"levelo://app?vid=b9b14ef1-a4fd-4ec7-acf3-b0d47c2e6c33"},"vehicle_type_id":"4","last_reported":1728288684,"current_range_meters":27200,"station_id":"","pricing_plan_id":"cebpf4jnsgd1na2vs0mg"},{"bike_id":"0f1bce6a-0c0c-4e8e-b75d-9b44f69348cc","system_id":"levelo_inurba_marseille","lat":43.26553,"lon":5.37284,"is_reserved":false,"is_disabled":false,"rental_uris":{"android":"levelo://app?vid=0f1bce6a-0c0c-4e8e-b75d-9b44f69348cc","ios":"levelo://app?vid=0f1bce6a-0c0c-4e8e-b75d-9b44f69348cc"},"vehicle_type_id":"4","last_reported":1728288684,"current_range_meters":16000,"station_id":"ce4bhg12rcd13ifvqf70","pricing_plan_id":"cebpf4jnsgd1na2vs0mg"},{"bike_id":"43d3232c-9047-4a12-936b-bcbe50b2e90b","system_id":"levelo_inurba_marseille","lat":43.25301,"lon":5.42189,"is_reserved":false,"is_disabled":false,"rental_uris":{"android":"levelo://app?vid=43d3232c-9047-4a12-936b-bcbe50b2e90b","ios":"levelo://app?vid=43d3232c-9047-4a12-936b-bcbe50b2e90b"},"vehicle_type_id":"4","last_reported":1728288684,"current_range_meters":23200,"station_id":"","pricing_plan_id":"cebpf4jnsgd1na2vs0mg"},{"bike_id":"fcb769bd-e567-4fcc-a4bd-aeaa03f693aa","system_id":"levelo_inurba_marseille","lat":43.31362,"lon":5.36699,"is_reserved":false,"is_disabled":false,"rental_uris":{"android":"levelo://app?vid=fcb769bd-e567-4fcc-a4bd-aeaa03f693aa","ios":"levelo://app?vid=fcb769bd-e567-4fcc-a4bd-aeaa03f693aa"},"vehicle_type_id":"4","last_reported":1728288684,"current_range_meters":5600,"station_id":"ce4bgr92rcd13ifvqc6g","pricing_plan_id":"cebpf4jnsgd1na2vs0mg"},{"bike_id":"58ae2949-9d26-4019-bc36-22e5bac58f47","system_id":"levelo_inurba_marseille","lat":43.2979,"lon":5.38112,"is_reserved":false,"is_disabled":false,"rental_uris":{"android":"levelo://app?vid=58ae2949-9d26-4019-bc36-22e5bac58f47","ios":"levelo://app?vid=58ae2949-9d26-4019-bc36-22e5bac58f47"},"vehicle_type_id":"4","last_reported":1728288684,"current_range_meters":30000,"station_id":"ce4bgip2rcd13ifvqbb0","pricing_plan_id":"cebpf4jnsgd1na2vs0mg"},{"bike_id":"ffcb67f9-d262-44a0-bee1-95635eb8fb8e","system_id":"levelo_inurba_marseille","lat":43.305298,"lon":5.365894,"is_reserved":false,"is_disabled":false,"rental_uris":{"android":"levelo://app?vid=ffcb67f9-d262-44a0-bee1-95635eb8fb8e","ios":"levelo://app?vid=ffcb67f9-d262-44a0-bee1-95635eb8fb8e"},"vehicle_type_id":"4","last_reported":1728288684,"current_range_meters":10000,"station_id":"ce4bgs12rcd13ifvqcag","pricing_plan_id":"cebpf4jnsgd1na2vs0mg"},{"bike_id":"2b30163e-1328-4907-b630-a772642bd48c","system_id":"levelo_inurba_marseille","lat":43.29771,"lon":5.37112,"is_reserved":false,"is_disabled":false,"rental_uris":{"android":"levelo://app?vid=2b30163e-1328-4907-b630-a772642bd48c","ios":"levelo://app?vid=2b30163e-1328-4907-b630-a772642bd48c"},"vehicle_type_id":"4","last_reported":1728288684,"current_range_meters":16000,"station_id":"ce4bgop2rcd13ifvqc1g","pricing_plan_id":"cebpf4jnsgd1na2vs0mg"},{"bike_id":"0310fd20-d962-41d3-867a-dcb14ee1af85","system_id":"levelo_inurba_marseille","lat":43.26947,"lon":5.38634,"is_reserved":false,"is_disabled":false,"rental_uris":{"android":"levelo://app?vid=0310fd20-d962-41d3-867a-dcb14ee1af85","ios":"levelo://app?vid=0310fd20-d962-41d3-867a-dcb14ee1af85"},"vehicle_type_id":"4","last_reported":1728288684,"current_range_meters":32400,"station_id":"ce4bhh92rcd13ifvqfh0","pricing_plan_id":"cebpf4jnsgd1na2vs0mg"},{"bike_id":"a142f344-5803-4225-ac31-47844f2b3bc2","system_id":"levelo_inurba_marseille","lat":43.30528,"lon":5.3669,"is_reserved":false,"is_disabled":false,"rental_uris":{"android":"levelo://app?vid=a142f344-5803-4225-ac31-47844f2b3bc2","ios":"levelo://app?vid=a142f344-5803-4225-ac31-47844f2b3bc2"},"vehicle_type_id":"4","last_reported":1728288684,"current_range_meters":19600,"station_id":"ce4bgrp2rcd13ifvqc9g","pricing_plan_id":"cebpf4jnsgd1na2vs0mg"},{"bike_id":"44cb9723-f094-45c7-9c71-6d82e25886a7","system_id":"levelo_inurba_marseille","lat":43.2305,"lon":5.35487,"is_reserved":false,"is_disabled":false,"rental_uris":{"android":"levelo://app?vid=44cb9723-f094-45c7-9c71-6d82e25886a7","ios":"levelo://app?vid=44cb9723-f094-45c7-9c71-6d82e25886a7"},"vehicle_type_id":"4","last_reported":1728288684,"current_range_meters":38000,"station_id":"cpo3342slgdg3j2ifvpg","pricing_plan_id":"cebpf4jnsgd1na2vs0mg"},{"bike_id":"d20dcc4d-e7fd-4bc1-a5e2-4e770ba1cba2","system_id":"levelo_inurba_marseille","lat":43.22928,"lon":5.35374,"is_reserved":false,"is_disabled":false,"rental_uris":{"android":"levelo://app?vid=d20dcc4d-e7fd-4bc1-a5e2-4e770ba1cba2","ios":"levelo://app?vid=d20dcc4d-e7fd-4bc1-a5e2-4e770ba1cba2"},"vehicle_type_id":"4","last_reported":1728288684,"current_range_meters":31200,"station_id":"cpo3532slgdg3j2ikp40","pricing_plan_id":"cebpf4jnsgd1na2vs0mg"},{"bike_id":"5209215f-a517-413d-a091-19910bec7283","system_id":"levelo_inurba_marseille","lat":43.27362,"lon":5.36262,"is_reserved":false,"is_disabled":false,"rental_uris":{"android":"levelo://app?vid=5209215f-a517-413d-a091-19910bec7283","ios":"levelo://app?vid=5209215f-a517-413d-a091-19910bec7283"},"vehicle_type_id":"4","last_reported":1728288684,"current_range_meters":37600,"station_id":"ce4bhbh2rcd13ifvqeo0","pricing_plan_id":"cebpf4jnsgd1na2vs0mg"},{"bike_id":"011270c4-da7b-4ddd-8382-e67c19f8136a","system_id":"levelo_inurba_marseille","lat":43.30464,"lon":5.37898,"is_reserved":false,"is_disabled":false,"rental_uris":{"android":"levelo://app?vid=011270c4-da7b-4ddd-8382-e67c19f8136a","ios":"levelo://app?vid=011270c4-da7b-4ddd-8382-e67c19f8136a"},"vehicle_type_id":"4","last_reported":1728288684,"current_range_meters":38800,"station_id":"ce4bgup2rcd13ifvqcn0","pricing_plan_id":"cebpf4jnsgd1na2vs0mg"},{"bike_id":"789b60ea-569f-466a-a401-66c3c8f05a5a","system_id":"levelo_inurba_marseille","lat":43.33625,"lon":5.41033,"is_reserved":false,"is_disabled":false,"rental_uris":{"android":"levelo://app?vid=789b60ea-569f-466a-a401-66c3c8f05a5a","ios":"levelo://app?vid=789b60ea-569f-466a-a401-66c3c8f05a5a"},"vehicle_type_id":"4","last_reported":1728288684,"current_range_meters":25200,"station_id":"ce4bhqh2rcd13ifvqhmg","pricing_plan_id":"cebpf4jnsgd1na2vs0mg"},{"bike_id":"cba9847b-ac59-4aa8-a588-3c09a476dbdb","system_id":"levelo_inurba_marseille","lat":43.24544,"lon":5.39523,"is_reserved":false,"is_disabled":false,"rental_uris":{"android":"levelo://app?vid=cba9847b-ac59-4aa8-a588-3c09a476dbdb","ios":"levelo://app?vid=cba9847b-ac59-4aa8-a588-3c09a476dbdb"},"vehicle_type_id":"4","last_reported":1728288684,"current_range_meters":17200,"station_id":"ce4bhlp2rcd13ifvqgjg","pricing_plan_id":"cebpf4jnsgd1na2vs0mg"},{"bike_id":"2b56c3e5-45a1-4057-8d0e-75a6038e2b3c","system_id":"levelo_inurba_marseille","lat":43.27494,"lon":5.42448,"is_reserved":false,"is_disabled":false,"rental_uris":{"android":"levelo://app?vid=2b56c3e5-45a1-4057-8d0e-75a6038e2b3c","ios":"levelo://app?vid=2b56c3e5-45a1-4057-8d0e-75a6038e2b3c"},"vehicle_type_id":"4","last_reported":1728288684,"current_range_meters":5600,"station_id":"ce4bhn92rcd13ifvqgrg","pricing_plan_id":"cebpf4jnsgd1na2vs0mg"},{"bike_id":"ae2c06c7-cbca-4538-b6eb-8a2e877b02e3","system_id":"levelo_inurba_marseille","lat":43.28689,"lon":5.3738,"is_reserved":false,"is_disabled":false,"rental_uris":{"android":"levelo://app?vid=ae2c06c7-cbca-4538-b6eb-8a2e877b02e3","ios":"levelo://app?vid=ae2c06c7-cbca-4538-b6eb-8a2e877b02e3"},"vehicle_type_id":"4","last_reported":1728288684,"current_range_meters":38400,"station_id":"ce4bh3p2rcd13ifvqdq0","pricing_plan_id":"cebpf4jnsgd1na2vs0mg"},{"bike_id":"4e0c83a2-b0c3-4894-8559-e509681998d3","system_id":"levelo_inurba_marseille","lat":43.31116,"lon":5.38323,"is_reserved":false,"is_disabled":false,"rental_uris":{"android":"levelo://app?vid=4e0c83a2-b0c3-4894-8559-e509681998d3","ios":"levelo://app?vid=4e0c83a2-b0c3-4894-8559-e509681998d3"},"vehicle_type_id":"4","last_reported":1728288684,"current_range_meters":3600,"station_id":"ce4bgv92rcd13ifvqcr0","pricing_plan_id":"cebpf4jnsgd1na2vs0mg"},{"bike_id":"daefe2e8-7101-4f87-80a7-5f82d9e26974","system_id":"levelo_inurba_marseille","lat":43.3111,"lon":5.37763,"is_reserved":false,"is_disabled":false,"rental_uris":{"android":"levelo://app?vid=daefe2e8-7101-4f87-80a7-5f82d9e26974","ios":"levelo://app?vid=daefe2e8-7101-4f87-80a7-5f82d9e26974"},"vehicle_type_id":"4","last_reported":1728288684,"current_range_meters":28000,"station_id":"ce4bgt92rcd13ifvqcg0","pricing_plan_id":"cebpf4jnsgd1na2vs0mg"},{"bike_id":"d4f85512-eff9-43d3-a907-7a6acb590310","system_id":"levelo_inurba_marseille","lat":43.30541,"lon":5.36556,"is_reserved":false,"is_disabled":false,"rental_uris":{"android":"levelo://app?vid=d4f85512-eff9-43d3-a907-7a6acb590310","ios":"levelo://app?vid=d4f85512-eff9-43d3-a907-7a6acb590310"},"vehicle_type_id":"4","last_reported":1728288684,"current_range_meters":8400,"station_id":"ce4bgs12rcd13ifvqcag","pricing_plan_id":"cebpf4jnsgd1na2vs0mg"},{"bike_id":"87737580-1091-4d61-a6ca-f123391133c1","system_id":"levelo_inurba_marseille","lat":43.32531,"lon":5.41444,"is_reserved":false,"is_disabled":false,"rental_uris":{"android":"levelo://app?vid=87737580-1091-4d61-a6ca-f123391133c1","ios":"levelo://app?vid=87737580-1091-4d61-a6ca-f123391133c1"},"vehicle_type_id":"4","last_reported":1728288684,"current_range_meters":38800,"station_id":"ce4bhq12rcd13ifvqhhg","pricing_plan_id":"cebpf4jnsgd1na2vs0mg"},{"bike_id":"96187375-27cf-476f-b0df-40c900959d5d","system_id":"levelo_inurba_marseille","lat":43.24085,"lon":5.37754,"is_reserved":false,"is_disabled":false,"rental_uris":{"android":"levelo://app?vid=96187375-27cf-476f-b0df-40c900959d5d","ios":"levelo://app?vid=96187375-27cf-476f-b0df-40c900959d5d"},"vehicle_type_id":"4","last_reported":1728288684,"current_range_meters":36400,"station_id":"ce4bhnp2rcd13ifvqgvg","pricing_plan_id":"cebpf4jnsgd1na2vs0mg"},{"bike_id":"1c61e578-5af2-46a8-97da-91a2b6e2e295","system_id":"levelo_inurba_marseille","lat":43.31119,"lon":5.37763,"is_reserved":false,"is_disabled":false,"rental_uris":{"android":"levelo://app?vid=1c61e578-5af2-46a8-97da-91a2b6e2e295","ios":"levelo://app?vid=1c61e578-5af2-46a8-97da-91a2b6e2e295"},"vehicle_type_id":"4","last_reported":1728288684,"current_range_meters":28800,"station_id":"ce4bgt92rcd13ifvqcg0","pricing_plan_id":"cebpf4jnsgd1na2vs0mg"},{"bike_id":"12c24200-9c9c-470e-aa9c-8ffd8543d16b","system_id":"levelo_inurba_marseille","lat":43.30459,"lon":5.37895,"is_reserved":false,"is_disabled":false,"rental_uris":{"android":"levelo://app?vid=12c24200-9c9c-470e-aa9c-8ffd8543d16b","ios":"levelo://app?vid=12c24200-9c9c-470e-aa9c-8ffd8543d16b"},"vehicle_type_id":"4","last_reported":1728288684,"current_range_meters":22400,"station_id":"ce4bgup2rcd13ifvqcn0","pricing_plan_id":"cebpf4jnsgd1na2vs0mg"},{"bike_id":"bd3a707a-e553-401a-911e-6cca77d8c08d","system_id":"levelo_inurba_marseille","lat":43.29802,"lon":5.38101,"is_reserved":false,"is_disabled":false,"rental_uris":{"android":"levelo://app?vid=bd3a707a-e553-401a-911e-6cca77d8c08d","ios":"levelo://app?vid=bd3a707a-e553-401a-911e-6cca77d8c08d"},"vehicle_type_id":"4","last_reported":1728288684,"current_range_meters":20800,"station_id":"ce4bgip2rcd13ifvqbb0","pricing_plan_id":"cebpf4jnsgd1na2vs0mg"},{"bike_id":"6f27d1e2-4549-4215-81e8-ebe0b1b54f36","system_id":"levelo_inurba_marseille","lat":43.26929,"lon":5.38911,"is_reserved":false,"is_disabled":false,"rental_uris":{"android":"levelo://app?vid=6f27d1e2-4549-4215-81e8-ebe0b1b54f36","ios":"levelo://app?vid=6f27d1e2-4549-4215-81e8-ebe0b1b54f36"},"vehicle_type_id":"4","last_reported":1728288684,"current_range_meters":15200,"station_id":"ce4bhhh2rcd13ifvqfl0","pricing_plan_id":"cebpf4jnsgd1na2vs0mg"},{"bike_id":"1213d403-ec8e-4e33-8ddd-ed36358cf354","system_id":"levelo_inurba_marseille","lat":43.23155,"lon":5.43701,"is_reserved":false,"is_disabled":false,"rental_uris":{"android":"levelo://app?vid=1213d403-ec8e-4e33-8ddd-ed36358cf354","ios":"levelo://app?vid=1213d403-ec8e-4e33-8ddd-ed36358cf354"},"vehicle_type_id":"4","last_reported":1728288684,"current_range_meters":4000,"station_id":"ce4bhmp2rcd13ifvqgog","pricing_plan_id":"cebpf4jnsgd1na2vs0mg"},{"bike_id":"d6e9aa79-72fb-42e2-8ff2-38d405eb42dc","system_id":"levelo_inurba_marseille","lat":43.30202,"lon":5.38988,"is_reserved":false,"is_disabled":false,"rental_uris":{"android":"levelo://app?vid=d6e9aa79-72fb-42e2-8ff2-38d405eb42dc","ios":"levelo://app?vid=d6e9aa79-72fb-42e2-8ff2-38d405eb42dc"},"vehicle_type_id":"4","last_reported":1728288684,"current_range_meters":26800,"station_id":"","pricing_plan_id":"cebpf4jnsgd1na2vs0mg"},{"bike_id":"637950e6-461d-4fd3-aeb4-7a41f1df4b89","system_id":"levelo_inurba_marseille","lat":43.30541,"lon":5.36703,"is_reserved":false,"is_disabled":false,"rental_uris":{"android":"levelo://app?vid=637950e6-461d-4fd3-aeb4-7a41f1df4b89","ios":"levelo://app?vid=637950e6-461d-4fd3-aeb4-7a41f1df4b89"},"vehicle_type_id":"4","last_reported":1728288684,"current_range_meters":10800,"station_id":"ce4bgrp2rcd13ifvqc9g","pricing_plan_id":"cebpf4jnsgd1na2vs0mg"},{"bike_id":"f304753d-2a56-4d62-a1a4-aa8f5c39a0f3","system_id":"levelo_inurba_marseille","lat":43.29944,"lon":5.36529,"is_reserved":false,"is_disabled":false,"rental_uris":{"android":"levelo://app?vid=f304753d-2a56-4d62-a1a4-aa8f5c39a0f3","ios":"levelo://app?vid=f304753d-2a56-4d62-a1a4-aa8f5c39a0f3"},"vehicle_type_id":"4","last_reported":1728288684,"current_range_meters":27200,"station_id":"ce4bgm92rcd13ifvqbr0","pricing_plan_id":"cebpf4jnsgd1na2vs0mg"},{"bike_id":"b6165dbc-4273-4933-b8b3-cf159a3ab062","system_id":"levelo_inurba_marseille","lat":43.262,"lon":5.37929,"is_reserved":false,"is_disabled":false,"rental_uris":{"android":"levelo://app?vid=b6165dbc-4273-4933-b8b3-cf159a3ab062","ios":"levelo://app?vid=b6165dbc-4273-4933-b8b3-cf159a3ab062"},"vehicle_type_id":"4","last_reported":1728288684,"current_range_meters":35600,"station_id":"ce4bhjp2rcd13ifvqg90","pricing_plan_id":"cebpf4jnsgd1na2vs0mg"},{"bike_id":"147fb66e-417d-437a-8794-e20d038e0839","system_id":"levelo_inurba_marseille","lat":43.26951,"lon":5.38631,"is_reserved":false,"is_disabled":false,"rental_uris":{"android":"levelo://app?vid=147fb66e-417d-437a-8794-e20d038e0839","ios":"levelo://app?vid=147fb66e-417d-437a-8794-e20d038e0839"},"vehicle_type_id":"4","last_reported":1728288684,"current_range_meters":39200,"station_id":"ce4bhh92rcd13ifvqfh0","pricing_plan_id":"cebpf4jnsgd1na2vs0mg"},{"bike_id":"f8f76ece-43e6-44a9-b368-d97ca628cdcf","system_id":"levelo_inurba_marseille","lat":43.23159,"lon":5.43718,"is_reserved":false,"is_disabled":false,"rental_uris":{"android":"levelo://app?vid=f8f76ece-43e6-44a9-b368-d97ca628cdcf","ios":"levelo://app?vid=f8f76ece-43e6-44a9-b368-d97ca628cdcf"},"vehicle_type_id":"4","last_reported":1728288684,"current_range_meters":32000,"station_id":"ce4bhmp2rcd13ifvqgog","pricing_plan_id":"cebpf4jnsgd1na2vs0mg"},{"bike_id":"6b4618ac-bf15-42bd-b8ce-f62f3e28352b","system_id":"levelo_inurba_marseille","lat":43.23199,"lon":5.3555,"is_reserved":false,"is_disabled":false,"rental_uris":{"android":"levelo://app?vid=6b4618ac-bf15-42bd-b8ce-f62f3e28352b","ios":"levelo://app?vid=6b4618ac-bf15-42bd-b8ce-f62f3e28352b"},"vehicle_type_id":"4","last_reported":1728288684,"current_range_meters":35200,"station_id":"ce4bhu92rcd13ifvqi70","pricing_plan_id":"cebpf4jnsgd1na2vs0mg"},{"bike_id":"cc461165-a007-4b5e-a9f5-97d0088c5fe5","system_id":"levelo_inurba_marseille","lat":43.27499,"lon":5.42455,"is_reserved":false,"is_disabled":false,"rental_uris":{"android":"levelo://app?vid=cc461165-a007-4b5e-a9f5-97d0088c5fe5","ios":"levelo://app?vid=cc461165-a007-4b5e-a9f5-97d0088c5fe5"},"vehicle_type_id":"4","last_reported":1728288684,"current_range_meters":8000,"station_id":"ce4bhn92rcd13ifvqgrg","pricing_plan_id":"cebpf4jnsgd1na2vs0mg"},{"bike_id":"d497d0f1-9157-442c-84ef-a30c7875a0d0","system_id":"levelo_inurba_marseille","lat":43.30945,"lon":5.39032,"is_reserved":false,"is_disabled":false,"rental_uris":{"android":"levelo://app?vid=d497d0f1-9157-442c-84ef-a30c7875a0d0","ios":"levelo://app?vid=d497d0f1-9157-442c-84ef-a30c7875a0d0"},"vehicle_type_id":"4","last_reported":1728288684,"current_range_meters":28400,"station_id":"ce4bgup2rcd13ifvqco0","pricing_plan_id":"cebpf4jnsgd1na2vs0mg"},{"bike_id":"d81e8b70-0cec-4a83-ac18-c99848066d32","system_id":"levelo_inurba_marseille","lat":43.24081,"lon":5.37749,"is_reserved":false,"is_disabled":false,"rental_uris":{"android":"levelo://app?vid=d81e8b70-0cec-4a83-ac18-c99848066d32","ios":"levelo://app?vid=d81e8b70-0cec-4a83-ac18-c99848066d32"},"vehicle_type_id":"4","last_reported":1728288684,"current_range_meters":38400,"station_id":"ce4bhnp2rcd13ifvqgvg","pricing_plan_id":"cebpf4jnsgd1na2vs0mg"},{"bike_id":"a49eaf76-607e-407c-85d8-153589115262","system_id":"levelo_inurba_marseille","lat":43.25935,"lon":5.40897,"is_reserved":false,"is_disabled":false,"rental_uris":{"android":"levelo://app?vid=a49eaf76-607e-407c-85d8-153589115262","ios":"levelo://app?vid=a49eaf76-607e-407c-85d8-153589115262"},"vehicle_type_id":"4","last_reported":1728288684,"current_range_meters":36400,"station_id":"ce4bhm92rcd13ifvqglg","pricing_plan_id":"cebpf4jnsgd1na2vs0mg"},{"bike_id":"e1981508-8176-4aae-a242-53630f7b837d","system_id":"levelo_inurba_marseille","lat":43.32655,"lon":5.40995,"is_reserved":false,"is_disabled":false,"rental_uris":{"android":"levelo://app?vid=e1981508-8176-4aae-a242-53630f7b837d","ios":"levelo://app?vid=e1981508-8176-4aae-a242-53630f7b837d"},"vehicle_type_id":"4","last_reported":1728288684,"current_range_meters":37600,"station_id":"ce4bhpp2rcd13ifvqhgg","pricing_plan_id":"cebpf4jnsgd1na2vs0mg"},{"bike_id":"7f2584c3-186b-4ca9-b416-bee639b50e12","system_id":"levelo_inurba_marseille","lat":43.22936,"lon":5.35372,"is_reserved":false,"is_disabled":false,"rental_uris":{"android":"levelo://app?vid=7f2584c3-186b-4ca9-b416-bee639b50e12","ios":"levelo://app?vid=7f2584c3-186b-4ca9-b416-bee639b50e12"},"vehicle_type_id":"4","last_reported":1728288684,"current_range_meters":25200,"station_id":"cpo3532slgdg3j2ikp40","pricing_plan_id":"cebpf4jnsgd1na2vs0mg"},{"bike_id":"21167a17-73e0-4a8a-bc23-694f2a446be5","system_id":"levelo_inurba_marseille","lat":43.3031,"lon":5.36907,"is_reserved":false,"is_disabled":false,"rental_uris":{"android":"levelo://app?vid=21167a17-73e0-4a8a-bc23-694f2a446be5","ios":"levelo://app?vid=21167a17-73e0-4a8a-bc23-694f2a446be5"},"vehicle_type_id":"4","last_reported":1728288684,"current_range_meters":14000,"station_id":"ce4bgqh2rcd13ifvqc5g","pricing_plan_id":"cebpf4jnsgd1na2vs0mg"},{"bike_id":"1d152269-c2fa-4900-bfa9-f20a095e29df","system_id":"levelo_inurba_marseille","lat":43.25721,"lon":5.41115,"is_reserved":false,"is_disabled":false,"rental_uris":{"android":"levelo://app?vid=1d152269-c2fa-4900-bfa9-f20a095e29df","ios":"levelo://app?vid=1d152269-c2fa-4900-bfa9-f20a095e29df"},"vehicle_type_id":"4","last_reported":1728288684,"current_range_meters":36800,"station_id":"ce4bhkp2rcd13ifvqgd0","pricing_plan_id":"cebpf4jnsgd1na2vs0mg"},{"bike_id":"25fca34d-d1d1-4912-9ad1-ead795e3fa9a","system_id":"levelo_inurba_marseille","lat":43.30887,"lon":5.37312,"is_reserved":false,"is_disabled":false,"rental_uris":{"android":"levelo://app?vid=25fca34d-d1d1-4912-9ad1-ead795e3fa9a","ios":"levelo://app?vid=25fca34d-d1d1-4912-9ad1-ead795e3fa9a"},"vehicle_type_id":"4","last_reported":1728288684,"current_range_meters":36800,"station_id":"","pricing_plan_id":"cebpf4jnsgd1na2vs0mg"},{"bike_id":"fd5eca2a-efbf-49f6-b20c-313e16602a60","system_id":"levelo_inurba_marseille","lat":43.23157,"lon":5.43714,"is_reserved":false,"is_disabled":false,"rental_uris":{"android":"levelo://app?vid=fd5eca2a-efbf-49f6-b20c-313e16602a60","ios":"levelo://app?vid=fd5eca2a-efbf-49f6-b20c-313e16602a60"},"vehicle_type_id":"4","last_reported":1728288684,"current_range_meters":24800,"station_id":"ce4bhmp2rcd13ifvqgog","pricing_plan_id":"cebpf4jnsgd1na2vs0mg"},{"bike_id":"ceae7ede-a81e-41c8-b671-3d168e17e516","system_id":"levelo_inurba_marseille","lat":43.24388,"lon":5.37058,"is_reserved":false,"is_disabled":false,"rental_uris":{"android":"levelo://app?vid=ceae7ede-a81e-41c8-b671-3d168e17e516","ios":"levelo://app?vid=ceae7ede-a81e-41c8-b671-3d168e17e516"},"vehicle_type_id":"4","last_reported":1728288684,"current_range_meters":24000,"station_id":"ce4bhhh2rcd13ifvqfk0","pricing_plan_id":"cebpf4jnsgd1na2vs0mg"},{"bike_id":"e03c9d0c-17ae-4003-b903-fd8aa9951041","system_id":"levelo_inurba_marseille","lat":43.33746,"lon":5.37449,"is_reserved":false,"is_disabled":false,"rental_uris":{"android":"levelo://app?vid=e03c9d0c-17ae-4003-b903-fd8aa9951041","ios":"levelo://app?vid=e03c9d0c-17ae-4003-b903-fd8aa9951041"},"vehicle_type_id":"4","last_reported":1728288684,"current_range_meters":24000,"station_id":"","pricing_plan_id":"cebpf4jnsgd1na2vs0mg"},{"bike_id":"f5ebf8b7-4991-4b21-a187-452d168a5891","system_id":"levelo_inurba_marseille","lat":43.30467,"lon":5.37894,"is_reserved":false,"is_disabled":false,"rental_uris":{"android":"levelo://app?vid=f5ebf8b7-4991-4b21-a187-452d168a5891","ios":"levelo://app?vid=f5ebf8b7-4991-4b21-a187-452d168a5891"},"vehicle_type_id":"4","last_reported":1728288684,"current_range_meters":36000,"station_id":"ce4bgup2rcd13ifvqcn0","pricing_plan_id":"cebpf4jnsgd1na2vs0mg"},{"bike_id":"e1f24ee2-5d47-4222-867d-e8e22d2f14ef","system_id":"levelo_inurba_marseille","lat":43.28661,"lon":5.38655,"is_reserved":false,"is_disabled":false,"rental_uris":{"android":"levelo://app?vid=e1f24ee2-5d47-4222-867d-e8e22d2f14ef","ios":"levelo://app?vid=e1f24ee2-5d47-4222-867d-e8e22d2f14ef"},"vehicle_type_id":"4","last_reported":1728288684,"current_range_meters":38800,"station_id":"ce4bh492rcd13ifvqdug","pricing_plan_id":"cebpf4jnsgd1na2vs0mg"},{"bike_id":"7e1c1ad1-ab70-47df-b421-949bbe276819","system_id":"levelo_inurba_marseille","lat":43.250015,"lon":5.389163,"is_reserved":false,"is_disabled":false,"rental_uris":{"android":"levelo://app?vid=7e1c1ad1-ab70-47df-b421-949bbe276819","ios":"levelo://app?vid=7e1c1ad1-ab70-47df-b421-949bbe276819"},"vehicle_type_id":"4","last_reported":1728288684,"current_range_meters":22800,"station_id":"ce4bhgp2rcd13ifvqfd0","pricing_plan_id":"cebpf4jnsgd1na2vs0mg"},{"bike_id":"104d23b2-e1bb-41de-84e9-58f2d7a5a81d","system_id":"levelo_inurba_marseille","lat":43.337444,"lon":5.374475,"is_reserved":false,"is_disabled":false,"rental_uris":{"android":"levelo://app?vid=104d23b2-e1bb-41de-84e9-58f2d7a5a81d","ios":"levelo://app?vid=104d23b2-e1bb-41de-84e9-58f2d7a5a81d"},"vehicle_type_id":"4","last_reported":1728288684,"current_range_meters":22000,"station_id":"ce4bgup2rcd13ifvqcn0","pricing_plan_id":"cebpf4jnsgd1na2vs0mg"},{"bike_id":"a485b0d4-2721-435c-b41c-eed272d33850","system_id":"levelo_inurba_marseille","lat":43.25937,"lon":5.40906,"is_reserved":false,"is_disabled":false,"rental_uris":{"android":"levelo://app?vid=a485b0d4-2721-435c-b41c-eed272d33850","ios":"levelo://app?vid=a485b0d4-2721-435c-b41c-eed272d33850"},"vehicle_type_id":"4","last_reported":1728288684,"current_range_meters":23200,"station_id":"ce4bhm92rcd13ifvqglg","pricing_plan_id":"cebpf4jnsgd1na2vs0mg"},{"bike_id":"2d4539f4-aec5-4beb-bd77-a5fc6efa9c98","system_id":"levelo_inurba_marseille","lat":43.32472,"lon":5.36563,"is_reserved":false,"is_disabled":false,"rental_uris":{"android":"levelo://app?vid=2d4539f4-aec5-4beb-bd77-a5fc6efa9c98","ios":"levelo://app?vid=2d4539f4-aec5-4beb-bd77-a5fc6efa9c98"},"vehicle_type_id":"4","last_reported":1728288684,"current_range_meters":36800,"station_id":"ce4bhs12rcd13ifvqhvg","pricing_plan_id":"cebpf4jnsgd1na2vs0mg"},