{"last_updated":1769837751,"ttl":60,"version":"2.2","data":{"bikes":[{"bike_id":"f30a4c97-f0c6-45f8-934f-68b3ad70f3be","system_id":"levelo_inurba_marseille","lat":43.26059,"lon":5.3939,"is_reserved":false,"is_disabled":false,"rental_uris":{"android":"levelo://app?vid=f30a4c97-f0c6-45f8-934f-68b3ad70f3be","ios":"levelo://app?vid=f30a4c97-f0c6-45f8-934f-68b3ad70f3be"},"vehicle_type_id":"4","last_reported":1769837751,"current_range_meters":2800,"station_id":"ce4bhh92rcd13ifvqfj0","pricing_plan_id":"cebpf4jnsgd1na2vs0mg"},{"bike_id":"33aa5334-8f15-4258-b055-a2cae57c687e","system_id":"levelo_inurba_marseille","lat":43.289239,"lon":5.38393,"is_reserved":false,"is_disabled":false,"rental_uris":{"android":"levelo://app?vid=33aa5334-8f15-4258-b055-a2cae57c687e","ios":"levelo://app?vid=33aa5334-8f15-4258-b055-a2cae57c687e"},"vehicle_type_id":"4","last_reported":1769837751,"current_range_meters":2800,"station_id":"","pricing_plan_id":"cebpf4jnsgd1na2vs0mg"},{"bike_id":"6f2111dd-6b6a-402c-9729-62f7313dcc5e","system_id":"levelo_inurba_marseille","lat":43.323524,"lon":5.367517,"is_reserved":false,"is_disabled":false,"rental_uris":{"android":"levelo://app?vid=6f2111dd-6b6a-402c-9729-62f7313dcc5e","ios":"levelo://app?vid=6f2111dd-6b6a-402c-9729-62f7313dcc5e"},"vehicle_type_id":"4","last_reported":1769837751,"current_range_meters":2800,"station_id":"ce4bhsh2rcd13ifvqi2g","pricing_plan_id":"cebpf4jnsgd1na2vs0mg"},{"bike_id":"6387ec37-ec09-43fe-bb01-caacfc05595d","system_id":"levelo_inurba_marseille","lat":43.29674,"lon":5.400438,"is_reserved":false,"is_disabled":false,"rental_uris":{"android":"levelo://app?vid=6387ec37-ec09-43fe-bb01-caacfc05595d","ios":"levelo://app?vid=6387ec37-ec09-43fe-bb01-caacfc05595d"},"vehicle_type_id":"4","last_reported":1769837751,"current_range_meters":2800,"station_id":"ce4bh312rcd13ifvqdj0","pricing_plan_id":"cebpf4jnsgd1na2vs0mg"},{"bike_id":"2985593a-0015-49dc-be38-d4223266a10b","system_id":"levelo_inurba_marseille","lat":43.29177,"lon":5.40076,"is_reserved":false,"is_disabled":false,"rental_uris":{"android":"levelo://app?vid=2985593a-0015-49dc-be38-d4223266a10b","ios":"levelo://app?vid=2985593a-0015-49dc-be38-d4223266a10b"},"vehicle_type_id":"4","last_reported":1769837751,"current_range_meters":2800,"station_id":"","pricing_plan_id":"cebpf4jnsgd1na2vs0mg"},{"bike_id":"154bb475-ea3b-4e7b-be12-2a930f14050a","system_id":"levelo_inurba_marseille","lat":43.26547,"lon":5.38996,"is_reserved":false,"is_disabled":false,"rental_uris":{"android":"levelo://app?vid=154bb475-ea3b-4e7b-be12-2a930f14050a","ios":"levelo://app?vid=154bb475-ea3b-4e7b-be12-2a930f14050a"},"vehicle_type_id":"4","last_reported":1769837751,"current_range_meters":2800,"station_id":"ce4bhe12rcd13ifvqf30","pricing_plan_id":"cebpf4jnsgd1na2vs0mg"},{"bike_id":"9862afdd-86bb-4730-9cd1-3c62a031b5e6","system_id":"levelo_inurba_marseille","lat":43.29988,"lon":5.37204,"is_reserved":false,"is_disabled":false,"rental_uris":{"android":"levelo://app?vid=9862afdd-86bb-4730-9cd1-3c62a031b5e6","ios":"levelo://app?vid=9862afdd-86bb-4730-9cd1-3c62a031b5e6"},"vehicle_type_id":"4","last_reported":1769837751,"current_range_meters":2800,"station_id":"ce4bgr92rcd13ifvqc7g","pricing_plan_id":"cebpf4jnsgd1na2vs0mg"},{"bike_id":"cccee523-918d-4354-8f88-147639f34329","system_id":"levelo_inurba_marseille","lat":43.27956,"lon":5.41013,"is_reserved":false,"is_disabled":false,"rental_uris":{"android":"levelo://app?vid=cccee523-918d-4354-8f88-147639f34329","ios":"levelo://app?vid=cccee523-918d-4354-8f88-147639f34329"},"vehicle_type_id":"4","last_reported":1769837751,"current_range_meters":2800,"station_id":"ce4bhnp2rcd13ifvqh0g","pricing_plan_id":"cebpf4jnsgd1na2vs0mg"},{"bike_id":"891291bf-2508-4614-98b9-c57a30a99b04","system_id":"levelo_inurba_marseille","lat":43.22937,"lon":5.35356,"is_reserved":false,"is_disabled":false,"rental_uris":{"android":"levelo://app?vid=891291bf-2508-4614-98b9-c57a30a99b04","ios":"levelo://app?vid=891291bf-2508-4614-98b9-c57a30a99b04"},"vehicle_type_id":"4","last_reported":1769837751,"current_range_meters":2800,"station_id":"cpo3532slgdg3j2ikp40","pricing_plan_id":"cebpf4jnsgd1na2vs0mg"},{"bike_id":"cad1fffa-b4fa-4f0e-b6c7-2202c10ebc44","system_id":"levelo_inurba_marseille","lat":43.24646,"lon":5.4314,"is_reserved":false,"is_disabled":false,"rental_uris":{"android":"levelo://app?vid=cad1fffa-b4fa-4f0e-b6c7-2202c10ebc44","ios":"levelo://app?vid=cad1fffa-b4fa-4f0e-b6c7-2202c10ebc44"},"vehicle_type_id":"4","last_reported":1769837751,"current_range_meters":2800,"station_id":"st_d2m6c4gdas8pm72e190g","pricing_plan_id":"cebpf4jnsgd1na2vs0mg"},{"bike_id":"1df32dff-5611-415d-8fae-817c467a81ff","system_id":"levelo_inurba_marseille","lat":43.23042,"lon":5.35501,"is_reserved":false,"is_disabled":false,"rental_uris":{"android":"levelo://app?vid=1df32dff-5611-415d-8fae-817c467a81ff","ios":"levelo://app?vid=1df32dff-5611-415d-8fae-817c467a81ff"},"vehicle_type_id":"4","last_reported":1769837751,"current_range_meters":2800,"station_id":"cpo3342slgdg3j2ifvpg","pricing_plan_id":"cebpf4jnsgd1na2vs0mg"},{"bike_id":"456727bd-baa8-41bf-ae9f-158a99ff9411","system_id":"levelo_inurba_marseille","lat":43.22578,"lon":5.41612,"is_reserved":false,"is_disabled":false,"rental_uris":{"android":"levelo://app?vid=456727bd-baa8-41bf-ae9f-158a99ff9411","ios":"levelo://app?vid=456727bd-baa8-41bf-ae9f-158a99ff9411"},"vehicle_type_id":"4","last_reported":1769837751,"current_range_meters":3200,"station_id":"st_d2o4gvlbi1j2169b742g","pricing_plan_id":"cebpf4jnsgd1na2vs0mg"},{"bike_id":"d7b04403-7dfa-4d8a-bd81-cfc844f4e0b5","system_id":"levelo_inurba_marseille","lat":43.2983,"lon":5.44045,"is_reserved":false,"is_disabled":false,"rental_uris":{"android":"levelo://app?vid=d7b04403-7dfa-4d8a-bd81-cfc844f4e0b5","ios":"levelo://app?vid=d7b04403-7dfa-4d8a-bd81-cfc844f4e0b5"},"vehicle_type_id":"4","last_reported":1769837751,"current_range_meters":3200,"station_id":"st_d3jp68qikq2c7381ktn0","pricing_plan_id":"cebpf4jnsgd1na2vs0mg"},{"bike_id":"1717413c-0fd7-4a19-a0ad-ca261922c0af","system_id":"levelo_inurba_marseille","lat":43.29585,"lon":5.37496,"is_reserved":false,"is_disabled":false,"rental_uris":{"android":"levelo://app?vid=1717413c-0fd7-4a19-a0ad-ca261922c0af","ios":"levelo://app?vid=1717413c-0fd7-4a19-a0ad-ca261922c0af"},"vehicle_type_id":"4","last_reported":1769837751,"current_range_meters":3200,"station_id":"ce4bgh92rcd13ifvqb50","pricing_plan_id":"cebpf4jnsgd1na2vs0mg"},{"bike_id":"3d18c73a-757e-42dc-ab74-9845a8857293","system_id":"levelo_inurba_marseille","lat":43.30118,"lon":5.43118,"is_reserved":false,"is_disabled":false,"rental_uris":{"android":"levelo://app?vid=3d18c73a-757e-42dc-ab74-9845a8857293","ios":"levelo://app?vid=3d18c73a-757e-42dc-ab74-9845a8857293"},"vehicle_type_id":"4","last_reported":1769837751,"current_range_meters":3200,"station_id":"st_d3js3co5814s73ftftug","pricing_plan_id":"cebpf4jnsgd1na2vs0mg"},{"bike_id":"39fd3543-1b83-4b56-b05d-b4a1d34a93cb","system_id":"levelo_inurba_marseille","lat":43.292803,"lon":5.401167,"is_reserved":false,"is_disabled":false,"rental_uris":{"android":"levelo://app?vid=39fd3543-1b83-4b56-b05d-b4a1d34a93cb","ios":"levelo://app?vid=39fd3543-1b83-4b56-b05d-b4a1d34a93cb"},"vehicle_type_id":"4","last_reported":1769837751,"current_range_meters":3200,"station_id":"ce4bh312rcd13ifvqdk0","pricing_plan_id":"cebpf4jnsgd1na2vs0mg"},{"bike_id":"f6f7abd2-8891-4a7b-8fd8-eda5a43d9f66","system_id":"levelo_inurba_marseille","lat":43.29256,"lon":5.40895,"is_reserved":false,"is_disabled":false,"rental_uris":{"android":"levelo://app?vid=f6f7abd2-8891-4a7b-8fd8-eda5a43d9f66","ios":"levelo://app?vid=f6f7abd2-8891-4a7b-8fd8-eda5a43d9f66"},"vehicle_type_id":"4","last_reported":1769837751,"current_range_meters":3200,"station_id":"ce4bh192rcd13ifvqdc0","pricing_plan_id":"cebpf4jnsgd1na2vs0mg"},{"bike_id":"1983bd47-bc1f-4207-ab11-fdf07b4bdd18","system_id":"levelo_inurba_marseille","lat":43.29269,"lon":5.38311,"is_reserved":false,"is_disabled":true,"rental_uris":{"android":"levelo://app?vid=1983bd47-bc1f-4207-ab11-fdf07b4bdd18","ios":"levelo://app?vid=1983bd47-bc1f-4207-ab11-fdf07b4bdd18"},"vehicle_type_id":"4","last_reported":1769837751,"current_range_meters":3600,"station_id":"","pricing_plan_id":"cebpf4jnsgd1na2vs0mg"},{"bike_id":"d6b55634-2fb8-44d0-864d-ee3e3030ec35","system_id":"levelo_inurba_marseille","lat":43.26546,"lon":5.37288,"is_reserved":false,"is_disabled":false,"rental_uris":{"android":"levelo://app?vid=d6b55634-2fb8-44d0-864d-ee3e3030ec35","ios":"levelo://app?vid=d6b55634-2fb8-44d0-864d-ee3e3030ec35"},"vehicle_type_id":"4","last_reported":1769837751,"current_range_meters":3600,"station_id":"ce4bhg12rcd13ifvqf70","pricing_plan_id":"cebpf4jnsgd1na2vs0mg"},{"bike_id":"f77f11ea-c57f-4a1e-b998-1859acb2e91b","system_id":"levelo_inurba_marseille","lat":43.2862,"lon":5.35094,"is_reserved":false,"is_disabled":false,"rental_uris":{"android":"levelo://app?vid=f77f11ea-c57f-4a1e-b998-1859acb2e91b","ios":"levelo://app?vid=f77f11ea-c57f-4a1e-b998-1859acb2e91b"},"vehicle_type_id":"4","last_reported":1769837751,"current_range_meters":3600,"station_id":"ce4bhch2rcd13ifvqeug","pricing_plan_id":"cebpf4jnsgd1na2vs0mg"},{"bike_id":"8c0babb1-b421-4a58-a09a-817ab6ed4c2f","system_id":"levelo_inurba_marseille","lat":43.316959,"lon":5.377555,"is_reserved":false,"is_disabled":false,"rental_uris":{"android":"levelo://app?vid=8c0babb1-b421-4a58-a09a-817ab6ed4c2f","ios":"levelo://app?vid=8c0babb1-b421-4a58-a09a-817ab6ed4c2f"},"vehicle_type_id":"4","last_reported":1769837751,"current_range_meters":3600,"station_id":"ce4bgth2rcd13ifvqch0","pricing_plan_id":"cebpf4jnsgd1na2vs0mg"},{"bike_id":"d15f9ce9-2618-40e2-ae9e-f494605d772d","system_id":"levelo_inurba_marseille","lat":43.29006,"lon":5.35618,"is_reserved":false,"is_disabled":false,"rental_uris":{"android":"levelo://app?vid=d15f9ce9-2618-40e2-ae9e-f494605d772d","ios":"levelo://app?vid=d15f9ce9-2618-40e2-ae9e-f494605d772d"},"vehicle_type_id":"4","last_reported":1769837751,"current_range_meters":3600,"station_id":"ce4bhb92rcd13ifvqen0","pricing_plan_id":"cebpf4jnsgd1na2vs0mg"},{"bike_id":"222bd201-d5cc-4223-b6ec-6d982336aa03","system_id":"levelo_inurba_marseille","lat":43.29801,"lon":5.44067,"is_reserved":false,"is_disabled":false,"rental_uris":{"android":"levelo://app?vid=222bd201-d5cc-4223-b6ec-6d982336aa03","ios":"levelo://app?vid=222bd201-d5cc-4223-b6ec-6d982336aa03"},"vehicle_type_id":"4","last_reported":1769837751,"current_range_meters":3600,"station_id":"st_d3jp68qikq2c7381ktn0","pricing_plan_id":"cebpf4jnsgd1na2vs0mg"},{"bike_id":"e42e5e4b-2394-43b0-9b9f-0fd17bf2cb70","system_id":"levelo_inurba_marseille","lat":43.24171,"lon":5.36389,"is_reserved":false,"is_disabled":false,"rental_uris":{"android":"levelo://app?vid=e42e5e4b-2394-43b0-9b9f-0fd17bf2cb70","ios":"levelo://app?vid=e42e5e4b-2394-43b0-9b9f-0fd17bf2cb70"},"vehicle_type_id":"4","last_reported":1769837751,"current_range_meters":3600,"station_id":"cpo36qri1sfpv3e86is0","pricing_plan_id":"cebpf4jnsgd1na2vs0mg"},{"bike_id":"af654c71-a67d-46af-bf40-a020e2f3bf53","system_id":"levelo_inurba_marseille","lat":43.25003,"lon":5.38911,"is_reserved":false,"is_disabled":false,"rental_uris":{"android":"levelo://app?vid=af654c71-a67d-46af-bf40-a020e2f3bf53","ios":"levelo://app?vid=af654c71-a67d-46af-bf40-a020e2f3bf53"},"vehicle_type_id":"4","last_reported":1769837751,"current_range_meters":3600,"station_id":"ce4bhgp2rcd13ifvqfd0","pricing_plan_id":"cebpf4jnsgd1na2vs0mg"},{"bike_id":"4e0e09af-dc1f-4b4c-a5e0-62c35307cb3b","system_id":"levelo_inurba_marseille","lat":43.27909,"lon":5.39598,"is_reserved":false,"is_disabled":false,"rental_uris":{"android":"levelo://app?vid=4e0e09af-dc1f-4b4c-a5e0-62c35307cb3b","ios":"levelo://app?vid=4e0e09af-dc1f-4b4c-a5e0-62c35307cb3b"},"vehicle_type_id":"4","last_reported":1769837751,"current_range_meters":3600,"station_id":"ce4bhf92rcd13ifvqf40","pricing_plan_id":"cebpf4jnsgd1na2vs0mg"},{"bike_id":"f56ee39d-a6b7-4a7e-89de-b9d7f0478322","system_id":"levelo_inurba_marseille","lat":43.32345,"lon":5.36743,"is_reserved":false,"is_disabled":false,"rental_uris":{"android":"levelo://app?vid=f56ee39d-a6b7-4a7e-89de-b9d7f0478322","ios":"levelo://app?vid=f56ee39d-a6b7-4a7e-89de-b9d7f0478322"},"vehicle_type_id":"4","last_reported":1769837751,"current_range_meters":3600,"station_id":"ce4bhsh2rcd13ifvqi2g","pricing_plan_id":"cebpf4jnsgd1na2vs0mg"},{"bike_id":"6e316437-9e53-4058-b852-370b67323663","system_id":"levelo_inurba_marseille","lat":43.24643,"lon":5.43134,"is_reserved":false,"is_disabled":false,"rental_uris":{"android":"levelo://app?vid=6e316437-9e53-4058-b852-370b67323663","ios":"levelo://app?vid=6e316437-9e53-4058-b852-370b67323663"},"vehicle_type_id":"4","last_reported":1769837751,"current_range_meters":3600,"station_id":"st_d2m6c4gdas8pm72e190g","pricing_plan_id":"cebpf4jnsgd1na2vs0mg"},{"bike_id":"1915d4ba-f4af-445d-a9d3-be106a370507","system_id":"levelo_inurba_marseille","lat":43.273822,"lon":5.362491,"is_reserved":false,"is_disabled":false,"rental_uris":{"android":"levelo://app?vid=1915d4ba-f4af-445d-a9d3-be106a370507","ios":"levelo://app?vid=1915d4ba-f4af-445d-a9d3-be106a370507"},"vehicle_type_id":"4","last_reported":1769837751,"current_range_meters":4000,"station_id":"ce4bhbh2rcd13ifvqeo0","pricing_plan_id":"cebpf4jnsgd1na2vs0mg"},{"bike_id":"382c481d-5cf2-4d38-9788-579a9f396d00","system_id":"levelo_inurba_marseille","lat":43.22922,"lon":5.35384,"is_reserved":false,"is_disabled":false,"rental_uris":{"android":"levelo://app?vid=382c481d-5cf2-4d38-9788-579a9f396d00","ios":"levelo://app?vid=382c481d-5cf2-4d38-9788-579a9f396d00"},"vehicle_type_id":"4","last_reported":1769837751,"current_range_meters":4000,"station_id":"cpo3532slgdg3j2ikp40","pricing_plan_id":"cebpf4jnsgd1na2vs0mg"},{"bike_id":"e902ef9f-7cd4-4fe6-a82c-948b6d2fcf15","system_id":"levelo_inurba_marseille","lat":43.29908,"lon":5.43656,"is_reserved":false,"is_disabled":false,"rental_uris":{"android":"levelo://app?vid=e902ef9f-7cd4-4fe6-a82c-948b6d2fcf15","ios":"levelo://app?vid=e902ef9f-7cd4-4fe6-a82c-948b6d2fcf15"},"vehicle_type_id":"4","last_reported":1769837751,"current_range_meters":4000,"station_id":"ce4bhpp2rcd13ifvqhfg","pricing_plan_id":"cebpf4jnsgd1na2vs0mg"},{"bike_id":"4b5eb031-7397-4204-b8ec-553a81e6fa49","system_id":"levelo_inurba_marseille","lat":43.27568,"lon":5.38414,"is_reserved":false,"is_disabled":false,"rental_uris":{"android":"levelo://app?vid=4b5eb031-7397-4204-b8ec-553a81e6fa49","ios":"levelo://app?vid=4b5eb031-7397-4204-b8ec-553a81e6fa49"},"vehicle_type_id":"4","last_reported":1769837751,"current_range_meters":4000,"station_id":"ce4bhh92rcd13ifvqfi0","pricing_plan_id":"cebpf4jnsgd1na2vs0mg"},{"bike_id":"75e12ebc-bd2b-46ca-8731-fb764315b922","system_id":"levelo_inurba_marseille","lat":43.25082,"lon":5.39511,"is_reserved":false,"is_disabled":false,"rental_uris":{"android":"levelo://app?vid=75e12ebc-bd2b-46ca-8731-fb764315b922","ios":"levelo://app?vid=75e12ebc-bd2b-46ca-8731-fb764315b922"},"vehicle_type_id":"4","last_reported":1769837751,"current_range_meters":4000,"station_id":"ce4bhm12rcd13ifvqgkg","pricing_plan_id":"cebpf4jnsgd1na2vs0mg"},{"bike_id":"23dad914-1de4-48fb-a770-cde7550d8b95","system_id":"levelo_inurba_marseille","lat":43.30358,"lon":5.41868,"is_reserved":false,"is_disabled":false,"rental_uris":{"android":"levelo://app?vid=23dad914-1de4-48fb-a770-cde7550d8b95","ios":"levelo://app?vid=23dad914-1de4-48fb-a770-cde7550d8b95"},"vehicle_type_id":"4","last_reported":1769837751,"current_range_meters":4000,"station_id":"ce4bhop2rcd13ifvqh7g","pricing_plan_id":"cebpf4jnsgd1na2vs0mg"},{"bike_id":"90d8f47d-92dd-4327-94ea-1f7e7a2152b8","system_id":"levelo_inurba_marseille","lat":43.27824,"lon":5.40715,"is_reserved":false,"is_disabled":false,"rental_uris":{"android":"levelo://app?vid=90d8f47d-92dd-4327-94ea-1f7e7a2152b8","ios":"levelo://app?vid=90d8f47d-92dd-4327-94ea-1f7e7a2152b8"},"vehicle_type_id":"4","last_reported":1769837751,"current_range_meters":4000,"station_id":"ce4bhnh2rcd13ifvqgtg","pricing_plan_id":"cebpf4jnsgd1na2vs0mg"},{"bike_id":"4f828ce8-becc-47a2-8b60-97e444eefa27","system_id":"levelo_inurba_marseille","lat":43.25876,"lon":5.39863,"is_reserved":false,"is_disabled":false,"rental_uris":{"android":"levelo://app?vid=4f828ce8-becc-47a2-8b60-97e444eefa27","ios":"levelo://app?vid=4f828ce8-becc-47a2-8b60-97e444eefa27"},"vehicle_type_id":"4","last_reported":1769837751,"current_range_meters":4000,"station_id":"ce4bhl92rcd13ifvqghg","pricing_plan_id":"cebpf4jnsgd1na2vs0mg"},{"bike_id":"936cef5a-3134-4443-a151-93551f5a6574","system_id":"levelo_inurba_marseille","lat":43.24808,"lon":5.37455,"is_reserved":false,"is_disabled":false,"rental_uris":{"android":"levelo://app?vid=936cef5a-3134-4443-a151-93551f5a6574","ios":"levelo://app?vid=936cef5a-3134-4443-a151-93551f5a6574"},"vehicle_type_id":"4","last_reported":1769837751,"current_range_meters":4000,"station_id":"ce4bhgh2rcd13ifvqfb0","pricing_plan_id":"cebpf4jnsgd1na2vs0mg"},{"bike_id":"df172472-ab3d-4ce3-b703-a5d28d7545ff","system_id":"levelo_inurba_marseille","lat":43.24657,"lon":5.38159,"is_reserved":false,"is_disabled":false,"rental_uris":{"android":"levelo://app?vid=df172472-ab3d-4ce3-b703-a5d28d7545ff","ios":"levelo://app?vid=df172472-ab3d-4ce3-b703-a5d28d7545ff"},"vehicle_type_id":"4","last_reported":1769837751,"current_range_meters":4000,"station_id":"ce4bhih2rcd13ifvqfr0","pricing_plan_id":"cebpf4jnsgd1na2vs0mg"},{"bike_id":"9ddb400f-f7ed-4d89-b8ef-7e59cfe81af8","system_id":"levelo_inurba_marseille","lat":43.2902,"lon":5.381375,"is_reserved":false,"is_disabled":true,"rental_uris":{"android":"levelo://app?vid=9ddb400f-f7ed-4d89-b8ef-7e59cfe81af8","ios":"levelo://app?vid=9ddb400f-f7ed-4d89-b8ef-7e59cfe81af8"},"vehicle_type_id":"4","last_reported":1769837751,"current_range_meters":4000,"station_id":"ce4bh4p2rcd13ifvqe1g","pricing_plan_id":"cebpf4jnsgd1na2vs0mg"},{"bike_id":"4ed8b7c4-4959-4a76-8810-ca1bf04888b4","system_id":"levelo_inurba_marseille","lat":43.24477,"lon":5.42556,"is_reserved":false,"is_disabled":false,"rental_uris":{"android":"levelo://app?vid=4ed8b7c4-4959-4a76-8810-ca1bf04888b4","ios":"levelo://app?vid=4ed8b7c4-4959-4a76-8810-ca1bf04888b4"},"vehicle_type_id":"4","last_reported":1769837751,"current_range_meters":4000,"station_id":"st_d4a3vfp97mjs738cd8kg","pricing_plan_id":"cebpf4jnsgd1na2vs0mg"},{"bike_id":"a86e5c50-03d8-4efb-b68e-3356325e976b","system_id":"levelo_inurba_marseille","lat":43.26384,"lon":5.41014,"is_reserved":false,"is_disabled":false,"rental_uris":{"android":"levelo://app?vid=a86e5c50-03d8-4efb-b68e-3356325e976b","ios":"levelo://app?vid=a86e5c50-03d8-4efb-b68e-3356325e976b"},"vehicle_type_id":"4","last_reported":1769837751,"current_range_meters":4000,"station_id":"st_d4e5ca6na9uc73bfl5fg","pricing_plan_id":"cebpf4jnsgd1na2vs0mg"},{"bike_id":"a047e598-7d68-42b0-b849-701279564c44","system_id":"levelo_inurba_marseille","lat":43.28208,"lon":5.39058,"is_reserved":false,"is_disabled":false,"rental_uris":{"android":"levelo://app?vid=a047e598-7d68-42b0-b849-701279564c44","ios":"levelo://app?vid=a047e598-7d68-42b0-b849-701279564c44"},"vehicle_type_id":"4","last_reported":1769837751,"current_range_meters":4000,"station_id":"ce4bhn92rcd13ifvqgsg","pricing_plan_id":"cebpf4jnsgd1na2vs0mg"},{"bike_id":"37c448d8-9216-4c01-9bee-a5d22b05ddc5","system_id":"levelo_inurba_marseille","lat":43.29195,"lon":5.39328,"is_reserved":false,"is_disabled":false,"rental_uris":{"android":"levelo://app?vid=37c448d8-9216-4c01-9bee-a5d22b05ddc5","ios":"levelo://app?vid=37c448d8-9216-4c01-9bee-a5d22b05ddc5"},"vehicle_type_id":"4","last_reported":1769837751,"current_range_meters":4000,"station_id":"ce4bh192rcd13ifvqdd0","pricing_plan_id":"cebpf4jnsgd1na2vs0mg"},{"bike_id":"7405adf0-62ac-4ed2-885c-d307df931ca6","system_id":"levelo_inurba_marseille","lat":43.28491,"lon":5.38387,"is_reserved":false,"is_disabled":false,"rental_uris":{"android":"levelo://app?vid=7405adf0-62ac-4ed2-885c-d307df931ca6","ios":"levelo://app?vid=7405adf0-62ac-4ed2-885c-d307df931ca6"},"vehicle_type_id":"4","last_reported":1769837751,"current_range_meters":4000,"station_id":"ce4bh512rcd13ifvqe3g","pricing_plan_id":"cebpf4jnsgd1na2vs0mg"},{"bike_id":"c36501a5-b15d-4754-b855-eaf047fce34d","system_id":"levelo_inurba_marseille","lat":43.28614,"lon":5.37055,"is_reserved":false,"is_disabled":false,"rental_uris":{"android":"levelo://app?vid=c36501a5-b15d-4754-b855-eaf047fce34d","ios":"levelo://app?vid=c36501a5-b15d-4754-b855-eaf047fce34d"},"vehicle_type_id":"4","last_reported":1769837751,"current_range_meters":4000,"station_id":"ce4bht12rcd13ifvqi60","pricing_plan_id":"cebpf4jnsgd1na2vs0mg"},{"bike_id":"1d048dc8-d7b0-439b-8695-38b20ffd2105","system_id":"levelo_inurba_marseille","lat":43.24126,"lon":5.3969,"is_reserved":false,"is_disabled":false,"rental_uris":{"android":"levelo://app?vid=1d048dc8-d7b0-439b-8695-38b20ffd2105","ios":"levelo://app?vid=1d048dc8-d7b0-439b-8695-38b20ffd2105"},"vehicle_type_id":"4","last_reported":1769837751,"current_range_meters":4000,"station_id":"","pricing_plan_id":"cebpf4jnsgd1na2vs0mg"},{"bike_id":"ffdda927-e6da-4d6b-b63c-5f8f68ad9828","system_id":"levelo_inurba_marseille","lat":43.30911,"lon":5.41198,"is_reserved":false,"is_disabled":false,"rental_uris":{"android":"levelo://app?vid=ffdda927-e6da-4d6b-b63c-5f8f68ad9828","ios":"levelo://app?vid=ffdda927-e6da-4d6b-b63c-5f8f68ad9828"},"vehicle_type_id":"4","last_reported":1769837751,"current_range_meters":4400,"station_id":"","pricing_plan_id":"cebpf4jnsgd1na2vs0mg"},{"bike_id":"f1848dae-0f65-4bb1-a4a5-d1e7dd49c849","system_id":"levelo_inurba_marseille","lat":43.29974,"lon":5.37185,"is_reserved":false,"is_disabled":false,"rental_uris":{"android":"levelo://app?vid=f1848dae-0f65-4bb1-a4a5-d1e7dd49c849","ios":"levelo://app?vid=f1848dae-0f65-4bb1-a4a5-d1e7dd49c849"},"vehicle_type_id":"4","last_reported":1769837751,"current_range_meters":4400,"station_id":"ce4bgr92rcd13ifvqc7g","pricing_plan_id":"cebpf4jnsgd1na2vs0mg"},{"bike_id":"5a0279f7-aae2-4145-8643-e51972cc560c","system_id":"levelo_inurba_marseille","lat":43.24179,"lon":5.39721,"is_reserved":false,"is_disabled":false,"rental_uris":{"android":"levelo://app?vid=5a0279f7-aae2-4145-8643-e51972cc560c","ios":"levelo://app?vid=5a0279f7-aae2-4145-8643-e51972cc560c"},"vehicle_type_id":"4","last_reported":1769837751,"current_range_meters":4400,"station_id":"ce4bhn12rcd13ifvqgpg","pricing_plan_id":"cebpf4jnsgd1na2vs0mg"},{"bike_id":"d54f462a-1a28-4e53-8f4e-c24ac3c93444","system_id":"levelo_inurba_marseille","lat":43.31183,"lon":5.38709,"is_reserved":false,"is_disabled":false,"rental_uris":{"android":"levelo://app?vid=d54f462a-1a28-4e53-8f4e-c24ac3c93444","ios":"levelo://app?vid=d54f462a-1a28-4e53-8f4e-c24ac3c93444"},"vehicle_type_id":"4","last_reported":1769837751,"current_range_meters":4400,"station_id":"ce4bgv12rcd13ifvqcp0","pricing_plan_id":"cebpf4jnsgd1na2vs0mg"},{"bike_id":"55bec77f-c598-4ef9-91a2-831b2562c086","system_id":"levelo_inurba_marseille","lat":43.30314,"lon":5.40441,"is_reserved":false,"is_disabled":false,"rental_uris":{"android":"levelo://app?vid=55bec77f-c598-4ef9-91a2-831b2562c086","ios":"levelo://app?vid=55bec77f-c598-4ef9-91a2-831b2562c086"},"vehicle_type_id":"4","last_reported":1769837751,"current_range_meters":4400,"station_id":"ce4bh012rcd13ifvqd10","pricing_plan_id":"cebpf4jnsgd1na2vs0mg"},{"bike_id":"195649ba-d267-42e1-9cda-12856a7a298f","system_id":"levelo_inurba_marseille","lat":43.31713,"lon":5.43708,"is_reserved":false,"is_disabled":false,"rental_uris":{"android":"levelo://app?vid=195649ba-d267-42e1-9cda-12856a7a298f","ios":"levelo://app?vid=195649ba-d267-42e1-9cda-12856a7a298f"},"vehicle_type_id":"4","last_reported":1769837751,"current_range_meters":4400,"station_id":"ce4bhp92rcd13ifvqhcg","pricing_plan_id":"cebpf4jnsgd1na2vs0mg"},{"bike_id":"7272b7e5-dc3f-4a67-bdd0-317168495648","system_id":"levelo_inurba_marseille","lat":43.26797,"lon":5.40258,"is_reserved":false,"is_disabled":false,"rental_uris":{"android":"levelo://app?vid=7272b7e5-dc3f-4a67-bdd0-317168495648","ios":"levelo://app?vid=7272b7e5-dc3f-4a67-bdd0-317168495648"},"vehicle_type_id":"4","last_reported":1769837751,"current_range_meters":4400,"station_id":"ce501612rcd8frsf0b60","pricing_plan_id":"cebpf4jnsgd1na2vs0mg"},{"bike_id":"c15bf6ee-369d-4dc7-89fc-91442ce5cab3","system_id":"levelo_inurba_marseille","lat":43.29895,"lon":5.4366,"is_reserved":false,"is_disabled":false,"rental_uris":{"android":"levelo://app?vid=c15bf6ee-369d-4dc7-89fc-91442ce5cab3","ios":"levelo://app?vid=c15bf6ee-369d-4dc7-89fc-91442ce5cab3"},"vehicle_type_id":"4","last_reported":1769837751,"current_range_meters":4400,"station_id":"ce4bhpp2rcd13ifvqhfg","pricing_plan_id":"cebpf4jnsgd1na2vs0mg"},{"bike_id":"0be82997-2d35-428e-8a49-28767a03cad5","system_id":"levelo_inurba_marseille","lat":43.28363,"lon":5.38634,"is_reserved":false,"is_disabled":false,"rental_uris":{"android":"levelo://app?vid=0be82997-2d35-428e-8a49-28767a03cad5","ios":"levelo://app?vid=0be82997-2d35-428e-8a49-28767a03cad5"},"vehicle_type_id":"4","last_reported":1769837751,"current_range_meters":4800,"station_id":"ce4bh492rcd13ifvqdvg","pricing_plan_id":"cebpf4jnsgd1na2vs0mg"},{"bike_id":"3260d6da-2018-4dad-a5a2-1fcdb44b0cff","system_id":"levelo_inurba_marseille","lat":43.25087,"lon":5.39509,"is_reserved":false,"is_disabled":true,"rental_uris":{"android":"levelo://app?vid=3260d6da-2018-4dad-a5a2-1fcdb44b0cff","ios":"levelo://app?vid=3260d6da-2018-4dad-a5a2-1fcdb44b0cff"},"vehicle_type_id":"4","last_reported":1769837751,"current_range_meters":4800,"station_id":"ce4bhm12rcd13ifvqgkg","pricing_plan_id":"cebpf4jnsgd1na2vs0mg"},{"bike_id":"b589a911-c752-40e2-a671-addd4ec13243","system_id":"levelo_inurba_marseille","lat":43.29075,"lon":5.37169,"is_reserved":false,"is_disabled":false,"rental_uris":{"android":"levelo://app?vid=b589a911-c752-40e2-a671-addd4ec13243","ios":"levelo://app?vid=b589a911-c752-40e2-a671-addd4ec13243"},"vehicle_type_id":"4","last_reported":1769837751,"current_range_meters":4800,"station_id":"ce4bh5p2rcd13ifvqe4g","pricing_plan_id":"cebpf4jnsgd1na2vs0mg"},{"bike_id":"6b07e50c-03c8-4824-b0e1-e184b4975a06","system_id":"levelo_inurba_marseille","lat":43.25342,"lon":5.42175,"is_reserved":false,"is_disabled":true,"rental_uris":{"android":"levelo://app?vid=6b07e50c-03c8-4824-b0e1-e184b4975a06","ios":"levelo://app?vid=6b07e50c-03c8-4824-b0e1-e184b4975a06"},"vehicle_type_id":"4","last_reported":1769837751,"current_range_meters":4800,"station_id":"st_d2m65c5bi1j21697t3ng","pricing_plan_id":"cebpf4jnsgd1na2vs0mg"},{"bike_id":"2626a307-09e6-4806-8747-64c64cf9b162","system_id":"levelo_inurba_marseille","lat":43.24467,"lon":5.42524,"is_reserved":false,"is_disabled":false,"rental_uris":{"android":"levelo://app?vid=2626a307-09e6-4806-8747-64c64cf9b162","ios":"levelo://app?vid=2626a307-09e6-4806-8747-64c64cf9b162"},"vehicle_type_id":"4","last_reported":1769837751,"current_range_meters":4800,"station_id":"st_d4a3vfp97mjs738cd8kg","pricing_plan_id":"cebpf4jnsgd1na2vs0mg"},{"bike_id":"21335747-3add-49bb-95b9-081d777d30db","system_id":"levelo_inurba_marseille","lat":43.23177,"lon":5.4,"is_reserved":false,"is_disabled":false,"rental_uris":{"android":"levelo://app?vid=21335747-3add-49bb-95b9-081d777d30db","ios":"levelo://app?vid=21335747-3add-49bb-95b9-081d777d30db"},"vehicle_type_id":"4","last_reported":1769837751,"current_range_meters":4800,"station_id":"ce4bhn12rcd13ifvqgqg","pricing_plan_id":"cebpf4jnsgd1na2vs0mg"},{"bike_id":"162e6984-f259-47c9-be8d-3b83e4d8ad01","system_id":"levelo_inurba_marseille","lat":43.27986,"lon":5.4166,"is_reserved":false,"is_disabled":false,"rental_uris":{"android":"levelo://app?vid=162e6984-f259-47c9-be8d-3b83e4d8ad01","ios":"levelo://app?vid=162e6984-f259-47c9-be8d-3b83e4d8ad01"},"vehicle_type_id":"4","last_reported":1769837751,"current_range_meters":4800,"station_id":"ce4bho12rcd13ifvqh1g","pricing_plan_id":"cebpf4jnsgd1na2vs0mg"},{"bike_id":"1d321438-398a-4c27-a731-4b493b3f1405","system_id":"levelo_inurba_marseille","lat":43.28614,"lon":5.35088,"is_reserved":false,"is_disabled":false,"rental_uris":{"android":"levelo://app?vid=1d321438-398a-4c27-a731-4b493b3f1405","ios":"levelo://app?vid=1d321438-398a-4c27-a731-4b493b3f1405"},"vehicle_type_id":"4","last_reported":1769837751,"current_range_meters":4800,"station_id":"ce4bhch2rcd13ifvqeug","pricing_plan_id":"cebpf4jnsgd1na2vs0mg"},{"bike_id":"c5750adf-e68a-4c44-b08e-8fba935f4c99","system_id":"levelo_inurba_marseille","lat":43.25097,"lon":5.3953,"is_reserved":false,"is_disabled":false,"rental_uris":{"android":"levelo://app?vid=c5750adf-e68a-4c44-b08e-8fba935f4c99","ios":"levelo://app?vid=c5750adf-e68a-4c44-b08e-8fba935f4c99"},"vehicle_type_id":"4","last_reported":1769837751,"current_range_meters":4800,"station_id":"ce4bhm12rcd13ifvqgkg","pricing_plan_id":"cebpf4jnsgd1na2vs0mg"},{"bike_id":"339040ef-38c7-4f49-946c-88b541b3e175","system_id":"levelo_inurba_marseille","lat":43.28621,"lon":5.35101,"is_reserved":false,"is_disabled":false,"rental_uris":{"android":"levelo://app?vid=339040ef-38c7-4f49-946c-88b541b3e175","ios":"levelo://app?vid=339040ef-38c7-4f49-946c-88b541b3e175"},"vehicle_type_id":"4","last_reported":1769837751,"current_range_meters":4800,"station_id":"ce4bhch2rcd13ifvqeug","pricing_plan_id":"cebpf4jnsgd1na2vs0mg"},{"bike_id":"e2701745-5106-4d39-a3d2-5f47763fb929","system_id":"levelo_inurba_marseille","lat":43.24628,"lon":5.43142,"is_reserved":false,"is_disabled":false,"rental_uris":{"android":"levelo://app?vid=e2701745-5106-4d39-a3d2-5f47763fb929","ios":"levelo://app?vid=e2701745-5106-4d39-a3d2-5f47763fb929"},"vehicle_type_id":"4","last_reported":1769837751,"current_range_meters":4800,"station_id":"st_d2m6c4gdas8pm72e190g","pricing_plan_id":"cebpf4jnsgd1na2vs0mg"},{"bike_id":"552cacd7-acbb-47d3-8159-3f52b9bb22d1","system_id":"levelo_inurba_marseille","lat":43.303084,"lon":5.368937,"is_reserved":false,"is_disabled":false,"rental_uris":{"android":"levelo://app?vid=552cacd7-acbb-47d3-8159-3f52b9bb22d1","ios":"levelo://app?vid=552cacd7-acbb-47d3-8159-3f52b9bb22d1"},"vehicle_type_id":"4","last_reported":1769837751,"current_range_meters":4800,"station_id":"ce4bgqh2rcd13ifvqc5g","pricing_plan_id":"cebpf4jnsgd1na2vs0mg"},{"bike_id":"d3a387e5-9641-41a5-ac59-e6007a016061","system_id":"levelo_inurba_marseille","lat":43.284027,"lon":5.374853,"is_reserved":false,"is_disabled":false,"rental_uris":{"android":"levelo://app?vid=d3a387e5-9641-41a5-ac59-e6007a016061","ios":"levelo://app?vid=d3a387e5-9641-41a5-ac59-e6007a016061"},"vehicle_type_id":"4","last_reported":1769837751,"current_range_meters":4800,"station_id":"ce4bh412rcd13ifvqds0","pricing_plan_id":"cebpf4jnsgd1na2vs0mg"},{"bike_id":"14f8addb-8706-44a8-a488-29c4f9a62fe1","system_id":"levelo_inurba_marseille","lat":43.303767,"lon":5.424853,"is_reserved":false,"is_disabled":false,"rental_uris":{"android":"levelo://app?vid=14f8addb-8706-44a8-a488-29c4f9a62fe1","ios":"levelo://app?vid=14f8addb-8706-44a8-a488-29c4f9a62fe1"},"vehicle_type_id":"4","last_reported":1769837751,"current_range_meters":5600,"station_id":"ce4bhoh2rcd13ifvqh6g","pricing_plan_id":"cebpf4jnsgd1na2vs0mg"},{"bike_id":"c6d7e52f-feda-4e03-b282-7ec699c43bdd","system_id":"levelo_inurba_marseille","lat":43.29948,"lon":5.39531,"is_reserved":false,"is_disabled":false,"rental_uris":{"android":"levelo://app?vid=c6d7e52f-feda-4e03-b282-7ec699c43bdd","ios":"levelo://app?vid=c6d7e52f-feda-4e03-b282-7ec699c43bdd"},"vehicle_type_id":"4","last_reported":1769837751,"current_range_meters":5600,"station_id":"","pricing_plan_id":"cebpf4jnsgd1na2vs0mg"},{"bike_id":"858c22cf-3753-4705-9193-0549a86510c0","system_id":"levelo_inurba_marseille","lat":43.30947,"lon":5.40136,"is_reserved":false,"is_disabled":false,"rental_uris":{"android":"levelo://app?vid=858c22cf-3753-4705-9193-0549a86510c0","ios":"levelo://app?vid=858c22cf-3753-4705-9193-0549a86510c0"},"vehicle_type_id":"4","last_reported":1769837751,"current_range_meters":5600,"station_id":"ce4bgvp2rcd13ifvqct0","pricing_plan_id":"cebpf4jnsgd1na2vs0mg"},{"bike_id":"a348b41d-ce0f-4115-b2b3-f88fa8dc97dd","system_id":"levelo_inurba_marseille","lat":43.22566,"lon":5.41615,"is_reserved":false,"is_disabled":false,"rental_uris":{"android":"levelo://app?vid=a348b41d-ce0f-4115-b2b3-f88fa8dc97dd","ios":"levelo://app?vid=a348b41d-ce0f-4115-b2b3-f88fa8dc97dd"},"vehicle_type_id":"4","last_reported":1769837751,"current_range_meters":5600,"station_id":"st_d2o4gvlbi1j2169b742g","pricing_plan_id":"cebpf4jnsgd1na2vs0mg"},{"bike_id":"29e4ce79-df32-4a16-836e-cd957aa9a131","system_id":"levelo_inurba_marseille","lat":43.24634,"lon":5.43138,"is_reserved":false,"is_disabled":false,"rental_uris":{"android":"levelo://app?vid=29e4ce79-df32-4a16-836e-cd957aa9a131","ios":"levelo://app?vid=29e4ce79-df32-4a16-836e-cd957aa9a131"},"vehicle_type_id":"4","last_reported":1769837751,"current_range_meters":5600,"station_id":"st_d2m6c4gdas8pm72e190g","pricing_plan_id":"cebpf4jnsgd1na2vs0mg"},{"bike_id":"5f8af22f-9203-4ec9-816f-1618d1060df6","system_id":"levelo_inurba_marseille","lat":43.32508,"lon":5.38295,"is_reserved":false,"is_disabled":false,"rental_uris":{"android":"levelo://app?vid=5f8af22f-9203-4ec9-816f-1618d1060df6","ios":"levelo://app?vid=5f8af22f-9203-4ec9-816f-1618d1060df6"},"vehicle_type_id":"4","last_reported":1769837751,"current_range_meters":5600,"station_id":"st_d4asgbiv49dc73anf9m0","pricing_plan_id":"cebpf4jnsgd1na2vs0mg"},{"bike_id":"7caa21b6-fb47-4219-b2dd-87543f21c3f6","system_id":"levelo_inurba_marseille","lat":43.29646,"lon":5.37695,"is_reserved":false,"is_disabled":false,"rental_uris":{"android":"levelo://app?vid=7caa21b6-fb47-4219-b2dd-87543f21c3f6","ios":"levelo://app?vid=7caa21b6-fb47-4219-b2dd-87543f21c3f6"},"vehicle_type_id":"4","last_reported":1769837751,"current_range_meters":5600,"station_id":"ce4bgi92rcd13ifvqb90","pricing_plan_id":"cebpf4jnsgd1na2vs0mg"},{"bike_id":"fcb6a24a-52b1-488a-b1ff-28d7bd022f8d","system_id":"levelo_inurba_marseille","lat":43.2827,"lon":5.35062,"is_reserved":false,"is_disabled":false,"rental_uris":{"android":"levelo://app?vid=fcb6a24a-52b1-488a-b1ff-28d7bd022f8d","ios":"levelo://app?vid=fcb6a24a-52b1-488a-b1ff-28d7bd022f8d"},"vehicle_type_id":"4","last_reported":1769837751,"current_range_meters":5600,"station_id":"ce4bhbp2rcd13ifvqerg","pricing_plan_id":"cebpf4jnsgd1na2vs0mg"},{"bike_id":"94842764-1da0-47c3-981d-a8a494b1c082","system_id":"levelo_inurba_marseille","lat":43.24628,"lon":5.38916,"is_reserved":false,"is_disabled":false,"rental_uris":{"android":"levelo://app?vid=94842764-1da0-47c3-981d-a8a494b1c082","ios":"levelo://app?vid=94842764-1da0-47c3-981d-a8a494b1c082"},"vehicle_type_id":"4","last_reported":1769837751,"current_range_meters":5600,"station_id":"ce4bhg12rcd13ifvqf60","pricing_plan_id":"cebpf4jnsgd1na2vs0mg"},{"bike_id":"d278f49b-79cb-49d4-9147-2a87ca70efd2","system_id":"levelo_inurba_marseille","lat":43.24637,"lon":5.38892,"is_reserved":false,"is_disabled":false,"rental_uris":{"android":"levelo://app?vid=d278f49b-79cb-49d4-9147-2a87ca70efd2","ios":"levelo://app?vid=d278f49b-79cb-49d4-9147-2a87ca70efd2"},"vehicle_type_id":"4","last_reported":1769837751,"current_range_meters":5600,"station_id":"ce4bhg12rcd13ifvqf60","pricing_plan_id":"cebpf4jnsgd1na2vs0mg"},{"bike_id":"bb1e61bf-0664-40ff-869b-ac155d1676ed","system_id":"levelo_inurba_marseille","lat":43.28997,"lon":5.35601,"is_reserved":false,"is_disabled":false,"rental_uris":{"android":"levelo://app?vid=bb1e61bf-0664-40ff-869b-ac155d1676ed","ios":"levelo://app?vid=bb1e61bf-0664-40ff-869b-ac155d1676ed"},"vehicle_type_id":"4","last_reported":1769837751,"current_range_meters":5600,"station_id":"ce4bhb92rcd13ifvqen0","pricing_plan_id":"cebpf4jnsgd1na2vs0mg"},{"bike_id":"13d20b3a-d4a2-4cd9-aaaa-01ca7200ccb0","system_id":"levelo_inurba_marseille","lat":43.30874,"lon":5.39638,"is_reserved":false,"is_disabled":false,"rental_uris":{"android":"levelo://app?vid=13d20b3a-d4a2-4cd9-aaaa-01ca7200ccb0","ios":"levelo://app?vid=13d20b3a-d4a2-4cd9-aaaa-01ca7200ccb0"},"vehicle_type_id":"4","last_reported":1769837751,"current_range_meters":5600,"station_id":"ce4bh012rcd13ifvqcv0","pricing_plan_id":"cebpf4jnsgd1na2vs0mg"},{"bike_id":"731e238e-bfad-467f-9314-1f052bbdff32","system_id":"levelo_inurba_marseille","lat":43.28362,"lon":5.38094,"is_reserved":false,"is_disabled":false,"rental_uris":{"android":"levelo://app?vid=731e238e-bfad-467f-9314-1f052bbdff32","ios":"levelo://app?vid=731e238e-bfad-467f-9314-1f052bbdff32"},"vehicle_type_id":"4","last_reported":1769837751,"current_range_meters":6000,"station_id":"ce4bh412rcd13ifvqdr0","pricing_plan_id":"cebpf4jnsgd1na2vs0mg"},{"bike_id":"3c07e8db-1d64-4b7a-879d-8b774c3d7e0c","system_id":"levelo_inurba_marseille","lat":43.273766,"lon":5.362614,"is_reserved":false,"is_disabled":false,"rental_uris":{"android":"levelo://app?vid=3c07e8db-1d64-4b7a-879d-8b774c3d7e0c","ios":"levelo://app?vid=3c07e8db-1d64-4b7a-879d-8b774c3d7e0c"},"vehicle_type_id":"4","last_reported":1769837751,"current_range_meters":6000,"station_id":"ce4bhbh2rcd13ifvqeo0","pricing_plan_id":"cebpf4jnsgd1na2vs0mg"},{"bike_id":"ab00b697-5ca6-45bf-8f53-9ad85446998f","system_id":"levelo_inurba_marseille","lat":43.23063,"lon":5.35484,"is_reserved":false,"is_disabled":false,"rental_uris":{"android":"levelo://app?vid=ab00b697-5ca6-45bf-8f53-9ad85446998f","ios":"levelo://app?vid=ab00b697-5ca6-45bf-8f53-9ad85446998f"},"vehicle_type_id":"4","last_reported":1769837751,"current_range_meters":6000,"station_id":"cpo3342slgdg3j2ifvpg","pricing_plan_id":"cebpf4jnsgd1na2vs0mg"},{"bike_id":"6f80a0c7-e6da-4e3f-a33d-84508ae903bc","system_id":"levelo_inurba_marseille","lat":43.24623,"lon":5.43143,"is_reserved":false,"is_disabled":false,"rental_uris":{"android":"levelo://app?vid=6f80a0c7-e6da-4e3f-a33d-84508ae903bc","ios":"levelo://app?vid=6f80a0c7-e6da-4e3f-a33d-84508ae903bc"},"vehicle_type_id":"4","last_reported":1769837751,"current_range_meters":6000,"station_id":"st_d2m6c4gdas8pm72e190g","pricing_plan_id":"cebpf4jnsgd1na2vs0mg"},{"bike_id":"0e79c48d-cdc7-44eb-ad7d-d24757dd50e7","system_id":"levelo_inurba_marseille","lat":43.32352,"lon":5.36756,"is_reserved":false,"is_disabled":false,"rental_uris":{"android":"levelo://app?vid=0e79c48d-cdc7-44eb-ad7d-d24757dd50e7","ios":"levelo://app?vid=0e79c48d-cdc7-44eb-ad7d-d24757dd50e7"},"vehicle_type_id":"4","last_reported":1769837751,"current_range_meters":6000,"station_id":"ce4bhsh2rcd13ifvqi2g","pricing_plan_id":"cebpf4jnsgd1na2vs0mg"},{"bike_id":"ed49719e-ebdf-4e11-bee6-46418a0b21a1","system_id":"levelo_inurba_marseille","lat":43.25864,"lon":5.3989,"is_reserved":false,"is_disabled":false,"rental_uris":{"android":"levelo://app?vid=ed49719e-ebdf-4e11-bee6-46418a0b21a1","ios":"levelo://app?vid=ed49719e-ebdf-4e11-bee6-46418a0b21a1"},"vehicle_type_id":"4","last_reported":1769837751,"current_range_meters":6000,"station_id":"ce4bhl92rcd13ifvqghg","pricing_plan_id":"cebpf4jnsgd1na2vs0mg"},{"bike_id":"be59a1fa-fcbd-4f35-ac1f-ae4c97b5126c","system_id":"levelo_inurba_marseille","lat":43.21759,"lon":5.34635,"is_reserved":false,"is_disabled":false,"rental_uris":{"android":"levelo://app?vid=be59a1fa-fcbd-4f35-ac1f-ae4c97b5126c","ios":"levelo://app?vid=be59a1fa-fcbd-4f35-ac1f-ae4c97b5126c"},"vehicle_type_id":"4","last_reported":1769837751,"current_range_meters":6000,"station_id":"st_cvj6r9ubvosntc0bgbag","pricing_plan_id":"cebpf4jnsgd1na2vs0mg"},{"bike_id":"2f69bdaf-1262-479f-9e9b-296ce2b8b0eb","system_id":"levelo_inurba_marseille","lat":43.31188,"lon":5.38728,"is_reserved":false,"is_disabled":false,"rental_uris":{"android":"levelo://app?vid=2f69bdaf-1262-479f-9e9b-296ce2b8b0eb","ios":"levelo://app?vid=2f69bdaf-1262-479f-9e9b-296ce2b8b0eb"},"vehicle_type_id":"4","last_reported":1769837751,"current_range_meters":6000,"station_id":"ce4bgv12rcd13ifvqcp0","pricing_plan_id":"cebpf4jnsgd1na2vs0mg"},{"bike_id":"c185cf38-df1b-4bb4-86d7-b251a2422e4d","system_id":"levelo_inurba_marseille","lat":43.32101,"lon":5.3677,"is_reserved":false,"is_disabled":false,"rental_uris":{"android":"levelo://app?vid=c185cf38-df1b-4bb4-86d7-b251a2422e4d","ios":"levelo://app?vid=c185cf38-df1b-4bb4-86d7-b251a2422e4d"},"vehicle_type_id":"4","last_reported":1769837751,"current_range_meters":6000,"station_id":"ce4bhrh2rcd13ifvqhug","pricing_plan_id":"cebpf4jnsgd1na2vs0mg"},{"bike_id":"a034a880-ac04-4c48-a941-5ec9e14fb0d1","system_id":"levelo_inurba_marseille","lat":43.28615,"lon":5.37065,"is_reserved":false,"is_disabled":false,"rental_uris":{"android":"levelo://app?vid=a034a880-ac04-4c48-a941-5ec9e14fb0d1","ios":"levelo://app?vid=a034a880-ac04-4c48-a941-5ec9e14fb0d1"},"vehicle_type_id":"4","last_reported":1769837751,"current_range_meters":6000,"station_id":"ce4bht12rcd13ifvqi60","pricing_plan_id":"cebpf4jnsgd1na2vs0mg"},{"bike_id":"65b759d9-e66a-4cc0-915d-2e8ad0441e0c","system_id":"levelo_inurba_marseille","lat":43.31159,"lon":5.38634,"is_reserved":false,"is_disabled":false,"rental_uris":{"android":"levelo://app?vid=65b759d9-e66a-4cc0-915d-2e8ad0441e0c","ios":"levelo://app?vid=65b759d9-e66a-4cc0-915d-2e8ad0441e0c"},"vehicle_type_id":"4","last_reported":1769837751,"current_range_meters":6000,"station_id":"","pricing_plan_id":"cebpf4jnsgd1na2vs0mg"},{"bike_id":"b3808154-86af-47d0-966c-f1cc0984587d","system_id":"levelo_inurba_marseille","lat":43.337567,"lon":5.374826,"is_reserved":false,"is_disabled":false,"rental_uris":{"android":"levelo://app?vid=b3808154-86af-47d0-966c-f1cc0984587d","ios":"levelo://app?vid=b3808154-86af-47d0-966c-f1cc0984587d"},"vehicle_type_id":"4","last_reported":1769837751,"current_range_meters":6000,"station_id":"","pricing_plan_id":"cebpf4jnsgd1na2vs0mg"},{"bike_id":"67dde3a5-6719-400f-9754-ba07b063d126","system_id":"levelo_inurba_marseille","lat":43.22552,"lon":5.41623,"is_reserved":false,"is_disabled":false,"rental_uris":{"android":"levelo://app?vid=67dde3a5-6719-400f-9754-ba07b063d126","ios":"levelo://app?vid=67dde3a5-6719-400f-9754-ba07b063d126"},"vehicle_type_id":"4","last_reported":1769837751,"current_range_meters":6400,"station_id":"st_d2o4gvlbi1j2169b742g","pricing_plan_id":"cebpf4jnsgd1na2vs0mg"},{"bike_id":"c2029e8e-62e9-40bd-90c8-2d85b607b409","system_id":"levelo_inurba_marseille","lat":43.29768,"lon":5.42754,"is_reserved":false,"is_disabled":false,"rental_uris":{"android":"levelo://app?vid=c2029e8e-62e9-40bd-90c8-2d85b607b409","ios":"levelo://app?vid=c2029e8e-62e9-40bd-90c8-2d85b607b409"},"vehicle_type_id":"4","last_reported":1769837751,"current_range_meters":6400,"station_id":"st_d3md5207bmas73dh9klg","pricing_plan_id":"cebpf4jnsgd1na2vs0mg"},{"bike_id":"7212c134-0bb1-4307-8053-dc66b6b70a1e","system_id":"levelo_inurba_marseille","lat":43.2976,"lon":5.42781,"is_reserved":false,"is_disabled":false,"rental_uris":{"android":"levelo://app?vid=7212c134-0bb1-4307-8053-dc66b6b70a1e","ios":"levelo://app?vid=7212c134-0bb1-4307-8053-dc66b6b70a1e"},"vehicle_type_id":"4","last_reported":1769837751,"current_range_meters":6400,"station_id":"st_d3md5207bmas73dh9klg","pricing_plan_id":"cebpf4jnsgd1na2vs0mg"},{"bike_id":"ac8aedf1-57cc-433c-802a-9a818a6c3a5b","system_id":"levelo_inurba_marseille","lat":43.299806,"lon":5.37166,"is_reserved":false,"is_disabled":false,"rental_uris":{"android":"levelo://app?vid=ac8aedf1-57cc-433c-802a-9a818a6c3a5b","ios":"levelo://app?vid=ac8aedf1-57cc-433c-802a-9a818a6c3a5b"},"vehicle_type_id":"4","last_reported":1769837751,"current_range_meters":6400,"station_id":"ce4bgr92rcd13ifvqc7g","pricing_plan_id":"cebpf4jnsgd1na2vs0mg"},{"bike_id":"bf37e74e-5d8b-4f4d-8158-c7f93cbda707","system_id":"levelo_inurba_marseille","lat":43.31326,"lon":5.39692,"is_reserved":false,"is_disabled":false,"rental_uris":{"android":"levelo://app?vid=bf37e74e-5d8b-4f4d-8158-c7f93cbda707","ios":"levelo://app?vid=bf37e74e-5d8b-4f4d-8158-c7f93cbda707"},"vehicle_type_id":"4","last_reported":1769837751,"current_range_meters":6400,"station_id":"ce4bgvp2rcd13ifvqcu0","pricing_plan_id":"cebpf4jnsgd1na2vs0mg"},{"bike_id":"d649bfea-6124-483e-8a11-d1a9d85a2f27","system_id":"levelo_inurba_marseille","lat":43.30116,"lon":5.39884,"is_reserved":false,"is_disabled":true,"rental_uris":{"android":"levelo://app?vid=d649bfea-6124-483e-8a11-d1a9d85a2f27","ios":"levelo://app?vid=d649bfea-6124-483e-8a11-d1a9d85a2f27"},"vehicle_type_id":"4","last_reported":1769837751,"current_range_meters":6400,"station_id":"ce4bh0h2rcd13ifvqd40","pricing_plan_id":"cebpf4jnsgd1na2vs0mg"},{"bike_id":"d6c0c260-1d77-47ce-9ca1-2efe8f514e43","system_id":"levelo_inurba_marseille","lat":43.28427,"lon":5.34988,"is_reserved":false,"is_disabled":false,"rental_uris":{"android":"levelo://app?vid=d6c0c260-1d77-47ce-9ca1-2efe8f514e43","ios":"levelo://app?vid=d6c0c260-1d77-47ce-9ca1-2efe8f514e43"},"vehicle_type_id":"4","last_reported":1769837751,"current_range_meters":6400,"station_id":"ce4bhbh2rcd13ifvqepg","pricing_plan_id":"cebpf4jnsgd1na2vs0mg"},{"bike_id":"1e768992-55e7-4d55-8893-f866fd6efb43","system_id":"levelo_inurba_marseille","lat":43.26573,"lon":5.4031,"is_reserved":false,"is_disabled":false,"rental_uris":{"android":"levelo://app?vid=1e768992-55e7-4d55-8893-f866fd6efb43","ios":"levelo://app?vid=1e768992-55e7-4d55-8893-f866fd6efb43"},"vehicle_type_id":"4","last_reported":1769837751,"current_range_meters":6400,"station_id":"ce4bhmp2rcd13ifvqgng","pricing_plan_id":"cebpf4jnsgd1na2vs0mg"},{"bike_id":"211e9f25-2d90-4b9b-a855-3b41a0e91060","system_id":"levelo_inurba_marseille","lat":43.27903,"lon":5.37982,"is_reserved":false,"is_disabled":false,"rental_uris":{"android":"levelo://app?vid=211e9f25-2d90-4b9b-a855-3b41a0e91060","ios":"levelo://app?vid=211e9f25-2d90-4b9b-a855-3b41a0e91060"},"vehicle_type_id":"4","last_reported":1769837751,"current_range_meters":6400,"station_id":"ce4bhf92rcd13ifvqf50","pricing_plan_id":"cebpf4jnsgd1na2vs0mg"},{"bike_id":"f8861002-c2d1-4382-86d1-5d946b173330","system_id":"levelo_inurba_marseille","lat":43.217472,"lon":5.346054,"is_reserved":false,"is_disabled":false,"rental_uris":{"android":"levelo://app?vid=f8861002-c2d1-4382-86d1-5d946b173330","ios":"levelo://app?vid=f8861002-c2d1-4382-86d1-5d946b173330"},"vehicle_type_id":"4","last_reported":1769837751,"current_range_meters":6400,"station_id":"st_cvj6r9ubvosntc0bgbag","pricing_plan_id":"cebpf4jnsgd1na2vs0mg"},{"bike_id":"a17ae85f-a892-4214-8aaf-fd1b437c624b","system_id":"levelo_inurba_marseille","lat":43.3026,"lon":5.40066,"is_reserved":false,"is_disabled":false,"rental_uris":{"android":"levelo://app?vid=a17ae85f-a892-4214-8aaf-fd1b437c624b","ios":"levelo://app?vid=a17ae85f-a892-4214-8aaf-fd1b437c624b"},"vehicle_type_id":"4","last_reported":1769837751,"current_range_meters":6400,"station_id":"ce4bgvh2rcd13ifvqcs0","pricing_plan_id":"cebpf4jnsgd1na2vs0mg"},{"bike_id":"b1e78ffd-83b0-42c8-9fec-477ac6fbc93c","system_id":"levelo_inurba_marseille","lat":43.29506,"lon":5.4329,"is_reserved":false,"is_disabled":false,"rental_uris":{"android":"levelo://app?vid=b1e78ffd-83b0-42c8-9fec-477ac6fbc93c","ios":"levelo://app?vid=b1e78ffd-83b0-42c8-9fec-477ac6fbc93c"},"vehicle_type_id":"4","last_reported":1769837751,"current_range_meters":6400,"station_id":"st_d3j5ugp08ojc73fj9d10","pricing_plan_id":"cebpf4jnsgd1na2vs0mg"},{"bike_id":"b59e63b6-c173-40af-adaa-df4f5d3ec593","system_id":"levelo_inurba_marseille","lat":43.2849,"lon":5.38434,"is_reserved":false,"is_disabled":false,"rental_uris":{"android":"levelo://app?vid=b59e63b6-c173-40af-adaa-df4f5d3ec593","ios":"levelo://app?vid=b59e63b6-c173-40af-adaa-df4f5d3ec593"},"vehicle_type_id":"4","last_reported":1769837751,"current_range_meters":6400,"station_id":"ce4bh512rcd13ifvqe3g","pricing_plan_id":"cebpf4jnsgd1na2vs0mg"},{"bike_id":"1ae2d96d-59b0-469c-b070-5c6aa648ad29","system_id":"levelo_inurba_marseille","lat":43.24168,"lon":5.36391,"is_reserved":false,"is_disabled":false,"rental_uris":{"android":"levelo://app?vid=1ae2d96d-59b0-469c-b070-5c6aa648ad29","ios":"levelo://app?vid=1ae2d96d-59b0-469c-b070-5c6aa648ad29"},"vehicle_type_id":"4","last_reported":1769837751,"current_range_meters":6400,"station_id":"cpo36qri1sfpv3e86is0","pricing_plan_id":"cebpf4jnsgd1na2vs0mg"},{"bike_id":"c3ffe16b-ef4f-438b-84a5-6957d02ea638","system_id":"levelo_inurba_marseille","lat":43.25502,"lon":5.37656,"is_reserved":false,"is_disabled":false,"rental_uris":{"android":"levelo://app?vid=c3ffe16b-ef4f-438b-84a5-6957d02ea638","ios":"levelo://app?vid=c3ffe16b-ef4f-438b-84a5-6957d02ea638"},"vehicle_type_id":"4","last_reported":1769837751,"current_range_meters":6400,"station_id":"ce4bhh12rcd13ifvqff0","pricing_plan_id":"cebpf4jnsgd1na2vs0mg"},{"bike_id":"77edc80f-6c7c-4f24-93a5-13373281d52f","system_id":"levelo_inurba_marseille","lat":43.2781,"lon":5.40724,"is_reserved":false,"is_disabled":false,"rental_uris":{"android":"levelo://app?vid=77edc80f-6c7c-4f24-93a5-13373281d52f","ios":"levelo://app?vid=77edc80f-6c7c-4f24-93a5-13373281d52f"},"vehicle_type_id":"4","last_reported":1769837751,"current_range_meters":6400,"station_id":"ce4bhnh2rcd13ifvqgtg","pricing_plan_id":"cebpf4jnsgd1na2vs0mg"},{"bike_id":"9593aa81-6e4a-4f55-a647-c50b268fadcb","system_id":"levelo_inurba_marseille","lat":43.31283,"lon":5.40175,"is_reserved":false,"is_disabled":false,"rental_uris":{"android":"levelo://app?vid=9593aa81-6e4a-4f55-a647-c50b268fadcb","ios":"levelo://app?vid=9593aa81-6e4a-4f55-a647-c50b268fadcb"},"vehicle_type_id":"4","last_reported":1769837751,"current_range_meters":6400,"station_id":"ce4bh092rcd13ifvqd30","pricing_plan_id":"cebpf4jnsgd1na2vs0mg"},{"bike_id":"65c2d018-5db4-4b71-9059-ee26b3f148d1","system_id":"levelo_inurba_marseille","lat":43.2417,"lon":5.39729,"is_reserved":false,"is_disabled":false,"rental_uris":{"android":"levelo://app?vid=65c2d018-5db4-4b71-9059-ee26b3f148d1","ios":"levelo://app?vid=65c2d018-5db4-4b71-9059-ee26b3f148d1"},"vehicle_type_id":"4","last_reported":1769837751,"current_range_meters":6400,"station_id":"ce4bhn12rcd13ifvqgpg","pricing_plan_id":"cebpf4jnsgd1na2vs0mg"},{"bike_id":"f3d88390-51ff-4369-8a96-fce3337519db","system_id":"levelo_inurba_marseille","lat":43.30929,"lon":5.40153,"is_reserved":false,"is_disabled":false,"rental_uris":{"android":"levelo://app?vid=f3d88390-51ff-4369-8a96-fce3337519db","ios":"levelo://app?vid=f3d88390-51ff-4369-8a96-fce3337519db"},"vehicle_type_id":"4","last_reported":1769837751,"current_range_meters":6800,"station_id":"ce4bgvp2rcd13ifvqct0","pricing_plan_id":"cebpf4jnsgd1na2vs0mg"},{"bike_id":"f967bc7a-fdcd-4b05-b321-006ec67479b6","system_id":"levelo_inurba_marseille","lat":43.292344,"lon":5.360518,"is_reserved":false,"is_disabled":false,"rental_uris":{"android":"levelo://app?vid=f967bc7a-fdcd-4b05-b321-006ec67479b6","ios":"levelo://app?vid=f967bc7a-fdcd-4b05-b321-006ec67479b6"},"vehicle_type_id":"4","last_reported":1769837751,"current_range_meters":6800,"station_id":"ce4bhbh2rcd13ifvqeqg","pricing_plan_id":"cebpf4jnsgd1na2vs0mg"},{"bike_id":"969722f2-998c-4590-a485-753e78176d29","system_id":"levelo_inurba_marseille","lat":43.283516,"lon":5.381089,"is_reserved":false,"is_disabled":false,"rental_uris":{"android":"levelo://app?vid=969722f2-998c-4590-a485-753e78176d29","ios":"levelo://app?vid=969722f2-998c-4590-a485-753e78176d29"},"vehicle_type_id":"4","last_reported":1769837751,"current_range_meters":6800,"station_id":"ce4bh412rcd13ifvqdr0","pricing_plan_id":"cebpf4jnsgd1na2vs0mg"},{"bike_id":"da9f4472-0bb8-4458-affe-8b93192b64a6","system_id":"levelo_inurba_marseille","lat":43.237867,"lon":5.36624,"is_reserved":false,"is_disabled":false,"rental_uris":{"android":"levelo://app?vid=da9f4472-0bb8-4458-affe-8b93192b64a6","ios":"levelo://app?vid=da9f4472-0bb8-4458-affe-8b93192b64a6"},"vehicle_type_id":"4","last_reported":1769837751,"current_range_meters":6800,"station_id":"st_d3nk18o9ro0c73en2l3g","pricing_plan_id":"cebpf4jnsgd1na2vs0mg"},{"bike_id":"7c24d64e-9f53-4f19-8d01-cd838d6d3e9b","system_id":"levelo_inurba_marseille","lat":43.27981,"lon":5.38735,"is_reserved":false,"is_disabled":false,"rental_uris":{"android":"levelo://app?vid=7c24d64e-9f53-4f19-8d01-cd838d6d3e9b","ios":"levelo://app?vid=7c24d64e-9f53-4f19-8d01-cd838d6d3e9b"},"vehicle_type_id":"4","last_reported":1769837751,"current_range_meters":6800,"station_id":"ce4bhg12rcd13ifvqf80","pricing_plan_id":"cebpf4jnsgd1na2vs0mg"},{"bike_id":"af1f7bfa-c836-49e1-9e75-196949442610","system_id":"levelo_inurba_marseille","lat":43.28845,"lon":5.35832,"is_reserved":false,"is_disabled":false,"rental_uris":{"android":"levelo://app?vid=af1f7bfa-c836-49e1-9e75-196949442610","ios":"levelo://app?vid=af1f7bfa-c836-49e1-9e75-196949442610"},"vehicle_type_id":"4","last_reported":1769837751,"current_range_meters":6800,"station_id":"ce4bhb12rcd13ifvqem0","pricing_plan_id":"cebpf4jnsgd1na2vs0mg"},{"bike_id":"674d0755-bda6-44bd-8dd4-47ceec1f93de","system_id":"levelo_inurba_marseille","lat":43.2447,"lon":5.42547,"is_reserved":false,"is_disabled":false,"rental_uris":{"android":"levelo://app?vid=674d0755-bda6-44bd-8dd4-47ceec1f93de","ios":"levelo://app?vid=674d0755-bda6-44bd-8dd4-47ceec1f93de"},"vehicle_type_id":"4","last_reported":1769837751,"current_range_meters":6800,"station_id":"st_d4a3vfp97mjs738cd8kg","pricing_plan_id":"cebpf4jnsgd1na2vs0mg"},{"bike_id":"d57877dd-bf49-46b8-a311-0229d9330d0c","system_id":"levelo_inurba_marseille","lat":43.30743,"lon":5.42463,"is_reserved":false,"is_disabled":false,"rental_uris":{"android":"levelo://app?vid=d57877dd-bf49-46b8-a311-0229d9330d0c","ios":"levelo://app?vid=d57877dd-bf49-46b8-a311-0229d9330d0c"},"vehicle_type_id":"4","last_reported":1769837751,"current_range_meters":6800,"station_id":"st_cvj6ca6bvosntc0bfgr0","pricing_plan_id":"cebpf4jnsgd1na2vs0mg"},{"bike_id":"3af329f7-af8b-4c1b-974b-21c90903f1d0","system_id":"levelo_inurba_marseille","lat":43.29778,"lon":5.39344,"is_reserved":false,"is_disabled":false,"rental_uris":{"android":"levelo://app?vid=3af329f7-af8b-4c1b-974b-21c90903f1d0","ios":"levelo://app?vid=3af329f7-af8b-4c1b-974b-21c90903f1d0"},"vehicle_type_id":"4","last_reported":1769837751,"current_range_meters":6800,"station_id":"chh1huq6cuj3fo74tm60","pricing_plan_id":"cebpf4jnsgd1na2vs0mg"},{"bike_id":"ae885a91-9582-4ed2-b116-fe30671331bd","system_id":"levelo_inurba_marseille","lat":43.23794,"lon":5.36631,"is_reserved":false,"is_disabled":false,"rental_uris":{"android":"levelo://app?vid=ae885a91-9582-4ed2-b116-fe30671331bd","ios":"levelo://app?vid=ae885a91-9582-4ed2-b116-fe30671331bd"},"vehicle_type_id":"4","last_reported":1769837751,"current_range_meters":6800,"station_id":"st_d3nk18o9ro0c73en2l3g","pricing_plan_id":"cebpf4jnsgd1na2vs0mg"},{"bike_id":"eb04defa-9c2c-4a46-a4da-2174d6dcd3f8","system_id":"levelo_inurba_marseille","lat":43.28476,"lon":5.4839,"is_reserved":false,"is_disabled":false,"rental_uris":{"android":"levelo://app?vid=eb04defa-9c2c-4a46-a4da-2174d6dcd3f8","ios":"levelo://app?vid=eb04defa-9c2c-4a46-a4da-2174d6dcd3f8"},"vehicle_type_id":"4","last_reported":1769837751,"current_range_meters":6800,"station_id":"","pricing_plan_id":"cebpf4jnsgd1na2vs0mg"},{"bike_id":"7dfd9af7-42a2-4fcb-818c-1bb662998548","system_id":"levelo_inurba_marseille","lat":43.28487,"lon":5.38419,"is_reserved":false,"is_disabled":false,"rental_uris":{"android":"levelo://app?vid=7dfd9af7-42a2-4fcb-818c-1bb662998548","ios":"levelo://app?vid=7dfd9af7-42a2-4fcb-818c-1bb662998548"},"vehicle_type_id":"4","last_reported":1769837751,"current_range_meters":6800,"station_id":"ce4bh512rcd13ifvqe3g","pricing_plan_id":"cebpf4jnsgd1na2vs0mg"},{"bike_id":"facf5c8d-7adf-4b26-81c3-f2dd54937001","system_id":"levelo_inurba_marseille","lat":43.22536,"lon":5.34822,"is_reserved":false,"is_disabled":false,"rental_uris":{"android":"levelo://app?vid=facf5c8d-7adf-4b26-81c3-f2dd54937001","ios":"levelo://app?vid=facf5c8d-7adf-4b26-81c3-f2dd54937001"},"vehicle_type_id":"4","last_reported":1769837751,"current_range_meters":6800,"station_id":"st_cvj5dfep6f1abm77gieg","pricing_plan_id":"cebpf4jnsgd1na2vs0mg"},{"bike_id":"4fcf3c5d-5e12-4f75-ac8a-a71f8878a3ba","system_id":"levelo_inurba_marseille","lat":43.30143,"lon":5.38086,"is_reserved":false,"is_disabled":false,"rental_uris":{"android":"levelo://app?vid=4fcf3c5d-5e12-4f75-ac8a-a71f8878a3ba","ios":"levelo://app?vid=4fcf3c5d-5e12-4f75-ac8a-a71f8878a3ba"},"vehicle_type_id":"4","last_reported":1769837751,"current_range_meters":6800,"station_id":"ce4bgjp2rcd13ifvqbh0","pricing_plan_id":"cebpf4jnsgd1na2vs0mg"},{"bike_id":"786b3866-fceb-4656-a864-e739f5e6b692","system_id":"levelo_inurba_marseille","lat":43.2319,"lon":5.39987,"is_reserved":false,"is_disabled":false,"rental_uris":{"android":"levelo://app?vid=786b3866-fceb-4656-a864-e739f5e6b692","ios":"levelo://app?vid=786b3866-fceb-4656-a864-e739f5e6b692"},"vehicle_type_id":"4","last_reported":1769837751,"current_range_meters":6800,"station_id":"ce4bhn12rcd13ifvqgqg","pricing_plan_id":"cebpf4jnsgd1na2vs0mg"},{"bike_id":"575f8c18-e321-478a-b387-c15e51db30e6","system_id":"levelo_inurba_marseille","lat":43.28218,"lon":5.42465,"is_reserved":false,"is_disabled":false,"rental_uris":{"android":"levelo://app?vid=575f8c18-e321-478a-b387-c15e51db30e6","ios":"levelo://app?vid=575f8c18-e321-478a-b387-c15e51db30e6"},"vehicle_type_id":"4","last_reported":1769837751,"current_range_meters":6800,"station_id":"","pricing_plan_id":"cebpf4jnsgd1na2vs0mg"},{"bike_id":"5538d53e-ee16-4d5f-8f40-c1bd931b369e","system_id":"levelo_inurba_marseille","lat":43.31165,"lon":5.38695,"is_reserved":false,"is_disabled":false,"rental_uris":{"android":"levelo://app?vid=5538d53e-ee16-4d5f-8f40-c1bd931b369e","ios":"levelo://app?vid=5538d53e-ee16-4d5f-8f40-c1bd931b369e"},"vehicle_type_id":"4","last_reported":1769837751,"current_range_meters":6800,"station_id":"ce4bgv12rcd13ifvqcp0","pricing_plan_id":"cebpf4jnsgd1na2vs0mg"},{"bike_id":"c37de069-0f1b-4017-8d5e-454b47a0f2e5","system_id":"levelo_inurba_marseille","lat":43.31494,"lon":5.37284,"is_reserved":false,"is_disabled":false,"rental_uris":{"android":"levelo://app?vid=c37de069-0f1b-4017-8d5e-454b47a0f2e5","ios":"levelo://app?vid=c37de069-0f1b-4017-8d5e-454b47a0f2e5"},"vehicle_type_id":"4","last_reported":1769837751,"current_range_meters":6800,"station_id":"ce4bgt12rcd13ifvqcd0","pricing_plan_id":"cebpf4jnsgd1na2vs0mg"},{"bike_id":"b3dc3d82-fa45-4a46-ba0b-9044caceee7e","system_id":"levelo_inurba_marseille","lat":43.28036,"lon":5.36949,"is_reserved":false,"is_disabled":false,"rental_uris":{"android":"levelo://app?vid=b3dc3d82-fa45-4a46-ba0b-9044caceee7e","ios":"levelo://app?vid=b3dc3d82-fa45-4a46-ba0b-9044caceee7e"},"vehicle_type_id":"4","last_reported":1769837751,"current_range_meters":6800,"station_id":"ce4bha12rcd13ifvqef0","pricing_plan_id":"cebpf4jnsgd1na2vs0mg"},{"bike_id":"169e268b-5fcc-439a-85a8-5d0f835d65db","system_id":"levelo_inurba_marseille","lat":43.25488,"lon":5.37644,"is_reserved":false,"is_disabled":false,"rental_uris":{"android":"levelo://app?vid=169e268b-5fcc-439a-85a8-5d0f835d65db","ios":"levelo://app?vid=169e268b-5fcc-439a-85a8-5d0f835d65db"},"vehicle_type_id":"4","last_reported":1769837751,"current_range_meters":7200,"station_id":"ce4bhh12rcd13ifvqff0","pricing_plan_id":"cebpf4jnsgd1na2vs0mg"},{"bike_id":"b8538ea1-5c66-4a72-881d-32abab5c79f9","system_id":"levelo_inurba_marseille","lat":43.241755,"lon":5.397127,"is_reserved":false,"is_disabled":false,"rental_uris":{"android":"levelo://app?vid=b8538ea1-5c66-4a72-881d-32abab5c79f9","ios":"levelo://app?vid=b8538ea1-5c66-4a72-881d-32abab5c79f9"},"vehicle_type_id":"4","last_reported":1769837751,"current_range_meters":7200,"station_id":"ce4bhn12rcd13ifvqgpg","pricing_plan_id":"cebpf4jnsgd1na2vs0mg"},{"bike_id":"166b14a7-4771-455e-bb68-1919795c7fd3","system_id":"levelo_inurba_marseille","lat":43.3117,"lon":5.38709,"is_reserved":false,"is_disabled":false,"rental_uris":{"android":"levelo://app?vid=166b14a7-4771-455e-bb68-1919795c7fd3","ios":"levelo://app?vid=166b14a7-4771-455e-bb68-1919795c7fd3"},"vehicle_type_id":"4","last_reported":1769837751,"current_range_meters":7200,"station_id":"ce4bgv12rcd13ifvqcp0","pricing_plan_id":"cebpf4jnsgd1na2vs0mg"},{"bike_id":"7a4412cf-c498-4121-be46-049419c026d4","system_id":"levelo_inurba_marseille","lat":43.27936,"lon":5.41043,"is_reserved":false,"is_disabled":false,"rental_uris":{"android":"levelo://app?vid=7a4412cf-c498-4121-be46-049419c026d4","ios":"levelo://app?vid=7a4412cf-c498-4121-be46-049419c026d4"},"vehicle_type_id":"4","last_reported":1769837751,"current_range_meters":7200,"station_id":"ce4bhnp2rcd13ifvqh0g","pricing_plan_id":"cebpf4jnsgd1na2vs0mg"},{"bike_id":"a633dcb8-69cc-416a-ac75-271c195c29ed","system_id":"levelo_inurba_marseille","lat":43.25515,"lon":5.37649,"is_reserved":false,"is_disabled":false,"rental_uris":{"android":"levelo://app?vid=a633dcb8-69cc-416a-ac75-271c195c29ed","ios":"levelo://app?vid=a633dcb8-69cc-416a-ac75-271c195c29ed"},"vehicle_type_id":"4","last_reported":1769837751,"current_range_meters":7200,"station_id":"ce4bhh12rcd13ifvqff0","pricing_plan_id":"cebpf4jnsgd1na2vs0mg"},{"bike_id":"406beb51-d0cc-4321-9650-d3c19164caa2","system_id":"levelo_inurba_marseille","lat":43.30154,"lon":5.38781,"is_reserved":false,"is_disabled":true,"rental_uris":{"android":"levelo://app?vid=406beb51-d0cc-4321-9650-d3c19164caa2","ios":"levelo://app?vid=406beb51-d0cc-4321-9650-d3c19164caa2"},"vehicle_type_id":"4","last_reported":1769837751,"current_range_meters":7200,"station_id":"ce4bghh2rcd13ifvqb60","pricing_plan_id":"cebpf4jnsgd1na2vs0mg"},{"bike_id":"85685e6a-6e29-4284-b6c0-d4ef8535570e","system_id":"levelo_inurba_marseille","lat":43.25323,"lon":5.42181,"is_reserved":false,"is_disabled":false,"rental_uris":{"android":"levelo://app?vid=85685e6a-6e29-4284-b6c0-d4ef8535570e","ios":"levelo://app?vid=85685e6a-6e29-4284-b6c0-d4ef8535570e"},"vehicle_type_id":"4","last_reported":1769837751,"current_range_meters":7200,"station_id":"st_d2m65c5bi1j21697t3ng","pricing_plan_id":"cebpf4jnsgd1na2vs0mg"},{"bike_id":"74bebc7d-9331-45a4-ae4c-8e5bb0e765ab","system_id":"levelo_inurba_marseille","lat":43.30561,"lon":5.39923,"is_reserved":false,"is_disabled":false,"rental_uris":{"android":"levelo://app?vid=74bebc7d-9331-45a4-ae4c-8e5bb0e765ab","ios":"levelo://app?vid=74bebc7d-9331-45a4-ae4c-8e5bb0e765ab"},"vehicle_type_id":"4","last_reported":1769837751,"current_range_meters":7200,"station_id":"","pricing_plan_id":"cebpf4jnsgd1na2vs0mg"},{"bike_id":"e703e95b-29d0-45e1-801b-f3b45a83114a","system_id":"levelo_inurba_marseille","lat":43.29236,"lon":5.39969,"is_reserved":false,"is_disabled":false,"rental_uris":{"android":"levelo://app?vid=e703e95b-29d0-45e1-801b-f3b45a83114a","ios":"levelo://app?vid=e703e95b-29d0-45e1-801b-f3b45a83114a"},"vehicle_type_id":"4","last_reported":1769837751,"current_range_meters":7200,"station_id":"","pricing_plan_id":"cebpf4jnsgd1na2vs0mg"},{"bike_id":"101556fb-a035-4465-838d-af26e9bf47a4","system_id":"levelo_inurba_marseille","lat":43.28481,"lon":5.38405,"is_reserved":false,"is_disabled":false,"rental_uris":{"android":"levelo://app?vid=101556fb-a035-4465-838d-af26e9bf47a4","ios":"levelo://app?vid=101556fb-a035-4465-838d-af26e9bf47a4"},"vehicle_type_id":"4","last_reported":1769837751,"current_range_meters":7200,"station_id":"ce4bh512rcd13ifvqe3g","pricing_plan_id":"cebpf4jnsgd1na2vs0mg"},{"bike_id":"7a94117d-4d1c-4caa-a409-a0186d2e707b","system_id":"levelo_inurba_marseille","lat":43.28699,"lon":5.37407,"is_reserved":false,"is_disabled":false,"rental_uris":{"android":"levelo://app?vid=7a94117d-4d1c-4caa-a409-a0186d2e707b","ios":"levelo://app?vid=7a94117d-4d1c-4caa-a409-a0186d2e707b"},"vehicle_type_id":"4","last_reported":1769837751,"current_range_meters":7200,"station_id":"ce4bh3p2rcd13ifvqdq0","pricing_plan_id":"cebpf4jnsgd1na2vs0mg"},{"bike_id":"b98bcdfd-abd9-4de1-85fe-a3f97350d459","system_id":"levelo_inurba_marseille","lat":43.31718,"lon":5.42395,"is_reserved":false,"is_disabled":false,"rental_uris":{"android":"levelo://app?vid=b98bcdfd-abd9-4de1-85fe-a3f97350d459","ios":"levelo://app?vid=b98bcdfd-abd9-4de1-85fe-a3f97350d459"},"vehicle_type_id":"4","last_reported":1769837751,"current_range_meters":7200,"station_id":"ce4bhp92rcd13ifvqhbg","pricing_plan_id":"cebpf4jnsgd1na2vs0mg"},{"bike_id":"b6b62251-5b29-4714-a9b4-a8044d239efa","system_id":"levelo_inurba_marseille","lat":43.31695,"lon":5.40451,"is_reserved":false,"is_disabled":false,"rental_uris":{"android":"levelo://app?vid=b6b62251-5b29-4714-a9b4-a8044d239efa","ios":"levelo://app?vid=b6b62251-5b29-4714-a9b4-a8044d239efa"},"vehicle_type_id":"4","last_reported":1769837751,"current_range_meters":7200,"station_id":"ce4bh012rcd13ifvqd00","pricing_plan_id":"cebpf4jnsgd1na2vs0mg"},{"bike_id":"03f38bdc-71b1-4ff1-900c-7d1b7ef48fc4","system_id":"levelo_inurba_marseille","lat":43.30934,"lon":5.40147,"is_reserved":false,"is_disabled":false,"rental_uris":{"android":"levelo://app?vid=03f38bdc-71b1-4ff1-900c-7d1b7ef48fc4","ios":"levelo://app?vid=03f38bdc-71b1-4ff1-900c-7d1b7ef48fc4"},"vehicle_type_id":"4","last_reported":1769837751,"current_range_meters":7200,"station_id":"ce4bgvp2rcd13ifvqct0","pricing_plan_id":"cebpf4jnsgd1na2vs0mg"},{"bike_id":"559520e9-133c-4376-ad9e-58cdced5ca85","system_id":"levelo_inurba_marseille","lat":43.30892,"lon":5.39648,"is_reserved":false,"is_disabled":false,"rental_uris":{"android":"levelo://app?vid=559520e9-133c-4376-ad9e-58cdced5ca85","ios":"levelo://app?vid=559520e9-133c-4376-ad9e-58cdced5ca85"},"vehicle_type_id":"4","last_reported":1769837751,"current_range_meters":7200,"station_id":"ce4bh012rcd13ifvqcv0","pricing_plan_id":"cebpf4jnsgd1na2vs0mg"},{"bike_id":"b32a36ac-6d8c-4f94-8007-49ab8ab4f812","system_id":"levelo_inurba_marseille","lat":43.298979,"lon":5.436734,"is_reserved":false,"is_disabled":false,"rental_uris":{"android":"levelo://app?vid=b32a36ac-6d8c-4f94-8007-49ab8ab4f812","ios":"levelo://app?vid=b32a36ac-6d8c-4f94-8007-49ab8ab4f812"},"vehicle_type_id":"4","last_reported":1769837751,"current_range_meters":7200,"station_id":"ce4bhpp2rcd13ifvqhfg","pricing_plan_id":"cebpf4jnsgd1na2vs0mg"},{"bike_id":"9fdb4779-eb4b-44d5-9cd8-7d0acb8b42fe","system_id":"levelo_inurba_marseille","lat":43.27985,"lon":5.38744,"is_reserved":false,"is_disabled":false,"rental_uris":{"android":"levelo://app?vid=9fdb4779-eb4b-44d5-9cd8-7d0acb8b42fe","ios":"levelo://app?vid=9fdb4779-eb4b-44d5-9cd8-7d0acb8b42fe"},"vehicle_type_id":"4","last_reported":1769837751,"current_range_meters":7200,"station_id":"ce4bhg12rcd13ifvqf80","pricing_plan_id":"cebpf4jnsgd1na2vs0mg"},{"bike_id":"2118e989-9bd5-4208-aef3-62860e5c21cf","system_id":"levelo_inurba_marseille","lat":43.29766,"lon":5.37633,"is_reserved":false,"is_disabled":false,"rental_uris":{"android":"levelo://app?vid=2118e989-9bd5-4208-aef3-62860e5c21cf","ios":"levelo://app?vid=2118e989-9bd5-4208-aef3-62860e5c21cf"},"vehicle_type_id":"4","last_reported":1769837751,"current_range_meters":7200,"station_id":"","pricing_plan_id":"cebpf4jnsgd1na2vs0mg"},{"bike_id":"d0f0a797-6459-4f9d-ad91-61257735c0b0","system_id":"levelo_inurba_marseille","lat":43.28413,"lon":5.37514,"is_reserved":false,"is_disabled":false,"rental_uris":{"android":"levelo://app?vid=d0f0a797-6459-4f9d-ad91-61257735c0b0","ios":"levelo://app?vid=d0f0a797-6459-4f9d-ad91-61257735c0b0"},"vehicle_type_id":"4","last_reported":1769837751,"current_range_meters":8000,"station_id":"ce4bh412rcd13ifvqds0","pricing_plan_id":"cebpf4jnsgd1na2vs0mg"},{"bike_id":"f99c0e56-a861-4817-a5cc-7aa9138a394f","system_id":"levelo_inurba_marseille","lat":43.27072,"lon":5.38307,"is_reserved":false,"is_disabled":false,"rental_uris":{"android":"levelo://app?vid=f99c0e56-a861-4817-a5cc-7aa9138a394f","ios":"levelo://app?vid=f99c0e56-a861-4817-a5cc-7aa9138a394f"},"vehicle_type_id":"4","last_reported":1769837751,"current_range_meters":8000,"station_id":"st_d3n2fo6cfp8s73cte1j0","pricing_plan_id":"cebpf4jnsgd1na2vs0mg"},{"bike_id":"b6bb507a-35ba-4aad-bf8d-d9ba28e136e6","system_id":"levelo_inurba_marseille","lat":43.28282,"lon":5.3507,"is_reserved":false,"is_disabled":false,"rental_uris":{"android":"levelo://app?vid=b6bb507a-35ba-4aad-bf8d-d9ba28e136e6","ios":"levelo://app?vid=b6bb507a-35ba-4aad-bf8d-d9ba28e136e6"},"vehicle_type_id":"4","last_reported":1769837751,"current_range_meters":8000,"station_id":"ce4bhbp2rcd13ifvqerg","pricing_plan_id":"cebpf4jnsgd1na2vs0mg"},{"bike_id":"e0529776-2176-417f-8dfc-c2549a882463","system_id":"levelo_inurba_marseille","lat":43.28107,"lon":5.37837,"is_reserved":false,"is_disabled":false,"rental_uris":{"android":"levelo://app?vid=e0529776-2176-417f-8dfc-c2549a882463","ios":"levelo://app?vid=e0529776-2176-417f-8dfc-c2549a882463"},"vehicle_type_id":"4","last_reported":1769837751,"current_range_meters":8000,"station_id":"ce4bha12rcd13ifvqee0","pricing_plan_id":"cebpf4jnsgd1na2vs0mg"},{"bike_id":"55e12a44-5227-40a5-8cea-0722c92ca3fa","system_id":"levelo_inurba_marseille","lat":43.28608,"lon":5.35104,"is_reserved":false,"is_disabled":false,"rental_uris":{"android":"levelo://app?vid=55e12a44-5227-40a5-8cea-0722c92ca3fa","ios":"levelo://app?vid=55e12a44-5227-40a5-8cea-0722c92ca3fa"},"vehicle_type_id":"4","last_reported":1769837751,"current_range_meters":8000,"station_id":"ce4bhch2rcd13ifvqeug","pricing_plan_id":"cebpf4jnsgd1na2vs0mg"},{"bike_id":"90717d58-a322-438b-926d-ee255aa382bf","system_id":"levelo_inurba_marseille","lat":43.23796,"lon":5.36653,"is_reserved":false,"is_disabled":false,"rental_uris":{"android":"levelo://app?vid=90717d58-a322-438b-926d-ee255aa382bf","ios":"levelo://app?vid=90717d58-a322-438b-926d-ee255aa382bf"},"vehicle_type_id":"4","last_reported":1769837751,"current_range_meters":8000,"station_id":"st_d3nk18o9ro0c73en2l3g","pricing_plan_id":"cebpf4jnsgd1na2vs0mg"},{"bike_id":"4ac1a6b7-1a00-4a1d-8a3d-33e247fff326","system_id":"levelo_inurba_marseille","lat":43.289731,"lon":5.390537,"is_reserved":false,"is_disabled":false,"rental_uris":{"android":"levelo://app?vid=4ac1a6b7-1a00-4a1d-8a3d-33e247fff326","ios":"levelo://app?vid=4ac1a6b7-1a00-4a1d-8a3d-33e247fff326"},"vehicle_type_id":"4","last_reported":1769837751,"current_range_meters":8000,"station_id":"","pricing_plan_id":"cebpf4jnsgd1na2vs0mg"},{"bike_id":"704dd462-0d28-4755-95c2-6ab4b81664bb","system_id":"levelo_inurba_marseille","lat":43.23133,"lon":5.43729,"is_reserved":false,"is_disabled":false,"rental_uris":{"android":"levelo://app?vid=704dd462-0d28-4755-95c2-6ab4b81664bb","ios":"levelo://app?vid=704dd462-0d28-4755-95c2-6ab4b81664bb"},"vehicle_type_id":"4","last_reported":1769837751,"current_range_meters":8000,"station_id":"ce4bhmp2rcd13ifvqgog","pricing_plan_id":"cebpf4jnsgd1na2vs0mg"},{"bike_id":"51487434-2c5b-44ec-b6f1-b2d802fd5baf","system_id":"levelo_inurba_marseille","lat":43.295842,"lon":5.367472,"is_reserved":false,"is_disabled":true,"rental_uris":{"android":"levelo://app?vid=51487434-2c5b-44ec-b6f1-b2d802fd5baf","ios":"levelo://app?vid=51487434-2c5b-44ec-b6f1-b2d802fd5baf"},"vehicle_type_id":"4","last_reported":1769837751,"current_range_meters":8000,"station_id":"ce4bgph2rcd13ifvqc2g","pricing_plan_id":"cebpf4jnsgd1na2vs0mg"},{"bike_id":"69bd550d-bae4-47b4-8ea1-fdf2613d9cd6","system_id":"levelo_inurba_marseille","lat":43.23969,"lon":5.36618,"is_reserved":false,"is_disabled":false,"rental_uris":{"android":"levelo://app?vid=69bd550d-bae4-47b4-8ea1-fdf2613d9cd6","ios":"levelo://app?vid=69bd550d-bae4-47b4-8ea1-fdf2613d9cd6"},"vehicle_type_id":"4","last_reported":1769837751,"current_range_meters":8000,"station_id":"ce4bhi12rcd13ifvqfp0","pricing_plan_id":"cebpf4jnsgd1na2vs0mg"},{"bike_id":"2946e9db-ff58-4a52-8078-31c354acf915","system_id":"levelo_inurba_marseille","lat":43.247,"lon":5.38212,"is_reserved":false,"is_disabled":false,"rental_uris":{"android":"levelo://app?vid=2946e9db-ff58-4a52-8078-31c354acf915","ios":"levelo://app?vid=2946e9db-ff58-4a52-8078-31c354acf915"},"vehicle_type_id":"4","last_reported":1769837751,"current_range_meters":8000,"station_id":"ce4bhih2rcd13ifvqfr0","pricing_plan_id":"cebpf4jnsgd1na2vs0mg"},{"bike_id":"22fe4412-48fb-42b7-a8c1-976a9c196d7e","system_id":"levelo_inurba_marseille","lat":43.26538,"lon":5.40331,"is_reserved":false,"is_disabled":false,"rental_uris":{"android":"levelo://app?vid=22fe4412-48fb-42b7-a8c1-976a9c196d7e","ios":"levelo://app?vid=22fe4412-48fb-42b7-a8c1-976a9c196d7e"},"vehicle_type_id":"4","last_reported":1769837751,"current_range_meters":8000,"station_id":"ce4bhmp2rcd13ifvqgng","pricing_plan_id":"cebpf4jnsgd1na2vs0mg"},{"bike_id":"da430813-1e4c-4d0a-b07d-976b86d0c6c6","system_id":"levelo_inurba_marseille","lat":43.25335,"lon":5.42179,"is_reserved":false,"is_disabled":false,"rental_uris":{"android":"levelo://app?vid=da430813-1e4c-4d0a-b07d-976b86d0c6c6","ios":"levelo://app?vid=da430813-1e4c-4d0a-b07d-976b86d0c6c6"},"vehicle_type_id":"4","last_reported":1769837751,"current_range_meters":8000,"station_id":"st_d2m65c5bi1j21697t3ng","pricing_plan_id":"cebpf4jnsgd1na2vs0mg"},{"bike_id":"f54d91cc-02fb-42c8-8e78-476b293d5e51","system_id":"levelo_inurba_marseille","lat":43.31275,"lon":5.40171,"is_reserved":false,"is_disabled":false,"rental_uris":{"android":"levelo://app?vid=f54d91cc-02fb-42c8-8e78-476b293d5e51","ios":"levelo://app?vid=f54d91cc-02fb-42c8-8e78-476b293d5e51"},"vehicle_type_id":"4","last_reported":1769837751,"current_range_meters":8000,"station_id":"ce4bh092rcd13ifvqd30","pricing_plan_id":"cebpf4jnsgd1na2vs0mg"},{"bike_id":"06ab6653-a10e-4b78-9608-979cb5bc0ba4","system_id":"levelo_inurba_marseille","lat":43.28682,"lon":5.3866,"is_reserved":false,"is_disabled":false,"rental_uris":{"android":"levelo://app?vid=06ab6653-a10e-4b78-9608-979cb5bc0ba4","ios":"levelo://app?vid=06ab6653-a10e-4b78-9608-979cb5bc0ba4"},"vehicle_type_id":"4","last_reported":1769837751,"current_range_meters":8000,"station_id":"ce4bh492rcd13ifvqdug","pricing_plan_id":"cebpf4jnsgd1na2vs0mg"},{"bike_id":"cc62b86c-c8ea-46fc-a809-28e8d6a9bed3","system_id":"levelo_inurba_marseille","lat":43.29953,"lon":5.36524,"is_reserved":false,"is_disabled":false,"rental_uris":{"android":"levelo://app?vid=cc62b86c-c8ea-46fc-a809-28e8d6a9bed3","ios":"levelo://app?vid=cc62b86c-c8ea-46fc-a809-28e8d6a9bed3"},"vehicle_type_id":"4","last_reported":1769837751,"current_range_meters":8000,"station_id":"ce4bgm92rcd13ifvqbr0","pricing_plan_id":"cebpf4jnsgd1na2vs0mg"},{"bike_id":"b96775b7-8954-4f94-990f-968813344c58","system_id":"levelo_inurba_marseille","lat":43.31251,"lon":5.37757,"is_reserved":false,"is_disabled":false,"rental_uris":{"android":"levelo://app?vid=b96775b7-8954-4f94-990f-968813344c58","ios":"levelo://app?vid=b96775b7-8954-4f94-990f-968813344c58"},"vehicle_type_id":"4","last_reported":1769837751,"current_range_meters":8000,"station_id":"","pricing_plan_id":"cebpf4jnsgd1na2vs0mg"},{"bike_id":"8a9c7b06-b55d-4ce1-a068-4598c629cff0","system_id":"levelo_inurba_marseille","lat":43.31339,"lon":5.39683,"is_reserved":false,"is_disabled":false,"rental_uris":{"android":"levelo://app?vid=8a9c7b06-b55d-4ce1-a068-4598c629cff0","ios":"levelo://app?vid=8a9c7b06-b55d-4ce1-a068-4598c629cff0"},"vehicle_type_id":"4","last_reported":1769837751,"current_range_meters":8000,"station_id":"ce4bgvp2rcd13ifvqcu0","pricing_plan_id":"cebpf4jnsgd1na2vs0mg"},{"bike_id":"4561b101-df9b-4a07-8c08-785ae7c91c29","system_id":"levelo_inurba_marseille","lat":43.30027,"lon":5.38379,"is_reserved":false,"is_disabled":false,"rental_uris":{"android":"levelo://app?vid=4561b101-df9b-4a07-8c08-785ae7c91c29","ios":"levelo://app?vid=4561b101-df9b-4a07-8c08-785ae7c91c29"},"vehicle_type_id":"4","last_reported":1769837751,"current_range_meters":8000,"station_id":"","pricing_plan_id":"cebpf4jnsgd1na2vs0mg"},{"bike_id":"542c4194-0cbb-46a2-81b1-a944e64c63f6","system_id":"levelo_inurba_marseille","lat":43.2718,"lon":5.40991,"is_reserved":false,"is_disabled":false,"rental_uris":{"android":"levelo://app?vid=542c4194-0cbb-46a2-81b1-a944e64c63f6","ios":"levelo://app?vid=542c4194-0cbb-46a2-81b1-a944e64c63f6"},"vehicle_type_id":"4","last_reported":1769837751,"current_range_meters":8000,"station_id":"ce4bhl12rcd13ifvqgf0","pricing_plan_id":"cebpf4jnsgd1na2vs0mg"},{"bike_id":"be92e349-0bab-40d5-943c-ba82a342fd05","system_id":"levelo_inurba_marseille","lat":43.3153,"lon":5.37284,"is_reserved":false,"is_disabled":true,"rental_uris":{"android":"levelo://app?vid=be92e349-0bab-40d5-943c-ba82a342fd05","ios":"levelo://app?vid=be92e349-0bab-40d5-943c-ba82a342fd05"},"vehicle_type_id":"4","last_reported":1769837751,"current_range_meters":8000,"station_id":"","pricing_plan_id":"cebpf4jnsgd1na2vs0mg"},{"bike_id":"24463bdf-362a-44c7-a065-1582958089af","system_id":"levelo_inurba_marseille","lat":43.30211,"lon":5.3946,"is_reserved":false,"is_disabled":false,"rental_uris":{"android":"levelo://app?vid=24463bdf-362a-44c7-a065-1582958089af","ios":"levelo://app?vid=24463bdf-362a-44c7-a065-1582958089af"},"vehicle_type_id":"4","last_reported":1769837751,"current_range_meters":8000,"station_id":"ce4bh0p2rcd13ifvqd70","pricing_plan_id":"cebpf4jnsgd1na2vs0mg"},{"bike_id":"55ede0b4-a6d5-41ec-83b3-959d121ebde5","system_id":"levelo_inurba_marseille","lat":43.31684,"lon":5.43706,"is_reserved":false,"is_disabled":false,"rental_uris":{"android":"levelo://app?vid=55ede0b4-a6d5-41ec-83b3-959d121ebde5","ios":"levelo://app?vid=55ede0b4-a6d5-41ec-83b3-959d121ebde5"},"vehicle_type_id":"4","last_reported":1769837751,"current_range_meters":8000,"station_id":"ce4bhp92rcd13ifvqhcg","pricing_plan_id":"cebpf4jnsgd1na2vs0mg"},{"bike_id":"1e6e9fcd-377f-4a83-a467-d5b81de873c8","system_id":"levelo_inurba_marseille","lat":43.28223,"lon":5.39046,"is_reserved":false,"is_disabled":false,"rental_uris":{"android":"levelo://app?vid=1e6e9fcd-377f-4a83-a467-d5b81de873c8","ios":"levelo://app?vid=1e6e9fcd-377f-4a83-a467-d5b81de873c8"},"vehicle_type_id":"4","last_reported":1769837751,"current_range_meters":8400,"station_id":"ce4bhn92rcd13ifvqgsg","pricing_plan_id":"cebpf4jnsgd1na2vs0mg"},{"bike_id":"a10fd5ac-f488-49bb-9865-a9b9fcb4d879","system_id":"levelo_inurba_marseille","lat":43.32386,"lon":5.37438,"is_reserved":false,"is_disabled":false,"rental_uris":{"android":"levelo://app?vid=a10fd5ac-f488-49bb-9865-a9b9fcb4d879","ios":"levelo://app?vid=a10fd5ac-f488-49bb-9865-a9b9fcb4d879"},"vehicle_type_id":"4","last_reported":1769837751,"current_range_meters":8400,"station_id":"","pricing_plan_id":"cebpf4jnsgd1na2vs0mg"},{"bike_id":"48ee4c30-bfab-466c-97f4-c400e6761a90","system_id":"levelo_inurba_marseille","lat":43.31174,"lon":5.38698,"is_reserved":false,"is_disabled":false,"rental_uris":{"android":"levelo://app?vid=48ee4c30-bfab-466c-97f4-c400e6761a90","ios":"levelo://app?vid=48ee4c30-bfab-466c-97f4-c400e6761a90"},"vehicle_type_id":"4","last_reported":1769837751,"current_range_meters":8400,"station_id":"ce4bgv12rcd13ifvqcp0","pricing_plan_id":"cebpf4jnsgd1na2vs0mg"},{"bike_id":"9ea50bad-0329-4ce7-bb1b-0c14d81fc6e4","system_id":"levelo_inurba_marseille","lat":43.24637,"lon":5.43138,"is_reserved":false,"is_disabled":false,"rental_uris":{"android":"levelo://app?vid=9ea50bad-0329-4ce7-bb1b-0c14d81fc6e4","ios":"levelo://app?vid=9ea50bad-0329-4ce7-bb1b-0c14d81fc6e4"},"vehicle_type_id":"4","last_reported":1769837751,"current_range_meters":8400,"station_id":"st_d2m6c4gdas8pm72e190g","pricing_plan_id":"cebpf4jnsgd1na2vs0mg"},{"bike_id":"f2ded384-45dd-4744-b407-263b9f9ddda5","system_id":"levelo_inurba_marseille","lat":43.255007,"lon":5.376488,"is_reserved":false,"is_disabled":false,"rental_uris":{"android":"levelo://app?vid=f2ded384-45dd-4744-b407-263b9f9ddda5","ios":"levelo://app?vid=f2ded384-45dd-4744-b407-263b9f9ddda5"},"vehicle_type_id":"4","last_reported":1769837751,"current_range_meters":8400,"station_id":"ce4bhh12rcd13ifvqff0","pricing_plan_id":"cebpf4jnsgd1na2vs0mg"},{"bike_id":"376de313-a176-455c-9327-1c0fa1c293d3","system_id":"levelo_inurba_marseille","lat":43.2962,"lon":5.38156,"is_reserved":false,"is_disabled":true,"rental_uris":{"android":"levelo://app?vid=376de313-a176-455c-9327-1c0fa1c293d3","ios":"levelo://app?vid=376de313-a176-455c-9327-1c0fa1c293d3"},"vehicle_type_id":"4","last_reported":1769837751,"current_range_meters":8400,"station_id":"ce4bgl12rcd13ifvqbo0","pricing_plan_id":"cebpf4jnsgd1na2vs0mg"},{"bike_id":"f955b312-f85f-4776-bb87-c1f9bceb8274","system_id":"levelo_inurba_marseille","lat":43.22555,"lon":5.41633,"is_reserved":false,"is_disabled":false,"rental_uris":{"android":"levelo://app?vid=f955b312-f85f-4776-bb87-c1f9bceb8274","ios":"levelo://app?vid=f955b312-f85f-4776-bb87-c1f9bceb8274"},"vehicle_type_id":"4","last_reported":1769837751,"current_range_meters":8400,"station_id":"st_d2o4gvlbi1j2169b742g","pricing_plan_id":"cebpf4jnsgd1na2vs0mg"},{"bike_id":"8d188f9d-fdcb-410f-afd4-c72876609968","system_id":"levelo_inurba_marseille","lat":43.2465,"lon":5.38893,"is_reserved":false,"is_disabled":false,"rental_uris":{"android":"levelo://app?vid=8d188f9d-fdcb-410f-afd4-c72876609968","ios":"levelo://app?vid=8d188f9d-fdcb-410f-afd4-c72876609968"},"vehicle_type_id":"4","last_reported":1769837751,"current_range_meters":8400,"station_id":"ce4bhg12rcd13ifvqf60","pricing_plan_id":"cebpf4jnsgd1na2vs0mg"},{"bike_id":"6259a571-4c97-41bc-9e30-1f15710670c6","system_id":"levelo_inurba_marseille","lat":43.24696,"lon":5.40095,"is_reserved":false,"is_disabled":false,"rental_uris":{"android":"levelo://app?vid=6259a571-4c97-41bc-9e30-1f15710670c6","ios":"levelo://app?vid=6259a571-4c97-41bc-9e30-1f15710670c6"},"vehicle_type_id":"4","last_reported":1769837751,"current_range_meters":8400,"station_id":"","pricing_plan_id":"cebpf4jnsgd1na2vs0mg"},{"bike_id":"52e1ca75-89ad-4ddf-af27-50f5287c714d","system_id":"levelo_inurba_marseille","lat":43.24649,"lon":5.3816,"is_reserved":false,"is_disabled":false,"rental_uris":{"android":"levelo://app?vid=52e1ca75-89ad-4ddf-af27-50f5287c714d","ios":"levelo://app?vid=52e1ca75-89ad-4ddf-af27-50f5287c714d"},"vehicle_type_id":"4","last_reported":1769837751,"current_range_meters":8400,"station_id":"ce4bhih2rcd13ifvqfr0","pricing_plan_id":"cebpf4jnsgd1na2vs0mg"},{"bike_id":"0406ff35-323c-44bd-abcc-d57ff896dde6","system_id":"levelo_inurba_marseille","lat":43.2894,"lon":5.36619,"is_reserved":false,"is_disabled":false,"rental_uris":{"android":"levelo://app?vid=0406ff35-323c-44bd-abcc-d57ff896dde6","ios":"levelo://app?vid=0406ff35-323c-44bd-abcc-d57ff896dde6"},"vehicle_type_id":"4","last_reported":1769837751,"current_range_meters":8400,"station_id":"ce4bhap2rcd13ifvqek0","pricing_plan_id":"cebpf4jnsgd1na2vs0mg"},{"bike_id":"f86b395c-f97a-4792-a517-fbf066695753","system_id":"levelo_inurba_marseille","lat":43.23205,"lon":5.35554,"is_reserved":false,"is_disabled":false,"rental_uris":{"android":"levelo://app?vid=f86b395c-f97a-4792-a517-fbf066695753","ios":"levelo://app?vid=f86b395c-f97a-4792-a517-fbf066695753"},"vehicle_type_id":"4","last_reported":1769837751,"current_range_meters":8400,"station_id":"ce4bhu92rcd13ifvqi70","pricing_plan_id":"cebpf4jnsgd1na2vs0mg"},{"bike_id":"7797dc2d-6e0b-483a-8264-6f6e91d913f9","system_id":"levelo_inurba_marseille","lat":43.28479,"lon":5.38441,"is_reserved":false,"is_disabled":false,"rental_uris":{"android":"levelo://app?vid=7797dc2d-6e0b-483a-8264-6f6e91d913f9","ios":"levelo://app?vid=7797dc2d-6e0b-483a-8264-6f6e91d913f9"},"vehicle_type_id":"4","last_reported":1769837751,"current_range_meters":8400,"station_id":"ce4bh512rcd13ifvqe3g","pricing_plan_id":"cebpf4jnsgd1na2vs0mg"},{"bike_id":"87c6f4a8-7fde-4358-8377-347cf12bf064","system_id":"levelo_inurba_marseille","lat":43.30178,"lon":5.38024,"is_reserved":false,"is_disabled":false,"rental_uris":{"android":"levelo://app?vid=87c6f4a8-7fde-4358-8377-347cf12bf064","ios":"levelo://app?vid=87c6f4a8-7fde-4358-8377-347cf12bf064"},"vehicle_type_id":"4","last_reported":1769837751,"current_range_meters":8400,"station_id":"","pricing_plan_id":"cebpf4jnsgd1na2vs0mg"},{"bike_id":"568cd96a-6ae9-42c6-9c16-92bc798e0556","system_id":"levelo_inurba_marseille","lat":43.28108,"lon":5.37831,"is_reserved":false,"is_disabled":false,"rental_uris":{"android":"levelo://app?vid=568cd96a-6ae9-42c6-9c16-92bc798e0556","ios":"levelo://app?vid=568cd96a-6ae9-42c6-9c16-92bc798e0556"},"vehicle_type_id":"4","last_reported":1769837751,"current_range_meters":8400,"station_id":"ce4bha12rcd13ifvqee0","pricing_plan_id":"cebpf4jnsgd1na2vs0mg"},{"bike_id":"43d114c1-ce92-4eb6-96a8-5287302b3206","system_id":"levelo_inurba_marseille","lat":43.30887,"lon":5.39637,"is_reserved":false,"is_disabled":false,"rental_uris":{"android":"levelo://app?vid=43d114c1-ce92-4eb6-96a8-5287302b3206","ios":"levelo://app?vid=43d114c1-ce92-4eb6-96a8-5287302b3206"},"vehicle_type_id":"4","last_reported":1769837751,"current_range_meters":8400,"station_id":"ce4bh012rcd13ifvqcv0","pricing_plan_id":"cebpf4jnsgd1na2vs0mg"},{"bike_id":"a2a4030c-e148-4e96-bc59-1f28a1bed72b","system_id":"levelo_inurba_marseille","lat":43.32346,"lon":5.36744,"is_reserved":false,"is_disabled":false,"rental_uris":{"android":"levelo://app?vid=a2a4030c-e148-4e96-bc59-1f28a1bed72b","ios":"levelo://app?vid=a2a4030c-e148-4e96-bc59-1f28a1bed72b"},"vehicle_type_id":"4","last_reported":1769837751,"current_range_meters":8400,"station_id":"ce4bhsh2rcd13ifvqi2g","pricing_plan_id":"cebpf4jnsgd1na2vs0mg"},{"bike_id":"4488b7bd-2de4-4a30-8400-e60c2d945a3c","system_id":"levelo_inurba_marseille","lat":43.29822,"lon":5.44096,"is_reserved":false,"is_disabled":false,"rental_uris":{"android":"levelo://app?vid=4488b7bd-2de4-4a30-8400-e60c2d945a3c","ios":"levelo://app?vid=4488b7bd-2de4-4a30-8400-e60c2d945a3c"},"vehicle_type_id":"4","last_reported":1769837751,"current_range_meters":8400,"station_id":"","pricing_plan_id":"cebpf4jnsgd1na2vs0mg"},{"bike_id":"47160302-5feb-47ec-ab2c-68bb484bc9bb","system_id":"levelo_inurba_marseille","lat":43.30089,"lon":5.39081,"is_reserved":false,"is_disabled":false,"rental_uris":{"android":"levelo://app?vid=47160302-5feb-47ec-ab2c-68bb484bc9bb","ios":"levelo://app?vid=47160302-5feb-47ec-ab2c-68bb484bc9bb"},"vehicle_type_id":"4","last_reported":1769837751,"current_range_meters":8400,"station_id":"ce4bh192rcd13ifvqdb0","pricing_plan_id":"cebpf4jnsgd1na2vs0mg"},{"bike_id":"667f7189-0ff0-4468-a821-96f30d95245d","system_id":"levelo_inurba_marseille","lat":43.29903,"lon":5.43673,"is_reserved":false,"is_disabled":false,"rental_uris":{"android":"levelo://app?vid=667f7189-0ff0-4468-a821-96f30d95245d","ios":"levelo://app?vid=667f7189-0ff0-4468-a821-96f30d95245d"},"vehicle_type_id":"4","last_reported":1769837751,"current_range_meters":8800,"station_id":"ce4bhpp2rcd13ifvqhfg","pricing_plan_id":"cebpf4jnsgd1na2vs0mg"},{"bike_id":"9c6c1942-6de8-42b0-9c07-c98d9ef8b80f","system_id":"levelo_inurba_marseille","lat":43.30851,"lon":5.37792,"is_reserved":false,"is_disabled":false,"rental_uris":{"android":"levelo://app?vid=9c6c1942-6de8-42b0-9c07-c98d9ef8b80f","ios":"levelo://app?vid=9c6c1942-6de8-42b0-9c07-c98d9ef8b80f"},"vehicle_type_id":"4","last_reported":1769837751,"current_range_meters":8800,"station_id":"","pricing_plan_id":"cebpf4jnsgd1na2vs0mg"},{"bike_id":"df9f5575-2587-46c4-b066-e09d37de9822","system_id":"levelo_inurba_marseille","lat":43.260321,"lon":5.375492,"is_reserved":false,"is_disabled":false,"rental_uris":{"android":"levelo://app?vid=df9f5575-2587-46c4-b066-e09d37de9822","ios":"levelo://app?vid=df9f5575-2587-46c4-b066-e09d37de9822"},"vehicle_type_id":"4","last_reported":1769837751,"current_range_meters":8800,"station_id":"","pricing_plan_id":"cebpf4jnsgd1na2vs0mg"},{"bike_id":"9378c7cb-4c3a-475f-ba28-80a4781f7ffa","system_id":"levelo_inurba_marseille","lat":43.29752,"lon":5.42792,"is_reserved":false,"is_disabled":false,"rental_uris":{"android":"levelo://app?vid=9378c7cb-4c3a-475f-ba28-80a4781f7ffa","ios":"levelo://app?vid=9378c7cb-4c3a-475f-ba28-80a4781f7ffa"},"vehicle_type_id":"4","last_reported":1769837751,"current_range_meters":8800,"station_id":"st_d3md5207bmas73dh9klg","pricing_plan_id":"cebpf4jnsgd1na2vs0mg"},{"bike_id":"880586ef-6fbd-48f3-a326-6ebac57e39cd","system_id":"levelo_inurba_marseille","lat":43.25541,"lon":5.37644,"is_reserved":false,"is_disabled":false,"rental_uris":{"android":"levelo://app?vid=880586ef-6fbd-48f3-a326-6ebac57e39cd","ios":"levelo://app?vid=880586ef-6fbd-48f3-a326-6ebac57e39cd"},"vehicle_type_id":"4","last_reported":1769837751,"current_range_meters":8800,"station_id":"","pricing_plan_id":"cebpf4jnsgd1na2vs0mg"},{"bike_id":"6428cb59-a780-4c4c-9be8-bd1aa2dc54c3","system_id":"levelo_inurba_marseille","lat":43.2495,"lon":5.4051,"is_reserved":false,"is_disabled":false,"rental_uris":{"android":"levelo://app?vid=6428cb59-a780-4c4c-9be8-bd1aa2dc54c3","ios":"levelo://app?vid=6428cb59-a780-4c4c-9be8-bd1aa2dc54c3"},"vehicle_type_id":"4","last_reported":1769837751,"current_range_meters":8800,"station_id":"st_d2ngiaodas8pm72gd1h0","pricing_plan_id":"cebpf4jnsgd1na2vs0mg"},{"bike_id":"61a1d71a-24c0-40e4-a49a-4194d94c35a6","system_id":"levelo_inurba_marseille","lat":43.24953,"lon":5.40505,"is_reserved":false,"is_disabled":false,"rental_uris":{"android":"levelo://app?vid=61a1d71a-24c0-40e4-a49a-4194d94c35a6","ios":"levelo://app?vid=61a1d71a-24c0-40e4-a49a-4194d94c35a6"},"vehicle_type_id":"4","last_reported":1769837751,"current_range_meters":8800,"station_id":"st_d2ngiaodas8pm72gd1h0","pricing_plan_id":"cebpf4jnsgd1na2vs0mg"},{"bike_id":"5e2bbd4f-e28d-4d2e-b0e8-7260ab05f1a3","system_id":"levelo_inurba_marseille","lat":43.30931,"lon":5.40142,"is_reserved":false,"is_disabled":false,"rental_uris":{"android":"levelo://app?vid=5e2bbd4f-e28d-4d2e-b0e8-7260ab05f1a3","ios":"levelo://app?vid=5e2bbd4f-e28d-4d2e-b0e8-7260ab05f1a3"},"vehicle_type_id":"4","last_reported":1769837751,"current_range_meters":8800,"station_id":"ce4bgvp2rcd13ifvqct0","pricing_plan_id":"cebpf4jnsgd1na2vs0mg"},{"bike_id":"3a657553-3568-4660-ad18-99bdde0965ca","system_id":"levelo_inurba_marseille","lat":43.290272,"lon":5.399695,"is_reserved":false,"is_disabled":false,"rental_uris":{"android":"levelo://app?vid=3a657553-3568-4660-ad18-99bdde0965ca","ios":"levelo://app?vid=3a657553-3568-4660-ad18-99bdde0965ca"},"vehicle_type_id":"4","last_reported":1769837751,"current_range_meters":8800,"station_id":"ce4bh392rcd13ifvqdm0","pricing_plan_id":"cebpf4jnsgd1na2vs0mg"},{"bike_id":"95ac808f-34d3-47f6-aaa1-0c3f02fd5e1f","system_id":"levelo_inurba_marseille","lat":43.22567,"lon":5.41623,"is_reserved":false,"is_disabled":false,"rental_uris":{"android":"levelo://app?vid=95ac808f-34d3-47f6-aaa1-0c3f02fd5e1f","ios":"levelo://app?vid=95ac808f-34d3-47f6-aaa1-0c3f02fd5e1f"},"vehicle_type_id":"4","last_reported":1769837751,"current_range_meters":8800,"station_id":"st_d2o4gvlbi1j2169b742g","pricing_plan_id":"cebpf4jnsgd1na2vs0mg"},{"bike_id":"de5fb1e7-04db-474b-935a-b74094bff7d2","system_id":"levelo_inurba_marseille","lat":43.311683,"lon":5.387179,"is_reserved":false,"is_disabled":false,"rental_uris":{"android":"levelo://app?vid=de5fb1e7-04db-474b-935a-b74094bff7d2","ios":"levelo://app?vid=de5fb1e7-04db-474b-935a-b74094bff7d2"},"vehicle_type_id":"4","last_reported":1769837751,"current_range_meters":8800,"station_id":"ce4bgv12rcd13ifvqcp0","pricing_plan_id":"cebpf4jnsgd1na2vs0mg"},{"bike_id":"0e04e9c5-b4f0-4cdb-beb2-46317c8e77e0","system_id":"levelo_inurba_marseille","lat":43.21741,"lon":5.34597,"is_reserved":false,"is_disabled":false,"rental_uris":{"android":"levelo://app?vid=0e04e9c5-b4f0-4cdb-beb2-46317c8e77e0","ios":"levelo://app?vid=0e04e9c5-b4f0-4cdb-beb2-46317c8e77e0"},"vehicle_type_id":"4","last_reported":1769837751,"current_range_meters":8800,"station_id":"st_cvj6r9ubvosntc0bgbag","pricing_plan_id":"cebpf4jnsgd1na2vs0mg"},{"bike_id":"4ae3ec6e-27ea-4d70-9187-5a2d109c366b","system_id":"levelo_inurba_marseille","lat":43.30616,"lon":5.37212,"is_reserved":false,"is_disabled":false,"rental_uris":{"android":"levelo://app?vid=4ae3ec6e-27ea-4d70-9187-5a2d109c366b","ios":"levelo://app?vid=4ae3ec6e-27ea-4d70-9187-5a2d109c366b"},"vehicle_type_id":"4","last_reported":1769837751,"current_range_meters":8800,"station_id":"ce4bgqh2rcd13ifvqc4g","pricing_plan_id":"cebpf4jnsgd1na2vs0mg"},{"bike_id":"d4d18011-2bf0-4a2b-a896-7a5c21af3b9d","system_id":"levelo_inurba_marseille","lat":43.28462,"lon":5.48402,"is_reserved":false,"is_disabled":false,"rental_uris":{"android":"levelo://app?vid=d4d18011-2bf0-4a2b-a896-7a5c21af3b9d","ios":"levelo://app?vid=d4d18011-2bf0-4a2b-a896-7a5c21af3b9d"},"vehicle_type_id":"4","last_reported":1769837751,"current_range_meters":8800,"station_id":"st_d3svhcjqgbts73a3dn0g","pricing_plan_id":"cebpf4jnsgd1na2vs0mg"},{"bike_id":"a4c4467a-de4f-4b56-8893-ebacb492a7a6","system_id":"levelo_inurba_marseille","lat":43.25303,"lon":5.42199,"is_reserved":false,"is_disabled":false,"rental_uris":{"android":"levelo://app?vid=a4c4467a-de4f-4b56-8893-ebacb492a7a6","ios":"levelo://app?vid=a4c4467a-de4f-4b56-8893-ebacb492a7a6"},"vehicle_type_id":"4","last_reported":1769837751,"current_range_meters":8800,"station_id":"st_d2m65c5bi1j21697t3ng","pricing_plan_id":"cebpf4jnsgd1na2vs0mg"},{"bike_id":"e94c87c4-e87e-4abc-9409-ec5d1bc2d31a","system_id":"levelo_inurba_marseille","lat":43.27989,"lon":5.41646,"is_reserved":false,"is_disabled":false,"rental_uris":{"android":"levelo://app?vid=e94c87c4-e87e-4abc-9409-ec5d1bc2d31a","ios":"levelo://app?vid=e94c87c4-e87e-4abc-9409-ec5d1bc2d31a"},"vehicle_type_id":"4","last_reported":1769837751,"current_range_meters":8800,"station_id":"ce4bho12rcd13ifvqh1g","pricing_plan_id":"cebpf4jnsgd1na2vs0mg"},{"bike_id":"5be20501-8e04-4673-9119-891aadf1acc1","system_id":"levelo_inurba_marseille","lat":43.28482,"lon":5.48394,"is_reserved":false,"is_disabled":false,"rental_uris":{"android":"levelo://app?vid=5be20501-8e04-4673-9119-891aadf1acc1","ios":"levelo://app?vid=5be20501-8e04-4673-9119-891aadf1acc1"},"vehicle_type_id":"4","last_reported":1769837751,"current_range_meters":8800,"station_id":"st_d3svhcjqgbts73a3dn0g","pricing_plan_id":"cebpf4jnsgd1na2vs0mg"},{"bike_id":"44bce6fc-6e2f-4ea3-9dfe-d3bb70c5a253","system_id":"levelo_inurba_marseille","lat":43.29953,"lon":5.37134,"is_reserved":false,"is_disabled":false,"rental_uris":{"android":"levelo://app?vid=44bce6fc-6e2f-4ea3-9dfe-d3bb70c5a253","ios":"levelo://app?vid=44bce6fc-6e2f-4ea3-9dfe-d3bb70c5a253"},"vehicle_type_id":"4","last_reported":1769837751,"current_range_meters":8800,"station_id":"ce4bgr92rcd13ifvqc7g","pricing_plan_id":"cebpf4jnsgd1na2vs0mg"},{"bike_id":"fe3326bf-ecaf-4388-9021-852cd6ef837b","system_id":"levelo_inurba_marseille","lat":43.25492,"lon":5.37649,"is_reserved":false,"is_disabled":false,"rental_uris":{"android":"levelo://app?vid=fe3326bf-ecaf-4388-9021-852cd6ef837b","ios":"levelo://app?vid=fe3326bf-ecaf-4388-9021-852cd6ef837b"},"vehicle_type_id":"4","last_reported":1769837751,"current_range_meters":8800,"station_id":"ce4bhh12rcd13ifvqff0","pricing_plan_id":"cebpf4jnsgd1na2vs0mg"},{"bike_id":"eae001be-3b34-469f-b5f5-7615da95a4ed","system_id":"levelo_inurba_marseille","lat":43.27807,"lon":5.40694,"is_reserved":false,"is_disabled":false,"rental_uris":{"android":"levelo://app?vid=eae001be-3b34-469f-b5f5-7615da95a4ed","ios":"levelo://app?vid=eae001be-3b34-469f-b5f5-7615da95a4ed"},"vehicle_type_id":"4","last_reported":1769837751,"current_range_meters":9200,"station_id":"ce4bhnh2rcd13ifvqgtg","pricing_plan_id":"cebpf4jnsgd1na2vs0mg"},{"bike_id":"318133aa-3b05-4452-b847-cf5a32021652","system_id":"levelo_inurba_marseille","lat":43.25084,"lon":5.39515,"is_reserved":false,"is_disabled":false,"rental_uris":{"android":"levelo://app?vid=318133aa-3b05-4452-b847-cf5a32021652","ios":"levelo://app?vid=318133aa-3b05-4452-b847-cf5a32021652"},"vehicle_type_id":"4","last_reported":1769837751,"current_range_meters":9200,"station_id":"ce4bhm12rcd13ifvqgkg","pricing_plan_id":"cebpf4jnsgd1na2vs0mg"},{"bike_id":"fae16ec7-2377-4aeb-9515-f6aed7ccf4e0","system_id":"levelo_inurba_marseille","lat":43.30622,"lon":5.3722,"is_reserved":false,"is_disabled":false,"rental_uris":{"android":"levelo://app?vid=fae16ec7-2377-4aeb-9515-f6aed7ccf4e0","ios":"levelo://app?vid=fae16ec7-2377-4aeb-9515-f6aed7ccf4e0"},"vehicle_type_id":"4","last_reported":1769837751,"current_range_meters":9200,"station_id":"ce4bgqh2rcd13ifvqc4g","pricing_plan_id":"cebpf4jnsgd1na2vs0mg"},{"bike_id":"7e4d0348-c090-4100-bdfd-53d3c76acb31","system_id":"levelo_inurba_marseille","lat":43.24806,"lon":5.37438,"is_reserved":false,"is_disabled":false,"rental_uris":{"android":"levelo://app?vid=7e4d0348-c090-4100-bdfd-53d3c76acb31","ios":"levelo://app?vid=7e4d0348-c090-4100-bdfd-53d3c76acb31"},"vehicle_type_id":"4","last_reported":1769837751,"current_range_meters":9200,"station_id":"ce4bhgh2rcd13ifvqfb0","pricing_plan_id":"cebpf4jnsgd1na2vs0mg"},{"bike_id":"12627c5d-8846-4400-b3bd-f9b0d5b46283","system_id":"levelo_inurba_marseille","lat":43.28346,"lon":5.38641,"is_reserved":false,"is_disabled":false,"rental_uris":{"android":"levelo://app?vid=12627c5d-8846-4400-b3bd-f9b0d5b46283","ios":"levelo://app?vid=12627c5d-8846-4400-b3bd-f9b0d5b46283"},"vehicle_type_id":"4","last_reported":1769837751,"current_range_meters":9200,"station_id":"ce4bh492rcd13ifvqdvg","pricing_plan_id":"cebpf4jnsgd1na2vs0mg"},{"bike_id":"ea996b6a-e4df-4475-a81a-600ad94271b6","system_id":"levelo_inurba_marseille","lat":43.30285,"lon":5.39781,"is_reserved":false,"is_disabled":false,"rental_uris":{"android":"levelo://app?vid=ea996b6a-e4df-4475-a81a-600ad94271b6","ios":"levelo://app?vid=ea996b6a-e4df-4475-a81a-600ad94271b6"},"vehicle_type_id":"4","last_reported":1769837751,"current_range_meters":9200,"station_id":"","pricing_plan_id":"cebpf4jnsgd1na2vs0mg"},{"bike_id":"3a9d9d6b-764f-4558-a4a3-5611921af6a1","system_id":"levelo_inurba_marseille","lat":43.27951,"lon":5.41043,"is_reserved":false,"is_disabled":false,"rental_uris":{"android":"levelo://app?vid=3a9d9d6b-764f-4558-a4a3-5611921af6a1","ios":"levelo://app?vid=3a9d9d6b-764f-4558-a4a3-5611921af6a1"},"vehicle_type_id":"4","last_reported":1769837751,"current_range_meters":9200,"station_id":"ce4bhnp2rcd13ifvqh0g","pricing_plan_id":"cebpf4jnsgd1na2vs0mg"},{"bike_id":"e1434395-c795-4930-abe7-1e8ea7b7d93a","system_id":"levelo_inurba_marseille","lat":43.30011,"lon":5.3718,"is_reserved":false,"is_disabled":false,"rental_uris":{"android":"levelo://app?vid=e1434395-c795-4930-abe7-1e8ea7b7d93a","ios":"levelo://app?vid=e1434395-c795-4930-abe7-1e8ea7b7d93a"},"vehicle_type_id":"4","last_reported":1769837751,"current_range_meters":9200,"station_id":"ce4bgr92rcd13ifvqc7g","pricing_plan_id":"cebpf4jnsgd1na2vs0mg"},{"bike_id":"d5e67bfe-03c5-4643-9903-6eac267b87da","system_id":"levelo_inurba_marseille","lat":43.24011,"lon":5.3782,"is_reserved":false,"is_disabled":false,"rental_uris":{"android":"levelo://app?vid=d5e67bfe-03c5-4643-9903-6eac267b87da","ios":"levelo://app?vid=d5e67bfe-03c5-4643-9903-6eac267b87da"},"vehicle_type_id":"4","last_reported":1769837751,"current_range_meters":9200,"station_id":"","pricing_plan_id":"cebpf4jnsgd1na2vs0mg"},{"bike_id":"d3215a18-ac25-47b2-bc57-dcaef897eb36","system_id":"levelo_inurba_marseille","lat":43.31366,"lon":5.38483,"is_reserved":false,"is_disabled":false,"rental_uris":{"android":"levelo://app?vid=d3215a18-ac25-47b2-bc57-dcaef897eb36","ios":"levelo://app?vid=d3215a18-ac25-47b2-bc57-dcaef897eb36"},"vehicle_type_id":"4","last_reported":1769837751,"current_range_meters":9600,"station_id":"ce4bgt92rcd13ifvqcf0","pricing_plan_id":"cebpf4jnsgd1na2vs0mg"},{"bike_id":"b8d143d9-4230-458d-a55e-6fe3c169d59d","system_id":"levelo_inurba_marseille","lat":43.28408,"lon":5.349941,"is_reserved":false,"is_disabled":false,"rental_uris":{"android":"levelo://app?vid=b8d143d9-4230-458d-a55e-6fe3c169d59d","ios":"levelo://app?vid=b8d143d9-4230-458d-a55e-6fe3c169d59d"},"vehicle_type_id":"4","last_reported":1769837751,"current_range_meters":9600,"station_id":"ce4bhbh2rcd13ifvqepg","pricing_plan_id":"cebpf4jnsgd1na2vs0mg"},{"bike_id":"4fe62c04-44c5-4545-87eb-d5b946a9cb88","system_id":"levelo_inurba_marseille","lat":43.28607,"lon":5.38962,"is_reserved":false,"is_disabled":false,"rental_uris":{"android":"levelo://app?vid=4fe62c04-44c5-4545-87eb-d5b946a9cb88","ios":"levelo://app?vid=4fe62c04-44c5-4545-87eb-d5b946a9cb88"},"vehicle_type_id":"4","last_reported":1769837751,"current_range_meters":9600,"station_id":"","pricing_plan_id":"cebpf4jnsgd1na2vs0mg"},{"bike_id":"f7d5d5d1-385b-4443-9e9f-52a3c9968718","system_id":"levelo_inurba_marseille","lat":43.248119,"lon":5.37453,"is_reserved":false,"is_disabled":false,"rental_uris":{"android":"levelo://app?vid=f7d5d5d1-385b-4443-9e9f-52a3c9968718","ios":"levelo://app?vid=f7d5d5d1-385b-4443-9e9f-52a3c9968718"},"vehicle_type_id":"4","last_reported":1769837751,"current_range_meters":9600,"station_id":"ce4bhgh2rcd13ifvqfb0","pricing_plan_id":"cebpf4jnsgd1na2vs0mg"},