{"last_updated":1781509755,"ttl":60,"version":"2.2","data":{"bikes":[{"bike_id":"ec12d144-24c8-4071-abf6-197e520eae96","system_id":"levelo_inurba_marseille","lat":43.337444,"lon":5.374475,"is_reserved":false,"is_disabled":false,"rental_uris":{"android":"levelo://app?vid=ec12d144-24c8-4071-abf6-197e520eae96","ios":"levelo://app?vid=ec12d144-24c8-4071-abf6-197e520eae96"},"vehicle_type_id":"4","last_reported":1781509756,"current_range_meters":0,"station_id":"","pricing_plan_id":"cebpf4jnsgd1na2vs0mg"},{"bike_id":"e53e5e7e-79b9-4f39-a0c9-9162fc1b1da1","system_id":"levelo_inurba_marseille","lat":43.2992,"lon":5.38162,"is_reserved":false,"is_disabled":false,"rental_uris":{"android":"levelo://app?vid=e53e5e7e-79b9-4f39-a0c9-9162fc1b1da1","ios":"levelo://app?vid=e53e5e7e-79b9-4f39-a0c9-9162fc1b1da1"},"vehicle_type_id":"4","last_reported":1781509756,"current_range_meters":2800,"station_id":"ce4bgj12rcd13ifvqbc0","pricing_plan_id":"cebpf4jnsgd1na2vs0mg"},{"bike_id":"624926bd-f25c-47ae-9fb5-c42d12194f80","system_id":"levelo_inurba_marseille","lat":43.2962,"lon":5.3717,"is_reserved":false,"is_disabled":false,"rental_uris":{"android":"levelo://app?vid=624926bd-f25c-47ae-9fb5-c42d12194f80","ios":"levelo://app?vid=624926bd-f25c-47ae-9fb5-c42d12194f80"},"vehicle_type_id":"4","last_reported":1781509756,"current_range_meters":2800,"station_id":"ce4bgnh2rcd13ifvqc0g","pricing_plan_id":"cebpf4jnsgd1na2vs0mg"},{"bike_id":"207d34b6-3a83-4d90-938a-80aab0b6e29f","system_id":"levelo_inurba_marseille","lat":43.250042,"lon":5.389242,"is_reserved":false,"is_disabled":false,"rental_uris":{"android":"levelo://app?vid=207d34b6-3a83-4d90-938a-80aab0b6e29f","ios":"levelo://app?vid=207d34b6-3a83-4d90-938a-80aab0b6e29f"},"vehicle_type_id":"4","last_reported":1781509756,"current_range_meters":2800,"station_id":"ce4bhgp2rcd13ifvqfd0","pricing_plan_id":"cebpf4jnsgd1na2vs0mg"},{"bike_id":"a47f7ec5-339e-411f-a9f3-d5a489312e95","system_id":"levelo_inurba_marseille","lat":43.28044,"lon":5.35085,"is_reserved":false,"is_disabled":false,"rental_uris":{"android":"levelo://app?vid=a47f7ec5-339e-411f-a9f3-d5a489312e95","ios":"levelo://app?vid=a47f7ec5-339e-411f-a9f3-d5a489312e95"},"vehicle_type_id":"4","last_reported":1781509756,"current_range_meters":2800,"station_id":"","pricing_plan_id":"cebpf4jnsgd1na2vs0mg"},{"bike_id":"e7664346-6297-4a11-96aa-6ef2cf892645","system_id":"levelo_inurba_marseille","lat":43.30159,"lon":5.38071,"is_reserved":false,"is_disabled":false,"rental_uris":{"android":"levelo://app?vid=e7664346-6297-4a11-96aa-6ef2cf892645","ios":"levelo://app?vid=e7664346-6297-4a11-96aa-6ef2cf892645"},"vehicle_type_id":"4","last_reported":1781509756,"current_range_meters":2800,"station_id":"ce4bgjp2rcd13ifvqbh0","pricing_plan_id":"cebpf4jnsgd1na2vs0mg"},{"bike_id":"907029a1-4653-4ed0-9adb-fb8fe93c713e","system_id":"levelo_inurba_marseille","lat":43.32063,"lon":5.41546,"is_reserved":false,"is_disabled":false,"rental_uris":{"android":"levelo://app?vid=907029a1-4653-4ed0-9adb-fb8fe93c713e","ios":"levelo://app?vid=907029a1-4653-4ed0-9adb-fb8fe93c713e"},"vehicle_type_id":"4","last_reported":1781509756,"current_range_meters":2800,"station_id":"ce4bhq92rcd13ifvqhkg","pricing_plan_id":"cebpf4jnsgd1na2vs0mg"},{"bike_id":"1aa69796-4597-4e19-90ef-464fe6857eba","system_id":"levelo_inurba_marseille","lat":43.29471,"lon":5.44523,"is_reserved":false,"is_disabled":false,"rental_uris":{"android":"levelo://app?vid=1aa69796-4597-4e19-90ef-464fe6857eba","ios":"levelo://app?vid=1aa69796-4597-4e19-90ef-464fe6857eba"},"vehicle_type_id":"4","last_reported":1781509756,"current_range_meters":2800,"station_id":"","pricing_plan_id":"cebpf4jnsgd1na2vs0mg"},{"bike_id":"4b609346-acc2-44ea-9585-63329a0c2f32","system_id":"levelo_inurba_marseille","lat":43.28702,"lon":5.46688,"is_reserved":false,"is_disabled":false,"rental_uris":{"android":"levelo://app?vid=4b609346-acc2-44ea-9585-63329a0c2f32","ios":"levelo://app?vid=4b609346-acc2-44ea-9585-63329a0c2f32"},"vehicle_type_id":"4","last_reported":1781509756,"current_range_meters":2800,"station_id":"st_d6tc3vkotcvc738tfjhg","pricing_plan_id":"cebpf4jnsgd1na2vs0mg"},{"bike_id":"61704817-1327-4008-824f-2bfba68820ec","system_id":"levelo_inurba_marseille","lat":43.23886,"lon":5.37449,"is_reserved":false,"is_disabled":false,"rental_uris":{"android":"levelo://app?vid=61704817-1327-4008-824f-2bfba68820ec","ios":"levelo://app?vid=61704817-1327-4008-824f-2bfba68820ec"},"vehicle_type_id":"4","last_reported":1781509756,"current_range_meters":2800,"station_id":"st_d6sm7csbq4hs73f8fpjg","pricing_plan_id":"cebpf4jnsgd1na2vs0mg"},{"bike_id":"ebcfa295-9895-465a-bdba-a68a3ec6c71e","system_id":"levelo_inurba_marseille","lat":43.29685,"lon":5.36854,"is_reserved":false,"is_disabled":false,"rental_uris":{"android":"levelo://app?vid=ebcfa295-9895-465a-bdba-a68a3ec6c71e","ios":"levelo://app?vid=ebcfa295-9895-465a-bdba-a68a3ec6c71e"},"vehicle_type_id":"4","last_reported":1781509756,"current_range_meters":2800,"station_id":"","pricing_plan_id":"cebpf4jnsgd1na2vs0mg"},{"bike_id":"04558fb5-2f47-4b09-9adb-17e9afba81fe","system_id":"levelo_inurba_marseille","lat":43.290108,"lon":5.356036,"is_reserved":false,"is_disabled":false,"rental_uris":{"android":"levelo://app?vid=04558fb5-2f47-4b09-9adb-17e9afba81fe","ios":"levelo://app?vid=04558fb5-2f47-4b09-9adb-17e9afba81fe"},"vehicle_type_id":"4","last_reported":1781509756,"current_range_meters":2800,"station_id":"ce4bhb92rcd13ifvqen0","pricing_plan_id":"cebpf4jnsgd1na2vs0mg"},{"bike_id":"7e136efa-655e-4ac3-913e-8c17685a55f8","system_id":"levelo_inurba_marseille","lat":43.28964,"lon":5.37828,"is_reserved":false,"is_disabled":false,"rental_uris":{"android":"levelo://app?vid=7e136efa-655e-4ac3-913e-8c17685a55f8","ios":"levelo://app?vid=7e136efa-655e-4ac3-913e-8c17685a55f8"},"vehicle_type_id":"4","last_reported":1781509756,"current_range_meters":2800,"station_id":"ce4bh9p2rcd13ifvqed0","pricing_plan_id":"cebpf4jnsgd1na2vs0mg"},{"bike_id":"644c35c5-da8b-45e4-8189-1a84ff37770e","system_id":"levelo_inurba_marseille","lat":43.26955,"lon":5.38651,"is_reserved":false,"is_disabled":true,"rental_uris":{"android":"levelo://app?vid=644c35c5-da8b-45e4-8189-1a84ff37770e","ios":"levelo://app?vid=644c35c5-da8b-45e4-8189-1a84ff37770e"},"vehicle_type_id":"4","last_reported":1781509756,"current_range_meters":2800,"station_id":"ce4bhh92rcd13ifvqfh0","pricing_plan_id":"cebpf4jnsgd1na2vs0mg"},{"bike_id":"8a28fb25-40c5-4537-b32f-d4a137b37100","system_id":"levelo_inurba_marseille","lat":43.33555,"lon":5.3745,"is_reserved":false,"is_disabled":false,"rental_uris":{"android":"levelo://app?vid=8a28fb25-40c5-4537-b32f-d4a137b37100","ios":"levelo://app?vid=8a28fb25-40c5-4537-b32f-d4a137b37100"},"vehicle_type_id":"4","last_reported":1781509756,"current_range_meters":2800,"station_id":"st_d46tts09ee8s73dlu43g","pricing_plan_id":"cebpf4jnsgd1na2vs0mg"},{"bike_id":"7c0118be-d625-474c-bdd7-469488c7b581","system_id":"levelo_inurba_marseille","lat":43.26486,"lon":5.39544,"is_reserved":false,"is_disabled":false,"rental_uris":{"android":"levelo://app?vid=7c0118be-d625-474c-bdd7-469488c7b581","ios":"levelo://app?vid=7c0118be-d625-474c-bdd7-469488c7b581"},"vehicle_type_id":"4","last_reported":1781509756,"current_range_meters":2800,"station_id":"ce4bhi12rcd13ifvqfq0","pricing_plan_id":"cebpf4jnsgd1na2vs0mg"},{"bike_id":"aa9ba65e-6c41-472c-9b2d-49507544dbb3","system_id":"levelo_inurba_marseille","lat":43.30949,"lon":5.39037,"is_reserved":false,"is_disabled":false,"rental_uris":{"android":"levelo://app?vid=aa9ba65e-6c41-472c-9b2d-49507544dbb3","ios":"levelo://app?vid=aa9ba65e-6c41-472c-9b2d-49507544dbb3"},"vehicle_type_id":"4","last_reported":1781509756,"current_range_meters":2800,"station_id":"ce4bgup2rcd13ifvqco0","pricing_plan_id":"cebpf4jnsgd1na2vs0mg"},{"bike_id":"11d443e6-9963-4610-80cb-0bed5c7b2bf6","system_id":"levelo_inurba_marseille","lat":43.31474,"lon":5.37296,"is_reserved":false,"is_disabled":false,"rental_uris":{"android":"levelo://app?vid=11d443e6-9963-4610-80cb-0bed5c7b2bf6","ios":"levelo://app?vid=11d443e6-9963-4610-80cb-0bed5c7b2bf6"},"vehicle_type_id":"4","last_reported":1781509756,"current_range_meters":2800,"station_id":"ce4bgt12rcd13ifvqcd0","pricing_plan_id":"cebpf4jnsgd1na2vs0mg"},{"bike_id":"2f5a2eb1-a60a-4fe8-a5aa-002259731410","system_id":"levelo_inurba_marseille","lat":43.31053,"lon":5.37185,"is_reserved":false,"is_disabled":true,"rental_uris":{"android":"levelo://app?vid=2f5a2eb1-a60a-4fe8-a5aa-002259731410","ios":"levelo://app?vid=2f5a2eb1-a60a-4fe8-a5aa-002259731410"},"vehicle_type_id":"4","last_reported":1781509756,"current_range_meters":2800,"station_id":"st_d4kl2rp97mjs73e7tdfg","pricing_plan_id":"cebpf4jnsgd1na2vs0mg"},{"bike_id":"628dfe28-699f-46b4-a571-f8adcc6b181e","system_id":"levelo_inurba_marseille","lat":43.29827,"lon":5.40561,"is_reserved":false,"is_disabled":false,"rental_uris":{"android":"levelo://app?vid=628dfe28-699f-46b4-a571-f8adcc6b181e","ios":"levelo://app?vid=628dfe28-699f-46b4-a571-f8adcc6b181e"},"vehicle_type_id":"4","last_reported":1781509756,"current_range_meters":2800,"station_id":"","pricing_plan_id":"cebpf4jnsgd1na2vs0mg"},{"bike_id":"8c35e00d-f145-4990-9075-f1452b27a592","system_id":"levelo_inurba_marseille","lat":43.21187,"lon":5.35061,"is_reserved":false,"is_disabled":false,"rental_uris":{"android":"levelo://app?vid=8c35e00d-f145-4990-9075-f1452b27a592","ios":"levelo://app?vid=8c35e00d-f145-4990-9075-f1452b27a592"},"vehicle_type_id":"4","last_reported":1781509756,"current_range_meters":3200,"station_id":"st_cvj6sg6p6f1abm77japg","pricing_plan_id":"cebpf4jnsgd1na2vs0mg"},{"bike_id":"18d3753c-9feb-4a72-9030-d19f09b8a97b","system_id":"levelo_inurba_marseille","lat":43.29862,"lon":5.37912,"is_reserved":false,"is_disabled":false,"rental_uris":{"android":"levelo://app?vid=18d3753c-9feb-4a72-9030-d19f09b8a97b","ios":"levelo://app?vid=18d3753c-9feb-4a72-9030-d19f09b8a97b"},"vehicle_type_id":"4","last_reported":1781509756,"current_range_meters":3200,"station_id":"","pricing_plan_id":"cebpf4jnsgd1na2vs0mg"},{"bike_id":"4d8df8ec-f6c0-4c39-8cac-00a49ce6968d","system_id":"levelo_inurba_marseille","lat":43.2909,"lon":5.37152,"is_reserved":false,"is_disabled":true,"rental_uris":{"android":"levelo://app?vid=4d8df8ec-f6c0-4c39-8cac-00a49ce6968d","ios":"levelo://app?vid=4d8df8ec-f6c0-4c39-8cac-00a49ce6968d"},"vehicle_type_id":"4","last_reported":1781509756,"current_range_meters":3200,"station_id":"ce4bh5p2rcd13ifvqe4g","pricing_plan_id":"cebpf4jnsgd1na2vs0mg"},{"bike_id":"754494c3-997d-4030-a1b8-6e28b99a92ba","system_id":"levelo_inurba_marseille","lat":43.23127,"lon":5.43684,"is_reserved":false,"is_disabled":false,"rental_uris":{"android":"levelo://app?vid=754494c3-997d-4030-a1b8-6e28b99a92ba","ios":"levelo://app?vid=754494c3-997d-4030-a1b8-6e28b99a92ba"},"vehicle_type_id":"4","last_reported":1781509756,"current_range_meters":3200,"station_id":"ce4bhmp2rcd13ifvqgog","pricing_plan_id":"cebpf4jnsgd1na2vs0mg"},{"bike_id":"38ae4489-56a4-456c-8aba-e452dd14c882","system_id":"levelo_inurba_marseille","lat":43.29036,"lon":5.3996,"is_reserved":false,"is_disabled":false,"rental_uris":{"android":"levelo://app?vid=38ae4489-56a4-456c-8aba-e452dd14c882","ios":"levelo://app?vid=38ae4489-56a4-456c-8aba-e452dd14c882"},"vehicle_type_id":"4","last_reported":1781509756,"current_range_meters":3200,"station_id":"ce4bh392rcd13ifvqdm0","pricing_plan_id":"cebpf4jnsgd1na2vs0mg"},{"bike_id":"9d5e43bc-0bf1-41b6-b34f-7bce4be45a87","system_id":"levelo_inurba_marseille","lat":43.27557,"lon":5.3841,"is_reserved":false,"is_disabled":false,"rental_uris":{"android":"levelo://app?vid=9d5e43bc-0bf1-41b6-b34f-7bce4be45a87","ios":"levelo://app?vid=9d5e43bc-0bf1-41b6-b34f-7bce4be45a87"},"vehicle_type_id":"4","last_reported":1781509756,"current_range_meters":3200,"station_id":"ce4bhh92rcd13ifvqfi0","pricing_plan_id":"cebpf4jnsgd1na2vs0mg"},{"bike_id":"a5cc4ab5-90de-4453-83d8-1f314b84b1d9","system_id":"levelo_inurba_marseille","lat":43.26208,"lon":5.379298,"is_reserved":false,"is_disabled":false,"rental_uris":{"android":"levelo://app?vid=a5cc4ab5-90de-4453-83d8-1f314b84b1d9","ios":"levelo://app?vid=a5cc4ab5-90de-4453-83d8-1f314b84b1d9"},"vehicle_type_id":"4","last_reported":1781509756,"current_range_meters":3200,"station_id":"ce4bhjp2rcd13ifvqg90","pricing_plan_id":"cebpf4jnsgd1na2vs0mg"},{"bike_id":"c738a475-5094-48aa-af21-bd16aacd51e1","system_id":"levelo_inurba_marseille","lat":43.24238,"lon":5.37451,"is_reserved":false,"is_disabled":false,"rental_uris":{"android":"levelo://app?vid=c738a475-5094-48aa-af21-bd16aacd51e1","ios":"levelo://app?vid=c738a475-5094-48aa-af21-bd16aacd51e1"},"vehicle_type_id":"4","last_reported":1781509756,"current_range_meters":3200,"station_id":"","pricing_plan_id":"cebpf4jnsgd1na2vs0mg"},{"bike_id":"10a7e707-491a-4960-8596-d39b7a7178ed","system_id":"levelo_inurba_marseille","lat":43.26377,"lon":5.41086,"is_reserved":false,"is_disabled":false,"rental_uris":{"android":"levelo://app?vid=10a7e707-491a-4960-8596-d39b7a7178ed","ios":"levelo://app?vid=10a7e707-491a-4960-8596-d39b7a7178ed"},"vehicle_type_id":"4","last_reported":1781509756,"current_range_meters":3200,"station_id":"st_d4e5ca6na9uc73bfl5fg","pricing_plan_id":"cebpf4jnsgd1na2vs0mg"},{"bike_id":"7d57a595-c4bc-45f8-98b2-b02f05a7eecc","system_id":"levelo_inurba_marseille","lat":43.28707,"lon":5.37926,"is_reserved":false,"is_disabled":false,"rental_uris":{"android":"levelo://app?vid=7d57a595-c4bc-45f8-98b2-b02f05a7eecc","ios":"levelo://app?vid=7d57a595-c4bc-45f8-98b2-b02f05a7eecc"},"vehicle_type_id":"4","last_reported":1781509756,"current_range_meters":3200,"station_id":"ce4bh9p2rcd13ifvqec0","pricing_plan_id":"cebpf4jnsgd1na2vs0mg"},{"bike_id":"c762dc3a-0172-424b-b378-01a2f4cbe844","system_id":"levelo_inurba_marseille","lat":43.29194,"lon":5.37112,"is_reserved":false,"is_disabled":false,"rental_uris":{"android":"levelo://app?vid=c762dc3a-0172-424b-b378-01a2f4cbe844","ios":"levelo://app?vid=c762dc3a-0172-424b-b378-01a2f4cbe844"},"vehicle_type_id":"4","last_reported":1781509756,"current_range_meters":3200,"station_id":"ce4bha92rcd13ifvqeh0","pricing_plan_id":"cebpf4jnsgd1na2vs0mg"},{"bike_id":"a3dec34a-1497-4117-b601-731e4d5cddc6","system_id":"levelo_inurba_marseille","lat":43.301503,"lon":5.380978,"is_reserved":false,"is_disabled":false,"rental_uris":{"android":"levelo://app?vid=a3dec34a-1497-4117-b601-731e4d5cddc6","ios":"levelo://app?vid=a3dec34a-1497-4117-b601-731e4d5cddc6"},"vehicle_type_id":"4","last_reported":1781509756,"current_range_meters":3200,"station_id":"ce4bgjp2rcd13ifvqbh0","pricing_plan_id":"cebpf4jnsgd1na2vs0mg"},{"bike_id":"f9d4d4c9-515a-4814-b837-f6e088dcafcb","system_id":"levelo_inurba_marseille","lat":43.33539,"lon":5.37463,"is_reserved":false,"is_disabled":false,"rental_uris":{"android":"levelo://app?vid=f9d4d4c9-515a-4814-b837-f6e088dcafcb","ios":"levelo://app?vid=f9d4d4c9-515a-4814-b837-f6e088dcafcb"},"vehicle_type_id":"4","last_reported":1781509756,"current_range_meters":3200,"station_id":"st_d46tts09ee8s73dlu43g","pricing_plan_id":"cebpf4jnsgd1na2vs0mg"},{"bike_id":"fb52fec9-b90e-42ff-a522-de50539cb369","system_id":"levelo_inurba_marseille","lat":43.26212,"lon":5.37919,"is_reserved":false,"is_disabled":false,"rental_uris":{"android":"levelo://app?vid=fb52fec9-b90e-42ff-a522-de50539cb369","ios":"levelo://app?vid=fb52fec9-b90e-42ff-a522-de50539cb369"},"vehicle_type_id":"4","last_reported":1781509756,"current_range_meters":3200,"station_id":"ce4bhjp2rcd13ifvqg90","pricing_plan_id":"cebpf4jnsgd1na2vs0mg"},{"bike_id":"fcbdd51f-fa24-4cc6-b92f-f3288e2d1c12","system_id":"levelo_inurba_marseille","lat":43.2872,"lon":5.46677,"is_reserved":false,"is_disabled":false,"rental_uris":{"android":"levelo://app?vid=fcbdd51f-fa24-4cc6-b92f-f3288e2d1c12","ios":"levelo://app?vid=fcbdd51f-fa24-4cc6-b92f-f3288e2d1c12"},"vehicle_type_id":"4","last_reported":1781509756,"current_range_meters":3200,"station_id":"st_d6tc3vkotcvc738tfjhg","pricing_plan_id":"cebpf4jnsgd1na2vs0mg"},{"bike_id":"55d50cb7-2e77-420a-a021-5304dba4c628","system_id":"levelo_inurba_marseille","lat":43.32032,"lon":5.41568,"is_reserved":false,"is_disabled":false,"rental_uris":{"android":"levelo://app?vid=55d50cb7-2e77-420a-a021-5304dba4c628","ios":"levelo://app?vid=55d50cb7-2e77-420a-a021-5304dba4c628"},"vehicle_type_id":"4","last_reported":1781509756,"current_range_meters":3200,"station_id":"ce4bhq92rcd13ifvqhkg","pricing_plan_id":"cebpf4jnsgd1na2vs0mg"},{"bike_id":"9dd4f3a8-39d5-43f7-9f51-1797629b3584","system_id":"levelo_inurba_marseille","lat":43.22525,"lon":5.3484,"is_reserved":false,"is_disabled":false,"rental_uris":{"android":"levelo://app?vid=9dd4f3a8-39d5-43f7-9f51-1797629b3584","ios":"levelo://app?vid=9dd4f3a8-39d5-43f7-9f51-1797629b3584"},"vehicle_type_id":"4","last_reported":1781509756,"current_range_meters":3200,"station_id":"st_cvj5dfep6f1abm77gieg","pricing_plan_id":"cebpf4jnsgd1na2vs0mg"},{"bike_id":"7272f913-724d-4b58-b6a6-688b3e04b242","system_id":"levelo_inurba_marseille","lat":43.24692,"lon":5.41228,"is_reserved":false,"is_disabled":false,"rental_uris":{"android":"levelo://app?vid=7272f913-724d-4b58-b6a6-688b3e04b242","ios":"levelo://app?vid=7272f913-724d-4b58-b6a6-688b3e04b242"},"vehicle_type_id":"4","last_reported":1781509756,"current_range_meters":3200,"station_id":"","pricing_plan_id":"cebpf4jnsgd1na2vs0mg"},{"bike_id":"96b2ab90-d8d2-49df-9035-0467b0e6c086","system_id":"levelo_inurba_marseille","lat":43.29827,"lon":5.44031,"is_reserved":false,"is_disabled":false,"rental_uris":{"android":"levelo://app?vid=96b2ab90-d8d2-49df-9035-0467b0e6c086","ios":"levelo://app?vid=96b2ab90-d8d2-49df-9035-0467b0e6c086"},"vehicle_type_id":"4","last_reported":1781509756,"current_range_meters":3200,"station_id":"st_d3jp68qikq2c7381ktn0","pricing_plan_id":"cebpf4jnsgd1na2vs0mg"},{"bike_id":"54e482a5-c534-4992-ad75-060a9850516b","system_id":"levelo_inurba_marseille","lat":43.32311,"lon":5.36709,"is_reserved":false,"is_disabled":false,"rental_uris":{"android":"levelo://app?vid=54e482a5-c534-4992-ad75-060a9850516b","ios":"levelo://app?vid=54e482a5-c534-4992-ad75-060a9850516b"},"vehicle_type_id":"4","last_reported":1781509756,"current_range_meters":3600,"station_id":"ce4bhsh2rcd13ifvqi2g","pricing_plan_id":"cebpf4jnsgd1na2vs0mg"},{"bike_id":"bf44b715-ae50-4f67-a852-53dd45edbeea","system_id":"levelo_inurba_marseille","lat":43.2315,"lon":5.43716,"is_reserved":false,"is_disabled":false,"rental_uris":{"android":"levelo://app?vid=bf44b715-ae50-4f67-a852-53dd45edbeea","ios":"levelo://app?vid=bf44b715-ae50-4f67-a852-53dd45edbeea"},"vehicle_type_id":"4","last_reported":1781509756,"current_range_meters":3600,"station_id":"ce4bhmp2rcd13ifvqgog","pricing_plan_id":"cebpf4jnsgd1na2vs0mg"},{"bike_id":"a3dce523-25c0-4577-ae56-7c77f087e49a","system_id":"levelo_inurba_marseille","lat":43.28872,"lon":5.42529,"is_reserved":false,"is_disabled":false,"rental_uris":{"android":"levelo://app?vid=a3dce523-25c0-4577-ae56-7c77f087e49a","ios":"levelo://app?vid=a3dce523-25c0-4577-ae56-7c77f087e49a"},"vehicle_type_id":"4","last_reported":1781509756,"current_range_meters":3600,"station_id":"st_d3b462108ojc7389ooeg","pricing_plan_id":"cebpf4jnsgd1na2vs0mg"},{"bike_id":"04502770-9d1b-4666-9850-3a4dbf819f2f","system_id":"levelo_inurba_marseille","lat":43.29032,"lon":5.3996,"is_reserved":false,"is_disabled":false,"rental_uris":{"android":"levelo://app?vid=04502770-9d1b-4666-9850-3a4dbf819f2f","ios":"levelo://app?vid=04502770-9d1b-4666-9850-3a4dbf819f2f"},"vehicle_type_id":"4","last_reported":1781509756,"current_range_meters":3600,"station_id":"ce4bh392rcd13ifvqdm0","pricing_plan_id":"cebpf4jnsgd1na2vs0mg"},{"bike_id":"8fea25ca-fb48-4384-9778-a8089f84f9ac","system_id":"levelo_inurba_marseille","lat":43.29687,"lon":5.38103,"is_reserved":false,"is_disabled":false,"rental_uris":{"android":"levelo://app?vid=8fea25ca-fb48-4384-9778-a8089f84f9ac","ios":"levelo://app?vid=8fea25ca-fb48-4384-9778-a8089f84f9ac"},"vehicle_type_id":"4","last_reported":1781509756,"current_range_meters":3600,"station_id":"","pricing_plan_id":"cebpf4jnsgd1na2vs0mg"},{"bike_id":"b12e8485-ed28-4a8f-90a1-52538f8c996f","system_id":"levelo_inurba_marseille","lat":43.29539,"lon":5.39022,"is_reserved":false,"is_disabled":true,"rental_uris":{"android":"levelo://app?vid=b12e8485-ed28-4a8f-90a1-52538f8c996f","ios":"levelo://app?vid=b12e8485-ed28-4a8f-90a1-52538f8c996f"},"vehicle_type_id":"4","last_reported":1781509756,"current_range_meters":3600,"station_id":"ce4bh3p2rcd13ifvqdp0","pricing_plan_id":"cebpf4jnsgd1na2vs0mg"},{"bike_id":"d1800741-fac1-4624-b995-5a057797ea03","system_id":"levelo_inurba_marseille","lat":43.2721,"lon":5.42377,"is_reserved":false,"is_disabled":false,"rental_uris":{"android":"levelo://app?vid=d1800741-fac1-4624-b995-5a057797ea03","ios":"levelo://app?vid=d1800741-fac1-4624-b995-5a057797ea03"},"vehicle_type_id":"4","last_reported":1781509756,"current_range_meters":3600,"station_id":"","pricing_plan_id":"cebpf4jnsgd1na2vs0mg"},{"bike_id":"72a68596-e19c-4a52-ba10-9bdae69e8aa7","system_id":"levelo_inurba_marseille","lat":43.26473,"lon":5.3957,"is_reserved":false,"is_disabled":true,"rental_uris":{"android":"levelo://app?vid=72a68596-e19c-4a52-ba10-9bdae69e8aa7","ios":"levelo://app?vid=72a68596-e19c-4a52-ba10-9bdae69e8aa7"},"vehicle_type_id":"4","last_reported":1781509756,"current_range_meters":3600,"station_id":"ce4bhi12rcd13ifvqfq0","pricing_plan_id":"cebpf4jnsgd1na2vs0mg"},{"bike_id":"c800199a-5474-40e1-bb50-c25e031e8be6","system_id":"levelo_inurba_marseille","lat":43.26962,"lon":5.38737,"is_reserved":false,"is_disabled":false,"rental_uris":{"android":"levelo://app?vid=c800199a-5474-40e1-bb50-c25e031e8be6","ios":"levelo://app?vid=c800199a-5474-40e1-bb50-c25e031e8be6"},"vehicle_type_id":"4","last_reported":1781509756,"current_range_meters":3600,"station_id":"","pricing_plan_id":"cebpf4jnsgd1na2vs0mg"},{"bike_id":"333f976b-8b94-4e77-8fe8-133d43f32e35","system_id":"levelo_inurba_marseille","lat":43.29046,"lon":5.39206,"is_reserved":false,"is_disabled":false,"rental_uris":{"android":"levelo://app?vid=333f976b-8b94-4e77-8fe8-133d43f32e35","ios":"levelo://app?vid=333f976b-8b94-4e77-8fe8-133d43f32e35"},"vehicle_type_id":"4","last_reported":1781509756,"current_range_meters":3600,"station_id":"","pricing_plan_id":"cebpf4jnsgd1na2vs0mg"},{"bike_id":"4eddbf76-b07f-46e8-b211-1d3338759cac","system_id":"levelo_inurba_marseille","lat":43.31032,"lon":5.37172,"is_reserved":false,"is_disabled":false,"rental_uris":{"android":"levelo://app?vid=4eddbf76-b07f-46e8-b211-1d3338759cac","ios":"levelo://app?vid=4eddbf76-b07f-46e8-b211-1d3338759cac"},"vehicle_type_id":"4","last_reported":1781509756,"current_range_meters":3600,"station_id":"st_d4kl2rp97mjs73e7tdfg","pricing_plan_id":"cebpf4jnsgd1na2vs0mg"},{"bike_id":"ce059822-03c1-4578-b9e3-bb0b69a47db9","system_id":"levelo_inurba_marseille","lat":43.25013,"lon":5.3892,"is_reserved":false,"is_disabled":false,"rental_uris":{"android":"levelo://app?vid=ce059822-03c1-4578-b9e3-bb0b69a47db9","ios":"levelo://app?vid=ce059822-03c1-4578-b9e3-bb0b69a47db9"},"vehicle_type_id":"4","last_reported":1781509756,"current_range_meters":3600,"station_id":"ce4bhgp2rcd13ifvqfd0","pricing_plan_id":"cebpf4jnsgd1na2vs0mg"},{"bike_id":"257d3ab3-dfaf-4483-b077-58445632d664","system_id":"levelo_inurba_marseille","lat":43.29635,"lon":5.40608,"is_reserved":false,"is_disabled":true,"rental_uris":{"android":"levelo://app?vid=257d3ab3-dfaf-4483-b077-58445632d664","ios":"levelo://app?vid=257d3ab3-dfaf-4483-b077-58445632d664"},"vehicle_type_id":"4","last_reported":1781509756,"current_range_meters":3600,"station_id":"ce4bh0h2rcd13ifvqd60","pricing_plan_id":"cebpf4jnsgd1na2vs0mg"},{"bike_id":"af5c7163-c488-4649-b087-458e28603cc5","system_id":"levelo_inurba_marseille","lat":43.2977,"lon":5.37075,"is_reserved":false,"is_disabled":false,"rental_uris":{"android":"levelo://app?vid=af5c7163-c488-4649-b087-458e28603cc5","ios":"levelo://app?vid=af5c7163-c488-4649-b087-458e28603cc5"},"vehicle_type_id":"4","last_reported":1781509756,"current_range_meters":3600,"station_id":"ce4bgop2rcd13ifvqc1g","pricing_plan_id":"cebpf4jnsgd1na2vs0mg"},{"bike_id":"0b3de9c1-5e8e-456d-a768-a4c1aa5a44f6","system_id":"levelo_inurba_marseille","lat":43.28508,"lon":5.38506,"is_reserved":false,"is_disabled":false,"rental_uris":{"android":"levelo://app?vid=0b3de9c1-5e8e-456d-a768-a4c1aa5a44f6","ios":"levelo://app?vid=0b3de9c1-5e8e-456d-a768-a4c1aa5a44f6"},"vehicle_type_id":"4","last_reported":1781509756,"current_range_meters":3600,"station_id":"","pricing_plan_id":"cebpf4jnsgd1na2vs0mg"},{"bike_id":"d729573f-a86b-41d2-bc51-bd23c133868d","system_id":"levelo_inurba_marseille","lat":43.3151,"lon":5.38395,"is_reserved":false,"is_disabled":false,"rental_uris":{"android":"levelo://app?vid=d729573f-a86b-41d2-bc51-bd23c133868d","ios":"levelo://app?vid=d729573f-a86b-41d2-bc51-bd23c133868d"},"vehicle_type_id":"4","last_reported":1781509756,"current_range_meters":3600,"station_id":"","pricing_plan_id":"cebpf4jnsgd1na2vs0mg"},{"bike_id":"4c78b6b3-2f8d-4f10-973f-a50992bad914","system_id":"levelo_inurba_marseille","lat":43.21213,"lon":5.3504,"is_reserved":false,"is_disabled":false,"rental_uris":{"android":"levelo://app?vid=4c78b6b3-2f8d-4f10-973f-a50992bad914","ios":"levelo://app?vid=4c78b6b3-2f8d-4f10-973f-a50992bad914"},"vehicle_type_id":"4","last_reported":1781509756,"current_range_meters":4000,"station_id":"","pricing_plan_id":"cebpf4jnsgd1na2vs0mg"},{"bike_id":"b15d8199-c3e8-454b-b79c-dceebaa5b442","system_id":"levelo_inurba_marseille","lat":43.25889,"lon":5.39907,"is_reserved":false,"is_disabled":false,"rental_uris":{"android":"levelo://app?vid=b15d8199-c3e8-454b-b79c-dceebaa5b442","ios":"levelo://app?vid=b15d8199-c3e8-454b-b79c-dceebaa5b442"},"vehicle_type_id":"4","last_reported":1781509756,"current_range_meters":4000,"station_id":"ce4bhl92rcd13ifvqghg","pricing_plan_id":"cebpf4jnsgd1na2vs0mg"},{"bike_id":"cbefb263-a5a4-47c4-9ec0-8fcd70fea0bf","system_id":"levelo_inurba_marseille","lat":43.28984,"lon":5.37797,"is_reserved":false,"is_disabled":false,"rental_uris":{"android":"levelo://app?vid=cbefb263-a5a4-47c4-9ec0-8fcd70fea0bf","ios":"levelo://app?vid=cbefb263-a5a4-47c4-9ec0-8fcd70fea0bf"},"vehicle_type_id":"4","last_reported":1781509756,"current_range_meters":4000,"station_id":"ce4bh9p2rcd13ifvqed0","pricing_plan_id":"cebpf4jnsgd1na2vs0mg"},{"bike_id":"3ac6acb7-6471-406f-8d68-ea02981661ac","system_id":"levelo_inurba_marseille","lat":43.22946,"lon":5.35376,"is_reserved":false,"is_disabled":false,"rental_uris":{"android":"levelo://app?vid=3ac6acb7-6471-406f-8d68-ea02981661ac","ios":"levelo://app?vid=3ac6acb7-6471-406f-8d68-ea02981661ac"},"vehicle_type_id":"4","last_reported":1781509756,"current_range_meters":4000,"station_id":"cpo3532slgdg3j2ikp40","pricing_plan_id":"cebpf4jnsgd1na2vs0mg"},{"bike_id":"a4c67dde-0cda-4b45-a3f9-a96f3aebcdb2","system_id":"levelo_inurba_marseille","lat":43.24533,"lon":5.41142,"is_reserved":false,"is_disabled":true,"rental_uris":{"android":"levelo://app?vid=a4c67dde-0cda-4b45-a3f9-a96f3aebcdb2","ios":"levelo://app?vid=a4c67dde-0cda-4b45-a3f9-a96f3aebcdb2"},"vehicle_type_id":"4","last_reported":1781509756,"current_range_meters":4000,"station_id":"","pricing_plan_id":"cebpf4jnsgd1na2vs0mg"},{"bike_id":"ed7f4191-b52c-48b6-a7dd-db5447e1a064","system_id":"levelo_inurba_marseille","lat":43.26194,"lon":5.37917,"is_reserved":false,"is_disabled":false,"rental_uris":{"android":"levelo://app?vid=ed7f4191-b52c-48b6-a7dd-db5447e1a064","ios":"levelo://app?vid=ed7f4191-b52c-48b6-a7dd-db5447e1a064"},"vehicle_type_id":"4","last_reported":1781509756,"current_range_meters":4000,"station_id":"ce4bhjp2rcd13ifvqg90","pricing_plan_id":"cebpf4jnsgd1na2vs0mg"},{"bike_id":"b0b204db-fbfc-47ab-b713-f2603ef9af44","system_id":"levelo_inurba_marseille","lat":43.29338,"lon":5.37141,"is_reserved":false,"is_disabled":false,"rental_uris":{"android":"levelo://app?vid=b0b204db-fbfc-47ab-b713-f2603ef9af44","ios":"levelo://app?vid=b0b204db-fbfc-47ab-b713-f2603ef9af44"},"vehicle_type_id":"4","last_reported":1781509756,"current_range_meters":4000,"station_id":"ce4bgh92rcd13ifvqb40","pricing_plan_id":"cebpf4jnsgd1na2vs0mg"},{"bike_id":"da786e46-2a3b-47c2-84dd-e37b3ea105b6","system_id":"levelo_inurba_marseille","lat":43.28673,"lon":5.36358,"is_reserved":false,"is_disabled":false,"rental_uris":{"android":"levelo://app?vid=da786e46-2a3b-47c2-84dd-e37b3ea105b6","ios":"levelo://app?vid=da786e46-2a3b-47c2-84dd-e37b3ea105b6"},"vehicle_type_id":"4","last_reported":1781509756,"current_range_meters":4000,"station_id":"ce4bhah2rcd13ifvqej0","pricing_plan_id":"cebpf4jnsgd1na2vs0mg"},{"bike_id":"3c083eda-f39f-489d-9ff8-7247b9ef239d","system_id":"levelo_inurba_marseille","lat":43.23055,"lon":5.35493,"is_reserved":false,"is_disabled":false,"rental_uris":{"android":"levelo://app?vid=3c083eda-f39f-489d-9ff8-7247b9ef239d","ios":"levelo://app?vid=3c083eda-f39f-489d-9ff8-7247b9ef239d"},"vehicle_type_id":"4","last_reported":1781509756,"current_range_meters":4000,"station_id":"cpo3342slgdg3j2ifvpg","pricing_plan_id":"cebpf4jnsgd1na2vs0mg"},{"bike_id":"54410e0e-88fe-44cb-9cd3-c20ab067986a","system_id":"levelo_inurba_marseille","lat":43.28238,"lon":5.3484,"is_reserved":false,"is_disabled":false,"rental_uris":{"android":"levelo://app?vid=54410e0e-88fe-44cb-9cd3-c20ab067986a","ios":"levelo://app?vid=54410e0e-88fe-44cb-9cd3-c20ab067986a"},"vehicle_type_id":"4","last_reported":1781509756,"current_range_meters":4000,"station_id":"","pricing_plan_id":"cebpf4jnsgd1na2vs0mg"},{"bike_id":"f10274f0-d5a3-4847-854d-5e53c5520946","system_id":"levelo_inurba_marseille","lat":43.32344,"lon":5.36721,"is_reserved":false,"is_disabled":false,"rental_uris":{"android":"levelo://app?vid=f10274f0-d5a3-4847-854d-5e53c5520946","ios":"levelo://app?vid=f10274f0-d5a3-4847-854d-5e53c5520946"},"vehicle_type_id":"4","last_reported":1781509756,"current_range_meters":4000,"station_id":"ce4bhsh2rcd13ifvqi2g","pricing_plan_id":"cebpf4jnsgd1na2vs0mg"},{"bike_id":"64d1def8-2a5b-48eb-8ec4-f02e72a31395","system_id":"levelo_inurba_marseille","lat":43.28721,"lon":5.46685,"is_reserved":false,"is_disabled":false,"rental_uris":{"android":"levelo://app?vid=64d1def8-2a5b-48eb-8ec4-f02e72a31395","ios":"levelo://app?vid=64d1def8-2a5b-48eb-8ec4-f02e72a31395"},"vehicle_type_id":"4","last_reported":1781509756,"current_range_meters":4000,"station_id":"st_d6tc3vkotcvc738tfjhg","pricing_plan_id":"cebpf4jnsgd1na2vs0mg"},{"bike_id":"31a5c23d-40d4-417f-98b3-4241d25cf95b","system_id":"levelo_inurba_marseille","lat":43.33377,"lon":5.3931,"is_reserved":false,"is_disabled":false,"rental_uris":{"android":"levelo://app?vid=31a5c23d-40d4-417f-98b3-4241d25cf95b","ios":"levelo://app?vid=31a5c23d-40d4-417f-98b3-4241d25cf95b"},"vehicle_type_id":"4","last_reported":1781509756,"current_range_meters":4000,"station_id":"","pricing_plan_id":"cebpf4jnsgd1na2vs0mg"},{"bike_id":"6bf51202-42c8-4c45-b676-da11eb5d025a","system_id":"levelo_inurba_marseille","lat":43.29264,"lon":5.36845,"is_reserved":false,"is_disabled":false,"rental_uris":{"android":"levelo://app?vid=6bf51202-42c8-4c45-b676-da11eb5d025a","ios":"levelo://app?vid=6bf51202-42c8-4c45-b676-da11eb5d025a"},"vehicle_type_id":"4","last_reported":1781509756,"current_range_meters":4000,"station_id":"ce4bhbp2rcd13ifvqesg","pricing_plan_id":"cebpf4jnsgd1na2vs0mg"},{"bike_id":"e6eda01b-4746-4a1b-b8bd-bc2e29bf1778","system_id":"levelo_inurba_marseille","lat":43.2848,"lon":5.48392,"is_reserved":false,"is_disabled":false,"rental_uris":{"android":"levelo://app?vid=e6eda01b-4746-4a1b-b8bd-bc2e29bf1778","ios":"levelo://app?vid=e6eda01b-4746-4a1b-b8bd-bc2e29bf1778"},"vehicle_type_id":"4","last_reported":1781509756,"current_range_meters":4000,"station_id":"st_d3svhcjqgbts73a3dn0g","pricing_plan_id":"cebpf4jnsgd1na2vs0mg"},{"bike_id":"1c337d46-772b-4a71-809d-630634984e59","system_id":"levelo_inurba_marseille","lat":43.23057,"lon":5.35497,"is_reserved":false,"is_disabled":false,"rental_uris":{"android":"levelo://app?vid=1c337d46-772b-4a71-809d-630634984e59","ios":"levelo://app?vid=1c337d46-772b-4a71-809d-630634984e59"},"vehicle_type_id":"4","last_reported":1781509756,"current_range_meters":4000,"station_id":"cpo3342slgdg3j2ifvpg","pricing_plan_id":"cebpf4jnsgd1na2vs0mg"},{"bike_id":"56b376d5-9b28-4e92-ac45-b76b482244af","system_id":"levelo_inurba_marseille","lat":43.31888,"lon":5.36816,"is_reserved":false,"is_disabled":false,"rental_uris":{"android":"levelo://app?vid=56b376d5-9b28-4e92-ac45-b76b482244af","ios":"levelo://app?vid=56b376d5-9b28-4e92-ac45-b76b482244af"},"vehicle_type_id":"4","last_reported":1781509756,"current_range_meters":4000,"station_id":"st_d6o2h0d0559c73evc1b0","pricing_plan_id":"cebpf4jnsgd1na2vs0mg"},{"bike_id":"5851fc84-4b83-4a01-a964-f24021b69961","system_id":"levelo_inurba_marseille","lat":43.29618,"lon":5.37167,"is_reserved":false,"is_disabled":false,"rental_uris":{"android":"levelo://app?vid=5851fc84-4b83-4a01-a964-f24021b69961","ios":"levelo://app?vid=5851fc84-4b83-4a01-a964-f24021b69961"},"vehicle_type_id":"4","last_reported":1781509756,"current_range_meters":4000,"station_id":"ce4bgnh2rcd13ifvqc0g","pricing_plan_id":"cebpf4jnsgd1na2vs0mg"},{"bike_id":"eb0c1c7f-47b8-4a10-8001-0064309e6c74","system_id":"levelo_inurba_marseille","lat":43.22535,"lon":5.34828,"is_reserved":false,"is_disabled":false,"rental_uris":{"android":"levelo://app?vid=eb0c1c7f-47b8-4a10-8001-0064309e6c74","ios":"levelo://app?vid=eb0c1c7f-47b8-4a10-8001-0064309e6c74"},"vehicle_type_id":"4","last_reported":1781509756,"current_range_meters":4000,"station_id":"st_cvj5dfep6f1abm77gieg","pricing_plan_id":"cebpf4jnsgd1na2vs0mg"},{"bike_id":"7fb9d103-751d-4178-8ba6-4da278a4bba5","system_id":"levelo_inurba_marseille","lat":43.3047,"lon":5.37892,"is_reserved":false,"is_disabled":false,"rental_uris":{"android":"levelo://app?vid=7fb9d103-751d-4178-8ba6-4da278a4bba5","ios":"levelo://app?vid=7fb9d103-751d-4178-8ba6-4da278a4bba5"},"vehicle_type_id":"4","last_reported":1781509756,"current_range_meters":4000,"station_id":"ce4bgup2rcd13ifvqcn0","pricing_plan_id":"cebpf4jnsgd1na2vs0mg"},{"bike_id":"c01f6dec-89dd-472c-9d53-44f20e2f469d","system_id":"levelo_inurba_marseille","lat":43.28071,"lon":5.3477,"is_reserved":false,"is_disabled":false,"rental_uris":{"android":"levelo://app?vid=c01f6dec-89dd-472c-9d53-44f20e2f469d","ios":"levelo://app?vid=c01f6dec-89dd-472c-9d53-44f20e2f469d"},"vehicle_type_id":"4","last_reported":1781509756,"current_range_meters":4000,"station_id":"","pricing_plan_id":"cebpf4jnsgd1na2vs0mg"},{"bike_id":"ba29fa99-130d-4c77-8e6b-a3805c9e68c3","system_id":"levelo_inurba_marseille","lat":43.22549,"lon":5.41612,"is_reserved":false,"is_disabled":false,"rental_uris":{"android":"levelo://app?vid=ba29fa99-130d-4c77-8e6b-a3805c9e68c3","ios":"levelo://app?vid=ba29fa99-130d-4c77-8e6b-a3805c9e68c3"},"vehicle_type_id":"4","last_reported":1781509756,"current_range_meters":4000,"station_id":"st_d2o4gvlbi1j2169b742g","pricing_plan_id":"cebpf4jnsgd1na2vs0mg"},{"bike_id":"58df25d0-bd57-4415-b2e9-39adcdff72a1","system_id":"levelo_inurba_marseille","lat":43.2915,"lon":5.37123,"is_reserved":false,"is_disabled":true,"rental_uris":{"android":"levelo://app?vid=58df25d0-bd57-4415-b2e9-39adcdff72a1","ios":"levelo://app?vid=58df25d0-bd57-4415-b2e9-39adcdff72a1"},"vehicle_type_id":"4","last_reported":1781509756,"current_range_meters":4000,"station_id":"ce4bha92rcd13ifvqeh0","pricing_plan_id":"cebpf4jnsgd1na2vs0mg"},{"bike_id":"081783e8-5da7-4fbf-b9b1-3d05ef7e49ce","system_id":"levelo_inurba_marseille","lat":43.28936,"lon":5.36639,"is_reserved":false,"is_disabled":true,"rental_uris":{"android":"levelo://app?vid=081783e8-5da7-4fbf-b9b1-3d05ef7e49ce","ios":"levelo://app?vid=081783e8-5da7-4fbf-b9b1-3d05ef7e49ce"},"vehicle_type_id":"4","last_reported":1781509756,"current_range_meters":4000,"station_id":"ce4bhap2rcd13ifvqek0","pricing_plan_id":"cebpf4jnsgd1na2vs0mg"},{"bike_id":"1cc1e854-a64b-4eaa-bd00-1c309caff36d","system_id":"levelo_inurba_marseille","lat":43.28626,"lon":5.35072,"is_reserved":false,"is_disabled":true,"rental_uris":{"android":"levelo://app?vid=1cc1e854-a64b-4eaa-bd00-1c309caff36d","ios":"levelo://app?vid=1cc1e854-a64b-4eaa-bd00-1c309caff36d"},"vehicle_type_id":"4","last_reported":1781509756,"current_range_meters":4000,"station_id":"ce4bhch2rcd13ifvqeug","pricing_plan_id":"cebpf4jnsgd1na2vs0mg"},{"bike_id":"652fe3f3-b5e9-4ebc-a5a8-9acc8ff1e933","system_id":"levelo_inurba_marseille","lat":43.29101,"lon":5.38107,"is_reserved":false,"is_disabled":false,"rental_uris":{"android":"levelo://app?vid=652fe3f3-b5e9-4ebc-a5a8-9acc8ff1e933","ios":"levelo://app?vid=652fe3f3-b5e9-4ebc-a5a8-9acc8ff1e933"},"vehicle_type_id":"4","last_reported":1781509756,"current_range_meters":4000,"station_id":"ce4bh512rcd13ifvqe2g","pricing_plan_id":"cebpf4jnsgd1na2vs0mg"},{"bike_id":"ce0295ad-8a7f-4277-a390-58ee9dcf76f4","system_id":"levelo_inurba_marseille","lat":43.30943,"lon":5.39045,"is_reserved":false,"is_disabled":false,"rental_uris":{"android":"levelo://app?vid=ce0295ad-8a7f-4277-a390-58ee9dcf76f4","ios":"levelo://app?vid=ce0295ad-8a7f-4277-a390-58ee9dcf76f4"},"vehicle_type_id":"4","last_reported":1781509756,"current_range_meters":4000,"station_id":"ce4bgup2rcd13ifvqco0","pricing_plan_id":"cebpf4jnsgd1na2vs0mg"},{"bike_id":"28183447-9c82-42bc-8dce-8660c3a95f7f","system_id":"levelo_inurba_marseille","lat":43.27074,"lon":5.40258,"is_reserved":false,"is_disabled":false,"rental_uris":{"android":"levelo://app?vid=28183447-9c82-42bc-8dce-8660c3a95f7f","ios":"levelo://app?vid=28183447-9c82-42bc-8dce-8660c3a95f7f"},"vehicle_type_id":"4","last_reported":1781509756,"current_range_meters":4000,"station_id":"ce4bhk92rcd13ifvqgc0","pricing_plan_id":"cebpf4jnsgd1na2vs0mg"},{"bike_id":"a006ba18-ae27-43cc-9b76-a5b0e53bb334","system_id":"levelo_inurba_marseille","lat":43.26385,"lon":5.41081,"is_reserved":false,"is_disabled":false,"rental_uris":{"android":"levelo://app?vid=a006ba18-ae27-43cc-9b76-a5b0e53bb334","ios":"levelo://app?vid=a006ba18-ae27-43cc-9b76-a5b0e53bb334"},"vehicle_type_id":"4","last_reported":1781509756,"current_range_meters":4400,"station_id":"st_d4e5ca6na9uc73bfl5fg","pricing_plan_id":"cebpf4jnsgd1na2vs0mg"},{"bike_id":"b3992cac-58a6-4851-8c90-3eadd267216a","system_id":"levelo_inurba_marseille","lat":43.29939,"lon":5.38149,"is_reserved":false,"is_disabled":false,"rental_uris":{"android":"levelo://app?vid=b3992cac-58a6-4851-8c90-3eadd267216a","ios":"levelo://app?vid=b3992cac-58a6-4851-8c90-3eadd267216a"},"vehicle_type_id":"4","last_reported":1781509756,"current_range_meters":4400,"station_id":"ce4bgj12rcd13ifvqbc0","pricing_plan_id":"cebpf4jnsgd1na2vs0mg"},{"bike_id":"0b630a54-6497-4bc9-95e3-b953b5b38d75","system_id":"levelo_inurba_marseille","lat":43.24468,"lon":5.42544,"is_reserved":false,"is_disabled":false,"rental_uris":{"android":"levelo://app?vid=0b630a54-6497-4bc9-95e3-b953b5b38d75","ios":"levelo://app?vid=0b630a54-6497-4bc9-95e3-b953b5b38d75"},"vehicle_type_id":"4","last_reported":1781509756,"current_range_meters":4400,"station_id":"st_d4a3vfp97mjs738cd8kg","pricing_plan_id":"cebpf4jnsgd1na2vs0mg"},{"bike_id":"ae6159e2-717b-4eec-809f-8a49dfecee5e","system_id":"levelo_inurba_marseille","lat":43.31228,"lon":5.36844,"is_reserved":false,"is_disabled":false,"rental_uris":{"android":"levelo://app?vid=ae6159e2-717b-4eec-809f-8a49dfecee5e","ios":"levelo://app?vid=ae6159e2-717b-4eec-809f-8a49dfecee5e"},"vehicle_type_id":"4","last_reported":1781509756,"current_range_meters":4400,"station_id":"ce4bgl92rcd13ifvqbq0","pricing_plan_id":"cebpf4jnsgd1na2vs0mg"},{"bike_id":"3a178be9-377a-4a25-b16e-746e76e3b7b2","system_id":"levelo_inurba_marseille","lat":43.26203,"lon":5.38836,"is_reserved":false,"is_disabled":false,"rental_uris":{"android":"levelo://app?vid=3a178be9-377a-4a25-b16e-746e76e3b7b2","ios":"levelo://app?vid=3a178be9-377a-4a25-b16e-746e76e3b7b2"},"vehicle_type_id":"4","last_reported":1781509756,"current_range_meters":4400,"station_id":"","pricing_plan_id":"cebpf4jnsgd1na2vs0mg"},{"bike_id":"211a2704-aa4f-43f5-b2d8-2b26e3b04b5e","system_id":"levelo_inurba_marseille","lat":43.24981,"lon":5.38941,"is_reserved":false,"is_disabled":false,"rental_uris":{"android":"levelo://app?vid=211a2704-aa4f-43f5-b2d8-2b26e3b04b5e","ios":"levelo://app?vid=211a2704-aa4f-43f5-b2d8-2b26e3b04b5e"},"vehicle_type_id":"4","last_reported":1781509756,"current_range_meters":4400,"station_id":"ce4bhgp2rcd13ifvqfd0","pricing_plan_id":"cebpf4jnsgd1na2vs0mg"},{"bike_id":"1011ae7d-9675-48b8-8eef-841d6ab9c53c","system_id":"levelo_inurba_marseille","lat":43.30436,"lon":5.37931,"is_reserved":false,"is_disabled":false,"rental_uris":{"android":"levelo://app?vid=1011ae7d-9675-48b8-8eef-841d6ab9c53c","ios":"levelo://app?vid=1011ae7d-9675-48b8-8eef-841d6ab9c53c"},"vehicle_type_id":"4","last_reported":1781509756,"current_range_meters":4400,"station_id":"ce4bgup2rcd13ifvqcn0","pricing_plan_id":"cebpf4jnsgd1na2vs0mg"},{"bike_id":"5e28ac20-e09b-4d66-b728-523877a48875","system_id":"levelo_inurba_marseille","lat":43.25866,"lon":5.39881,"is_reserved":false,"is_disabled":true,"rental_uris":{"android":"levelo://app?vid=5e28ac20-e09b-4d66-b728-523877a48875","ios":"levelo://app?vid=5e28ac20-e09b-4d66-b728-523877a48875"},"vehicle_type_id":"4","last_reported":1781509756,"current_range_meters":4400,"station_id":"ce4bhl92rcd13ifvqghg","pricing_plan_id":"cebpf4jnsgd1na2vs0mg"},{"bike_id":"261f09ba-9b6a-4fea-8aef-dff94f408488","system_id":"levelo_inurba_marseille","lat":43.24724,"lon":5.39319,"is_reserved":false,"is_disabled":false,"rental_uris":{"android":"levelo://app?vid=261f09ba-9b6a-4fea-8aef-dff94f408488","ios":"levelo://app?vid=261f09ba-9b6a-4fea-8aef-dff94f408488"},"vehicle_type_id":"4","last_reported":1781509756,"current_range_meters":4400,"station_id":"","pricing_plan_id":"cebpf4jnsgd1na2vs0mg"},{"bike_id":"bc9bb278-9a3f-444c-9ee4-086e46a06286","system_id":"levelo_inurba_marseille","lat":43.22273,"lon":5.4049,"is_reserved":false,"is_disabled":false,"rental_uris":{"android":"levelo://app?vid=bc9bb278-9a3f-444c-9ee4-086e46a06286","ios":"levelo://app?vid=bc9bb278-9a3f-444c-9ee4-086e46a06286"},"vehicle_type_id":"4","last_reported":1781509756,"current_range_meters":4400,"station_id":"","pricing_plan_id":"cebpf4jnsgd1na2vs0mg"},{"bike_id":"8a01116d-ff03-4c95-9fb6-ae1544ed03d6","system_id":"levelo_inurba_marseille","lat":43.27485,"lon":5.43965,"is_reserved":false,"is_disabled":false,"rental_uris":{"android":"levelo://app?vid=8a01116d-ff03-4c95-9fb6-ae1544ed03d6","ios":"levelo://app?vid=8a01116d-ff03-4c95-9fb6-ae1544ed03d6"},"vehicle_type_id":"4","last_reported":1781509756,"current_range_meters":4400,"station_id":"","pricing_plan_id":"cebpf4jnsgd1na2vs0mg"},{"bike_id":"8c6ae628-cbf8-4b8d-b9a3-f20839d2a500","system_id":"levelo_inurba_marseille","lat":43.29038,"lon":5.39951,"is_reserved":false,"is_disabled":false,"rental_uris":{"android":"levelo://app?vid=8c6ae628-cbf8-4b8d-b9a3-f20839d2a500","ios":"levelo://app?vid=8c6ae628-cbf8-4b8d-b9a3-f20839d2a500"},"vehicle_type_id":"4","last_reported":1781509756,"current_range_meters":4400,"station_id":"ce4bh392rcd13ifvqdm0","pricing_plan_id":"cebpf4jnsgd1na2vs0mg"},{"bike_id":"4fa00d2c-58a1-4a5d-9f90-000207140b2e","system_id":"levelo_inurba_marseille","lat":43.27338,"lon":5.39053,"is_reserved":false,"is_disabled":false,"rental_uris":{"android":"levelo://app?vid=4fa00d2c-58a1-4a5d-9f90-000207140b2e","ios":"levelo://app?vid=4fa00d2c-58a1-4a5d-9f90-000207140b2e"},"vehicle_type_id":"4","last_reported":1781509756,"current_range_meters":4400,"station_id":"ce4bhgp2rcd13ifvqfe0","pricing_plan_id":"cebpf4jnsgd1na2vs0mg"},{"bike_id":"4e6d713d-5d98-4f27-9e30-016f10070add","system_id":"levelo_inurba_marseille","lat":43.24472,"lon":5.42521,"is_reserved":false,"is_disabled":false,"rental_uris":{"android":"levelo://app?vid=4e6d713d-5d98-4f27-9e30-016f10070add","ios":"levelo://app?vid=4e6d713d-5d98-4f27-9e30-016f10070add"},"vehicle_type_id":"4","last_reported":1781509756,"current_range_meters":4400,"station_id":"st_d4a3vfp97mjs738cd8kg","pricing_plan_id":"cebpf4jnsgd1na2vs0mg"},{"bike_id":"a0967682-704e-4097-9142-482a1f2d36c9","system_id":"levelo_inurba_marseille","lat":43.21189,"lon":5.35063,"is_reserved":false,"is_disabled":true,"rental_uris":{"android":"levelo://app?vid=a0967682-704e-4097-9142-482a1f2d36c9","ios":"levelo://app?vid=a0967682-704e-4097-9142-482a1f2d36c9"},"vehicle_type_id":"4","last_reported":1781509756,"current_range_meters":4400,"station_id":"st_cvj6sg6p6f1abm77japg","pricing_plan_id":"cebpf4jnsgd1na2vs0mg"},{"bike_id":"3218e180-a757-407d-8b1a-71cc1f6752de","system_id":"levelo_inurba_marseille","lat":43.29087,"lon":5.36541,"is_reserved":false,"is_disabled":false,"rental_uris":{"android":"levelo://app?vid=3218e180-a757-407d-8b1a-71cc1f6752de","ios":"levelo://app?vid=3218e180-a757-407d-8b1a-71cc1f6752de"},"vehicle_type_id":"4","last_reported":1781509756,"current_range_meters":4800,"station_id":"","pricing_plan_id":"cebpf4jnsgd1na2vs0mg"},{"bike_id":"e2631be6-4151-4a05-9783-2a11f2b5cffc","system_id":"levelo_inurba_marseille","lat":43.3018,"lon":5.36602,"is_reserved":false,"is_disabled":false,"rental_uris":{"android":"levelo://app?vid=e2631be6-4151-4a05-9783-2a11f2b5cffc","ios":"levelo://app?vid=e2631be6-4151-4a05-9783-2a11f2b5cffc"},"vehicle_type_id":"4","last_reported":1781509756,"current_range_meters":4800,"station_id":"ce4bgrh2rcd13ifvqc8g","pricing_plan_id":"cebpf4jnsgd1na2vs0mg"},{"bike_id":"5e8e5076-7f7b-43c9-bc7a-b329ceb4cbae","system_id":"levelo_inurba_marseille","lat":43.28926,"lon":5.39638,"is_reserved":false,"is_disabled":false,"rental_uris":{"android":"levelo://app?vid=5e8e5076-7f7b-43c9-bc7a-b329ceb4cbae","ios":"levelo://app?vid=5e8e5076-7f7b-43c9-bc7a-b329ceb4cbae"},"vehicle_type_id":"4","last_reported":1781509756,"current_range_meters":4800,"station_id":"ce4bh3h2rcd13ifvqdn0","pricing_plan_id":"cebpf4jnsgd1na2vs0mg"},{"bike_id":"7142d5c8-5d9a-4262-9275-62a797fe665f","system_id":"levelo_inurba_marseille","lat":43.26983,"lon":5.39281,"is_reserved":false,"is_disabled":false,"rental_uris":{"android":"levelo://app?vid=7142d5c8-5d9a-4262-9275-62a797fe665f","ios":"levelo://app?vid=7142d5c8-5d9a-4262-9275-62a797fe665f"},"vehicle_type_id":"4","last_reported":1781509756,"current_range_meters":4800,"station_id":"","pricing_plan_id":"cebpf4jnsgd1na2vs0mg"},{"bike_id":"520e7007-685d-436d-8d38-db025ae27a9c","system_id":"levelo_inurba_marseille","lat":43.33725,"lon":5.39165,"is_reserved":false,"is_disabled":false,"rental_uris":{"android":"levelo://app?vid=520e7007-685d-436d-8d38-db025ae27a9c","ios":"levelo://app?vid=520e7007-685d-436d-8d38-db025ae27a9c"},"vehicle_type_id":"4","last_reported":1781509756,"current_range_meters":4800,"station_id":"ce4bhr92rcd13ifvqhsg","pricing_plan_id":"cebpf4jnsgd1na2vs0mg"},{"bike_id":"65d9dd6a-f996-46b8-ace0-77611327209b","system_id":"levelo_inurba_marseille","lat":43.22527,"lon":5.34799,"is_reserved":false,"is_disabled":false,"rental_uris":{"android":"levelo://app?vid=65d9dd6a-f996-46b8-ace0-77611327209b","ios":"levelo://app?vid=65d9dd6a-f996-46b8-ace0-77611327209b"},"vehicle_type_id":"4","last_reported":1781509756,"current_range_meters":4800,"station_id":"st_cvj5dfep6f1abm77gieg","pricing_plan_id":"cebpf4jnsgd1na2vs0mg"},{"bike_id":"0d907e20-16f1-40bd-b155-a0f4876e2d69","system_id":"levelo_inurba_marseille","lat":43.244,"lon":5.40074,"is_reserved":false,"is_disabled":false,"rental_uris":{"android":"levelo://app?vid=0d907e20-16f1-40bd-b155-a0f4876e2d69","ios":"levelo://app?vid=0d907e20-16f1-40bd-b155-a0f4876e2d69"},"vehicle_type_id":"4","last_reported":1781509756,"current_range_meters":4800,"station_id":"","pricing_plan_id":"cebpf4jnsgd1na2vs0mg"},{"bike_id":"91e461e4-eb15-4853-92af-4d17c4e311d9","system_id":"levelo_inurba_marseille","lat":43.30973,"lon":5.39032,"is_reserved":false,"is_disabled":false,"rental_uris":{"android":"levelo://app?vid=91e461e4-eb15-4853-92af-4d17c4e311d9","ios":"levelo://app?vid=91e461e4-eb15-4853-92af-4d17c4e311d9"},"vehicle_type_id":"4","last_reported":1781509756,"current_range_meters":4800,"station_id":"ce4bgup2rcd13ifvqco0","pricing_plan_id":"cebpf4jnsgd1na2vs0mg"},{"bike_id":"a29c488d-2fa7-442a-92da-9c1f2978e670","system_id":"levelo_inurba_marseille","lat":43.26225,"lon":5.40432,"is_reserved":false,"is_disabled":false,"rental_uris":{"android":"levelo://app?vid=a29c488d-2fa7-442a-92da-9c1f2978e670","ios":"levelo://app?vid=a29c488d-2fa7-442a-92da-9c1f2978e670"},"vehicle_type_id":"4","last_reported":1781509756,"current_range_meters":4800,"station_id":"ce4bhmh2rcd13ifvqgmg","pricing_plan_id":"cebpf4jnsgd1na2vs0mg"},{"bike_id":"cdb0ea97-d5a2-47cd-9daa-b96205af8c81","system_id":"levelo_inurba_marseille","lat":43.2872,"lon":5.37913,"is_reserved":false,"is_disabled":false,"rental_uris":{"android":"levelo://app?vid=cdb0ea97-d5a2-47cd-9daa-b96205af8c81","ios":"levelo://app?vid=cdb0ea97-d5a2-47cd-9daa-b96205af8c81"},"vehicle_type_id":"4","last_reported":1781509756,"current_range_meters":4800,"station_id":"ce4bh9p2rcd13ifvqec0","pricing_plan_id":"cebpf4jnsgd1na2vs0mg"},{"bike_id":"869baaa7-4e47-4745-9e8a-5c5805091132","system_id":"levelo_inurba_marseille","lat":43.29267,"lon":5.37631,"is_reserved":false,"is_disabled":false,"rental_uris":{"android":"levelo://app?vid=869baaa7-4e47-4745-9e8a-5c5805091132","ios":"levelo://app?vid=869baaa7-4e47-4745-9e8a-5c5805091132"},"vehicle_type_id":"4","last_reported":1781509756,"current_range_meters":4800,"station_id":"ce4bgi12rcd13ifvqb80","pricing_plan_id":"cebpf4jnsgd1na2vs0mg"},{"bike_id":"a88b29eb-306e-48f7-9eec-a3658ccccaf8","system_id":"levelo_inurba_marseille","lat":43.32125,"lon":5.36739,"is_reserved":false,"is_disabled":false,"rental_uris":{"android":"levelo://app?vid=a88b29eb-306e-48f7-9eec-a3658ccccaf8","ios":"levelo://app?vid=a88b29eb-306e-48f7-9eec-a3658ccccaf8"},"vehicle_type_id":"4","last_reported":1781509756,"current_range_meters":4800,"station_id":"ce4bhrh2rcd13ifvqhug","pricing_plan_id":"cebpf4jnsgd1na2vs0mg"},{"bike_id":"fcf4d312-9968-4443-82f2-b045268fd358","system_id":"levelo_inurba_marseille","lat":43.29917,"lon":5.41054,"is_reserved":false,"is_disabled":false,"rental_uris":{"android":"levelo://app?vid=fcf4d312-9968-4443-82f2-b045268fd358","ios":"levelo://app?vid=fcf4d312-9968-4443-82f2-b045268fd358"},"vehicle_type_id":"4","last_reported":1781509756,"current_range_meters":4800,"station_id":"","pricing_plan_id":"cebpf4jnsgd1na2vs0mg"},{"bike_id":"f8de8b5b-5261-4890-9f15-57effedc57f9","system_id":"levelo_inurba_marseille","lat":43.2454,"lon":5.39524,"is_reserved":false,"is_disabled":false,"rental_uris":{"android":"levelo://app?vid=f8de8b5b-5261-4890-9f15-57effedc57f9","ios":"levelo://app?vid=f8de8b5b-5261-4890-9f15-57effedc57f9"},"vehicle_type_id":"4","last_reported":1781509756,"current_range_meters":4800,"station_id":"ce4bhlp2rcd13ifvqgjg","pricing_plan_id":"cebpf4jnsgd1na2vs0mg"},{"bike_id":"a2730de2-b929-4a94-b00a-aa03d1ebfd2f","system_id":"levelo_inurba_marseille","lat":43.30532,"lon":5.36464,"is_reserved":false,"is_disabled":false,"rental_uris":{"android":"levelo://app?vid=a2730de2-b929-4a94-b00a-aa03d1ebfd2f","ios":"levelo://app?vid=a2730de2-b929-4a94-b00a-aa03d1ebfd2f"},"vehicle_type_id":"4","last_reported":1781509756,"current_range_meters":4800,"station_id":"ce4bgs12rcd13ifvqcag","pricing_plan_id":"cebpf4jnsgd1na2vs0mg"},{"bike_id":"6dc25e52-6b88-4c5e-8ae9-906a6117a542","system_id":"levelo_inurba_marseille","lat":43.28269,"lon":5.35073,"is_reserved":false,"is_disabled":false,"rental_uris":{"android":"levelo://app?vid=6dc25e52-6b88-4c5e-8ae9-906a6117a542","ios":"levelo://app?vid=6dc25e52-6b88-4c5e-8ae9-906a6117a542"},"vehicle_type_id":"4","last_reported":1781509756,"current_range_meters":5600,"station_id":"ce4bhbp2rcd13ifvqerg","pricing_plan_id":"cebpf4jnsgd1na2vs0mg"},{"bike_id":"78f0ab8e-e903-4a47-90fa-31dcb6593978","system_id":"levelo_inurba_marseille","lat":43.3053,"lon":5.36526,"is_reserved":false,"is_disabled":false,"rental_uris":{"android":"levelo://app?vid=78f0ab8e-e903-4a47-90fa-31dcb6593978","ios":"levelo://app?vid=78f0ab8e-e903-4a47-90fa-31dcb6593978"},"vehicle_type_id":"4","last_reported":1781509756,"current_range_meters":5600,"station_id":"ce4bgs12rcd13ifvqcag","pricing_plan_id":"cebpf4jnsgd1na2vs0mg"},{"bike_id":"83da615f-1562-4a35-a0af-fd9fc9c800b5","system_id":"levelo_inurba_marseille","lat":43.29985,"lon":5.37569,"is_reserved":false,"is_disabled":false,"rental_uris":{"android":"levelo://app?vid=83da615f-1562-4a35-a0af-fd9fc9c800b5","ios":"levelo://app?vid=83da615f-1562-4a35-a0af-fd9fc9c800b5"},"vehicle_type_id":"4","last_reported":1781509756,"current_range_meters":5600,"station_id":"","pricing_plan_id":"cebpf4jnsgd1na2vs0mg"},{"bike_id":"b6544458-dc78-49e9-9c67-04f6030fd736","system_id":"levelo_inurba_marseille","lat":43.24056,"lon":5.37734,"is_reserved":false,"is_disabled":false,"rental_uris":{"android":"levelo://app?vid=b6544458-dc78-49e9-9c67-04f6030fd736","ios":"levelo://app?vid=b6544458-dc78-49e9-9c67-04f6030fd736"},"vehicle_type_id":"4","last_reported":1781509756,"current_range_meters":5600,"station_id":"ce4bhnp2rcd13ifvqgvg","pricing_plan_id":"cebpf4jnsgd1na2vs0mg"},{"bike_id":"79784559-9f7b-422b-bd1a-784e46b44f54","system_id":"levelo_inurba_marseille","lat":43.26236,"lon":5.38978,"is_reserved":false,"is_disabled":false,"rental_uris":{"android":"levelo://app?vid=79784559-9f7b-422b-bd1a-784e46b44f54","ios":"levelo://app?vid=79784559-9f7b-422b-bd1a-784e46b44f54"},"vehicle_type_id":"4","last_reported":1781509756,"current_range_meters":5600,"station_id":"","pricing_plan_id":"cebpf4jnsgd1na2vs0mg"},{"bike_id":"6e787f44-0de2-444e-bedf-60804042a8f4","system_id":"levelo_inurba_marseille","lat":43.31232,"lon":5.36825,"is_reserved":false,"is_disabled":true,"rental_uris":{"android":"levelo://app?vid=6e787f44-0de2-444e-bedf-60804042a8f4","ios":"levelo://app?vid=6e787f44-0de2-444e-bedf-60804042a8f4"},"vehicle_type_id":"4","last_reported":1781509756,"current_range_meters":5600,"station_id":"ce4bgl92rcd13ifvqbq0","pricing_plan_id":"cebpf4jnsgd1na2vs0mg"},{"bike_id":"3f79f6bd-6890-498c-9016-7fee5e242811","system_id":"levelo_inurba_marseille","lat":43.23191,"lon":5.35552,"is_reserved":false,"is_disabled":false,"rental_uris":{"android":"levelo://app?vid=3f79f6bd-6890-498c-9016-7fee5e242811","ios":"levelo://app?vid=3f79f6bd-6890-498c-9016-7fee5e242811"},"vehicle_type_id":"4","last_reported":1781509756,"current_range_meters":5600,"station_id":"ce4bhu92rcd13ifvqi70","pricing_plan_id":"cebpf4jnsgd1na2vs0mg"},{"bike_id":"9292243b-0e6e-43af-a00f-e2b3cb8862f5","system_id":"levelo_inurba_marseille","lat":43.3234,"lon":5.36722,"is_reserved":false,"is_disabled":false,"rental_uris":{"android":"levelo://app?vid=9292243b-0e6e-43af-a00f-e2b3cb8862f5","ios":"levelo://app?vid=9292243b-0e6e-43af-a00f-e2b3cb8862f5"},"vehicle_type_id":"4","last_reported":1781509756,"current_range_meters":5600,"station_id":"ce4bhsh2rcd13ifvqi2g","pricing_plan_id":"cebpf4jnsgd1na2vs0mg"},{"bike_id":"7a354cf6-73a6-4286-b7a0-43f35a2c3594","system_id":"levelo_inurba_marseille","lat":43.25723,"lon":5.41098,"is_reserved":false,"is_disabled":false,"rental_uris":{"android":"levelo://app?vid=7a354cf6-73a6-4286-b7a0-43f35a2c3594","ios":"levelo://app?vid=7a354cf6-73a6-4286-b7a0-43f35a2c3594"},"vehicle_type_id":"4","last_reported":1781509756,"current_range_meters":5600,"station_id":"ce4bhkp2rcd13ifvqgd0","pricing_plan_id":"cebpf4jnsgd1na2vs0mg"},{"bike_id":"8b3ccc27-371e-4897-b5d7-7688acb22644","system_id":"levelo_inurba_marseille","lat":43.25339,"lon":5.42141,"is_reserved":false,"is_disabled":false,"rental_uris":{"android":"levelo://app?vid=8b3ccc27-371e-4897-b5d7-7688acb22644","ios":"levelo://app?vid=8b3ccc27-371e-4897-b5d7-7688acb22644"},"vehicle_type_id":"4","last_reported":1781509756,"current_range_meters":5600,"station_id":"st_d2m65c5bi1j21697t3ng","pricing_plan_id":"cebpf4jnsgd1na2vs0mg"},{"bike_id":"c1d734fd-9377-400d-8dda-b844a392e7e1","system_id":"levelo_inurba_marseille","lat":43.28377,"lon":5.38644,"is_reserved":false,"is_disabled":true,"rental_uris":{"android":"levelo://app?vid=c1d734fd-9377-400d-8dda-b844a392e7e1","ios":"levelo://app?vid=c1d734fd-9377-400d-8dda-b844a392e7e1"},"vehicle_type_id":"4","last_reported":1781509756,"current_range_meters":5600,"station_id":"ce4bh492rcd13ifvqdvg","pricing_plan_id":"cebpf4jnsgd1na2vs0mg"},{"bike_id":"29d24c14-4210-41d6-8f11-e1e7bb655652","system_id":"levelo_inurba_marseille","lat":43.26664,"lon":5.38294,"is_reserved":false,"is_disabled":true,"rental_uris":{"android":"levelo://app?vid=29d24c14-4210-41d6-8f11-e1e7bb655652","ios":"levelo://app?vid=29d24c14-4210-41d6-8f11-e1e7bb655652"},"vehicle_type_id":"4","last_reported":1781509756,"current_range_meters":5600,"station_id":"ce4bhg92rcd13ifvqf90","pricing_plan_id":"cebpf4jnsgd1na2vs0mg"},{"bike_id":"489d9bc7-2008-4553-b96c-0501c55ee648","system_id":"levelo_inurba_marseille","lat":43.22938,"lon":5.35338,"is_reserved":false,"is_disabled":false,"rental_uris":{"android":"levelo://app?vid=489d9bc7-2008-4553-b96c-0501c55ee648","ios":"levelo://app?vid=489d9bc7-2008-4553-b96c-0501c55ee648"},"vehicle_type_id":"4","last_reported":1781509756,"current_range_meters":5600,"station_id":"cpo3532slgdg3j2ikp40","pricing_plan_id":"cebpf4jnsgd1na2vs0mg"},{"bike_id":"bff5706c-a9aa-4f26-a458-9b3ab699ee75","system_id":"levelo_inurba_marseille","lat":43.31681,"lon":5.40463,"is_reserved":false,"is_disabled":false,"rental_uris":{"android":"levelo://app?vid=bff5706c-a9aa-4f26-a458-9b3ab699ee75","ios":"levelo://app?vid=bff5706c-a9aa-4f26-a458-9b3ab699ee75"},"vehicle_type_id":"4","last_reported":1781509756,"current_range_meters":5600,"station_id":"ce4bh012rcd13ifvqd00","pricing_plan_id":"cebpf4jnsgd1na2vs0mg"},{"bike_id":"d0489e5d-5e49-4107-b1f0-a45cba35bcbc","system_id":"levelo_inurba_marseille","lat":43.26557,"lon":5.37283,"is_reserved":false,"is_disabled":false,"rental_uris":{"android":"levelo://app?vid=d0489e5d-5e49-4107-b1f0-a45cba35bcbc","ios":"levelo://app?vid=d0489e5d-5e49-4107-b1f0-a45cba35bcbc"},"vehicle_type_id":"4","last_reported":1781509756,"current_range_meters":5600,"station_id":"ce4bhg12rcd13ifvqf70","pricing_plan_id":"cebpf4jnsgd1na2vs0mg"},{"bike_id":"40f9fd1b-628e-484e-8a21-e0687f6fd82d","system_id":"levelo_inurba_marseille","lat":43.25167,"lon":5.37454,"is_reserved":false,"is_disabled":false,"rental_uris":{"android":"levelo://app?vid=40f9fd1b-628e-484e-8a21-e0687f6fd82d","ios":"levelo://app?vid=40f9fd1b-628e-484e-8a21-e0687f6fd82d"},"vehicle_type_id":"4","last_reported":1781509756,"current_range_meters":5600,"station_id":"","pricing_plan_id":"cebpf4jnsgd1na2vs0mg"},{"bike_id":"beb16f86-a91e-49fd-b131-2bcbc7a76bdd","system_id":"levelo_inurba_marseille","lat":43.28472,"lon":5.38514,"is_reserved":false,"is_disabled":false,"rental_uris":{"android":"levelo://app?vid=beb16f86-a91e-49fd-b131-2bcbc7a76bdd","ios":"levelo://app?vid=beb16f86-a91e-49fd-b131-2bcbc7a76bdd"},"vehicle_type_id":"4","last_reported":1781509756,"current_range_meters":6000,"station_id":"ce4bh8p2rcd13ifvqeb0","pricing_plan_id":"cebpf4jnsgd1na2vs0mg"},{"bike_id":"bb2b8605-01de-4068-976a-c32a5cbafae1","system_id":"levelo_inurba_marseille","lat":43.28479,"lon":5.48384,"is_reserved":false,"is_disabled":false,"rental_uris":{"android":"levelo://app?vid=bb2b8605-01de-4068-976a-c32a5cbafae1","ios":"levelo://app?vid=bb2b8605-01de-4068-976a-c32a5cbafae1"},"vehicle_type_id":"4","last_reported":1781509756,"current_range_meters":6000,"station_id":"st_d3svhcjqgbts73a3dn0g","pricing_plan_id":"cebpf4jnsgd1na2vs0mg"},{"bike_id":"a0d1bf4d-a440-41ba-9adb-b6a33327b45c","system_id":"levelo_inurba_marseille","lat":43.24393,"lon":5.37046,"is_reserved":false,"is_disabled":false,"rental_uris":{"android":"levelo://app?vid=a0d1bf4d-a440-41ba-9adb-b6a33327b45c","ios":"levelo://app?vid=a0d1bf4d-a440-41ba-9adb-b6a33327b45c"},"vehicle_type_id":"4","last_reported":1781509756,"current_range_meters":6000,"station_id":"ce4bhhh2rcd13ifvqfk0","pricing_plan_id":"cebpf4jnsgd1na2vs0mg"},{"bike_id":"7eeaf6d7-2f5a-4a87-9b67-3e6261d765cb","system_id":"levelo_inurba_marseille","lat":43.29038,"lon":5.38129,"is_reserved":false,"is_disabled":false,"rental_uris":{"android":"levelo://app?vid=7eeaf6d7-2f5a-4a87-9b67-3e6261d765cb","ios":"levelo://app?vid=7eeaf6d7-2f5a-4a87-9b67-3e6261d765cb"},"vehicle_type_id":"4","last_reported":1781509756,"current_range_meters":6000,"station_id":"ce4bh4p2rcd13ifvqe1g","pricing_plan_id":"cebpf4jnsgd1na2vs0mg"},{"bike_id":"1878ca41-c3cc-4c82-b85a-447a62d7bbe4","system_id":"levelo_inurba_marseille","lat":43.23966,"lon":5.3663,"is_reserved":false,"is_disabled":false,"rental_uris":{"android":"levelo://app?vid=1878ca41-c3cc-4c82-b85a-447a62d7bbe4","ios":"levelo://app?vid=1878ca41-c3cc-4c82-b85a-447a62d7bbe4"},"vehicle_type_id":"4","last_reported":1781509756,"current_range_meters":6000,"station_id":"ce4bhi12rcd13ifvqfp0","pricing_plan_id":"cebpf4jnsgd1na2vs0mg"},{"bike_id":"98279e56-9041-489f-a865-e19a2b58f3ad","system_id":"levelo_inurba_marseille","lat":43.337227,"lon":5.392013,"is_reserved":false,"is_disabled":false,"rental_uris":{"android":"levelo://app?vid=98279e56-9041-489f-a865-e19a2b58f3ad","ios":"levelo://app?vid=98279e56-9041-489f-a865-e19a2b58f3ad"},"vehicle_type_id":"4","last_reported":1781509756,"current_range_meters":6000,"station_id":"ce4bhr92rcd13ifvqhsg","pricing_plan_id":"cebpf4jnsgd1na2vs0mg"},{"bike_id":"21adc2d5-b0f2-4a40-bb03-cf3eb484e314","system_id":"levelo_inurba_marseille","lat":43.32466,"lon":5.36585,"is_reserved":false,"is_disabled":false,"rental_uris":{"android":"levelo://app?vid=21adc2d5-b0f2-4a40-bb03-cf3eb484e314","ios":"levelo://app?vid=21adc2d5-b0f2-4a40-bb03-cf3eb484e314"},"vehicle_type_id":"4","last_reported":1781509756,"current_range_meters":6000,"station_id":"ce4bhs12rcd13ifvqhvg","pricing_plan_id":"cebpf4jnsgd1na2vs0mg"},{"bike_id":"a4b18ceb-81ee-4b7e-b354-f53e0ef00b9f","system_id":"levelo_inurba_marseille","lat":43.27416,"lon":5.38698,"is_reserved":false,"is_disabled":false,"rental_uris":{"android":"levelo://app?vid=a4b18ceb-81ee-4b7e-b354-f53e0ef00b9f","ios":"levelo://app?vid=a4b18ceb-81ee-4b7e-b354-f53e0ef00b9f"},"vehicle_type_id":"4","last_reported":1781509756,"current_range_meters":6000,"station_id":"","pricing_plan_id":"cebpf4jnsgd1na2vs0mg"},{"bike_id":"96788da8-410f-4d64-ae00-d4d2822d86a9","system_id":"levelo_inurba_marseille","lat":43.23144,"lon":5.43701,"is_reserved":false,"is_disabled":false,"rental_uris":{"android":"levelo://app?vid=96788da8-410f-4d64-ae00-d4d2822d86a9","ios":"levelo://app?vid=96788da8-410f-4d64-ae00-d4d2822d86a9"},"vehicle_type_id":"4","last_reported":1781509756,"current_range_meters":6000,"station_id":"ce4bhmp2rcd13ifvqgog","pricing_plan_id":"cebpf4jnsgd1na2vs0mg"},{"bike_id":"25c4ead5-8c08-4f05-8849-8e9674ff5adc","system_id":"levelo_inurba_marseille","lat":43.30539,"lon":5.36557,"is_reserved":false,"is_disabled":false,"rental_uris":{"android":"levelo://app?vid=25c4ead5-8c08-4f05-8849-8e9674ff5adc","ios":"levelo://app?vid=25c4ead5-8c08-4f05-8849-8e9674ff5adc"},"vehicle_type_id":"4","last_reported":1781509756,"current_range_meters":6000,"station_id":"ce4bgs12rcd13ifvqcag","pricing_plan_id":"cebpf4jnsgd1na2vs0mg"},{"bike_id":"423f6182-a443-4c34-a818-81a8277ac3c4","system_id":"levelo_inurba_marseille","lat":43.2253,"lon":5.34838,"is_reserved":false,"is_disabled":false,"rental_uris":{"android":"levelo://app?vid=423f6182-a443-4c34-a818-81a8277ac3c4","ios":"levelo://app?vid=423f6182-a443-4c34-a818-81a8277ac3c4"},"vehicle_type_id":"4","last_reported":1781509756,"current_range_meters":6000,"station_id":"st_cvj5dfep6f1abm77gieg","pricing_plan_id":"cebpf4jnsgd1na2vs0mg"},{"bike_id":"2d90c29c-19de-4865-bf09-35e710f8c3ad","system_id":"levelo_inurba_marseille","lat":43.31683,"lon":5.40454,"is_reserved":false,"is_disabled":false,"rental_uris":{"android":"levelo://app?vid=2d90c29c-19de-4865-bf09-35e710f8c3ad","ios":"levelo://app?vid=2d90c29c-19de-4865-bf09-35e710f8c3ad"},"vehicle_type_id":"4","last_reported":1781509756,"current_range_meters":6000,"station_id":"ce4bh012rcd13ifvqd00","pricing_plan_id":"cebpf4jnsgd1na2vs0mg"},{"bike_id":"182d1bf5-086e-469e-a37a-df64c4d0603f","system_id":"levelo_inurba_marseille","lat":43.31509,"lon":5.38581,"is_reserved":false,"is_disabled":false,"rental_uris":{"android":"levelo://app?vid=182d1bf5-086e-469e-a37a-df64c4d0603f","ios":"levelo://app?vid=182d1bf5-086e-469e-a37a-df64c4d0603f"},"vehicle_type_id":"4","last_reported":1781509756,"current_range_meters":6400,"station_id":"","pricing_plan_id":"cebpf4jnsgd1na2vs0mg"},{"bike_id":"d02e5f84-94fe-4c7a-901b-47c3f5f28fe9","system_id":"levelo_inurba_marseille","lat":43.31876,"lon":5.36804,"is_reserved":false,"is_disabled":false,"rental_uris":{"android":"levelo://app?vid=d02e5f84-94fe-4c7a-901b-47c3f5f28fe9","ios":"levelo://app?vid=d02e5f84-94fe-4c7a-901b-47c3f5f28fe9"},"vehicle_type_id":"4","last_reported":1781509756,"current_range_meters":6400,"station_id":"st_d6o2h0d0559c73evc1b0","pricing_plan_id":"cebpf4jnsgd1na2vs0mg"},{"bike_id":"c1b158b5-fdc9-4eb0-8418-c97cbe8616d7","system_id":"levelo_inurba_marseille","lat":43.3144,"lon":5.3739,"is_reserved":false,"is_disabled":false,"rental_uris":{"android":"levelo://app?vid=c1b158b5-fdc9-4eb0-8418-c97cbe8616d7","ios":"levelo://app?vid=c1b158b5-fdc9-4eb0-8418-c97cbe8616d7"},"vehicle_type_id":"4","last_reported":1781509756,"current_range_meters":6400,"station_id":"","pricing_plan_id":"cebpf4jnsgd1na2vs0mg"},{"bike_id":"d8c7b01f-b800-4aad-abc0-82e31b1f3cf0","system_id":"levelo_inurba_marseille","lat":43.26685,"lon":5.38274,"is_reserved":false,"is_disabled":false,"rental_uris":{"android":"levelo://app?vid=d8c7b01f-b800-4aad-abc0-82e31b1f3cf0","ios":"levelo://app?vid=d8c7b01f-b800-4aad-abc0-82e31b1f3cf0"},"vehicle_type_id":"4","last_reported":1781509756,"current_range_meters":6400,"station_id":"ce4bhg92rcd13ifvqf90","pricing_plan_id":"cebpf4jnsgd1na2vs0mg"},{"bike_id":"33256d2c-5c01-45fe-af55-4a654f52e42a","system_id":"levelo_inurba_marseille","lat":43.23888,"lon":5.36538,"is_reserved":false,"is_disabled":false,"rental_uris":{"android":"levelo://app?vid=33256d2c-5c01-45fe-af55-4a654f52e42a","ios":"levelo://app?vid=33256d2c-5c01-45fe-af55-4a654f52e42a"},"vehicle_type_id":"4","last_reported":1781509756,"current_range_meters":6400,"station_id":"","pricing_plan_id":"cebpf4jnsgd1na2vs0mg"},{"bike_id":"3bacd4ed-11c6-46f9-900e-82fa56cc5aac","system_id":"levelo_inurba_marseille","lat":43.31329,"lon":5.36722,"is_reserved":false,"is_disabled":false,"rental_uris":{"android":"levelo://app?vid=3bacd4ed-11c6-46f9-900e-82fa56cc5aac","ios":"levelo://app?vid=3bacd4ed-11c6-46f9-900e-82fa56cc5aac"},"vehicle_type_id":"4","last_reported":1781509756,"current_range_meters":6400,"station_id":"ce4bgr92rcd13ifvqc6g","pricing_plan_id":"cebpf4jnsgd1na2vs0mg"},{"bike_id":"42d97131-d120-4ec3-9bfe-e950090be9f5","system_id":"levelo_inurba_marseille","lat":43.29034,"lon":5.39954,"is_reserved":false,"is_disabled":false,"rental_uris":{"android":"levelo://app?vid=42d97131-d120-4ec3-9bfe-e950090be9f5","ios":"levelo://app?vid=42d97131-d120-4ec3-9bfe-e950090be9f5"},"vehicle_type_id":"4","last_reported":1781509756,"current_range_meters":6400,"station_id":"ce4bh392rcd13ifvqdm0","pricing_plan_id":"cebpf4jnsgd1na2vs0mg"},{"bike_id":"c508c680-350f-4b00-8760-e18d7eb1a8a8","system_id":"levelo_inurba_marseille","lat":43.30457,"lon":5.37901,"is_reserved":false,"is_disabled":false,"rental_uris":{"android":"levelo://app?vid=c508c680-350f-4b00-8760-e18d7eb1a8a8","ios":"levelo://app?vid=c508c680-350f-4b00-8760-e18d7eb1a8a8"},"vehicle_type_id":"4","last_reported":1781509756,"current_range_meters":6400,"station_id":"ce4bgup2rcd13ifvqcn0","pricing_plan_id":"cebpf4jnsgd1na2vs0mg"},{"bike_id":"e564e0e4-d7eb-42f9-9d80-011d9ff66f38","system_id":"levelo_inurba_marseille","lat":43.3095,"lon":5.39033,"is_reserved":false,"is_disabled":false,"rental_uris":{"android":"levelo://app?vid=e564e0e4-d7eb-42f9-9d80-011d9ff66f38","ios":"levelo://app?vid=e564e0e4-d7eb-42f9-9d80-011d9ff66f38"},"vehicle_type_id":"4","last_reported":1781509756,"current_range_meters":6400,"station_id":"ce4bgup2rcd13ifvqco0","pricing_plan_id":"cebpf4jnsgd1na2vs0mg"},{"bike_id":"a04fcf34-c29d-4e73-8f0f-34af65586646","system_id":"levelo_inurba_marseille","lat":43.29922,"lon":5.38184,"is_reserved":false,"is_disabled":false,"rental_uris":{"android":"levelo://app?vid=a04fcf34-c29d-4e73-8f0f-34af65586646","ios":"levelo://app?vid=a04fcf34-c29d-4e73-8f0f-34af65586646"},"vehicle_type_id":"4","last_reported":1781509756,"current_range_meters":6400,"station_id":"ce4bgj12rcd13ifvqbc0","pricing_plan_id":"cebpf4jnsgd1na2vs0mg"},{"bike_id":"617b4109-ac17-4aab-aa21-1961a3d15ef8","system_id":"levelo_inurba_marseille","lat":43.29725,"lon":5.36611,"is_reserved":false,"is_disabled":true,"rental_uris":{"android":"levelo://app?vid=617b4109-ac17-4aab-aa21-1961a3d15ef8","ios":"levelo://app?vid=617b4109-ac17-4aab-aa21-1961a3d15ef8"},"vehicle_type_id":"4","last_reported":1781509756,"current_range_meters":6400,"station_id":"ce4bgn12rcd13ifvqbt0","pricing_plan_id":"cebpf4jnsgd1na2vs0mg"},{"bike_id":"eac41d6b-cc75-4d68-af66-86c4dfa39f72","system_id":"levelo_inurba_marseille","lat":43.30148,"lon":5.38088,"is_reserved":false,"is_disabled":false,"rental_uris":{"android":"levelo://app?vid=eac41d6b-cc75-4d68-af66-86c4dfa39f72","ios":"levelo://app?vid=eac41d6b-cc75-4d68-af66-86c4dfa39f72"},"vehicle_type_id":"4","last_reported":1781509756,"current_range_meters":6400,"station_id":"ce4bgjp2rcd13ifvqbh0","pricing_plan_id":"cebpf4jnsgd1na2vs0mg"},{"bike_id":"25692fdd-8735-4ac1-befa-97e9aba2ff71","system_id":"levelo_inurba_marseille","lat":43.22536,"lon":5.3482,"is_reserved":false,"is_disabled":false,"rental_uris":{"android":"levelo://app?vid=25692fdd-8735-4ac1-befa-97e9aba2ff71","ios":"levelo://app?vid=25692fdd-8735-4ac1-befa-97e9aba2ff71"},"vehicle_type_id":"4","last_reported":1781509756,"current_range_meters":6400,"station_id":"st_cvj5dfep6f1abm77gieg","pricing_plan_id":"cebpf4jnsgd1na2vs0mg"},{"bike_id":"77d9e9cf-823e-46f5-857c-431011d2d91f","system_id":"levelo_inurba_marseille","lat":43.29644,"lon":5.40553,"is_reserved":false,"is_disabled":false,"rental_uris":{"android":"levelo://app?vid=77d9e9cf-823e-46f5-857c-431011d2d91f","ios":"levelo://app?vid=77d9e9cf-823e-46f5-857c-431011d2d91f"},"vehicle_type_id":"4","last_reported":1781509756,"current_range_meters":6400,"station_id":"ce4bh0h2rcd13ifvqd60","pricing_plan_id":"cebpf4jnsgd1na2vs0mg"},{"bike_id":"eecbdf4a-1256-4cd3-894b-717ff2614a24","system_id":"levelo_inurba_marseille","lat":43.23754,"lon":5.37763,"is_reserved":false,"is_disabled":false,"rental_uris":{"android":"levelo://app?vid=eecbdf4a-1256-4cd3-894b-717ff2614a24","ios":"levelo://app?vid=eecbdf4a-1256-4cd3-894b-717ff2614a24"},"vehicle_type_id":"4","last_reported":1781509756,"current_range_meters":6800,"station_id":"","pricing_plan_id":"cebpf4jnsgd1na2vs0mg"},{"bike_id":"c37d397e-b2f6-442e-acb6-1796657e2ba6","system_id":"levelo_inurba_marseille","lat":43.22566,"lon":5.41627,"is_reserved":false,"is_disabled":false,"rental_uris":{"android":"levelo://app?vid=c37d397e-b2f6-442e-acb6-1796657e2ba6","ios":"levelo://app?vid=c37d397e-b2f6-442e-acb6-1796657e2ba6"},"vehicle_type_id":"4","last_reported":1781509756,"current_range_meters":6800,"station_id":"st_d2o4gvlbi1j2169b742g","pricing_plan_id":"cebpf4jnsgd1na2vs0mg"},{"bike_id":"106f0fdb-a564-4efc-ac17-872f8836227c","system_id":"levelo_inurba_marseille","lat":43.26068,"lon":5.39393,"is_reserved":false,"is_disabled":true,"rental_uris":{"android":"levelo://app?vid=106f0fdb-a564-4efc-ac17-872f8836227c","ios":"levelo://app?vid=106f0fdb-a564-4efc-ac17-872f8836227c"},"vehicle_type_id":"4","last_reported":1781509756,"current_range_meters":6800,"station_id":"ce4bhh92rcd13ifvqfj0","pricing_plan_id":"cebpf4jnsgd1na2vs0mg"},{"bike_id":"2d5036af-f9df-45c6-97e4-648868345309","system_id":"levelo_inurba_marseille","lat":43.32534,"lon":5.38718,"is_reserved":false,"is_disabled":false,"rental_uris":{"android":"levelo://app?vid=2d5036af-f9df-45c6-97e4-648868345309","ios":"levelo://app?vid=2d5036af-f9df-45c6-97e4-648868345309"},"vehicle_type_id":"4","last_reported":1781509756,"current_range_meters":6800,"station_id":"","pricing_plan_id":"cebpf4jnsgd1na2vs0mg"},{"bike_id":"79af4283-c1d5-4033-a3a7-48e50ad05d77","system_id":"levelo_inurba_marseille","lat":43.296177,"lon":5.380267,"is_reserved":false,"is_disabled":false,"rental_uris":{"android":"levelo://app?vid=79af4283-c1d5-4033-a3a7-48e50ad05d77","ios":"levelo://app?vid=79af4283-c1d5-4033-a3a7-48e50ad05d77"},"vehicle_type_id":"4","last_reported":1781509756,"current_range_meters":6800,"station_id":"","pricing_plan_id":"cebpf4jnsgd1na2vs0mg"},{"bike_id":"7185ec4c-61ff-4b57-a273-b43dbdee3dc1","system_id":"levelo_inurba_marseille","lat":43.30534,"lon":5.36537,"is_reserved":false,"is_disabled":false,"rental_uris":{"android":"levelo://app?vid=7185ec4c-61ff-4b57-a273-b43dbdee3dc1","ios":"levelo://app?vid=7185ec4c-61ff-4b57-a273-b43dbdee3dc1"},"vehicle_type_id":"4","last_reported":1781509756,"current_range_meters":6800,"station_id":"ce4bgs12rcd13ifvqcag","pricing_plan_id":"cebpf4jnsgd1na2vs0mg"},{"bike_id":"b8604cce-7d37-4161-9fa8-974b96b13dca","system_id":"levelo_inurba_marseille","lat":43.26222,"lon":5.3876,"is_reserved":false,"is_disabled":false,"rental_uris":{"android":"levelo://app?vid=b8604cce-7d37-4161-9fa8-974b96b13dca","ios":"levelo://app?vid=b8604cce-7d37-4161-9fa8-974b96b13dca"},"vehicle_type_id":"4","last_reported":1781509756,"current_range_meters":6800,"station_id":"st_d8gjfg747rts73coq3b0","pricing_plan_id":"cebpf4jnsgd1na2vs0mg"},{"bike_id":"f8cb73ac-3d9d-44c2-a350-75fbcb9e7e8a","system_id":"levelo_inurba_marseille","lat":43.26222,"lon":5.38765,"is_reserved":false,"is_disabled":false,"rental_uris":{"android":"levelo://app?vid=f8cb73ac-3d9d-44c2-a350-75fbcb9e7e8a","ios":"levelo://app?vid=f8cb73ac-3d9d-44c2-a350-75fbcb9e7e8a"},"vehicle_type_id":"4","last_reported":1781509756,"current_range_meters":6800,"station_id":"st_d8gjfg747rts73coq3b0","pricing_plan_id":"cebpf4jnsgd1na2vs0mg"},{"bike_id":"abc01caa-7e82-486b-ad5a-e31151d2d0fc","system_id":"levelo_inurba_marseille","lat":43.27716,"lon":5.396,"is_reserved":false,"is_disabled":false,"rental_uris":{"android":"levelo://app?vid=abc01caa-7e82-486b-ad5a-e31151d2d0fc","ios":"levelo://app?vid=abc01caa-7e82-486b-ad5a-e31151d2d0fc"},"vehicle_type_id":"4","last_reported":1781509756,"current_range_meters":6800,"station_id":"","pricing_plan_id":"cebpf4jnsgd1na2vs0mg"},{"bike_id":"d5d2374f-099f-4916-90ad-b9b95ab33b61","system_id":"levelo_inurba_marseille","lat":43.3129,"lon":5.40155,"is_reserved":false,"is_disabled":false,"rental_uris":{"android":"levelo://app?vid=d5d2374f-099f-4916-90ad-b9b95ab33b61","ios":"levelo://app?vid=d5d2374f-099f-4916-90ad-b9b95ab33b61"},"vehicle_type_id":"4","last_reported":1781509756,"current_range_meters":6800,"station_id":"ce4bh092rcd13ifvqd30","pricing_plan_id":"cebpf4jnsgd1na2vs0mg"},{"bike_id":"93be4018-c614-4436-9234-f43484f410ae","system_id":"levelo_inurba_marseille","lat":43.26218,"lon":5.40446,"is_reserved":false,"is_disabled":false,"rental_uris":{"android":"levelo://app?vid=93be4018-c614-4436-9234-f43484f410ae","ios":"levelo://app?vid=93be4018-c614-4436-9234-f43484f410ae"},"vehicle_type_id":"4","last_reported":1781509756,"current_range_meters":6800,"station_id":"ce4bhmh2rcd13ifvqgmg","pricing_plan_id":"cebpf4jnsgd1na2vs0mg"},{"bike_id":"0a237535-4706-4992-aa39-d6f055558c0d","system_id":"levelo_inurba_marseille","lat":43.29789,"lon":5.38073,"is_reserved":false,"is_disabled":false,"rental_uris":{"android":"levelo://app?vid=0a237535-4706-4992-aa39-d6f055558c0d","ios":"levelo://app?vid=0a237535-4706-4992-aa39-d6f055558c0d"},"vehicle_type_id":"4","last_reported":1781509756,"current_range_meters":6800,"station_id":"ce4bgip2rcd13ifvqbb0","pricing_plan_id":"cebpf4jnsgd1na2vs0mg"},{"bike_id":"e218864f-48fc-461e-b91d-f556923c81d1","system_id":"levelo_inurba_marseille","lat":43.282819,"lon":5.350558,"is_reserved":false,"is_disabled":false,"rental_uris":{"android":"levelo://app?vid=e218864f-48fc-461e-b91d-f556923c81d1","ios":"levelo://app?vid=e218864f-48fc-461e-b91d-f556923c81d1"},"vehicle_type_id":"4","last_reported":1781509756,"current_range_meters":6800,"station_id":"ce4bhbp2rcd13ifvqerg","pricing_plan_id":"cebpf4jnsgd1na2vs0mg"},{"bike_id":"cd3c32d8-c396-4750-af84-f7673f6b6e95","system_id":"levelo_inurba_marseille","lat":43.303128,"lon":5.369038,"is_reserved":false,"is_disabled":true,"rental_uris":{"android":"levelo://app?vid=cd3c32d8-c396-4750-af84-f7673f6b6e95","ios":"levelo://app?vid=cd3c32d8-c396-4750-af84-f7673f6b6e95"},"vehicle_type_id":"4","last_reported":1781509756,"current_range_meters":6800,"station_id":"ce4bhgh2rcd13ifvqfb0","pricing_plan_id":"cebpf4jnsgd1na2vs0mg"},{"bike_id":"1f8b513f-39f7-4564-bd35-c94b6aa193a8","system_id":"levelo_inurba_marseille","lat":43.31175,"lon":5.39387,"is_reserved":false,"is_disabled":false,"rental_uris":{"android":"levelo://app?vid=1f8b513f-39f7-4564-bd35-c94b6aa193a8","ios":"levelo://app?vid=1f8b513f-39f7-4564-bd35-c94b6aa193a8"},"vehicle_type_id":"4","last_reported":1781509756,"current_range_meters":6800,"station_id":"","pricing_plan_id":"cebpf4jnsgd1na2vs0mg"},{"bike_id":"a3d18a89-e830-406c-9dc5-a06f71a6c569","system_id":"levelo_inurba_marseille","lat":43.21191,"lon":5.3509,"is_reserved":false,"is_disabled":false,"rental_uris":{"android":"levelo://app?vid=a3d18a89-e830-406c-9dc5-a06f71a6c569","ios":"levelo://app?vid=a3d18a89-e830-406c-9dc5-a06f71a6c569"},"vehicle_type_id":"4","last_reported":1781509756,"current_range_meters":6800,"station_id":"st_cvj6sg6p6f1abm77japg","pricing_plan_id":"cebpf4jnsgd1na2vs0mg"},{"bike_id":"fee0c48e-fc28-47f3-81a7-8455464d4931","system_id":"levelo_inurba_marseille","lat":43.27325,"lon":5.39082,"is_reserved":false,"is_disabled":false,"rental_uris":{"android":"levelo://app?vid=fee0c48e-fc28-47f3-81a7-8455464d4931","ios":"levelo://app?vid=fee0c48e-fc28-47f3-81a7-8455464d4931"},"vehicle_type_id":"4","last_reported":1781509756,"current_range_meters":6800,"station_id":"ce4bhgp2rcd13ifvqfe0","pricing_plan_id":"cebpf4jnsgd1na2vs0mg"},{"bike_id":"4d2bcfd8-ccb0-45c3-9856-778e0ad12846","system_id":"levelo_inurba_marseille","lat":43.24687,"lon":5.38153,"is_reserved":false,"is_disabled":false,"rental_uris":{"android":"levelo://app?vid=4d2bcfd8-ccb0-45c3-9856-778e0ad12846","ios":"levelo://app?vid=4d2bcfd8-ccb0-45c3-9856-778e0ad12846"},"vehicle_type_id":"4","last_reported":1781509756,"current_range_meters":7200,"station_id":"ce4bhih2rcd13ifvqfr0","pricing_plan_id":"cebpf4jnsgd1na2vs0mg"},{"bike_id":"1fed5617-a0ec-423a-9a18-b9dca8c1221b","system_id":"levelo_inurba_marseille","lat":43.23216,"lon":5.35549,"is_reserved":false,"is_disabled":false,"rental_uris":{"android":"levelo://app?vid=1fed5617-a0ec-423a-9a18-b9dca8c1221b","ios":"levelo://app?vid=1fed5617-a0ec-423a-9a18-b9dca8c1221b"},"vehicle_type_id":"4","last_reported":1781509756,"current_range_meters":7200,"station_id":"ce4bhu92rcd13ifvqi70","pricing_plan_id":"cebpf4jnsgd1na2vs0mg"},{"bike_id":"16eff849-602a-4847-9edd-579240b08c01","system_id":"levelo_inurba_marseille","lat":43.24945,"lon":5.3897,"is_reserved":false,"is_disabled":false,"rental_uris":{"android":"levelo://app?vid=16eff849-602a-4847-9edd-579240b08c01","ios":"levelo://app?vid=16eff849-602a-4847-9edd-579240b08c01"},"vehicle_type_id":"4","last_reported":1781509756,"current_range_meters":7200,"station_id":"","pricing_plan_id":"cebpf4jnsgd1na2vs0mg"},{"bike_id":"6d353a02-c0ef-47b6-887d-eae21d4b5810","system_id":"levelo_inurba_marseille","lat":43.25001,"lon":5.38925,"is_reserved":false,"is_disabled":false,"rental_uris":{"android":"levelo://app?vid=6d353a02-c0ef-47b6-887d-eae21d4b5810","ios":"levelo://app?vid=6d353a02-c0ef-47b6-887d-eae21d4b5810"},"vehicle_type_id":"4","last_reported":1781509756,"current_range_meters":7200,"station_id":"ce4bhgp2rcd13ifvqfd0","pricing_plan_id":"cebpf4jnsgd1na2vs0mg"},{"bike_id":"2f78fa63-a177-4b29-84a5-f83a63ce1535","system_id":"levelo_inurba_marseille","lat":43.30325,"lon":5.36875,"is_reserved":false,"is_disabled":false,"rental_uris":{"android":"levelo://app?vid=2f78fa63-a177-4b29-84a5-f83a63ce1535","ios":"levelo://app?vid=2f78fa63-a177-4b29-84a5-f83a63ce1535"},"vehicle_type_id":"4","last_reported":1781509756,"current_range_meters":7200,"station_id":"ce4bgqh2rcd13ifvqc5g","pricing_plan_id":"cebpf4jnsgd1na2vs0mg"},{"bike_id":"b6999bb1-ca94-47a0-8ce4-256459128cc2","system_id":"levelo_inurba_marseille","lat":43.29065,"lon":5.37604,"is_reserved":false,"is_disabled":false,"rental_uris":{"android":"levelo://app?vid=b6999bb1-ca94-47a0-8ce4-256459128cc2","ios":"levelo://app?vid=b6999bb1-ca94-47a0-8ce4-256459128cc2"},"vehicle_type_id":"4","last_reported":1781509756,"current_range_meters":7200,"station_id":"ce4bh692rcd13ifvqe90","pricing_plan_id":"cebpf4jnsgd1na2vs0mg"},{"bike_id":"38963b00-168f-428e-8c8f-3374e52d488a","system_id":"levelo_inurba_marseille","lat":43.29914,"lon":5.37479,"is_reserved":false,"is_disabled":false,"rental_uris":{"android":"levelo://app?vid=38963b00-168f-428e-8c8f-3374e52d488a","ios":"levelo://app?vid=38963b00-168f-428e-8c8f-3374e52d488a"},"vehicle_type_id":"4","last_reported":1781509756,"current_range_meters":7200,"station_id":"ce4bgjh2rcd13ifvqbg0","pricing_plan_id":"cebpf4jnsgd1na2vs0mg"},{"bike_id":"3777aab6-917f-417a-93bd-f645adde36b5","system_id":"levelo_inurba_marseille","lat":43.28969,"lon":5.37834,"is_reserved":false,"is_disabled":false,"rental_uris":{"android":"levelo://app?vid=3777aab6-917f-417a-93bd-f645adde36b5","ios":"levelo://app?vid=3777aab6-917f-417a-93bd-f645adde36b5"},"vehicle_type_id":"4","last_reported":1781509756,"current_range_meters":7200,"station_id":"ce4bh9p2rcd13ifvqed0","pricing_plan_id":"cebpf4jnsgd1na2vs0mg"},{"bike_id":"add0454f-e404-4bef-9edb-aef688484935","system_id":"levelo_inurba_marseille","lat":43.25597,"lon":5.38207,"is_reserved":false,"is_disabled":false,"rental_uris":{"android":"levelo://app?vid=add0454f-e404-4bef-9edb-aef688484935","ios":"levelo://app?vid=add0454f-e404-4bef-9edb-aef688484935"},"vehicle_type_id":"4","last_reported":1781509756,"current_range_meters":7200,"station_id":"ce4bhih2rcd13ifvqfs0","pricing_plan_id":"cebpf4jnsgd1na2vs0mg"},{"bike_id":"52f53646-a8c6-467b-a085-982495434fda","system_id":"levelo_inurba_marseille","lat":43.24458,"lon":5.42539,"is_reserved":false,"is_disabled":true,"rental_uris":{"android":"levelo://app?vid=52f53646-a8c6-467b-a085-982495434fda","ios":"levelo://app?vid=52f53646-a8c6-467b-a085-982495434fda"},"vehicle_type_id":"4","last_reported":1781509756,"current_range_meters":7200,"station_id":"st_d4a3vfp97mjs738cd8kg","pricing_plan_id":"cebpf4jnsgd1na2vs0mg"},{"bike_id":"c9aabddb-8b5c-4663-930f-1f9cf614b6ce","system_id":"levelo_inurba_marseille","lat":43.21742,"lon":5.34595,"is_reserved":false,"is_disabled":true,"rental_uris":{"android":"levelo://app?vid=c9aabddb-8b5c-4663-930f-1f9cf614b6ce","ios":"levelo://app?vid=c9aabddb-8b5c-4663-930f-1f9cf614b6ce"},"vehicle_type_id":"4","last_reported":1781509756,"current_range_meters":7200,"station_id":"st_cvj6r9ubvosntc0bgbag","pricing_plan_id":"cebpf4jnsgd1na2vs0mg"},{"bike_id":"119ee3e3-8912-41dc-9351-0ade13455b09","system_id":"levelo_inurba_marseille","lat":43.29557,"lon":5.42287,"is_reserved":false,"is_disabled":false,"rental_uris":{"android":"levelo://app?vid=119ee3e3-8912-41dc-9351-0ade13455b09","ios":"levelo://app?vid=119ee3e3-8912-41dc-9351-0ade13455b09"},"vehicle_type_id":"4","last_reported":1781509756,"current_range_meters":7200,"station_id":"ce4bhph2rcd13ifvqhdg","pricing_plan_id":"cebpf4jnsgd1na2vs0mg"},{"bike_id":"1f2d1b7b-7fdf-4b71-90f8-83d9585c1d76","system_id":"levelo_inurba_marseille","lat":43.26204,"lon":5.37929,"is_reserved":false,"is_disabled":false,"rental_uris":{"android":"levelo://app?vid=1f2d1b7b-7fdf-4b71-90f8-83d9585c1d76","ios":"levelo://app?vid=1f2d1b7b-7fdf-4b71-90f8-83d9585c1d76"},"vehicle_type_id":"4","last_reported":1781509756,"current_range_meters":7200,"station_id":"ce4bhjp2rcd13ifvqg90","pricing_plan_id":"cebpf4jnsgd1na2vs0mg"},{"bike_id":"f982f396-0580-440b-b504-6779aaf42347","system_id":"levelo_inurba_marseille","lat":43.26205,"lon":5.37931,"is_reserved":false,"is_disabled":false,"rental_uris":{"android":"levelo://app?vid=f982f396-0580-440b-b504-6779aaf42347","ios":"levelo://app?vid=f982f396-0580-440b-b504-6779aaf42347"},"vehicle_type_id":"4","last_reported":1781509756,"current_range_meters":7200,"station_id":"ce4bhjp2rcd13ifvqg90","pricing_plan_id":"cebpf4jnsgd1na2vs0mg"},{"bike_id":"561af892-18b4-4831-b936-11b171641836","system_id":"levelo_inurba_marseille","lat":43.24367,"lon":5.37071,"is_reserved":false,"is_disabled":true,"rental_uris":{"android":"levelo://app?vid=561af892-18b4-4831-b936-11b171641836","ios":"levelo://app?vid=561af892-18b4-4831-b936-11b171641836"},"vehicle_type_id":"4","last_reported":1781509756,"current_range_meters":7200,"station_id":"ce4bhhh2rcd13ifvqfk0","pricing_plan_id":"cebpf4jnsgd1na2vs0mg"},{"bike_id":"bd3727eb-7c12-4366-9972-be7b68a65c0d","system_id":"levelo_inurba_marseille","lat":43.29384,"lon":5.3782,"is_reserved":false,"is_disabled":true,"rental_uris":{"android":"levelo://app?vid=bd3727eb-7c12-4366-9972-be7b68a65c0d","ios":"levelo://app?vid=bd3727eb-7c12-4366-9972-be7b68a65c0d"},"vehicle_type_id":"4","last_reported":1781509756,"current_range_meters":7200,"station_id":"ce4bgjh2rcd13ifvqbf0","pricing_plan_id":"cebpf4jnsgd1na2vs0mg"},{"bike_id":"dfe12791-7bd8-4891-906f-cf1285d09eb3","system_id":"levelo_inurba_marseille","lat":43.26203,"lon":5.37947,"is_reserved":false,"is_disabled":false,"rental_uris":{"android":"levelo://app?vid=dfe12791-7bd8-4891-906f-cf1285d09eb3","ios":"levelo://app?vid=dfe12791-7bd8-4891-906f-cf1285d09eb3"},"vehicle_type_id":"4","last_reported":1781509756,"current_range_meters":7200,"station_id":"ce4bhjp2rcd13ifvqg90","pricing_plan_id":"cebpf4jnsgd1na2vs0mg"},{"bike_id":"b731dd91-d2e5-4c6b-b885-89074fae3642","system_id":"levelo_inurba_marseille","lat":43.25306,"lon":5.38028,"is_reserved":false,"is_disabled":false,"rental_uris":{"android":"levelo://app?vid=b731dd91-d2e5-4c6b-b885-89074fae3642","ios":"levelo://app?vid=b731dd91-d2e5-4c6b-b885-89074fae3642"},"vehicle_type_id":"4","last_reported":1781509756,"current_range_meters":7200,"station_id":"","pricing_plan_id":"cebpf4jnsgd1na2vs0mg"},{"bike_id":"19d8e4f5-dc7f-436b-bea8-863731d7c26c","system_id":"levelo_inurba_marseille","lat":43.25323,"lon":5.42143,"is_reserved":false,"is_disabled":false,"rental_uris":{"android":"levelo://app?vid=19d8e4f5-dc7f-436b-bea8-863731d7c26c","ios":"levelo://app?vid=19d8e4f5-dc7f-436b-bea8-863731d7c26c"},"vehicle_type_id":"4","last_reported":1781509756,"current_range_meters":7200,"station_id":"st_d2m65c5bi1j21697t3ng","pricing_plan_id":"cebpf4jnsgd1na2vs0mg"},{"bike_id":"9990f1f1-17f2-4ca8-9888-62cb20f5b6c3","system_id":"levelo_inurba_marseille","lat":43.32438,"lon":5.36661,"is_reserved":false,"is_disabled":false,"rental_uris":{"android":"levelo://app?vid=9990f1f1-17f2-4ca8-9888-62cb20f5b6c3","ios":"levelo://app?vid=9990f1f1-17f2-4ca8-9888-62cb20f5b6c3"},"vehicle_type_id":"4","last_reported":1781509756,"current_range_meters":7200,"station_id":"","pricing_plan_id":"cebpf4jnsgd1na2vs0mg"},{"bike_id":"bc7ff3f0-9f43-4dc4-9640-bf048c6c4517","system_id":"levelo_inurba_marseille","lat":43.30525,"lon":5.36717,"is_reserved":false,"is_disabled":false,"rental_uris":{"android":"levelo://app?vid=bc7ff3f0-9f43-4dc4-9640-bf048c6c4517","ios":"levelo://app?vid=bc7ff3f0-9f43-4dc4-9640-bf048c6c4517"},"vehicle_type_id":"4","last_reported":1781509756,"current_range_meters":7200,"station_id":"ce4bgrp2rcd13ifvqc9g","pricing_plan_id":"cebpf4jnsgd1na2vs0mg"},{"bike_id":"7bd5aaf9-56b6-48f6-8197-e33e2bf67f68","system_id":"levelo_inurba_marseille","lat":43.2254,"lon":5.3484,"is_reserved":false,"is_disabled":false,"rental_uris":{"android":"levelo://app?vid=7bd5aaf9-56b6-48f6-8197-e33e2bf67f68","ios":"levelo://app?vid=7bd5aaf9-56b6-48f6-8197-e33e2bf67f68"},"vehicle_type_id":"4","last_reported":1781509756,"current_range_meters":7200,"station_id":"st_cvj5dfep6f1abm77gieg","pricing_plan_id":"cebpf4jnsgd1na2vs0mg"},{"bike_id":"7f4d465c-8103-4268-81d7-d9f567282516","system_id":"levelo_inurba_marseille","lat":43.27215,"lon":5.39114,"is_reserved":false,"is_disabled":false,"rental_uris":{"android":"levelo://app?vid=7f4d465c-8103-4268-81d7-d9f567282516","ios":"levelo://app?vid=7f4d465c-8103-4268-81d7-d9f567282516"},"vehicle_type_id":"4","last_reported":1781509756,"current_range_meters":7200,"station_id":"ce4bhhp2rcd13ifvqfm0","pricing_plan_id":"cebpf4jnsgd1na2vs0mg"},{"bike_id":"d13781fd-bf3b-4afd-8dde-d01cb5a8e3a0","system_id":"levelo_inurba_marseille","lat":43.29241,"lon":5.38045,"is_reserved":false,"is_disabled":false,"rental_uris":{"android":"levelo://app?vid=d13781fd-bf3b-4afd-8dde-d01cb5a8e3a0","ios":"levelo://app?vid=d13781fd-bf3b-4afd-8dde-d01cb5a8e3a0"},"vehicle_type_id":"4","last_reported":1781509756,"current_range_meters":7200,"station_id":"","pricing_plan_id":"cebpf4jnsgd1na2vs0mg"},{"bike_id":"b9bd46ff-ab73-4d19-89bc-4276d0cca1fb","system_id":"levelo_inurba_marseille","lat":43.27364,"lon":5.3624,"is_reserved":false,"is_disabled":false,"rental_uris":{"android":"levelo://app?vid=b9bd46ff-ab73-4d19-89bc-4276d0cca1fb","ios":"levelo://app?vid=b9bd46ff-ab73-4d19-89bc-4276d0cca1fb"},"vehicle_type_id":"4","last_reported":1781509756,"current_range_meters":7200,"station_id":"ce4bhbh2rcd13ifvqeo0","pricing_plan_id":"cebpf4jnsgd1na2vs0mg"},{"bike_id":"edc369f1-b5e9-4a1d-8d28-9bc902276a49","system_id":"levelo_inurba_marseille","lat":43.24796,"lon":5.37435,"is_reserved":false,"is_disabled":true,"rental_uris":{"android":"levelo://app?vid=edc369f1-b5e9-4a1d-8d28-9bc902276a49","ios":"levelo://app?vid=edc369f1-b5e9-4a1d-8d28-9bc902276a49"},"vehicle_type_id":"4","last_reported":1781509756,"current_range_meters":8000,"station_id":"ce4bhgh2rcd13ifvqfb0","pricing_plan_id":"cebpf4jnsgd1na2vs0mg"},{"bike_id":"e386d0c8-e4b4-44d0-b548-8a70c615d57c","system_id":"levelo_inurba_marseille","lat":43.2706,"lon":5.40212,"is_reserved":false,"is_disabled":true,"rental_uris":{"android":"levelo://app?vid=e386d0c8-e4b4-44d0-b548-8a70c615d57c","ios":"levelo://app?vid=e386d0c8-e4b4-44d0-b548-8a70c615d57c"},"vehicle_type_id":"4","last_reported":1781509756,"current_range_meters":8000,"station_id":"ce4bhk92rcd13ifvqgc0","pricing_plan_id":"cebpf4jnsgd1na2vs0mg"},{"bike_id":"50e006f0-edf8-4a73-a4be-64a19dcbdd96","system_id":"levelo_inurba_marseille","lat":43.30336,"lon":5.39215,"is_reserved":false,"is_disabled":true,"rental_uris":{"android":"levelo://app?vid=50e006f0-edf8-4a73-a4be-64a19dcbdd96","ios":"levelo://app?vid=50e006f0-edf8-4a73-a4be-64a19dcbdd96"},"vehicle_type_id":"4","last_reported":1781509756,"current_range_meters":8000,"station_id":"ce4bgkh2rcd13ifvqbk0","pricing_plan_id":"cebpf4jnsgd1na2vs0mg"},{"bike_id":"ca3c430a-c3ae-4878-b52f-8dd5fbed1646","system_id":"levelo_inurba_marseille","lat":43.32342,"lon":5.3673,"is_reserved":false,"is_disabled":false,"rental_uris":{"android":"levelo://app?vid=ca3c430a-c3ae-4878-b52f-8dd5fbed1646","ios":"levelo://app?vid=ca3c430a-c3ae-4878-b52f-8dd5fbed1646"},"vehicle_type_id":"4","last_reported":1781509756,"current_range_meters":8000,"station_id":"ce4bhsh2rcd13ifvqi2g","pricing_plan_id":"cebpf4jnsgd1na2vs0mg"},{"bike_id":"ef36c964-a3fa-4afb-9a60-003fd3c65d26","system_id":"levelo_inurba_marseille","lat":43.31473,"lon":5.37283,"is_reserved":false,"is_disabled":false,"rental_uris":{"android":"levelo://app?vid=ef36c964-a3fa-4afb-9a60-003fd3c65d26","ios":"levelo://app?vid=ef36c964-a3fa-4afb-9a60-003fd3c65d26"},"vehicle_type_id":"4","last_reported":1781509756,"current_range_meters":8000,"station_id":"ce4bgt12rcd13ifvqcd0","pricing_plan_id":"cebpf4jnsgd1na2vs0mg"},{"bike_id":"88d11b5b-d371-4357-aa3d-0a1c295191f3","system_id":"levelo_inurba_marseille","lat":43.28702,"lon":5.39935,"is_reserved":false,"is_disabled":false,"rental_uris":{"android":"levelo://app?vid=88d11b5b-d371-4357-aa3d-0a1c295191f3","ios":"levelo://app?vid=88d11b5b-d371-4357-aa3d-0a1c295191f3"},"vehicle_type_id":"4","last_reported":1781509756,"current_range_meters":8000,"station_id":"","pricing_plan_id":"cebpf4jnsgd1na2vs0mg"},{"bike_id":"39dfa545-12db-4745-82c2-2724c73b5c4a","system_id":"levelo_inurba_marseille","lat":43.26021,"lon":5.37572,"is_reserved":false,"is_disabled":true,"rental_uris":{"android":"levelo://app?vid=39dfa545-12db-4745-82c2-2724c73b5c4a","ios":"levelo://app?vid=39dfa545-12db-4745-82c2-2724c73b5c4a"},"vehicle_type_id":"4","last_reported":1781509756,"current_range_meters":8000,"station_id":"ce4bhgh2rcd13ifvqfa0","pricing_plan_id":"cebpf4jnsgd1na2vs0mg"},{"bike_id":"035cd80f-c63b-44c7-9fa7-211fc8e2fbd5","system_id":"levelo_inurba_marseille","lat":43.30196,"lon":5.41768,"is_reserved":false,"is_disabled":false,"rental_uris":{"android":"levelo://app?vid=035cd80f-c63b-44c7-9fa7-211fc8e2fbd5","ios":"levelo://app?vid=035cd80f-c63b-44c7-9fa7-211fc8e2fbd5"},"vehicle_type_id":"4","last_reported":1781509756,"current_range_meters":8000,"station_id":"","pricing_plan_id":"cebpf4jnsgd1na2vs0mg"},{"bike_id":"025ae3e9-1183-4ffc-95ca-b8ce6f7c95d7","system_id":"levelo_inurba_marseille","lat":43.27958,"lon":5.38696,"is_reserved":false,"is_disabled":true,"rental_uris":{"android":"levelo://app?vid=025ae3e9-1183-4ffc-95ca-b8ce6f7c95d7","ios":"levelo://app?vid=025ae3e9-1183-4ffc-95ca-b8ce6f7c95d7"},"vehicle_type_id":"4","last_reported":1781509756,"current_range_meters":8000,"station_id":"ce4bhg12rcd13ifvqf80","pricing_plan_id":"cebpf4jnsgd1na2vs0mg"},{"bike_id":"3f4c5582-d606-42fa-832a-45d784cb1916","system_id":"levelo_inurba_marseille","lat":43.28485,"lon":5.38571,"is_reserved":false,"is_disabled":false,"rental_uris":{"android":"levelo://app?vid=3f4c5582-d606-42fa-832a-45d784cb1916","ios":"levelo://app?vid=3f4c5582-d606-42fa-832a-45d784cb1916"},"vehicle_type_id":"4","last_reported":1781509756,"current_range_meters":8000,"station_id":"ce4bh8p2rcd13ifvqeb0","pricing_plan_id":"cebpf4jnsgd1na2vs0mg"},{"bike_id":"a5acf5dd-7141-4e53-a67a-6e59cb7bc09c","system_id":"levelo_inurba_marseille","lat":43.31761,"lon":5.38975,"is_reserved":false,"is_disabled":false,"rental_uris":{"android":"levelo://app?vid=a5acf5dd-7141-4e53-a67a-6e59cb7bc09c","ios":"levelo://app?vid=a5acf5dd-7141-4e53-a67a-6e59cb7bc09c"},"vehicle_type_id":"4","last_reported":1781509756,"current_range_meters":8000,"station_id":"ce4bhqp2rcd13ifvqhng","pricing_plan_id":"cebpf4jnsgd1na2vs0mg"},{"bike_id":"ca05e859-94fa-4044-8826-aff239396ce0","system_id":"levelo_inurba_marseille","lat":43.2392,"lon":5.4146,"is_reserved":false,"is_disabled":false,"rental_uris":{"android":"levelo://app?vid=ca05e859-94fa-4044-8826-aff239396ce0","ios":"levelo://app?vid=ca05e859-94fa-4044-8826-aff239396ce0"},"vehicle_type_id":"4","last_reported":1781509756,"current_range_meters":8000,"station_id":"","pricing_plan_id":"cebpf4jnsgd1na2vs0mg"},{"bike_id":"d1b2a1bb-5f3e-4dd9-b748-607e05d4203e","system_id":"levelo_inurba_marseille","lat":43.29543,"lon":5.38991,"is_reserved":false,"is_disabled":true,"rental_uris":{"android":"levelo://app?vid=d1b2a1bb-5f3e-4dd9-b748-607e05d4203e","ios":"levelo://app?vid=d1b2a1bb-5f3e-4dd9-b748-607e05d4203e"},"vehicle_type_id":"4","last_reported":1781509756,"current_range_meters":8000,"station_id":"","pricing_plan_id":"cebpf4jnsgd1na2vs0mg"},{"bike_id":"a5cf2c1c-04b4-47f7-9978-0ad956934cfb","system_id":"levelo_inurba_marseille","lat":43.2985,"lon":5.36736,"is_reserved":false,"is_disabled":true,"rental_uris":{"android":"levelo://app?vid=a5cf2c1c-04b4-47f7-9978-0ad956934cfb","ios":"levelo://app?vid=a5cf2c1c-04b4-47f7-9978-0ad956934cfb"},"vehicle_type_id":"4","last_reported":1781509756,"current_range_meters":8000,"station_id":"","pricing_plan_id":"cebpf4jnsgd1na2vs0mg"},{"bike_id":"abe2fef3-d95e-4bcf-be94-c15d1cf45c1a","system_id":"levelo_inurba_marseille","lat":43.27204,"lon":5.39182,"is_reserved":false,"is_disabled":false,"rental_uris":{"android":"levelo://app?vid=abe2fef3-d95e-4bcf-be94-c15d1cf45c1a","ios":"levelo://app?vid=abe2fef3-d95e-4bcf-be94-c15d1cf45c1a"},"vehicle_type_id":"4","last_reported":1781509756,"current_range_meters":8000,"station_id":"ce4bhhp2rcd13ifvqfm0","pricing_plan_id":"cebpf4jnsgd1na2vs0mg"},{"bike_id":"dd293bc6-b379-4dd5-9aa3-0b618446b7d3","system_id":"levelo_inurba_marseille","lat":43.22554,"lon":5.34829,"is_reserved":false,"is_disabled":false,"rental_uris":{"android":"levelo://app?vid=dd293bc6-b379-4dd5-9aa3-0b618446b7d3","ios":"levelo://app?vid=dd293bc6-b379-4dd5-9aa3-0b618446b7d3"},"vehicle_type_id":"4","last_reported":1781509756,"current_range_meters":8000,"station_id":"st_cvj5dfep6f1abm77gieg","pricing_plan_id":"cebpf4jnsgd1na2vs0mg"},{"bike_id":"268c5d25-e599-42c3-aa01-ce55902bbf8e","system_id":"levelo_inurba_marseille","lat":43.29455,"lon":5.38611,"is_reserved":false,"is_disabled":false,"rental_uris":{"android":"levelo://app?vid=268c5d25-e599-42c3-aa01-ce55902bbf8e","ios":"levelo://app?vid=268c5d25-e599-42c3-aa01-ce55902bbf8e"},"vehicle_type_id":"4","last_reported":1781509756,"current_range_meters":8000,"station_id":"","pricing_plan_id":"cebpf4jnsgd1na2vs0mg"},{"bike_id":"752186fd-5eac-4e0c-bf14-a9de49fcf982","system_id":"levelo_inurba_marseille","lat":43.28619,"lon":5.39849,"is_reserved":false,"is_disabled":true,"rental_uris":{"android":"levelo://app?vid=752186fd-5eac-4e0c-bf14-a9de49fcf982","ios":"levelo://app?vid=752186fd-5eac-4e0c-bf14-a9de49fcf982"},"vehicle_type_id":"4","last_reported":1781509756,"current_range_meters":8000,"station_id":"st_d4a7ka997mjs738ck50g","pricing_plan_id":"cebpf4jnsgd1na2vs0mg"},{"bike_id":"e3e35edf-def4-43d2-b6fa-0ecca2f1234f","system_id":"levelo_inurba_marseille","lat":43.27665,"lon":5.38898,"is_reserved":false,"is_disabled":false,"rental_uris":{"android":"levelo://app?vid=e3e35edf-def4-43d2-b6fa-0ecca2f1234f","ios":"levelo://app?vid=e3e35edf-def4-43d2-b6fa-0ecca2f1234f"},"vehicle_type_id":"4","last_reported":1781509756,"current_range_meters":8000,"station_id":"ce4bhi12rcd13ifvqfo0","pricing_plan_id":"cebpf4jnsgd1na2vs0mg"},{"bike_id":"0284034b-da83-44a5-89e8-3385e95d5194","system_id":"levelo_inurba_marseille","lat":43.32283,"lon":5.43981,"is_reserved":false,"is_disabled":false,"rental_uris":{"android":"levelo://app?vid=0284034b-da83-44a5-89e8-3385e95d5194","ios":"levelo://app?vid=0284034b-da83-44a5-89e8-3385e95d5194"},"vehicle_type_id":"4","last_reported":1781509756,"current_range_meters":8000,"station_id":"","pricing_plan_id":"cebpf4jnsgd1na2vs0mg"},{"bike_id":"ebe5e08f-87d6-46f3-85dc-b77a5bb53d29","system_id":"levelo_inurba_marseille","lat":43.24463,"lon":5.42525,"is_reserved":false,"is_disabled":false,"rental_uris":{"android":"levelo://app?vid=ebe5e08f-87d6-46f3-85dc-b77a5bb53d29","ios":"levelo://app?vid=ebe5e08f-87d6-46f3-85dc-b77a5bb53d29"},"vehicle_type_id":"4","last_reported":1781509756,"current_range_meters":8000,"station_id":"st_d4a3vfp97mjs738cd8kg","pricing_plan_id":"cebpf4jnsgd1na2vs0mg"},{"bike_id":"485bab18-8b06-4ca3-ae13-0e7664fc210b","system_id":"levelo_inurba_marseille","lat":43.25081,"lon":5.40297,"is_reserved":false,"is_disabled":false,"rental_uris":{"android":"levelo://app?vid=485bab18-8b06-4ca3-ae13-0e7664fc210b","ios":"levelo://app?vid=485bab18-8b06-4ca3-ae13-0e7664fc210b"},"vehicle_type_id":"4","last_reported":1781509756,"current_range_meters":8000,"station_id":"ce4bhlh2rcd13ifvqgig","pricing_plan_id":"cebpf4jnsgd1na2vs0mg"},{"bike_id":"487add9d-06fb-43e0-8176-38973d0343de","system_id":"levelo_inurba_marseille","lat":43.2828,"lon":5.35281,"is_reserved":false,"is_disabled":false,"rental_uris":{"android":"levelo://app?vid=487add9d-06fb-43e0-8176-38973d0343de","ios":"levelo://app?vid=487add9d-06fb-43e0-8176-38973d0343de"},"vehicle_type_id":"4","last_reported":1781509756,"current_range_meters":8000,"station_id":"","pricing_plan_id":"cebpf4jnsgd1na2vs0mg"},{"bike_id":"471f8b05-e6ae-4918-a8bf-ee0baeadf97c","system_id":"levelo_inurba_marseille","lat":43.27449,"lon":5.39405,"is_reserved":false,"is_disabled":true,"rental_uris":{"android":"levelo://app?vid=471f8b05-e6ae-4918-a8bf-ee0baeadf97c","ios":"levelo://app?vid=471f8b05-e6ae-4918-a8bf-ee0baeadf97c"},"vehicle_type_id":"4","last_reported":1781509756,"current_range_meters":8400,"station_id":"ce4bhdp2rcd13ifvqf20","pricing_plan_id":"cebpf4jnsgd1na2vs0mg"},