{"last_updated":1727348869,"ttl":60,"version":"2.2","data":{"bikes":[{"bike_id":"f82c8257-bab0-4d5a-b202-1064bb5dc194","system_id":"levelo_inurba_marseille","lat":43.27076,"lon":5.42277,"is_reserved":false,"is_disabled":false,"rental_uris":{"android":"levelo://app?vid=f82c8257-bab0-4d5a-b202-1064bb5dc194","ios":"levelo://app?vid=f82c8257-bab0-4d5a-b202-1064bb5dc194"},"vehicle_type_id":"4","last_reported":1727348869,"current_range_meters":12000,"station_id":"ce4bhk92rcd13ifvqgb0","pricing_plan_id":"cebpf4jnsgd1na2vs0mg"},{"bike_id":"2f3efc0e-dc90-4c60-98eb-a6d5b154f6e0","system_id":"levelo_inurba_marseille","lat":43.29844,"lon":5.36269,"is_reserved":false,"is_disabled":false,"rental_uris":{"android":"levelo://app?vid=2f3efc0e-dc90-4c60-98eb-a6d5b154f6e0","ios":"levelo://app?vid=2f3efc0e-dc90-4c60-98eb-a6d5b154f6e0"},"vehicle_type_id":"4","last_reported":1727348869,"current_range_meters":38800,"station_id":"ce4bgpp2rcd13ifvqc3g","pricing_plan_id":"cebpf4jnsgd1na2vs0mg"},{"bike_id":"56ec2c14-3439-479d-a467-8970648caa23","system_id":"levelo_inurba_marseille","lat":43.25491,"lon":5.37649,"is_reserved":false,"is_disabled":false,"rental_uris":{"android":"levelo://app?vid=56ec2c14-3439-479d-a467-8970648caa23","ios":"levelo://app?vid=56ec2c14-3439-479d-a467-8970648caa23"},"vehicle_type_id":"4","last_reported":1727348869,"current_range_meters":38000,"station_id":"ce4bhh12rcd13ifvqff0","pricing_plan_id":"cebpf4jnsgd1na2vs0mg"},{"bike_id":"74d68aab-dcd1-4d0a-976e-418b8bad0fdd","system_id":"levelo_inurba_marseille","lat":43.23149,"lon":5.43699,"is_reserved":false,"is_disabled":false,"rental_uris":{"android":"levelo://app?vid=74d68aab-dcd1-4d0a-976e-418b8bad0fdd","ios":"levelo://app?vid=74d68aab-dcd1-4d0a-976e-418b8bad0fdd"},"vehicle_type_id":"4","last_reported":1727348869,"current_range_meters":38400,"station_id":"ce4bhmp2rcd13ifvqgog","pricing_plan_id":"cebpf4jnsgd1na2vs0mg"},{"bike_id":"97165881-4a17-4dea-92bf-8a6a4dd951bb","system_id":"levelo_inurba_marseille","lat":43.27528,"lon":5.38439,"is_reserved":false,"is_disabled":false,"rental_uris":{"android":"levelo://app?vid=97165881-4a17-4dea-92bf-8a6a4dd951bb","ios":"levelo://app?vid=97165881-4a17-4dea-92bf-8a6a4dd951bb"},"vehicle_type_id":"4","last_reported":1727348869,"current_range_meters":38000,"station_id":"ce4bhg92rcd13ifvqf90","pricing_plan_id":"cebpf4jnsgd1na2vs0mg"},{"bike_id":"630abde1-7d62-486b-ac41-f76a2632946a","system_id":"levelo_inurba_marseille","lat":43.24811,"lon":5.37463,"is_reserved":false,"is_disabled":false,"rental_uris":{"android":"levelo://app?vid=630abde1-7d62-486b-ac41-f76a2632946a","ios":"levelo://app?vid=630abde1-7d62-486b-ac41-f76a2632946a"},"vehicle_type_id":"4","last_reported":1727348869,"current_range_meters":34800,"station_id":"ce4bhgh2rcd13ifvqfb0","pricing_plan_id":"cebpf4jnsgd1na2vs0mg"},{"bike_id":"2aef3ab2-b0a4-4a14-a4d7-e201d8795e96","system_id":"levelo_inurba_marseille","lat":43.2835,"lon":5.38105,"is_reserved":false,"is_disabled":false,"rental_uris":{"android":"levelo://app?vid=2aef3ab2-b0a4-4a14-a4d7-e201d8795e96","ios":"levelo://app?vid=2aef3ab2-b0a4-4a14-a4d7-e201d8795e96"},"vehicle_type_id":"4","last_reported":1727348869,"current_range_meters":16400,"station_id":"ce4bh412rcd13ifvqdr0","pricing_plan_id":"cebpf4jnsgd1na2vs0mg"},{"bike_id":"3ade15d9-4038-4fe2-a9fb-2515b89ae4bd","system_id":"levelo_inurba_marseille","lat":43.2455,"lon":5.39537,"is_reserved":false,"is_disabled":false,"rental_uris":{"android":"levelo://app?vid=3ade15d9-4038-4fe2-a9fb-2515b89ae4bd","ios":"levelo://app?vid=3ade15d9-4038-4fe2-a9fb-2515b89ae4bd"},"vehicle_type_id":"4","last_reported":1727348869,"current_range_meters":33200,"station_id":"ce4bhlp2rcd13ifvqgjg","pricing_plan_id":"cebpf4jnsgd1na2vs0mg"},{"bike_id":"21e0ea13-c5d9-48ea-bca6-151e31404e82","system_id":"levelo_inurba_marseille","lat":43.28375,"lon":5.4127,"is_reserved":false,"is_disabled":false,"rental_uris":{"android":"levelo://app?vid=21e0ea13-c5d9-48ea-bca6-151e31404e82","ios":"levelo://app?vid=21e0ea13-c5d9-48ea-bca6-151e31404e82"},"vehicle_type_id":"4","last_reported":1727348869,"current_range_meters":22400,"station_id":"","pricing_plan_id":"cebpf4jnsgd1na2vs0mg"},{"bike_id":"c3dc0bfd-1047-4800-8b7c-7d8cb2ac491b","system_id":"levelo_inurba_marseille","lat":43.30547,"lon":5.36536,"is_reserved":false,"is_disabled":false,"rental_uris":{"android":"levelo://app?vid=c3dc0bfd-1047-4800-8b7c-7d8cb2ac491b","ios":"levelo://app?vid=c3dc0bfd-1047-4800-8b7c-7d8cb2ac491b"},"vehicle_type_id":"4","last_reported":1727348869,"current_range_meters":35200,"station_id":"ce4bgs12rcd13ifvqcag","pricing_plan_id":"cebpf4jnsgd1na2vs0mg"},{"bike_id":"4876a312-ef1e-4e11-9b0e-1288c72f726d","system_id":"levelo_inurba_marseille","lat":43.3266,"lon":5.40989,"is_reserved":false,"is_disabled":false,"rental_uris":{"android":"levelo://app?vid=4876a312-ef1e-4e11-9b0e-1288c72f726d","ios":"levelo://app?vid=4876a312-ef1e-4e11-9b0e-1288c72f726d"},"vehicle_type_id":"4","last_reported":1727348869,"current_range_meters":38800,"station_id":"ce4bhpp2rcd13ifvqhgg","pricing_plan_id":"cebpf4jnsgd1na2vs0mg"},{"bike_id":"afaaa44f-e8d7-4b63-8990-98033083db4b","system_id":"levelo_inurba_marseille","lat":43.293,"lon":5.37463,"is_reserved":false,"is_disabled":false,"rental_uris":{"android":"levelo://app?vid=afaaa44f-e8d7-4b63-8990-98033083db4b","ios":"levelo://app?vid=afaaa44f-e8d7-4b63-8990-98033083db4b"},"vehicle_type_id":"4","last_reported":1727348869,"current_range_meters":4400,"station_id":"ce4bgi12rcd13ifvqb70","pricing_plan_id":"cebpf4jnsgd1na2vs0mg"},{"bike_id":"3b8b1f92-ed32-436e-9e7c-472e6ff0fca3","system_id":"levelo_inurba_marseille","lat":43.27069,"lon":5.42277,"is_reserved":false,"is_disabled":false,"rental_uris":{"android":"levelo://app?vid=3b8b1f92-ed32-436e-9e7c-472e6ff0fca3","ios":"levelo://app?vid=3b8b1f92-ed32-436e-9e7c-472e6ff0fca3"},"vehicle_type_id":"4","last_reported":1727348869,"current_range_meters":6400,"station_id":"ce4bhk92rcd13ifvqgb0","pricing_plan_id":"cebpf4jnsgd1na2vs0mg"},{"bike_id":"ca3fd728-2ad7-4030-bd50-3560b85c7252","system_id":"levelo_inurba_marseille","lat":43.31359,"lon":5.38495,"is_reserved":false,"is_disabled":false,"rental_uris":{"android":"levelo://app?vid=ca3fd728-2ad7-4030-bd50-3560b85c7252","ios":"levelo://app?vid=ca3fd728-2ad7-4030-bd50-3560b85c7252"},"vehicle_type_id":"4","last_reported":1727348869,"current_range_meters":12000,"station_id":"ce4bgt92rcd13ifvqcf0","pricing_plan_id":"cebpf4jnsgd1na2vs0mg"},{"bike_id":"18dcc2de-6658-4930-a51b-2c944671767f","system_id":"levelo_inurba_marseille","lat":43.31336,"lon":5.36708,"is_reserved":false,"is_disabled":false,"rental_uris":{"android":"levelo://app?vid=18dcc2de-6658-4930-a51b-2c944671767f","ios":"levelo://app?vid=18dcc2de-6658-4930-a51b-2c944671767f"},"vehicle_type_id":"4","last_reported":1727348869,"current_range_meters":31200,"station_id":"ce4bgr92rcd13ifvqc6g","pricing_plan_id":"cebpf4jnsgd1na2vs0mg"},{"bike_id":"af6f9f17-0e7b-481e-8afe-9f94fcff132d","system_id":"levelo_inurba_marseille","lat":43.290936,"lon":5.381311,"is_reserved":false,"is_disabled":false,"rental_uris":{"android":"levelo://app?vid=af6f9f17-0e7b-481e-8afe-9f94fcff132d","ios":"levelo://app?vid=af6f9f17-0e7b-481e-8afe-9f94fcff132d"},"vehicle_type_id":"4","last_reported":1727348869,"current_range_meters":35600,"station_id":"ce4bh512rcd13ifvqe2g","pricing_plan_id":"cebpf4jnsgd1na2vs0mg"},{"bike_id":"8a0e882d-2c29-4b90-aecc-2130d946261c","system_id":"levelo_inurba_marseille","lat":43.27948,"lon":5.41039,"is_reserved":false,"is_disabled":false,"rental_uris":{"android":"levelo://app?vid=8a0e882d-2c29-4b90-aecc-2130d946261c","ios":"levelo://app?vid=8a0e882d-2c29-4b90-aecc-2130d946261c"},"vehicle_type_id":"4","last_reported":1727348869,"current_range_meters":36400,"station_id":"ce4bhnp2rcd13ifvqh0g","pricing_plan_id":"cebpf4jnsgd1na2vs0mg"},{"bike_id":"44033b9e-5d92-42b9-b42f-ce551e9fdead","system_id":"levelo_inurba_marseille","lat":43.27837,"lon":5.39206,"is_reserved":false,"is_disabled":false,"rental_uris":{"android":"levelo://app?vid=44033b9e-5d92-42b9-b42f-ce551e9fdead","ios":"levelo://app?vid=44033b9e-5d92-42b9-b42f-ce551e9fdead"},"vehicle_type_id":"4","last_reported":1727348869,"current_range_meters":24000,"station_id":"ce4bhjp2rcd13ifvqga0","pricing_plan_id":"cebpf4jnsgd1na2vs0mg"},{"bike_id":"64458427-85d5-4ac4-8859-e4ecdf247b77","system_id":"levelo_inurba_marseille","lat":43.30146,"lon":5.37401,"is_reserved":false,"is_disabled":false,"rental_uris":{"android":"levelo://app?vid=64458427-85d5-4ac4-8859-e4ecdf247b77","ios":"levelo://app?vid=64458427-85d5-4ac4-8859-e4ecdf247b77"},"vehicle_type_id":"4","last_reported":1727348869,"current_range_meters":33600,"station_id":"ce4bgs92rcd13ifvqcc0","pricing_plan_id":"cebpf4jnsgd1na2vs0mg"},{"bike_id":"93ba493c-afb6-4a25-ae25-2b418eafc2e1","system_id":"levelo_inurba_marseille","lat":43.29524,"lon":5.38556,"is_reserved":false,"is_disabled":false,"rental_uris":{"android":"levelo://app?vid=93ba493c-afb6-4a25-ae25-2b418eafc2e1","ios":"levelo://app?vid=93ba493c-afb6-4a25-ae25-2b418eafc2e1"},"vehicle_type_id":"4","last_reported":1727348869,"current_range_meters":19600,"station_id":"ce4bgih2rcd13ifvqba0","pricing_plan_id":"cebpf4jnsgd1na2vs0mg"},{"bike_id":"7737b815-6daf-41f0-8354-4b28ba75917f","system_id":"levelo_inurba_marseille","lat":43.30197,"lon":5.3983,"is_reserved":false,"is_disabled":false,"rental_uris":{"android":"levelo://app?vid=7737b815-6daf-41f0-8354-4b28ba75917f","ios":"levelo://app?vid=7737b815-6daf-41f0-8354-4b28ba75917f"},"vehicle_type_id":"4","last_reported":1727348869,"current_range_meters":12000,"station_id":"ce4bgvp2rcd13ifvqct0","pricing_plan_id":"cebpf4jnsgd1na2vs0mg"},{"bike_id":"3df56cf6-183d-48e0-8c1c-f8eaad3a37e3","system_id":"levelo_inurba_marseille","lat":43.24084,"lon":5.37748,"is_reserved":false,"is_disabled":false,"rental_uris":{"android":"levelo://app?vid=3df56cf6-183d-48e0-8c1c-f8eaad3a37e3","ios":"levelo://app?vid=3df56cf6-183d-48e0-8c1c-f8eaad3a37e3"},"vehicle_type_id":"4","last_reported":1727348869,"current_range_meters":20400,"station_id":"ce4bhnp2rcd13ifvqgvg","pricing_plan_id":"cebpf4jnsgd1na2vs0mg"},{"bike_id":"662a6d9b-1c0d-4f2a-941f-4640fe8d3746","system_id":"levelo_inurba_marseille","lat":43.26032,"lon":5.37547,"is_reserved":false,"is_disabled":false,"rental_uris":{"android":"levelo://app?vid=662a6d9b-1c0d-4f2a-941f-4640fe8d3746","ios":"levelo://app?vid=662a6d9b-1c0d-4f2a-941f-4640fe8d3746"},"vehicle_type_id":"4","last_reported":1727348869,"current_range_meters":38800,"station_id":"ce4bhgh2rcd13ifvqfa0","pricing_plan_id":"cebpf4jnsgd1na2vs0mg"},{"bike_id":"8a4c11da-5e3e-47c1-a948-72fea9a534d8","system_id":"levelo_inurba_marseille","lat":43.27815,"lon":5.40724,"is_reserved":false,"is_disabled":false,"rental_uris":{"android":"levelo://app?vid=8a4c11da-5e3e-47c1-a948-72fea9a534d8","ios":"levelo://app?vid=8a4c11da-5e3e-47c1-a948-72fea9a534d8"},"vehicle_type_id":"4","last_reported":1727348869,"current_range_meters":11200,"station_id":"ce4bhnh2rcd13ifvqgtg","pricing_plan_id":"cebpf4jnsgd1na2vs0mg"},{"bike_id":"b6daf4df-7c90-4c5e-b397-06a87d15013f","system_id":"levelo_inurba_marseille","lat":43.33742,"lon":5.37467,"is_reserved":false,"is_disabled":false,"rental_uris":{"android":"levelo://app?vid=b6daf4df-7c90-4c5e-b397-06a87d15013f","ios":"levelo://app?vid=b6daf4df-7c90-4c5e-b397-06a87d15013f"},"vehicle_type_id":"4","last_reported":1727348869,"current_range_meters":30800,"station_id":"","pricing_plan_id":"cebpf4jnsgd1na2vs0mg"},{"bike_id":"b0d493d3-5f67-4033-9fb3-f4bbc296d339","system_id":"levelo_inurba_marseille","lat":43.33753,"lon":5.37443,"is_reserved":false,"is_disabled":false,"rental_uris":{"android":"levelo://app?vid=b0d493d3-5f67-4033-9fb3-f4bbc296d339","ios":"levelo://app?vid=b0d493d3-5f67-4033-9fb3-f4bbc296d339"},"vehicle_type_id":"4","last_reported":1727348869,"current_range_meters":30000,"station_id":"","pricing_plan_id":"cebpf4jnsgd1na2vs0mg"},{"bike_id":"6dbdbd0e-21c7-4286-b08d-23971de7f263","system_id":"levelo_inurba_marseille","lat":43.27998,"lon":5.40007,"is_reserved":false,"is_disabled":false,"rental_uris":{"android":"levelo://app?vid=6dbdbd0e-21c7-4286-b08d-23971de7f263","ios":"levelo://app?vid=6dbdbd0e-21c7-4286-b08d-23971de7f263"},"vehicle_type_id":"4","last_reported":1727348869,"current_range_meters":37600,"station_id":"ce4bho92rcd13ifvqh4g","pricing_plan_id":"cebpf4jnsgd1na2vs0mg"},{"bike_id":"372f40b2-250a-40a4-8cdb-dbc0130fa4bf","system_id":"levelo_inurba_marseille","lat":43.34138,"lon":5.40904,"is_reserved":false,"is_disabled":false,"rental_uris":{"android":"levelo://app?vid=372f40b2-250a-40a4-8cdb-dbc0130fa4bf","ios":"levelo://app?vid=372f40b2-250a-40a4-8cdb-dbc0130fa4bf"},"vehicle_type_id":"4","last_reported":1727348869,"current_range_meters":38000,"station_id":"ce4bhqh2rcd13ifvqhlg","pricing_plan_id":"cebpf4jnsgd1na2vs0mg"},{"bike_id":"cd356a54-e9fa-4400-a082-24b21b83911f","system_id":"levelo_inurba_marseille","lat":43.29303,"lon":5.3744,"is_reserved":false,"is_disabled":false,"rental_uris":{"android":"levelo://app?vid=cd356a54-e9fa-4400-a082-24b21b83911f","ios":"levelo://app?vid=cd356a54-e9fa-4400-a082-24b21b83911f"},"vehicle_type_id":"4","last_reported":1727348869,"current_range_meters":38000,"station_id":"ce4bgi12rcd13ifvqb70","pricing_plan_id":"cebpf4jnsgd1na2vs0mg"},{"bike_id":"46849ea2-178f-4d0b-9e64-57172c8ca2df","system_id":"levelo_inurba_marseille","lat":43.29094,"lon":5.38164,"is_reserved":false,"is_disabled":false,"rental_uris":{"android":"levelo://app?vid=46849ea2-178f-4d0b-9e64-57172c8ca2df","ios":"levelo://app?vid=46849ea2-178f-4d0b-9e64-57172c8ca2df"},"vehicle_type_id":"4","last_reported":1727348869,"current_range_meters":28800,"station_id":"ce4bh512rcd13ifvqe2g","pricing_plan_id":"cebpf4jnsgd1na2vs0mg"},{"bike_id":"53ba1e37-e95d-4e48-89b3-23b0f8cf9780","system_id":"levelo_inurba_marseille","lat":43.29528,"lon":5.37508,"is_reserved":false,"is_disabled":false,"rental_uris":{"android":"levelo://app?vid=53ba1e37-e95d-4e48-89b3-23b0f8cf9780","ios":"levelo://app?vid=53ba1e37-e95d-4e48-89b3-23b0f8cf9780"},"vehicle_type_id":"4","last_reported":1727348869,"current_range_meters":28000,"station_id":"ce4bgkp2rcd13ifvqbmg","pricing_plan_id":"cebpf4jnsgd1na2vs0mg"},{"bike_id":"920a992c-b9bd-467d-8738-97c73c4e43f7","system_id":"levelo_inurba_marseille","lat":43.31229,"lon":5.3686,"is_reserved":false,"is_disabled":false,"rental_uris":{"android":"levelo://app?vid=920a992c-b9bd-467d-8738-97c73c4e43f7","ios":"levelo://app?vid=920a992c-b9bd-467d-8738-97c73c4e43f7"},"vehicle_type_id":"4","last_reported":1727348869,"current_range_meters":38800,"station_id":"ce4bgl92rcd13ifvqbq0","pricing_plan_id":"cebpf4jnsgd1na2vs0mg"},{"bike_id":"57bc1e84-e83e-4198-85b5-3e7f9c3f0b0b","system_id":"levelo_inurba_marseille","lat":43.24166,"lon":5.36392,"is_reserved":false,"is_disabled":false,"rental_uris":{"android":"levelo://app?vid=57bc1e84-e83e-4198-85b5-3e7f9c3f0b0b","ios":"levelo://app?vid=57bc1e84-e83e-4198-85b5-3e7f9c3f0b0b"},"vehicle_type_id":"4","last_reported":1727348869,"current_range_meters":28000,"station_id":"cpo36qri1sfpv3e86is0","pricing_plan_id":"cebpf4jnsgd1na2vs0mg"},{"bike_id":"7a8458d5-44ac-4f2e-abef-3f01eb31f7ca","system_id":"levelo_inurba_marseille","lat":43.337444,"lon":5.374475,"is_reserved":false,"is_disabled":false,"rental_uris":{"android":"levelo://app?vid=7a8458d5-44ac-4f2e-abef-3f01eb31f7ca","ios":"levelo://app?vid=7a8458d5-44ac-4f2e-abef-3f01eb31f7ca"},"vehicle_type_id":"4","last_reported":1727348869,"current_range_meters":21600,"station_id":"","pricing_plan_id":"cebpf4jnsgd1na2vs0mg"},{"bike_id":"88e5e719-81c3-4e7a-a4b9-785e5ce7ef03","system_id":"levelo_inurba_marseille","lat":43.29263,"lon":5.40907,"is_reserved":false,"is_disabled":false,"rental_uris":{"android":"levelo://app?vid=88e5e719-81c3-4e7a-a4b9-785e5ce7ef03","ios":"levelo://app?vid=88e5e719-81c3-4e7a-a4b9-785e5ce7ef03"},"vehicle_type_id":"4","last_reported":1727348869,"current_range_meters":20400,"station_id":"ce4bh192rcd13ifvqdc0","pricing_plan_id":"cebpf4jnsgd1na2vs0mg"},{"bike_id":"86fca59e-950b-4a5b-8396-8f321c7a6a18","system_id":"levelo_inurba_marseille","lat":43.29567,"lon":5.3996,"is_reserved":false,"is_disabled":false,"rental_uris":{"android":"levelo://app?vid=86fca59e-950b-4a5b-8396-8f321c7a6a18","ios":"levelo://app?vid=86fca59e-950b-4a5b-8396-8f321c7a6a18"},"vehicle_type_id":"4","last_reported":1727348869,"current_range_meters":24000,"station_id":"ce4bh312rcd13ifvqdj0","pricing_plan_id":"cebpf4jnsgd1na2vs0mg"},{"bike_id":"0a5498d1-2c08-4f3d-af23-80c73fef4615","system_id":"levelo_inurba_marseille","lat":43.24074,"lon":5.37755,"is_reserved":false,"is_disabled":false,"rental_uris":{"android":"levelo://app?vid=0a5498d1-2c08-4f3d-af23-80c73fef4615","ios":"levelo://app?vid=0a5498d1-2c08-4f3d-af23-80c73fef4615"},"vehicle_type_id":"4","last_reported":1727348869,"current_range_meters":38000,"station_id":"ce4bhnp2rcd13ifvqgvg","pricing_plan_id":"cebpf4jnsgd1na2vs0mg"},{"bike_id":"388a507e-86c4-4df5-b075-d43d70469bdd","system_id":"levelo_inurba_marseille","lat":43.3018,"lon":5.36616,"is_reserved":false,"is_disabled":false,"rental_uris":{"android":"levelo://app?vid=388a507e-86c4-4df5-b075-d43d70469bdd","ios":"levelo://app?vid=388a507e-86c4-4df5-b075-d43d70469bdd"},"vehicle_type_id":"4","last_reported":1727348869,"current_range_meters":38800,"station_id":"ce4bgrh2rcd13ifvqc8g","pricing_plan_id":"cebpf4jnsgd1na2vs0mg"},{"bike_id":"0ff4805d-5eb0-413d-9fd8-adffbbf2ce16","system_id":"levelo_inurba_marseille","lat":43.29858,"lon":5.36283,"is_reserved":false,"is_disabled":false,"rental_uris":{"android":"levelo://app?vid=0ff4805d-5eb0-413d-9fd8-adffbbf2ce16","ios":"levelo://app?vid=0ff4805d-5eb0-413d-9fd8-adffbbf2ce16"},"vehicle_type_id":"4","last_reported":1727348869,"current_range_meters":39200,"station_id":"ce4bgpp2rcd13ifvqc3g","pricing_plan_id":"cebpf4jnsgd1na2vs0mg"},{"bike_id":"dbdebbc3-f633-440e-ad73-8aecea0e3a96","system_id":"levelo_inurba_marseille","lat":43.28728,"lon":5.37926,"is_reserved":false,"is_disabled":false,"rental_uris":{"android":"levelo://app?vid=dbdebbc3-f633-440e-ad73-8aecea0e3a96","ios":"levelo://app?vid=dbdebbc3-f633-440e-ad73-8aecea0e3a96"},"vehicle_type_id":"4","last_reported":1727348869,"current_range_meters":9600,"station_id":"ce4bh9p2rcd13ifvqec0","pricing_plan_id":"cebpf4jnsgd1na2vs0mg"},{"bike_id":"1641169f-2609-48fc-9fa8-62b9cffac069","system_id":"levelo_inurba_marseille","lat":43.30542,"lon":5.36538,"is_reserved":false,"is_disabled":false,"rental_uris":{"android":"levelo://app?vid=1641169f-2609-48fc-9fa8-62b9cffac069","ios":"levelo://app?vid=1641169f-2609-48fc-9fa8-62b9cffac069"},"vehicle_type_id":"4","last_reported":1727348869,"current_range_meters":36800,"station_id":"ce4bgs12rcd13ifvqcag","pricing_plan_id":"cebpf4jnsgd1na2vs0mg"},{"bike_id":"ed9d69a6-a921-4251-b073-fdfe53c8cdc2","system_id":"levelo_inurba_marseille","lat":43.24078,"lon":5.37755,"is_reserved":false,"is_disabled":false,"rental_uris":{"android":"levelo://app?vid=ed9d69a6-a921-4251-b073-fdfe53c8cdc2","ios":"levelo://app?vid=ed9d69a6-a921-4251-b073-fdfe53c8cdc2"},"vehicle_type_id":"4","last_reported":1727348869,"current_range_meters":36400,"station_id":"ce4bhnp2rcd13ifvqgvg","pricing_plan_id":"cebpf4jnsgd1na2vs0mg"},{"bike_id":"50a1f8e5-6354-4d21-9d41-f96b3a73bf26","system_id":"levelo_inurba_marseille","lat":43.29976,"lon":5.38491,"is_reserved":false,"is_disabled":false,"rental_uris":{"android":"levelo://app?vid=50a1f8e5-6354-4d21-9d41-f96b3a73bf26","ios":"levelo://app?vid=50a1f8e5-6354-4d21-9d41-f96b3a73bf26"},"vehicle_type_id":"4","last_reported":1727348869,"current_range_meters":25600,"station_id":"ce4bgj92rcd13ifvqbd0","pricing_plan_id":"cebpf4jnsgd1na2vs0mg"},{"bike_id":"8d17f10b-cb18-4a62-9a7c-043318106e2d","system_id":"levelo_inurba_marseille","lat":43.30228,"lon":5.3663,"is_reserved":false,"is_disabled":false,"rental_uris":{"android":"levelo://app?vid=8d17f10b-cb18-4a62-9a7c-043318106e2d","ios":"levelo://app?vid=8d17f10b-cb18-4a62-9a7c-043318106e2d"},"vehicle_type_id":"4","last_reported":1727348869,"current_range_meters":8000,"station_id":"ce4bgrh2rcd13ifvqc8g","pricing_plan_id":"cebpf4jnsgd1na2vs0mg"},{"bike_id":"eb3b7637-175c-41db-9c2d-778c2a0c50e2","system_id":"levelo_inurba_marseille","lat":43.29006,"lon":5.35601,"is_reserved":false,"is_disabled":false,"rental_uris":{"android":"levelo://app?vid=eb3b7637-175c-41db-9c2d-778c2a0c50e2","ios":"levelo://app?vid=eb3b7637-175c-41db-9c2d-778c2a0c50e2"},"vehicle_type_id":"4","last_reported":1727348869,"current_range_meters":22800,"station_id":"ce4bhb92rcd13ifvqen0","pricing_plan_id":"cebpf4jnsgd1na2vs0mg"},{"bike_id":"097c6598-9463-4969-9cb9-e6db1899af49","system_id":"levelo_inurba_marseille","lat":43.25868,"lon":5.39894,"is_reserved":false,"is_disabled":false,"rental_uris":{"android":"levelo://app?vid=097c6598-9463-4969-9cb9-e6db1899af49","ios":"levelo://app?vid=097c6598-9463-4969-9cb9-e6db1899af49"},"vehicle_type_id":"4","last_reported":1727348869,"current_range_meters":29600,"station_id":"ce4bhl92rcd13ifvqghg","pricing_plan_id":"cebpf4jnsgd1na2vs0mg"},{"bike_id":"ffcde158-e85c-4869-a280-ae8fb317fd39","system_id":"levelo_inurba_marseille","lat":43.24083,"lon":5.37755,"is_reserved":false,"is_disabled":false,"rental_uris":{"android":"levelo://app?vid=ffcde158-e85c-4869-a280-ae8fb317fd39","ios":"levelo://app?vid=ffcde158-e85c-4869-a280-ae8fb317fd39"},"vehicle_type_id":"4","last_reported":1727348869,"current_range_meters":31200,"station_id":"ce4bhnp2rcd13ifvqgvg","pricing_plan_id":"cebpf4jnsgd1na2vs0mg"},{"bike_id":"50b608d7-773e-4fac-8204-c7c7573a44c3","system_id":"levelo_inurba_marseille","lat":43.27428,"lon":5.39412,"is_reserved":false,"is_disabled":false,"rental_uris":{"android":"levelo://app?vid=50b608d7-773e-4fac-8204-c7c7573a44c3","ios":"levelo://app?vid=50b608d7-773e-4fac-8204-c7c7573a44c3"},"vehicle_type_id":"4","last_reported":1727348869,"current_range_meters":4800,"station_id":"ce4bhdp2rcd13ifvqf20","pricing_plan_id":"cebpf4jnsgd1na2vs0mg"},{"bike_id":"a1a2fbac-9d5a-4bf7-ab15-2b538c51ab13","system_id":"levelo_inurba_marseille","lat":43.27212,"lon":5.39179,"is_reserved":false,"is_disabled":false,"rental_uris":{"android":"levelo://app?vid=a1a2fbac-9d5a-4bf7-ab15-2b538c51ab13","ios":"levelo://app?vid=a1a2fbac-9d5a-4bf7-ab15-2b538c51ab13"},"vehicle_type_id":"4","last_reported":1727348869,"current_range_meters":38400,"station_id":"ce4bhhp2rcd13ifvqfm0","pricing_plan_id":"cebpf4jnsgd1na2vs0mg"},{"bike_id":"6ce1420a-5bfc-40b9-9d62-33aa76cb2267","system_id":"levelo_inurba_marseille","lat":43.279856,"lon":5.38687,"is_reserved":false,"is_disabled":false,"rental_uris":{"android":"levelo://app?vid=6ce1420a-5bfc-40b9-9d62-33aa76cb2267","ios":"levelo://app?vid=6ce1420a-5bfc-40b9-9d62-33aa76cb2267"},"vehicle_type_id":"4","last_reported":1727348869,"current_range_meters":24800,"station_id":"ce4bhgp2rcd13ifvqfe0","pricing_plan_id":"cebpf4jnsgd1na2vs0mg"},{"bike_id":"e0321300-37ad-4bce-a17c-4bf73cb9114f","system_id":"levelo_inurba_marseille","lat":43.29896,"lon":5.43659,"is_reserved":false,"is_disabled":false,"rental_uris":{"android":"levelo://app?vid=e0321300-37ad-4bce-a17c-4bf73cb9114f","ios":"levelo://app?vid=e0321300-37ad-4bce-a17c-4bf73cb9114f"},"vehicle_type_id":"4","last_reported":1727348869,"current_range_meters":36000,"station_id":"ce4bhpp2rcd13ifvqhfg","pricing_plan_id":"cebpf4jnsgd1na2vs0mg"},{"bike_id":"fb8dbcb4-f3ca-4dc2-8469-db6b421828f0","system_id":"levelo_inurba_marseille","lat":43.30551,"lon":5.36707,"is_reserved":false,"is_disabled":false,"rental_uris":{"android":"levelo://app?vid=fb8dbcb4-f3ca-4dc2-8469-db6b421828f0","ios":"levelo://app?vid=fb8dbcb4-f3ca-4dc2-8469-db6b421828f0"},"vehicle_type_id":"4","last_reported":1727348869,"current_range_meters":31200,"station_id":"ce4bgrp2rcd13ifvqc9g","pricing_plan_id":"cebpf4jnsgd1na2vs0mg"},{"bike_id":"f5d54444-a7c1-455d-ab96-0a2e9051ab55","system_id":"levelo_inurba_marseille","lat":43.286648,"lon":5.386641,"is_reserved":false,"is_disabled":false,"rental_uris":{"android":"levelo://app?vid=f5d54444-a7c1-455d-ab96-0a2e9051ab55","ios":"levelo://app?vid=f5d54444-a7c1-455d-ab96-0a2e9051ab55"},"vehicle_type_id":"4","last_reported":1727348869,"current_range_meters":22800,"station_id":"ce4bh3h2rcd13ifvqdn0","pricing_plan_id":"cebpf4jnsgd1na2vs0mg"},{"bike_id":"89b39515-ed76-47af-ab40-ea0faa590664","system_id":"levelo_inurba_marseille","lat":43.269508,"lon":5.386332,"is_reserved":false,"is_disabled":false,"rental_uris":{"android":"levelo://app?vid=89b39515-ed76-47af-ab40-ea0faa590664","ios":"levelo://app?vid=89b39515-ed76-47af-ab40-ea0faa590664"},"vehicle_type_id":"4","last_reported":1727348869,"current_range_meters":27600,"station_id":"ce4bhh92rcd13ifvqfh0","pricing_plan_id":"cebpf4jnsgd1na2vs0mg"},{"bike_id":"68b9f319-dd11-4d21-8616-1d05cbe3b26b","system_id":"levelo_inurba_marseille","lat":43.23969,"lon":5.36631,"is_reserved":false,"is_disabled":false,"rental_uris":{"android":"levelo://app?vid=68b9f319-dd11-4d21-8616-1d05cbe3b26b","ios":"levelo://app?vid=68b9f319-dd11-4d21-8616-1d05cbe3b26b"},"vehicle_type_id":"4","last_reported":1727348869,"current_range_meters":18000,"station_id":"ce4bhi12rcd13ifvqfp0","pricing_plan_id":"cebpf4jnsgd1na2vs0mg"},{"bike_id":"018668e8-a530-4d21-ab04-2b5e2f2cf015","system_id":"levelo_inurba_marseille","lat":43.29592,"lon":5.40229,"is_reserved":false,"is_disabled":false,"rental_uris":{"android":"levelo://app?vid=018668e8-a530-4d21-ab04-2b5e2f2cf015","ios":"levelo://app?vid=018668e8-a530-4d21-ab04-2b5e2f2cf015"},"vehicle_type_id":"4","last_reported":1727348869,"current_range_meters":29600,"station_id":"","pricing_plan_id":"cebpf4jnsgd1na2vs0mg"},{"bike_id":"79a05bb1-ccec-47f0-8ebd-1f95854549f8","system_id":"levelo_inurba_marseille","lat":43.31282,"lon":5.380327,"is_reserved":false,"is_disabled":false,"rental_uris":{"android":"levelo://app?vid=79a05bb1-ccec-47f0-8ebd-1f95854549f8","ios":"levelo://app?vid=79a05bb1-ccec-47f0-8ebd-1f95854549f8"},"vehicle_type_id":"4","last_reported":1727348869,"current_range_meters":7200,"station_id":"","pricing_plan_id":"cebpf4jnsgd1na2vs0mg"},{"bike_id":"30136007-4af8-4987-a9f0-08680d42d88d","system_id":"levelo_inurba_marseille","lat":43.27496,"lon":5.42457,"is_reserved":false,"is_disabled":false,"rental_uris":{"android":"levelo://app?vid=30136007-4af8-4987-a9f0-08680d42d88d","ios":"levelo://app?vid=30136007-4af8-4987-a9f0-08680d42d88d"},"vehicle_type_id":"4","last_reported":1727348869,"current_range_meters":31200,"station_id":"ce4bhn92rcd13ifvqgrg","pricing_plan_id":"cebpf4jnsgd1na2vs0mg"},{"bike_id":"d03b6946-5007-4cdd-b6bc-5d6122632ea5","system_id":"levelo_inurba_marseille","lat":43.31998,"lon":5.38162,"is_reserved":false,"is_disabled":false,"rental_uris":{"android":"levelo://app?vid=d03b6946-5007-4cdd-b6bc-5d6122632ea5","ios":"levelo://app?vid=d03b6946-5007-4cdd-b6bc-5d6122632ea5"},"vehicle_type_id":"4","last_reported":1727348869,"current_range_meters":18000,"station_id":"ce4bgt12rcd13ifvqcd0","pricing_plan_id":"cebpf4jnsgd1na2vs0mg"},{"bike_id":"4ca8f2df-d07d-4530-b77f-5472e4a1443e","system_id":"levelo_inurba_marseille","lat":43.32541,"lon":5.41426,"is_reserved":false,"is_disabled":false,"rental_uris":{"android":"levelo://app?vid=4ca8f2df-d07d-4530-b77f-5472e4a1443e","ios":"levelo://app?vid=4ca8f2df-d07d-4530-b77f-5472e4a1443e"},"vehicle_type_id":"4","last_reported":1727348869,"current_range_meters":31200,"station_id":"ce4bhq12rcd13ifvqhhg","pricing_plan_id":"cebpf4jnsgd1na2vs0mg"},{"bike_id":"ca773917-fd3d-491c-a782-60d4807ce677","system_id":"levelo_inurba_marseille","lat":43.25004,"lon":5.3891,"is_reserved":false,"is_disabled":false,"rental_uris":{"android":"levelo://app?vid=ca773917-fd3d-491c-a782-60d4807ce677","ios":"levelo://app?vid=ca773917-fd3d-491c-a782-60d4807ce677"},"vehicle_type_id":"4","last_reported":1727348869,"current_range_meters":19600,"station_id":"ce4bhgp2rcd13ifvqfd0","pricing_plan_id":"cebpf4jnsgd1na2vs0mg"},{"bike_id":"16df220b-875f-453d-9230-8b7f6e383763","system_id":"levelo_inurba_marseille","lat":43.26947,"lon":5.38635,"is_reserved":false,"is_disabled":false,"rental_uris":{"android":"levelo://app?vid=16df220b-875f-453d-9230-8b7f6e383763","ios":"levelo://app?vid=16df220b-875f-453d-9230-8b7f6e383763"},"vehicle_type_id":"4","last_reported":1727348869,"current_range_meters":30400,"station_id":"ce4bhh92rcd13ifvqfh0","pricing_plan_id":"cebpf4jnsgd1na2vs0mg"},{"bike_id":"5786f0ad-795e-4ca3-a636-6a96ebe24603","system_id":"levelo_inurba_marseille","lat":43.30618,"lon":5.39368,"is_reserved":false,"is_disabled":false,"rental_uris":{"android":"levelo://app?vid=5786f0ad-795e-4ca3-a636-6a96ebe24603","ios":"levelo://app?vid=5786f0ad-795e-4ca3-a636-6a96ebe24603"},"vehicle_type_id":"4","last_reported":1727348869,"current_range_meters":27200,"station_id":"ce4bh0p2rcd13ifvqd80","pricing_plan_id":"cebpf4jnsgd1na2vs0mg"},{"bike_id":"62311b0f-b3bc-448a-b4b9-c81c5b63ed1e","system_id":"levelo_inurba_marseille","lat":43.29917,"lon":5.37476,"is_reserved":false,"is_disabled":false,"rental_uris":{"android":"levelo://app?vid=62311b0f-b3bc-448a-b4b9-c81c5b63ed1e","ios":"levelo://app?vid=62311b0f-b3bc-448a-b4b9-c81c5b63ed1e"},"vehicle_type_id":"4","last_reported":1727348869,"current_range_meters":8000,"station_id":"ce4bgjh2rcd13ifvqbg0","pricing_plan_id":"cebpf4jnsgd1na2vs0mg"},{"bike_id":"ce7b3c50-121a-4a82-8e7a-ed884127d410","system_id":"levelo_inurba_marseille","lat":43.29889,"lon":5.39733,"is_reserved":false,"is_disabled":false,"rental_uris":{"android":"levelo://app?vid=ce7b3c50-121a-4a82-8e7a-ed884127d410","ios":"levelo://app?vid=ce7b3c50-121a-4a82-8e7a-ed884127d410"},"vehicle_type_id":"4","last_reported":1727348869,"current_range_meters":6400,"station_id":"ce4bh0h2rcd13ifvqd50","pricing_plan_id":"cebpf4jnsgd1na2vs0mg"},{"bike_id":"94684309-8430-4a88-9798-819abff5d61a","system_id":"levelo_inurba_marseille","lat":43.23151,"lon":5.43705,"is_reserved":false,"is_disabled":false,"rental_uris":{"android":"levelo://app?vid=94684309-8430-4a88-9798-819abff5d61a","ios":"levelo://app?vid=94684309-8430-4a88-9798-819abff5d61a"},"vehicle_type_id":"4","last_reported":1727348869,"current_range_meters":20400,"station_id":"ce4bhmp2rcd13ifvqgog","pricing_plan_id":"cebpf4jnsgd1na2vs0mg"},{"bike_id":"7f7cfb71-e29e-44f8-9bcf-1cbb0dfe5d35","system_id":"levelo_inurba_marseille","lat":43.29855,"lon":5.36283,"is_reserved":false,"is_disabled":false,"rental_uris":{"android":"levelo://app?vid=7f7cfb71-e29e-44f8-9bcf-1cbb0dfe5d35","ios":"levelo://app?vid=7f7cfb71-e29e-44f8-9bcf-1cbb0dfe5d35"},"vehicle_type_id":"4","last_reported":1727348869,"current_range_meters":35600,"station_id":"ce4bgpp2rcd13ifvqc3g","pricing_plan_id":"cebpf4jnsgd1na2vs0mg"},{"bike_id":"1eab0074-0ef3-4801-8ade-44eefca35afe","system_id":"levelo_inurba_marseille","lat":43.251038,"lon":5.403259,"is_reserved":false,"is_disabled":false,"rental_uris":{"android":"levelo://app?vid=1eab0074-0ef3-4801-8ade-44eefca35afe","ios":"levelo://app?vid=1eab0074-0ef3-4801-8ade-44eefca35afe"},"vehicle_type_id":"4","last_reported":1727348869,"current_range_meters":6800,"station_id":"","pricing_plan_id":"cebpf4jnsgd1na2vs0mg"},{"bike_id":"e2439c25-39ef-4ab9-9943-1cd0b7edb5dd","system_id":"levelo_inurba_marseille","lat":43.30538,"lon":5.36702,"is_reserved":false,"is_disabled":false,"rental_uris":{"android":"levelo://app?vid=e2439c25-39ef-4ab9-9943-1cd0b7edb5dd","ios":"levelo://app?vid=e2439c25-39ef-4ab9-9943-1cd0b7edb5dd"},"vehicle_type_id":"4","last_reported":1727348869,"current_range_meters":38800,"station_id":"ce4bgrp2rcd13ifvqc9g","pricing_plan_id":"cebpf4jnsgd1na2vs0mg"},{"bike_id":"a5537e92-ab8c-4f2d-9409-f4455cae586b","system_id":"levelo_inurba_marseille","lat":43.30194,"lon":5.36632,"is_reserved":false,"is_disabled":false,"rental_uris":{"android":"levelo://app?vid=a5537e92-ab8c-4f2d-9409-f4455cae586b","ios":"levelo://app?vid=a5537e92-ab8c-4f2d-9409-f4455cae586b"},"vehicle_type_id":"4","last_reported":1727348869,"current_range_meters":2000,"station_id":"ce4bgrh2rcd13ifvqc8g","pricing_plan_id":"cebpf4jnsgd1na2vs0mg"},{"bike_id":"778cf1da-b1f9-4770-9dd3-7f9f6f29c740","system_id":"levelo_inurba_marseille","lat":43.31217,"lon":5.36863,"is_reserved":false,"is_disabled":false,"rental_uris":{"android":"levelo://app?vid=778cf1da-b1f9-4770-9dd3-7f9f6f29c740","ios":"levelo://app?vid=778cf1da-b1f9-4770-9dd3-7f9f6f29c740"},"vehicle_type_id":"4","last_reported":1727348869,"current_range_meters":20000,"station_id":"ce4bgl92rcd13ifvqbq0","pricing_plan_id":"cebpf4jnsgd1na2vs0mg"},{"bike_id":"ba477672-d3a2-4048-accf-b9e924a53dec","system_id":"levelo_inurba_marseille","lat":43.24394,"lon":5.37054,"is_reserved":false,"is_disabled":false,"rental_uris":{"android":"levelo://app?vid=ba477672-d3a2-4048-accf-b9e924a53dec","ios":"levelo://app?vid=ba477672-d3a2-4048-accf-b9e924a53dec"},"vehicle_type_id":"4","last_reported":1727348869,"current_range_meters":38800,"station_id":"ce4bhhh2rcd13ifvqfk0","pricing_plan_id":"cebpf4jnsgd1na2vs0mg"},{"bike_id":"00c55a61-da74-4c36-8c8e-499983e3e52b","system_id":"levelo_inurba_marseille","lat":43.29835,"lon":5.36261,"is_reserved":false,"is_disabled":false,"rental_uris":{"android":"levelo://app?vid=00c55a61-da74-4c36-8c8e-499983e3e52b","ios":"levelo://app?vid=00c55a61-da74-4c36-8c8e-499983e3e52b"},"vehicle_type_id":"4","last_reported":1727348869,"current_range_meters":24800,"station_id":"ce4bgpp2rcd13ifvqc3g","pricing_plan_id":"cebpf4jnsgd1na2vs0mg"},{"bike_id":"66a86831-3877-4742-8862-732f596c78d7","system_id":"levelo_inurba_marseille","lat":43.23149,"lon":5.43723,"is_reserved":false,"is_disabled":false,"rental_uris":{"android":"levelo://app?vid=66a86831-3877-4742-8862-732f596c78d7","ios":"levelo://app?vid=66a86831-3877-4742-8862-732f596c78d7"},"vehicle_type_id":"4","last_reported":1727348869,"current_range_meters":16800,"station_id":"ce4bhmp2rcd13ifvqgog","pricing_plan_id":"cebpf4jnsgd1na2vs0mg"},{"bike_id":"60261c29-415b-4544-93be-de5751463a31","system_id":"levelo_inurba_marseille","lat":43.30605,"lon":5.39358,"is_reserved":false,"is_disabled":false,"rental_uris":{"android":"levelo://app?vid=60261c29-415b-4544-93be-de5751463a31","ios":"levelo://app?vid=60261c29-415b-4544-93be-de5751463a31"},"vehicle_type_id":"4","last_reported":1727348869,"current_range_meters":11600,"station_id":"ce4bh0p2rcd13ifvqd80","pricing_plan_id":"cebpf4jnsgd1na2vs0mg"},{"bike_id":"c017f362-9664-45c4-b19b-7118d6bf47c1","system_id":"levelo_inurba_marseille","lat":43.28154,"lon":5.42649,"is_reserved":false,"is_disabled":false,"rental_uris":{"android":"levelo://app?vid=c017f362-9664-45c4-b19b-7118d6bf47c1","ios":"levelo://app?vid=c017f362-9664-45c4-b19b-7118d6bf47c1"},"vehicle_type_id":"4","last_reported":1727348869,"current_range_meters":38800,"station_id":"ce4bhnh2rcd13ifvqgug","pricing_plan_id":"cebpf4jnsgd1na2vs0mg"},{"bike_id":"5f5028ac-5218-4e99-9cb8-00b5aea72bcd","system_id":"levelo_inurba_marseille","lat":43.30598,"lon":5.37209,"is_reserved":false,"is_disabled":false,"rental_uris":{"android":"levelo://app?vid=5f5028ac-5218-4e99-9cb8-00b5aea72bcd","ios":"levelo://app?vid=5f5028ac-5218-4e99-9cb8-00b5aea72bcd"},"vehicle_type_id":"4","last_reported":1727348869,"current_range_meters":38400,"station_id":"ce4bgqh2rcd13ifvqc4g","pricing_plan_id":"cebpf4jnsgd1na2vs0mg"},{"bike_id":"fb5f23af-fef1-4fba-8fa5-582c1343bd84","system_id":"levelo_inurba_marseille","lat":43.30147,"lon":5.3742,"is_reserved":false,"is_disabled":false,"rental_uris":{"android":"levelo://app?vid=fb5f23af-fef1-4fba-8fa5-582c1343bd84","ios":"levelo://app?vid=fb5f23af-fef1-4fba-8fa5-582c1343bd84"},"vehicle_type_id":"4","last_reported":1727348869,"current_range_meters":14800,"station_id":"ce4bgs92rcd13ifvqcc0","pricing_plan_id":"cebpf4jnsgd1na2vs0mg"},{"bike_id":"06511661-9dc3-42bf-bf56-3390e1e93d8a","system_id":"levelo_inurba_marseille","lat":43.2808,"lon":5.39658,"is_reserved":false,"is_disabled":false,"rental_uris":{"android":"levelo://app?vid=06511661-9dc3-42bf-bf56-3390e1e93d8a","ios":"levelo://app?vid=06511661-9dc3-42bf-bf56-3390e1e93d8a"},"vehicle_type_id":"4","last_reported":1727348869,"current_range_meters":38400,"station_id":"ce4bho12rcd13ifvqh2g","pricing_plan_id":"cebpf4jnsgd1na2vs0mg"},{"bike_id":"77faf788-da78-4c68-85c9-999cef3f8514","system_id":"levelo_inurba_marseille","lat":43.29579,"lon":5.36742,"is_reserved":false,"is_disabled":false,"rental_uris":{"android":"levelo://app?vid=77faf788-da78-4c68-85c9-999cef3f8514","ios":"levelo://app?vid=77faf788-da78-4c68-85c9-999cef3f8514"},"vehicle_type_id":"4","last_reported":1727348869,"current_range_meters":36400,"station_id":"ce4bgph2rcd13ifvqc2g","pricing_plan_id":"cebpf4jnsgd1na2vs0mg"},{"bike_id":"7225a926-f1b2-438c-9d2d-59fd57e8d814","system_id":"levelo_inurba_marseille","lat":43.30948,"lon":5.39018,"is_reserved":false,"is_disabled":false,"rental_uris":{"android":"levelo://app?vid=7225a926-f1b2-438c-9d2d-59fd57e8d814","ios":"levelo://app?vid=7225a926-f1b2-438c-9d2d-59fd57e8d814"},"vehicle_type_id":"4","last_reported":1727348869,"current_range_meters":29600,"station_id":"ce4bgup2rcd13ifvqco0","pricing_plan_id":"cebpf4jnsgd1na2vs0mg"},{"bike_id":"5325b546-be8c-45ee-8bcb-8af51028126d","system_id":"levelo_inurba_marseille","lat":43.31229,"lon":5.3687,"is_reserved":false,"is_disabled":false,"rental_uris":{"android":"levelo://app?vid=5325b546-be8c-45ee-8bcb-8af51028126d","ios":"levelo://app?vid=5325b546-be8c-45ee-8bcb-8af51028126d"},"vehicle_type_id":"4","last_reported":1727348869,"current_range_meters":38800,"station_id":"ce4bgl92rcd13ifvqbq0","pricing_plan_id":"cebpf4jnsgd1na2vs0mg"},{"bike_id":"38674e62-e768-405d-9590-89d89d7b7b0f","system_id":"levelo_inurba_marseille","lat":43.26062,"lon":5.39396,"is_reserved":false,"is_disabled":false,"rental_uris":{"android":"levelo://app?vid=38674e62-e768-405d-9590-89d89d7b7b0f","ios":"levelo://app?vid=38674e62-e768-405d-9590-89d89d7b7b0f"},"vehicle_type_id":"4","last_reported":1727348869,"current_range_meters":39200,"station_id":"ce4bhh92rcd13ifvqfj0","pricing_plan_id":"cebpf4jnsgd1na2vs0mg"},{"bike_id":"b0a5c5c8-b96f-4d5c-ad0a-9a4c9139d21f","system_id":"levelo_inurba_marseille","lat":43.29776,"lon":5.37115,"is_reserved":false,"is_disabled":false,"rental_uris":{"android":"levelo://app?vid=b0a5c5c8-b96f-4d5c-ad0a-9a4c9139d21f","ios":"levelo://app?vid=b0a5c5c8-b96f-4d5c-ad0a-9a4c9139d21f"},"vehicle_type_id":"4","last_reported":1727348869,"current_range_meters":19600,"station_id":"ce4bgop2rcd13ifvqc1g","pricing_plan_id":"cebpf4jnsgd1na2vs0mg"},{"bike_id":"510ca38e-0a4b-4a9a-83a5-24442e5133a6","system_id":"levelo_inurba_marseille","lat":43.29528,"lon":5.37504,"is_reserved":false,"is_disabled":false,"rental_uris":{"android":"levelo://app?vid=510ca38e-0a4b-4a9a-83a5-24442e5133a6","ios":"levelo://app?vid=510ca38e-0a4b-4a9a-83a5-24442e5133a6"},"vehicle_type_id":"4","last_reported":1727348869,"current_range_meters":22800,"station_id":"ce4bgkp2rcd13ifvqbmg","pricing_plan_id":"cebpf4jnsgd1na2vs0mg"},{"bike_id":"ab0a2808-6f8d-4051-9584-bbbd7fb92081","system_id":"levelo_inurba_marseille","lat":43.29609,"lon":5.37725,"is_reserved":false,"is_disabled":false,"rental_uris":{"android":"levelo://app?vid=ab0a2808-6f8d-4051-9584-bbbd7fb92081","ios":"levelo://app?vid=ab0a2808-6f8d-4051-9584-bbbd7fb92081"},"vehicle_type_id":"4","last_reported":1727348869,"current_range_meters":39200,"station_id":"ce4bgi92rcd13ifvqb90","pricing_plan_id":"cebpf4jnsgd1na2vs0mg"},{"bike_id":"598c75e1-546f-44b8-9cc0-074cd813c1cc","system_id":"levelo_inurba_marseille","lat":43.29681,"lon":5.37301,"is_reserved":false,"is_disabled":false,"rental_uris":{"android":"levelo://app?vid=598c75e1-546f-44b8-9cc0-074cd813c1cc","ios":"levelo://app?vid=598c75e1-546f-44b8-9cc0-074cd813c1cc"},"vehicle_type_id":"4","last_reported":1727348869,"current_range_meters":33600,"station_id":"ce4bgk12rcd13ifvqbj0","pricing_plan_id":"cebpf4jnsgd1na2vs0mg"},{"bike_id":"980a6e78-e57a-42f3-8e3b-e7ab987b675c","system_id":"levelo_inurba_marseille","lat":43.24086,"lon":5.37764,"is_reserved":false,"is_disabled":false,"rental_uris":{"android":"levelo://app?vid=980a6e78-e57a-42f3-8e3b-e7ab987b675c","ios":"levelo://app?vid=980a6e78-e57a-42f3-8e3b-e7ab987b675c"},"vehicle_type_id":"4","last_reported":1727348869,"current_range_meters":17600,"station_id":"ce4bhnp2rcd13ifvqgvg","pricing_plan_id":"cebpf4jnsgd1na2vs0mg"},{"bike_id":"b36d837e-7bf2-42b2-956b-db175cf17036","system_id":"levelo_inurba_marseille","lat":43.26201,"lon":5.37937,"is_reserved":false,"is_disabled":false,"rental_uris":{"android":"levelo://app?vid=b36d837e-7bf2-42b2-956b-db175cf17036","ios":"levelo://app?vid=b36d837e-7bf2-42b2-956b-db175cf17036"},"vehicle_type_id":"4","last_reported":1727348869,"current_range_meters":32000,"station_id":"ce4bhjp2rcd13ifvqg90","pricing_plan_id":"cebpf4jnsgd1na2vs0mg"},{"bike_id":"66e8feaf-a145-4577-9c62-a3ed2442b396","system_id":"levelo_inurba_marseille","lat":43.30598,"lon":5.39353,"is_reserved":false,"is_disabled":false,"rental_uris":{"android":"levelo://app?vid=66e8feaf-a145-4577-9c62-a3ed2442b396","ios":"levelo://app?vid=66e8feaf-a145-4577-9c62-a3ed2442b396"},"vehicle_type_id":"4","last_reported":1727348869,"current_range_meters":28000,"station_id":"ce4bh0p2rcd13ifvqd80","pricing_plan_id":"cebpf4jnsgd1na2vs0mg"},{"bike_id":"99d44a35-6595-4df5-8399-2ae2357600c8","system_id":"levelo_inurba_marseille","lat":43.259271,"lon":5.408906,"is_reserved":false,"is_disabled":false,"rental_uris":{"android":"levelo://app?vid=99d44a35-6595-4df5-8399-2ae2357600c8","ios":"levelo://app?vid=99d44a35-6595-4df5-8399-2ae2357600c8"},"vehicle_type_id":"4","last_reported":1727348869,"current_range_meters":30400,"station_id":"ce4bhm92rcd13ifvqglg","pricing_plan_id":"cebpf4jnsgd1na2vs0mg"},{"bike_id":"d3245b2d-0988-48fe-aa8c-9cae67bc4fda","system_id":"levelo_inurba_marseille","lat":43.246246,"lon":5.387939,"is_reserved":false,"is_disabled":false,"rental_uris":{"android":"levelo://app?vid=d3245b2d-0988-48fe-aa8c-9cae67bc4fda","ios":"levelo://app?vid=d3245b2d-0988-48fe-aa8c-9cae67bc4fda"},"vehicle_type_id":"4","last_reported":1727348869,"current_range_meters":6400,"station_id":"ce4bhg12rcd13ifvqf60","pricing_plan_id":"cebpf4jnsgd1na2vs0mg"},{"bike_id":"d6b2933c-cc1f-4458-8aed-38105e573d5c","system_id":"levelo_inurba_marseille","lat":43.304657,"lon":5.379013,"is_reserved":false,"is_disabled":false,"rental_uris":{"android":"levelo://app?vid=d6b2933c-cc1f-4458-8aed-38105e573d5c","ios":"levelo://app?vid=d6b2933c-cc1f-4458-8aed-38105e573d5c"},"vehicle_type_id":"4","last_reported":1727348869,"current_range_meters":10000,"station_id":"ce4bgt92rcd13ifvqcg0","pricing_plan_id":"cebpf4jnsgd1na2vs0mg"},{"bike_id":"fed1d64f-a6c2-492b-a33e-fd0f51d2cd89","system_id":"levelo_inurba_marseille","lat":43.31171,"lon":5.38728,"is_reserved":false,"is_disabled":false,"rental_uris":{"android":"levelo://app?vid=fed1d64f-a6c2-492b-a33e-fd0f51d2cd89","ios":"levelo://app?vid=fed1d64f-a6c2-492b-a33e-fd0f51d2cd89"},"vehicle_type_id":"4","last_reported":1727348869,"current_range_meters":24800,"station_id":"ce4bgv12rcd13ifvqcp0","pricing_plan_id":"cebpf4jnsgd1na2vs0mg"},{"bike_id":"9ef630c4-b740-4af2-85dd-1b33e4b82b30","system_id":"levelo_inurba_marseille","lat":43.27425,"lon":5.39417,"is_reserved":false,"is_disabled":false,"rental_uris":{"android":"levelo://app?vid=9ef630c4-b740-4af2-85dd-1b33e4b82b30","ios":"levelo://app?vid=9ef630c4-b740-4af2-85dd-1b33e4b82b30"},"vehicle_type_id":"4","last_reported":1727348869,"current_range_meters":36400,"station_id":"ce4bhdp2rcd13ifvqf20","pricing_plan_id":"cebpf4jnsgd1na2vs0mg"},{"bike_id":"62418745-16a6-47da-a04f-a524e328c3ce","system_id":"levelo_inurba_marseille","lat":43.2606,"lon":5.39399,"is_reserved":false,"is_disabled":false,"rental_uris":{"android":"levelo://app?vid=62418745-16a6-47da-a04f-a524e328c3ce","ios":"levelo://app?vid=62418745-16a6-47da-a04f-a524e328c3ce"},"vehicle_type_id":"4","last_reported":1727348869,"current_range_meters":6000,"station_id":"ce4bhh92rcd13ifvqfj0","pricing_plan_id":"cebpf4jnsgd1na2vs0mg"},{"bike_id":"fbec4509-ed70-417a-9740-54b584dfd1da","system_id":"levelo_inurba_marseille","lat":43.2465,"lon":5.38889,"is_reserved":false,"is_disabled":false,"rental_uris":{"android":"levelo://app?vid=fbec4509-ed70-417a-9740-54b584dfd1da","ios":"levelo://app?vid=fbec4509-ed70-417a-9740-54b584dfd1da"},"vehicle_type_id":"4","last_reported":1727348869,"current_range_meters":29600,"station_id":"ce4bhg12rcd13ifvqf60","pricing_plan_id":"cebpf4jnsgd1na2vs0mg"},{"bike_id":"c5294afe-99d4-483d-bcf2-94f93af0ac7b","system_id":"levelo_inurba_marseille","lat":43.29587,"lon":5.36745,"is_reserved":false,"is_disabled":false,"rental_uris":{"android":"levelo://app?vid=c5294afe-99d4-483d-bcf2-94f93af0ac7b","ios":"levelo://app?vid=c5294afe-99d4-483d-bcf2-94f93af0ac7b"},"vehicle_type_id":"4","last_reported":1727348869,"current_range_meters":30000,"station_id":"ce4bgph2rcd13ifvqc2g","pricing_plan_id":"cebpf4jnsgd1na2vs0mg"},{"bike_id":"b3f548d7-4b97-47ca-9cd4-ea7964e564c3","system_id":"levelo_inurba_marseille","lat":43.29812,"lon":5.40412,"is_reserved":false,"is_disabled":false,"rental_uris":{"android":"levelo://app?vid=b3f548d7-4b97-47ca-9cd4-ea7964e564c3","ios":"levelo://app?vid=b3f548d7-4b97-47ca-9cd4-ea7964e564c3"},"vehicle_type_id":"4","last_reported":1727348869,"current_range_meters":39200,"station_id":"ce4bh112rcd13ifvqd90","pricing_plan_id":"cebpf4jnsgd1na2vs0mg"},{"bike_id":"4e3260e0-1588-4fc3-a0c6-3e12027c7824","system_id":"levelo_inurba_marseille","lat":43.33757,"lon":5.37431,"is_reserved":false,"is_disabled":false,"rental_uris":{"android":"levelo://app?vid=4e3260e0-1588-4fc3-a0c6-3e12027c7824","ios":"levelo://app?vid=4e3260e0-1588-4fc3-a0c6-3e12027c7824"},"vehicle_type_id":"4","last_reported":1727348869,"current_range_meters":26800,"station_id":"","pricing_plan_id":"cebpf4jnsgd1na2vs0mg"},{"bike_id":"37fecb50-8314-4ea6-af9e-327f32dd6a1b","system_id":"levelo_inurba_marseille","lat":43.25826,"lon":5.39436,"is_reserved":false,"is_disabled":false,"rental_uris":{"android":"levelo://app?vid=37fecb50-8314-4ea6-af9e-327f32dd6a1b","ios":"levelo://app?vid=37fecb50-8314-4ea6-af9e-327f32dd6a1b"},"vehicle_type_id":"4","last_reported":1727348869,"current_range_meters":24000,"station_id":"ce4bhip2rcd13ifvqft0","pricing_plan_id":"cebpf4jnsgd1na2vs0mg"},{"bike_id":"91372296-66f0-4955-9ea7-af2aeb756cbd","system_id":"levelo_inurba_marseille","lat":43.29852,"lon":5.3627,"is_reserved":false,"is_disabled":false,"rental_uris":{"android":"levelo://app?vid=91372296-66f0-4955-9ea7-af2aeb756cbd","ios":"levelo://app?vid=91372296-66f0-4955-9ea7-af2aeb756cbd"},"vehicle_type_id":"4","last_reported":1727348869,"current_range_meters":38800,"station_id":"ce4bgpp2rcd13ifvqc3g","pricing_plan_id":"cebpf4jnsgd1na2vs0mg"},{"bike_id":"479398d5-402e-4730-bf11-1d5761ad0ddd","system_id":"levelo_inurba_marseille","lat":43.30955,"lon":5.39031,"is_reserved":false,"is_disabled":false,"rental_uris":{"android":"levelo://app?vid=479398d5-402e-4730-bf11-1d5761ad0ddd","ios":"levelo://app?vid=479398d5-402e-4730-bf11-1d5761ad0ddd"},"vehicle_type_id":"4","last_reported":1727348869,"current_range_meters":12400,"station_id":"ce4bgup2rcd13ifvqco0","pricing_plan_id":"cebpf4jnsgd1na2vs0mg"},{"bike_id":"b5cdcddb-a8b5-45ca-ab1b-f1ccec65f8ae","system_id":"levelo_inurba_marseille","lat":43.29948,"lon":5.36529,"is_reserved":false,"is_disabled":false,"rental_uris":{"android":"levelo://app?vid=b5cdcddb-a8b5-45ca-ab1b-f1ccec65f8ae","ios":"levelo://app?vid=b5cdcddb-a8b5-45ca-ab1b-f1ccec65f8ae"},"vehicle_type_id":"4","last_reported":1727348869,"current_range_meters":28800,"station_id":"ce4bgm92rcd13ifvqbr0","pricing_plan_id":"cebpf4jnsgd1na2vs0mg"},{"bike_id":"d8898c38-d84b-4a32-81d5-f35fe017d87f","system_id":"levelo_inurba_marseille","lat":43.31216,"lon":5.3686,"is_reserved":false,"is_disabled":false,"rental_uris":{"android":"levelo://app?vid=d8898c38-d84b-4a32-81d5-f35fe017d87f","ios":"levelo://app?vid=d8898c38-d84b-4a32-81d5-f35fe017d87f"},"vehicle_type_id":"4","last_reported":1727348869,"current_range_meters":39200,"station_id":"ce4bgl92rcd13ifvqbq0","pricing_plan_id":"cebpf4jnsgd1na2vs0mg"},{"bike_id":"40d64c55-e43e-48ca-8178-33aa31c61926","system_id":"levelo_inurba_marseille","lat":43.28574,"lon":5.39495,"is_reserved":false,"is_disabled":false,"rental_uris":{"android":"levelo://app?vid=40d64c55-e43e-48ca-8178-33aa31c61926","ios":"levelo://app?vid=40d64c55-e43e-48ca-8178-33aa31c61926"},"vehicle_type_id":"4","last_reported":1727348869,"current_range_meters":20800,"station_id":"ce4bh292rcd13ifvqdg0","pricing_plan_id":"cebpf4jnsgd1na2vs0mg"},{"bike_id":"7b412569-9fed-4623-97b6-14663db5fb2b","system_id":"levelo_inurba_marseille","lat":43.29266,"lon":5.40895,"is_reserved":false,"is_disabled":false,"rental_uris":{"android":"levelo://app?vid=7b412569-9fed-4623-97b6-14663db5fb2b","ios":"levelo://app?vid=7b412569-9fed-4623-97b6-14663db5fb2b"},"vehicle_type_id":"4","last_reported":1727348869,"current_range_meters":31200,"station_id":"ce4bh192rcd13ifvqdc0","pricing_plan_id":"cebpf4jnsgd1na2vs0mg"},{"bike_id":"0fddc365-1692-4987-bf4b-22f309e479bf","system_id":"levelo_inurba_marseille","lat":43.29847,"lon":5.36282,"is_reserved":false,"is_disabled":false,"rental_uris":{"android":"levelo://app?vid=0fddc365-1692-4987-bf4b-22f309e479bf","ios":"levelo://app?vid=0fddc365-1692-4987-bf4b-22f309e479bf"},"vehicle_type_id":"4","last_reported":1727348869,"current_range_meters":39200,"station_id":"ce4bgpp2rcd13ifvqc3g","pricing_plan_id":"cebpf4jnsgd1na2vs0mg"},{"bike_id":"f2385d2b-ef6a-4a18-a08b-9bc5e94d8cd6","system_id":"levelo_inurba_marseille","lat":43.24083,"lon":5.3774,"is_reserved":false,"is_disabled":false,"rental_uris":{"android":"levelo://app?vid=f2385d2b-ef6a-4a18-a08b-9bc5e94d8cd6","ios":"levelo://app?vid=f2385d2b-ef6a-4a18-a08b-9bc5e94d8cd6"},"vehicle_type_id":"4","last_reported":1727348869,"current_range_meters":24400,"station_id":"ce4bhnp2rcd13ifvqgvg","pricing_plan_id":"cebpf4jnsgd1na2vs0mg"},{"bike_id":"03ee95af-84cc-44ed-a76a-332d8cd751b2","system_id":"levelo_inurba_marseille","lat":43.23149,"lon":5.43711,"is_reserved":false,"is_disabled":false,"rental_uris":{"android":"levelo://app?vid=03ee95af-84cc-44ed-a76a-332d8cd751b2","ios":"levelo://app?vid=03ee95af-84cc-44ed-a76a-332d8cd751b2"},"vehicle_type_id":"4","last_reported":1727348869,"current_range_meters":4000,"station_id":"ce4bhmp2rcd13ifvqgog","pricing_plan_id":"cebpf4jnsgd1na2vs0mg"},{"bike_id":"08a5cd66-f021-4853-bec7-3221a1186d83","system_id":"levelo_inurba_marseille","lat":43.27498,"lon":5.42448,"is_reserved":false,"is_disabled":false,"rental_uris":{"android":"levelo://app?vid=08a5cd66-f021-4853-bec7-3221a1186d83","ios":"levelo://app?vid=08a5cd66-f021-4853-bec7-3221a1186d83"},"vehicle_type_id":"4","last_reported":1727348869,"current_range_meters":21600,"station_id":"ce4bhn92rcd13ifvqgrg","pricing_plan_id":"cebpf4jnsgd1na2vs0mg"},{"bike_id":"5bc39a34-3f53-40c2-8ce0-19b9cb91c62c","system_id":"levelo_inurba_marseille","lat":43.28849,"lon":5.35866,"is_reserved":false,"is_disabled":false,"rental_uris":{"android":"levelo://app?vid=5bc39a34-3f53-40c2-8ce0-19b9cb91c62c","ios":"levelo://app?vid=5bc39a34-3f53-40c2-8ce0-19b9cb91c62c"},"vehicle_type_id":"4","last_reported":1727348869,"current_range_meters":18000,"station_id":"ce4bhb12rcd13ifvqem0","pricing_plan_id":"cebpf4jnsgd1na2vs0mg"},{"bike_id":"b26e623e-03c2-47cd-9c17-635507c9a79b","system_id":"levelo_inurba_marseille","lat":43.290854,"lon":5.375705,"is_reserved":false,"is_disabled":false,"rental_uris":{"android":"levelo://app?vid=b26e623e-03c2-47cd-9c17-635507c9a79b","ios":"levelo://app?vid=b26e623e-03c2-47cd-9c17-635507c9a79b"},"vehicle_type_id":"4","last_reported":1727348869,"current_range_meters":26000,"station_id":"ce4bh692rcd13ifvqe90","pricing_plan_id":"cebpf4jnsgd1na2vs0mg"},{"bike_id":"081e9a10-921b-402b-8144-4b18806a50b3","system_id":"levelo_inurba_marseille","lat":43.2931,"lon":5.37162,"is_reserved":false,"is_disabled":false,"rental_uris":{"android":"levelo://app?vid=081e9a10-921b-402b-8144-4b18806a50b3","ios":"levelo://app?vid=081e9a10-921b-402b-8144-4b18806a50b3"},"vehicle_type_id":"4","last_reported":1727348869,"current_range_meters":19200,"station_id":"ce4bgh92rcd13ifvqb40","pricing_plan_id":"cebpf4jnsgd1na2vs0mg"},{"bike_id":"ffc2d139-fd18-4ab7-9843-8c9f64d4391f","system_id":"levelo_inurba_marseille","lat":43.27496,"lon":5.4245,"is_reserved":false,"is_disabled":false,"rental_uris":{"android":"levelo://app?vid=ffc2d139-fd18-4ab7-9843-8c9f64d4391f","ios":"levelo://app?vid=ffc2d139-fd18-4ab7-9843-8c9f64d4391f"},"vehicle_type_id":"4","last_reported":1727348869,"current_range_meters":32000,"station_id":"ce4bhn92rcd13ifvqgrg","pricing_plan_id":"cebpf4jnsgd1na2vs0mg"},{"bike_id":"db0bd338-0ebe-449a-946b-76df7f9dcda2","system_id":"levelo_inurba_marseille","lat":43.29971,"lon":5.37163,"is_reserved":false,"is_disabled":false,"rental_uris":{"android":"levelo://app?vid=db0bd338-0ebe-449a-946b-76df7f9dcda2","ios":"levelo://app?vid=db0bd338-0ebe-449a-946b-76df7f9dcda2"},"vehicle_type_id":"4","last_reported":1727348869,"current_range_meters":6000,"station_id":"ce4bgr92rcd13ifvqc7g","pricing_plan_id":"cebpf4jnsgd1na2vs0mg"},{"bike_id":"637beff3-55bd-4f15-99c0-4cb53d5dddb9","system_id":"levelo_inurba_marseille","lat":43.30657,"lon":5.39532,"is_reserved":false,"is_disabled":false,"rental_uris":{"android":"levelo://app?vid=637beff3-55bd-4f15-99c0-4cb53d5dddb9","ios":"levelo://app?vid=637beff3-55bd-4f15-99c0-4cb53d5dddb9"},"vehicle_type_id":"4","last_reported":1727348869,"current_range_meters":36800,"station_id":"","pricing_plan_id":"cebpf4jnsgd1na2vs0mg"},{"bike_id":"b3ca7e08-0e60-41d3-a56d-0937cdac0568","system_id":"levelo_inurba_marseille","lat":43.29582,"lon":5.3674,"is_reserved":false,"is_disabled":false,"rental_uris":{"android":"levelo://app?vid=b3ca7e08-0e60-41d3-a56d-0937cdac0568","ios":"levelo://app?vid=b3ca7e08-0e60-41d3-a56d-0937cdac0568"},"vehicle_type_id":"4","last_reported":1727348869,"current_range_meters":31200,"station_id":"ce4bgph2rcd13ifvqc2g","pricing_plan_id":"cebpf4jnsgd1na2vs0mg"},{"bike_id":"8b7c5d69-3d9c-49a8-9703-129810f5e463","system_id":"levelo_inurba_marseille","lat":43.28153,"lon":5.4264,"is_reserved":false,"is_disabled":false,"rental_uris":{"android":"levelo://app?vid=8b7c5d69-3d9c-49a8-9703-129810f5e463","ios":"levelo://app?vid=8b7c5d69-3d9c-49a8-9703-129810f5e463"},"vehicle_type_id":"4","last_reported":1727348869,"current_range_meters":11600,"station_id":"ce4bhnh2rcd13ifvqgug","pricing_plan_id":"cebpf4jnsgd1na2vs0mg"},{"bike_id":"71417a4e-e058-47af-99fe-23be5a623ecf","system_id":"levelo_inurba_marseille","lat":43.27491,"lon":5.42459,"is_reserved":false,"is_disabled":false,"rental_uris":{"android":"levelo://app?vid=71417a4e-e058-47af-99fe-23be5a623ecf","ios":"levelo://app?vid=71417a4e-e058-47af-99fe-23be5a623ecf"},"vehicle_type_id":"4","last_reported":1727348869,"current_range_meters":13600,"station_id":"ce4bhn92rcd13ifvqgrg","pricing_plan_id":"cebpf4jnsgd1na2vs0mg"},{"bike_id":"36c8e788-c711-4ae7-9ff8-f7f816e7f2fb","system_id":"levelo_inurba_marseille","lat":43.24073,"lon":5.37761,"is_reserved":false,"is_disabled":false,"rental_uris":{"android":"levelo://app?vid=36c8e788-c711-4ae7-9ff8-f7f816e7f2fb","ios":"levelo://app?vid=36c8e788-c711-4ae7-9ff8-f7f816e7f2fb"},"vehicle_type_id":"4","last_reported":1727348869,"current_range_meters":19600,"station_id":"ce4bhnp2rcd13ifvqgvg","pricing_plan_id":"cebpf4jnsgd1na2vs0mg"},{"bike_id":"177a1414-f72e-484b-a2f1-a492c390188b","system_id":"levelo_inurba_marseille","lat":43.29523,"lon":5.39045,"is_reserved":false,"is_disabled":false,"rental_uris":{"android":"levelo://app?vid=177a1414-f72e-484b-a2f1-a492c390188b","ios":"levelo://app?vid=177a1414-f72e-484b-a2f1-a492c390188b"},"vehicle_type_id":"4","last_reported":1727348869,"current_range_meters":2800,"station_id":"ce4bh3p2rcd13ifvqdp0","pricing_plan_id":"cebpf4jnsgd1na2vs0mg"},{"bike_id":"d5d34a68-80eb-47d7-b046-fea1279bb652","system_id":"levelo_inurba_marseille","lat":43.33754,"lon":5.37452,"is_reserved":false,"is_disabled":false,"rental_uris":{"android":"levelo://app?vid=d5d34a68-80eb-47d7-b046-fea1279bb652","ios":"levelo://app?vid=d5d34a68-80eb-47d7-b046-fea1279bb652"},"vehicle_type_id":"4","last_reported":1727348869,"current_range_meters":6400,"station_id":"","pricing_plan_id":"cebpf4jnsgd1na2vs0mg"},{"bike_id":"0a5ef607-1314-4ea7-a547-44134686620f","system_id":"levelo_inurba_marseille","lat":43.27485,"lon":5.4246,"is_reserved":false,"is_disabled":false,"rental_uris":{"android":"levelo://app?vid=0a5ef607-1314-4ea7-a547-44134686620f","ios":"levelo://app?vid=0a5ef607-1314-4ea7-a547-44134686620f"},"vehicle_type_id":"4","last_reported":1727348869,"current_range_meters":37600,"station_id":"ce4bhn92rcd13ifvqgrg","pricing_plan_id":"cebpf4jnsgd1na2vs0mg"},{"bike_id":"0b4d9145-a4cf-4ec2-abb3-9e32f8e9326d","system_id":"levelo_inurba_marseille","lat":43.29716,"lon":5.37685,"is_reserved":false,"is_disabled":false,"rental_uris":{"android":"levelo://app?vid=0b4d9145-a4cf-4ec2-abb3-9e32f8e9326d","ios":"levelo://app?vid=0b4d9145-a4cf-4ec2-abb3-9e32f8e9326d"},"vehicle_type_id":"4","last_reported":1727348869,"current_range_meters":30800,"station_id":"ce4bgkh2rcd13ifvqbl0","pricing_plan_id":"cebpf4jnsgd1na2vs0mg"},{"bike_id":"b25303f3-375f-4355-b91a-a2aba7af93e0","system_id":"levelo_inurba_marseille","lat":43.26211,"lon":5.37444,"is_reserved":false,"is_disabled":false,"rental_uris":{"android":"levelo://app?vid=b25303f3-375f-4355-b91a-a2aba7af93e0","ios":"levelo://app?vid=b25303f3-375f-4355-b91a-a2aba7af93e0"},"vehicle_type_id":"4","last_reported":1727348869,"current_range_meters":18800,"station_id":"ce4bhgp2rcd13ifvqfc0","pricing_plan_id":"cebpf4jnsgd1na2vs0mg"},{"bike_id":"ca1ab5b8-050a-4826-bd4f-ca458c36d257","system_id":"levelo_inurba_marseille","lat":43.24078,"lon":5.37759,"is_reserved":false,"is_disabled":false,"rental_uris":{"android":"levelo://app?vid=ca1ab5b8-050a-4826-bd4f-ca458c36d257","ios":"levelo://app?vid=ca1ab5b8-050a-4826-bd4f-ca458c36d257"},"vehicle_type_id":"4","last_reported":1727348869,"current_range_meters":16000,"station_id":"ce4bhnp2rcd13ifvqgvg","pricing_plan_id":"cebpf4jnsgd1na2vs0mg"},{"bike_id":"b7941bec-25a4-4530-a51c-81fe3bb9075b","system_id":"levelo_inurba_marseille","lat":43.25579,"lon":5.38221,"is_reserved":false,"is_disabled":false,"rental_uris":{"android":"levelo://app?vid=b7941bec-25a4-4530-a51c-81fe3bb9075b","ios":"levelo://app?vid=b7941bec-25a4-4530-a51c-81fe3bb9075b"},"vehicle_type_id":"4","last_reported":1727348869,"current_range_meters":20800,"station_id":"ce4bhih2rcd13ifvqfs0","pricing_plan_id":"cebpf4jnsgd1na2vs0mg"},{"bike_id":"86cc00fb-3115-49c4-8209-a596309893f4","system_id":"levelo_inurba_marseille","lat":43.28148,"lon":5.42646,"is_reserved":false,"is_disabled":false,"rental_uris":{"android":"levelo://app?vid=86cc00fb-3115-49c4-8209-a596309893f4","ios":"levelo://app?vid=86cc00fb-3115-49c4-8209-a596309893f4"},"vehicle_type_id":"4","last_reported":1727348869,"current_range_meters":37600,"station_id":"ce4bhnh2rcd13ifvqgug","pricing_plan_id":"cebpf4jnsgd1na2vs0mg"},{"bike_id":"cdd4a971-88d1-4937-adf9-51649b8b80ee","system_id":"levelo_inurba_marseille","lat":43.30909,"lon":5.36858,"is_reserved":false,"is_disabled":false,"rental_uris":{"android":"levelo://app?vid=cdd4a971-88d1-4937-adf9-51649b8b80ee","ios":"levelo://app?vid=cdd4a971-88d1-4937-adf9-51649b8b80ee"},"vehicle_type_id":"4","last_reported":1727348869,"current_range_meters":38800,"station_id":"ce4bgn92rcd13ifvqbvg","pricing_plan_id":"cebpf4jnsgd1na2vs0mg"},{"bike_id":"a2c30071-cf26-4a67-a5bd-fe6db5795b59","system_id":"levelo_inurba_marseille","lat":43.24185,"lon":5.39723,"is_reserved":false,"is_disabled":false,"rental_uris":{"android":"levelo://app?vid=a2c30071-cf26-4a67-a5bd-fe6db5795b59","ios":"levelo://app?vid=a2c30071-cf26-4a67-a5bd-fe6db5795b59"},"vehicle_type_id":"4","last_reported":1727348869,"current_range_meters":26000,"station_id":"ce4bhn12rcd13ifvqgpg","pricing_plan_id":"cebpf4jnsgd1na2vs0mg"},{"bike_id":"2ed98b51-95b7-4b57-a44b-84e22c01b097","system_id":"levelo_inurba_marseille","lat":43.25938,"lon":5.409,"is_reserved":false,"is_disabled":false,"rental_uris":{"android":"levelo://app?vid=2ed98b51-95b7-4b57-a44b-84e22c01b097","ios":"levelo://app?vid=2ed98b51-95b7-4b57-a44b-84e22c01b097"},"vehicle_type_id":"4","last_reported":1727348869,"current_range_meters":26000,"station_id":"ce4bhm92rcd13ifvqglg","pricing_plan_id":"cebpf4jnsgd1na2vs0mg"},{"bike_id":"c4315860-f209-4d6e-9f88-65388055b379","system_id":"levelo_inurba_marseille","lat":43.2607,"lon":5.39399,"is_reserved":false,"is_disabled":false,"rental_uris":{"android":"levelo://app?vid=c4315860-f209-4d6e-9f88-65388055b379","ios":"levelo://app?vid=c4315860-f209-4d6e-9f88-65388055b379"},"vehicle_type_id":"4","last_reported":1727348869,"current_range_meters":33200,"station_id":"ce4bhh92rcd13ifvqfj0","pricing_plan_id":"cebpf4jnsgd1na2vs0mg"},{"bike_id":"db901e4b-152d-44f9-bf8e-0ac06b2af6fe","system_id":"levelo_inurba_marseille","lat":43.30538,"lon":5.367,"is_reserved":false,"is_disabled":false,"rental_uris":{"android":"levelo://app?vid=db901e4b-152d-44f9-bf8e-0ac06b2af6fe","ios":"levelo://app?vid=db901e4b-152d-44f9-bf8e-0ac06b2af6fe"},"vehicle_type_id":"4","last_reported":1727348869,"current_range_meters":29600,"station_id":"ce4bgrp2rcd13ifvqc9g","pricing_plan_id":"cebpf4jnsgd1na2vs0mg"},{"bike_id":"aa854054-8172-4ebb-a052-d32db433e771","system_id":"levelo_inurba_marseille","lat":43.23156,"lon":5.4371,"is_reserved":false,"is_disabled":false,"rental_uris":{"android":"levelo://app?vid=aa854054-8172-4ebb-a052-d32db433e771","ios":"levelo://app?vid=aa854054-8172-4ebb-a052-d32db433e771"},"vehicle_type_id":"4","last_reported":1727348869,"current_range_meters":12400,"station_id":"ce4bhmp2rcd13ifvqgog","pricing_plan_id":"cebpf4jnsgd1na2vs0mg"},{"bike_id":"c859838e-9668-46a6-9add-c65973b9865a","system_id":"levelo_inurba_marseille","lat":43.2707,"lon":5.42272,"is_reserved":false,"is_disabled":false,"rental_uris":{"android":"levelo://app?vid=c859838e-9668-46a6-9add-c65973b9865a","ios":"levelo://app?vid=c859838e-9668-46a6-9add-c65973b9865a"},"vehicle_type_id":"4","last_reported":1727348869,"current_range_meters":28800,"station_id":"ce4bhk92rcd13ifvqgb0","pricing_plan_id":"cebpf4jnsgd1na2vs0mg"},{"bike_id":"d825028d-0676-4732-a74a-3900ef280c11","system_id":"levelo_inurba_marseille","lat":43.30901,"lon":5.36853,"is_reserved":false,"is_disabled":false,"rental_uris":{"android":"levelo://app?vid=d825028d-0676-4732-a74a-3900ef280c11","ios":"levelo://app?vid=d825028d-0676-4732-a74a-3900ef280c11"},"vehicle_type_id":"4","last_reported":1727348869,"current_range_meters":32000,"station_id":"ce4bgn92rcd13ifvqbvg","pricing_plan_id":"cebpf4jnsgd1na2vs0mg"},{"bike_id":"3088d6e9-81bb-47f3-95b3-604c18f502e3","system_id":"levelo_inurba_marseille","lat":43.27568,"lon":5.38421,"is_reserved":false,"is_disabled":false,"rental_uris":{"android":"levelo://app?vid=3088d6e9-81bb-47f3-95b3-604c18f502e3","ios":"levelo://app?vid=3088d6e9-81bb-47f3-95b3-604c18f502e3"},"vehicle_type_id":"4","last_reported":1727348869,"current_range_meters":12000,"station_id":"ce4bhh92rcd13ifvqfi0","pricing_plan_id":"cebpf4jnsgd1na2vs0mg"},{"bike_id":"e9a8dbaf-57f8-49f9-b8b9-f8977d9d8a8f","system_id":"levelo_inurba_marseille","lat":43.32473,"lon":5.36565,"is_reserved":false,"is_disabled":false,"rental_uris":{"android":"levelo://app?vid=e9a8dbaf-57f8-49f9-b8b9-f8977d9d8a8f","ios":"levelo://app?vid=e9a8dbaf-57f8-49f9-b8b9-f8977d9d8a8f"},"vehicle_type_id":"4","last_reported":1727348869,"current_range_meters":9200,"station_id":"ce4bhs12rcd13ifvqhvg","pricing_plan_id":"cebpf4jnsgd1na2vs0mg"},{"bike_id":"fb3a9efb-cbcc-4f64-8c29-93913bac7d3c","system_id":"levelo_inurba_marseille","lat":43.29914,"lon":5.37405,"is_reserved":false,"is_disabled":false,"rental_uris":{"android":"levelo://app?vid=fb3a9efb-cbcc-4f64-8c29-93913bac7d3c","ios":"levelo://app?vid=fb3a9efb-cbcc-4f64-8c29-93913bac7d3c"},"vehicle_type_id":"4","last_reported":1727348869,"current_range_meters":22800,"station_id":"","pricing_plan_id":"cebpf4jnsgd1na2vs0mg"},{"bike_id":"32f2ee49-0647-4da0-a723-7687c3b8c1c9","system_id":"levelo_inurba_marseille","lat":43.23145,"lon":5.43713,"is_reserved":false,"is_disabled":false,"rental_uris":{"android":"levelo://app?vid=32f2ee49-0647-4da0-a723-7687c3b8c1c9","ios":"levelo://app?vid=32f2ee49-0647-4da0-a723-7687c3b8c1c9"},"vehicle_type_id":"4","last_reported":1727348869,"current_range_meters":12000,"station_id":"ce4bhmp2rcd13ifvqgog","pricing_plan_id":"cebpf4jnsgd1na2vs0mg"},{"bike_id":"22e78102-e61a-40ce-aa23-528aa9929fe6","system_id":"levelo_inurba_marseille","lat":43.270668,"lon":5.422757,"is_reserved":false,"is_disabled":false,"rental_uris":{"android":"levelo://app?vid=22e78102-e61a-40ce-aa23-528aa9929fe6","ios":"levelo://app?vid=22e78102-e61a-40ce-aa23-528aa9929fe6"},"vehicle_type_id":"4","last_reported":1727348869,"current_range_meters":7200,"station_id":"ce4bhk92rcd13ifvqgb0","pricing_plan_id":"cebpf4jnsgd1na2vs0mg"},{"bike_id":"a0610759-c3de-4b79-b26f-e918039f4f8f","system_id":"levelo_inurba_marseille","lat":43.28296,"lon":5.3509,"is_reserved":false,"is_disabled":false,"rental_uris":{"android":"levelo://app?vid=a0610759-c3de-4b79-b26f-e918039f4f8f","ios":"levelo://app?vid=a0610759-c3de-4b79-b26f-e918039f4f8f"},"vehicle_type_id":"4","last_reported":1727348869,"current_range_meters":38800,"station_id":"ce4bhbp2rcd13ifvqerg","pricing_plan_id":"cebpf4jnsgd1na2vs0mg"},{"bike_id":"43c95d2e-67a9-4970-bd77-6a17e405f4dd","system_id":"levelo_inurba_marseille","lat":43.27207,"lon":5.39183,"is_reserved":false,"is_disabled":false,"rental_uris":{"android":"levelo://app?vid=43c95d2e-67a9-4970-bd77-6a17e405f4dd","ios":"levelo://app?vid=43c95d2e-67a9-4970-bd77-6a17e405f4dd"},"vehicle_type_id":"4","last_reported":1727348869,"current_range_meters":38000,"station_id":"ce4bhhp2rcd13ifvqfm0","pricing_plan_id":"cebpf4jnsgd1na2vs0mg"},{"bike_id":"83a36a9f-9334-4ac7-9001-decf1cb87617","system_id":"levelo_inurba_marseille","lat":43.33606,"lon":5.41029,"is_reserved":false,"is_disabled":false,"rental_uris":{"android":"levelo://app?vid=83a36a9f-9334-4ac7-9001-decf1cb87617","ios":"levelo://app?vid=83a36a9f-9334-4ac7-9001-decf1cb87617"},"vehicle_type_id":"4","last_reported":1727348869,"current_range_meters":24400,"station_id":"ce4bhqh2rcd13ifvqhmg","pricing_plan_id":"cebpf4jnsgd1na2vs0mg"},{"bike_id":"e6180849-4d3a-4ccb-8446-cd57ea11ee29","system_id":"levelo_inurba_marseille","lat":43.29713,"lon":5.36607,"is_reserved":false,"is_disabled":false,"rental_uris":{"android":"levelo://app?vid=e6180849-4d3a-4ccb-8446-cd57ea11ee29","ios":"levelo://app?vid=e6180849-4d3a-4ccb-8446-cd57ea11ee29"},"vehicle_type_id":"4","last_reported":1727348869,"current_range_meters":19200,"station_id":"ce4bgh92rcd13ifvqb50","pricing_plan_id":"cebpf4jnsgd1na2vs0mg"},{"bike_id":"5053a250-4d9a-4a0c-84fb-f9d6a2d2e515","system_id":"levelo_inurba_marseille","lat":43.31492,"lon":5.37302,"is_reserved":false,"is_disabled":false,"rental_uris":{"android":"levelo://app?vid=5053a250-4d9a-4a0c-84fb-f9d6a2d2e515","ios":"levelo://app?vid=5053a250-4d9a-4a0c-84fb-f9d6a2d2e515"},"vehicle_type_id":"4","last_reported":1727348869,"current_range_meters":7200,"station_id":"ce4bgt12rcd13ifvqcd0","pricing_plan_id":"cebpf4jnsgd1na2vs0mg"},{"bike_id":"5324a727-d5bb-4d65-9620-50e6f4246357","system_id":"levelo_inurba_marseille","lat":43.28276,"lon":5.35053,"is_reserved":false,"is_disabled":false,"rental_uris":{"android":"levelo://app?vid=5324a727-d5bb-4d65-9620-50e6f4246357","ios":"levelo://app?vid=5324a727-d5bb-4d65-9620-50e6f4246357"},"vehicle_type_id":"4","last_reported":1727348869,"current_range_meters":8800,"station_id":"ce4bhbp2rcd13ifvqerg","pricing_plan_id":"cebpf4jnsgd1na2vs0mg"},{"bike_id":"7ea4cf09-471b-44d3-ac6d-69f198574738","system_id":"levelo_inurba_marseille","lat":43.30593,"lon":5.39359,"is_reserved":false,"is_disabled":false,"rental_uris":{"android":"levelo://app?vid=7ea4cf09-471b-44d3-ac6d-69f198574738","ios":"levelo://app?vid=7ea4cf09-471b-44d3-ac6d-69f198574738"},"vehicle_type_id":"4","last_reported":1727348869,"current_range_meters":28400,"station_id":"ce4bh0p2rcd13ifvqd80","pricing_plan_id":"cebpf4jnsgd1na2vs0mg"},{"bike_id":"730a8251-d94a-4277-99a9-1c8f6d01216c","system_id":"levelo_inurba_marseille","lat":43.25932,"lon":5.40913,"is_reserved":false,"is_disabled":false,"rental_uris":{"android":"levelo://app?vid=730a8251-d94a-4277-99a9-1c8f6d01216c","ios":"levelo://app?vid=730a8251-d94a-4277-99a9-1c8f6d01216c"},"vehicle_type_id":"4","last_reported":1727348869,"current_range_meters":17600,"station_id":"ce4bhm92rcd13ifvqglg","pricing_plan_id":"cebpf4jnsgd1na2vs0mg"},{"bike_id":"9a63318d-709b-4ebe-9b9d-47128f5c0044","system_id":"levelo_inurba_marseille","lat":43.28109,"lon":5.37841,"is_reserved":false,"is_disabled":false,"rental_uris":{"android":"levelo://app?vid=9a63318d-709b-4ebe-9b9d-47128f5c0044","ios":"levelo://app?vid=9a63318d-709b-4ebe-9b9d-47128f5c0044"},"vehicle_type_id":"4","last_reported":1727348869,"current_range_meters":14800,"station_id":"ce4bha12rcd13ifvqee0","pricing_plan_id":"cebpf4jnsgd1na2vs0mg"},{"bike_id":"5f6c79fc-4a32-4034-b731-a210b1c8c48d","system_id":"levelo_inurba_marseille","lat":43.30518,"lon":5.36701,"is_reserved":false,"is_disabled":false,"rental_uris":{"android":"levelo://app?vid=5f6c79fc-4a32-4034-b731-a210b1c8c48d","ios":"levelo://app?vid=5f6c79fc-4a32-4034-b731-a210b1c8c48d"},"vehicle_type_id":"4","last_reported":1727348869,"current_range_meters":9200,"station_id":"ce4bgrp2rcd13ifvqc9g","pricing_plan_id":"cebpf4jnsgd1na2vs0mg"},{"bike_id":"1de41ee2-b859-4346-824d-ed394262bb03","system_id":"levelo_inurba_marseille","lat":43.33761,"lon":5.37449,"is_reserved":false,"is_disabled":false,"rental_uris":{"android":"levelo://app?vid=1de41ee2-b859-4346-824d-ed394262bb03","ios":"levelo://app?vid=1de41ee2-b859-4346-824d-ed394262bb03"},"vehicle_type_id":"4","last_reported":1727348869,"current_range_meters":12000,"station_id":"","pricing_plan_id":"cebpf4jnsgd1na2vs0mg"},{"bike_id":"77c97b80-03e6-4816-abec-8831ed02cb98","system_id":"levelo_inurba_marseille","lat":43.24076,"lon":5.37761,"is_reserved":false,"is_disabled":false,"rental_uris":{"android":"levelo://app?vid=77c97b80-03e6-4816-abec-8831ed02cb98","ios":"levelo://app?vid=77c97b80-03e6-4816-abec-8831ed02cb98"},"vehicle_type_id":"4","last_reported":1727348869,"current_range_meters":10000,"station_id":"ce4bhnp2rcd13ifvqgvg","pricing_plan_id":"cebpf4jnsgd1na2vs0mg"},{"bike_id":"751bff45-76c1-4c5f-b949-27cb0e9aacd7","system_id":"levelo_inurba_marseille","lat":43.33787,"lon":5.37447,"is_reserved":false,"is_disabled":false,"rental_uris":{"android":"levelo://app?vid=751bff45-76c1-4c5f-b949-27cb0e9aacd7","ios":"levelo://app?vid=751bff45-76c1-4c5f-b949-27cb0e9aacd7"},"vehicle_type_id":"4","last_reported":1727348869,"current_range_meters":38400,"station_id":"","pricing_plan_id":"cebpf4jnsgd1na2vs0mg"},{"bike_id":"9ae98947-ee49-45fc-94fe-ed3af0b85e6a","system_id":"levelo_inurba_marseille","lat":43.299255,"lon":5.363651,"is_reserved":false,"is_disabled":false,"rental_uris":{"android":"levelo://app?vid=9ae98947-ee49-45fc-94fe-ed3af0b85e6a","ios":"levelo://app?vid=9ae98947-ee49-45fc-94fe-ed3af0b85e6a"},"vehicle_type_id":"4","last_reported":1727348869,"current_range_meters":10800,"station_id":"ce4bgpp2rcd13ifvqc3g","pricing_plan_id":"cebpf4jnsgd1na2vs0mg"},{"bike_id":"be6597c7-36df-467d-8d7f-8202a760e6f4","system_id":"levelo_inurba_marseille","lat":43.31343,"lon":5.36714,"is_reserved":false,"is_disabled":false,"rental_uris":{"android":"levelo://app?vid=be6597c7-36df-467d-8d7f-8202a760e6f4","ios":"levelo://app?vid=be6597c7-36df-467d-8d7f-8202a760e6f4"},"vehicle_type_id":"4","last_reported":1727348869,"current_range_meters":10800,"station_id":"ce4bgr92rcd13ifvqc6g","pricing_plan_id":"cebpf4jnsgd1na2vs0mg"},{"bike_id":"2e9178db-9e44-4946-89fb-0a2792980553","system_id":"levelo_inurba_marseille","lat":43.31487,"lon":5.37314,"is_reserved":false,"is_disabled":false,"rental_uris":{"android":"levelo://app?vid=2e9178db-9e44-4946-89fb-0a2792980553","ios":"levelo://app?vid=2e9178db-9e44-4946-89fb-0a2792980553"},"vehicle_type_id":"4","last_reported":1727348869,"current_range_meters":22400,"station_id":"ce4bgt12rcd13ifvqcd0","pricing_plan_id":"cebpf4jnsgd1na2vs0mg"},{"bike_id":"2e3b1b9b-e99c-4c6c-926f-4093907debbc","system_id":"levelo_inurba_marseille","lat":43.30936,"lon":5.40152,"is_reserved":false,"is_disabled":false,"rental_uris":{"android":"levelo://app?vid=2e3b1b9b-e99c-4c6c-926f-4093907debbc","ios":"levelo://app?vid=2e3b1b9b-e99c-4c6c-926f-4093907debbc"},"vehicle_type_id":"4","last_reported":1727348869,"current_range_meters":20000,"station_id":"","pricing_plan_id":"cebpf4jnsgd1na2vs0mg"},{"bike_id":"cd123a85-2ef3-4f80-af26-ddaaa5ead147","system_id":"levelo_inurba_marseille","lat":43.29099,"lon":5.381,"is_reserved":false,"is_disabled":false,"rental_uris":{"android":"levelo://app?vid=cd123a85-2ef3-4f80-af26-ddaaa5ead147","ios":"levelo://app?vid=cd123a85-2ef3-4f80-af26-ddaaa5ead147"},"vehicle_type_id":"4","last_reported":1727348869,"current_range_meters":32800,"station_id":"ce4bh512rcd13ifvqe2g","pricing_plan_id":"cebpf4jnsgd1na2vs0mg"},{"bike_id":"545e7c88-c4bd-4aa7-a100-e6e04e1a3344","system_id":"levelo_inurba_marseille","lat":43.27314,"lon":5.39083,"is_reserved":false,"is_disabled":false,"rental_uris":{"android":"levelo://app?vid=545e7c88-c4bd-4aa7-a100-e6e04e1a3344","ios":"levelo://app?vid=545e7c88-c4bd-4aa7-a100-e6e04e1a3344"},"vehicle_type_id":"4","last_reported":1727348869,"current_range_meters":27200,"station_id":"ce4bhgp2rcd13ifvqfe0","pricing_plan_id":"cebpf4jnsgd1na2vs0mg"},{"bike_id":"5a25377d-c1ab-41c8-8a80-cf4584744e18","system_id":"levelo_inurba_marseille","lat":43.28447,"lon":5.39201,"is_reserved":false,"is_disabled":false,"rental_uris":{"android":"levelo://app?vid=5a25377d-c1ab-41c8-8a80-cf4584744e18","ios":"levelo://app?vid=5a25377d-c1ab-41c8-8a80-cf4584744e18"},"vehicle_type_id":"4","last_reported":1727348869,"current_range_meters":10000,"station_id":"ce4bhoh2rcd13ifvqh5g","pricing_plan_id":"cebpf4jnsgd1na2vs0mg"},{"bike_id":"b89f3c75-62ef-439a-891a-3e5717a4b61a","system_id":"levelo_inurba_marseille","lat":43.27939,"lon":5.37943,"is_reserved":false,"is_disabled":false,"rental_uris":{"android":"levelo://app?vid=b89f3c75-62ef-439a-891a-3e5717a4b61a","ios":"levelo://app?vid=b89f3c75-62ef-439a-891a-3e5717a4b61a"},"vehicle_type_id":"4","last_reported":1727348869,"current_range_meters":24000,"station_id":"","pricing_plan_id":"cebpf4jnsgd1na2vs0mg"},{"bike_id":"3d2e8957-e1d2-4ecd-8063-b80c3be7421c","system_id":"levelo_inurba_marseille","lat":43.26692,"lon":5.38268,"is_reserved":false,"is_disabled":false,"rental_uris":{"android":"levelo://app?vid=3d2e8957-e1d2-4ecd-8063-b80c3be7421c","ios":"levelo://app?vid=3d2e8957-e1d2-4ecd-8063-b80c3be7421c"},"vehicle_type_id":"4","last_reported":1727348869,"current_range_meters":5600,"station_id":"ce4bhg92rcd13ifvqf90","pricing_plan_id":"cebpf4jnsgd1na2vs0mg"},{"bike_id":"e6fabcfe-0eeb-48d1-b6d7-42aa0ee06aea","system_id":"levelo_inurba_marseille","lat":43.2762,"lon":5.3611,"is_reserved":false,"is_disabled":false,"rental_uris":{"android":"levelo://app?vid=e6fabcfe-0eeb-48d1-b6d7-42aa0ee06aea","ios":"levelo://app?vid=e6fabcfe-0eeb-48d1-b6d7-42aa0ee06aea"},"vehicle_type_id":"4","last_reported":1727348869,"current_range_meters":38800,"station_id":"ce4bgj92rcd13ifvqbe0","pricing_plan_id":"cebpf4jnsgd1na2vs0mg"},{"bike_id":"d09adde8-f165-44a9-93d0-c21f91722e50","system_id":"levelo_inurba_marseille","lat":43.28359,"lon":5.38105,"is_reserved":false,"is_disabled":false,"rental_uris":{"android":"levelo://app?vid=d09adde8-f165-44a9-93d0-c21f91722e50","ios":"levelo://app?vid=d09adde8-f165-44a9-93d0-c21f91722e50"},"vehicle_type_id":"4","last_reported":1727348869,"current_range_meters":24400,"station_id":"ce4bh412rcd13ifvqdr0","pricing_plan_id":"cebpf4jnsgd1na2vs0mg"},{"bike_id":"7722945b-88b4-4b48-ae1b-22390b0bcd01","system_id":"levelo_inurba_marseille","lat":43.29625,"lon":5.37166,"is_reserved":false,"is_disabled":false,"rental_uris":{"android":"levelo://app?vid=7722945b-88b4-4b48-ae1b-22390b0bcd01","ios":"levelo://app?vid=7722945b-88b4-4b48-ae1b-22390b0bcd01"},"vehicle_type_id":"4","last_reported":1727348869,"current_range_meters":18800,"station_id":"ce4bgnh2rcd13ifvqc0g","pricing_plan_id":"cebpf4jnsgd1na2vs0mg"},{"bike_id":"b936843a-8538-4d6b-837f-7d28c0ff7f33","system_id":"levelo_inurba_marseille","lat":43.28488,"lon":5.38529,"is_reserved":false,"is_disabled":false,"rental_uris":{"android":"levelo://app?vid=b936843a-8538-4d6b-837f-7d28c0ff7f33","ios":"levelo://app?vid=b936843a-8538-4d6b-837f-7d28c0ff7f33"},"vehicle_type_id":"4","last_reported":1727348869,"current_range_meters":23200,"station_id":"ce4bh8p2rcd13ifvqeb0","pricing_plan_id":"cebpf4jnsgd1na2vs0mg"},{"bike_id":"15091c48-fa1f-42b0-a263-2568d4978cd4","system_id":"levelo_inurba_marseille","lat":43.24074,"lon":5.37764,"is_reserved":false,"is_disabled":false,"rental_uris":{"android":"levelo://app?vid=15091c48-fa1f-42b0-a263-2568d4978cd4","ios":"levelo://app?vid=15091c48-fa1f-42b0-a263-2568d4978cd4"},"vehicle_type_id":"4","last_reported":1727348869,"current_range_meters":14400,"station_id":"ce4bhnp2rcd13ifvqgvg","pricing_plan_id":"cebpf4jnsgd1na2vs0mg"},{"bike_id":"9238ad14-e0d5-4c32-9a08-f97260c3768d","system_id":"levelo_inurba_marseille","lat":43.32481,"lon":5.3657,"is_reserved":false,"is_disabled":false,"rental_uris":{"android":"levelo://app?vid=9238ad14-e0d5-4c32-9a08-f97260c3768d","ios":"levelo://app?vid=9238ad14-e0d5-4c32-9a08-f97260c3768d"},"vehicle_type_id":"4","last_reported":1727348869,"current_range_meters":28400,"station_id":"ce4bhs12rcd13ifvqhvg","pricing_plan_id":"cebpf4jnsgd1na2vs0mg"},{"bike_id":"c2e5a81e-6912-4cb0-98ad-5f3df477fa43","system_id":"levelo_inurba_marseille","lat":43.28996,"lon":5.37586,"is_reserved":false,"is_disabled":false,"rental_uris":{"android":"levelo://app?vid=c2e5a81e-6912-4cb0-98ad-5f3df477fa43","ios":"levelo://app?vid=c2e5a81e-6912-4cb0-98ad-5f3df477fa43"},"vehicle_type_id":"4","last_reported":1727348869,"current_range_meters":38000,"station_id":"ce4bh692rcd13ifvqe90","pricing_plan_id":"cebpf4jnsgd1na2vs0mg"},{"bike_id":"3f8308e1-7d6c-4759-b3e7-86f24d3853c1","system_id":"levelo_inurba_marseille","lat":43.24807,"lon":5.37455,"is_reserved":false,"is_disabled":false,"rental_uris":{"android":"levelo://app?vid=3f8308e1-7d6c-4759-b3e7-86f24d3853c1","ios":"levelo://app?vid=3f8308e1-7d6c-4759-b3e7-86f24d3853c1"},"vehicle_type_id":"4","last_reported":1727348869,"current_range_meters":30400,"station_id":"ce4bhgh2rcd13ifvqfb0","pricing_plan_id":"cebpf4jnsgd1na2vs0mg"},{"bike_id":"8342097b-c3f3-4565-885b-b4c3f72abd8c","system_id":"levelo_inurba_marseille","lat":43.24672,"lon":5.3816,"is_reserved":false,"is_disabled":false,"rental_uris":{"android":"levelo://app?vid=8342097b-c3f3-4565-885b-b4c3f72abd8c","ios":"levelo://app?vid=8342097b-c3f3-4565-885b-b4c3f72abd8c"},"vehicle_type_id":"4","last_reported":1727348869,"current_range_meters":35200,"station_id":"ce4bhih2rcd13ifvqfr0","pricing_plan_id":"cebpf4jnsgd1na2vs0mg"},{"bike_id":"e4d55da8-9a0e-4c4d-8c5f-3b668bd4aeae","system_id":"levelo_inurba_marseille","lat":43.23155,"lon":5.43699,"is_reserved":false,"is_disabled":false,"rental_uris":{"android":"levelo://app?vid=e4d55da8-9a0e-4c4d-8c5f-3b668bd4aeae","ios":"levelo://app?vid=e4d55da8-9a0e-4c4d-8c5f-3b668bd4aeae"},"vehicle_type_id":"4","last_reported":1727348869,"current_range_meters":15200,"station_id":"ce4bhmp2rcd13ifvqgog","pricing_plan_id":"cebpf4jnsgd1na2vs0mg"},{"bike_id":"8460a7e8-1a9d-4ecf-8e31-4e5a3fd8d5e0","system_id":"levelo_inurba_marseille","lat":43.2994,"lon":5.36532,"is_reserved":false,"is_disabled":false,"rental_uris":{"android":"levelo://app?vid=8460a7e8-1a9d-4ecf-8e31-4e5a3fd8d5e0","ios":"levelo://app?vid=8460a7e8-1a9d-4ecf-8e31-4e5a3fd8d5e0"},"vehicle_type_id":"4","last_reported":1727348869,"current_range_meters":16800,"station_id":"ce4bgm92rcd13ifvqbr0","pricing_plan_id":"cebpf4jnsgd1na2vs0mg"},{"bike_id":"4e495fc3-a4a2-40de-84f8-e4008727c5aa","system_id":"levelo_inurba_marseille","lat":43.29285,"lon":5.36844,"is_reserved":false,"is_disabled":false,"rental_uris":{"android":"levelo://app?vid=4e495fc3-a4a2-40de-84f8-e4008727c5aa","ios":"levelo://app?vid=4e495fc3-a4a2-40de-84f8-e4008727c5aa"},"vehicle_type_id":"4","last_reported":1727348869,"current_range_meters":25600,"station_id":"ce4bhbp2rcd13ifvqesg","pricing_plan_id":"cebpf4jnsgd1na2vs0mg"},{"bike_id":"f118a8fa-166c-49af-a44d-0154a038ed46","system_id":"levelo_inurba_marseille","lat":43.29372,"lon":5.37857,"is_reserved":false,"is_disabled":false,"rental_uris":{"android":"levelo://app?vid=f118a8fa-166c-49af-a44d-0154a038ed46","ios":"levelo://app?vid=f118a8fa-166c-49af-a44d-0154a038ed46"},"vehicle_type_id":"4","last_reported":1727348869,"current_range_meters":32000,"station_id":"ce4bgjh2rcd13ifvqbf0","pricing_plan_id":"cebpf4jnsgd1na2vs0mg"},{"bike_id":"673cb923-6576-4694-89d1-0c8d8e8df9af","system_id":"levelo_inurba_marseille","lat":43.26211,"lon":5.37925,"is_reserved":false,"is_disabled":false,"rental_uris":{"android":"levelo://app?vid=673cb923-6576-4694-89d1-0c8d8e8df9af","ios":"levelo://app?vid=673cb923-6576-4694-89d1-0c8d8e8df9af"},"vehicle_type_id":"4","last_reported":1727348869,"current_range_meters":17200,"station_id":"ce4bhjp2rcd13ifvqg90","pricing_plan_id":"cebpf4jnsgd1na2vs0mg"},{"bike_id":"64577474-503b-47b8-ba02-db6057494fc8","system_id":"levelo_inurba_marseille","lat":43.25941,"lon":5.40906,"is_reserved":false,"is_disabled":false,"rental_uris":{"android":"levelo://app?vid=64577474-503b-47b8-ba02-db6057494fc8","ios":"levelo://app?vid=64577474-503b-47b8-ba02-db6057494fc8"},"vehicle_type_id":"4","last_reported":1727348869,"current_range_meters":34800,"station_id":"ce4bhm92rcd13ifvqglg","pricing_plan_id":"cebpf4jnsgd1na2vs0mg"},{"bike_id":"2838c3b1-75b7-40b1-8f0c-0d005fb9dee7","system_id":"levelo_inurba_marseille","lat":43.32537,"lon":5.41435,"is_reserved":false,"is_disabled":false,"rental_uris":{"android":"levelo://app?vid=2838c3b1-75b7-40b1-8f0c-0d005fb9dee7","ios":"levelo://app?vid=2838c3b1-75b7-40b1-8f0c-0d005fb9dee7"},"vehicle_type_id":"4","last_reported":1727348869,"current_range_meters":14800,"station_id":"ce4bhq12rcd13ifvqhhg","pricing_plan_id":"cebpf4jnsgd1na2vs0mg"},{"bike_id":"2c6be182-3b3b-4300-bf27-127fb8f58a7f","system_id":"levelo_inurba_marseille","lat":43.24073,"lon":5.3776,"is_reserved":false,"is_disabled":false,"rental_uris":{"android":"levelo://app?vid=2c6be182-3b3b-4300-bf27-127fb8f58a7f","ios":"levelo://app?vid=2c6be182-3b3b-4300-bf27-127fb8f58a7f"},"vehicle_type_id":"4","last_reported":1727348869,"current_range_meters":6800,"station_id":"ce4bhnp2rcd13ifvqgvg","pricing_plan_id":"cebpf4jnsgd1na2vs0mg"},{"bike_id":"8daa29e7-59b8-4d33-b3a3-84845f7aff9b","system_id":"levelo_inurba_marseille","lat":43.26193,"lon":5.37927,"is_reserved":false,"is_disabled":false,"rental_uris":{"android":"levelo://app?vid=8daa29e7-59b8-4d33-b3a3-84845f7aff9b","ios":"levelo://app?vid=8daa29e7-59b8-4d33-b3a3-84845f7aff9b"},"vehicle_type_id":"4","last_reported":1727348869,"current_range_meters":38800,"station_id":"ce4bhjp2rcd13ifvqg90","pricing_plan_id":"cebpf4jnsgd1na2vs0mg"},{"bike_id":"c6ebdc49-4729-4e81-a2ad-ad9c2b48e60f","system_id":"levelo_inurba_marseille","lat":43.299348,"lon":5.365374,"is_reserved":false,"is_disabled":false,"rental_uris":{"android":"levelo://app?vid=c6ebdc49-4729-4e81-a2ad-ad9c2b48e60f","ios":"levelo://app?vid=c6ebdc49-4729-4e81-a2ad-ad9c2b48e60f"},"vehicle_type_id":"4","last_reported":1727348869,"current_range_meters":31200,"station_id":"ce4bgm92rcd13ifvqbr0","pricing_plan_id":"cebpf4jnsgd1na2vs0mg"},{"bike_id":"c029c5c7-7c08-40b0-8f5b-4234eae40036","system_id":"levelo_inurba_marseille","lat":43.30014,"lon":5.37191,"is_reserved":false,"is_disabled":false,"rental_uris":{"android":"levelo://app?vid=c029c5c7-7c08-40b0-8f5b-4234eae40036","ios":"levelo://app?vid=c029c5c7-7c08-40b0-8f5b-4234eae40036"},"vehicle_type_id":"4","last_reported":1727348869,"current_range_meters":14800,"station_id":"ce4bgr92rcd13ifvqc7g","pricing_plan_id":"cebpf4jnsgd1na2vs0mg"},{"bike_id":"4fa7f925-47c4-4083-a6ae-1124218bc433","system_id":"levelo_inurba_marseille","lat":43.29971,"lon":5.38495,"is_reserved":false,"is_disabled":false,"rental_uris":{"android":"levelo://app?vid=4fa7f925-47c4-4083-a6ae-1124218bc433","ios":"levelo://app?vid=4fa7f925-47c4-4083-a6ae-1124218bc433"},"vehicle_type_id":"4","last_reported":1727348869,"current_range_meters":19200,"station_id":"ce4bgj92rcd13ifvqbd0","pricing_plan_id":"cebpf4jnsgd1na2vs0mg"},{"bike_id":"6b2d6110-047a-4374-b820-0abaa9613131","system_id":"levelo_inurba_marseille","lat":43.32471,"lon":5.3658,"is_reserved":false,"is_disabled":false,"rental_uris":{"android":"levelo://app?vid=6b2d6110-047a-4374-b820-0abaa9613131","ios":"levelo://app?vid=6b2d6110-047a-4374-b820-0abaa9613131"},"vehicle_type_id":"4","last_reported":1727348869,"current_range_meters":36800,"station_id":"ce4bhs12rcd13ifvqhvg","pricing_plan_id":"cebpf4jnsgd1na2vs0mg"},{"bike_id":"b90aebb6-9350-4611-bb73-5ffa7602d9ca","system_id":"levelo_inurba_marseille","lat":43.26681,"lon":5.38266,"is_reserved":false,"is_disabled":false,"rental_uris":{"android":"levelo://app?vid=b90aebb6-9350-4611-bb73-5ffa7602d9ca","ios":"levelo://app?vid=b90aebb6-9350-4611-bb73-5ffa7602d9ca"},"vehicle_type_id":"4","last_reported":1727348869,"current_range_meters":25200,"station_id":"ce4bhg92rcd13ifvqf90","pricing_plan_id":"cebpf4jnsgd1na2vs0mg"},{"bike_id":"a7bca3df-0344-4204-86d7-b742d4769839","system_id":"levelo_inurba_marseille","lat":43.30863,"lon":5.3685,"is_reserved":false,"is_disabled":false,"rental_uris":{"android":"levelo://app?vid=a7bca3df-0344-4204-86d7-b742d4769839","ios":"levelo://app?vid=a7bca3df-0344-4204-86d7-b742d4769839"},"vehicle_type_id":"4","last_reported":1727348869,"current_range_meters":23200,"station_id":"ce4bgn92rcd13ifvqbvg","pricing_plan_id":"cebpf4jnsgd1na2vs0mg"},{"bike_id":"5c5d6480-15ef-41d1-819d-f6b78d27575d","system_id":"levelo_inurba_marseille","lat":43.298414,"lon":5.362664,"is_reserved":false,"is_disabled":false,"rental_uris":{"android":"levelo://app?vid=5c5d6480-15ef-41d1-819d-f6b78d27575d","ios":"levelo://app?vid=5c5d6480-15ef-41d1-819d-f6b78d27575d"},"vehicle_type_id":"4","last_reported":1727348869,"current_range_meters":24400,"station_id":"ce4bgpp2rcd13ifvqc3g","pricing_plan_id":"cebpf4jnsgd1na2vs0mg"},{"bike_id":"e2185c61-26f7-4091-889e-e4c95491693c","system_id":"levelo_inurba_marseille","lat":43.31756,"lon":5.39015,"is_reserved":false,"is_disabled":false,"rental_uris":{"android":"levelo://app?vid=e2185c61-26f7-4091-889e-e4c95491693c","ios":"levelo://app?vid=e2185c61-26f7-4091-889e-e4c95491693c"},"vehicle_type_id":"4","last_reported":1727348869,"current_range_meters":24400,"station_id":"ce4bhqp2rcd13ifvqhng","pricing_plan_id":"cebpf4jnsgd1na2vs0mg"},{"bike_id":"e5f5e059-71ec-49c1-93cc-d17fd0b52a35","system_id":"levelo_inurba_marseille","lat":43.23183,"lon":5.39992,"is_reserved":false,"is_disabled":false,"rental_uris":{"android":"levelo://app?vid=e5f5e059-71ec-49c1-93cc-d17fd0b52a35","ios":"levelo://app?vid=e5f5e059-71ec-49c1-93cc-d17fd0b52a35"},"vehicle_type_id":"4","last_reported":1727348869,"current_range_meters":36000,"station_id":"ce4bhn12rcd13ifvqgqg","pricing_plan_id":"cebpf4jnsgd1na2vs0mg"},{"bike_id":"b2eaefb3-38a9-4f3e-a3d2-026dcff570ab","system_id":"levelo_inurba_marseille","lat":43.27998,"lon":5.40012,"is_reserved":false,"is_disabled":false,"rental_uris":{"android":"levelo://app?vid=b2eaefb3-38a9-4f3e-a3d2-026dcff570ab","ios":"levelo://app?vid=b2eaefb3-38a9-4f3e-a3d2-026dcff570ab"},"vehicle_type_id":"4","last_reported":1727348869,"current_range_meters":6400,"station_id":"ce4bho92rcd13ifvqh4g","pricing_plan_id":"cebpf4jnsgd1na2vs0mg"},{"bike_id":"80d1d5df-61ca-4f88-bada-c65e746a68df","system_id":"levelo_inurba_marseille","lat":43.29856,"lon":5.36281,"is_reserved":false,"is_disabled":false,"rental_uris":{"android":"levelo://app?vid=80d1d5df-61ca-4f88-bada-c65e746a68df","ios":"levelo://app?vid=80d1d5df-61ca-4f88-bada-c65e746a68df"},"vehicle_type_id":"4","last_reported":1727348869,"current_range_meters":38800,"station_id":"ce4bgpp2rcd13ifvqc3g","pricing_plan_id":"cebpf4jnsgd1na2vs0mg"},{"bike_id":"7827170f-fe53-4f76-acc5-1f9d10e67145","system_id":"levelo_inurba_marseille","lat":43.22928,"lon":5.35377,"is_reserved":false,"is_disabled":false,"rental_uris":{"android":"levelo://app?vid=7827170f-fe53-4f76-acc5-1f9d10e67145","ios":"levelo://app?vid=7827170f-fe53-4f76-acc5-1f9d10e67145"},"vehicle_type_id":"4","last_reported":1727348869,"current_range_meters":34000,"station_id":"cpo3532slgdg3j2ikp40","pricing_plan_id":"cebpf4jnsgd1na2vs0mg"},{"bike_id":"bf78e5c0-111a-40a9-9129-973bd5d044d3","system_id":"levelo_inurba_marseille","lat":43.23179,"lon":5.39983,"is_reserved":false,"is_disabled":false,"rental_uris":{"android":"levelo://app?vid=bf78e5c0-111a-40a9-9129-973bd5d044d3","ios":"levelo://app?vid=bf78e5c0-111a-40a9-9129-973bd5d044d3"},"vehicle_type_id":"4","last_reported":1727348869,"current_range_meters":20400,"station_id":"ce4bhn12rcd13ifvqgqg","pricing_plan_id":"cebpf4jnsgd1na2vs0mg"},{"bike_id":"04d80200-2dd3-4d4a-b330-c465b1aaa7a4","system_id":"levelo_inurba_marseille","lat":43.302978,"lon":5.368975,"is_reserved":false,"is_disabled":false,"rental_uris":{"android":"levelo://app?vid=04d80200-2dd3-4d4a-b330-c465b1aaa7a4","ios":"levelo://app?vid=04d80200-2dd3-4d4a-b330-c465b1aaa7a4"},"vehicle_type_id":"4","last_reported":1727348869,"current_range_meters":29600,"station_id":"ce4bhs12rcd13ifvqhvg","pricing_plan_id":"cebpf4jnsgd1na2vs0mg"},{"bike_id":"146d5757-b6fd-4771-8f2b-5d5e86dd4489","system_id":"levelo_inurba_marseille","lat":43.27818,"lon":5.40708,"is_reserved":false,"is_disabled":false,"rental_uris":{"android":"levelo://app?vid=146d5757-b6fd-4771-8f2b-5d5e86dd4489","ios":"levelo://app?vid=146d5757-b6fd-4771-8f2b-5d5e86dd4489"},"vehicle_type_id":"4","last_reported":1727348869,"current_range_meters":38400,"station_id":"ce4bhnh2rcd13ifvqgtg","pricing_plan_id":"cebpf4jnsgd1na2vs0mg"},{"bike_id":"038f80b5-65f0-47ef-9d43-617ee9f0ac37","system_id":"levelo_inurba_marseille","lat":43.30542,"lon":5.36537,"is_reserved":false,"is_disabled":false,"rental_uris":{"android":"levelo://app?vid=038f80b5-65f0-47ef-9d43-617ee9f0ac37","ios":"levelo://app?vid=038f80b5-65f0-47ef-9d43-617ee9f0ac37"},"vehicle_type_id":"4","last_reported":1727348869,"current_range_meters":38400,"station_id":"ce4bgs12rcd13ifvqcag","pricing_plan_id":"cebpf4jnsgd1na2vs0mg"},{"bike_id":"1a5ff2f2-037b-47b0-ab16-58ad767047aa","system_id":"levelo_inurba_marseille","lat":43.337444,"lon":5.374475,"is_reserved":false,"is_disabled":false,"rental_uris":{"android":"levelo://app?vid=1a5ff2f2-037b-47b0-ab16-58ad767047aa","ios":"levelo://app?vid=1a5ff2f2-037b-47b0-ab16-58ad767047aa"},"vehicle_type_id":"4","last_reported":1727348869,"current_range_meters":36400,"station_id":"","pricing_plan_id":"cebpf4jnsgd1na2vs0mg"},{"bike_id":"4a4bfd88-bdfc-4802-b3a8-e798e4274727","system_id":"levelo_inurba_marseille","lat":43.322875,"lon":5.382617,"is_reserved":false,"is_disabled":false,"rental_uris":{"android":"levelo://app?vid=4a4bfd88-bdfc-4802-b3a8-e798e4274727","ios":"levelo://app?vid=4a4bfd88-bdfc-4802-b3a8-e798e4274727"},"vehicle_type_id":"4","last_reported":1727348869,"current_range_meters":24400,"station_id":"ce4bhr12rcd13ifvqhqg","pricing_plan_id":"cebpf4jnsgd1na2vs0mg"},{"bike_id":"ec073aac-9e0e-466e-a891-bab558e0df7d","system_id":"levelo_inurba_marseille","lat":43.29644,"lon":5.40611,"is_reserved":false,"is_disabled":false,"rental_uris":{"android":"levelo://app?vid=ec073aac-9e0e-466e-a891-bab558e0df7d","ios":"levelo://app?vid=ec073aac-9e0e-466e-a891-bab558e0df7d"},"vehicle_type_id":"4","last_reported":1727348869,"current_range_meters":24000,"station_id":"ce4bh0h2rcd13ifvqd60","pricing_plan_id":"cebpf4jnsgd1na2vs0mg"},{"bike_id":"d66a4195-867e-4bfb-ba88-b3cd6797fa0f","system_id":"levelo_inurba_marseille","lat":43.27498,"lon":5.42449,"is_reserved":false,"is_disabled":false,"rental_uris":{"android":"levelo://app?vid=d66a4195-867e-4bfb-ba88-b3cd6797fa0f","ios":"levelo://app?vid=d66a4195-867e-4bfb-ba88-b3cd6797fa0f"},"vehicle_type_id":"4","last_reported":1727348869,"current_range_meters":30000,"station_id":"ce4bhn92rcd13ifvqgrg","pricing_plan_id":"cebpf4jnsgd1na2vs0mg"},{"bike_id":"18c19e4a-8a14-49de-91c0-40bd57582c9a","system_id":"levelo_inurba_marseille","lat":43.27305,"lon":5.3908,"is_reserved":false,"is_disabled":false,"rental_uris":{"android":"levelo://app?vid=18c19e4a-8a14-49de-91c0-40bd57582c9a","ios":"levelo://app?vid=18c19e4a-8a14-49de-91c0-40bd57582c9a"},"vehicle_type_id":"4","last_reported":1727348869,"current_range_meters":8400,"station_id":"ce4bhgp2rcd13ifvqfe0","pricing_plan_id":"cebpf4jnsgd1na2vs0mg"},{"bike_id":"81c79a5f-f1a7-4420-97f8-092caaa8c88e","system_id":"levelo_inurba_marseille","lat":43.30561,"lon":5.36697,"is_reserved":false,"is_disabled":false,"rental_uris":{"android":"levelo://app?vid=81c79a5f-f1a7-4420-97f8-092caaa8c88e","ios":"levelo://app?vid=81c79a5f-f1a7-4420-97f8-092caaa8c88e"},"vehicle_type_id":"4","last_reported":1727348869,"current_range_meters":17200,"station_id":"ce4bgrp2rcd13ifvqc9g","pricing_plan_id":"cebpf4jnsgd1na2vs0mg"},{"bike_id":"b8d4cfe5-fa00-4798-bb3b-a5cd96b0fee5","system_id":"levelo_inurba_marseille","lat":43.24218,"lon":5.38437,"is_reserved":false,"is_disabled":false,"rental_uris":{"android":"levelo://app?vid=b8d4cfe5-fa00-4798-bb3b-a5cd96b0fee5","ios":"levelo://app?vid=b8d4cfe5-fa00-4798-bb3b-a5cd96b0fee5"},"vehicle_type_id":"4","last_reported":1727348869,"current_range_meters":8400,"station_id":"","pricing_plan_id":"cebpf4jnsgd1na2vs0mg"},{"bike_id":"7199f745-be0e-476e-aa6d-d0a7a35bbf05","system_id":"levelo_inurba_marseille","lat":43.30557,"lon":5.36538,"is_reserved":false,"is_disabled":false,"rental_uris":{"android":"levelo://app?vid=7199f745-be0e-476e-aa6d-d0a7a35bbf05","ios":"levelo://app?vid=7199f745-be0e-476e-aa6d-d0a7a35bbf05"},"vehicle_type_id":"4","last_reported":1727348869,"current_range_meters":35200,"station_id":"ce4bgs12rcd13ifvqcag","pricing_plan_id":"cebpf4jnsgd1na2vs0mg"},{"bike_id":"111913fd-9868-4825-ba13-764d9a6556a9","system_id":"levelo_inurba_marseille","lat":43.30562,"lon":5.3654,"is_reserved":false,"is_disabled":false,"rental_uris":{"android":"levelo://app?vid=111913fd-9868-4825-ba13-764d9a6556a9","ios":"levelo://app?vid=111913fd-9868-4825-ba13-764d9a6556a9"},"vehicle_type_id":"4","last_reported":1727348869,"current_range_meters":38800,"station_id":"ce4bgs12rcd13ifvqcag","pricing_plan_id":"cebpf4jnsgd1na2vs0mg"},{"bike_id":"4756d760-5a84-4c60-9fe2-4553229ea5dd","system_id":"levelo_inurba_marseille","lat":43.29848,"lon":5.36267,"is_reserved":false,"is_disabled":false,"rental_uris":{"android":"levelo://app?vid=4756d760-5a84-4c60-9fe2-4553229ea5dd","ios":"levelo://app?vid=4756d760-5a84-4c60-9fe2-4553229ea5dd"},"vehicle_type_id":"4","last_reported":1727348869,"current_range_meters":18000,"station_id":"ce4bgpp2rcd13ifvqc3g","pricing_plan_id":"cebpf4jnsgd1na2vs0mg"},{"bike_id":"5d306f84-9ac4-432c-adae-963db292fdc0","system_id":"levelo_inurba_marseille","lat":43.29173,"lon":5.37151,"is_reserved":false,"is_disabled":false,"rental_uris":{"android":"levelo://app?vid=5d306f84-9ac4-432c-adae-963db292fdc0","ios":"levelo://app?vid=5d306f84-9ac4-432c-adae-963db292fdc0"},"vehicle_type_id":"4","last_reported":1727348869,"current_range_meters":37600,"station_id":"ce4bha92rcd13ifvqeh0","pricing_plan_id":"cebpf4jnsgd1na2vs0mg"},{"bike_id":"98e41583-259b-49a5-9279-aa1bac1ed566","system_id":"levelo_inurba_marseille","lat":43.30543,"lon":5.36536,"is_reserved":false,"is_disabled":false,"rental_uris":{"android":"levelo://app?vid=98e41583-259b-49a5-9279-aa1bac1ed566","ios":"levelo://app?vid=98e41583-259b-49a5-9279-aa1bac1ed566"},"vehicle_type_id":"4","last_reported":1727348869,"current_range_meters":36400,"station_id":"ce4bgs12rcd13ifvqcag","pricing_plan_id":"cebpf4jnsgd1na2vs0mg"},{"bike_id":"8b1c6698-cd99-42a4-8f7c-970d46686118","system_id":"levelo_inurba_marseille","lat":43.26685,"lon":5.38261,"is_reserved":false,"is_disabled":false,"rental_uris":{"android":"levelo://app?vid=8b1c6698-cd99-42a4-8f7c-970d46686118","ios":"levelo://app?vid=8b1c6698-cd99-42a4-8f7c-970d46686118"},"vehicle_type_id":"4","last_reported":1727348869,"current_range_meters":36000,"station_id":"ce4bhg92rcd13ifvqf90","pricing_plan_id":"cebpf4jnsgd1na2vs0mg"},{"bike_id":"49e3f26f-7495-4130-95c3-46ec2c4c41d3","system_id":"levelo_inurba_marseille","lat":43.33616,"lon":5.41032,"is_reserved":false,"is_disabled":false,"rental_uris":{"android":"levelo://app?vid=49e3f26f-7495-4130-95c3-46ec2c4c41d3","ios":"levelo://app?vid=49e3f26f-7495-4130-95c3-46ec2c4c41d3"},"vehicle_type_id":"4","last_reported":1727348869,"current_range_meters":33200,"station_id":"ce4bhqh2rcd13ifvqhmg","pricing_plan_id":"cebpf4jnsgd1na2vs0mg"},{"bike_id":"bc7cab11-b0dd-4a42-9999-31fe6a17dee2","system_id":"levelo_inurba_marseille","lat":43.2984,"lon":5.3626,"is_reserved":false,"is_disabled":false,"rental_uris":{"android":"levelo://app?vid=bc7cab11-b0dd-4a42-9999-31fe6a17dee2","ios":"levelo://app?vid=bc7cab11-b0dd-4a42-9999-31fe6a17dee2"},"vehicle_type_id":"4","last_reported":1727348869,"current_range_meters":37600,"station_id":"ce4bgpp2rcd13ifvqc3g","pricing_plan_id":"cebpf4jnsgd1na2vs0mg"},{"bike_id":"a68353b7-b837-42c4-b491-9118d8153d8e","system_id":"levelo_inurba_marseille","lat":43.30608,"lon":5.3723,"is_reserved":false,"is_disabled":false,"rental_uris":{"android":"levelo://app?vid=a68353b7-b837-42c4-b491-9118d8153d8e","ios":"levelo://app?vid=a68353b7-b837-42c4-b491-9118d8153d8e"},"vehicle_type_id":"4","last_reported":1727348869,"current_range_meters":30800,"station_id":"ce4bgqh2rcd13ifvqc4g","pricing_plan_id":"cebpf4jnsgd1na2vs0mg"},{"bike_id":"eda8bcde-5e1d-4538-802b-7a2e14d9f52d","system_id":"levelo_inurba_marseille","lat":43.22926,"lon":5.3537,"is_reserved":false,"is_disabled":false,"rental_uris":{"android":"levelo://app?vid=eda8bcde-5e1d-4538-802b-7a2e14d9f52d","ios":"levelo://app?vid=eda8bcde-5e1d-4538-802b-7a2e14d9f52d"},"vehicle_type_id":"4","last_reported":1727348869,"current_range_meters":22800,"station_id":"cpo3532slgdg3j2ikp40","pricing_plan_id":"cebpf4jnsgd1na2vs0mg"},{"bike_id":"92ec4bf9-c5f5-4683-9a1c-b651ab6e7971","system_id":"levelo_inurba_marseille","lat":43.28289,"lon":5.3743,"is_reserved":false,"is_disabled":false,"rental_uris":{"android":"levelo://app?vid=92ec4bf9-c5f5-4683-9a1c-b651ab6e7971","ios":"levelo://app?vid=92ec4bf9-c5f5-4683-9a1c-b651ab6e7971"},"vehicle_type_id":"4","last_reported":1727348869,"current_range_meters":20800,"station_id":"ce4bha12rcd13ifvqef0","pricing_plan_id":"cebpf4jnsgd1na2vs0mg"},{"bike_id":"1e6b0c16-c6ca-44c3-8633-a751ebbb6842","system_id":"levelo_inurba_marseille","lat":43.28609,"lon":5.37069,"is_reserved":false,"is_disabled":false,"rental_uris":{"android":"levelo://app?vid=1e6b0c16-c6ca-44c3-8633-a751ebbb6842","ios":"levelo://app?vid=1e6b0c16-c6ca-44c3-8633-a751ebbb6842"},"vehicle_type_id":"4","last_reported":1727348869,"current_range_meters":31200,"station_id":"ce4bht12rcd13ifvqi60","pricing_plan_id":"cebpf4jnsgd1na2vs0mg"},{"bike_id":"d561d796-0d99-46eb-b581-758243053ac6","system_id":"levelo_inurba_marseille","lat":43.2922,"lon":5.36062,"is_reserved":false,"is_disabled":false,"rental_uris":{"android":"levelo://app?vid=d561d796-0d99-46eb-b581-758243053ac6","ios":"levelo://app?vid=d561d796-0d99-46eb-b581-758243053ac6"},"vehicle_type_id":"4","last_reported":1727348869,"current_range_meters":36800,"station_id":"ce4bhbh2rcd13ifvqeqg","pricing_plan_id":"cebpf4jnsgd1na2vs0mg"},{"bike_id":"7e06aaaa-a3eb-45f3-b488-d847eb00575d","system_id":"levelo_inurba_marseille","lat":43.30533,"lon":5.36541,"is_reserved":false,"is_disabled":false,"rental_uris":{"android":"levelo://app?vid=7e06aaaa-a3eb-45f3-b488-d847eb00575d","ios":"levelo://app?vid=7e06aaaa-a3eb-45f3-b488-d847eb00575d"},"vehicle_type_id":"4","last_reported":1727348869,"current_range_meters":38800,"station_id":"ce4bgs12rcd13ifvqcag","pricing_plan_id":"cebpf4jnsgd1na2vs0mg"},