{"last_updated":1729379314,"ttl":60,"version":"2.2","data":{"bikes":[{"bike_id":"834fec7b-d4c0-427b-b877-186743eeea27","system_id":"levelo_inurba_marseille","lat":43.26947,"lon":5.38636,"is_reserved":false,"is_disabled":false,"rental_uris":{"android":"levelo://app?vid=834fec7b-d4c0-427b-b877-186743eeea27","ios":"levelo://app?vid=834fec7b-d4c0-427b-b877-186743eeea27"},"vehicle_type_id":"4","last_reported":1729379314,"current_range_meters":4000,"station_id":"ce4bhh92rcd13ifvqfh0","pricing_plan_id":"cebpf4jnsgd1na2vs0mg"},{"bike_id":"9b9a7cfe-944f-49a6-84c3-af9eec72cacc","system_id":"levelo_inurba_marseille","lat":43.31117,"lon":5.37767,"is_reserved":false,"is_disabled":false,"rental_uris":{"android":"levelo://app?vid=9b9a7cfe-944f-49a6-84c3-af9eec72cacc","ios":"levelo://app?vid=9b9a7cfe-944f-49a6-84c3-af9eec72cacc"},"vehicle_type_id":"4","last_reported":1729379314,"current_range_meters":22800,"station_id":"ce4bgt92rcd13ifvqcg0","pricing_plan_id":"cebpf4jnsgd1na2vs0mg"},{"bike_id":"50276af6-354d-4478-8c25-ac5cf615f422","system_id":"levelo_inurba_marseille","lat":43.2844,"lon":5.39202,"is_reserved":false,"is_disabled":false,"rental_uris":{"android":"levelo://app?vid=50276af6-354d-4478-8c25-ac5cf615f422","ios":"levelo://app?vid=50276af6-354d-4478-8c25-ac5cf615f422"},"vehicle_type_id":"4","last_reported":1729379314,"current_range_meters":38800,"station_id":"ce4bhoh2rcd13ifvqh5g","pricing_plan_id":"cebpf4jnsgd1na2vs0mg"},{"bike_id":"3942a4a0-c9e6-40a8-a307-6c7d058d3096","system_id":"levelo_inurba_marseille","lat":43.27451,"lon":5.39387,"is_reserved":false,"is_disabled":false,"rental_uris":{"android":"levelo://app?vid=3942a4a0-c9e6-40a8-a307-6c7d058d3096","ios":"levelo://app?vid=3942a4a0-c9e6-40a8-a307-6c7d058d3096"},"vehicle_type_id":"4","last_reported":1729379314,"current_range_meters":4800,"station_id":"ce4bhdp2rcd13ifvqf20","pricing_plan_id":"cebpf4jnsgd1na2vs0mg"},{"bike_id":"9b720767-01f9-43e0-97e9-3a90a402ffce","system_id":"levelo_inurba_marseille","lat":43.28844,"lon":5.3586,"is_reserved":false,"is_disabled":false,"rental_uris":{"android":"levelo://app?vid=9b720767-01f9-43e0-97e9-3a90a402ffce","ios":"levelo://app?vid=9b720767-01f9-43e0-97e9-3a90a402ffce"},"vehicle_type_id":"4","last_reported":1729379314,"current_range_meters":35600,"station_id":"ce4bhb12rcd13ifvqem0","pricing_plan_id":"cebpf4jnsgd1na2vs0mg"},{"bike_id":"cc7efa44-13df-4e12-a405-4e45667f6687","system_id":"levelo_inurba_marseille","lat":43.31114,"lon":5.37767,"is_reserved":false,"is_disabled":false,"rental_uris":{"android":"levelo://app?vid=cc7efa44-13df-4e12-a405-4e45667f6687","ios":"levelo://app?vid=cc7efa44-13df-4e12-a405-4e45667f6687"},"vehicle_type_id":"4","last_reported":1729379314,"current_range_meters":6000,"station_id":"ce4bgt92rcd13ifvqcg0","pricing_plan_id":"cebpf4jnsgd1na2vs0mg"},{"bike_id":"fe93bfb2-7aeb-4c17-8248-6549ba71e9ff","system_id":"levelo_inurba_marseille","lat":43.28272,"lon":5.35069,"is_reserved":false,"is_disabled":false,"rental_uris":{"android":"levelo://app?vid=fe93bfb2-7aeb-4c17-8248-6549ba71e9ff","ios":"levelo://app?vid=fe93bfb2-7aeb-4c17-8248-6549ba71e9ff"},"vehicle_type_id":"4","last_reported":1729379314,"current_range_meters":8400,"station_id":"ce4bhbp2rcd13ifvqerg","pricing_plan_id":"cebpf4jnsgd1na2vs0mg"},{"bike_id":"ed1fcd6b-02b4-4ef4-9d3a-d91871db90de","system_id":"levelo_inurba_marseille","lat":43.29163,"lon":5.37175,"is_reserved":false,"is_disabled":false,"rental_uris":{"android":"levelo://app?vid=ed1fcd6b-02b4-4ef4-9d3a-d91871db90de","ios":"levelo://app?vid=ed1fcd6b-02b4-4ef4-9d3a-d91871db90de"},"vehicle_type_id":"4","last_reported":1729379314,"current_range_meters":24000,"station_id":"ce4bha92rcd13ifvqeh0","pricing_plan_id":"cebpf4jnsgd1na2vs0mg"},{"bike_id":"f012b2bd-a88c-4d10-8226-75bef4541a77","system_id":"levelo_inurba_marseille","lat":43.28355,"lon":5.38112,"is_reserved":false,"is_disabled":false,"rental_uris":{"android":"levelo://app?vid=f012b2bd-a88c-4d10-8226-75bef4541a77","ios":"levelo://app?vid=f012b2bd-a88c-4d10-8226-75bef4541a77"},"vehicle_type_id":"4","last_reported":1729379314,"current_range_meters":22000,"station_id":"ce4bh412rcd13ifvqdr0","pricing_plan_id":"cebpf4jnsgd1na2vs0mg"},{"bike_id":"814a8b4c-43f0-4f31-87f7-0f70c081bccd","system_id":"levelo_inurba_marseille","lat":43.24804,"lon":5.37454,"is_reserved":false,"is_disabled":false,"rental_uris":{"android":"levelo://app?vid=814a8b4c-43f0-4f31-87f7-0f70c081bccd","ios":"levelo://app?vid=814a8b4c-43f0-4f31-87f7-0f70c081bccd"},"vehicle_type_id":"4","last_reported":1729379314,"current_range_meters":38800,"station_id":"ce4bhgh2rcd13ifvqfb0","pricing_plan_id":"cebpf4jnsgd1na2vs0mg"},{"bike_id":"1d123306-76de-4e99-b18a-f2b54d4716f7","system_id":"levelo_inurba_marseille","lat":43.32333,"lon":5.4062,"is_reserved":false,"is_disabled":false,"rental_uris":{"android":"levelo://app?vid=1d123306-76de-4e99-b18a-f2b54d4716f7","ios":"levelo://app?vid=1d123306-76de-4e99-b18a-f2b54d4716f7"},"vehicle_type_id":"4","last_reported":1729379314,"current_range_meters":20000,"station_id":"ce4bhq92rcd13ifvqhjg","pricing_plan_id":"cebpf4jnsgd1na2vs0mg"},{"bike_id":"e0879c3f-10eb-4d3b-8053-605cb1c6310c","system_id":"levelo_inurba_marseille","lat":43.26059,"lon":5.39392,"is_reserved":false,"is_disabled":false,"rental_uris":{"android":"levelo://app?vid=e0879c3f-10eb-4d3b-8053-605cb1c6310c","ios":"levelo://app?vid=e0879c3f-10eb-4d3b-8053-605cb1c6310c"},"vehicle_type_id":"4","last_reported":1729379314,"current_range_meters":24800,"station_id":"ce4bhh92rcd13ifvqfj0","pricing_plan_id":"cebpf4jnsgd1na2vs0mg"},{"bike_id":"5670cc1a-3b42-4baf-84dd-24fbe4175a33","system_id":"levelo_inurba_marseille","lat":43.308347,"lon":5.381167,"is_reserved":false,"is_disabled":false,"rental_uris":{"android":"levelo://app?vid=5670cc1a-3b42-4baf-84dd-24fbe4175a33","ios":"levelo://app?vid=5670cc1a-3b42-4baf-84dd-24fbe4175a33"},"vehicle_type_id":"4","last_reported":1729379314,"current_range_meters":10000,"station_id":"ce4bgt12rcd13ifvqce0","pricing_plan_id":"cebpf4jnsgd1na2vs0mg"},{"bike_id":"a9128e19-daf5-4e1f-b719-f7b1a144d711","system_id":"levelo_inurba_marseille","lat":43.33723,"lon":5.39188,"is_reserved":false,"is_disabled":false,"rental_uris":{"android":"levelo://app?vid=a9128e19-daf5-4e1f-b719-f7b1a144d711","ios":"levelo://app?vid=a9128e19-daf5-4e1f-b719-f7b1a144d711"},"vehicle_type_id":"4","last_reported":1729379314,"current_range_meters":22400,"station_id":"ce4bhr92rcd13ifvqhsg","pricing_plan_id":"cebpf4jnsgd1na2vs0mg"},{"bike_id":"3fbb8f30-0d80-4328-ab5c-f746ad375e95","system_id":"levelo_inurba_marseille","lat":43.27938,"lon":5.41042,"is_reserved":false,"is_disabled":false,"rental_uris":{"android":"levelo://app?vid=3fbb8f30-0d80-4328-ab5c-f746ad375e95","ios":"levelo://app?vid=3fbb8f30-0d80-4328-ab5c-f746ad375e95"},"vehicle_type_id":"4","last_reported":1729379314,"current_range_meters":24800,"station_id":"ce4bhnp2rcd13ifvqh0g","pricing_plan_id":"cebpf4jnsgd1na2vs0mg"},{"bike_id":"2cb8dcea-6e24-4078-9365-ab51d7e910c9","system_id":"levelo_inurba_marseille","lat":43.22925,"lon":5.35374,"is_reserved":false,"is_disabled":false,"rental_uris":{"android":"levelo://app?vid=2cb8dcea-6e24-4078-9365-ab51d7e910c9","ios":"levelo://app?vid=2cb8dcea-6e24-4078-9365-ab51d7e910c9"},"vehicle_type_id":"4","last_reported":1729379314,"current_range_meters":39200,"station_id":"cpo3532slgdg3j2ikp40","pricing_plan_id":"cebpf4jnsgd1na2vs0mg"},{"bike_id":"a8d2cfa4-d275-47c6-84f3-c214a2d8d7b4","system_id":"levelo_inurba_marseille","lat":43.31489,"lon":5.37305,"is_reserved":false,"is_disabled":false,"rental_uris":{"android":"levelo://app?vid=a8d2cfa4-d275-47c6-84f3-c214a2d8d7b4","ios":"levelo://app?vid=a8d2cfa4-d275-47c6-84f3-c214a2d8d7b4"},"vehicle_type_id":"4","last_reported":1729379314,"current_range_meters":39200,"station_id":"ce4bgt12rcd13ifvqcd0","pricing_plan_id":"cebpf4jnsgd1na2vs0mg"},{"bike_id":"1e1137d6-f6bf-499e-9ccf-0a40cee1b32b","system_id":"levelo_inurba_marseille","lat":43.24077,"lon":5.37757,"is_reserved":false,"is_disabled":false,"rental_uris":{"android":"levelo://app?vid=1e1137d6-f6bf-499e-9ccf-0a40cee1b32b","ios":"levelo://app?vid=1e1137d6-f6bf-499e-9ccf-0a40cee1b32b"},"vehicle_type_id":"4","last_reported":1729379314,"current_range_meters":29600,"station_id":"ce4bhnp2rcd13ifvqgvg","pricing_plan_id":"cebpf4jnsgd1na2vs0mg"},{"bike_id":"5808184e-866e-4fa7-80c5-0c3e8948c68b","system_id":"levelo_inurba_marseille","lat":43.2315,"lon":5.43719,"is_reserved":false,"is_disabled":false,"rental_uris":{"android":"levelo://app?vid=5808184e-866e-4fa7-80c5-0c3e8948c68b","ios":"levelo://app?vid=5808184e-866e-4fa7-80c5-0c3e8948c68b"},"vehicle_type_id":"4","last_reported":1729379314,"current_range_meters":18000,"station_id":"ce4bhmp2rcd13ifvqgog","pricing_plan_id":"cebpf4jnsgd1na2vs0mg"},{"bike_id":"481cffd0-bd3a-4827-9e2c-2ef60f9d0829","system_id":"levelo_inurba_marseille","lat":43.28458,"lon":5.35887,"is_reserved":false,"is_disabled":false,"rental_uris":{"android":"levelo://app?vid=481cffd0-bd3a-4827-9e2c-2ef60f9d0829","ios":"levelo://app?vid=481cffd0-bd3a-4827-9e2c-2ef60f9d0829"},"vehicle_type_id":"4","last_reported":1729379314,"current_range_meters":26800,"station_id":"ce4bhah2rcd13ifvqei0","pricing_plan_id":"cebpf4jnsgd1na2vs0mg"},{"bike_id":"f002ff7c-8d7f-4b30-a59b-b17d6e6e6eba","system_id":"levelo_inurba_marseille","lat":43.3266,"lon":5.40988,"is_reserved":false,"is_disabled":false,"rental_uris":{"android":"levelo://app?vid=f002ff7c-8d7f-4b30-a59b-b17d6e6e6eba","ios":"levelo://app?vid=f002ff7c-8d7f-4b30-a59b-b17d6e6e6eba"},"vehicle_type_id":"4","last_reported":1729379314,"current_range_meters":12800,"station_id":"ce4bhpp2rcd13ifvqhgg","pricing_plan_id":"cebpf4jnsgd1na2vs0mg"},{"bike_id":"474ccd54-d884-4c48-ac27-1f7190ae4438","system_id":"levelo_inurba_marseille","lat":43.33728,"lon":5.39189,"is_reserved":false,"is_disabled":false,"rental_uris":{"android":"levelo://app?vid=474ccd54-d884-4c48-ac27-1f7190ae4438","ios":"levelo://app?vid=474ccd54-d884-4c48-ac27-1f7190ae4438"},"vehicle_type_id":"4","last_reported":1729379314,"current_range_meters":9600,"station_id":"ce4bhr92rcd13ifvqhsg","pricing_plan_id":"cebpf4jnsgd1na2vs0mg"},{"bike_id":"e07dac2c-5cff-4a50-b639-04e0bb7be902","system_id":"levelo_inurba_marseille","lat":43.28458,"lon":5.35899,"is_reserved":false,"is_disabled":false,"rental_uris":{"android":"levelo://app?vid=e07dac2c-5cff-4a50-b639-04e0bb7be902","ios":"levelo://app?vid=e07dac2c-5cff-4a50-b639-04e0bb7be902"},"vehicle_type_id":"4","last_reported":1729379314,"current_range_meters":38800,"station_id":"ce4bhah2rcd13ifvqei0","pricing_plan_id":"cebpf4jnsgd1na2vs0mg"},{"bike_id":"47a652d1-2a75-4bd2-83f4-5d02a6d806da","system_id":"levelo_inurba_marseille","lat":43.29029,"lon":5.35935,"is_reserved":false,"is_disabled":false,"rental_uris":{"android":"levelo://app?vid=47a652d1-2a75-4bd2-83f4-5d02a6d806da","ios":"levelo://app?vid=47a652d1-2a75-4bd2-83f4-5d02a6d806da"},"vehicle_type_id":"4","last_reported":1729379314,"current_range_meters":24000,"station_id":"ce4bha92rcd13ifvqeg0","pricing_plan_id":"cebpf4jnsgd1na2vs0mg"},{"bike_id":"f75bac43-de1c-46ee-b029-720a38aa18a4","system_id":"levelo_inurba_marseille","lat":43.28619,"lon":5.35108,"is_reserved":false,"is_disabled":false,"rental_uris":{"android":"levelo://app?vid=f75bac43-de1c-46ee-b029-720a38aa18a4","ios":"levelo://app?vid=f75bac43-de1c-46ee-b029-720a38aa18a4"},"vehicle_type_id":"4","last_reported":1729379314,"current_range_meters":38800,"station_id":"ce4bhch2rcd13ifvqeug","pricing_plan_id":"cebpf4jnsgd1na2vs0mg"},{"bike_id":"967de6d1-e498-46a4-a944-4f792f9f122c","system_id":"levelo_inurba_marseille","lat":43.28778,"lon":5.3825,"is_reserved":false,"is_disabled":false,"rental_uris":{"android":"levelo://app?vid=967de6d1-e498-46a4-a944-4f792f9f122c","ios":"levelo://app?vid=967de6d1-e498-46a4-a944-4f792f9f122c"},"vehicle_type_id":"4","last_reported":1729379314,"current_range_meters":20800,"station_id":"","pricing_plan_id":"cebpf4jnsgd1na2vs0mg"},{"bike_id":"45ceb560-a8c0-4a30-8f76-689582c39d38","system_id":"levelo_inurba_marseille","lat":43.299042,"lon":5.385507,"is_reserved":false,"is_disabled":false,"rental_uris":{"android":"levelo://app?vid=45ceb560-a8c0-4a30-8f76-689582c39d38","ios":"levelo://app?vid=45ceb560-a8c0-4a30-8f76-689582c39d38"},"vehicle_type_id":"4","last_reported":1729379314,"current_range_meters":16400,"station_id":"ce4bh012rcd13ifvqcv0","pricing_plan_id":"cebpf4jnsgd1na2vs0mg"},{"bike_id":"e3ef4e97-e3a9-4a73-b782-e2f3ed3ea67f","system_id":"levelo_inurba_marseille","lat":43.30258,"lon":5.40085,"is_reserved":false,"is_disabled":false,"rental_uris":{"android":"levelo://app?vid=e3ef4e97-e3a9-4a73-b782-e2f3ed3ea67f","ios":"levelo://app?vid=e3ef4e97-e3a9-4a73-b782-e2f3ed3ea67f"},"vehicle_type_id":"4","last_reported":1729379314,"current_range_meters":26800,"station_id":"ce4bgvh2rcd13ifvqcs0","pricing_plan_id":"cebpf4jnsgd1na2vs0mg"},{"bike_id":"7e0b5d71-a8eb-4421-a968-268fef2f6d80","system_id":"levelo_inurba_marseille","lat":43.30782,"lon":5.37654,"is_reserved":false,"is_disabled":false,"rental_uris":{"android":"levelo://app?vid=7e0b5d71-a8eb-4421-a968-268fef2f6d80","ios":"levelo://app?vid=7e0b5d71-a8eb-4421-a968-268fef2f6d80"},"vehicle_type_id":"4","last_reported":1729379314,"current_range_meters":28800,"station_id":"ce4bgv92rcd13ifvqcq0","pricing_plan_id":"cebpf4jnsgd1na2vs0mg"},{"bike_id":"01eb4b6f-8267-423c-9273-ca859312881e","system_id":"levelo_inurba_marseille","lat":43.30425,"lon":5.38877,"is_reserved":false,"is_disabled":false,"rental_uris":{"android":"levelo://app?vid=01eb4b6f-8267-423c-9273-ca859312881e","ios":"levelo://app?vid=01eb4b6f-8267-423c-9273-ca859312881e"},"vehicle_type_id":"4","last_reported":1729379314,"current_range_meters":16000,"station_id":"ce4bgk12rcd13ifvqbi0","pricing_plan_id":"cebpf4jnsgd1na2vs0mg"},{"bike_id":"7aa259b1-98ce-4330-9b3b-74957bda49bd","system_id":"levelo_inurba_marseille","lat":43.25868,"lon":5.39904,"is_reserved":false,"is_disabled":false,"rental_uris":{"android":"levelo://app?vid=7aa259b1-98ce-4330-9b3b-74957bda49bd","ios":"levelo://app?vid=7aa259b1-98ce-4330-9b3b-74957bda49bd"},"vehicle_type_id":"4","last_reported":1729379314,"current_range_meters":39200,"station_id":"ce4bhl92rcd13ifvqghg","pricing_plan_id":"cebpf4jnsgd1na2vs0mg"},{"bike_id":"09dc75bd-0542-4711-8e00-150e813a9122","system_id":"levelo_inurba_marseille","lat":43.25108,"lon":5.40326,"is_reserved":false,"is_disabled":false,"rental_uris":{"android":"levelo://app?vid=09dc75bd-0542-4711-8e00-150e813a9122","ios":"levelo://app?vid=09dc75bd-0542-4711-8e00-150e813a9122"},"vehicle_type_id":"4","last_reported":1729379314,"current_range_meters":38000,"station_id":"ce4bhlh2rcd13ifvqgig","pricing_plan_id":"cebpf4jnsgd1na2vs0mg"},{"bike_id":"a271bdd0-8735-4737-9887-7e1fad0a3b13","system_id":"levelo_inurba_marseille","lat":43.27562,"lon":5.38444,"is_reserved":false,"is_disabled":false,"rental_uris":{"android":"levelo://app?vid=a271bdd0-8735-4737-9887-7e1fad0a3b13","ios":"levelo://app?vid=a271bdd0-8735-4737-9887-7e1fad0a3b13"},"vehicle_type_id":"4","last_reported":1729379314,"current_range_meters":16000,"station_id":"ce4bhh92rcd13ifvqfi0","pricing_plan_id":"cebpf4jnsgd1na2vs0mg"},{"bike_id":"68ecf5b1-3e27-4073-bcfd-9b4d888b6f5c","system_id":"levelo_inurba_marseille","lat":43.32105,"lon":5.3677,"is_reserved":false,"is_disabled":false,"rental_uris":{"android":"levelo://app?vid=68ecf5b1-3e27-4073-bcfd-9b4d888b6f5c","ios":"levelo://app?vid=68ecf5b1-3e27-4073-bcfd-9b4d888b6f5c"},"vehicle_type_id":"4","last_reported":1729379314,"current_range_meters":38800,"station_id":"ce4bhrh2rcd13ifvqhug","pricing_plan_id":"cebpf4jnsgd1na2vs0mg"},{"bike_id":"fc6e513b-da81-4d34-a427-493e42edd768","system_id":"levelo_inurba_marseille","lat":43.29526,"lon":5.39242,"is_reserved":false,"is_disabled":false,"rental_uris":{"android":"levelo://app?vid=fc6e513b-da81-4d34-a427-493e42edd768","ios":"levelo://app?vid=fc6e513b-da81-4d34-a427-493e42edd768"},"vehicle_type_id":"4","last_reported":1729379314,"current_range_meters":19600,"station_id":"","pricing_plan_id":"cebpf4jnsgd1na2vs0mg"},{"bike_id":"04b74244-2296-4716-9d79-8f96ed6acdb1","system_id":"levelo_inurba_marseille","lat":43.26933,"lon":5.38919,"is_reserved":false,"is_disabled":false,"rental_uris":{"android":"levelo://app?vid=04b74244-2296-4716-9d79-8f96ed6acdb1","ios":"levelo://app?vid=04b74244-2296-4716-9d79-8f96ed6acdb1"},"vehicle_type_id":"4","last_reported":1729379314,"current_range_meters":37600,"station_id":"ce4bhhh2rcd13ifvqfl0","pricing_plan_id":"cebpf4jnsgd1na2vs0mg"},{"bike_id":"e7b628b5-3fa6-48d8-8f72-c1f798239319","system_id":"levelo_inurba_marseille","lat":43.31361,"lon":5.38495,"is_reserved":false,"is_disabled":false,"rental_uris":{"android":"levelo://app?vid=e7b628b5-3fa6-48d8-8f72-c1f798239319","ios":"levelo://app?vid=e7b628b5-3fa6-48d8-8f72-c1f798239319"},"vehicle_type_id":"4","last_reported":1729379314,"current_range_meters":32000,"station_id":"ce4bgt92rcd13ifvqcf0","pricing_plan_id":"cebpf4jnsgd1na2vs0mg"},{"bike_id":"f7207608-1141-4390-a077-b1eca2449690","system_id":"levelo_inurba_marseille","lat":43.26213,"lon":5.37927,"is_reserved":false,"is_disabled":false,"rental_uris":{"android":"levelo://app?vid=f7207608-1141-4390-a077-b1eca2449690","ios":"levelo://app?vid=f7207608-1141-4390-a077-b1eca2449690"},"vehicle_type_id":"4","last_reported":1729379314,"current_range_meters":18000,"station_id":"ce4bhjp2rcd13ifvqg90","pricing_plan_id":"cebpf4jnsgd1na2vs0mg"},{"bike_id":"c383b0bc-8cf0-443d-964d-86062b4cbbef","system_id":"levelo_inurba_marseille","lat":43.2811,"lon":5.37844,"is_reserved":false,"is_disabled":false,"rental_uris":{"android":"levelo://app?vid=c383b0bc-8cf0-443d-964d-86062b4cbbef","ios":"levelo://app?vid=c383b0bc-8cf0-443d-964d-86062b4cbbef"},"vehicle_type_id":"4","last_reported":1729379314,"current_range_meters":38000,"station_id":"ce4bha12rcd13ifvqee0","pricing_plan_id":"cebpf4jnsgd1na2vs0mg"},{"bike_id":"ecb85f99-17b9-4bf1-829c-0f61a2cf1ee6","system_id":"levelo_inurba_marseille","lat":43.27984,"lon":5.41665,"is_reserved":false,"is_disabled":false,"rental_uris":{"android":"levelo://app?vid=ecb85f99-17b9-4bf1-829c-0f61a2cf1ee6","ios":"levelo://app?vid=ecb85f99-17b9-4bf1-829c-0f61a2cf1ee6"},"vehicle_type_id":"4","last_reported":1729379314,"current_range_meters":11200,"station_id":"ce4bho12rcd13ifvqh1g","pricing_plan_id":"cebpf4jnsgd1na2vs0mg"},{"bike_id":"d0201ef7-288d-41c0-a113-a9447266d47b","system_id":"levelo_inurba_marseille","lat":43.30882,"lon":5.39641,"is_reserved":false,"is_disabled":false,"rental_uris":{"android":"levelo://app?vid=d0201ef7-288d-41c0-a113-a9447266d47b","ios":"levelo://app?vid=d0201ef7-288d-41c0-a113-a9447266d47b"},"vehicle_type_id":"4","last_reported":1729379314,"current_range_meters":6400,"station_id":"ce4bh012rcd13ifvqcv0","pricing_plan_id":"cebpf4jnsgd1na2vs0mg"},{"bike_id":"57dd0012-e7c2-43e3-90a1-087125ac63fa","system_id":"levelo_inurba_marseille","lat":43.33753,"lon":5.37454,"is_reserved":false,"is_disabled":false,"rental_uris":{"android":"levelo://app?vid=57dd0012-e7c2-43e3-90a1-087125ac63fa","ios":"levelo://app?vid=57dd0012-e7c2-43e3-90a1-087125ac63fa"},"vehicle_type_id":"4","last_reported":1729379314,"current_range_meters":38000,"station_id":"","pricing_plan_id":"cebpf4jnsgd1na2vs0mg"},{"bike_id":"d0c5a1c1-66a9-4933-b464-9142a7c2b7a1","system_id":"levelo_inurba_marseille","lat":43.28451,"lon":5.35896,"is_reserved":false,"is_disabled":false,"rental_uris":{"android":"levelo://app?vid=d0c5a1c1-66a9-4933-b464-9142a7c2b7a1","ios":"levelo://app?vid=d0c5a1c1-66a9-4933-b464-9142a7c2b7a1"},"vehicle_type_id":"4","last_reported":1729379314,"current_range_meters":19600,"station_id":"ce4bhah2rcd13ifvqei0","pricing_plan_id":"cebpf4jnsgd1na2vs0mg"},{"bike_id":"580fd143-444b-4424-b5bb-4b9e450f75b5","system_id":"levelo_inurba_marseille","lat":43.27943,"lon":5.41043,"is_reserved":false,"is_disabled":false,"rental_uris":{"android":"levelo://app?vid=580fd143-444b-4424-b5bb-4b9e450f75b5","ios":"levelo://app?vid=580fd143-444b-4424-b5bb-4b9e450f75b5"},"vehicle_type_id":"4","last_reported":1729379314,"current_range_meters":34800,"station_id":"ce4bhnp2rcd13ifvqh0g","pricing_plan_id":"cebpf4jnsgd1na2vs0mg"},{"bike_id":"a5280cbd-d187-41a1-badf-5e1878983c0b","system_id":"levelo_inurba_marseille","lat":43.30945,"lon":5.39036,"is_reserved":false,"is_disabled":false,"rental_uris":{"android":"levelo://app?vid=a5280cbd-d187-41a1-badf-5e1878983c0b","ios":"levelo://app?vid=a5280cbd-d187-41a1-badf-5e1878983c0b"},"vehicle_type_id":"4","last_reported":1729379314,"current_range_meters":17600,"station_id":"ce4bgup2rcd13ifvqco0","pricing_plan_id":"cebpf4jnsgd1na2vs0mg"},{"bike_id":"1a6a4619-f26e-4970-b3c0-a933218f2e6c","system_id":"levelo_inurba_marseille","lat":43.306,"lon":5.39351,"is_reserved":false,"is_disabled":false,"rental_uris":{"android":"levelo://app?vid=1a6a4619-f26e-4970-b3c0-a933218f2e6c","ios":"levelo://app?vid=1a6a4619-f26e-4970-b3c0-a933218f2e6c"},"vehicle_type_id":"4","last_reported":1729379314,"current_range_meters":6800,"station_id":"ce4bh0p2rcd13ifvqd80","pricing_plan_id":"cebpf4jnsgd1na2vs0mg"},{"bike_id":"c07aa588-db55-4016-bbed-4511d4ffd744","system_id":"levelo_inurba_marseille","lat":43.27918,"lon":5.39577,"is_reserved":false,"is_disabled":false,"rental_uris":{"android":"levelo://app?vid=c07aa588-db55-4016-bbed-4511d4ffd744","ios":"levelo://app?vid=c07aa588-db55-4016-bbed-4511d4ffd744"},"vehicle_type_id":"4","last_reported":1729379314,"current_range_meters":16400,"station_id":"ce4bhf92rcd13ifvqf40","pricing_plan_id":"cebpf4jnsgd1na2vs0mg"},{"bike_id":"390c511b-54c3-4464-9557-2ac33896af8d","system_id":"levelo_inurba_marseille","lat":43.30939,"lon":5.40144,"is_reserved":false,"is_disabled":false,"rental_uris":{"android":"levelo://app?vid=390c511b-54c3-4464-9557-2ac33896af8d","ios":"levelo://app?vid=390c511b-54c3-4464-9557-2ac33896af8d"},"vehicle_type_id":"4","last_reported":1729379314,"current_range_meters":8800,"station_id":"ce4bgvp2rcd13ifvqct0","pricing_plan_id":"cebpf4jnsgd1na2vs0mg"},{"bike_id":"970ce056-93b7-4b51-889b-8fcf2f52c05f","system_id":"levelo_inurba_marseille","lat":43.24549,"lon":5.39517,"is_reserved":false,"is_disabled":false,"rental_uris":{"android":"levelo://app?vid=970ce056-93b7-4b51-889b-8fcf2f52c05f","ios":"levelo://app?vid=970ce056-93b7-4b51-889b-8fcf2f52c05f"},"vehicle_type_id":"4","last_reported":1729379314,"current_range_meters":10000,"station_id":"ce4bhlp2rcd13ifvqgjg","pricing_plan_id":"cebpf4jnsgd1na2vs0mg"},{"bike_id":"5d1f039e-663b-4cac-b00a-0cacc8a50d1f","system_id":"levelo_inurba_marseille","lat":43.302511,"lon":5.400752,"is_reserved":false,"is_disabled":false,"rental_uris":{"android":"levelo://app?vid=5d1f039e-663b-4cac-b00a-0cacc8a50d1f","ios":"levelo://app?vid=5d1f039e-663b-4cac-b00a-0cacc8a50d1f"},"vehicle_type_id":"4","last_reported":1729379314,"current_range_meters":24400,"station_id":"ce4bgvh2rcd13ifvqcs0","pricing_plan_id":"cebpf4jnsgd1na2vs0mg"},{"bike_id":"a84e884b-bf74-47ef-a6e7-e373436a5abd","system_id":"levelo_inurba_marseille","lat":43.27917,"lon":5.39577,"is_reserved":false,"is_disabled":false,"rental_uris":{"android":"levelo://app?vid=a84e884b-bf74-47ef-a6e7-e373436a5abd","ios":"levelo://app?vid=a84e884b-bf74-47ef-a6e7-e373436a5abd"},"vehicle_type_id":"4","last_reported":1729379314,"current_range_meters":12000,"station_id":"ce4bhf92rcd13ifvqf40","pricing_plan_id":"cebpf4jnsgd1na2vs0mg"},{"bike_id":"9e927d85-4215-47b3-8d8f-01fc49f32640","system_id":"levelo_inurba_marseille","lat":43.26489,"lon":5.39542,"is_reserved":false,"is_disabled":false,"rental_uris":{"android":"levelo://app?vid=9e927d85-4215-47b3-8d8f-01fc49f32640","ios":"levelo://app?vid=9e927d85-4215-47b3-8d8f-01fc49f32640"},"vehicle_type_id":"4","last_reported":1729379314,"current_range_meters":38800,"station_id":"ce4bhi12rcd13ifvqfq0","pricing_plan_id":"cebpf4jnsgd1na2vs0mg"},{"bike_id":"a533abe5-dac1-401a-9d02-f2c113b84f4f","system_id":"levelo_inurba_marseille","lat":43.28934,"lon":5.36395,"is_reserved":false,"is_disabled":false,"rental_uris":{"android":"levelo://app?vid=a533abe5-dac1-401a-9d02-f2c113b84f4f","ios":"levelo://app?vid=a533abe5-dac1-401a-9d02-f2c113b84f4f"},"vehicle_type_id":"4","last_reported":1729379314,"current_range_meters":39200,"station_id":"ce4bhc92rcd13ifvqetg","pricing_plan_id":"cebpf4jnsgd1na2vs0mg"},{"bike_id":"e8b3df60-01e0-45e7-8b61-61d52e175cbb","system_id":"levelo_inurba_marseille","lat":43.28103,"lon":5.37835,"is_reserved":false,"is_disabled":false,"rental_uris":{"android":"levelo://app?vid=e8b3df60-01e0-45e7-8b61-61d52e175cbb","ios":"levelo://app?vid=e8b3df60-01e0-45e7-8b61-61d52e175cbb"},"vehicle_type_id":"4","last_reported":1729379314,"current_range_meters":38800,"station_id":"ce4bha12rcd13ifvqee0","pricing_plan_id":"cebpf4jnsgd1na2vs0mg"},{"bike_id":"b88b0471-3e76-49b0-9ff7-c71e4fc07cd2","system_id":"levelo_inurba_marseille","lat":43.26563,"lon":5.39018,"is_reserved":false,"is_disabled":false,"rental_uris":{"android":"levelo://app?vid=b88b0471-3e76-49b0-9ff7-c71e4fc07cd2","ios":"levelo://app?vid=b88b0471-3e76-49b0-9ff7-c71e4fc07cd2"},"vehicle_type_id":"4","last_reported":1729379314,"current_range_meters":38800,"station_id":"ce4bhe12rcd13ifvqf30","pricing_plan_id":"cebpf4jnsgd1na2vs0mg"},{"bike_id":"8fabdcc3-5aaf-4ce8-a0fa-4e4085d85040","system_id":"levelo_inurba_marseille","lat":43.27212,"lon":5.39186,"is_reserved":false,"is_disabled":false,"rental_uris":{"android":"levelo://app?vid=8fabdcc3-5aaf-4ce8-a0fa-4e4085d85040","ios":"levelo://app?vid=8fabdcc3-5aaf-4ce8-a0fa-4e4085d85040"},"vehicle_type_id":"4","last_reported":1729379314,"current_range_meters":3200,"station_id":"ce4bhhp2rcd13ifvqfm0","pricing_plan_id":"cebpf4jnsgd1na2vs0mg"},{"bike_id":"a9bc6704-7273-4aa4-b573-b01c26e51282","system_id":"levelo_inurba_marseille","lat":43.24185,"lon":5.39738,"is_reserved":false,"is_disabled":false,"rental_uris":{"android":"levelo://app?vid=a9bc6704-7273-4aa4-b573-b01c26e51282","ios":"levelo://app?vid=a9bc6704-7273-4aa4-b573-b01c26e51282"},"vehicle_type_id":"4","last_reported":1729379314,"current_range_meters":14400,"station_id":"ce4bhn12rcd13ifvqgpg","pricing_plan_id":"cebpf4jnsgd1na2vs0mg"},{"bike_id":"6aa99f06-dfb6-48a5-8719-6314fb12cad0","system_id":"levelo_inurba_marseille","lat":43.29558,"lon":5.4228,"is_reserved":false,"is_disabled":false,"rental_uris":{"android":"levelo://app?vid=6aa99f06-dfb6-48a5-8719-6314fb12cad0","ios":"levelo://app?vid=6aa99f06-dfb6-48a5-8719-6314fb12cad0"},"vehicle_type_id":"4","last_reported":1729379314,"current_range_meters":35600,"station_id":"ce4bhph2rcd13ifvqhdg","pricing_plan_id":"cebpf4jnsgd1na2vs0mg"},{"bike_id":"a9247564-b71c-42d3-a7af-078e1531397e","system_id":"levelo_inurba_marseille","lat":43.25089,"lon":5.39506,"is_reserved":false,"is_disabled":false,"rental_uris":{"android":"levelo://app?vid=a9247564-b71c-42d3-a7af-078e1531397e","ios":"levelo://app?vid=a9247564-b71c-42d3-a7af-078e1531397e"},"vehicle_type_id":"4","last_reported":1729379314,"current_range_meters":38800,"station_id":"ce4bhm12rcd13ifvqgkg","pricing_plan_id":"cebpf4jnsgd1na2vs0mg"},{"bike_id":"e2198d75-ec0b-45d7-b6f6-08bbbe60882a","system_id":"levelo_inurba_marseille","lat":43.33025,"lon":5.39035,"is_reserved":false,"is_disabled":false,"rental_uris":{"android":"levelo://app?vid=e2198d75-ec0b-45d7-b6f6-08bbbe60882a","ios":"levelo://app?vid=e2198d75-ec0b-45d7-b6f6-08bbbe60882a"},"vehicle_type_id":"4","last_reported":1729379314,"current_range_meters":39200,"station_id":"ce4bhr92rcd13ifvqhrg","pricing_plan_id":"cebpf4jnsgd1na2vs0mg"},{"bike_id":"d3538dc5-59bd-4c17-853d-cbebdc05713e","system_id":"levelo_inurba_marseille","lat":43.30544,"lon":5.36731,"is_reserved":false,"is_disabled":false,"rental_uris":{"android":"levelo://app?vid=d3538dc5-59bd-4c17-853d-cbebdc05713e","ios":"levelo://app?vid=d3538dc5-59bd-4c17-853d-cbebdc05713e"},"vehicle_type_id":"4","last_reported":1729379314,"current_range_meters":6800,"station_id":"ce4bgrp2rcd13ifvqc9g","pricing_plan_id":"cebpf4jnsgd1na2vs0mg"},{"bike_id":"6bd60844-0daf-48b6-b3fe-59f881da13ca","system_id":"levelo_inurba_marseille","lat":43.32476,"lon":5.36559,"is_reserved":false,"is_disabled":false,"rental_uris":{"android":"levelo://app?vid=6bd60844-0daf-48b6-b3fe-59f881da13ca","ios":"levelo://app?vid=6bd60844-0daf-48b6-b3fe-59f881da13ca"},"vehicle_type_id":"4","last_reported":1729379314,"current_range_meters":38800,"station_id":"ce4bhs12rcd13ifvqhvg","pricing_plan_id":"cebpf4jnsgd1na2vs0mg"},{"bike_id":"35e7f867-368c-476c-a860-684a9be05389","system_id":"levelo_inurba_marseille","lat":43.26559,"lon":5.39011,"is_reserved":false,"is_disabled":false,"rental_uris":{"android":"levelo://app?vid=35e7f867-368c-476c-a860-684a9be05389","ios":"levelo://app?vid=35e7f867-368c-476c-a860-684a9be05389"},"vehicle_type_id":"4","last_reported":1729379314,"current_range_meters":36800,"station_id":"ce4bhe12rcd13ifvqf30","pricing_plan_id":"cebpf4jnsgd1na2vs0mg"},{"bike_id":"25ab302b-1201-45e2-9143-4ec4ea699a05","system_id":"levelo_inurba_marseille","lat":43.2791,"lon":5.39587,"is_reserved":false,"is_disabled":false,"rental_uris":{"android":"levelo://app?vid=25ab302b-1201-45e2-9143-4ec4ea699a05","ios":"levelo://app?vid=25ab302b-1201-45e2-9143-4ec4ea699a05"},"vehicle_type_id":"4","last_reported":1729379314,"current_range_meters":23200,"station_id":"ce4bhf92rcd13ifvqf40","pricing_plan_id":"cebpf4jnsgd1na2vs0mg"},{"bike_id":"4ea5aef8-ce0c-4408-90ea-0be5c9c1920f","system_id":"levelo_inurba_marseille","lat":43.29411,"lon":5.37782,"is_reserved":false,"is_disabled":false,"rental_uris":{"android":"levelo://app?vid=4ea5aef8-ce0c-4408-90ea-0be5c9c1920f","ios":"levelo://app?vid=4ea5aef8-ce0c-4408-90ea-0be5c9c1920f"},"vehicle_type_id":"4","last_reported":1729379314,"current_range_meters":16800,"station_id":"","pricing_plan_id":"cebpf4jnsgd1na2vs0mg"},{"bike_id":"3ed35d88-3b80-462e-9ba8-987ee8b4864c","system_id":"levelo_inurba_marseille","lat":43.28445,"lon":5.35897,"is_reserved":false,"is_disabled":false,"rental_uris":{"android":"levelo://app?vid=3ed35d88-3b80-462e-9ba8-987ee8b4864c","ios":"levelo://app?vid=3ed35d88-3b80-462e-9ba8-987ee8b4864c"},"vehicle_type_id":"4","last_reported":1729379314,"current_range_meters":38800,"station_id":"ce4bhah2rcd13ifvqei0","pricing_plan_id":"cebpf4jnsgd1na2vs0mg"},{"bike_id":"d234dac7-4ce3-4348-b72f-a62abb04355c","system_id":"levelo_inurba_marseille","lat":43.27918,"lon":5.39582,"is_reserved":false,"is_disabled":false,"rental_uris":{"android":"levelo://app?vid=d234dac7-4ce3-4348-b72f-a62abb04355c","ios":"levelo://app?vid=d234dac7-4ce3-4348-b72f-a62abb04355c"},"vehicle_type_id":"4","last_reported":1729379314,"current_range_meters":13600,"station_id":"ce4bhf92rcd13ifvqf40","pricing_plan_id":"cebpf4jnsgd1na2vs0mg"},{"bike_id":"83f2dbb8-5f53-40b6-a7b4-0d514c1ebb41","system_id":"levelo_inurba_marseille","lat":43.26954,"lon":5.38634,"is_reserved":false,"is_disabled":false,"rental_uris":{"android":"levelo://app?vid=83f2dbb8-5f53-40b6-a7b4-0d514c1ebb41","ios":"levelo://app?vid=83f2dbb8-5f53-40b6-a7b4-0d514c1ebb41"},"vehicle_type_id":"4","last_reported":1729379314,"current_range_meters":5600,"station_id":"ce4bhh92rcd13ifvqfh0","pricing_plan_id":"cebpf4jnsgd1na2vs0mg"},{"bike_id":"b10181cc-41ff-4bd7-8376-48a23e3dc7f1","system_id":"levelo_inurba_marseille","lat":43.25863,"lon":5.39905,"is_reserved":false,"is_disabled":false,"rental_uris":{"android":"levelo://app?vid=b10181cc-41ff-4bd7-8376-48a23e3dc7f1","ios":"levelo://app?vid=b10181cc-41ff-4bd7-8376-48a23e3dc7f1"},"vehicle_type_id":"4","last_reported":1729379314,"current_range_meters":32000,"station_id":"ce4bhl92rcd13ifvqghg","pricing_plan_id":"cebpf4jnsgd1na2vs0mg"},{"bike_id":"bdc9eb1f-e84a-472b-9728-39e6924ff743","system_id":"levelo_inurba_marseille","lat":43.26557,"lon":5.37288,"is_reserved":false,"is_disabled":false,"rental_uris":{"android":"levelo://app?vid=bdc9eb1f-e84a-472b-9728-39e6924ff743","ios":"levelo://app?vid=bdc9eb1f-e84a-472b-9728-39e6924ff743"},"vehicle_type_id":"4","last_reported":1729379314,"current_range_meters":38800,"station_id":"ce4bhg12rcd13ifvqf70","pricing_plan_id":"cebpf4jnsgd1na2vs0mg"},{"bike_id":"0c07120c-6a22-4d0f-a500-32eb140d4f3a","system_id":"levelo_inurba_marseille","lat":43.28694,"lon":5.39994,"is_reserved":false,"is_disabled":false,"rental_uris":{"android":"levelo://app?vid=0c07120c-6a22-4d0f-a500-32eb140d4f3a","ios":"levelo://app?vid=0c07120c-6a22-4d0f-a500-32eb140d4f3a"},"vehicle_type_id":"4","last_reported":1729379314,"current_range_meters":38800,"station_id":"ce4bho92rcd13ifvqh3g","pricing_plan_id":"cebpf4jnsgd1na2vs0mg"},{"bike_id":"8d99d55a-7b47-40c1-ad7b-8d15db9ce591","system_id":"levelo_inurba_marseille","lat":43.25116,"lon":5.4032,"is_reserved":false,"is_disabled":false,"rental_uris":{"android":"levelo://app?vid=8d99d55a-7b47-40c1-ad7b-8d15db9ce591","ios":"levelo://app?vid=8d99d55a-7b47-40c1-ad7b-8d15db9ce591"},"vehicle_type_id":"4","last_reported":1729379314,"current_range_meters":38800,"station_id":"ce4bhlh2rcd13ifvqgig","pricing_plan_id":"cebpf4jnsgd1na2vs0mg"},{"bike_id":"3bf0d25b-2e05-4c9b-a06d-a66a86e3798c","system_id":"levelo_inurba_marseille","lat":43.28951,"lon":5.36403,"is_reserved":false,"is_disabled":false,"rental_uris":{"android":"levelo://app?vid=3bf0d25b-2e05-4c9b-a06d-a66a86e3798c","ios":"levelo://app?vid=3bf0d25b-2e05-4c9b-a06d-a66a86e3798c"},"vehicle_type_id":"4","last_reported":1729379314,"current_range_meters":35600,"station_id":"ce4bhc92rcd13ifvqetg","pricing_plan_id":"cebpf4jnsgd1na2vs0mg"},{"bike_id":"55b3a8f5-19d1-4d08-bf99-ccf2c312bc04","system_id":"levelo_inurba_marseille","lat":43.23195,"lon":5.3556,"is_reserved":false,"is_disabled":false,"rental_uris":{"android":"levelo://app?vid=55b3a8f5-19d1-4d08-bf99-ccf2c312bc04","ios":"levelo://app?vid=55b3a8f5-19d1-4d08-bf99-ccf2c312bc04"},"vehicle_type_id":"4","last_reported":1729379314,"current_range_meters":38800,"station_id":"ce4bhu92rcd13ifvqi70","pricing_plan_id":"cebpf4jnsgd1na2vs0mg"},{"bike_id":"e54be7fc-57d4-44b9-a9be-d4857ea449b1","system_id":"levelo_inurba_marseille","lat":43.31483,"lon":5.37308,"is_reserved":false,"is_disabled":false,"rental_uris":{"android":"levelo://app?vid=e54be7fc-57d4-44b9-a9be-d4857ea449b1","ios":"levelo://app?vid=e54be7fc-57d4-44b9-a9be-d4857ea449b1"},"vehicle_type_id":"4","last_reported":1729379314,"current_range_meters":34800,"station_id":"ce4bgt12rcd13ifvqcd0","pricing_plan_id":"cebpf4jnsgd1na2vs0mg"},{"bike_id":"14c05e35-ac2d-4eaf-bbf8-df9c4897f4a9","system_id":"levelo_inurba_marseille","lat":43.28657,"lon":5.363596,"is_reserved":false,"is_disabled":false,"rental_uris":{"android":"levelo://app?vid=14c05e35-ac2d-4eaf-bbf8-df9c4897f4a9","ios":"levelo://app?vid=14c05e35-ac2d-4eaf-bbf8-df9c4897f4a9"},"vehicle_type_id":"4","last_reported":1729379314,"current_range_meters":11200,"station_id":"ce4bhah2rcd13ifvqej0","pricing_plan_id":"cebpf4jnsgd1na2vs0mg"},{"bike_id":"fe2c5efc-0fec-40ae-8c77-00fb773d9638","system_id":"levelo_inurba_marseille","lat":43.29188,"lon":5.39327,"is_reserved":false,"is_disabled":false,"rental_uris":{"android":"levelo://app?vid=fe2c5efc-0fec-40ae-8c77-00fb773d9638","ios":"levelo://app?vid=fe2c5efc-0fec-40ae-8c77-00fb773d9638"},"vehicle_type_id":"4","last_reported":1729379314,"current_range_meters":18800,"station_id":"ce4bh192rcd13ifvqdd0","pricing_plan_id":"cebpf4jnsgd1na2vs0mg"},{"bike_id":"f3e9e879-96cc-476e-a943-38718cd79160","system_id":"levelo_inurba_marseille","lat":43.31684,"lon":5.4047,"is_reserved":false,"is_disabled":false,"rental_uris":{"android":"levelo://app?vid=f3e9e879-96cc-476e-a943-38718cd79160","ios":"levelo://app?vid=f3e9e879-96cc-476e-a943-38718cd79160"},"vehicle_type_id":"4","last_reported":1729379314,"current_range_meters":30000,"station_id":"ce4bh012rcd13ifvqd00","pricing_plan_id":"cebpf4jnsgd1na2vs0mg"},{"bike_id":"43d24770-4ece-4a77-a029-fe46e9bde13b","system_id":"levelo_inurba_marseille","lat":43.31574,"lon":5.3742,"is_reserved":false,"is_disabled":false,"rental_uris":{"android":"levelo://app?vid=43d24770-4ece-4a77-a029-fe46e9bde13b","ios":"levelo://app?vid=43d24770-4ece-4a77-a029-fe46e9bde13b"},"vehicle_type_id":"4","last_reported":1729379314,"current_range_meters":38800,"station_id":"","pricing_plan_id":"cebpf4jnsgd1na2vs0mg"},{"bike_id":"5b31aef7-174e-4776-998d-d97cf2a1a56d","system_id":"levelo_inurba_marseille","lat":43.31484,"lon":5.37305,"is_reserved":false,"is_disabled":false,"rental_uris":{"android":"levelo://app?vid=5b31aef7-174e-4776-998d-d97cf2a1a56d","ios":"levelo://app?vid=5b31aef7-174e-4776-998d-d97cf2a1a56d"},"vehicle_type_id":"4","last_reported":1729379314,"current_range_meters":36000,"station_id":"ce4bgt12rcd13ifvqcd0","pricing_plan_id":"cebpf4jnsgd1na2vs0mg"},{"bike_id":"28db4370-84ab-40a1-ba5d-f49d506458f1","system_id":"levelo_inurba_marseille","lat":43.28457,"lon":5.35879,"is_reserved":false,"is_disabled":false,"rental_uris":{"android":"levelo://app?vid=28db4370-84ab-40a1-ba5d-f49d506458f1","ios":"levelo://app?vid=28db4370-84ab-40a1-ba5d-f49d506458f1"},"vehicle_type_id":"4","last_reported":1729379314,"current_range_meters":11600,"station_id":"ce4bhah2rcd13ifvqei0","pricing_plan_id":"cebpf4jnsgd1na2vs0mg"},{"bike_id":"0871349e-a3b4-4c65-bf99-bc08a579dccf","system_id":"levelo_inurba_marseille","lat":43.290338,"lon":5.399685,"is_reserved":false,"is_disabled":false,"rental_uris":{"android":"levelo://app?vid=0871349e-a3b4-4c65-bf99-bc08a579dccf","ios":"levelo://app?vid=0871349e-a3b4-4c65-bf99-bc08a579dccf"},"vehicle_type_id":"4","last_reported":1729379314,"current_range_meters":18000,"station_id":"ce4bgup2rcd13ifvqcn0","pricing_plan_id":"cebpf4jnsgd1na2vs0mg"},{"bike_id":"df0764bb-73ac-46d7-903f-a26945b45d7c","system_id":"levelo_inurba_marseille","lat":43.24622,"lon":5.41608,"is_reserved":false,"is_disabled":false,"rental_uris":{"android":"levelo://app?vid=df0764bb-73ac-46d7-903f-a26945b45d7c","ios":"levelo://app?vid=df0764bb-73ac-46d7-903f-a26945b45d7c"},"vehicle_type_id":"4","last_reported":1729379314,"current_range_meters":27200,"station_id":"","pricing_plan_id":"cebpf4jnsgd1na2vs0mg"},{"bike_id":"766da900-471d-42f5-8cfa-8db494f945d7","system_id":"levelo_inurba_marseille","lat":43.28915,"lon":5.46061,"is_reserved":false,"is_disabled":false,"rental_uris":{"android":"levelo://app?vid=766da900-471d-42f5-8cfa-8db494f945d7","ios":"levelo://app?vid=766da900-471d-42f5-8cfa-8db494f945d7"},"vehicle_type_id":"4","last_reported":1729379314,"current_range_meters":28000,"station_id":"","pricing_plan_id":"cebpf4jnsgd1na2vs0mg"},{"bike_id":"e700e4d8-85f6-44d8-80b4-4749efe0ea4f","system_id":"levelo_inurba_marseille","lat":43.29189,"lon":5.3933,"is_reserved":false,"is_disabled":false,"rental_uris":{"android":"levelo://app?vid=e700e4d8-85f6-44d8-80b4-4749efe0ea4f","ios":"levelo://app?vid=e700e4d8-85f6-44d8-80b4-4749efe0ea4f"},"vehicle_type_id":"4","last_reported":1729379314,"current_range_meters":12000,"station_id":"ce4bh192rcd13ifvqdd0","pricing_plan_id":"cebpf4jnsgd1na2vs0mg"},{"bike_id":"63c8fd3f-091c-45dc-bf9b-070bc2737344","system_id":"levelo_inurba_marseille","lat":43.31073,"lon":5.38353,"is_reserved":false,"is_disabled":false,"rental_uris":{"android":"levelo://app?vid=63c8fd3f-091c-45dc-bf9b-070bc2737344","ios":"levelo://app?vid=63c8fd3f-091c-45dc-bf9b-070bc2737344"},"vehicle_type_id":"4","last_reported":1729379314,"current_range_meters":32400,"station_id":"ce4bgv92rcd13ifvqcr0","pricing_plan_id":"cebpf4jnsgd1na2vs0mg"},{"bike_id":"e567248c-cc07-4ac3-93e3-3f51dcec5d60","system_id":"levelo_inurba_marseille","lat":43.28459,"lon":5.35886,"is_reserved":false,"is_disabled":false,"rental_uris":{"android":"levelo://app?vid=e567248c-cc07-4ac3-93e3-3f51dcec5d60","ios":"levelo://app?vid=e567248c-cc07-4ac3-93e3-3f51dcec5d60"},"vehicle_type_id":"4","last_reported":1729379314,"current_range_meters":26800,"station_id":"ce4bhah2rcd13ifvqei0","pricing_plan_id":"cebpf4jnsgd1na2vs0mg"},{"bike_id":"df278cc8-6577-499e-9d0f-45854b2e4492","system_id":"levelo_inurba_marseille","lat":43.26551,"lon":5.37293,"is_reserved":false,"is_disabled":false,"rental_uris":{"android":"levelo://app?vid=df278cc8-6577-499e-9d0f-45854b2e4492","ios":"levelo://app?vid=df278cc8-6577-499e-9d0f-45854b2e4492"},"vehicle_type_id":"4","last_reported":1729379314,"current_range_meters":38800,"station_id":"ce4bhg12rcd13ifvqf70","pricing_plan_id":"cebpf4jnsgd1na2vs0mg"},{"bike_id":"ab3708dc-2324-4d77-ac1a-38c928b735aa","system_id":"levelo_inurba_marseille","lat":43.28106,"lon":5.37841,"is_reserved":false,"is_disabled":false,"rental_uris":{"android":"levelo://app?vid=ab3708dc-2324-4d77-ac1a-38c928b735aa","ios":"levelo://app?vid=ab3708dc-2324-4d77-ac1a-38c928b735aa"},"vehicle_type_id":"4","last_reported":1729379314,"current_range_meters":31200,"station_id":"ce4bha12rcd13ifvqee0","pricing_plan_id":"cebpf4jnsgd1na2vs0mg"},{"bike_id":"707eb2f1-a40c-4580-8f44-11408cac020b","system_id":"levelo_inurba_marseille","lat":43.26804,"lon":5.40265,"is_reserved":false,"is_disabled":false,"rental_uris":{"android":"levelo://app?vid=707eb2f1-a40c-4580-8f44-11408cac020b","ios":"levelo://app?vid=707eb2f1-a40c-4580-8f44-11408cac020b"},"vehicle_type_id":"4","last_reported":1729379314,"current_range_meters":6800,"station_id":"ce501612rcd8frsf0b60","pricing_plan_id":"cebpf4jnsgd1na2vs0mg"},{"bike_id":"8400a97e-ed46-4d37-b5cf-926b69826c1f","system_id":"levelo_inurba_marseille","lat":43.28106,"lon":5.3784,"is_reserved":false,"is_disabled":false,"rental_uris":{"android":"levelo://app?vid=8400a97e-ed46-4d37-b5cf-926b69826c1f","ios":"levelo://app?vid=8400a97e-ed46-4d37-b5cf-926b69826c1f"},"vehicle_type_id":"4","last_reported":1729379314,"current_range_meters":19200,"station_id":"ce4bha12rcd13ifvqee0","pricing_plan_id":"cebpf4jnsgd1na2vs0mg"},{"bike_id":"fbe5e5b4-3e44-4487-a73e-284854502401","system_id":"levelo_inurba_marseille","lat":43.24068,"lon":5.37765,"is_reserved":false,"is_disabled":false,"rental_uris":{"android":"levelo://app?vid=fbe5e5b4-3e44-4487-a73e-284854502401","ios":"levelo://app?vid=fbe5e5b4-3e44-4487-a73e-284854502401"},"vehicle_type_id":"4","last_reported":1729379314,"current_range_meters":21600,"station_id":"ce4bhnp2rcd13ifvqgvg","pricing_plan_id":"cebpf4jnsgd1na2vs0mg"},{"bike_id":"38f10f2c-6c25-4c35-88e6-5eb9c416cd03","system_id":"levelo_inurba_marseille","lat":43.31322,"lon":5.39694,"is_reserved":false,"is_disabled":false,"rental_uris":{"android":"levelo://app?vid=38f10f2c-6c25-4c35-88e6-5eb9c416cd03","ios":"levelo://app?vid=38f10f2c-6c25-4c35-88e6-5eb9c416cd03"},"vehicle_type_id":"4","last_reported":1729379314,"current_range_meters":22000,"station_id":"ce4bgvp2rcd13ifvqcu0","pricing_plan_id":"cebpf4jnsgd1na2vs0mg"},{"bike_id":"05172b3b-0223-41db-b5bd-b978ecbff7d5","system_id":"levelo_inurba_marseille","lat":43.30414,"lon":5.4129,"is_reserved":false,"is_disabled":false,"rental_uris":{"android":"levelo://app?vid=05172b3b-0223-41db-b5bd-b978ecbff7d5","ios":"levelo://app?vid=05172b3b-0223-41db-b5bd-b978ecbff7d5"},"vehicle_type_id":"4","last_reported":1729379314,"current_range_meters":37600,"station_id":"ce4bhop2rcd13ifvqh8g","pricing_plan_id":"cebpf4jnsgd1na2vs0mg"},{"bike_id":"4158d4ef-7d68-469c-9874-e49eaf6f57e9","system_id":"levelo_inurba_marseille","lat":43.2925,"lon":5.4091,"is_reserved":false,"is_disabled":false,"rental_uris":{"android":"levelo://app?vid=4158d4ef-7d68-469c-9874-e49eaf6f57e9","ios":"levelo://app?vid=4158d4ef-7d68-469c-9874-e49eaf6f57e9"},"vehicle_type_id":"4","last_reported":1729379314,"current_range_meters":38800,"station_id":"ce4bh192rcd13ifvqdc0","pricing_plan_id":"cebpf4jnsgd1na2vs0mg"},{"bike_id":"7ba7fe72-9b2b-48bb-9215-8490999bf403","system_id":"levelo_inurba_marseille","lat":43.28848,"lon":5.35863,"is_reserved":false,"is_disabled":false,"rental_uris":{"android":"levelo://app?vid=7ba7fe72-9b2b-48bb-9215-8490999bf403","ios":"levelo://app?vid=7ba7fe72-9b2b-48bb-9215-8490999bf403"},"vehicle_type_id":"4","last_reported":1729379314,"current_range_meters":16400,"station_id":"ce4bhb12rcd13ifvqem0","pricing_plan_id":"cebpf4jnsgd1na2vs0mg"},{"bike_id":"389da3f7-b923-45b7-9301-d2cb6aa94240","system_id":"levelo_inurba_marseille","lat":43.30958,"lon":5.39038,"is_reserved":false,"is_disabled":false,"rental_uris":{"android":"levelo://app?vid=389da3f7-b923-45b7-9301-d2cb6aa94240","ios":"levelo://app?vid=389da3f7-b923-45b7-9301-d2cb6aa94240"},"vehicle_type_id":"4","last_reported":1729379314,"current_range_meters":24000,"station_id":"ce4bgup2rcd13ifvqco0","pricing_plan_id":"cebpf4jnsgd1na2vs0mg"},{"bike_id":"b9cb22c7-965c-4a00-b135-6db2b2768363","system_id":"levelo_inurba_marseille","lat":43.29188,"lon":5.39317,"is_reserved":false,"is_disabled":false,"rental_uris":{"android":"levelo://app?vid=b9cb22c7-965c-4a00-b135-6db2b2768363","ios":"levelo://app?vid=b9cb22c7-965c-4a00-b135-6db2b2768363"},"vehicle_type_id":"4","last_reported":1729379314,"current_range_meters":21600,"station_id":"ce4bh192rcd13ifvqdd0","pricing_plan_id":"cebpf4jnsgd1na2vs0mg"},{"bike_id":"b4cd2f85-210a-4662-9bfe-e600ca5e770b","system_id":"levelo_inurba_marseille","lat":43.262491,"lon":5.374788,"is_reserved":false,"is_disabled":false,"rental_uris":{"android":"levelo://app?vid=b4cd2f85-210a-4662-9bfe-e600ca5e770b","ios":"levelo://app?vid=b4cd2f85-210a-4662-9bfe-e600ca5e770b"},"vehicle_type_id":"4","last_reported":1729379314,"current_range_meters":38800,"station_id":"","pricing_plan_id":"cebpf4jnsgd1na2vs0mg"},{"bike_id":"45681064-33b7-4679-908f-2d6aafb4b557","system_id":"levelo_inurba_marseille","lat":43.28354,"lon":5.38101,"is_reserved":false,"is_disabled":false,"rental_uris":{"android":"levelo://app?vid=45681064-33b7-4679-908f-2d6aafb4b557","ios":"levelo://app?vid=45681064-33b7-4679-908f-2d6aafb4b557"},"vehicle_type_id":"4","last_reported":1729379314,"current_range_meters":4000,"station_id":"ce4bh412rcd13ifvqdr0","pricing_plan_id":"cebpf4jnsgd1na2vs0mg"},{"bike_id":"2910eaad-da2f-4396-abed-6a24ceae014b","system_id":"levelo_inurba_marseille","lat":43.30402,"lon":5.37316,"is_reserved":false,"is_disabled":false,"rental_uris":{"android":"levelo://app?vid=2910eaad-da2f-4396-abed-6a24ceae014b","ios":"levelo://app?vid=2910eaad-da2f-4396-abed-6a24ceae014b"},"vehicle_type_id":"4","last_reported":1729379314,"current_range_meters":19600,"station_id":"","pricing_plan_id":"cebpf4jnsgd1na2vs0mg"},{"bike_id":"0326ee85-d660-4331-a018-7d6617a93caf","system_id":"levelo_inurba_marseille","lat":43.30644,"lon":5.40108,"is_reserved":false,"is_disabled":false,"rental_uris":{"android":"levelo://app?vid=0326ee85-d660-4331-a018-7d6617a93caf","ios":"levelo://app?vid=0326ee85-d660-4331-a018-7d6617a93caf"},"vehicle_type_id":"4","last_reported":1729379314,"current_range_meters":39200,"station_id":"ce4bh112rcd13ifvqda0","pricing_plan_id":"cebpf4jnsgd1na2vs0mg"},{"bike_id":"dd1d57da-ac31-4466-ab54-f12f1ad20cf1","system_id":"levelo_inurba_marseille","lat":43.29554,"lon":5.42284,"is_reserved":false,"is_disabled":false,"rental_uris":{"android":"levelo://app?vid=dd1d57da-ac31-4466-ab54-f12f1ad20cf1","ios":"levelo://app?vid=dd1d57da-ac31-4466-ab54-f12f1ad20cf1"},"vehicle_type_id":"4","last_reported":1729379314,"current_range_meters":13600,"station_id":"ce4bhph2rcd13ifvqhdg","pricing_plan_id":"cebpf4jnsgd1na2vs0mg"},{"bike_id":"6e706dcb-6e41-41b6-a172-73765c66fdaa","system_id":"levelo_inurba_marseille","lat":43.26239,"lon":5.37591,"is_reserved":false,"is_disabled":false,"rental_uris":{"android":"levelo://app?vid=6e706dcb-6e41-41b6-a172-73765c66fdaa","ios":"levelo://app?vid=6e706dcb-6e41-41b6-a172-73765c66fdaa"},"vehicle_type_id":"4","last_reported":1729379314,"current_range_meters":36800,"station_id":"ce4bhhp2rcd13ifvqfm0","pricing_plan_id":"cebpf4jnsgd1na2vs0mg"},{"bike_id":"629da7e1-035d-4b26-a568-be2d2079b05d","system_id":"levelo_inurba_marseille","lat":43.26024,"lon":5.37551,"is_reserved":false,"is_disabled":false,"rental_uris":{"android":"levelo://app?vid=629da7e1-035d-4b26-a568-be2d2079b05d","ios":"levelo://app?vid=629da7e1-035d-4b26-a568-be2d2079b05d"},"vehicle_type_id":"4","last_reported":1729379314,"current_range_meters":38800,"station_id":"ce4bhgh2rcd13ifvqfa0","pricing_plan_id":"cebpf4jnsgd1na2vs0mg"},{"bike_id":"522bb5dc-efc4-45ac-a026-aafe838b2839","system_id":"levelo_inurba_marseille","lat":43.29796,"lon":5.37094,"is_reserved":false,"is_disabled":false,"rental_uris":{"android":"levelo://app?vid=522bb5dc-efc4-45ac-a026-aafe838b2839","ios":"levelo://app?vid=522bb5dc-efc4-45ac-a026-aafe838b2839"},"vehicle_type_id":"4","last_reported":1729379314,"current_range_meters":38800,"station_id":"ce4bgop2rcd13ifvqc1g","pricing_plan_id":"cebpf4jnsgd1na2vs0mg"},{"bike_id":"1d0123a6-a46a-4f0d-aa90-d1ca1d1a44c9","system_id":"levelo_inurba_marseille","lat":43.31328,"lon":5.39699,"is_reserved":false,"is_disabled":false,"rental_uris":{"android":"levelo://app?vid=1d0123a6-a46a-4f0d-aa90-d1ca1d1a44c9","ios":"levelo://app?vid=1d0123a6-a46a-4f0d-aa90-d1ca1d1a44c9"},"vehicle_type_id":"4","last_reported":1729379314,"current_range_meters":38800,"station_id":"ce4bgvp2rcd13ifvqcu0","pricing_plan_id":"cebpf4jnsgd1na2vs0mg"},{"bike_id":"d20c7772-6069-4e2f-ba39-8859dbd770a5","system_id":"levelo_inurba_marseille","lat":43.311,"lon":5.37788,"is_reserved":false,"is_disabled":false,"rental_uris":{"android":"levelo://app?vid=d20c7772-6069-4e2f-ba39-8859dbd770a5","ios":"levelo://app?vid=d20c7772-6069-4e2f-ba39-8859dbd770a5"},"vehicle_type_id":"4","last_reported":1729379314,"current_range_meters":19200,"station_id":"ce4bgt92rcd13ifvqcg0","pricing_plan_id":"cebpf4jnsgd1na2vs0mg"},{"bike_id":"7ebb0999-b842-42c3-8bf6-b9590dc64824","system_id":"levelo_inurba_marseille","lat":43.32661,"lon":5.4099,"is_reserved":false,"is_disabled":false,"rental_uris":{"android":"levelo://app?vid=7ebb0999-b842-42c3-8bf6-b9590dc64824","ios":"levelo://app?vid=7ebb0999-b842-42c3-8bf6-b9590dc64824"},"vehicle_type_id":"4","last_reported":1729379314,"current_range_meters":38400,"station_id":"ce4bhpp2rcd13ifvqhgg","pricing_plan_id":"cebpf4jnsgd1na2vs0mg"},{"bike_id":"7772d39f-5e28-445c-af91-069b0cf63793","system_id":"levelo_inurba_marseille","lat":43.33765,"lon":5.37438,"is_reserved":false,"is_disabled":false,"rental_uris":{"android":"levelo://app?vid=7772d39f-5e28-445c-af91-069b0cf63793","ios":"levelo://app?vid=7772d39f-5e28-445c-af91-069b0cf63793"},"vehicle_type_id":"4","last_reported":1729379314,"current_range_meters":6800,"station_id":"","pricing_plan_id":"cebpf4jnsgd1na2vs0mg"},{"bike_id":"733eb2c5-00ab-4d49-8038-dfb888b12557","system_id":"levelo_inurba_marseille","lat":43.31993,"lon":5.38144,"is_reserved":false,"is_disabled":false,"rental_uris":{"android":"levelo://app?vid=733eb2c5-00ab-4d49-8038-dfb888b12557","ios":"levelo://app?vid=733eb2c5-00ab-4d49-8038-dfb888b12557"},"vehicle_type_id":"4","last_reported":1729379314,"current_range_meters":36400,"station_id":"ce4bhr12rcd13ifvqhpg","pricing_plan_id":"cebpf4jnsgd1na2vs0mg"},{"bike_id":"3213665e-989c-4d22-9f5a-31c8522597dd","system_id":"levelo_inurba_marseille","lat":43.296,"lon":5.36142,"is_reserved":false,"is_disabled":false,"rental_uris":{"android":"levelo://app?vid=3213665e-989c-4d22-9f5a-31c8522597dd","ios":"levelo://app?vid=3213665e-989c-4d22-9f5a-31c8522597dd"},"vehicle_type_id":"4","last_reported":1729379314,"current_range_meters":17600,"station_id":"","pricing_plan_id":"cebpf4jnsgd1na2vs0mg"},{"bike_id":"09a1c59c-9906-4c94-966e-411f5a9bb215","system_id":"levelo_inurba_marseille","lat":43.27947,"lon":5.41046,"is_reserved":false,"is_disabled":false,"rental_uris":{"android":"levelo://app?vid=09a1c59c-9906-4c94-966e-411f5a9bb215","ios":"levelo://app?vid=09a1c59c-9906-4c94-966e-411f5a9bb215"},"vehicle_type_id":"4","last_reported":1729379314,"current_range_meters":8000,"station_id":"ce4bhnp2rcd13ifvqh0g","pricing_plan_id":"cebpf4jnsgd1na2vs0mg"},{"bike_id":"3f3c663d-a6fd-4091-8533-6c09ca965902","system_id":"levelo_inurba_marseille","lat":43.3119,"lon":5.37715,"is_reserved":false,"is_disabled":false,"rental_uris":{"android":"levelo://app?vid=3f3c663d-a6fd-4091-8533-6c09ca965902","ios":"levelo://app?vid=3f3c663d-a6fd-4091-8533-6c09ca965902"},"vehicle_type_id":"4","last_reported":1729379314,"current_range_meters":17600,"station_id":"","pricing_plan_id":"cebpf4jnsgd1na2vs0mg"},{"bike_id":"275e8b97-c257-4f5b-9606-c19c9133569b","system_id":"levelo_inurba_marseille","lat":43.29487,"lon":5.36341,"is_reserved":false,"is_disabled":false,"rental_uris":{"android":"levelo://app?vid=275e8b97-c257-4f5b-9606-c19c9133569b","ios":"levelo://app?vid=275e8b97-c257-4f5b-9606-c19c9133569b"},"vehicle_type_id":"4","last_reported":1729379314,"current_range_meters":14000,"station_id":"","pricing_plan_id":"cebpf4jnsgd1na2vs0mg"},{"bike_id":"9a2117f0-c5b0-4dc2-891b-026a24af23f1","system_id":"levelo_inurba_marseille","lat":43.3105,"lon":5.40092,"is_reserved":false,"is_disabled":false,"rental_uris":{"android":"levelo://app?vid=9a2117f0-c5b0-4dc2-891b-026a24af23f1","ios":"levelo://app?vid=9a2117f0-c5b0-4dc2-891b-026a24af23f1"},"vehicle_type_id":"4","last_reported":1729379314,"current_range_meters":36000,"station_id":"","pricing_plan_id":"cebpf4jnsgd1na2vs0mg"},{"bike_id":"eb63ba09-6f9d-4cf6-88df-f95385f23699","system_id":"levelo_inurba_marseille","lat":43.2582,"lon":5.3943,"is_reserved":false,"is_disabled":false,"rental_uris":{"android":"levelo://app?vid=eb63ba09-6f9d-4cf6-88df-f95385f23699","ios":"levelo://app?vid=eb63ba09-6f9d-4cf6-88df-f95385f23699"},"vehicle_type_id":"4","last_reported":1729379314,"current_range_meters":40000,"station_id":"ce4bhip2rcd13ifvqft0","pricing_plan_id":"cebpf4jnsgd1na2vs0mg"},{"bike_id":"5dd719ab-a213-4094-b2e1-609f6924f39b","system_id":"levelo_inurba_marseille","lat":43.31989,"lon":5.38162,"is_reserved":false,"is_disabled":false,"rental_uris":{"android":"levelo://app?vid=5dd719ab-a213-4094-b2e1-609f6924f39b","ios":"levelo://app?vid=5dd719ab-a213-4094-b2e1-609f6924f39b"},"vehicle_type_id":"4","last_reported":1729379314,"current_range_meters":38000,"station_id":"ce4bhr12rcd13ifvqhpg","pricing_plan_id":"cebpf4jnsgd1na2vs0mg"},{"bike_id":"f4bde746-3240-47bc-8d14-f635972f9957","system_id":"levelo_inurba_marseille","lat":43.29706,"lon":5.37698,"is_reserved":false,"is_disabled":false,"rental_uris":{"android":"levelo://app?vid=f4bde746-3240-47bc-8d14-f635972f9957","ios":"levelo://app?vid=f4bde746-3240-47bc-8d14-f635972f9957"},"vehicle_type_id":"4","last_reported":1729379314,"current_range_meters":24800,"station_id":"ce4bgkh2rcd13ifvqbl0","pricing_plan_id":"cebpf4jnsgd1na2vs0mg"},{"bike_id":"32ff2e1c-64bb-4140-95a4-ec9bf3a327bc","system_id":"levelo_inurba_marseille","lat":43.31493,"lon":5.373,"is_reserved":false,"is_disabled":false,"rental_uris":{"android":"levelo://app?vid=32ff2e1c-64bb-4140-95a4-ec9bf3a327bc","ios":"levelo://app?vid=32ff2e1c-64bb-4140-95a4-ec9bf3a327bc"},"vehicle_type_id":"4","last_reported":1729379314,"current_range_meters":36400,"station_id":"ce4bgt12rcd13ifvqcd0","pricing_plan_id":"cebpf4jnsgd1na2vs0mg"},{"bike_id":"3a553d37-94eb-4024-abd0-f1450ee14b60","system_id":"levelo_inurba_marseille","lat":43.31524,"lon":5.38039,"is_reserved":false,"is_disabled":false,"rental_uris":{"android":"levelo://app?vid=3a553d37-94eb-4024-abd0-f1450ee14b60","ios":"levelo://app?vid=3a553d37-94eb-4024-abd0-f1450ee14b60"},"vehicle_type_id":"4","last_reported":1729379314,"current_range_meters":25600,"station_id":"ce4bhsp2rcd13ifvqi50","pricing_plan_id":"cebpf4jnsgd1na2vs0mg"},{"bike_id":"0d6f3071-7fa8-4c47-8404-1323c3c58d3f","system_id":"levelo_inurba_marseille","lat":43.2906,"lon":5.3592,"is_reserved":false,"is_disabled":false,"rental_uris":{"android":"levelo://app?vid=0d6f3071-7fa8-4c47-8404-1323c3c58d3f","ios":"levelo://app?vid=0d6f3071-7fa8-4c47-8404-1323c3c58d3f"},"vehicle_type_id":"4","last_reported":1729379314,"current_range_meters":16000,"station_id":"ce4bha92rcd13ifvqeg0","pricing_plan_id":"cebpf4jnsgd1na2vs0mg"},{"bike_id":"1e298d0f-e35e-4977-91f9-5e7fd5729556","system_id":"levelo_inurba_marseille","lat":43.291016,"lon":5.381916,"is_reserved":false,"is_disabled":false,"rental_uris":{"android":"levelo://app?vid=1e298d0f-e35e-4977-91f9-5e7fd5729556","ios":"levelo://app?vid=1e298d0f-e35e-4977-91f9-5e7fd5729556"},"vehicle_type_id":"4","last_reported":1729379314,"current_range_meters":4000,"station_id":"ce4bh512rcd13ifvqe2g","pricing_plan_id":"cebpf4jnsgd1na2vs0mg"},{"bike_id":"00e7f300-5489-4a7b-806b-f9a497338933","system_id":"levelo_inurba_marseille","lat":43.23152,"lon":5.43706,"is_reserved":false,"is_disabled":false,"rental_uris":{"android":"levelo://app?vid=00e7f300-5489-4a7b-806b-f9a497338933","ios":"levelo://app?vid=00e7f300-5489-4a7b-806b-f9a497338933"},"vehicle_type_id":"4","last_reported":1729379314,"current_range_meters":8800,"station_id":"ce4bhmp2rcd13ifvqgog","pricing_plan_id":"cebpf4jnsgd1na2vs0mg"},{"bike_id":"43fd1a88-ca05-49c1-ad67-a5c2bae699ad","system_id":"levelo_inurba_marseille","lat":43.2848,"lon":5.3854,"is_reserved":false,"is_disabled":false,"rental_uris":{"android":"levelo://app?vid=43fd1a88-ca05-49c1-ad67-a5c2bae699ad","ios":"levelo://app?vid=43fd1a88-ca05-49c1-ad67-a5c2bae699ad"},"vehicle_type_id":"4","last_reported":1729379314,"current_range_meters":37600,"station_id":"ce4bh8p2rcd13ifvqeb0","pricing_plan_id":"cebpf4jnsgd1na2vs0mg"},{"bike_id":"6b95e607-5252-40d1-9c48-bec0d67493f0","system_id":"levelo_inurba_marseille","lat":43.29796,"lon":5.40393,"is_reserved":false,"is_disabled":false,"rental_uris":{"android":"levelo://app?vid=6b95e607-5252-40d1-9c48-bec0d67493f0","ios":"levelo://app?vid=6b95e607-5252-40d1-9c48-bec0d67493f0"},"vehicle_type_id":"4","last_reported":1729379314,"current_range_meters":37600,"station_id":"ce4bh112rcd13ifvqd90","pricing_plan_id":"cebpf4jnsgd1na2vs0mg"},{"bike_id":"87c17c36-36dd-4e03-bf69-43b54f6bf481","system_id":"levelo_inurba_marseille","lat":43.29282,"lon":5.40113,"is_reserved":false,"is_disabled":false,"rental_uris":{"android":"levelo://app?vid=87c17c36-36dd-4e03-bf69-43b54f6bf481","ios":"levelo://app?vid=87c17c36-36dd-4e03-bf69-43b54f6bf481"},"vehicle_type_id":"4","last_reported":1729379314,"current_range_meters":15200,"station_id":"ce4bh312rcd13ifvqdk0","pricing_plan_id":"cebpf4jnsgd1na2vs0mg"},{"bike_id":"0da98eb7-4233-4cb4-a41e-d8683616aed0","system_id":"levelo_inurba_marseille","lat":43.31487,"lon":5.37306,"is_reserved":false,"is_disabled":false,"rental_uris":{"android":"levelo://app?vid=0da98eb7-4233-4cb4-a41e-d8683616aed0","ios":"levelo://app?vid=0da98eb7-4233-4cb4-a41e-d8683616aed0"},"vehicle_type_id":"4","last_reported":1729379314,"current_range_meters":38400,"station_id":"ce4bgt12rcd13ifvqcd0","pricing_plan_id":"cebpf4jnsgd1na2vs0mg"},{"bike_id":"5f181de5-971b-4e62-8fe1-4fbba3f53f7e","system_id":"levelo_inurba_marseille","lat":43.3132,"lon":5.39702,"is_reserved":false,"is_disabled":false,"rental_uris":{"android":"levelo://app?vid=5f181de5-971b-4e62-8fe1-4fbba3f53f7e","ios":"levelo://app?vid=5f181de5-971b-4e62-8fe1-4fbba3f53f7e"},"vehicle_type_id":"4","last_reported":1729379314,"current_range_meters":27600,"station_id":"ce4bgvp2rcd13ifvqcu0","pricing_plan_id":"cebpf4jnsgd1na2vs0mg"},{"bike_id":"5eb30353-b53f-46ea-96f6-0781af3d4716","system_id":"levelo_inurba_marseille","lat":43.29934,"lon":5.36529,"is_reserved":false,"is_disabled":false,"rental_uris":{"android":"levelo://app?vid=5eb30353-b53f-46ea-96f6-0781af3d4716","ios":"levelo://app?vid=5eb30353-b53f-46ea-96f6-0781af3d4716"},"vehicle_type_id":"4","last_reported":1729379314,"current_range_meters":6800,"station_id":"ce4bgm92rcd13ifvqbr0","pricing_plan_id":"cebpf4jnsgd1na2vs0mg"},{"bike_id":"88a6c16e-2cb9-4142-9434-e66382622780","system_id":"levelo_inurba_marseille","lat":43.323334,"lon":5.406237,"is_reserved":false,"is_disabled":false,"rental_uris":{"android":"levelo://app?vid=88a6c16e-2cb9-4142-9434-e66382622780","ios":"levelo://app?vid=88a6c16e-2cb9-4142-9434-e66382622780"},"vehicle_type_id":"4","last_reported":1729379314,"current_range_meters":36400,"station_id":"ce4bhq92rcd13ifvqhjg","pricing_plan_id":"cebpf4jnsgd1na2vs0mg"},{"bike_id":"458ea35d-002e-408e-9aa8-4958d0742e29","system_id":"levelo_inurba_marseille","lat":43.323105,"lon":5.389746,"is_reserved":false,"is_disabled":false,"rental_uris":{"android":"levelo://app?vid=458ea35d-002e-408e-9aa8-4958d0742e29","ios":"levelo://app?vid=458ea35d-002e-408e-9aa8-4958d0742e29"},"vehicle_type_id":"4","last_reported":1729379314,"current_range_meters":12400,"station_id":"ce4bhqp2rcd13ifvqhog","pricing_plan_id":"cebpf4jnsgd1na2vs0mg"},{"bike_id":"aeebd1e1-68e2-4287-a9db-4bed60198458","system_id":"levelo_inurba_marseille","lat":43.33611,"lon":5.41031,"is_reserved":false,"is_disabled":false,"rental_uris":{"android":"levelo://app?vid=aeebd1e1-68e2-4287-a9db-4bed60198458","ios":"levelo://app?vid=aeebd1e1-68e2-4287-a9db-4bed60198458"},"vehicle_type_id":"4","last_reported":1729379314,"current_range_meters":38000,"station_id":"ce4bhqh2rcd13ifvqhmg","pricing_plan_id":"cebpf4jnsgd1na2vs0mg"},{"bike_id":"a50da574-03c5-475b-b6c5-e3885a5b2ef0","system_id":"levelo_inurba_marseille","lat":43.28152,"lon":5.42635,"is_reserved":false,"is_disabled":false,"rental_uris":{"android":"levelo://app?vid=a50da574-03c5-475b-b6c5-e3885a5b2ef0","ios":"levelo://app?vid=a50da574-03c5-475b-b6c5-e3885a5b2ef0"},"vehicle_type_id":"4","last_reported":1729379314,"current_range_meters":20800,"station_id":"ce4bhnh2rcd13ifvqgug","pricing_plan_id":"cebpf4jnsgd1na2vs0mg"},{"bike_id":"fac9a3a2-2dd0-4efd-afd6-73cc4f4edd9a","system_id":"levelo_inurba_marseille","lat":43.24809,"lon":5.37459,"is_reserved":false,"is_disabled":false,"rental_uris":{"android":"levelo://app?vid=fac9a3a2-2dd0-4efd-afd6-73cc4f4edd9a","ios":"levelo://app?vid=fac9a3a2-2dd0-4efd-afd6-73cc4f4edd9a"},"vehicle_type_id":"4","last_reported":1729379314,"current_range_meters":38800,"station_id":"ce4bhgh2rcd13ifvqfb0","pricing_plan_id":"cebpf4jnsgd1na2vs0mg"},{"bike_id":"27310066-bc6a-434e-8ba9-4d0342749511","system_id":"levelo_inurba_marseille","lat":43.31482,"lon":5.37306,"is_reserved":false,"is_disabled":false,"rental_uris":{"android":"levelo://app?vid=27310066-bc6a-434e-8ba9-4d0342749511","ios":"levelo://app?vid=27310066-bc6a-434e-8ba9-4d0342749511"},"vehicle_type_id":"4","last_reported":1729379314,"current_range_meters":20000,"station_id":"ce4bgt12rcd13ifvqcd0","pricing_plan_id":"cebpf4jnsgd1na2vs0mg"},{"bike_id":"19e4811a-8302-4136-8b2a-ecc20605bd06","system_id":"levelo_inurba_marseille","lat":43.29303,"lon":5.37453,"is_reserved":false,"is_disabled":false,"rental_uris":{"android":"levelo://app?vid=19e4811a-8302-4136-8b2a-ecc20605bd06","ios":"levelo://app?vid=19e4811a-8302-4136-8b2a-ecc20605bd06"},"vehicle_type_id":"4","last_reported":1729379314,"current_range_meters":30400,"station_id":"ce4bgi12rcd13ifvqb70","pricing_plan_id":"cebpf4jnsgd1na2vs0mg"},{"bike_id":"f33c6edc-b52c-4f56-a65e-a8f24fdf39db","system_id":"levelo_inurba_marseille","lat":43.30172,"lon":5.36617,"is_reserved":false,"is_disabled":false,"rental_uris":{"android":"levelo://app?vid=f33c6edc-b52c-4f56-a65e-a8f24fdf39db","ios":"levelo://app?vid=f33c6edc-b52c-4f56-a65e-a8f24fdf39db"},"vehicle_type_id":"4","last_reported":1729379314,"current_range_meters":36800,"station_id":"ce4bgrh2rcd13ifvqc8g","pricing_plan_id":"cebpf4jnsgd1na2vs0mg"},{"bike_id":"65bdf8a7-581b-4618-bccb-c8132147d71a","system_id":"levelo_inurba_marseille","lat":43.27549,"lon":5.36032,"is_reserved":false,"is_disabled":false,"rental_uris":{"android":"levelo://app?vid=65bdf8a7-581b-4618-bccb-c8132147d71a","ios":"levelo://app?vid=65bdf8a7-581b-4618-bccb-c8132147d71a"},"vehicle_type_id":"4","last_reported":1729379314,"current_range_meters":16400,"station_id":"","pricing_plan_id":"cebpf4jnsgd1na2vs0mg"},{"bike_id":"b874fbcb-c392-4da1-88bb-247a3d1cbfd3","system_id":"levelo_inurba_marseille","lat":43.26189,"lon":5.37454,"is_reserved":false,"is_disabled":false,"rental_uris":{"android":"levelo://app?vid=b874fbcb-c392-4da1-88bb-247a3d1cbfd3","ios":"levelo://app?vid=b874fbcb-c392-4da1-88bb-247a3d1cbfd3"},"vehicle_type_id":"4","last_reported":1729379314,"current_range_meters":38800,"station_id":"ce4bhgp2rcd13ifvqfc0","pricing_plan_id":"cebpf4jnsgd1na2vs0mg"},{"bike_id":"975a1620-0a6d-4c4e-a1d9-1cac007aef6d","system_id":"levelo_inurba_marseille","lat":43.23146,"lon":5.43724,"is_reserved":false,"is_disabled":false,"rental_uris":{"android":"levelo://app?vid=975a1620-0a6d-4c4e-a1d9-1cac007aef6d","ios":"levelo://app?vid=975a1620-0a6d-4c4e-a1d9-1cac007aef6d"},"vehicle_type_id":"4","last_reported":1729379314,"current_range_meters":38800,"station_id":"ce4bhmp2rcd13ifvqgog","pricing_plan_id":"cebpf4jnsgd1na2vs0mg"},{"bike_id":"528fef3b-bb8b-42d1-985d-ca1adbc390f0","system_id":"levelo_inurba_marseille","lat":43.24389,"lon":5.37059,"is_reserved":false,"is_disabled":false,"rental_uris":{"android":"levelo://app?vid=528fef3b-bb8b-42d1-985d-ca1adbc390f0","ios":"levelo://app?vid=528fef3b-bb8b-42d1-985d-ca1adbc390f0"},"vehicle_type_id":"4","last_reported":1729379314,"current_range_meters":14000,"station_id":"ce4bhhh2rcd13ifvqfk0","pricing_plan_id":"cebpf4jnsgd1na2vs0mg"},{"bike_id":"9fbaf6d7-d66f-469e-ad7b-e24f4ad62bf2","system_id":"levelo_inurba_marseille","lat":43.31109,"lon":5.37779,"is_reserved":false,"is_disabled":false,"rental_uris":{"android":"levelo://app?vid=9fbaf6d7-d66f-469e-ad7b-e24f4ad62bf2","ios":"levelo://app?vid=9fbaf6d7-d66f-469e-ad7b-e24f4ad62bf2"},"vehicle_type_id":"4","last_reported":1729379314,"current_range_meters":38800,"station_id":"ce4bgt92rcd13ifvqcg0","pricing_plan_id":"cebpf4jnsgd1na2vs0mg"},{"bike_id":"ceb1603d-2c49-4a2f-971f-80e7a3348d6a","system_id":"levelo_inurba_marseille","lat":43.33027,"lon":5.39045,"is_reserved":false,"is_disabled":false,"rental_uris":{"android":"levelo://app?vid=ceb1603d-2c49-4a2f-971f-80e7a3348d6a","ios":"levelo://app?vid=ceb1603d-2c49-4a2f-971f-80e7a3348d6a"},"vehicle_type_id":"4","last_reported":1729379314,"current_range_meters":38000,"station_id":"ce4bhr92rcd13ifvqhrg","pricing_plan_id":"cebpf4jnsgd1na2vs0mg"},{"bike_id":"90caed9f-a90e-4628-acdc-9eb6257b7409","system_id":"levelo_inurba_marseille","lat":43.28449,"lon":5.39181,"is_reserved":false,"is_disabled":false,"rental_uris":{"android":"levelo://app?vid=90caed9f-a90e-4628-acdc-9eb6257b7409","ios":"levelo://app?vid=90caed9f-a90e-4628-acdc-9eb6257b7409"},"vehicle_type_id":"4","last_reported":1729379314,"current_range_meters":38800,"station_id":"ce4bhoh2rcd13ifvqh5g","pricing_plan_id":"cebpf4jnsgd1na2vs0mg"},{"bike_id":"9844e503-d4bc-48f3-9db5-980e55dc4bec","system_id":"levelo_inurba_marseille","lat":43.28457,"lon":5.35889,"is_reserved":false,"is_disabled":false,"rental_uris":{"android":"levelo://app?vid=9844e503-d4bc-48f3-9db5-980e55dc4bec","ios":"levelo://app?vid=9844e503-d4bc-48f3-9db5-980e55dc4bec"},"vehicle_type_id":"4","last_reported":1729379314,"current_range_meters":30800,"station_id":"ce4bhah2rcd13ifvqei0","pricing_plan_id":"cebpf4jnsgd1na2vs0mg"},{"bike_id":"8f3e897c-091e-428e-92e2-05d32fbfe4e7","system_id":"levelo_inurba_marseille","lat":43.30587,"lon":5.39347,"is_reserved":false,"is_disabled":false,"rental_uris":{"android":"levelo://app?vid=8f3e897c-091e-428e-92e2-05d32fbfe4e7","ios":"levelo://app?vid=8f3e897c-091e-428e-92e2-05d32fbfe4e7"},"vehicle_type_id":"4","last_reported":1729379314,"current_range_meters":39200,"station_id":"ce4bh0p2rcd13ifvqd80","pricing_plan_id":"cebpf4jnsgd1na2vs0mg"},{"bike_id":"31890e40-d0c7-4430-ba5c-2a25b52af441","system_id":"levelo_inurba_marseille","lat":43.30539,"lon":5.38432,"is_reserved":false,"is_disabled":false,"rental_uris":{"android":"levelo://app?vid=31890e40-d0c7-4430-ba5c-2a25b52af441","ios":"levelo://app?vid=31890e40-d0c7-4430-ba5c-2a25b52af441"},"vehicle_type_id":"4","last_reported":1729379314,"current_range_meters":36800,"station_id":"ce4bgg92rcd13ifvqb30","pricing_plan_id":"cebpf4jnsgd1na2vs0mg"},{"bike_id":"4cf3e5d8-4f9a-4007-b965-622ecd99339e","system_id":"levelo_inurba_marseille","lat":43.31074,"lon":5.40085,"is_reserved":false,"is_disabled":false,"rental_uris":{"android":"levelo://app?vid=4cf3e5d8-4f9a-4007-b965-622ecd99339e","ios":"levelo://app?vid=4cf3e5d8-4f9a-4007-b965-622ecd99339e"},"vehicle_type_id":"4","last_reported":1729379314,"current_range_meters":9600,"station_id":"","pricing_plan_id":"cebpf4jnsgd1na2vs0mg"},{"bike_id":"c34e2acb-3afe-4aa1-8cdb-c481d100b683","system_id":"levelo_inurba_marseille","lat":43.32479,"lon":5.36572,"is_reserved":false,"is_disabled":false,"rental_uris":{"android":"levelo://app?vid=c34e2acb-3afe-4aa1-8cdb-c481d100b683","ios":"levelo://app?vid=c34e2acb-3afe-4aa1-8cdb-c481d100b683"},"vehicle_type_id":"4","last_reported":1729379314,"current_range_meters":23200,"station_id":"ce4bhs12rcd13ifvqhvg","pricing_plan_id":"cebpf4jnsgd1na2vs0mg"},{"bike_id":"19e0c7ba-a3f7-43e2-aca8-366f22e4e87d","system_id":"levelo_inurba_marseille","lat":43.33719,"lon":5.39184,"is_reserved":false,"is_disabled":false,"rental_uris":{"android":"levelo://app?vid=19e0c7ba-a3f7-43e2-aca8-366f22e4e87d","ios":"levelo://app?vid=19e0c7ba-a3f7-43e2-aca8-366f22e4e87d"},"vehicle_type_id":"4","last_reported":1729379314,"current_range_meters":39200,"station_id":"ce4bhr92rcd13ifvqhsg","pricing_plan_id":"cebpf4jnsgd1na2vs0mg"},{"bike_id":"e5bee9a2-d951-49f9-bc3e-8da64d00955b","system_id":"levelo_inurba_marseille","lat":43.2919,"lon":5.39324,"is_reserved":false,"is_disabled":false,"rental_uris":{"android":"levelo://app?vid=e5bee9a2-d951-49f9-bc3e-8da64d00955b","ios":"levelo://app?vid=e5bee9a2-d951-49f9-bc3e-8da64d00955b"},"vehicle_type_id":"4","last_reported":1729379314,"current_range_meters":38800,"station_id":"ce4bh192rcd13ifvqdd0","pricing_plan_id":"cebpf4jnsgd1na2vs0mg"},{"bike_id":"f9928a1b-5e01-4359-8549-3825d8c7f41a","system_id":"levelo_inurba_marseille","lat":43.2293,"lon":5.35371,"is_reserved":false,"is_disabled":false,"rental_uris":{"android":"levelo://app?vid=f9928a1b-5e01-4359-8549-3825d8c7f41a","ios":"levelo://app?vid=f9928a1b-5e01-4359-8549-3825d8c7f41a"},"vehicle_type_id":"4","last_reported":1729379314,"current_range_meters":38800,"station_id":"cpo3532slgdg3j2ikp40","pricing_plan_id":"cebpf4jnsgd1na2vs0mg"},{"bike_id":"a1a7d3ed-365b-4260-b205-0c746b54ce25","system_id":"levelo_inurba_marseille","lat":43.275652,"lon":5.384184,"is_reserved":false,"is_disabled":false,"rental_uris":{"android":"levelo://app?vid=a1a7d3ed-365b-4260-b205-0c746b54ce25","ios":"levelo://app?vid=a1a7d3ed-365b-4260-b205-0c746b54ce25"},"vehicle_type_id":"4","last_reported":1729379314,"current_range_meters":7200,"station_id":"ce4bhh92rcd13ifvqfi0","pricing_plan_id":"cebpf4jnsgd1na2vs0mg"},{"bike_id":"d8ec393f-4484-4f65-969b-8ae2145a9b2b","system_id":"levelo_inurba_marseille","lat":43.31881,"lon":5.40745,"is_reserved":false,"is_disabled":false,"rental_uris":{"android":"levelo://app?vid=d8ec393f-4484-4f65-969b-8ae2145a9b2b","ios":"levelo://app?vid=d8ec393f-4484-4f65-969b-8ae2145a9b2b"},"vehicle_type_id":"4","last_reported":1729379314,"current_range_meters":14400,"station_id":"ce4bhq12rcd13ifvqhig","pricing_plan_id":"cebpf4jnsgd1na2vs0mg"},{"bike_id":"b3da6c3a-2a10-4172-a1ac-14d12204275b","system_id":"levelo_inurba_marseille","lat":43.27495,"lon":5.42449,"is_reserved":false,"is_disabled":false,"rental_uris":{"android":"levelo://app?vid=b3da6c3a-2a10-4172-a1ac-14d12204275b","ios":"levelo://app?vid=b3da6c3a-2a10-4172-a1ac-14d12204275b"},"vehicle_type_id":"4","last_reported":1729379314,"current_range_meters":8000,"station_id":"ce4bhn92rcd13ifvqgrg","pricing_plan_id":"cebpf4jnsgd1na2vs0mg"},{"bike_id":"da57fedc-7e7e-49e9-b674-21ebe804bbf1","system_id":"levelo_inurba_marseille","lat":43.31126,"lon":5.37763,"is_reserved":false,"is_disabled":false,"rental_uris":{"android":"levelo://app?vid=da57fedc-7e7e-49e9-b674-21ebe804bbf1","ios":"levelo://app?vid=da57fedc-7e7e-49e9-b674-21ebe804bbf1"},"vehicle_type_id":"4","last_reported":1729379314,"current_range_meters":33200,"station_id":"ce4bgt92rcd13ifvqcg0","pricing_plan_id":"cebpf4jnsgd1na2vs0mg"},{"bike_id":"a7b7a404-4daf-4700-b81b-e63a35f02840","system_id":"levelo_inurba_marseille","lat":43.24389,"lon":5.37065,"is_reserved":false,"is_disabled":false,"rental_uris":{"android":"levelo://app?vid=a7b7a404-4daf-4700-b81b-e63a35f02840","ios":"levelo://app?vid=a7b7a404-4daf-4700-b81b-e63a35f02840"},"vehicle_type_id":"4","last_reported":1729379314,"current_range_meters":38000,"station_id":"ce4bhhh2rcd13ifvqfk0","pricing_plan_id":"cebpf4jnsgd1na2vs0mg"},{"bike_id":"721de7b0-fa5f-415e-9794-62464485acc5","system_id":"levelo_inurba_marseille","lat":43.27945,"lon":5.41044,"is_reserved":false,"is_disabled":false,"rental_uris":{"android":"levelo://app?vid=721de7b0-fa5f-415e-9794-62464485acc5","ios":"levelo://app?vid=721de7b0-fa5f-415e-9794-62464485acc5"},"vehicle_type_id":"4","last_reported":1729379314,"current_range_meters":37600,"station_id":"ce4bhnp2rcd13ifvqh0g","pricing_plan_id":"cebpf4jnsgd1na2vs0mg"},{"bike_id":"ee026ab5-3618-48cd-990a-86fb331daa48","system_id":"levelo_inurba_marseille","lat":43.28722,"lon":5.36081,"is_reserved":false,"is_disabled":false,"rental_uris":{"android":"levelo://app?vid=ee026ab5-3618-48cd-990a-86fb331daa48","ios":"levelo://app?vid=ee026ab5-3618-48cd-990a-86fb331daa48"},"vehicle_type_id":"4","last_reported":1729379314,"current_range_meters":17600,"station_id":"cki0cbj6b192h4jlfktg","pricing_plan_id":"cebpf4jnsgd1na2vs0mg"},{"bike_id":"c9515746-ed3d-4c0e-bcd1-aa6f785d2e54","system_id":"levelo_inurba_marseille","lat":43.25491,"lon":5.37649,"is_reserved":false,"is_disabled":false,"rental_uris":{"android":"levelo://app?vid=c9515746-ed3d-4c0e-bcd1-aa6f785d2e54","ios":"levelo://app?vid=c9515746-ed3d-4c0e-bcd1-aa6f785d2e54"},"vehicle_type_id":"4","last_reported":1729379314,"current_range_meters":16800,"station_id":"ce4bhh12rcd13ifvqff0","pricing_plan_id":"cebpf4jnsgd1na2vs0mg"},{"bike_id":"78d24d41-71e6-4e87-9147-735fa7bb813d","system_id":"levelo_inurba_marseille","lat":43.30891,"lon":5.37211,"is_reserved":false,"is_disabled":false,"rental_uris":{"android":"levelo://app?vid=78d24d41-71e6-4e87-9147-735fa7bb813d","ios":"levelo://app?vid=78d24d41-71e6-4e87-9147-735fa7bb813d"},"vehicle_type_id":"4","last_reported":1729379314,"current_range_meters":24000,"station_id":"ce4bguh2rcd13ifvqckg","pricing_plan_id":"cebpf4jnsgd1na2vs0mg"},{"bike_id":"b93101f8-a05a-4fc2-b02f-4d966ae07023","system_id":"levelo_inurba_marseille","lat":43.31168,"lon":5.38714,"is_reserved":false,"is_disabled":false,"rental_uris":{"android":"levelo://app?vid=b93101f8-a05a-4fc2-b02f-4d966ae07023","ios":"levelo://app?vid=b93101f8-a05a-4fc2-b02f-4d966ae07023"},"vehicle_type_id":"4","last_reported":1729379314,"current_range_meters":40000,"station_id":"ce4bgv12rcd13ifvqcp0","pricing_plan_id":"cebpf4jnsgd1na2vs0mg"},{"bike_id":"1300ab55-ec5b-4567-90f8-31787bbb8409","system_id":"levelo_inurba_marseille","lat":43.30141,"lon":5.38088,"is_reserved":false,"is_disabled":false,"rental_uris":{"android":"levelo://app?vid=1300ab55-ec5b-4567-90f8-31787bbb8409","ios":"levelo://app?vid=1300ab55-ec5b-4567-90f8-31787bbb8409"},"vehicle_type_id":"4","last_reported":1729379314,"current_range_meters":37600,"station_id":"ce4bgjp2rcd13ifvqbh0","pricing_plan_id":"cebpf4jnsgd1na2vs0mg"},{"bike_id":"ba170ba6-7cc7-4fc8-bf4d-27a6bf3e6130","system_id":"levelo_inurba_marseille","lat":43.30556,"lon":5.36546,"is_reserved":false,"is_disabled":false,"rental_uris":{"android":"levelo://app?vid=ba170ba6-7cc7-4fc8-bf4d-27a6bf3e6130","ios":"levelo://app?vid=ba170ba6-7cc7-4fc8-bf4d-27a6bf3e6130"},"vehicle_type_id":"4","last_reported":1729379314,"current_range_meters":5600,"station_id":"ce4bgs12rcd13ifvqcag","pricing_plan_id":"cebpf4jnsgd1na2vs0mg"},{"bike_id":"3049b589-f7d6-4889-a21b-17618fe6b55b","system_id":"levelo_inurba_marseille","lat":43.27812,"lon":5.40709,"is_reserved":false,"is_disabled":false,"rental_uris":{"android":"levelo://app?vid=3049b589-f7d6-4889-a21b-17618fe6b55b","ios":"levelo://app?vid=3049b589-f7d6-4889-a21b-17618fe6b55b"},"vehicle_type_id":"4","last_reported":1729379314,"current_range_meters":4400,"station_id":"ce4bhnh2rcd13ifvqgtg","pricing_plan_id":"cebpf4jnsgd1na2vs0mg"},{"bike_id":"fbdac3bf-82a9-48aa-9126-a52507838ce3","system_id":"levelo_inurba_marseille","lat":43.29634,"lon":5.37352,"is_reserved":false,"is_disabled":false,"rental_uris":{"android":"levelo://app?vid=fbdac3bf-82a9-48aa-9126-a52507838ce3","ios":"levelo://app?vid=fbdac3bf-82a9-48aa-9126-a52507838ce3"},"vehicle_type_id":"4","last_reported":1729379314,"current_range_meters":4000,"station_id":"","pricing_plan_id":"cebpf4jnsgd1na2vs0mg"},{"bike_id":"251c2ece-8912-4dfb-9847-d8f9ff013dd6","system_id":"levelo_inurba_marseille","lat":43.24667,"lon":5.3817,"is_reserved":false,"is_disabled":false,"rental_uris":{"android":"levelo://app?vid=251c2ece-8912-4dfb-9847-d8f9ff013dd6","ios":"levelo://app?vid=251c2ece-8912-4dfb-9847-d8f9ff013dd6"},"vehicle_type_id":"4","last_reported":1729379314,"current_range_meters":24400,"station_id":"ce4bhih2rcd13ifvqfr0","pricing_plan_id":"cebpf4jnsgd1na2vs0mg"},{"bike_id":"b22f64ce-5aa5-42af-a34d-2263d2943d6f","system_id":"levelo_inurba_marseille","lat":43.30257,"lon":5.40047,"is_reserved":false,"is_disabled":false,"rental_uris":{"android":"levelo://app?vid=b22f64ce-5aa5-42af-a34d-2263d2943d6f","ios":"levelo://app?vid=b22f64ce-5aa5-42af-a34d-2263d2943d6f"},"vehicle_type_id":"4","last_reported":1729379314,"current_range_meters":30800,"station_id":"ce4bgvh2rcd13ifvqcs0","pricing_plan_id":"cebpf4jnsgd1na2vs0mg"},{"bike_id":"831694b9-27d1-4291-a73b-97f20f1db91f","system_id":"levelo_inurba_marseille","lat":43.25081,"lon":5.3954,"is_reserved":false,"is_disabled":false,"rental_uris":{"android":"levelo://app?vid=831694b9-27d1-4291-a73b-97f20f1db91f","ios":"levelo://app?vid=831694b9-27d1-4291-a73b-97f20f1db91f"},"vehicle_type_id":"4","last_reported":1729379314,"current_range_meters":39200,"station_id":"ce4bhm12rcd13ifvqgkg","pricing_plan_id":"cebpf4jnsgd1na2vs0mg"},{"bike_id":"0c4829f6-ddc4-4463-b763-9fb4711c5979","system_id":"levelo_inurba_marseille","lat":43.28564,"lon":5.39498,"is_reserved":false,"is_disabled":false,"rental_uris":{"android":"levelo://app?vid=0c4829f6-ddc4-4463-b763-9fb4711c5979","ios":"levelo://app?vid=0c4829f6-ddc4-4463-b763-9fb4711c5979"},"vehicle_type_id":"4","last_reported":1729379314,"current_range_meters":30800,"station_id":"ce4bh292rcd13ifvqdg0","pricing_plan_id":"cebpf4jnsgd1na2vs0mg"},{"bike_id":"48cfdb9c-e73d-4b76-a21b-179a33e07bed","system_id":"levelo_inurba_marseille","lat":43.27937,"lon":5.4104,"is_reserved":false,"is_disabled":false,"rental_uris":{"android":"levelo://app?vid=48cfdb9c-e73d-4b76-a21b-179a33e07bed","ios":"levelo://app?vid=48cfdb9c-e73d-4b76-a21b-179a33e07bed"},"vehicle_type_id":"4","last_reported":1729379314,"current_range_meters":34800,"station_id":"ce4bhnp2rcd13ifvqh0g","pricing_plan_id":"cebpf4jnsgd1na2vs0mg"},{"bike_id":"96c0370a-2117-4376-938b-85413456106b","system_id":"levelo_inurba_marseille","lat":43.31714,"lon":5.37745,"is_reserved":false,"is_disabled":false,"rental_uris":{"android":"levelo://app?vid=96c0370a-2117-4376-938b-85413456106b","ios":"levelo://app?vid=96c0370a-2117-4376-938b-85413456106b"},"vehicle_type_id":"4","last_reported":1729379314,"current_range_meters":18000,"station_id":"ce4bgth2rcd13ifvqch0","pricing_plan_id":"cebpf4jnsgd1na2vs0mg"},{"bike_id":"d66bd0ae-b590-4029-ae7d-0fa65a35f925","system_id":"levelo_inurba_marseille","lat":43.33603,"lon":5.41021,"is_reserved":false,"is_disabled":false,"rental_uris":{"android":"levelo://app?vid=d66bd0ae-b590-4029-ae7d-0fa65a35f925","ios":"levelo://app?vid=d66bd0ae-b590-4029-ae7d-0fa65a35f925"},"vehicle_type_id":"4","last_reported":1729379314,"current_range_meters":20800,"station_id":"ce4bhqh2rcd13ifvqhmg","pricing_plan_id":"cebpf4jnsgd1na2vs0mg"},{"bike_id":"8d3bb419-bbf9-44e0-b8ba-87dc6215d606","system_id":"levelo_inurba_marseille","lat":43.31164,"lon":5.3872,"is_reserved":false,"is_disabled":false,"rental_uris":{"android":"levelo://app?vid=8d3bb419-bbf9-44e0-b8ba-87dc6215d606","ios":"levelo://app?vid=8d3bb419-bbf9-44e0-b8ba-87dc6215d606"},"vehicle_type_id":"4","last_reported":1729379314,"current_range_meters":12800,"station_id":"ce4bgv12rcd13ifvqcp0","pricing_plan_id":"cebpf4jnsgd1na2vs0mg"},{"bike_id":"54927d60-cb1a-446b-9ca9-a67bfc60d547","system_id":"levelo_inurba_marseille","lat":43.30545,"lon":5.38433,"is_reserved":false,"is_disabled":false,"rental_uris":{"android":"levelo://app?vid=54927d60-cb1a-446b-9ca9-a67bfc60d547","ios":"levelo://app?vid=54927d60-cb1a-446b-9ca9-a67bfc60d547"},"vehicle_type_id":"4","last_reported":1729379314,"current_range_meters":2800,"station_id":"ce4bgg92rcd13ifvqb30","pricing_plan_id":"cebpf4jnsgd1na2vs0mg"},{"bike_id":"a4c1cd7c-d39c-4f84-be44-a97d0900cd38","system_id":"levelo_inurba_marseille","lat":43.26216,"lon":5.37439,"is_reserved":false,"is_disabled":false,"rental_uris":{"android":"levelo://app?vid=a4c1cd7c-d39c-4f84-be44-a97d0900cd38","ios":"levelo://app?vid=a4c1cd7c-d39c-4f84-be44-a97d0900cd38"},"vehicle_type_id":"4","last_reported":1729379314,"current_range_meters":16400,"station_id":"ce4bhgp2rcd13ifvqfc0","pricing_plan_id":"cebpf4jnsgd1na2vs0mg"},{"bike_id":"02b99d41-0727-45dd-8b05-f76d6d331f44","system_id":"levelo_inurba_marseille","lat":43.28105,"lon":5.37845,"is_reserved":false,"is_disabled":false,"rental_uris":{"android":"levelo://app?vid=02b99d41-0727-45dd-8b05-f76d6d331f44","ios":"levelo://app?vid=02b99d41-0727-45dd-8b05-f76d6d331f44"},"vehicle_type_id":"4","last_reported":1729379314,"current_range_meters":12000,"station_id":"ce4bha12rcd13ifvqee0","pricing_plan_id":"cebpf4jnsgd1na2vs0mg"},{"bike_id":"f3b18d4c-688e-4e02-9104-7f1d559134af","system_id":"levelo_inurba_marseille","lat":43.321021,"lon":5.367763,"is_reserved":false,"is_disabled":false,"rental_uris":{"android":"levelo://app?vid=f3b18d4c-688e-4e02-9104-7f1d559134af","ios":"levelo://app?vid=f3b18d4c-688e-4e02-9104-7f1d559134af"},"vehicle_type_id":"4","last_reported":1729379314,"current_range_meters":38800,"station_id":"ce4bhrh2rcd13ifvqhug","pricing_plan_id":"cebpf4jnsgd1na2vs0mg"},{"bike_id":"40d9bb94-6dca-487f-b5f3-dd0faff73341","system_id":"levelo_inurba_marseille","lat":43.25728,"lon":5.41109,"is_reserved":false,"is_disabled":false,"rental_uris":{"android":"levelo://app?vid=40d9bb94-6dca-487f-b5f3-dd0faff73341","ios":"levelo://app?vid=40d9bb94-6dca-487f-b5f3-dd0faff73341"},"vehicle_type_id":"4","last_reported":1729379314,"current_range_meters":24400,"station_id":"ce4bhkp2rcd13ifvqgd0","pricing_plan_id":"cebpf4jnsgd1na2vs0mg"},{"bike_id":"fc9b3fc1-600b-416a-b916-9cf37562dae6","system_id":"levelo_inurba_marseille","lat":43.31324,"lon":5.396887,"is_reserved":false,"is_disabled":false,"rental_uris":{"android":"levelo://app?vid=fc9b3fc1-600b-416a-b916-9cf37562dae6","ios":"levelo://app?vid=fc9b3fc1-600b-416a-b916-9cf37562dae6"},"vehicle_type_id":"4","last_reported":1729379314,"current_range_meters":38400,"station_id":"ce4bgvp2rcd13ifvqcu0","pricing_plan_id":"cebpf4jnsgd1na2vs0mg"},{"bike_id":"8a61b0d3-96ba-49fc-af75-dd8176297036","system_id":"levelo_inurba_marseille","lat":43.23958,"lon":5.36637,"is_reserved":false,"is_disabled":false,"rental_uris":{"android":"levelo://app?vid=8a61b0d3-96ba-49fc-af75-dd8176297036","ios":"levelo://app?vid=8a61b0d3-96ba-49fc-af75-dd8176297036"},"vehicle_type_id":"4","last_reported":1729379314,"current_range_meters":12400,"station_id":"ce4bhi12rcd13ifvqfp0","pricing_plan_id":"cebpf4jnsgd1na2vs0mg"},{"bike_id":"e357430e-eaa5-45e0-8900-0e311e9ca630","system_id":"levelo_inurba_marseille","lat":43.28539,"lon":5.39379,"is_reserved":false,"is_disabled":false,"rental_uris":{"android":"levelo://app?vid=e357430e-eaa5-45e0-8900-0e311e9ca630","ios":"levelo://app?vid=e357430e-eaa5-45e0-8900-0e311e9ca630"},"vehicle_type_id":"4","last_reported":1729379314,"current_range_meters":30000,"station_id":"","pricing_plan_id":"cebpf4jnsgd1na2vs0mg"},{"bike_id":"f5b23b9e-9fc1-4540-8918-a3079fbfde07","system_id":"levelo_inurba_marseille","lat":43.31708,"lon":5.37765,"is_reserved":false,"is_disabled":false,"rental_uris":{"android":"levelo://app?vid=f5b23b9e-9fc1-4540-8918-a3079fbfde07","ios":"levelo://app?vid=f5b23b9e-9fc1-4540-8918-a3079fbfde07"},"vehicle_type_id":"4","last_reported":1729379314,"current_range_meters":39200,"station_id":"ce4bgth2rcd13ifvqch0","pricing_plan_id":"cebpf4jnsgd1na2vs0mg"},{"bike_id":"0c71a6f2-6847-4227-aa74-9585b239ef50","system_id":"levelo_inurba_marseille","lat":43.26557,"lon":5.37288,"is_reserved":false,"is_disabled":false,"rental_uris":{"android":"levelo://app?vid=0c71a6f2-6847-4227-aa74-9585b239ef50","ios":"levelo://app?vid=0c71a6f2-6847-4227-aa74-9585b239ef50"},"vehicle_type_id":"4","last_reported":1729379314,"current_range_meters":39200,"station_id":"ce4bhg12rcd13ifvqf70","pricing_plan_id":"cebpf4jnsgd1na2vs0mg"},{"bike_id":"85d3ade6-3665-431a-a885-89ce0aed83ce","system_id":"levelo_inurba_marseille","lat":43.33602,"lon":5.41026,"is_reserved":false,"is_disabled":false,"rental_uris":{"android":"levelo://app?vid=85d3ade6-3665-431a-a885-89ce0aed83ce","ios":"levelo://app?vid=85d3ade6-3665-431a-a885-89ce0aed83ce"},"vehicle_type_id":"4","last_reported":1729379314,"current_range_meters":19600,"station_id":"ce4bhqh2rcd13ifvqhmg","pricing_plan_id":"cebpf4jnsgd1na2vs0mg"},{"bike_id":"b655f0e5-9f54-4337-9f8f-e40c329da075","system_id":"levelo_inurba_marseille","lat":43.2933,"lon":5.3752,"is_reserved":false,"is_disabled":false,"rental_uris":{"android":"levelo://app?vid=b655f0e5-9f54-4337-9f8f-e40c329da075","ios":"levelo://app?vid=b655f0e5-9f54-4337-9f8f-e40c329da075"},"vehicle_type_id":"4","last_reported":1729379314,"current_range_meters":4400,"station_id":"","pricing_plan_id":"cebpf4jnsgd1na2vs0mg"},{"bike_id":"bd5f2645-e134-4e6d-ab8b-4ff7eeac7eca","system_id":"levelo_inurba_marseille","lat":43.292039,"lon":5.393198,"is_reserved":false,"is_disabled":false,"rental_uris":{"android":"levelo://app?vid=bd5f2645-e134-4e6d-ab8b-4ff7eeac7eca","ios":"levelo://app?vid=bd5f2645-e134-4e6d-ab8b-4ff7eeac7eca"},"vehicle_type_id":"4","last_reported":1729379314,"current_range_meters":3600,"station_id":"ce4bh192rcd13ifvqdd0","pricing_plan_id":"cebpf4jnsgd1na2vs0mg"},{"bike_id":"d471351f-a112-4ff7-b234-0d1a60bc7f51","system_id":"levelo_inurba_marseille","lat":43.29004,"lon":5.35614,"is_reserved":false,"is_disabled":false,"rental_uris":{"android":"levelo://app?vid=d471351f-a112-4ff7-b234-0d1a60bc7f51","ios":"levelo://app?vid=d471351f-a112-4ff7-b234-0d1a60bc7f51"},"vehicle_type_id":"4","last_reported":1729379314,"current_range_meters":38800,"station_id":"ce4bhb92rcd13ifvqen0","pricing_plan_id":"cebpf4jnsgd1na2vs0mg"},{"bike_id":"33b20c75-6f8c-4d5c-92d3-5885a6da5a21","system_id":"levelo_inurba_marseille","lat":43.29026,"lon":5.3813,"is_reserved":false,"is_disabled":false,"rental_uris":{"android":"levelo://app?vid=33b20c75-6f8c-4d5c-92d3-5885a6da5a21","ios":"levelo://app?vid=33b20c75-6f8c-4d5c-92d3-5885a6da5a21"},"vehicle_type_id":"4","last_reported":1729379314,"current_range_meters":38400,"station_id":"ce4bh4p2rcd13ifvqe1g","pricing_plan_id":"cebpf4jnsgd1na2vs0mg"},{"bike_id":"bc9e7384-10a4-41c3-8bc2-b03762ee3e00","system_id":"levelo_inurba_marseille","lat":43.27445,"lon":5.39396,"is_reserved":false,"is_disabled":false,"rental_uris":{"android":"levelo://app?vid=bc9e7384-10a4-41c3-8bc2-b03762ee3e00","ios":"levelo://app?vid=bc9e7384-10a4-41c3-8bc2-b03762ee3e00"},"vehicle_type_id":"4","last_reported":1729379314,"current_range_meters":37600,"station_id":"ce4bhdp2rcd13ifvqf20","pricing_plan_id":"cebpf4jnsgd1na2vs0mg"},{"bike_id":"e24da76d-1239-4a66-b114-60823fe40503","system_id":"levelo_inurba_marseille","lat":43.32475,"lon":5.36561,"is_reserved":false,"is_disabled":false,"rental_uris":{"android":"levelo://app?vid=e24da76d-1239-4a66-b114-60823fe40503","ios":"levelo://app?vid=e24da76d-1239-4a66-b114-60823fe40503"},"vehicle_type_id":"4","last_reported":1729379314,"current_range_meters":39200,"station_id":"ce4bhs12rcd13ifvqhvg","pricing_plan_id":"cebpf4jnsgd1na2vs0mg"},{"bike_id":"0b192f51-7551-4a7a-8349-7eb03dc37a20","system_id":"levelo_inurba_marseille","lat":43.265612,"lon":5.373371,"is_reserved":false,"is_disabled":false,"rental_uris":{"android":"levelo://app?vid=0b192f51-7551-4a7a-8349-7eb03dc37a20","ios":"levelo://app?vid=0b192f51-7551-4a7a-8349-7eb03dc37a20"},"vehicle_type_id":"4","last_reported":1729379314,"current_range_meters":38800,"station_id":"ce4bhg12rcd13ifvqf70","pricing_plan_id":"cebpf4jnsgd1na2vs0mg"},{"bike_id":"4f357a8f-803f-4ef1-b82a-19fa9f305e74","system_id":"levelo_inurba_marseille","lat":43.23192,"lon":5.35559,"is_reserved":false,"is_disabled":false,"rental_uris":{"android":"levelo://app?vid=4f357a8f-803f-4ef1-b82a-19fa9f305e74","ios":"levelo://app?vid=4f357a8f-803f-4ef1-b82a-19fa9f305e74"},"vehicle_type_id":"4","last_reported":1729379314,"current_range_meters":39200,"station_id":"ce4bhu92rcd13ifvqi70","pricing_plan_id":"cebpf4jnsgd1na2vs0mg"},{"bike_id":"838948a7-5ca0-4242-8e63-880c98c2871c","system_id":"levelo_inurba_marseille","lat":43.30805,"lon":5.43524,"is_reserved":false,"is_disabled":false,"rental_uris":{"android":"levelo://app?vid=838948a7-5ca0-4242-8e63-880c98c2871c","ios":"levelo://app?vid=838948a7-5ca0-4242-8e63-880c98c2871c"},"vehicle_type_id":"4","last_reported":1729379314,"current_range_meters":38000,"station_id":"ce4bhph2rcd13ifvqheg","pricing_plan_id":"cebpf4jnsgd1na2vs0mg"},{"bike_id":"5394e624-c4df-478f-8acb-d0dfad33bd36","system_id":"levelo_inurba_marseille","lat":43.290009,"lon":5.356181,"is_reserved":false,"is_disabled":false,"rental_uris":{"android":"levelo://app?vid=5394e624-c4df-478f-8acb-d0dfad33bd36","ios":"levelo://app?vid=5394e624-c4df-478f-8acb-d0dfad33bd36"},"vehicle_type_id":"4","last_reported":1729379314,"current_range_meters":22400,"station_id":"","pricing_plan_id":"cebpf4jnsgd1na2vs0mg"},{"bike_id":"5ac2952e-df0b-4435-a8bf-c5ef2cf5d837","system_id":"levelo_inurba_marseille","lat":43.29697,"lon":5.36585,"is_reserved":false,"is_disabled":false,"rental_uris":{"android":"levelo://app?vid=5ac2952e-df0b-4435-a8bf-c5ef2cf5d837","ios":"levelo://app?vid=5ac2952e-df0b-4435-a8bf-c5ef2cf5d837"},"vehicle_type_id":"4","last_reported":1729379314,"current_range_meters":11200,"station_id":"ce4bgn12rcd13ifvqbt0","pricing_plan_id":"cebpf4jnsgd1na2vs0mg"},{"bike_id":"bdaf4cca-3144-4b46-87aa-d2e662c78d1a","system_id":"levelo_inurba_marseille","lat":43.30883,"lon":5.39638,"is_reserved":false,"is_disabled":false,"rental_uris":{"android":"levelo://app?vid=bdaf4cca-3144-4b46-87aa-d2e662c78d1a","ios":"levelo://app?vid=bdaf4cca-3144-4b46-87aa-d2e662c78d1a"},"vehicle_type_id":"4","last_reported":1729379314,"current_range_meters":40000,"station_id":"ce4bh012rcd13ifvqcv0","pricing_plan_id":"cebpf4jnsgd1na2vs0mg"},{"bike_id":"21ae7915-82aa-4065-94ce-21441fecf809","system_id":"levelo_inurba_marseille","lat":43.31122,"lon":5.37767,"is_reserved":false,"is_disabled":false,"rental_uris":{"android":"levelo://app?vid=21ae7915-82aa-4065-94ce-21441fecf809","ios":"levelo://app?vid=21ae7915-82aa-4065-94ce-21441fecf809"},"vehicle_type_id":"4","last_reported":1729379314,"current_range_meters":30000,"station_id":"ce4bgt92rcd13ifvqcg0","pricing_plan_id":"cebpf4jnsgd1na2vs0mg"},{"bike_id":"95a81313-841f-4ab2-9799-feed68ce59b7","system_id":"levelo_inurba_marseille","lat":43.23959,"lon":5.36638,"is_reserved":false,"is_disabled":false,"rental_uris":{"android":"levelo://app?vid=95a81313-841f-4ab2-9799-feed68ce59b7","ios":"levelo://app?vid=95a81313-841f-4ab2-9799-feed68ce59b7"},"vehicle_type_id":"4","last_reported":1729379314,"current_range_meters":24400,"station_id":"ce4bhi12rcd13ifvqfp0","pricing_plan_id":"cebpf4jnsgd1na2vs0mg"},{"bike_id":"91f81752-8770-4b0a-9e40-955fd247e0d8","system_id":"levelo_inurba_marseille","lat":43.2586,"lon":5.39906,"is_reserved":false,"is_disabled":false,"rental_uris":{"android":"levelo://app?vid=91f81752-8770-4b0a-9e40-955fd247e0d8","ios":"levelo://app?vid=91f81752-8770-4b0a-9e40-955fd247e0d8"},"vehicle_type_id":"4","last_reported":1729379314,"current_range_meters":38800,"station_id":"ce4bhl92rcd13ifvqghg","pricing_plan_id":"cebpf4jnsgd1na2vs0mg"},{"bike_id":"35ad3b2b-aed2-40ac-9d12-ceed8d94ee92","system_id":"levelo_inurba_marseille","lat":43.290369,"lon":5.359164,"is_reserved":false,"is_disabled":false,"rental_uris":{"android":"levelo://app?vid=35ad3b2b-aed2-40ac-9d12-ceed8d94ee92","ios":"levelo://app?vid=35ad3b2b-aed2-40ac-9d12-ceed8d94ee92"},"vehicle_type_id":"4","last_reported":1729379314,"current_range_meters":4000,"station_id":"","pricing_plan_id":"cebpf4jnsgd1na2vs0mg"},{"bike_id":"3a08dcf4-1b9e-40d0-b1b9-555a488b2bfd","system_id":"levelo_inurba_marseille","lat":43.3117,"lon":5.38715,"is_reserved":false,"is_disabled":false,"rental_uris":{"android":"levelo://app?vid=3a08dcf4-1b9e-40d0-b1b9-555a488b2bfd","ios":"levelo://app?vid=3a08dcf4-1b9e-40d0-b1b9-555a488b2bfd"},"vehicle_type_id":"4","last_reported":1729379314,"current_range_meters":36800,"station_id":"ce4bgv12rcd13ifvqcp0","pricing_plan_id":"cebpf4jnsgd1na2vs0mg"},{"bike_id":"12a13e60-fa80-4ea5-9e90-b03269c2d76b","system_id":"levelo_inurba_marseille","lat":43.27942,"lon":5.41037,"is_reserved":false,"is_disabled":false,"rental_uris":{"android":"levelo://app?vid=12a13e60-fa80-4ea5-9e90-b03269c2d76b","ios":"levelo://app?vid=12a13e60-fa80-4ea5-9e90-b03269c2d76b"},"vehicle_type_id":"4","last_reported":1729379314,"current_range_meters":36800,"station_id":"ce4bhnp2rcd13ifvqh0g","pricing_plan_id":"cebpf4jnsgd1na2vs0mg"},{"bike_id":"3c807220-758f-40c8-b4f1-96669d1b8d8b","system_id":"levelo_inurba_marseille","lat":43.23187,"lon":5.35561,"is_reserved":false,"is_disabled":false,"rental_uris":{"android":"levelo://app?vid=3c807220-758f-40c8-b4f1-96669d1b8d8b","ios":"levelo://app?vid=3c807220-758f-40c8-b4f1-96669d1b8d8b"},"vehicle_type_id":"4","last_reported":1729379314,"current_range_meters":6400,"station_id":"ce4bhu92rcd13ifvqi70","pricing_plan_id":"cebpf4jnsgd1na2vs0mg"},{"bike_id":"00966f37-cbf6-4bb2-9ac9-c42167109b86","system_id":"levelo_inurba_marseille","lat":43.29707,"lon":5.36596,"is_reserved":false,"is_disabled":false,"rental_uris":{"android":"levelo://app?vid=00966f37-cbf6-4bb2-9ac9-c42167109b86","ios":"levelo://app?vid=00966f37-cbf6-4bb2-9ac9-c42167109b86"},"vehicle_type_id":"4","last_reported":1729379314,"current_range_meters":38000,"station_id":"ce4bgn12rcd13ifvqbt0","pricing_plan_id":"cebpf4jnsgd1na2vs0mg"},{"bike_id":"ee6228ae-8e52-4829-96fb-3849d6cfbd8e","system_id":"levelo_inurba_marseille","lat":43.31362,"lon":5.38496,"is_reserved":false,"is_disabled":false,"rental_uris":{"android":"levelo://app?vid=ee6228ae-8e52-4829-96fb-3849d6cfbd8e","ios":"levelo://app?vid=ee6228ae-8e52-4829-96fb-3849d6cfbd8e"},"vehicle_type_id":"4","last_reported":1729379314,"current_range_meters":21600,"station_id":"ce4bgt92rcd13ifvqcf0","pricing_plan_id":"cebpf4jnsgd1na2vs0mg"},{"bike_id":"c11b0555-b997-4036-8536-79587f1a9f2e","system_id":"levelo_inurba_marseille","lat":43.27672,"lon":5.38923,"is_reserved":false,"is_disabled":false,"rental_uris":{"android":"levelo://app?vid=c11b0555-b997-4036-8536-79587f1a9f2e","ios":"levelo://app?vid=c11b0555-b997-4036-8536-79587f1a9f2e"},"vehicle_type_id":"4","last_reported":1729379314,"current_range_meters":36000,"station_id":"ce4bhi12rcd13ifvqfo0","pricing_plan_id":"cebpf4jnsgd1na2vs0mg"},{"bike_id":"79e577df-2f1c-4782-802a-c75a4bc220f3","system_id":"levelo_inurba_marseille","lat":43.31364,"lon":5.38499,"is_reserved":false,"is_disabled":false,"rental_uris":{"android":"levelo://app?vid=79e577df-2f1c-4782-802a-c75a4bc220f3","ios":"levelo://app?vid=79e577df-2f1c-4782-802a-c75a4bc220f3"},"vehicle_type_id":"4","last_reported":1729379314,"current_range_meters":40000,"station_id":"ce4bgt92rcd13ifvqcf0","pricing_plan_id":"cebpf4jnsgd1na2vs0mg"},{"bike_id":"b5c40a57-fde0-4b3a-8522-4717ef7108e9","system_id":"levelo_inurba_marseille","lat":43.310855,"lon":5.400938,"is_reserved":false,"is_disabled":false,"rental_uris":{"android":"levelo://app?vid=b5c40a57-fde0-4b3a-8522-4717ef7108e9","ios":"levelo://app?vid=b5c40a57-fde0-4b3a-8522-4717ef7108e9"},"vehicle_type_id":"4","last_reported":1729379314,"current_range_meters":6000,"station_id":"","pricing_plan_id":"cebpf4jnsgd1na2vs0mg"},{"bike_id":"6858e82c-68bb-46d4-8c97-1ec37cb72b8c","system_id":"levelo_inurba_marseille","lat":43.28063,"lon":5.40767,"is_reserved":false,"is_disabled":false,"rental_uris":{"android":"levelo://app?vid=6858e82c-68bb-46d4-8c97-1ec37cb72b8c","ios":"levelo://app?vid=6858e82c-68bb-46d4-8c97-1ec37cb72b8c"},"vehicle_type_id":"4","last_reported":1729379314,"current_range_meters":10800,"station_id":"ce4bhnh2rcd13ifvqgtg","pricing_plan_id":"cebpf4jnsgd1na2vs0mg"},{"bike_id":"16dd0b98-dfd5-43f7-a16d-257d387a6be5","system_id":"levelo_inurba_marseille","lat":43.2841,"lon":5.37521,"is_reserved":false,"is_disabled":false,"rental_uris":{"android":"levelo://app?vid=16dd0b98-dfd5-43f7-a16d-257d387a6be5","ios":"levelo://app?vid=16dd0b98-dfd5-43f7-a16d-257d387a6be5"},"vehicle_type_id":"4","last_reported":1729379314,"current_range_meters":6000,"station_id":"ce4bh412rcd13ifvqds0","pricing_plan_id":"cebpf4jnsgd1na2vs0mg"},{"bike_id":"f3788791-a250-49d3-a306-cea2aa34c0de","system_id":"levelo_inurba_marseille","lat":43.29007,"lon":5.35616,"is_reserved":false,"is_disabled":false,"rental_uris":{"android":"levelo://app?vid=f3788791-a250-49d3-a306-cea2aa34c0de","ios":"levelo://app?vid=f3788791-a250-49d3-a306-cea2aa34c0de"},"vehicle_type_id":"4","last_reported":1729379314,"current_range_meters":32800,"station_id":"ce4bhb92rcd13ifvqen0","pricing_plan_id":"cebpf4jnsgd1na2vs0mg"},{"bike_id":"488378a2-874a-4a39-82d7-2149ff71d752","system_id":"levelo_inurba_marseille","lat":43.29036,"lon":5.39967,"is_reserved":false,"is_disabled":false,"rental_uris":{"android":"levelo://app?vid=488378a2-874a-4a39-82d7-2149ff71d752","ios":"levelo://app?vid=488378a2-874a-4a39-82d7-2149ff71d752"},"vehicle_type_id":"4","last_reported":1729379314,"current_range_meters":13600,"station_id":"ce4bh392rcd13ifvqdm0","pricing_plan_id":"cebpf4jnsgd1na2vs0mg"},{"bike_id":"c2eebfc1-6d2f-440b-a707-18962e4fd360","system_id":"levelo_inurba_marseille","lat":43.2678,"lon":5.39413,"is_reserved":false,"is_disabled":false,"rental_uris":{"android":"levelo://app?vid=c2eebfc1-6d2f-440b-a707-18962e4fd360","ios":"levelo://app?vid=c2eebfc1-6d2f-440b-a707-18962e4fd360"},"vehicle_type_id":"4","last_reported":1729379314,"current_range_meters":2000,"station_id":"ce4bhh12rcd13ifvqfg0","pricing_plan_id":"cebpf4jnsgd1na2vs0mg"},{"bike_id":"12026b7e-c071-4bb4-b8eb-715d3c8adc6d","system_id":"levelo_inurba_marseille","lat":43.23154,"lon":5.43707,"is_reserved":false,"is_disabled":false,"rental_uris":{"android":"levelo://app?vid=12026b7e-c071-4bb4-b8eb-715d3c8adc6d","ios":"levelo://app?vid=12026b7e-c071-4bb4-b8eb-715d3c8adc6d"},"vehicle_type_id":"4","last_reported":1729379314,"current_range_meters":12000,"station_id":"ce4bhmp2rcd13ifvqgog","pricing_plan_id":"cebpf4jnsgd1na2vs0mg"},{"bike_id":"88847671-453c-4085-af2a-18bca9aa964e","system_id":"levelo_inurba_marseille","lat":43.28926,"lon":5.36398,"is_reserved":false,"is_disabled":false,"rental_uris":{"android":"levelo://app?vid=88847671-453c-4085-af2a-18bca9aa964e","ios":"levelo://app?vid=88847671-453c-4085-af2a-18bca9aa964e"},"vehicle_type_id":"4","last_reported":1729379314,"current_range_meters":38000,"station_id":"ce4bhc92rcd13ifvqetg","pricing_plan_id":"cebpf4jnsgd1na2vs0mg"},{"bike_id":"d1a6118a-bae3-4edd-8d64-c7fdd5cdd6a7","system_id":"levelo_inurba_marseille","lat":43.31117,"lon":5.37777,"is_reserved":false,"is_disabled":false,"rental_uris":{"android":"levelo://app?vid=d1a6118a-bae3-4edd-8d64-c7fdd5cdd6a7","ios":"levelo://app?vid=d1a6118a-bae3-4edd-8d64-c7fdd5cdd6a7"},"vehicle_type_id":"4","last_reported":1729379314,"current_range_meters":26800,"station_id":"ce4bgt92rcd13ifvqcg0","pricing_plan_id":"cebpf4jnsgd1na2vs0mg"},{"bike_id":"13dcc3d0-89be-4806-8cb2-e2a605ced6b6","system_id":"levelo_inurba_marseille","lat":43.29779,"lon":5.37097,"is_reserved":false,"is_disabled":false,"rental_uris":{"android":"levelo://app?vid=13dcc3d0-89be-4806-8cb2-e2a605ced6b6","ios":"levelo://app?vid=13dcc3d0-89be-4806-8cb2-e2a605ced6b6"},"vehicle_type_id":"4","last_reported":1729379314,"current_range_meters":38400,"station_id":"ce4bgop2rcd13ifvqc1g","pricing_plan_id":"cebpf4jnsgd1na2vs0mg"},{"bike_id":"1fad675a-d3e8-4444-a45e-9af37e54e7eb","system_id":"levelo_inurba_marseille","lat":43.28696,"lon":5.37387,"is_reserved":false,"is_disabled":false,"rental_uris":{"android":"levelo://app?vid=1fad675a-d3e8-4444-a45e-9af37e54e7eb","ios":"levelo://app?vid=1fad675a-d3e8-4444-a45e-9af37e54e7eb"},