{"last_updated":1762777300,"ttl":60,"version":"2.2","data":{"bikes":[{"bike_id":"9dda5635-a624-436d-9b12-22fb00320230","system_id":"levelo_inurba_marseille","lat":43.29322,"lon":5.37155,"is_reserved":false,"is_disabled":false,"rental_uris":{"android":"levelo://app?vid=9dda5635-a624-436d-9b12-22fb00320230","ios":"levelo://app?vid=9dda5635-a624-436d-9b12-22fb00320230"},"vehicle_type_id":"4","last_reported":1762777300,"current_range_meters":2800,"station_id":"","pricing_plan_id":"cebpf4jnsgd1na2vs0mg"},{"bike_id":"04f6e0bb-dbec-4a8f-ad51-3913dfd8663d","system_id":"levelo_inurba_marseille","lat":43.29818,"lon":5.38781,"is_reserved":false,"is_disabled":false,"rental_uris":{"android":"levelo://app?vid=04f6e0bb-dbec-4a8f-ad51-3913dfd8663d","ios":"levelo://app?vid=04f6e0bb-dbec-4a8f-ad51-3913dfd8663d"},"vehicle_type_id":"4","last_reported":1762777300,"current_range_meters":2800,"station_id":"","pricing_plan_id":"cebpf4jnsgd1na2vs0mg"},{"bike_id":"11af116d-dbe5-4a6c-b829-63e4d5540595","system_id":"levelo_inurba_marseille","lat":43.28272,"lon":5.35064,"is_reserved":false,"is_disabled":false,"rental_uris":{"android":"levelo://app?vid=11af116d-dbe5-4a6c-b829-63e4d5540595","ios":"levelo://app?vid=11af116d-dbe5-4a6c-b829-63e4d5540595"},"vehicle_type_id":"4","last_reported":1762777300,"current_range_meters":2800,"station_id":"ce4bhbp2rcd13ifvqerg","pricing_plan_id":"cebpf4jnsgd1na2vs0mg"},{"bike_id":"b9be4d58-c208-4157-9298-198d0b5ed850","system_id":"levelo_inurba_marseille","lat":43.217374,"lon":5.346109,"is_reserved":false,"is_disabled":false,"rental_uris":{"android":"levelo://app?vid=b9be4d58-c208-4157-9298-198d0b5ed850","ios":"levelo://app?vid=b9be4d58-c208-4157-9298-198d0b5ed850"},"vehicle_type_id":"4","last_reported":1762777300,"current_range_meters":2800,"station_id":"st_cvj6r9ubvosntc0bgbag","pricing_plan_id":"cebpf4jnsgd1na2vs0mg"},{"bike_id":"2793d1c9-d65e-4258-84d7-a43bbfce353b","system_id":"levelo_inurba_marseille","lat":43.30123,"lon":5.38786,"is_reserved":false,"is_disabled":false,"rental_uris":{"android":"levelo://app?vid=2793d1c9-d65e-4258-84d7-a43bbfce353b","ios":"levelo://app?vid=2793d1c9-d65e-4258-84d7-a43bbfce353b"},"vehicle_type_id":"4","last_reported":1762777300,"current_range_meters":2800,"station_id":"ce4bghh2rcd13ifvqb60","pricing_plan_id":"cebpf4jnsgd1na2vs0mg"},{"bike_id":"b6872507-16ab-45be-aa73-a105d711ec3c","system_id":"levelo_inurba_marseille","lat":43.29164,"lon":5.3716,"is_reserved":false,"is_disabled":false,"rental_uris":{"android":"levelo://app?vid=b6872507-16ab-45be-aa73-a105d711ec3c","ios":"levelo://app?vid=b6872507-16ab-45be-aa73-a105d711ec3c"},"vehicle_type_id":"4","last_reported":1762777300,"current_range_meters":3200,"station_id":"ce4bha92rcd13ifvqeh0","pricing_plan_id":"cebpf4jnsgd1na2vs0mg"},{"bike_id":"8040d437-b793-4c7c-83dd-8a60b4a68d3a","system_id":"levelo_inurba_marseille","lat":43.259323,"lon":5.409168,"is_reserved":false,"is_disabled":true,"rental_uris":{"android":"levelo://app?vid=8040d437-b793-4c7c-83dd-8a60b4a68d3a","ios":"levelo://app?vid=8040d437-b793-4c7c-83dd-8a60b4a68d3a"},"vehicle_type_id":"4","last_reported":1762777300,"current_range_meters":3200,"station_id":"ce4bhm92rcd13ifvqglg","pricing_plan_id":"cebpf4jnsgd1na2vs0mg"},{"bike_id":"3b7152a8-9f7c-4df1-85bc-47d67589a505","system_id":"levelo_inurba_marseille","lat":43.26793,"lon":5.3944,"is_reserved":false,"is_disabled":false,"rental_uris":{"android":"levelo://app?vid=3b7152a8-9f7c-4df1-85bc-47d67589a505","ios":"levelo://app?vid=3b7152a8-9f7c-4df1-85bc-47d67589a505"},"vehicle_type_id":"4","last_reported":1762777300,"current_range_meters":3200,"station_id":"ce4bhh12rcd13ifvqfg0","pricing_plan_id":"cebpf4jnsgd1na2vs0mg"},{"bike_id":"11fc4d3b-733f-446e-ae27-782a71ccb828","system_id":"levelo_inurba_marseille","lat":43.299353,"lon":5.365452,"is_reserved":false,"is_disabled":false,"rental_uris":{"android":"levelo://app?vid=11fc4d3b-733f-446e-ae27-782a71ccb828","ios":"levelo://app?vid=11fc4d3b-733f-446e-ae27-782a71ccb828"},"vehicle_type_id":"4","last_reported":1762777300,"current_range_meters":3200,"station_id":"ce4bgm92rcd13ifvqbr0","pricing_plan_id":"cebpf4jnsgd1na2vs0mg"},{"bike_id":"3b294fa9-3f9f-4381-a2a8-e3592d375a68","system_id":"levelo_inurba_marseille","lat":43.26698,"lon":5.39705,"is_reserved":false,"is_disabled":false,"rental_uris":{"android":"levelo://app?vid=3b294fa9-3f9f-4381-a2a8-e3592d375a68","ios":"levelo://app?vid=3b294fa9-3f9f-4381-a2a8-e3592d375a68"},"vehicle_type_id":"4","last_reported":1762777300,"current_range_meters":3200,"station_id":"","pricing_plan_id":"cebpf4jnsgd1na2vs0mg"},{"bike_id":"910cc3ae-7ba4-48e5-a244-931e2df10a06","system_id":"levelo_inurba_marseille","lat":43.27096,"lon":5.393,"is_reserved":false,"is_disabled":false,"rental_uris":{"android":"levelo://app?vid=910cc3ae-7ba4-48e5-a244-931e2df10a06","ios":"levelo://app?vid=910cc3ae-7ba4-48e5-a244-931e2df10a06"},"vehicle_type_id":"4","last_reported":1762777300,"current_range_meters":3200,"station_id":"","pricing_plan_id":"cebpf4jnsgd1na2vs0mg"},{"bike_id":"2039b2ce-8098-46cb-9bf6-567ba35c01a1","system_id":"levelo_inurba_marseille","lat":43.311005,"lon":5.378329,"is_reserved":false,"is_disabled":false,"rental_uris":{"android":"levelo://app?vid=2039b2ce-8098-46cb-9bf6-567ba35c01a1","ios":"levelo://app?vid=2039b2ce-8098-46cb-9bf6-567ba35c01a1"},"vehicle_type_id":"4","last_reported":1762777300,"current_range_meters":3600,"station_id":"ce4bgt92rcd13ifvqcg0","pricing_plan_id":"cebpf4jnsgd1na2vs0mg"},{"bike_id":"f86bfb45-1394-421d-82de-acc83d91b4b4","system_id":"levelo_inurba_marseille","lat":43.25093,"lon":5.39533,"is_reserved":false,"is_disabled":false,"rental_uris":{"android":"levelo://app?vid=f86bfb45-1394-421d-82de-acc83d91b4b4","ios":"levelo://app?vid=f86bfb45-1394-421d-82de-acc83d91b4b4"},"vehicle_type_id":"4","last_reported":1762777300,"current_range_meters":3600,"station_id":"ce4bhm12rcd13ifvqgkg","pricing_plan_id":"cebpf4jnsgd1na2vs0mg"},{"bike_id":"321d43c2-a97c-419e-a110-a172b4ee23e9","system_id":"levelo_inurba_marseille","lat":43.26163,"lon":5.417774,"is_reserved":false,"is_disabled":false,"rental_uris":{"android":"levelo://app?vid=321d43c2-a97c-419e-a110-a172b4ee23e9","ios":"levelo://app?vid=321d43c2-a97c-419e-a110-a172b4ee23e9"},"vehicle_type_id":"4","last_reported":1762777300,"current_range_meters":3600,"station_id":"","pricing_plan_id":"cebpf4jnsgd1na2vs0mg"},{"bike_id":"063d8ea3-eac1-4d86-84b9-a0393ac5022f","system_id":"levelo_inurba_marseille","lat":43.28303,"lon":5.39015,"is_reserved":false,"is_disabled":true,"rental_uris":{"android":"levelo://app?vid=063d8ea3-eac1-4d86-84b9-a0393ac5022f","ios":"levelo://app?vid=063d8ea3-eac1-4d86-84b9-a0393ac5022f"},"vehicle_type_id":"4","last_reported":1762777300,"current_range_meters":4000,"station_id":"","pricing_plan_id":"cebpf4jnsgd1na2vs0mg"},{"bike_id":"5cdb8250-cc17-4091-bc99-828f2a284ec9","system_id":"levelo_inurba_marseille","lat":43.2586,"lon":5.39908,"is_reserved":false,"is_disabled":false,"rental_uris":{"android":"levelo://app?vid=5cdb8250-cc17-4091-bc99-828f2a284ec9","ios":"levelo://app?vid=5cdb8250-cc17-4091-bc99-828f2a284ec9"},"vehicle_type_id":"4","last_reported":1762777300,"current_range_meters":4000,"station_id":"ce4bhl92rcd13ifvqghg","pricing_plan_id":"cebpf4jnsgd1na2vs0mg"},{"bike_id":"b26b36f6-591e-413d-bc5e-4e8278d0f8df","system_id":"levelo_inurba_marseille","lat":43.29255,"lon":5.40902,"is_reserved":false,"is_disabled":false,"rental_uris":{"android":"levelo://app?vid=b26b36f6-591e-413d-bc5e-4e8278d0f8df","ios":"levelo://app?vid=b26b36f6-591e-413d-bc5e-4e8278d0f8df"},"vehicle_type_id":"4","last_reported":1762777300,"current_range_meters":4400,"station_id":"ce4bh192rcd13ifvqdc0","pricing_plan_id":"cebpf4jnsgd1na2vs0mg"},{"bike_id":"d58162db-574a-44f0-b573-b59c9312a09d","system_id":"levelo_inurba_marseille","lat":43.28278,"lon":5.35071,"is_reserved":false,"is_disabled":true,"rental_uris":{"android":"levelo://app?vid=d58162db-574a-44f0-b573-b59c9312a09d","ios":"levelo://app?vid=d58162db-574a-44f0-b573-b59c9312a09d"},"vehicle_type_id":"4","last_reported":1762777300,"current_range_meters":4400,"station_id":"ce4bhbp2rcd13ifvqerg","pricing_plan_id":"cebpf4jnsgd1na2vs0mg"},{"bike_id":"e0aae097-5102-4fd5-b153-a55747c3f078","system_id":"levelo_inurba_marseille","lat":43.23177,"lon":5.39988,"is_reserved":false,"is_disabled":false,"rental_uris":{"android":"levelo://app?vid=e0aae097-5102-4fd5-b153-a55747c3f078","ios":"levelo://app?vid=e0aae097-5102-4fd5-b153-a55747c3f078"},"vehicle_type_id":"4","last_reported":1762777300,"current_range_meters":4400,"station_id":"ce4bhn12rcd13ifvqgqg","pricing_plan_id":"cebpf4jnsgd1na2vs0mg"},{"bike_id":"870a9ad1-db35-4ab0-bc9a-84476efc6571","system_id":"levelo_inurba_marseille","lat":43.327951,"lon":5.426599,"is_reserved":false,"is_disabled":false,"rental_uris":{"android":"levelo://app?vid=870a9ad1-db35-4ab0-bc9a-84476efc6571","ios":"levelo://app?vid=870a9ad1-db35-4ab0-bc9a-84476efc6571"},"vehicle_type_id":"4","last_reported":1762777300,"current_range_meters":4400,"station_id":"","pricing_plan_id":"cebpf4jnsgd1na2vs0mg"},{"bike_id":"8680a8bd-ac80-427d-abfd-6b78a47a0471","system_id":"levelo_inurba_marseille","lat":43.24617,"lon":5.4316,"is_reserved":false,"is_disabled":false,"rental_uris":{"android":"levelo://app?vid=8680a8bd-ac80-427d-abfd-6b78a47a0471","ios":"levelo://app?vid=8680a8bd-ac80-427d-abfd-6b78a47a0471"},"vehicle_type_id":"4","last_reported":1762777300,"current_range_meters":4800,"station_id":"st_d2m6c4gdas8pm72e190g","pricing_plan_id":"cebpf4jnsgd1na2vs0mg"},{"bike_id":"b05048b6-3636-4628-97b9-678771374061","system_id":"levelo_inurba_marseille","lat":43.30451,"lon":5.36744,"is_reserved":false,"is_disabled":false,"rental_uris":{"android":"levelo://app?vid=b05048b6-3636-4628-97b9-678771374061","ios":"levelo://app?vid=b05048b6-3636-4628-97b9-678771374061"},"vehicle_type_id":"4","last_reported":1762777300,"current_range_meters":4800,"station_id":"","pricing_plan_id":"cebpf4jnsgd1na2vs0mg"},{"bike_id":"063b5c4d-768c-4308-b156-b338a7dee809","system_id":"levelo_inurba_marseille","lat":43.3059,"lon":5.39347,"is_reserved":false,"is_disabled":false,"rental_uris":{"android":"levelo://app?vid=063b5c4d-768c-4308-b156-b338a7dee809","ios":"levelo://app?vid=063b5c4d-768c-4308-b156-b338a7dee809"},"vehicle_type_id":"4","last_reported":1762777300,"current_range_meters":5600,"station_id":"ce4bh0p2rcd13ifvqd80","pricing_plan_id":"cebpf4jnsgd1na2vs0mg"},{"bike_id":"f54226f2-35a4-4d16-8345-0a2c61158bca","system_id":"levelo_inurba_marseille","lat":43.30928,"lon":5.4014,"is_reserved":false,"is_disabled":false,"rental_uris":{"android":"levelo://app?vid=f54226f2-35a4-4d16-8345-0a2c61158bca","ios":"levelo://app?vid=f54226f2-35a4-4d16-8345-0a2c61158bca"},"vehicle_type_id":"4","last_reported":1762777300,"current_range_meters":5600,"station_id":"ce4bgvp2rcd13ifvqct0","pricing_plan_id":"cebpf4jnsgd1na2vs0mg"},{"bike_id":"6a5cb119-1a64-415c-a949-ec0bb54d8799","system_id":"levelo_inurba_marseille","lat":43.33174,"lon":5.37675,"is_reserved":false,"is_disabled":false,"rental_uris":{"android":"levelo://app?vid=6a5cb119-1a64-415c-a949-ec0bb54d8799","ios":"levelo://app?vid=6a5cb119-1a64-415c-a949-ec0bb54d8799"},"vehicle_type_id":"4","last_reported":1762777300,"current_range_meters":5600,"station_id":"st_d46cu089ee8s73dldbu0","pricing_plan_id":"cebpf4jnsgd1na2vs0mg"},{"bike_id":"825a1957-d327-49da-97b3-2485c79c40e7","system_id":"levelo_inurba_marseille","lat":43.217579,"lon":5.345929,"is_reserved":false,"is_disabled":true,"rental_uris":{"android":"levelo://app?vid=825a1957-d327-49da-97b3-2485c79c40e7","ios":"levelo://app?vid=825a1957-d327-49da-97b3-2485c79c40e7"},"vehicle_type_id":"4","last_reported":1762777300,"current_range_meters":6000,"station_id":"st_cvj6r9ubvosntc0bgbag","pricing_plan_id":"cebpf4jnsgd1na2vs0mg"},{"bike_id":"8590bb28-c98d-46fa-bfe7-5f21fe7b07cf","system_id":"levelo_inurba_marseille","lat":43.32539,"lon":5.41428,"is_reserved":false,"is_disabled":false,"rental_uris":{"android":"levelo://app?vid=8590bb28-c98d-46fa-bfe7-5f21fe7b07cf","ios":"levelo://app?vid=8590bb28-c98d-46fa-bfe7-5f21fe7b07cf"},"vehicle_type_id":"4","last_reported":1762777300,"current_range_meters":6400,"station_id":"ce4bhq12rcd13ifvqhhg","pricing_plan_id":"cebpf4jnsgd1na2vs0mg"},{"bike_id":"15db09df-59b0-446a-87c5-e354a3319258","system_id":"levelo_inurba_marseille","lat":43.28482,"lon":5.48393,"is_reserved":false,"is_disabled":false,"rental_uris":{"android":"levelo://app?vid=15db09df-59b0-446a-87c5-e354a3319258","ios":"levelo://app?vid=15db09df-59b0-446a-87c5-e354a3319258"},"vehicle_type_id":"4","last_reported":1762777300,"current_range_meters":6400,"station_id":"","pricing_plan_id":"cebpf4jnsgd1na2vs0mg"},{"bike_id":"a3cdde01-4b4c-430c-9ace-b9916636e8f1","system_id":"levelo_inurba_marseille","lat":43.297734,"lon":5.365565,"is_reserved":false,"is_disabled":false,"rental_uris":{"android":"levelo://app?vid=a3cdde01-4b4c-430c-9ace-b9916636e8f1","ios":"levelo://app?vid=a3cdde01-4b4c-430c-9ace-b9916636e8f1"},"vehicle_type_id":"4","last_reported":1762777300,"current_range_meters":6400,"station_id":"ce4bgm92rcd13ifvqbr0","pricing_plan_id":"cebpf4jnsgd1na2vs0mg"},{"bike_id":"6f98b7a7-ae98-40be-aded-6fe2b547bfca","system_id":"levelo_inurba_marseille","lat":43.337444,"lon":5.374475,"is_reserved":false,"is_disabled":false,"rental_uris":{"android":"levelo://app?vid=6f98b7a7-ae98-40be-aded-6fe2b547bfca","ios":"levelo://app?vid=6f98b7a7-ae98-40be-aded-6fe2b547bfca"},"vehicle_type_id":"4","last_reported":1762777300,"current_range_meters":6400,"station_id":"","pricing_plan_id":"cebpf4jnsgd1na2vs0mg"},{"bike_id":"8300c4a2-bb20-45c5-96c9-488edcbd2f7f","system_id":"levelo_inurba_marseille","lat":43.29082,"lon":5.37177,"is_reserved":false,"is_disabled":false,"rental_uris":{"android":"levelo://app?vid=8300c4a2-bb20-45c5-96c9-488edcbd2f7f","ios":"levelo://app?vid=8300c4a2-bb20-45c5-96c9-488edcbd2f7f"},"vehicle_type_id":"4","last_reported":1762777300,"current_range_meters":6400,"station_id":"ce4bh5p2rcd13ifvqe4g","pricing_plan_id":"cebpf4jnsgd1na2vs0mg"},{"bike_id":"a3394b55-6b74-404e-829d-5f9ba0bfcaba","system_id":"levelo_inurba_marseille","lat":43.30147,"lon":5.38778,"is_reserved":false,"is_disabled":false,"rental_uris":{"android":"levelo://app?vid=a3394b55-6b74-404e-829d-5f9ba0bfcaba","ios":"levelo://app?vid=a3394b55-6b74-404e-829d-5f9ba0bfcaba"},"vehicle_type_id":"4","last_reported":1762777300,"current_range_meters":6400,"station_id":"ce4bghh2rcd13ifvqb60","pricing_plan_id":"cebpf4jnsgd1na2vs0mg"},{"bike_id":"c1a8951c-0b8b-4e04-9556-ddc347871e56","system_id":"levelo_inurba_marseille","lat":43.33606,"lon":5.35448,"is_reserved":false,"is_disabled":false,"rental_uris":{"android":"levelo://app?vid=c1a8951c-0b8b-4e04-9556-ddc347871e56","ios":"levelo://app?vid=c1a8951c-0b8b-4e04-9556-ddc347871e56"},"vehicle_type_id":"4","last_reported":1762777300,"current_range_meters":6400,"station_id":"","pricing_plan_id":"cebpf4jnsgd1na2vs0mg"},{"bike_id":"682120cb-f435-4ac8-97cc-a7e9a1aac5e8","system_id":"levelo_inurba_marseille","lat":43.27054,"lon":5.42269,"is_reserved":false,"is_disabled":false,"rental_uris":{"android":"levelo://app?vid=682120cb-f435-4ac8-97cc-a7e9a1aac5e8","ios":"levelo://app?vid=682120cb-f435-4ac8-97cc-a7e9a1aac5e8"},"vehicle_type_id":"4","last_reported":1762777300,"current_range_meters":6400,"station_id":"ce4bhk92rcd13ifvqgb0","pricing_plan_id":"cebpf4jnsgd1na2vs0mg"},{"bike_id":"373362c9-fe6e-40e3-9d5c-efe24b3930d7","system_id":"levelo_inurba_marseille","lat":43.28041,"lon":5.36947,"is_reserved":false,"is_disabled":false,"rental_uris":{"android":"levelo://app?vid=373362c9-fe6e-40e3-9d5c-efe24b3930d7","ios":"levelo://app?vid=373362c9-fe6e-40e3-9d5c-efe24b3930d7"},"vehicle_type_id":"4","last_reported":1762777300,"current_range_meters":6400,"station_id":"ce4bha12rcd13ifvqef0","pricing_plan_id":"cebpf4jnsgd1na2vs0mg"},{"bike_id":"eebc9f8a-254a-4286-9970-d203c936264d","system_id":"levelo_inurba_marseille","lat":43.3163,"lon":5.37448,"is_reserved":false,"is_disabled":false,"rental_uris":{"android":"levelo://app?vid=eebc9f8a-254a-4286-9970-d203c936264d","ios":"levelo://app?vid=eebc9f8a-254a-4286-9970-d203c936264d"},"vehicle_type_id":"4","last_reported":1762777300,"current_range_meters":6400,"station_id":"","pricing_plan_id":"cebpf4jnsgd1na2vs0mg"},{"bike_id":"a468abfc-41a1-4cf8-84ac-466c31dd44ec","system_id":"levelo_inurba_marseille","lat":43.26805,"lon":5.39023,"is_reserved":false,"is_disabled":false,"rental_uris":{"android":"levelo://app?vid=a468abfc-41a1-4cf8-84ac-466c31dd44ec","ios":"levelo://app?vid=a468abfc-41a1-4cf8-84ac-466c31dd44ec"},"vehicle_type_id":"4","last_reported":1762777300,"current_range_meters":6800,"station_id":"","pricing_plan_id":"cebpf4jnsgd1na2vs0mg"},{"bike_id":"0ecffcc4-fa9e-4309-98ac-5768d9adcb4a","system_id":"levelo_inurba_marseille","lat":43.295362,"lon":5.390795,"is_reserved":false,"is_disabled":false,"rental_uris":{"android":"levelo://app?vid=0ecffcc4-fa9e-4309-98ac-5768d9adcb4a","ios":"levelo://app?vid=0ecffcc4-fa9e-4309-98ac-5768d9adcb4a"},"vehicle_type_id":"4","last_reported":1762777300,"current_range_meters":6800,"station_id":"ce4bh3p2rcd13ifvqdp0","pricing_plan_id":"cebpf4jnsgd1na2vs0mg"},{"bike_id":"e70960ae-4adf-4332-81d9-81ef88647152","system_id":"levelo_inurba_marseille","lat":43.27497,"lon":5.42452,"is_reserved":false,"is_disabled":false,"rental_uris":{"android":"levelo://app?vid=e70960ae-4adf-4332-81d9-81ef88647152","ios":"levelo://app?vid=e70960ae-4adf-4332-81d9-81ef88647152"},"vehicle_type_id":"4","last_reported":1762777300,"current_range_meters":7200,"station_id":"ce4bhn92rcd13ifvqgrg","pricing_plan_id":"cebpf4jnsgd1na2vs0mg"},{"bike_id":"a6d01109-ecb1-4bed-be75-911dd8b48d8f","system_id":"levelo_inurba_marseille","lat":43.2707,"lon":5.42288,"is_reserved":false,"is_disabled":false,"rental_uris":{"android":"levelo://app?vid=a6d01109-ecb1-4bed-be75-911dd8b48d8f","ios":"levelo://app?vid=a6d01109-ecb1-4bed-be75-911dd8b48d8f"},"vehicle_type_id":"4","last_reported":1762777300,"current_range_meters":7200,"station_id":"ce4bhk92rcd13ifvqgb0","pricing_plan_id":"cebpf4jnsgd1na2vs0mg"},{"bike_id":"718ce4ab-d3a0-4ea2-b0b3-1e8fb8f5b58a","system_id":"levelo_inurba_marseille","lat":43.23148,"lon":5.43709,"is_reserved":false,"is_disabled":false,"rental_uris":{"android":"levelo://app?vid=718ce4ab-d3a0-4ea2-b0b3-1e8fb8f5b58a","ios":"levelo://app?vid=718ce4ab-d3a0-4ea2-b0b3-1e8fb8f5b58a"},"vehicle_type_id":"4","last_reported":1762777300,"current_range_meters":7200,"station_id":"ce4bhmp2rcd13ifvqgog","pricing_plan_id":"cebpf4jnsgd1na2vs0mg"},{"bike_id":"f67f33ef-23fe-4ff5-8a43-7b241a0de7da","system_id":"levelo_inurba_marseille","lat":43.32098,"lon":5.36758,"is_reserved":false,"is_disabled":false,"rental_uris":{"android":"levelo://app?vid=f67f33ef-23fe-4ff5-8a43-7b241a0de7da","ios":"levelo://app?vid=f67f33ef-23fe-4ff5-8a43-7b241a0de7da"},"vehicle_type_id":"4","last_reported":1762777300,"current_range_meters":8000,"station_id":"ce4bhrh2rcd13ifvqhug","pricing_plan_id":"cebpf4jnsgd1na2vs0mg"},{"bike_id":"d29b76ac-4af8-4118-b4fc-950fb27eddb7","system_id":"levelo_inurba_marseille","lat":43.28227,"lon":5.39075,"is_reserved":false,"is_disabled":false,"rental_uris":{"android":"levelo://app?vid=d29b76ac-4af8-4118-b4fc-950fb27eddb7","ios":"levelo://app?vid=d29b76ac-4af8-4118-b4fc-950fb27eddb7"},"vehicle_type_id":"4","last_reported":1762777300,"current_range_meters":8000,"station_id":"ce4bhn92rcd13ifvqgsg","pricing_plan_id":"cebpf4jnsgd1na2vs0mg"},{"bike_id":"0048371b-78b8-4e41-b20f-3db69368ec80","system_id":"levelo_inurba_marseille","lat":43.28406,"lon":5.37536,"is_reserved":false,"is_disabled":true,"rental_uris":{"android":"levelo://app?vid=0048371b-78b8-4e41-b20f-3db69368ec80","ios":"levelo://app?vid=0048371b-78b8-4e41-b20f-3db69368ec80"},"vehicle_type_id":"4","last_reported":1762777300,"current_range_meters":8400,"station_id":"ce4bh412rcd13ifvqds0","pricing_plan_id":"cebpf4jnsgd1na2vs0mg"},{"bike_id":"bcb7664a-39c2-46f8-930f-41cebd3d0b86","system_id":"levelo_inurba_marseille","lat":43.211974,"lon":5.350731,"is_reserved":false,"is_disabled":true,"rental_uris":{"android":"levelo://app?vid=bcb7664a-39c2-46f8-930f-41cebd3d0b86","ios":"levelo://app?vid=bcb7664a-39c2-46f8-930f-41cebd3d0b86"},"vehicle_type_id":"4","last_reported":1762777300,"current_range_meters":8400,"station_id":"st_cvj6sg6p6f1abm77japg","pricing_plan_id":"cebpf4jnsgd1na2vs0mg"},{"bike_id":"2b5960f2-21e0-4876-8b03-22f9ab7f2c95","system_id":"levelo_inurba_marseille","lat":43.2956,"lon":5.37531,"is_reserved":false,"is_disabled":false,"rental_uris":{"android":"levelo://app?vid=2b5960f2-21e0-4876-8b03-22f9ab7f2c95","ios":"levelo://app?vid=2b5960f2-21e0-4876-8b03-22f9ab7f2c95"},"vehicle_type_id":"4","last_reported":1762777300,"current_range_meters":8400,"station_id":"ce4bgh92rcd13ifvqb50","pricing_plan_id":"cebpf4jnsgd1na2vs0mg"},{"bike_id":"ded5df94-2796-450f-9867-2e53d2099d52","system_id":"levelo_inurba_marseille","lat":43.24066,"lon":5.37769,"is_reserved":false,"is_disabled":false,"rental_uris":{"android":"levelo://app?vid=ded5df94-2796-450f-9867-2e53d2099d52","ios":"levelo://app?vid=ded5df94-2796-450f-9867-2e53d2099d52"},"vehicle_type_id":"4","last_reported":1762777300,"current_range_meters":8400,"station_id":"ce4bhnp2rcd13ifvqgvg","pricing_plan_id":"cebpf4jnsgd1na2vs0mg"},{"bike_id":"5997c6b0-b0f4-4848-a8f1-63ca201df211","system_id":"levelo_inurba_marseille","lat":43.33939,"lon":5.41505,"is_reserved":false,"is_disabled":false,"rental_uris":{"android":"levelo://app?vid=5997c6b0-b0f4-4848-a8f1-63ca201df211","ios":"levelo://app?vid=5997c6b0-b0f4-4848-a8f1-63ca201df211"},"vehicle_type_id":"4","last_reported":1762777300,"current_range_meters":8400,"station_id":"","pricing_plan_id":"cebpf4jnsgd1na2vs0mg"},{"bike_id":"3d4dc78c-f9dd-4c1c-851e-2fdb77100035","system_id":"levelo_inurba_marseille","lat":43.24391,"lon":5.370683,"is_reserved":false,"is_disabled":false,"rental_uris":{"android":"levelo://app?vid=3d4dc78c-f9dd-4c1c-851e-2fdb77100035","ios":"levelo://app?vid=3d4dc78c-f9dd-4c1c-851e-2fdb77100035"},"vehicle_type_id":"4","last_reported":1762777300,"current_range_meters":8800,"station_id":"","pricing_plan_id":"cebpf4jnsgd1na2vs0mg"},{"bike_id":"2dacca2f-37a5-4d0a-a38d-2e7687e16aae","system_id":"levelo_inurba_marseille","lat":43.279012,"lon":5.380127,"is_reserved":false,"is_disabled":false,"rental_uris":{"android":"levelo://app?vid=2dacca2f-37a5-4d0a-a38d-2e7687e16aae","ios":"levelo://app?vid=2dacca2f-37a5-4d0a-a38d-2e7687e16aae"},"vehicle_type_id":"4","last_reported":1762777300,"current_range_meters":8800,"station_id":"ce4bhf92rcd13ifvqf50","pricing_plan_id":"cebpf4jnsgd1na2vs0mg"},{"bike_id":"e5483597-d10d-4437-ba0c-12982f3a50a6","system_id":"levelo_inurba_marseille","lat":43.26571,"lon":5.39005,"is_reserved":false,"is_disabled":false,"rental_uris":{"android":"levelo://app?vid=e5483597-d10d-4437-ba0c-12982f3a50a6","ios":"levelo://app?vid=e5483597-d10d-4437-ba0c-12982f3a50a6"},"vehicle_type_id":"4","last_reported":1762777300,"current_range_meters":9200,"station_id":"ce4bhe12rcd13ifvqf30","pricing_plan_id":"cebpf4jnsgd1na2vs0mg"},{"bike_id":"9935da0e-856c-4223-b424-ab7ba1aeadfb","system_id":"levelo_inurba_marseille","lat":43.25512,"lon":5.37605,"is_reserved":false,"is_disabled":false,"rental_uris":{"android":"levelo://app?vid=9935da0e-856c-4223-b424-ab7ba1aeadfb","ios":"levelo://app?vid=9935da0e-856c-4223-b424-ab7ba1aeadfb"},"vehicle_type_id":"4","last_reported":1762777300,"current_range_meters":9200,"station_id":"ce4bhh12rcd13ifvqff0","pricing_plan_id":"cebpf4jnsgd1na2vs0mg"},{"bike_id":"4eac3eb9-9ac1-4ff6-ad57-ed359befeed2","system_id":"levelo_inurba_marseille","lat":43.22858,"lon":5.40271,"is_reserved":false,"is_disabled":false,"rental_uris":{"android":"levelo://app?vid=4eac3eb9-9ac1-4ff6-ad57-ed359befeed2","ios":"levelo://app?vid=4eac3eb9-9ac1-4ff6-ad57-ed359befeed2"},"vehicle_type_id":"4","last_reported":1762777300,"current_range_meters":9200,"station_id":"","pricing_plan_id":"cebpf4jnsgd1na2vs0mg"},{"bike_id":"139582c3-162b-4149-bf33-8a384a08b135","system_id":"levelo_inurba_marseille","lat":43.28158,"lon":5.42642,"is_reserved":false,"is_disabled":false,"rental_uris":{"android":"levelo://app?vid=139582c3-162b-4149-bf33-8a384a08b135","ios":"levelo://app?vid=139582c3-162b-4149-bf33-8a384a08b135"},"vehicle_type_id":"4","last_reported":1762777300,"current_range_meters":9200,"station_id":"ce4bhnh2rcd13ifvqgug","pricing_plan_id":"cebpf4jnsgd1na2vs0mg"},{"bike_id":"a71871fb-5c9d-4f09-9d89-3c8ba06ee97d","system_id":"levelo_inurba_marseille","lat":43.22571,"lon":5.4163,"is_reserved":false,"is_disabled":false,"rental_uris":{"android":"levelo://app?vid=a71871fb-5c9d-4f09-9d89-3c8ba06ee97d","ios":"levelo://app?vid=a71871fb-5c9d-4f09-9d89-3c8ba06ee97d"},"vehicle_type_id":"4","last_reported":1762777300,"current_range_meters":9600,"station_id":"st_d2o4gvlbi1j2169b742g","pricing_plan_id":"cebpf4jnsgd1na2vs0mg"},{"bike_id":"5c97a922-318a-423d-a9af-d7eec177722f","system_id":"levelo_inurba_marseille","lat":43.28269,"lon":5.35061,"is_reserved":false,"is_disabled":false,"rental_uris":{"android":"levelo://app?vid=5c97a922-318a-423d-a9af-d7eec177722f","ios":"levelo://app?vid=5c97a922-318a-423d-a9af-d7eec177722f"},"vehicle_type_id":"4","last_reported":1762777300,"current_range_meters":9600,"station_id":"ce4bhbp2rcd13ifvqerg","pricing_plan_id":"cebpf4jnsgd1na2vs0mg"},{"bike_id":"64af747e-6231-468c-9834-e53fc0fc0f85","system_id":"levelo_inurba_marseille","lat":43.2971,"lon":5.36621,"is_reserved":false,"is_disabled":false,"rental_uris":{"android":"levelo://app?vid=64af747e-6231-468c-9834-e53fc0fc0f85","ios":"levelo://app?vid=64af747e-6231-468c-9834-e53fc0fc0f85"},"vehicle_type_id":"4","last_reported":1762777300,"current_range_meters":9600,"station_id":"ce4bgn12rcd13ifvqbt0","pricing_plan_id":"cebpf4jnsgd1na2vs0mg"},{"bike_id":"ef8aa5ad-c3c8-4358-a0d2-789208737336","system_id":"levelo_inurba_marseille","lat":43.23065,"lon":5.35493,"is_reserved":false,"is_disabled":false,"rental_uris":{"android":"levelo://app?vid=ef8aa5ad-c3c8-4358-a0d2-789208737336","ios":"levelo://app?vid=ef8aa5ad-c3c8-4358-a0d2-789208737336"},"vehicle_type_id":"4","last_reported":1762777300,"current_range_meters":9600,"station_id":"cpo3342slgdg3j2ifvpg","pricing_plan_id":"cebpf4jnsgd1na2vs0mg"},{"bike_id":"50da1aee-7d19-41f6-8a84-c20fda02cba2","system_id":"levelo_inurba_marseille","lat":43.27353,"lon":5.39067,"is_reserved":false,"is_disabled":false,"rental_uris":{"android":"levelo://app?vid=50da1aee-7d19-41f6-8a84-c20fda02cba2","ios":"levelo://app?vid=50da1aee-7d19-41f6-8a84-c20fda02cba2"},"vehicle_type_id":"4","last_reported":1762777300,"current_range_meters":9600,"station_id":"ce4bhgp2rcd13ifvqfe0","pricing_plan_id":"cebpf4jnsgd1na2vs0mg"},{"bike_id":"05306a6a-5ff2-4ba1-b5ab-02e68c8512a0","system_id":"levelo_inurba_marseille","lat":43.30145,"lon":5.37422,"is_reserved":false,"is_disabled":false,"rental_uris":{"android":"levelo://app?vid=05306a6a-5ff2-4ba1-b5ab-02e68c8512a0","ios":"levelo://app?vid=05306a6a-5ff2-4ba1-b5ab-02e68c8512a0"},"vehicle_type_id":"4","last_reported":1762777300,"current_range_meters":9600,"station_id":"ce4bgs92rcd13ifvqcc0","pricing_plan_id":"cebpf4jnsgd1na2vs0mg"},{"bike_id":"296b35f4-bf34-48bd-a614-0084f905815f","system_id":"levelo_inurba_marseille","lat":43.29926,"lon":5.36407,"is_reserved":false,"is_disabled":false,"rental_uris":{"android":"levelo://app?vid=296b35f4-bf34-48bd-a614-0084f905815f","ios":"levelo://app?vid=296b35f4-bf34-48bd-a614-0084f905815f"},"vehicle_type_id":"4","last_reported":1762777300,"current_range_meters":9600,"station_id":"","pricing_plan_id":"cebpf4jnsgd1na2vs0mg"},{"bike_id":"be6f8be3-415b-42fb-9747-6f90b38b30ae","system_id":"levelo_inurba_marseille","lat":43.28477,"lon":5.37427,"is_reserved":false,"is_disabled":false,"rental_uris":{"android":"levelo://app?vid=be6f8be3-415b-42fb-9747-6f90b38b30ae","ios":"levelo://app?vid=be6f8be3-415b-42fb-9747-6f90b38b30ae"},"vehicle_type_id":"4","last_reported":1762777300,"current_range_meters":10000,"station_id":"ce4bh412rcd13ifvqds0","pricing_plan_id":"cebpf4jnsgd1na2vs0mg"},{"bike_id":"d9d91017-19e5-4474-b0f8-c613656a4a3a","system_id":"levelo_inurba_marseille","lat":43.28402,"lon":5.37526,"is_reserved":false,"is_disabled":true,"rental_uris":{"android":"levelo://app?vid=d9d91017-19e5-4474-b0f8-c613656a4a3a","ios":"levelo://app?vid=d9d91017-19e5-4474-b0f8-c613656a4a3a"},"vehicle_type_id":"4","last_reported":1762777300,"current_range_meters":10000,"station_id":"ce4bh412rcd13ifvqds0","pricing_plan_id":"cebpf4jnsgd1na2vs0mg"},{"bike_id":"d32acf6f-21aa-4fbf-bed6-33d296ca0f9f","system_id":"levelo_inurba_marseille","lat":43.21742,"lon":5.34623,"is_reserved":false,"is_disabled":false,"rental_uris":{"android":"levelo://app?vid=d32acf6f-21aa-4fbf-bed6-33d296ca0f9f","ios":"levelo://app?vid=d32acf6f-21aa-4fbf-bed6-33d296ca0f9f"},"vehicle_type_id":"4","last_reported":1762777300,"current_range_meters":10000,"station_id":"st_cvj6r9ubvosntc0bgbag","pricing_plan_id":"cebpf4jnsgd1na2vs0mg"},{"bike_id":"1c68d6e6-cce0-44cb-a781-43a39a3ee70a","system_id":"levelo_inurba_marseille","lat":43.30308,"lon":5.39206,"is_reserved":false,"is_disabled":true,"rental_uris":{"android":"levelo://app?vid=1c68d6e6-cce0-44cb-a781-43a39a3ee70a","ios":"levelo://app?vid=1c68d6e6-cce0-44cb-a781-43a39a3ee70a"},"vehicle_type_id":"4","last_reported":1762777300,"current_range_meters":10000,"station_id":"ce4bgkh2rcd13ifvqbk0","pricing_plan_id":"cebpf4jnsgd1na2vs0mg"},{"bike_id":"f08621f1-92b2-4985-8a3a-96dd283a7c2b","system_id":"levelo_inurba_marseille","lat":43.31354,"lon":5.37932,"is_reserved":false,"is_disabled":false,"rental_uris":{"android":"levelo://app?vid=f08621f1-92b2-4985-8a3a-96dd283a7c2b","ios":"levelo://app?vid=f08621f1-92b2-4985-8a3a-96dd283a7c2b"},"vehicle_type_id":"4","last_reported":1762777300,"current_range_meters":10000,"station_id":"","pricing_plan_id":"cebpf4jnsgd1na2vs0mg"},{"bike_id":"264dbbfe-c3f2-4b44-985f-b2241b4b5e91","system_id":"levelo_inurba_marseille","lat":43.296283,"lon":5.405999,"is_reserved":false,"is_disabled":false,"rental_uris":{"android":"levelo://app?vid=264dbbfe-c3f2-4b44-985f-b2241b4b5e91","ios":"levelo://app?vid=264dbbfe-c3f2-4b44-985f-b2241b4b5e91"},"vehicle_type_id":"4","last_reported":1762777300,"current_range_meters":10000,"station_id":"ce4bh0h2rcd13ifvqd60","pricing_plan_id":"cebpf4jnsgd1na2vs0mg"},{"bike_id":"a6aa8af7-f996-4295-9842-50f2b8637c7f","system_id":"levelo_inurba_marseille","lat":43.31265,"lon":5.40164,"is_reserved":false,"is_disabled":false,"rental_uris":{"android":"levelo://app?vid=a6aa8af7-f996-4295-9842-50f2b8637c7f","ios":"levelo://app?vid=a6aa8af7-f996-4295-9842-50f2b8637c7f"},"vehicle_type_id":"4","last_reported":1762777300,"current_range_meters":10000,"station_id":"ce4bh092rcd13ifvqd30","pricing_plan_id":"cebpf4jnsgd1na2vs0mg"},{"bike_id":"a3daaedd-96e0-4f4b-af41-c1657d03cea9","system_id":"levelo_inurba_marseille","lat":43.319448,"lon":5.383333,"is_reserved":false,"is_disabled":false,"rental_uris":{"android":"levelo://app?vid=a3daaedd-96e0-4f4b-af41-c1657d03cea9","ios":"levelo://app?vid=a3daaedd-96e0-4f4b-af41-c1657d03cea9"},"vehicle_type_id":"4","last_reported":1762777300,"current_range_meters":10000,"station_id":"ce4bhqh2rcd13ifvqhlg","pricing_plan_id":"cebpf4jnsgd1na2vs0mg"},{"bike_id":"52386af9-2cc7-4c33-965f-b488ebcebafb","system_id":"levelo_inurba_marseille","lat":43.27984,"lon":5.41671,"is_reserved":false,"is_disabled":false,"rental_uris":{"android":"levelo://app?vid=52386af9-2cc7-4c33-965f-b488ebcebafb","ios":"levelo://app?vid=52386af9-2cc7-4c33-965f-b488ebcebafb"},"vehicle_type_id":"4","last_reported":1762777300,"current_range_meters":10800,"station_id":"ce4bho12rcd13ifvqh1g","pricing_plan_id":"cebpf4jnsgd1na2vs0mg"},{"bike_id":"d6ff7975-7447-4da7-9b44-60d27c8cbe63","system_id":"levelo_inurba_marseille","lat":43.23065,"lon":5.3549,"is_reserved":false,"is_disabled":false,"rental_uris":{"android":"levelo://app?vid=d6ff7975-7447-4da7-9b44-60d27c8cbe63","ios":"levelo://app?vid=d6ff7975-7447-4da7-9b44-60d27c8cbe63"},"vehicle_type_id":"4","last_reported":1762777300,"current_range_meters":10800,"station_id":"cpo3342slgdg3j2ifvpg","pricing_plan_id":"cebpf4jnsgd1na2vs0mg"},{"bike_id":"0da4b34b-5e0b-4000-bce1-8663e1c56c69","system_id":"levelo_inurba_marseille","lat":43.28938,"lon":5.39638,"is_reserved":false,"is_disabled":false,"rental_uris":{"android":"levelo://app?vid=0da4b34b-5e0b-4000-bce1-8663e1c56c69","ios":"levelo://app?vid=0da4b34b-5e0b-4000-bce1-8663e1c56c69"},"vehicle_type_id":"4","last_reported":1762777300,"current_range_meters":10800,"station_id":"ce4bh3h2rcd13ifvqdn0","pricing_plan_id":"cebpf4jnsgd1na2vs0mg"},{"bike_id":"b4cb9bc3-2674-422b-8c74-5594292dd02e","system_id":"levelo_inurba_marseille","lat":43.27536,"lon":5.37501,"is_reserved":false,"is_disabled":false,"rental_uris":{"android":"levelo://app?vid=b4cb9bc3-2674-422b-8c74-5594292dd02e","ios":"levelo://app?vid=b4cb9bc3-2674-422b-8c74-5594292dd02e"},"vehicle_type_id":"4","last_reported":1762777300,"current_range_meters":10800,"station_id":"","pricing_plan_id":"cebpf4jnsgd1na2vs0mg"},{"bike_id":"0cafc2f5-5224-4139-ab52-6219494704de","system_id":"levelo_inurba_marseille","lat":43.29309,"lon":5.37465,"is_reserved":false,"is_disabled":false,"rental_uris":{"android":"levelo://app?vid=0cafc2f5-5224-4139-ab52-6219494704de","ios":"levelo://app?vid=0cafc2f5-5224-4139-ab52-6219494704de"},"vehicle_type_id":"4","last_reported":1762777300,"current_range_meters":10800,"station_id":"ce4bgi12rcd13ifvqb70","pricing_plan_id":"cebpf4jnsgd1na2vs0mg"},{"bike_id":"5e7218d5-a97b-42ba-913e-b10953be11e3","system_id":"levelo_inurba_marseille","lat":43.24163,"lon":5.36397,"is_reserved":false,"is_disabled":false,"rental_uris":{"android":"levelo://app?vid=5e7218d5-a97b-42ba-913e-b10953be11e3","ios":"levelo://app?vid=5e7218d5-a97b-42ba-913e-b10953be11e3"},"vehicle_type_id":"4","last_reported":1762777300,"current_range_meters":11200,"station_id":"cpo36qri1sfpv3e86is0","pricing_plan_id":"cebpf4jnsgd1na2vs0mg"},{"bike_id":"3f229283-4156-40f5-8b33-733d496807b4","system_id":"levelo_inurba_marseille","lat":43.29282,"lon":5.37286,"is_reserved":false,"is_disabled":false,"rental_uris":{"android":"levelo://app?vid=3f229283-4156-40f5-8b33-733d496807b4","ios":"levelo://app?vid=3f229283-4156-40f5-8b33-733d496807b4"},"vehicle_type_id":"4","last_reported":1762777300,"current_range_meters":11200,"station_id":"","pricing_plan_id":"cebpf4jnsgd1na2vs0mg"},{"bike_id":"ab4ac132-5519-4aac-ac12-8b8c2929bb7e","system_id":"levelo_inurba_marseille","lat":43.32302,"lon":5.38493,"is_reserved":false,"is_disabled":false,"rental_uris":{"android":"levelo://app?vid=ab4ac132-5519-4aac-ac12-8b8c2929bb7e","ios":"levelo://app?vid=ab4ac132-5519-4aac-ac12-8b8c2929bb7e"},"vehicle_type_id":"4","last_reported":1762777300,"current_range_meters":11600,"station_id":"st_d45171o9ee8s73djdqug","pricing_plan_id":"cebpf4jnsgd1na2vs0mg"},{"bike_id":"f6b2fed1-0ca2-423d-8dec-4ae2abcb7d8f","system_id":"levelo_inurba_marseille","lat":43.30733,"lon":5.42466,"is_reserved":false,"is_disabled":false,"rental_uris":{"android":"levelo://app?vid=f6b2fed1-0ca2-423d-8dec-4ae2abcb7d8f","ios":"levelo://app?vid=f6b2fed1-0ca2-423d-8dec-4ae2abcb7d8f"},"vehicle_type_id":"4","last_reported":1762777300,"current_range_meters":11600,"station_id":"st_cvj6ca6bvosntc0bfgr0","pricing_plan_id":"cebpf4jnsgd1na2vs0mg"},{"bike_id":"7f1217a8-a360-4ad9-b150-c6e86473530a","system_id":"levelo_inurba_marseille","lat":43.29812,"lon":5.38092,"is_reserved":false,"is_disabled":false,"rental_uris":{"android":"levelo://app?vid=7f1217a8-a360-4ad9-b150-c6e86473530a","ios":"levelo://app?vid=7f1217a8-a360-4ad9-b150-c6e86473530a"},"vehicle_type_id":"4","last_reported":1762777300,"current_range_meters":11600,"station_id":"ce4bgip2rcd13ifvqbb0","pricing_plan_id":"cebpf4jnsgd1na2vs0mg"},{"bike_id":"07618fb4-fdf4-452a-a76e-4b0defae3541","system_id":"levelo_inurba_marseille","lat":43.22526,"lon":5.34836,"is_reserved":false,"is_disabled":false,"rental_uris":{"android":"levelo://app?vid=07618fb4-fdf4-452a-a76e-4b0defae3541","ios":"levelo://app?vid=07618fb4-fdf4-452a-a76e-4b0defae3541"},"vehicle_type_id":"4","last_reported":1762777300,"current_range_meters":11600,"station_id":"","pricing_plan_id":"cebpf4jnsgd1na2vs0mg"},{"bike_id":"cf41bac8-b3bf-4d78-b58b-1504370da1f3","system_id":"levelo_inurba_marseille","lat":43.2175,"lon":5.34608,"is_reserved":false,"is_disabled":false,"rental_uris":{"android":"levelo://app?vid=cf41bac8-b3bf-4d78-b58b-1504370da1f3","ios":"levelo://app?vid=cf41bac8-b3bf-4d78-b58b-1504370da1f3"},"vehicle_type_id":"4","last_reported":1762777300,"current_range_meters":11600,"station_id":"st_cvj6r9ubvosntc0bgbag","pricing_plan_id":"cebpf4jnsgd1na2vs0mg"},{"bike_id":"77dd386a-c491-4903-b512-c2486567c465","system_id":"levelo_inurba_marseille","lat":43.28929,"lon":5.36613,"is_reserved":false,"is_disabled":false,"rental_uris":{"android":"levelo://app?vid=77dd386a-c491-4903-b512-c2486567c465","ios":"levelo://app?vid=77dd386a-c491-4903-b512-c2486567c465"},"vehicle_type_id":"4","last_reported":1762777300,"current_range_meters":11600,"station_id":"ce4bhap2rcd13ifvqek0","pricing_plan_id":"cebpf4jnsgd1na2vs0mg"},{"bike_id":"78eca7af-f7b5-409e-be0a-5a5b309d3771","system_id":"levelo_inurba_marseille","lat":43.309057,"lon":5.368555,"is_reserved":false,"is_disabled":false,"rental_uris":{"android":"levelo://app?vid=78eca7af-f7b5-409e-be0a-5a5b309d3771","ios":"levelo://app?vid=78eca7af-f7b5-409e-be0a-5a5b309d3771"},"vehicle_type_id":"4","last_reported":1762777300,"current_range_meters":12000,"station_id":"ce4bgn92rcd13ifvqbvg","pricing_plan_id":"cebpf4jnsgd1na2vs0mg"},{"bike_id":"5f1479f7-0f7b-428b-8bbe-6a504ea8d3d1","system_id":"levelo_inurba_marseille","lat":43.28854,"lon":5.39309,"is_reserved":false,"is_disabled":false,"rental_uris":{"android":"levelo://app?vid=5f1479f7-0f7b-428b-8bbe-6a504ea8d3d1","ios":"levelo://app?vid=5f1479f7-0f7b-428b-8bbe-6a504ea8d3d1"},"vehicle_type_id":"4","last_reported":1762777300,"current_range_meters":12000,"station_id":"ce4bh2p2rcd13ifvqdi0","pricing_plan_id":"cebpf4jnsgd1na2vs0mg"},{"bike_id":"062032e1-fdcc-4a2c-85d8-7ca14269cc2e","system_id":"levelo_inurba_marseille","lat":43.31062,"lon":5.42446,"is_reserved":false,"is_disabled":false,"rental_uris":{"android":"levelo://app?vid=062032e1-fdcc-4a2c-85d8-7ca14269cc2e","ios":"levelo://app?vid=062032e1-fdcc-4a2c-85d8-7ca14269cc2e"},"vehicle_type_id":"4","last_reported":1762777300,"current_range_meters":12000,"station_id":"ce4bhp92rcd13ifvqhag","pricing_plan_id":"cebpf4jnsgd1na2vs0mg"},{"bike_id":"2b646297-8654-4539-9404-edb5238f787c","system_id":"levelo_inurba_marseille","lat":43.24072,"lon":5.37755,"is_reserved":false,"is_disabled":false,"rental_uris":{"android":"levelo://app?vid=2b646297-8654-4539-9404-edb5238f787c","ios":"levelo://app?vid=2b646297-8654-4539-9404-edb5238f787c"},"vehicle_type_id":"4","last_reported":1762777300,"current_range_meters":12000,"station_id":"ce4bhnp2rcd13ifvqgvg","pricing_plan_id":"cebpf4jnsgd1na2vs0mg"},{"bike_id":"816ebd29-52ac-4a77-bfed-96d72411f92e","system_id":"levelo_inurba_marseille","lat":43.29274,"lon":5.40122,"is_reserved":false,"is_disabled":false,"rental_uris":{"android":"levelo://app?vid=816ebd29-52ac-4a77-bfed-96d72411f92e","ios":"levelo://app?vid=816ebd29-52ac-4a77-bfed-96d72411f92e"},"vehicle_type_id":"4","last_reported":1762777300,"current_range_meters":12000,"station_id":"ce4bh312rcd13ifvqdk0","pricing_plan_id":"cebpf4jnsgd1na2vs0mg"},{"bike_id":"39ff6a52-7c15-4e36-9056-950efe8be9ca","system_id":"levelo_inurba_marseille","lat":43.28476,"lon":5.48396,"is_reserved":false,"is_disabled":false,"rental_uris":{"android":"levelo://app?vid=39ff6a52-7c15-4e36-9056-950efe8be9ca","ios":"levelo://app?vid=39ff6a52-7c15-4e36-9056-950efe8be9ca"},"vehicle_type_id":"4","last_reported":1762777300,"current_range_meters":12000,"station_id":"","pricing_plan_id":"cebpf4jnsgd1na2vs0mg"},{"bike_id":"24409fbb-ce76-4cae-8400-4904a85aee9b","system_id":"levelo_inurba_marseille","lat":43.24655,"lon":5.38155,"is_reserved":false,"is_disabled":false,"rental_uris":{"android":"levelo://app?vid=24409fbb-ce76-4cae-8400-4904a85aee9b","ios":"levelo://app?vid=24409fbb-ce76-4cae-8400-4904a85aee9b"},"vehicle_type_id":"4","last_reported":1762777300,"current_range_meters":12000,"station_id":"ce4bhih2rcd13ifvqfr0","pricing_plan_id":"cebpf4jnsgd1na2vs0mg"},{"bike_id":"ce9984f0-3f80-4267-bcb3-c8a7617e5786","system_id":"levelo_inurba_marseille","lat":43.24076,"lon":5.37756,"is_reserved":false,"is_disabled":false,"rental_uris":{"android":"levelo://app?vid=ce9984f0-3f80-4267-bcb3-c8a7617e5786","ios":"levelo://app?vid=ce9984f0-3f80-4267-bcb3-c8a7617e5786"},"vehicle_type_id":"4","last_reported":1762777300,"current_range_meters":12000,"station_id":"ce4bhnp2rcd13ifvqgvg","pricing_plan_id":"cebpf4jnsgd1na2vs0mg"},{"bike_id":"c34db9cf-050a-4c4b-ac45-1ad5e312cdd4","system_id":"levelo_inurba_marseille","lat":43.26558,"lon":5.40336,"is_reserved":false,"is_disabled":false,"rental_uris":{"android":"levelo://app?vid=c34db9cf-050a-4c4b-ac45-1ad5e312cdd4","ios":"levelo://app?vid=c34db9cf-050a-4c4b-ac45-1ad5e312cdd4"},"vehicle_type_id":"4","last_reported":1762777300,"current_range_meters":12400,"station_id":"ce4bhmp2rcd13ifvqgng","pricing_plan_id":"cebpf4jnsgd1na2vs0mg"},{"bike_id":"96807a8e-1b45-4a36-b7ed-92091f4bcaf6","system_id":"levelo_inurba_marseille","lat":43.309306,"lon":5.401424,"is_reserved":false,"is_disabled":false,"rental_uris":{"android":"levelo://app?vid=96807a8e-1b45-4a36-b7ed-92091f4bcaf6","ios":"levelo://app?vid=96807a8e-1b45-4a36-b7ed-92091f4bcaf6"},"vehicle_type_id":"4","last_reported":1762777300,"current_range_meters":12400,"station_id":"","pricing_plan_id":"cebpf4jnsgd1na2vs0mg"},{"bike_id":"262d8714-e635-4e7a-9812-f794e7130aaf","system_id":"levelo_inurba_marseille","lat":43.24652,"lon":5.38888,"is_reserved":false,"is_disabled":false,"rental_uris":{"android":"levelo://app?vid=262d8714-e635-4e7a-9812-f794e7130aaf","ios":"levelo://app?vid=262d8714-e635-4e7a-9812-f794e7130aaf"},"vehicle_type_id":"4","last_reported":1762777300,"current_range_meters":12400,"station_id":"ce4bhg12rcd13ifvqf60","pricing_plan_id":"cebpf4jnsgd1na2vs0mg"},{"bike_id":"0efa6a67-541b-4809-bf8c-77fc72b7a54a","system_id":"levelo_inurba_marseille","lat":43.30582,"lon":5.39344,"is_reserved":false,"is_disabled":false,"rental_uris":{"android":"levelo://app?vid=0efa6a67-541b-4809-bf8c-77fc72b7a54a","ios":"levelo://app?vid=0efa6a67-541b-4809-bf8c-77fc72b7a54a"},"vehicle_type_id":"4","last_reported":1762777300,"current_range_meters":12400,"station_id":"ce4bh0p2rcd13ifvqd80","pricing_plan_id":"cebpf4jnsgd1na2vs0mg"},{"bike_id":"4ec3f419-cbd7-4847-b143-249c507d1684","system_id":"levelo_inurba_marseille","lat":43.231591,"lon":5.437586,"is_reserved":false,"is_disabled":false,"rental_uris":{"android":"levelo://app?vid=4ec3f419-cbd7-4847-b143-249c507d1684","ios":"levelo://app?vid=4ec3f419-cbd7-4847-b143-249c507d1684"},"vehicle_type_id":"4","last_reported":1762777300,"current_range_meters":12400,"station_id":"ce4bhmp2rcd13ifvqgog","pricing_plan_id":"cebpf4jnsgd1na2vs0mg"},{"bike_id":"6ac4027e-e104-4653-aff1-b787c24c7ca1","system_id":"levelo_inurba_marseille","lat":43.28149,"lon":5.42642,"is_reserved":false,"is_disabled":false,"rental_uris":{"android":"levelo://app?vid=6ac4027e-e104-4653-aff1-b787c24c7ca1","ios":"levelo://app?vid=6ac4027e-e104-4653-aff1-b787c24c7ca1"},"vehicle_type_id":"4","last_reported":1762777300,"current_range_meters":12400,"station_id":"ce4bhnh2rcd13ifvqgug","pricing_plan_id":"cebpf4jnsgd1na2vs0mg"},{"bike_id":"8d9431f8-80ba-48bc-914d-87851dd2de94","system_id":"levelo_inurba_marseille","lat":43.25925,"lon":5.4091,"is_reserved":false,"is_disabled":false,"rental_uris":{"android":"levelo://app?vid=8d9431f8-80ba-48bc-914d-87851dd2de94","ios":"levelo://app?vid=8d9431f8-80ba-48bc-914d-87851dd2de94"},"vehicle_type_id":"4","last_reported":1762777300,"current_range_meters":12400,"station_id":"ce4bhm92rcd13ifvqglg","pricing_plan_id":"cebpf4jnsgd1na2vs0mg"},{"bike_id":"46748178-17b8-4dc8-80b3-39159ff743e0","system_id":"levelo_inurba_marseille","lat":43.30042,"lon":5.383309,"is_reserved":false,"is_disabled":false,"rental_uris":{"android":"levelo://app?vid=46748178-17b8-4dc8-80b3-39159ff743e0","ios":"levelo://app?vid=46748178-17b8-4dc8-80b3-39159ff743e0"},"vehicle_type_id":"4","last_reported":1762777300,"current_range_meters":12400,"station_id":"","pricing_plan_id":"cebpf4jnsgd1na2vs0mg"},{"bike_id":"f14d005e-ec2a-40e8-a5b6-f9ba55648bdf","system_id":"levelo_inurba_marseille","lat":43.246315,"lon":5.431503,"is_reserved":false,"is_disabled":false,"rental_uris":{"android":"levelo://app?vid=f14d005e-ec2a-40e8-a5b6-f9ba55648bdf","ios":"levelo://app?vid=f14d005e-ec2a-40e8-a5b6-f9ba55648bdf"},"vehicle_type_id":"4","last_reported":1762777300,"current_range_meters":12400,"station_id":"st_d2m6c4gdas8pm72e190g","pricing_plan_id":"cebpf4jnsgd1na2vs0mg"},{"bike_id":"7b62917f-d839-48b7-b338-7944de430f3e","system_id":"levelo_inurba_marseille","lat":43.284721,"lon":5.384179,"is_reserved":false,"is_disabled":false,"rental_uris":{"android":"levelo://app?vid=7b62917f-d839-48b7-b338-7944de430f3e","ios":"levelo://app?vid=7b62917f-d839-48b7-b338-7944de430f3e"},"vehicle_type_id":"4","last_reported":1762777300,"current_range_meters":12400,"station_id":"ce4bh512rcd13ifvqe3g","pricing_plan_id":"cebpf4jnsgd1na2vs0mg"},{"bike_id":"e17839a3-96d6-489d-881e-36b6da5aeb29","system_id":"levelo_inurba_marseille","lat":43.28595,"lon":5.37065,"is_reserved":false,"is_disabled":false,"rental_uris":{"android":"levelo://app?vid=e17839a3-96d6-489d-881e-36b6da5aeb29","ios":"levelo://app?vid=e17839a3-96d6-489d-881e-36b6da5aeb29"},"vehicle_type_id":"4","last_reported":1762777300,"current_range_meters":12400,"station_id":"ce4bht12rcd13ifvqi60","pricing_plan_id":"cebpf4jnsgd1na2vs0mg"},{"bike_id":"f1efba79-7e45-4cf9-a1b0-83962aa3a77b","system_id":"levelo_inurba_marseille","lat":43.28033,"lon":5.3694,"is_reserved":false,"is_disabled":false,"rental_uris":{"android":"levelo://app?vid=f1efba79-7e45-4cf9-a1b0-83962aa3a77b","ios":"levelo://app?vid=f1efba79-7e45-4cf9-a1b0-83962aa3a77b"},"vehicle_type_id":"4","last_reported":1762777300,"current_range_meters":12400,"station_id":"ce4bha12rcd13ifvqef0","pricing_plan_id":"cebpf4jnsgd1na2vs0mg"},{"bike_id":"ac8a8750-1d87-4cf8-9c77-e78b99da5512","system_id":"levelo_inurba_marseille","lat":43.23605,"lon":5.361713,"is_reserved":false,"is_disabled":false,"rental_uris":{"android":"levelo://app?vid=ac8a8750-1d87-4cf8-9c77-e78b99da5512","ios":"levelo://app?vid=ac8a8750-1d87-4cf8-9c77-e78b99da5512"},"vehicle_type_id":"4","last_reported":1762777300,"current_range_meters":12800,"station_id":"","pricing_plan_id":"cebpf4jnsgd1na2vs0mg"},{"bike_id":"a5900daf-9efb-466b-a31b-67823e4c23cf","system_id":"levelo_inurba_marseille","lat":43.301086,"lon":5.380663,"is_reserved":false,"is_disabled":false,"rental_uris":{"android":"levelo://app?vid=a5900daf-9efb-466b-a31b-67823e4c23cf","ios":"levelo://app?vid=a5900daf-9efb-466b-a31b-67823e4c23cf"},"vehicle_type_id":"4","last_reported":1762777300,"current_range_meters":12800,"station_id":"ce4bgjp2rcd13ifvqbh0","pricing_plan_id":"cebpf4jnsgd1na2vs0mg"},{"bike_id":"896a0fc4-e98e-425f-b646-7db4d5ace172","system_id":"levelo_inurba_marseille","lat":43.3199,"lon":5.38155,"is_reserved":false,"is_disabled":false,"rental_uris":{"android":"levelo://app?vid=896a0fc4-e98e-425f-b646-7db4d5ace172","ios":"levelo://app?vid=896a0fc4-e98e-425f-b646-7db4d5ace172"},"vehicle_type_id":"4","last_reported":1762777300,"current_range_meters":12800,"station_id":"ce4bhr12rcd13ifvqhpg","pricing_plan_id":"cebpf4jnsgd1na2vs0mg"},{"bike_id":"3fe8dc5d-c387-4f1a-9c4c-484bc8924e3c","system_id":"levelo_inurba_marseille","lat":43.26251,"lon":5.40414,"is_reserved":false,"is_disabled":false,"rental_uris":{"android":"levelo://app?vid=3fe8dc5d-c387-4f1a-9c4c-484bc8924e3c","ios":"levelo://app?vid=3fe8dc5d-c387-4f1a-9c4c-484bc8924e3c"},"vehicle_type_id":"4","last_reported":1762777300,"current_range_meters":12800,"station_id":"ce4bhmh2rcd13ifvqgmg","pricing_plan_id":"cebpf4jnsgd1na2vs0mg"},{"bike_id":"24de70df-9b80-4721-8771-f61cb7be1ef9","system_id":"levelo_inurba_marseille","lat":43.3192,"lon":5.38126,"is_reserved":false,"is_disabled":false,"rental_uris":{"android":"levelo://app?vid=24de70df-9b80-4721-8771-f61cb7be1ef9","ios":"levelo://app?vid=24de70df-9b80-4721-8771-f61cb7be1ef9"},"vehicle_type_id":"4","last_reported":1762777300,"current_range_meters":12800,"station_id":"","pricing_plan_id":"cebpf4jnsgd1na2vs0mg"},{"bike_id":"ee676784-715b-4226-9bd3-48c659f578c3","system_id":"levelo_inurba_marseille","lat":43.27496,"lon":5.42455,"is_reserved":false,"is_disabled":false,"rental_uris":{"android":"levelo://app?vid=ee676784-715b-4226-9bd3-48c659f578c3","ios":"levelo://app?vid=ee676784-715b-4226-9bd3-48c659f578c3"},"vehicle_type_id":"4","last_reported":1762777300,"current_range_meters":12800,"station_id":"ce4bhn92rcd13ifvqgrg","pricing_plan_id":"cebpf4jnsgd1na2vs0mg"},{"bike_id":"2c04d64a-e2ac-4a6b-be3b-ee84d52689f8","system_id":"levelo_inurba_marseille","lat":43.30443,"lon":5.38889,"is_reserved":false,"is_disabled":false,"rental_uris":{"android":"levelo://app?vid=2c04d64a-e2ac-4a6b-be3b-ee84d52689f8","ios":"levelo://app?vid=2c04d64a-e2ac-4a6b-be3b-ee84d52689f8"},"vehicle_type_id":"4","last_reported":1762777300,"current_range_meters":12800,"station_id":"ce4bgk12rcd13ifvqbi0","pricing_plan_id":"cebpf4jnsgd1na2vs0mg"},{"bike_id":"0f4f6d58-47b7-4e12-865b-8802e8d41703","system_id":"levelo_inurba_marseille","lat":43.23154,"lon":5.43723,"is_reserved":false,"is_disabled":false,"rental_uris":{"android":"levelo://app?vid=0f4f6d58-47b7-4e12-865b-8802e8d41703","ios":"levelo://app?vid=0f4f6d58-47b7-4e12-865b-8802e8d41703"},"vehicle_type_id":"4","last_reported":1762777300,"current_range_meters":12800,"station_id":"ce4bhmp2rcd13ifvqgog","pricing_plan_id":"cebpf4jnsgd1na2vs0mg"},{"bike_id":"c0ffbc1e-0821-4ee5-b69f-f720b21c5249","system_id":"levelo_inurba_marseille","lat":43.29917,"lon":5.37477,"is_reserved":false,"is_disabled":false,"rental_uris":{"android":"levelo://app?vid=c0ffbc1e-0821-4ee5-b69f-f720b21c5249","ios":"levelo://app?vid=c0ffbc1e-0821-4ee5-b69f-f720b21c5249"},"vehicle_type_id":"4","last_reported":1762777300,"current_range_meters":12800,"station_id":"ce4bgjh2rcd13ifvqbg0","pricing_plan_id":"cebpf4jnsgd1na2vs0mg"},{"bike_id":"93b49ebf-d9fa-49cd-9da3-22e867a810f3","system_id":"levelo_inurba_marseille","lat":43.297513,"lon":5.411087,"is_reserved":false,"is_disabled":false,"rental_uris":{"android":"levelo://app?vid=93b49ebf-d9fa-49cd-9da3-22e867a810f3","ios":"levelo://app?vid=93b49ebf-d9fa-49cd-9da3-22e867a810f3"},"vehicle_type_id":"4","last_reported":1762777300,"current_range_meters":12800,"station_id":"","pricing_plan_id":"cebpf4jnsgd1na2vs0mg"},{"bike_id":"9a225ac1-66dc-474b-b0a4-3acc7c64976a","system_id":"levelo_inurba_marseille","lat":43.30952,"lon":5.39025,"is_reserved":false,"is_disabled":false,"rental_uris":{"android":"levelo://app?vid=9a225ac1-66dc-474b-b0a4-3acc7c64976a","ios":"levelo://app?vid=9a225ac1-66dc-474b-b0a4-3acc7c64976a"},"vehicle_type_id":"4","last_reported":1762777300,"current_range_meters":12800,"station_id":"ce4bgup2rcd13ifvqco0","pricing_plan_id":"cebpf4jnsgd1na2vs0mg"},{"bike_id":"5e46ae76-c33a-4e69-82c3-ba8677ab5bec","system_id":"levelo_inurba_marseille","lat":43.26549,"lon":5.37289,"is_reserved":false,"is_disabled":false,"rental_uris":{"android":"levelo://app?vid=5e46ae76-c33a-4e69-82c3-ba8677ab5bec","ios":"levelo://app?vid=5e46ae76-c33a-4e69-82c3-ba8677ab5bec"},"vehicle_type_id":"4","last_reported":1762777300,"current_range_meters":12800,"station_id":"ce4bhg12rcd13ifvqf70","pricing_plan_id":"cebpf4jnsgd1na2vs0mg"},{"bike_id":"2d003246-289e-4235-87e3-d86a55465f5e","system_id":"levelo_inurba_marseille","lat":43.29892,"lon":5.37537,"is_reserved":false,"is_disabled":false,"rental_uris":{"android":"levelo://app?vid=2d003246-289e-4235-87e3-d86a55465f5e","ios":"levelo://app?vid=2d003246-289e-4235-87e3-d86a55465f5e"},"vehicle_type_id":"4","last_reported":1762777300,"current_range_meters":13600,"station_id":"","pricing_plan_id":"cebpf4jnsgd1na2vs0mg"},{"bike_id":"29957527-d4ee-49a7-b561-7e1ae2c0cee5","system_id":"levelo_inurba_marseille","lat":43.29755,"lon":5.42787,"is_reserved":false,"is_disabled":false,"rental_uris":{"android":"levelo://app?vid=29957527-d4ee-49a7-b561-7e1ae2c0cee5","ios":"levelo://app?vid=29957527-d4ee-49a7-b561-7e1ae2c0cee5"},"vehicle_type_id":"4","last_reported":1762777300,"current_range_meters":13600,"station_id":"st_d3md5207bmas73dh9klg","pricing_plan_id":"cebpf4jnsgd1na2vs0mg"},{"bike_id":"d331b58f-0754-4181-93f7-d4d5e2f8b496","system_id":"levelo_inurba_marseille","lat":43.225347,"lon":5.348291,"is_reserved":false,"is_disabled":false,"rental_uris":{"android":"levelo://app?vid=d331b58f-0754-4181-93f7-d4d5e2f8b496","ios":"levelo://app?vid=d331b58f-0754-4181-93f7-d4d5e2f8b496"},"vehicle_type_id":"4","last_reported":1762777300,"current_range_meters":13600,"station_id":"","pricing_plan_id":"cebpf4jnsgd1na2vs0mg"},{"bike_id":"ae74c969-5367-45a8-bef7-d2869dfbce21","system_id":"levelo_inurba_marseille","lat":43.21738,"lon":5.34607,"is_reserved":false,"is_disabled":false,"rental_uris":{"android":"levelo://app?vid=ae74c969-5367-45a8-bef7-d2869dfbce21","ios":"levelo://app?vid=ae74c969-5367-45a8-bef7-d2869dfbce21"},"vehicle_type_id":"4","last_reported":1762777300,"current_range_meters":13600,"station_id":"st_cvj6r9ubvosntc0bgbag","pricing_plan_id":"cebpf4jnsgd1na2vs0mg"},{"bike_id":"49e67d52-69a9-4c17-bc0f-96bfe3ce415e","system_id":"levelo_inurba_marseille","lat":43.23146,"lon":5.43713,"is_reserved":false,"is_disabled":false,"rental_uris":{"android":"levelo://app?vid=49e67d52-69a9-4c17-bc0f-96bfe3ce415e","ios":"levelo://app?vid=49e67d52-69a9-4c17-bc0f-96bfe3ce415e"},"vehicle_type_id":"4","last_reported":1762777300,"current_range_meters":14000,"station_id":"ce4bhmp2rcd13ifvqgog","pricing_plan_id":"cebpf4jnsgd1na2vs0mg"},{"bike_id":"5e6bc625-50e1-4e62-a767-fc749456a9ff","system_id":"levelo_inurba_marseille","lat":43.301511,"lon":5.38106,"is_reserved":false,"is_disabled":false,"rental_uris":{"android":"levelo://app?vid=5e6bc625-50e1-4e62-a767-fc749456a9ff","ios":"levelo://app?vid=5e6bc625-50e1-4e62-a767-fc749456a9ff"},"vehicle_type_id":"4","last_reported":1762777300,"current_range_meters":14000,"station_id":"ce4bgjp2rcd13ifvqbh0","pricing_plan_id":"cebpf4jnsgd1na2vs0mg"},{"bike_id":"a7780511-a73d-4723-8fa7-78c2844d91ab","system_id":"levelo_inurba_marseille","lat":43.307369,"lon":5.372773,"is_reserved":false,"is_disabled":false,"rental_uris":{"android":"levelo://app?vid=a7780511-a73d-4723-8fa7-78c2844d91ab","ios":"levelo://app?vid=a7780511-a73d-4723-8fa7-78c2844d91ab"},"vehicle_type_id":"4","last_reported":1762777300,"current_range_meters":14000,"station_id":"ce4bguh2rcd13ifvqckg","pricing_plan_id":"cebpf4jnsgd1na2vs0mg"},{"bike_id":"3801f78c-6f24-4c0c-b231-07d479d348fc","system_id":"levelo_inurba_marseille","lat":43.24064,"lon":5.37783,"is_reserved":false,"is_disabled":false,"rental_uris":{"android":"levelo://app?vid=3801f78c-6f24-4c0c-b231-07d479d348fc","ios":"levelo://app?vid=3801f78c-6f24-4c0c-b231-07d479d348fc"},"vehicle_type_id":"4","last_reported":1762777300,"current_range_meters":14000,"station_id":"ce4bhnp2rcd13ifvqgvg","pricing_plan_id":"cebpf4jnsgd1na2vs0mg"},{"bike_id":"ffe050e8-e964-43f0-affe-fdb013a22c0b","system_id":"levelo_inurba_marseille","lat":43.337444,"lon":5.374475,"is_reserved":false,"is_disabled":false,"rental_uris":{"android":"levelo://app?vid=ffe050e8-e964-43f0-affe-fdb013a22c0b","ios":"levelo://app?vid=ffe050e8-e964-43f0-affe-fdb013a22c0b"},"vehicle_type_id":"4","last_reported":1762777300,"current_range_meters":14000,"station_id":"","pricing_plan_id":"cebpf4jnsgd1na2vs0mg"},{"bike_id":"0ad3bcf5-9d1b-49a5-a068-ac13fe6bb190","system_id":"levelo_inurba_marseille","lat":43.24077,"lon":5.37756,"is_reserved":false,"is_disabled":false,"rental_uris":{"android":"levelo://app?vid=0ad3bcf5-9d1b-49a5-a068-ac13fe6bb190","ios":"levelo://app?vid=0ad3bcf5-9d1b-49a5-a068-ac13fe6bb190"},"vehicle_type_id":"4","last_reported":1762777300,"current_range_meters":14000,"station_id":"ce4bhnp2rcd13ifvqgvg","pricing_plan_id":"cebpf4jnsgd1na2vs0mg"},{"bike_id":"d0e8a539-4fef-4e10-a83b-08ff6d32d701","system_id":"levelo_inurba_marseille","lat":43.30435,"lon":5.38896,"is_reserved":false,"is_disabled":false,"rental_uris":{"android":"levelo://app?vid=d0e8a539-4fef-4e10-a83b-08ff6d32d701","ios":"levelo://app?vid=d0e8a539-4fef-4e10-a83b-08ff6d32d701"},"vehicle_type_id":"4","last_reported":1762777300,"current_range_meters":14400,"station_id":"ce4bgk12rcd13ifvqbi0","pricing_plan_id":"cebpf4jnsgd1na2vs0mg"},{"bike_id":"f7f8c5ec-3459-4e53-b264-869ca4568d1a","system_id":"levelo_inurba_marseille","lat":43.30917,"lon":5.3685,"is_reserved":false,"is_disabled":false,"rental_uris":{"android":"levelo://app?vid=f7f8c5ec-3459-4e53-b264-869ca4568d1a","ios":"levelo://app?vid=f7f8c5ec-3459-4e53-b264-869ca4568d1a"},"vehicle_type_id":"4","last_reported":1762777300,"current_range_meters":14400,"station_id":"ce4bgn92rcd13ifvqbvg","pricing_plan_id":"cebpf4jnsgd1na2vs0mg"},{"bike_id":"d6b75172-a54d-43ca-b697-6718fd745d98","system_id":"levelo_inurba_marseille","lat":43.21192,"lon":5.35079,"is_reserved":false,"is_disabled":false,"rental_uris":{"android":"levelo://app?vid=d6b75172-a54d-43ca-b697-6718fd745d98","ios":"levelo://app?vid=d6b75172-a54d-43ca-b697-6718fd745d98"},"vehicle_type_id":"4","last_reported":1762777300,"current_range_meters":14400,"station_id":"st_cvj6sg6p6f1abm77japg","pricing_plan_id":"cebpf4jnsgd1na2vs0mg"},{"bike_id":"fc0cf699-a697-4e1c-8936-adc962a8287e","system_id":"levelo_inurba_marseille","lat":43.23193,"lon":5.35549,"is_reserved":false,"is_disabled":false,"rental_uris":{"android":"levelo://app?vid=fc0cf699-a697-4e1c-8936-adc962a8287e","ios":"levelo://app?vid=fc0cf699-a697-4e1c-8936-adc962a8287e"},"vehicle_type_id":"4","last_reported":1762777300,"current_range_meters":14400,"station_id":"ce4bhu92rcd13ifvqi70","pricing_plan_id":"cebpf4jnsgd1na2vs0mg"},{"bike_id":"8b8eea50-5220-4570-bc58-b4bd65419a85","system_id":"levelo_inurba_marseille","lat":43.28486,"lon":5.38578,"is_reserved":false,"is_disabled":false,"rental_uris":{"android":"levelo://app?vid=8b8eea50-5220-4570-bc58-b4bd65419a85","ios":"levelo://app?vid=8b8eea50-5220-4570-bc58-b4bd65419a85"},"vehicle_type_id":"4","last_reported":1762777300,"current_range_meters":14400,"station_id":"ce4bh8p2rcd13ifvqeb0","pricing_plan_id":"cebpf4jnsgd1na2vs0mg"},{"bike_id":"2f80dede-ae39-4e02-9c25-ff944f9f1182","system_id":"levelo_inurba_marseille","lat":43.298,"lon":5.40402,"is_reserved":false,"is_disabled":false,"rental_uris":{"android":"levelo://app?vid=2f80dede-ae39-4e02-9c25-ff944f9f1182","ios":"levelo://app?vid=2f80dede-ae39-4e02-9c25-ff944f9f1182"},"vehicle_type_id":"4","last_reported":1762777300,"current_range_meters":14400,"station_id":"ce4bh112rcd13ifvqd90","pricing_plan_id":"cebpf4jnsgd1na2vs0mg"},{"bike_id":"92077ffb-59a2-4dd0-9c95-33ae88f9ae38","system_id":"levelo_inurba_marseille","lat":43.246429,"lon":5.388893,"is_reserved":false,"is_disabled":false,"rental_uris":{"android":"levelo://app?vid=92077ffb-59a2-4dd0-9c95-33ae88f9ae38","ios":"levelo://app?vid=92077ffb-59a2-4dd0-9c95-33ae88f9ae38"},"vehicle_type_id":"4","last_reported":1762777300,"current_range_meters":14800,"station_id":"","pricing_plan_id":"cebpf4jnsgd1na2vs0mg"},{"bike_id":"81ae76cc-b801-4759-b58f-2b51d812735a","system_id":"levelo_inurba_marseille","lat":43.21762,"lon":5.34588,"is_reserved":false,"is_disabled":false,"rental_uris":{"android":"levelo://app?vid=81ae76cc-b801-4759-b58f-2b51d812735a","ios":"levelo://app?vid=81ae76cc-b801-4759-b58f-2b51d812735a"},"vehicle_type_id":"4","last_reported":1762777300,"current_range_meters":14800,"station_id":"st_cvj6r9ubvosntc0bgbag","pricing_plan_id":"cebpf4jnsgd1na2vs0mg"},{"bike_id":"e66f32a2-68b2-4120-8c9c-a502e3db4abe","system_id":"levelo_inurba_marseille","lat":43.28272,"lon":5.35057,"is_reserved":false,"is_disabled":false,"rental_uris":{"android":"levelo://app?vid=e66f32a2-68b2-4120-8c9c-a502e3db4abe","ios":"levelo://app?vid=e66f32a2-68b2-4120-8c9c-a502e3db4abe"},"vehicle_type_id":"4","last_reported":1762777300,"current_range_meters":14800,"station_id":"ce4bhbp2rcd13ifvqerg","pricing_plan_id":"cebpf4jnsgd1na2vs0mg"},{"bike_id":"a2261492-19dd-44fa-8c32-b4eeed495387","system_id":"levelo_inurba_marseille","lat":43.29856,"lon":5.36289,"is_reserved":false,"is_disabled":false,"rental_uris":{"android":"levelo://app?vid=a2261492-19dd-44fa-8c32-b4eeed495387","ios":"levelo://app?vid=a2261492-19dd-44fa-8c32-b4eeed495387"},"vehicle_type_id":"4","last_reported":1762777300,"current_range_meters":14800,"station_id":"","pricing_plan_id":"cebpf4jnsgd1na2vs0mg"},{"bike_id":"e3ca31e7-8c60-464d-95fd-3aad12a4aaf3","system_id":"levelo_inurba_marseille","lat":43.30962,"lon":5.38294,"is_reserved":false,"is_disabled":false,"rental_uris":{"android":"levelo://app?vid=e3ca31e7-8c60-464d-95fd-3aad12a4aaf3","ios":"levelo://app?vid=e3ca31e7-8c60-464d-95fd-3aad12a4aaf3"},"vehicle_type_id":"4","last_reported":1762777300,"current_range_meters":14800,"station_id":"","pricing_plan_id":"cebpf4jnsgd1na2vs0mg"},{"bike_id":"44331fa7-9d08-4286-b964-9dc5ad26bac9","system_id":"levelo_inurba_marseille","lat":43.26231,"lon":5.40451,"is_reserved":false,"is_disabled":false,"rental_uris":{"android":"levelo://app?vid=44331fa7-9d08-4286-b964-9dc5ad26bac9","ios":"levelo://app?vid=44331fa7-9d08-4286-b964-9dc5ad26bac9"},"vehicle_type_id":"4","last_reported":1762777300,"current_range_meters":14800,"station_id":"ce4bhmh2rcd13ifvqgmg","pricing_plan_id":"cebpf4jnsgd1na2vs0mg"},{"bike_id":"99891c1d-9d50-4787-b2eb-1c68be846d92","system_id":"levelo_inurba_marseille","lat":43.32106,"lon":5.36766,"is_reserved":false,"is_disabled":false,"rental_uris":{"android":"levelo://app?vid=99891c1d-9d50-4787-b2eb-1c68be846d92","ios":"levelo://app?vid=99891c1d-9d50-4787-b2eb-1c68be846d92"},"vehicle_type_id":"4","last_reported":1762777300,"current_range_meters":14800,"station_id":"ce4bhrh2rcd13ifvqhug","pricing_plan_id":"cebpf4jnsgd1na2vs0mg"},{"bike_id":"2c8c6aa9-0512-474e-8945-2eda900b63fa","system_id":"levelo_inurba_marseille","lat":43.26549,"lon":5.40337,"is_reserved":false,"is_disabled":false,"rental_uris":{"android":"levelo://app?vid=2c8c6aa9-0512-474e-8945-2eda900b63fa","ios":"levelo://app?vid=2c8c6aa9-0512-474e-8945-2eda900b63fa"},"vehicle_type_id":"4","last_reported":1762777300,"current_range_meters":14800,"station_id":"ce4bhmp2rcd13ifvqgng","pricing_plan_id":"cebpf4jnsgd1na2vs0mg"},{"bike_id":"f3676cbd-e7b4-41b2-9a41-2a00aec7d6b9","system_id":"levelo_inurba_marseille","lat":43.21734,"lon":5.34614,"is_reserved":false,"is_disabled":false,"rental_uris":{"android":"levelo://app?vid=f3676cbd-e7b4-41b2-9a41-2a00aec7d6b9","ios":"levelo://app?vid=f3676cbd-e7b4-41b2-9a41-2a00aec7d6b9"},"vehicle_type_id":"4","last_reported":1762777300,"current_range_meters":14800,"station_id":"st_cvj6r9ubvosntc0bgbag","pricing_plan_id":"cebpf4jnsgd1na2vs0mg"},{"bike_id":"3a04f9c7-e08e-4429-8b60-3f57df5d4f6c","system_id":"levelo_inurba_marseille","lat":43.331529,"lon":5.376885,"is_reserved":false,"is_disabled":false,"rental_uris":{"android":"levelo://app?vid=3a04f9c7-e08e-4429-8b60-3f57df5d4f6c","ios":"levelo://app?vid=3a04f9c7-e08e-4429-8b60-3f57df5d4f6c"},"vehicle_type_id":"4","last_reported":1762777300,"current_range_meters":14800,"station_id":"st_d46cu089ee8s73dldbu0","pricing_plan_id":"cebpf4jnsgd1na2vs0mg"},{"bike_id":"1086c95b-b74f-4e99-9e15-ae33be8101e5","system_id":"levelo_inurba_marseille","lat":43.301477,"lon":5.376277,"is_reserved":false,"is_disabled":false,"rental_uris":{"android":"levelo://app?vid=1086c95b-b74f-4e99-9e15-ae33be8101e5","ios":"levelo://app?vid=1086c95b-b74f-4e99-9e15-ae33be8101e5"},"vehicle_type_id":"4","last_reported":1762777300,"current_range_meters":15200,"station_id":"","pricing_plan_id":"cebpf4jnsgd1na2vs0mg"},{"bike_id":"9e0a01a6-a037-44c8-9e6a-9fe856216f86","system_id":"levelo_inurba_marseille","lat":43.217475,"lon":5.346025,"is_reserved":false,"is_disabled":false,"rental_uris":{"android":"levelo://app?vid=9e0a01a6-a037-44c8-9e6a-9fe856216f86","ios":"levelo://app?vid=9e0a01a6-a037-44c8-9e6a-9fe856216f86"},"vehicle_type_id":"4","last_reported":1762777300,"current_range_meters":15200,"station_id":"st_cvj6r9ubvosntc0bgbag","pricing_plan_id":"cebpf4jnsgd1na2vs0mg"},{"bike_id":"0fc6174f-b8e3-42ba-9301-7d0a4f49f476","system_id":"levelo_inurba_marseille","lat":43.29376,"lon":5.3786,"is_reserved":false,"is_disabled":false,"rental_uris":{"android":"levelo://app?vid=0fc6174f-b8e3-42ba-9301-7d0a4f49f476","ios":"levelo://app?vid=0fc6174f-b8e3-42ba-9301-7d0a4f49f476"},"vehicle_type_id":"4","last_reported":1762777300,"current_range_meters":15200,"station_id":"ce4bgjh2rcd13ifvqbf0","pricing_plan_id":"cebpf4jnsgd1na2vs0mg"},{"bike_id":"fb0e6bea-d078-4452-905b-07db49a4858c","system_id":"levelo_inurba_marseille","lat":43.28468,"lon":5.48394,"is_reserved":false,"is_disabled":false,"rental_uris":{"android":"levelo://app?vid=fb0e6bea-d078-4452-905b-07db49a4858c","ios":"levelo://app?vid=fb0e6bea-d078-4452-905b-07db49a4858c"},"vehicle_type_id":"4","last_reported":1762777300,"current_range_meters":15200,"station_id":"","pricing_plan_id":"cebpf4jnsgd1na2vs0mg"},{"bike_id":"bab1d297-0aed-4c46-b021-bc1fc4ba390c","system_id":"levelo_inurba_marseille","lat":43.21736,"lon":5.34604,"is_reserved":false,"is_disabled":false,"rental_uris":{"android":"levelo://app?vid=bab1d297-0aed-4c46-b021-bc1fc4ba390c","ios":"levelo://app?vid=bab1d297-0aed-4c46-b021-bc1fc4ba390c"},"vehicle_type_id":"4","last_reported":1762777300,"current_range_meters":15200,"station_id":"st_cvj6r9ubvosntc0bgbag","pricing_plan_id":"cebpf4jnsgd1na2vs0mg"},{"bike_id":"4ef56f27-b618-4191-843e-9c861890082c","system_id":"levelo_inurba_marseille","lat":43.28559,"lon":5.3925,"is_reserved":false,"is_disabled":true,"rental_uris":{"android":"levelo://app?vid=4ef56f27-b618-4191-843e-9c861890082c","ios":"levelo://app?vid=4ef56f27-b618-4191-843e-9c861890082c"},"vehicle_type_id":"4","last_reported":1762777300,"current_range_meters":15200,"station_id":"","pricing_plan_id":"cebpf4jnsgd1na2vs0mg"},{"bike_id":"9fdbe4df-6aae-49ac-9770-ae27b4b0314b","system_id":"levelo_inurba_marseille","lat":43.33725,"lon":5.39182,"is_reserved":false,"is_disabled":false,"rental_uris":{"android":"levelo://app?vid=9fdbe4df-6aae-49ac-9770-ae27b4b0314b","ios":"levelo://app?vid=9fdbe4df-6aae-49ac-9770-ae27b4b0314b"},"vehicle_type_id":"4","last_reported":1762777300,"current_range_meters":16000,"station_id":"ce4bhr92rcd13ifvqhsg","pricing_plan_id":"cebpf4jnsgd1na2vs0mg"},{"bike_id":"2d4da948-180c-4e40-afd8-a9efd3e8d334","system_id":"levelo_inurba_marseille","lat":43.23056,"lon":5.35493,"is_reserved":false,"is_disabled":false,"rental_uris":{"android":"levelo://app?vid=2d4da948-180c-4e40-afd8-a9efd3e8d334","ios":"levelo://app?vid=2d4da948-180c-4e40-afd8-a9efd3e8d334"},"vehicle_type_id":"4","last_reported":1762777300,"current_range_meters":16000,"station_id":"cpo3342slgdg3j2ifvpg","pricing_plan_id":"cebpf4jnsgd1na2vs0mg"},{"bike_id":"4bf24c40-6a99-438f-b84a-5daf26295426","system_id":"levelo_inurba_marseille","lat":43.24619,"lon":5.43162,"is_reserved":false,"is_disabled":false,"rental_uris":{"android":"levelo://app?vid=4bf24c40-6a99-438f-b84a-5daf26295426","ios":"levelo://app?vid=4bf24c40-6a99-438f-b84a-5daf26295426"},"vehicle_type_id":"4","last_reported":1762777300,"current_range_meters":16000,"station_id":"st_d2m6c4gdas8pm72e190g","pricing_plan_id":"cebpf4jnsgd1na2vs0mg"},{"bike_id":"9be94b56-15ef-463f-ba7e-e63df6171cb1","system_id":"levelo_inurba_marseille","lat":43.2175,"lon":5.34598,"is_reserved":false,"is_disabled":false,"rental_uris":{"android":"levelo://app?vid=9be94b56-15ef-463f-ba7e-e63df6171cb1","ios":"levelo://app?vid=9be94b56-15ef-463f-ba7e-e63df6171cb1"},"vehicle_type_id":"4","last_reported":1762777300,"current_range_meters":16000,"station_id":"st_cvj6r9ubvosntc0bgbag","pricing_plan_id":"cebpf4jnsgd1na2vs0mg"},{"bike_id":"50bd906f-f66c-4773-8e69-65d41802e55d","system_id":"levelo_inurba_marseille","lat":43.22533,"lon":5.34834,"is_reserved":false,"is_disabled":false,"rental_uris":{"android":"levelo://app?vid=50bd906f-f66c-4773-8e69-65d41802e55d","ios":"levelo://app?vid=50bd906f-f66c-4773-8e69-65d41802e55d"},"vehicle_type_id":"4","last_reported":1762777300,"current_range_meters":16400,"station_id":"","pricing_plan_id":"cebpf4jnsgd1na2vs0mg"},{"bike_id":"33084756-8ef7-48df-8626-0860cb1babef","system_id":"levelo_inurba_marseille","lat":43.265522,"lon":5.372854,"is_reserved":false,"is_disabled":false,"rental_uris":{"android":"levelo://app?vid=33084756-8ef7-48df-8626-0860cb1babef","ios":"levelo://app?vid=33084756-8ef7-48df-8626-0860cb1babef"},"vehicle_type_id":"4","last_reported":1762777300,"current_range_meters":16400,"station_id":"ce4bhg12rcd13ifvqf70","pricing_plan_id":"cebpf4jnsgd1na2vs0mg"},{"bike_id":"b7589c36-c725-4ae0-a367-12f6a2c5f1ef","system_id":"levelo_inurba_marseille","lat":43.29804,"lon":5.4407,"is_reserved":false,"is_disabled":false,"rental_uris":{"android":"levelo://app?vid=b7589c36-c725-4ae0-a367-12f6a2c5f1ef","ios":"levelo://app?vid=b7589c36-c725-4ae0-a367-12f6a2c5f1ef"},"vehicle_type_id":"4","last_reported":1762777300,"current_range_meters":16400,"station_id":"st_d3jp68qikq2c7381ktn0","pricing_plan_id":"cebpf4jnsgd1na2vs0mg"},{"bike_id":"4cf82165-8bc0-4236-81bf-48aa84993e98","system_id":"levelo_inurba_marseille","lat":43.29312,"lon":5.37449,"is_reserved":false,"is_disabled":false,"rental_uris":{"android":"levelo://app?vid=4cf82165-8bc0-4236-81bf-48aa84993e98","ios":"levelo://app?vid=4cf82165-8bc0-4236-81bf-48aa84993e98"},"vehicle_type_id":"4","last_reported":1762777300,"current_range_meters":16400,"station_id":"ce4bgi12rcd13ifvqb70","pricing_plan_id":"cebpf4jnsgd1na2vs0mg"},{"bike_id":"7f14d21d-9e16-4961-9d70-b10fd067921a","system_id":"levelo_inurba_marseille","lat":43.217475,"lon":5.346026,"is_reserved":false,"is_disabled":false,"rental_uris":{"android":"levelo://app?vid=7f14d21d-9e16-4961-9d70-b10fd067921a","ios":"levelo://app?vid=7f14d21d-9e16-4961-9d70-b10fd067921a"},"vehicle_type_id":"4","last_reported":1762777300,"current_range_meters":16400,"station_id":"st_cvj6r9ubvosntc0bgbag","pricing_plan_id":"cebpf4jnsgd1na2vs0mg"},{"bike_id":"180a70a9-8924-4885-9ca3-10c578c02589","system_id":"levelo_inurba_marseille","lat":43.22537,"lon":5.348321,"is_reserved":false,"is_disabled":false,"rental_uris":{"android":"levelo://app?vid=180a70a9-8924-4885-9ca3-10c578c02589","ios":"levelo://app?vid=180a70a9-8924-4885-9ca3-10c578c02589"},"vehicle_type_id":"4","last_reported":1762777300,"current_range_meters":16400,"station_id":"","pricing_plan_id":"cebpf4jnsgd1na2vs0mg"},{"bike_id":"7e121fa6-ff86-4baf-90d1-fdfb12f37580","system_id":"levelo_inurba_marseille","lat":43.2799,"lon":5.40022,"is_reserved":false,"is_disabled":false,"rental_uris":{"android":"levelo://app?vid=7e121fa6-ff86-4baf-90d1-fdfb12f37580","ios":"levelo://app?vid=7e121fa6-ff86-4baf-90d1-fdfb12f37580"},"vehicle_type_id":"4","last_reported":1762777300,"current_range_meters":16400,"station_id":"ce4bho92rcd13ifvqh4g","pricing_plan_id":"cebpf4jnsgd1na2vs0mg"},{"bike_id":"f51f5bf2-75db-4243-af87-3ddda6115fbb","system_id":"levelo_inurba_marseille","lat":43.27828,"lon":5.40671,"is_reserved":false,"is_disabled":false,"rental_uris":{"android":"levelo://app?vid=f51f5bf2-75db-4243-af87-3ddda6115fbb","ios":"levelo://app?vid=f51f5bf2-75db-4243-af87-3ddda6115fbb"},"vehicle_type_id":"4","last_reported":1762777300,"current_range_meters":16400,"station_id":"ce4bhnh2rcd13ifvqgtg","pricing_plan_id":"cebpf4jnsgd1na2vs0mg"},{"bike_id":"b0f65dd5-7080-42f8-bb3b-b5fdbbaffdce","system_id":"levelo_inurba_marseille","lat":43.2314,"lon":5.43719,"is_reserved":false,"is_disabled":false,"rental_uris":{"android":"levelo://app?vid=b0f65dd5-7080-42f8-bb3b-b5fdbbaffdce","ios":"levelo://app?vid=b0f65dd5-7080-42f8-bb3b-b5fdbbaffdce"},"vehicle_type_id":"4","last_reported":1762777300,"current_range_meters":16400,"station_id":"ce4bhmp2rcd13ifvqgog","pricing_plan_id":"cebpf4jnsgd1na2vs0mg"},{"bike_id":"bf675b30-9239-487e-840d-8c003ec2a6a9","system_id":"levelo_inurba_marseille","lat":43.217404,"lon":5.346063,"is_reserved":false,"is_disabled":false,"rental_uris":{"android":"levelo://app?vid=bf675b30-9239-487e-840d-8c003ec2a6a9","ios":"levelo://app?vid=bf675b30-9239-487e-840d-8c003ec2a6a9"},"vehicle_type_id":"4","last_reported":1762777300,"current_range_meters":16400,"station_id":"st_cvj6r9ubvosntc0bgbag","pricing_plan_id":"cebpf4jnsgd1na2vs0mg"},{"bike_id":"8db29058-1744-4cee-9b65-4519fa9c98ac","system_id":"levelo_inurba_marseille","lat":43.21737,"lon":5.34627,"is_reserved":false,"is_disabled":false,"rental_uris":{"android":"levelo://app?vid=8db29058-1744-4cee-9b65-4519fa9c98ac","ios":"levelo://app?vid=8db29058-1744-4cee-9b65-4519fa9c98ac"},"vehicle_type_id":"4","last_reported":1762777300,"current_range_meters":16800,"station_id":"st_cvj6r9ubvosntc0bgbag","pricing_plan_id":"cebpf4jnsgd1na2vs0mg"},{"bike_id":"4b68d13f-f5d9-4b23-871f-a9d0ced8871b","system_id":"levelo_inurba_marseille","lat":43.312788,"lon":5.37801,"is_reserved":false,"is_disabled":false,"rental_uris":{"android":"levelo://app?vid=4b68d13f-f5d9-4b23-871f-a9d0ced8871b","ios":"levelo://app?vid=4b68d13f-f5d9-4b23-871f-a9d0ced8871b"},"vehicle_type_id":"4","last_reported":1762777300,"current_range_meters":16800,"station_id":"","pricing_plan_id":"cebpf4jnsgd1na2vs0mg"},{"bike_id":"3d4f2d0b-e070-4022-bb5d-10097e35b85a","system_id":"levelo_inurba_marseille","lat":43.312719,"lon":5.401738,"is_reserved":false,"is_disabled":false,"rental_uris":{"android":"levelo://app?vid=3d4f2d0b-e070-4022-bb5d-10097e35b85a","ios":"levelo://app?vid=3d4f2d0b-e070-4022-bb5d-10097e35b85a"},"vehicle_type_id":"4","last_reported":1762777300,"current_range_meters":16800,"station_id":"ce4bh092rcd13ifvqd30","pricing_plan_id":"cebpf4jnsgd1na2vs0mg"},{"bike_id":"59e7d3de-e414-47fd-9fb9-8ecf9d389a63","system_id":"levelo_inurba_marseille","lat":43.28459,"lon":5.35889,"is_reserved":false,"is_disabled":true,"rental_uris":{"android":"levelo://app?vid=59e7d3de-e414-47fd-9fb9-8ecf9d389a63","ios":"levelo://app?vid=59e7d3de-e414-47fd-9fb9-8ecf9d389a63"},"vehicle_type_id":"4","last_reported":1762777300,"current_range_meters":16800,"station_id":"ce4bhah2rcd13ifvqei0","pricing_plan_id":"cebpf4jnsgd1na2vs0mg"},{"bike_id":"1016aac3-b163-4bd4-b914-896c361c935b","system_id":"levelo_inurba_marseille","lat":43.32084,"lon":5.38863,"is_reserved":false,"is_disabled":false,"rental_uris":{"android":"levelo://app?vid=1016aac3-b163-4bd4-b914-896c361c935b","ios":"levelo://app?vid=1016aac3-b163-4bd4-b914-896c361c935b"},"vehicle_type_id":"4","last_reported":1762777300,"current_range_meters":16800,"station_id":"","pricing_plan_id":"cebpf4jnsgd1na2vs0mg"},{"bike_id":"99d9d76d-d94f-48e3-abc3-f50dd41e3269","system_id":"levelo_inurba_marseille","lat":43.31146,"lon":5.3834,"is_reserved":false,"is_disabled":false,"rental_uris":{"android":"levelo://app?vid=99d9d76d-d94f-48e3-abc3-f50dd41e3269","ios":"levelo://app?vid=99d9d76d-d94f-48e3-abc3-f50dd41e3269"},"vehicle_type_id":"4","last_reported":1762777300,"current_range_meters":16800,"station_id":"","pricing_plan_id":"cebpf4jnsgd1na2vs0mg"},{"bike_id":"f1f3d08b-7897-4662-8804-b57e6ffebcc5","system_id":"levelo_inurba_marseille","lat":43.265413,"lon":5.372936,"is_reserved":false,"is_disabled":true,"rental_uris":{"android":"levelo://app?vid=f1f3d08b-7897-4662-8804-b57e6ffebcc5","ios":"levelo://app?vid=f1f3d08b-7897-4662-8804-b57e6ffebcc5"},"vehicle_type_id":"4","last_reported":1762777300,"current_range_meters":16800,"station_id":"","pricing_plan_id":"cebpf4jnsgd1na2vs0mg"},{"bike_id":"2bf99914-a1f7-448e-bb6e-d09e725df2a3","system_id":"levelo_inurba_marseille","lat":43.28698,"lon":5.37396,"is_reserved":false,"is_disabled":false,"rental_uris":{"android":"levelo://app?vid=2bf99914-a1f7-448e-bb6e-d09e725df2a3","ios":"levelo://app?vid=2bf99914-a1f7-448e-bb6e-d09e725df2a3"},"vehicle_type_id":"4","last_reported":1762777300,"current_range_meters":16800,"station_id":"ce4bh3p2rcd13ifvqdq0","pricing_plan_id":"cebpf4jnsgd1na2vs0mg"},{"bike_id":"9340ce7b-5e0d-47b4-908b-9509c17f1dcf","system_id":"levelo_inurba_marseille","lat":43.29603,"lon":5.37749,"is_reserved":false,"is_disabled":false,"rental_uris":{"android":"levelo://app?vid=9340ce7b-5e0d-47b4-908b-9509c17f1dcf","ios":"levelo://app?vid=9340ce7b-5e0d-47b4-908b-9509c17f1dcf"},"vehicle_type_id":"4","last_reported":1762777300,"current_range_meters":16800,"station_id":"ce4bgi92rcd13ifvqb90","pricing_plan_id":"cebpf4jnsgd1na2vs0mg"},{"bike_id":"0c33ca4c-d20e-46bb-8c1f-a72e62fbcbd1","system_id":"levelo_inurba_marseille","lat":43.21746,"lon":5.346,"is_reserved":false,"is_disabled":false,"rental_uris":{"android":"levelo://app?vid=0c33ca4c-d20e-46bb-8c1f-a72e62fbcbd1","ios":"levelo://app?vid=0c33ca4c-d20e-46bb-8c1f-a72e62fbcbd1"},"vehicle_type_id":"4","last_reported":1762777300,"current_range_meters":16800,"station_id":"st_cvj6r9ubvosntc0bgbag","pricing_plan_id":"cebpf4jnsgd1na2vs0mg"},{"bike_id":"f46ad7eb-f85b-4432-be90-167e726c28e3","system_id":"levelo_inurba_marseille","lat":43.2315,"lon":5.43709,"is_reserved":false,"is_disabled":false,"rental_uris":{"android":"levelo://app?vid=f46ad7eb-f85b-4432-be90-167e726c28e3","ios":"levelo://app?vid=f46ad7eb-f85b-4432-be90-167e726c28e3"},"vehicle_type_id":"4","last_reported":1762777300,"current_range_meters":16800,"station_id":"ce4bhmp2rcd13ifvqgog","pricing_plan_id":"cebpf4jnsgd1na2vs0mg"},{"bike_id":"0001f610-ee0b-4dfa-a101-19ef82b4afb7","system_id":"levelo_inurba_marseille","lat":43.2982,"lon":5.44059,"is_reserved":false,"is_disabled":false,"rental_uris":{"android":"levelo://app?vid=0001f610-ee0b-4dfa-a101-19ef82b4afb7","ios":"levelo://app?vid=0001f610-ee0b-4dfa-a101-19ef82b4afb7"},"vehicle_type_id":"4","last_reported":1762777300,"current_range_meters":16800,"station_id":"st_d3jp68qikq2c7381ktn0","pricing_plan_id":"cebpf4jnsgd1na2vs0mg"},{"bike_id":"096cdd72-f6cf-4a1a-9fed-102492f9041f","system_id":"levelo_inurba_marseille","lat":43.23183,"lon":5.39975,"is_reserved":false,"is_disabled":false,"rental_uris":{"android":"levelo://app?vid=096cdd72-f6cf-4a1a-9fed-102492f9041f","ios":"levelo://app?vid=096cdd72-f6cf-4a1a-9fed-102492f9041f"},"vehicle_type_id":"4","last_reported":1762777300,"current_range_meters":16800,"station_id":"ce4bhn12rcd13ifvqgqg","pricing_plan_id":"cebpf4jnsgd1na2vs0mg"},{"bike_id":"eb981f96-c1a6-4158-ab39-357b040342db","system_id":"levelo_inurba_marseille","lat":43.274842,"lon":5.424638,"is_reserved":false,"is_disabled":false,"rental_uris":{"android":"levelo://app?vid=eb981f96-c1a6-4158-ab39-357b040342db","ios":"levelo://app?vid=eb981f96-c1a6-4158-ab39-357b040342db"},"vehicle_type_id":"4","last_reported":1762777300,"current_range_meters":17200,"station_id":"ce4bhn92rcd13ifvqgrg","pricing_plan_id":"cebpf4jnsgd1na2vs0mg"},{"bike_id":"42bbdb4f-c9b7-4299-b4a6-0178a6a32bf3","system_id":"levelo_inurba_marseille","lat":43.31815,"lon":5.37404,"is_reserved":false,"is_disabled":false,"rental_uris":{"android":"levelo://app?vid=42bbdb4f-c9b7-4299-b4a6-0178a6a32bf3","ios":"levelo://app?vid=42bbdb4f-c9b7-4299-b4a6-0178a6a32bf3"},"vehicle_type_id":"4","last_reported":1762777300,"current_range_meters":17200,"station_id":"","pricing_plan_id":"cebpf4jnsgd1na2vs0mg"},{"bike_id":"e8f26262-51ba-41e4-baa8-fee3433c6fb3","system_id":"levelo_inurba_marseille","lat":43.225311,"lon":5.348257,"is_reserved":false,"is_disabled":false,"rental_uris":{"android":"levelo://app?vid=e8f26262-51ba-41e4-baa8-fee3433c6fb3","ios":"levelo://app?vid=e8f26262-51ba-41e4-baa8-fee3433c6fb3"},"vehicle_type_id":"4","last_reported":1762777300,"current_range_meters":17200,"station_id":"","pricing_plan_id":"cebpf4jnsgd1na2vs0mg"},{"bike_id":"66ae2c15-7899-4b4b-8821-031824ea1e8d","system_id":"levelo_inurba_marseille","lat":43.32658,"lon":5.4099,"is_reserved":false,"is_disabled":false,"rental_uris":{"android":"levelo://app?vid=66ae2c15-7899-4b4b-8821-031824ea1e8d","ios":"levelo://app?vid=66ae2c15-7899-4b4b-8821-031824ea1e8d"},"vehicle_type_id":"4","last_reported":1762777300,"current_range_meters":17200,"station_id":"ce4bhpp2rcd13ifvqhgg","pricing_plan_id":"cebpf4jnsgd1na2vs0mg"},{"bike_id":"8e2fdece-e853-4ec5-9b8f-10cb99b9c768","system_id":"levelo_inurba_marseille","lat":43.298907,"lon":5.436691,"is_reserved":false,"is_disabled":false,"rental_uris":{"android":"levelo://app?vid=8e2fdece-e853-4ec5-9b8f-10cb99b9c768","ios":"levelo://app?vid=8e2fdece-e853-4ec5-9b8f-10cb99b9c768"},"vehicle_type_id":"4","last_reported":1762777300,"current_range_meters":17600,"station_id":"ce4bhpp2rcd13ifvqhfg","pricing_plan_id":"cebpf4jnsgd1na2vs0mg"},{"bike_id":"4cae9d5c-a24c-41f1-9f54-aaa487e732a6","system_id":"levelo_inurba_marseille","lat":43.29953,"lon":5.38191,"is_reserved":false,"is_disabled":false,"rental_uris":{"android":"levelo://app?vid=4cae9d5c-a24c-41f1-9f54-aaa487e732a6","ios":"levelo://app?vid=4cae9d5c-a24c-41f1-9f54-aaa487e732a6"},"vehicle_type_id":"4","last_reported":1762777300,"current_range_meters":17600,"station_id":"","pricing_plan_id":"cebpf4jnsgd1na2vs0mg"},{"bike_id":"6ae87b41-3981-4b69-b43c-0b6bde62265a","system_id":"levelo_inurba_marseille","lat":43.337739,"lon":5.37429,"is_reserved":false,"is_disabled":false,"rental_uris":{"android":"levelo://app?vid=6ae87b41-3981-4b69-b43c-0b6bde62265a","ios":"levelo://app?vid=6ae87b41-3981-4b69-b43c-0b6bde62265a"},"vehicle_type_id":"4","last_reported":1762777300,"current_range_meters":17600,"station_id":"","pricing_plan_id":"cebpf4jnsgd1na2vs0mg"},{"bike_id":"71d46d8b-5e23-48ec-ab1f-8ef9e2379d40","system_id":"levelo_inurba_marseille","lat":43.3137,"lon":5.38512,"is_reserved":false,"is_disabled":false,"rental_uris":{"android":"levelo://app?vid=71d46d8b-5e23-48ec-ab1f-8ef9e2379d40","ios":"levelo://app?vid=71d46d8b-5e23-48ec-ab1f-8ef9e2379d40"},"vehicle_type_id":"4","last_reported":1762777300,"current_range_meters":17600,"station_id":"ce4bgt92rcd13ifvqcf0","pricing_plan_id":"cebpf4jnsgd1na2vs0mg"},{"bike_id":"a506955a-debf-4b40-a307-aa2bd90a16c0","system_id":"levelo_inurba_marseille","lat":43.28927,"lon":5.38397,"is_reserved":false,"is_disabled":false,"rental_uris":{"android":"levelo://app?vid=a506955a-debf-4b40-a307-aa2bd90a16c0","ios":"levelo://app?vid=a506955a-debf-4b40-a307-aa2bd90a16c0"},"vehicle_type_id":"4","last_reported":1762777300,"current_range_meters":17600,"station_id":"ce4bh612rcd13ifvqe6g","pricing_plan_id":"cebpf4jnsgd1na2vs0mg"},{"bike_id":"a1841d02-b053-4f88-89ac-a2a3e0997d3f","system_id":"levelo_inurba_marseille","lat":43.217362,"lon":5.346114,"is_reserved":false,"is_disabled":false,"rental_uris":{"android":"levelo://app?vid=a1841d02-b053-4f88-89ac-a2a3e0997d3f","ios":"levelo://app?vid=a1841d02-b053-4f88-89ac-a2a3e0997d3f"},"vehicle_type_id":"4","last_reported":1762777300,"current_range_meters":17600,"station_id":"st_cvj6r9ubvosntc0bgbag","pricing_plan_id":"cebpf4jnsgd1na2vs0mg"},{"bike_id":"cb0b8ff5-1cd6-4f19-b90e-19eb09facc89","system_id":"levelo_inurba_marseille","lat":43.2606,"lon":5.394,"is_reserved":false,"is_disabled":false,"rental_uris":{"android":"levelo://app?vid=cb0b8ff5-1cd6-4f19-b90e-19eb09facc89","ios":"levelo://app?vid=cb0b8ff5-1cd6-4f19-b90e-19eb09facc89"},"vehicle_type_id":"4","last_reported":1762777300,"current_range_meters":17600,"station_id":"ce4bhh92rcd13ifvqfj0","pricing_plan_id":"cebpf4jnsgd1na2vs0mg"},{"bike_id":"122bdab4-68f6-41de-a130-9cd3d01ccdfd","system_id":"levelo_inurba_marseille","lat":43.22533,"lon":5.34829,"is_reserved":false,"is_disabled":false,"rental_uris":{"android":"levelo://app?vid=122bdab4-68f6-41de-a130-9cd3d01ccdfd","ios":"levelo://app?vid=122bdab4-68f6-41de-a130-9cd3d01ccdfd"},"vehicle_type_id":"4","last_reported":1762777300,"current_range_meters":17600,"station_id":"","pricing_plan_id":"cebpf4jnsgd1na2vs0mg"},{"bike_id":"bb9ef29d-2932-4b7a-a13a-a33f470dcf14","system_id":"levelo_inurba_marseille","lat":43.32539,"lon":5.41426,"is_reserved":false,"is_disabled":false,"rental_uris":{"android":"levelo://app?vid=bb9ef29d-2932-4b7a-a13a-a33f470dcf14","ios":"levelo://app?vid=bb9ef29d-2932-4b7a-a13a-a33f470dcf14"},"vehicle_type_id":"4","last_reported":1762777300,"current_range_meters":17600,"station_id":"ce4bhq12rcd13ifvqhhg","pricing_plan_id":"cebpf4jnsgd1na2vs0mg"},{"bike_id":"b15275c6-e462-4a0a-8caf-77a2cc56d365","system_id":"levelo_inurba_marseille","lat":43.2118,"lon":5.35084,"is_reserved":false,"is_disabled":false,"rental_uris":{"android":"levelo://app?vid=b15275c6-e462-4a0a-8caf-77a2cc56d365","ios":"levelo://app?vid=b15275c6-e462-4a0a-8caf-77a2cc56d365"},"vehicle_type_id":"4","last_reported":1762777300,"current_range_meters":17600,"station_id":"st_cvj6sg6p6f1abm77japg","pricing_plan_id":"cebpf4jnsgd1na2vs0mg"},{"bike_id":"339719f7-df72-4245-8395-f7ad2766da21","system_id":"levelo_inurba_marseille","lat":43.31273,"lon":5.40171,"is_reserved":false,"is_disabled":false,"rental_uris":{"android":"levelo://app?vid=339719f7-df72-4245-8395-f7ad2766da21","ios":"levelo://app?vid=339719f7-df72-4245-8395-f7ad2766da21"},"vehicle_type_id":"4","last_reported":1762777300,"current_range_meters":17600,"station_id":"ce4bh092rcd13ifvqd30","pricing_plan_id":"cebpf4jnsgd1na2vs0mg"},{"bike_id":"9a10215f-8ceb-4ff3-85af-f4f52daa3647","system_id":"levelo_inurba_marseille","lat":43.28605,"lon":5.37065,"is_reserved":false,"is_disabled":false,"rental_uris":{"android":"levelo://app?vid=9a10215f-8ceb-4ff3-85af-f4f52daa3647","ios":"levelo://app?vid=9a10215f-8ceb-4ff3-85af-f4f52daa3647"},"vehicle_type_id":"4","last_reported":1762777300,"current_range_meters":17600,"station_id":"ce4bht12rcd13ifvqi60","pricing_plan_id":"cebpf4jnsgd1na2vs0mg"},{"bike_id":"c28654ef-e0a6-47cb-a0fc-615c6eef425f","system_id":"levelo_inurba_marseille","lat":43.29018,"lon":5.38114,"is_reserved":false,"is_disabled":false,"rental_uris":{"android":"levelo://app?vid=c28654ef-e0a6-47cb-a0fc-615c6eef425f","ios":"levelo://app?vid=c28654ef-e0a6-47cb-a0fc-615c6eef425f"},"vehicle_type_id":"4","last_reported":1762777300,"current_range_meters":18000,"station_id":"ce4bh4p2rcd13ifvqe1g","pricing_plan_id":"cebpf4jnsgd1na2vs0mg"},{"bike_id":"09880af0-899c-427e-bfec-ab0fdb229c89","system_id":"levelo_inurba_marseille","lat":43.3092,"lon":5.36765,"is_reserved":false,"is_disabled":false,"rental_uris":{"android":"levelo://app?vid=09880af0-899c-427e-bfec-ab0fdb229c89","ios":"levelo://app?vid=09880af0-899c-427e-bfec-ab0fdb229c89"},"vehicle_type_id":"4","last_reported":1762777300,"current_range_meters":18000,"station_id":"","pricing_plan_id":"cebpf4jnsgd1na2vs0mg"},{"bike_id":"dea25614-dc02-4042-828b-2717b79e7d07","system_id":"levelo_inurba_marseille","lat":43.29535,"lon":5.38546,"is_reserved":false,"is_disabled":false,"rental_uris":{"android":"levelo://app?vid=dea25614-dc02-4042-828b-2717b79e7d07","ios":"levelo://app?vid=dea25614-dc02-4042-828b-2717b79e7d07"},"vehicle_type_id":"4","last_reported":1762777300,"current_range_meters":18000,"station_id":"ce4bgih2rcd13ifvqba0","pricing_plan_id":"cebpf4jnsgd1na2vs0mg"},{"bike_id":"b74a1259-670e-42fc-bdfe-b44abe307d82","system_id":"levelo_inurba_marseille","lat":43.31171,"lon":5.38721,"is_reserved":false,"is_disabled":false,"rental_uris":{"android":"levelo://app?vid=b74a1259-670e-42fc-bdfe-b44abe307d82","ios":"levelo://app?vid=b74a1259-670e-42fc-bdfe-b44abe307d82"},"vehicle_type_id":"4","last_reported":1762777300,"current_range_meters":18000,"station_id":"ce4bgv12rcd13ifvqcp0","pricing_plan_id":"cebpf4jnsgd1na2vs0mg"},{"bike_id":"5eb28dc9-1056-4fe2-a3f0-4c13efc57df0","system_id":"levelo_inurba_marseille","lat":43.25932,"lon":5.40898,"is_reserved":false,"is_disabled":true,"rental_uris":{"android":"levelo://app?vid=5eb28dc9-1056-4fe2-a3f0-4c13efc57df0","ios":"levelo://app?vid=5eb28dc9-1056-4fe2-a3f0-4c13efc57df0"},"vehicle_type_id":"4","last_reported":1762777300,"current_range_meters":18000,"station_id":"ce4bhm92rcd13ifvqglg","pricing_plan_id":"cebpf4jnsgd1na2vs0mg"},{"bike_id":"3e7bbb98-77d7-4b96-995c-d3e56f12c51d","system_id":"levelo_inurba_marseille","lat":43.21741,"lon":5.34616,"is_reserved":false,"is_disabled":false,"rental_uris":{"android":"levelo://app?vid=3e7bbb98-77d7-4b96-995c-d3e56f12c51d","ios":"levelo://app?vid=3e7bbb98-77d7-4b96-995c-d3e56f12c51d"},"vehicle_type_id":"4","last_reported":1762777300,"current_range_meters":18000,"station_id":"st_cvj6r9ubvosntc0bgbag","pricing_plan_id":"cebpf4jnsgd1na2vs0mg"},{"bike_id":"e1751786-4424-48db-b44a-5a368c88efe8","system_id":"levelo_inurba_marseille","lat":43.293,"lon":5.37457,"is_reserved":false,"is_disabled":false,"rental_uris":{"android":"levelo://app?vid=e1751786-4424-48db-b44a-5a368c88efe8","ios":"levelo://app?vid=e1751786-4424-48db-b44a-5a368c88efe8"},"vehicle_type_id":"4","last_reported":1762777300,"current_range_meters":18000,"station_id":"ce4bgi12rcd13ifvqb70","pricing_plan_id":"cebpf4jnsgd1na2vs0mg"},{"bike_id":"851e52a7-7701-41a2-9335-4b4a9404896b","system_id":"levelo_inurba_marseille","lat":43.29803,"lon":5.44078,"is_reserved":false,"is_disabled":false,"rental_uris":{"android":"levelo://app?vid=851e52a7-7701-41a2-9335-4b4a9404896b","ios":"levelo://app?vid=851e52a7-7701-41a2-9335-4b4a9404896b"},"vehicle_type_id":"4","last_reported":1762777300,"current_range_meters":18000,"station_id":"st_d3jp68qikq2c7381ktn0","pricing_plan_id":"cebpf4jnsgd1na2vs0mg"},{"bike_id":"1131eb64-d9e3-4e7f-be5b-b1d23a32361f","system_id":"levelo_inurba_marseille","lat":43.30213,"lon":5.39469,"is_reserved":false,"is_disabled":false,"rental_uris":{"android":"levelo://app?vid=1131eb64-d9e3-4e7f-be5b-b1d23a32361f","ios":"levelo://app?vid=1131eb64-d9e3-4e7f-be5b-b1d23a32361f"},"vehicle_type_id":"4","last_reported":1762777300,"current_range_meters":18000,"station_id":"ce4bh0p2rcd13ifvqd70","pricing_plan_id":"cebpf4jnsgd1na2vs0mg"},{"bike_id":"6543fdf0-6dfe-4848-ac5e-7c96671f108f","system_id":"levelo_inurba_marseille","lat":43.29277,"lon":5.384526,"is_reserved":false,"is_disabled":false,"rental_uris":{"android":"levelo://app?vid=6543fdf0-6dfe-4848-ac5e-7c96671f108f","ios":"levelo://app?vid=6543fdf0-6dfe-4848-ac5e-7c96671f108f"},"vehicle_type_id":"4","last_reported":1762777300,"current_range_meters":18000,"station_id":"ce4bh292rcd13ifvqdf0","pricing_plan_id":"cebpf4jnsgd1na2vs0mg"},{"bike_id":"747d9ab8-1bce-4c02-90e7-3fce2b3a2781","system_id":"levelo_inurba_marseille","lat":43.26801,"lon":5.40269,"is_reserved":false,"is_disabled":false,"rental_uris":{"android":"levelo://app?vid=747d9ab8-1bce-4c02-90e7-3fce2b3a2781","ios":"levelo://app?vid=747d9ab8-1bce-4c02-90e7-3fce2b3a2781"},"vehicle_type_id":"4","last_reported":1762777300,"current_range_meters":18800,"station_id":"ce501612rcd8frsf0b60","pricing_plan_id":"cebpf4jnsgd1na2vs0mg"},{"bike_id":"6c2e941e-ae3e-4c83-a628-eb709f7962cd","system_id":"levelo_inurba_marseille","lat":43.27039,"lon":5.40286,"is_reserved":false,"is_disabled":false,"rental_uris":{"android":"levelo://app?vid=6c2e941e-ae3e-4c83-a628-eb709f7962cd","ios":"levelo://app?vid=6c2e941e-ae3e-4c83-a628-eb709f7962cd"},"vehicle_type_id":"4","last_reported":1762777300,"current_range_meters":18800,"station_id":"ce4bhk92rcd13ifvqgc0","pricing_plan_id":"cebpf4jnsgd1na2vs0mg"},{"bike_id":"d610cd16-c813-406e-bee7-295ec8ce6047","system_id":"levelo_inurba_marseille","lat":43.31437,"lon":5.37378,"is_reserved":false,"is_disabled":false,"rental_uris":{"android":"levelo://app?vid=d610cd16-c813-406e-bee7-295ec8ce6047","ios":"levelo://app?vid=d610cd16-c813-406e-bee7-295ec8ce6047"},"vehicle_type_id":"4","last_reported":1762777300,"current_range_meters":18800,"station_id":"","pricing_plan_id":"cebpf4jnsgd1na2vs0mg"},{"bike_id":"d900c339-5489-4108-89e5-9b53f0f4d1db","system_id":"levelo_inurba_marseille","lat":43.225329,"lon":5.348353,"is_reserved":false,"is_disabled":false,"rental_uris":{"android":"levelo://app?vid=d900c339-5489-4108-89e5-9b53f0f4d1db","ios":"levelo://app?vid=d900c339-5489-4108-89e5-9b53f0f4d1db"},"vehicle_type_id":"4","last_reported":1762777300,"current_range_meters":18800,"station_id":"","pricing_plan_id":"cebpf4jnsgd1na2vs0mg"},{"bike_id":"5bd53e07-7481-493e-acc4-b0ce56a74542","system_id":"levelo_inurba_marseille","lat":43.28936,"lon":5.36643,"is_reserved":false,"is_disabled":false,"rental_uris":{"android":"levelo://app?vid=5bd53e07-7481-493e-acc4-b0ce56a74542","ios":"levelo://app?vid=5bd53e07-7481-493e-acc4-b0ce56a74542"},"vehicle_type_id":"4","last_reported":1762777300,"current_range_meters":18800,"station_id":"ce4bhap2rcd13ifvqek0","pricing_plan_id":"cebpf4jnsgd1na2vs0mg"},{"bike_id":"a5435a88-a619-47f3-9ae6-c860a89e9176","system_id":"levelo_inurba_marseille","lat":43.29702,"lon":5.37717,"is_reserved":false,"is_disabled":false,"rental_uris":{"android":"levelo://app?vid=a5435a88-a619-47f3-9ae6-c860a89e9176","ios":"levelo://app?vid=a5435a88-a619-47f3-9ae6-c860a89e9176"},"vehicle_type_id":"4","last_reported":1762777300,"current_range_meters":18800,"station_id":"ce4bgkh2rcd13ifvqbl0","pricing_plan_id":"cebpf4jnsgd1na2vs0mg"},{"bike_id":"5dbd84dd-cc46-4566-b300-5ee5796603c8","system_id":"levelo_inurba_marseille","lat":43.29592,"lon":5.367344,"is_reserved":false,"is_disabled":false,"rental_uris":{"android":"levelo://app?vid=5dbd84dd-cc46-4566-b300-5ee5796603c8","ios":"levelo://app?vid=5dbd84dd-cc46-4566-b300-5ee5796603c8"},"vehicle_type_id":"4","last_reported":1762777300,"current_range_meters":18800,"station_id":"ce4bgph2rcd13ifvqc2g","pricing_plan_id":"cebpf4jnsgd1na2vs0mg"},{"bike_id":"da0cd864-9cf9-43d5-983b-8a9cbe6896f6","system_id":"levelo_inurba_marseille","lat":43.27806,"lon":5.40716,"is_reserved":false,"is_disabled":false,"rental_uris":{"android":"levelo://app?vid=da0cd864-9cf9-43d5-983b-8a9cbe6896f6","ios":"levelo://app?vid=da0cd864-9cf9-43d5-983b-8a9cbe6896f6"},"vehicle_type_id":"4","last_reported":1762777300,"current_range_meters":19200,"station_id":"ce4bhnh2rcd13ifvqgtg","pricing_plan_id":"cebpf4jnsgd1na2vs0mg"},{"bike_id":"96d132e6-f9ce-4bce-a02d-cee681ed88c4","system_id":"levelo_inurba_marseille","lat":43.26215,"lon":5.40455,"is_reserved":false,"is_disabled":false,"rental_uris":{"android":"levelo://app?vid=96d132e6-f9ce-4bce-a02d-cee681ed88c4","ios":"levelo://app?vid=96d132e6-f9ce-4bce-a02d-cee681ed88c4"},"vehicle_type_id":"4","last_reported":1762777300,"current_range_meters":19200,"station_id":"ce4bhmh2rcd13ifvqgmg","pricing_plan_id":"cebpf4jnsgd1na2vs0mg"},{"bike_id":"56b64e69-09a3-4bfa-8843-99508c3a1dd3","system_id":"levelo_inurba_marseille","lat":43.286711,"lon":5.386679,"is_reserved":false,"is_disabled":false,"rental_uris":{"android":"levelo://app?vid=56b64e69-09a3-4bfa-8843-99508c3a1dd3","ios":"levelo://app?vid=56b64e69-09a3-4bfa-8843-99508c3a1dd3"},"vehicle_type_id":"4","last_reported":1762777300,"current_range_meters":19200,"station_id":"ce4bh492rcd13ifvqdug","pricing_plan_id":"cebpf4jnsgd1na2vs0mg"},{"bike_id":"27b4a801-4235-4582-8ab7-9991dbe54d08","system_id":"levelo_inurba_marseille","lat":43.25951,"lon":5.40921,"is_reserved":false,"is_disabled":false,"rental_uris":{"android":"levelo://app?vid=27b4a801-4235-4582-8ab7-9991dbe54d08","ios":"levelo://app?vid=27b4a801-4235-4582-8ab7-9991dbe54d08"},"vehicle_type_id":"4","last_reported":1762777300,"current_range_meters":19200,"station_id":"ce4bhm92rcd13ifvqglg","pricing_plan_id":"cebpf4jnsgd1na2vs0mg"},{"bike_id":"03a83275-e54f-4e8b-afa5-0797e4a4dcde","system_id":"levelo_inurba_marseille","lat":43.24064,"lon":5.37779,"is_reserved":false,"is_disabled":false,"rental_uris":{"android":"levelo://app?vid=03a83275-e54f-4e8b-afa5-0797e4a4dcde","ios":"levelo://app?vid=03a83275-e54f-4e8b-afa5-0797e4a4dcde"},"vehicle_type_id":"4","last_reported":1762777300,"current_range_meters":19200,"station_id":"ce4bhnp2rcd13ifvqgvg","pricing_plan_id":"cebpf4jnsgd1na2vs0mg"},{"bike_id":"e2104b6a-7e12-4a20-ae1b-cf4b446d5e26","system_id":"levelo_inurba_marseille","lat":43.284802,"lon":5.483943,"is_reserved":false,"is_disabled":false,"rental_uris":{"android":"levelo://app?vid=e2104b6a-7e12-4a20-ae1b-cf4b446d5e26","ios":"levelo://app?vid=e2104b6a-7e12-4a20-ae1b-cf4b446d5e26"},"vehicle_type_id":"4","last_reported":1762777300,"current_range_meters":19200,"station_id":"st_d3svhcjqgbts73a3dn0g","pricing_plan_id":"cebpf4jnsgd1na2vs0mg"},{"bike_id":"89f48309-fa84-45ca-ba8c-1519d88f534d","system_id":"levelo_inurba_marseille","lat":43.287752,"lon":5.408263,"is_reserved":false,"is_disabled":true,"rental_uris":{"android":"levelo://app?vid=89f48309-fa84-45ca-ba8c-1519d88f534d","ios":"levelo://app?vid=89f48309-fa84-45ca-ba8c-1519d88f534d"},"vehicle_type_id":"4","last_reported":1762777300,"current_range_meters":19200,"station_id":"","pricing_plan_id":"cebpf4jnsgd1na2vs0mg"},{"bike_id":"1cedf961-91a0-49bb-b0bc-fb49c375052c","system_id":"levelo_inurba_marseille","lat":43.24154,"lon":5.36416,"is_reserved":false,"is_disabled":false,"rental_uris":{"android":"levelo://app?vid=1cedf961-91a0-49bb-b0bc-fb49c375052c","ios":"levelo://app?vid=1cedf961-91a0-49bb-b0bc-fb49c375052c"},"vehicle_type_id":"4","last_reported":1762777300,"current_range_meters":19200,"station_id":"cpo36qri1sfpv3e86is0","pricing_plan_id":"cebpf4jnsgd1na2vs0mg"},{"bike_id":"4950588c-a2f6-4f8f-9f3c-f2b1c975f80e","system_id":"levelo_inurba_marseille","lat":43.23154,"lon":5.43703,"is_reserved":false,"is_disabled":false,"rental_uris":{"android":"levelo://app?vid=4950588c-a2f6-4f8f-9f3c-f2b1c975f80e","ios":"levelo://app?vid=4950588c-a2f6-4f8f-9f3c-f2b1c975f80e"},"vehicle_type_id":"4","last_reported":1762777300,"current_range_meters":19200,"station_id":"ce4bhmp2rcd13ifvqgog","pricing_plan_id":"cebpf4jnsgd1na2vs0mg"},{"bike_id":"fe3cf7b7-46c6-4665-8d69-5133c63da983","system_id":"levelo_inurba_marseille","lat":43.25578,"lon":5.38234,"is_reserved":false,"is_disabled":false,"rental_uris":{"android":"levelo://app?vid=fe3cf7b7-46c6-4665-8d69-5133c63da983","ios":"levelo://app?vid=fe3cf7b7-46c6-4665-8d69-5133c63da983"},"vehicle_type_id":"4","last_reported":1762777300,"current_range_meters":19600,"station_id":"ce4bhih2rcd13ifvqfs0","pricing_plan_id":"cebpf4jnsgd1na2vs0mg"},{"bike_id":"d40b97ed-c0ed-4f29-a134-ec9a97d531d7","system_id":"levelo_inurba_marseille","lat":43.29619,"lon":5.37735,"is_reserved":false,"is_disabled":false,"rental_uris":{"android":"levelo://app?vid=d40b97ed-c0ed-4f29-a134-ec9a97d531d7","ios":"levelo://app?vid=d40b97ed-c0ed-4f29-a134-ec9a97d531d7"},"vehicle_type_id":"4","last_reported":1762777300,"current_range_meters":19600,"station_id":"ce4bgi92rcd13ifvqb90","pricing_plan_id":"cebpf4jnsgd1na2vs0mg"},{"bike_id":"67e770ba-deba-46a3-847e-69635a32eaad","system_id":"levelo_inurba_marseille","lat":43.24177,"lon":5.39725,"is_reserved":false,"is_disabled":false,"rental_uris":{"android":"levelo://app?vid=67e770ba-deba-46a3-847e-69635a32eaad","ios":"levelo://app?vid=67e770ba-deba-46a3-847e-69635a32eaad"},"vehicle_type_id":"4","last_reported":1762777300,"current_range_meters":19600,"station_id":"ce4bhn12rcd13ifvqgpg","pricing_plan_id":"cebpf4jnsgd1na2vs0mg"},{"bike_id":"133221aa-9b50-47e0-8e84-d97303b30313","system_id":"levelo_inurba_marseille","lat":43.2463,"lon":5.43147,"is_reserved":false,"is_disabled":false,"rental_uris":{"android":"levelo://app?vid=133221aa-9b50-47e0-8e84-d97303b30313","ios":"levelo://app?vid=133221aa-9b50-47e0-8e84-d97303b30313"},"vehicle_type_id":"4","last_reported":1762777300,"current_range_meters":19600,"station_id":"st_d2m6c4gdas8pm72e190g","pricing_plan_id":"cebpf4jnsgd1na2vs0mg"},{"bike_id":"74dc2b1c-2447-4423-927a-07f7b3ff659b","system_id":"levelo_inurba_marseille","lat":43.29784,"lon":5.37103,"is_reserved":false,"is_disabled":false,"rental_uris":{"android":"levelo://app?vid=74dc2b1c-2447-4423-927a-07f7b3ff659b","ios":"levelo://app?vid=74dc2b1c-2447-4423-927a-07f7b3ff659b"},"vehicle_type_id":"4","last_reported":1762777300,"current_range_meters":19600,"station_id":"ce4bgop2rcd13ifvqc1g","pricing_plan_id":"cebpf4jnsgd1na2vs0mg"},{"bike_id":"d9eb79bd-97b4-4857-bd42-02f2e6acc81d","system_id":"levelo_inurba_marseille","lat":43.2118,"lon":5.35093,"is_reserved":false,"is_disabled":false,"rental_uris":{"android":"levelo://app?vid=d9eb79bd-97b4-4857-bd42-02f2e6acc81d","ios":"levelo://app?vid=d9eb79bd-97b4-4857-bd42-02f2e6acc81d"},