{"last_updated":1744873862,"ttl":60,"version":"2.2","data":{"bikes":[{"bike_id":"46b2c0fa-e26d-4f54-ae94-3d6adc1b5b57","system_id":"levelo_inurba_marseille","lat":43.30259,"lon":5.4008,"is_reserved":false,"is_disabled":false,"rental_uris":{"android":"levelo://app?vid=46b2c0fa-e26d-4f54-ae94-3d6adc1b5b57","ios":"levelo://app?vid=46b2c0fa-e26d-4f54-ae94-3d6adc1b5b57"},"vehicle_type_id":"4","last_reported":1744873862,"current_range_meters":2800,"station_id":"ce4bgvh2rcd13ifvqcs0","pricing_plan_id":"cebpf4jnsgd1na2vs0mg"},{"bike_id":"02d04c7b-d82c-407c-a1fe-f6c5a2c166e6","system_id":"levelo_inurba_marseille","lat":43.26684,"lon":5.38274,"is_reserved":false,"is_disabled":false,"rental_uris":{"android":"levelo://app?vid=02d04c7b-d82c-407c-a1fe-f6c5a2c166e6","ios":"levelo://app?vid=02d04c7b-d82c-407c-a1fe-f6c5a2c166e6"},"vehicle_type_id":"4","last_reported":1744873862,"current_range_meters":3200,"station_id":"ce4bhg92rcd13ifvqf90","pricing_plan_id":"cebpf4jnsgd1na2vs0mg"},{"bike_id":"4be423fc-b49d-4203-8abc-985b45dfd65e","system_id":"levelo_inurba_marseille","lat":43.329119,"lon":5.433806,"is_reserved":false,"is_disabled":false,"rental_uris":{"android":"levelo://app?vid=4be423fc-b49d-4203-8abc-985b45dfd65e","ios":"levelo://app?vid=4be423fc-b49d-4203-8abc-985b45dfd65e"},"vehicle_type_id":"4","last_reported":1744873862,"current_range_meters":4000,"station_id":"","pricing_plan_id":"cebpf4jnsgd1na2vs0mg"},{"bike_id":"e45158c3-96ee-42b8-b8d0-6bfc8e91677d","system_id":"levelo_inurba_marseille","lat":43.27821,"lon":5.40729,"is_reserved":false,"is_disabled":false,"rental_uris":{"android":"levelo://app?vid=e45158c3-96ee-42b8-b8d0-6bfc8e91677d","ios":"levelo://app?vid=e45158c3-96ee-42b8-b8d0-6bfc8e91677d"},"vehicle_type_id":"4","last_reported":1744873862,"current_range_meters":4400,"station_id":"ce4bhnh2rcd13ifvqgtg","pricing_plan_id":"cebpf4jnsgd1na2vs0mg"},{"bike_id":"a9d7a608-f000-4a46-9ea2-908e25a9ec40","system_id":"levelo_inurba_marseille","lat":43.24179,"lon":5.39728,"is_reserved":false,"is_disabled":false,"rental_uris":{"android":"levelo://app?vid=a9d7a608-f000-4a46-9ea2-908e25a9ec40","ios":"levelo://app?vid=a9d7a608-f000-4a46-9ea2-908e25a9ec40"},"vehicle_type_id":"4","last_reported":1744873862,"current_range_meters":4400,"station_id":"ce4bhn12rcd13ifvqgpg","pricing_plan_id":"cebpf4jnsgd1na2vs0mg"},{"bike_id":"83da6c8c-5862-4b08-b742-b0b9e535988e","system_id":"levelo_inurba_marseille","lat":43.31522,"lon":5.38035,"is_reserved":false,"is_disabled":false,"rental_uris":{"android":"levelo://app?vid=83da6c8c-5862-4b08-b742-b0b9e535988e","ios":"levelo://app?vid=83da6c8c-5862-4b08-b742-b0b9e535988e"},"vehicle_type_id":"4","last_reported":1744873862,"current_range_meters":4800,"station_id":"ce4bhsp2rcd13ifvqi50","pricing_plan_id":"cebpf4jnsgd1na2vs0mg"},{"bike_id":"a829ae25-8f1a-4059-a4b7-5be1d885c516","system_id":"levelo_inurba_marseille","lat":43.31223,"lon":5.36853,"is_reserved":false,"is_disabled":false,"rental_uris":{"android":"levelo://app?vid=a829ae25-8f1a-4059-a4b7-5be1d885c516","ios":"levelo://app?vid=a829ae25-8f1a-4059-a4b7-5be1d885c516"},"vehicle_type_id":"4","last_reported":1744873862,"current_range_meters":4800,"station_id":"ce4bgl92rcd13ifvqbq0","pricing_plan_id":"cebpf4jnsgd1na2vs0mg"},{"bike_id":"376f754b-7bba-4962-babe-b49b1468281c","system_id":"levelo_inurba_marseille","lat":43.30923,"lon":5.40168,"is_reserved":false,"is_disabled":true,"rental_uris":{"android":"levelo://app?vid=376f754b-7bba-4962-babe-b49b1468281c","ios":"levelo://app?vid=376f754b-7bba-4962-babe-b49b1468281c"},"vehicle_type_id":"4","last_reported":1744873862,"current_range_meters":4800,"station_id":"ce4bgvp2rcd13ifvqct0","pricing_plan_id":"cebpf4jnsgd1na2vs0mg"},{"bike_id":"25fbf17a-f8ec-486f-854b-8d888267d349","system_id":"levelo_inurba_marseille","lat":43.297461,"lon":5.380348,"is_reserved":false,"is_disabled":false,"rental_uris":{"android":"levelo://app?vid=25fbf17a-f8ec-486f-854b-8d888267d349","ios":"levelo://app?vid=25fbf17a-f8ec-486f-854b-8d888267d349"},"vehicle_type_id":"4","last_reported":1744873862,"current_range_meters":5600,"station_id":"ce4bgs12rcd13ifvqcag","pricing_plan_id":"cebpf4jnsgd1na2vs0mg"},{"bike_id":"db1d188d-89a9-4b26-8d6d-207e9d196654","system_id":"levelo_inurba_marseille","lat":43.278169,"lon":5.406944,"is_reserved":false,"is_disabled":false,"rental_uris":{"android":"levelo://app?vid=db1d188d-89a9-4b26-8d6d-207e9d196654","ios":"levelo://app?vid=db1d188d-89a9-4b26-8d6d-207e9d196654"},"vehicle_type_id":"4","last_reported":1744873862,"current_range_meters":5600,"station_id":"ce4bhnh2rcd13ifvqgtg","pricing_plan_id":"cebpf4jnsgd1na2vs0mg"},{"bike_id":"4a340735-6d34-4c51-83b1-b50b0b43373d","system_id":"levelo_inurba_marseille","lat":43.32481,"lon":5.36569,"is_reserved":false,"is_disabled":false,"rental_uris":{"android":"levelo://app?vid=4a340735-6d34-4c51-83b1-b50b0b43373d","ios":"levelo://app?vid=4a340735-6d34-4c51-83b1-b50b0b43373d"},"vehicle_type_id":"4","last_reported":1744873862,"current_range_meters":5600,"station_id":"ce4bhs12rcd13ifvqhvg","pricing_plan_id":"cebpf4jnsgd1na2vs0mg"},{"bike_id":"890c298a-9620-4b82-9bff-88c1da21ada2","system_id":"levelo_inurba_marseille","lat":43.308929,"lon":5.368462,"is_reserved":false,"is_disabled":false,"rental_uris":{"android":"levelo://app?vid=890c298a-9620-4b82-9bff-88c1da21ada2","ios":"levelo://app?vid=890c298a-9620-4b82-9bff-88c1da21ada2"},"vehicle_type_id":"4","last_reported":1744873862,"current_range_meters":6000,"station_id":"ce4bgn92rcd13ifvqbvg","pricing_plan_id":"cebpf4jnsgd1na2vs0mg"},{"bike_id":"4382845b-13e0-4ef4-a436-7d1d0681ec18","system_id":"levelo_inurba_marseille","lat":43.31345,"lon":5.36732,"is_reserved":false,"is_disabled":false,"rental_uris":{"android":"levelo://app?vid=4382845b-13e0-4ef4-a436-7d1d0681ec18","ios":"levelo://app?vid=4382845b-13e0-4ef4-a436-7d1d0681ec18"},"vehicle_type_id":"4","last_reported":1744873862,"current_range_meters":6000,"station_id":"ce4bgr92rcd13ifvqc6g","pricing_plan_id":"cebpf4jnsgd1na2vs0mg"},{"bike_id":"cb2da82a-1b68-4f08-b8a6-8a60961f2d95","system_id":"levelo_inurba_marseille","lat":43.31342,"lon":5.36716,"is_reserved":false,"is_disabled":false,"rental_uris":{"android":"levelo://app?vid=cb2da82a-1b68-4f08-b8a6-8a60961f2d95","ios":"levelo://app?vid=cb2da82a-1b68-4f08-b8a6-8a60961f2d95"},"vehicle_type_id":"4","last_reported":1744873862,"current_range_meters":6000,"station_id":"ce4bgr92rcd13ifvqc6g","pricing_plan_id":"cebpf4jnsgd1na2vs0mg"},{"bike_id":"27d65429-e235-4ad4-8e99-624219bf772a","system_id":"levelo_inurba_marseille","lat":43.30761,"lon":5.42427,"is_reserved":false,"is_disabled":false,"rental_uris":{"android":"levelo://app?vid=27d65429-e235-4ad4-8e99-624219bf772a","ios":"levelo://app?vid=27d65429-e235-4ad4-8e99-624219bf772a"},"vehicle_type_id":"4","last_reported":1744873862,"current_range_meters":6000,"station_id":"st_cvj6ca6bvosntc0bfgr0","pricing_plan_id":"cebpf4jnsgd1na2vs0mg"},{"bike_id":"3ac779a4-a733-41fb-a10f-59270a58f3e4","system_id":"levelo_inurba_marseille","lat":43.2594,"lon":5.40905,"is_reserved":false,"is_disabled":false,"rental_uris":{"android":"levelo://app?vid=3ac779a4-a733-41fb-a10f-59270a58f3e4","ios":"levelo://app?vid=3ac779a4-a733-41fb-a10f-59270a58f3e4"},"vehicle_type_id":"4","last_reported":1744873862,"current_range_meters":6400,"station_id":"ce4bhm92rcd13ifvqglg","pricing_plan_id":"cebpf4jnsgd1na2vs0mg"},{"bike_id":"5a46d4b9-61c5-4dc6-a227-2ce9e3684801","system_id":"levelo_inurba_marseille","lat":43.26793,"lon":5.39413,"is_reserved":false,"is_disabled":false,"rental_uris":{"android":"levelo://app?vid=5a46d4b9-61c5-4dc6-a227-2ce9e3684801","ios":"levelo://app?vid=5a46d4b9-61c5-4dc6-a227-2ce9e3684801"},"vehicle_type_id":"4","last_reported":1744873862,"current_range_meters":6400,"station_id":"ce4bhh12rcd13ifvqfg0","pricing_plan_id":"cebpf4jnsgd1na2vs0mg"},{"bike_id":"56faa365-6eef-4646-bb31-e922c367b2fe","system_id":"levelo_inurba_marseille","lat":43.25938,"lon":5.40901,"is_reserved":false,"is_disabled":false,"rental_uris":{"android":"levelo://app?vid=56faa365-6eef-4646-bb31-e922c367b2fe","ios":"levelo://app?vid=56faa365-6eef-4646-bb31-e922c367b2fe"},"vehicle_type_id":"4","last_reported":1744873862,"current_range_meters":6400,"station_id":"ce4bhm92rcd13ifvqglg","pricing_plan_id":"cebpf4jnsgd1na2vs0mg"},{"bike_id":"17609ac2-bece-4fb4-9ef4-ae1867446028","system_id":"levelo_inurba_marseille","lat":43.274223,"lon":5.394103,"is_reserved":false,"is_disabled":true,"rental_uris":{"android":"levelo://app?vid=17609ac2-bece-4fb4-9ef4-ae1867446028","ios":"levelo://app?vid=17609ac2-bece-4fb4-9ef4-ae1867446028"},"vehicle_type_id":"4","last_reported":1744873862,"current_range_meters":6800,"station_id":"ce4bhdp2rcd13ifvqf20","pricing_plan_id":"cebpf4jnsgd1na2vs0mg"},{"bike_id":"51875e50-7830-42ab-87b5-bc339625ae5c","system_id":"levelo_inurba_marseille","lat":43.23964,"lon":5.36627,"is_reserved":false,"is_disabled":false,"rental_uris":{"android":"levelo://app?vid=51875e50-7830-42ab-87b5-bc339625ae5c","ios":"levelo://app?vid=51875e50-7830-42ab-87b5-bc339625ae5c"},"vehicle_type_id":"4","last_reported":1744873862,"current_range_meters":6800,"station_id":"ce4bhi12rcd13ifvqfp0","pricing_plan_id":"cebpf4jnsgd1na2vs0mg"},{"bike_id":"ff62eed3-c9e5-4042-ad3a-9d4fb6b2a14f","system_id":"levelo_inurba_marseille","lat":43.26954,"lon":5.38636,"is_reserved":false,"is_disabled":false,"rental_uris":{"android":"levelo://app?vid=ff62eed3-c9e5-4042-ad3a-9d4fb6b2a14f","ios":"levelo://app?vid=ff62eed3-c9e5-4042-ad3a-9d4fb6b2a14f"},"vehicle_type_id":"4","last_reported":1744873862,"current_range_meters":6800,"station_id":"ce4bhh92rcd13ifvqfh0","pricing_plan_id":"cebpf4jnsgd1na2vs0mg"},{"bike_id":"9698449c-31a8-4bb5-b153-948a2174207f","system_id":"levelo_inurba_marseille","lat":43.33611,"lon":5.41032,"is_reserved":false,"is_disabled":false,"rental_uris":{"android":"levelo://app?vid=9698449c-31a8-4bb5-b153-948a2174207f","ios":"levelo://app?vid=9698449c-31a8-4bb5-b153-948a2174207f"},"vehicle_type_id":"4","last_reported":1744873862,"current_range_meters":7200,"station_id":"ce4bhqh2rcd13ifvqhmg","pricing_plan_id":"cebpf4jnsgd1na2vs0mg"},{"bike_id":"89284911-e80c-471a-8b5f-b374022a4bc4","system_id":"levelo_inurba_marseille","lat":43.30151,"lon":5.37393,"is_reserved":false,"is_disabled":false,"rental_uris":{"android":"levelo://app?vid=89284911-e80c-471a-8b5f-b374022a4bc4","ios":"levelo://app?vid=89284911-e80c-471a-8b5f-b374022a4bc4"},"vehicle_type_id":"4","last_reported":1744873862,"current_range_meters":7200,"station_id":"ce4bgs92rcd13ifvqcc0","pricing_plan_id":"cebpf4jnsgd1na2vs0mg"},{"bike_id":"41b254f8-2679-4504-a051-1725c0942faa","system_id":"levelo_inurba_marseille","lat":43.2962,"lon":5.37163,"is_reserved":false,"is_disabled":false,"rental_uris":{"android":"levelo://app?vid=41b254f8-2679-4504-a051-1725c0942faa","ios":"levelo://app?vid=41b254f8-2679-4504-a051-1725c0942faa"},"vehicle_type_id":"4","last_reported":1744873862,"current_range_meters":7200,"station_id":"ce4bgkh2rcd13ifvqbl0","pricing_plan_id":"cebpf4jnsgd1na2vs0mg"},{"bike_id":"cc660ce7-d27b-4993-972e-fcdcc06efb2d","system_id":"levelo_inurba_marseille","lat":43.29037,"lon":5.40008,"is_reserved":false,"is_disabled":false,"rental_uris":{"android":"levelo://app?vid=cc660ce7-d27b-4993-972e-fcdcc06efb2d","ios":"levelo://app?vid=cc660ce7-d27b-4993-972e-fcdcc06efb2d"},"vehicle_type_id":"4","last_reported":1744873862,"current_range_meters":8000,"station_id":"ce4bh392rcd13ifvqdm0","pricing_plan_id":"cebpf4jnsgd1na2vs0mg"},{"bike_id":"04a4deb4-41bf-441f-925a-eda17aad26c7","system_id":"levelo_inurba_marseille","lat":43.26688,"lon":5.38274,"is_reserved":false,"is_disabled":false,"rental_uris":{"android":"levelo://app?vid=04a4deb4-41bf-441f-925a-eda17aad26c7","ios":"levelo://app?vid=04a4deb4-41bf-441f-925a-eda17aad26c7"},"vehicle_type_id":"4","last_reported":1744873862,"current_range_meters":8000,"station_id":"ce4bhg92rcd13ifvqf90","pricing_plan_id":"cebpf4jnsgd1na2vs0mg"},{"bike_id":"59c2e1e0-94da-4452-9b76-84ff52f79e63","system_id":"levelo_inurba_marseille","lat":43.312456,"lon":5.36869,"is_reserved":false,"is_disabled":false,"rental_uris":{"android":"levelo://app?vid=59c2e1e0-94da-4452-9b76-84ff52f79e63","ios":"levelo://app?vid=59c2e1e0-94da-4452-9b76-84ff52f79e63"},"vehicle_type_id":"4","last_reported":1744873862,"current_range_meters":8000,"station_id":"ce4bgl92rcd13ifvqbq0","pricing_plan_id":"cebpf4jnsgd1na2vs0mg"},{"bike_id":"13212ea6-c79f-428f-bf88-2ce269adcaff","system_id":"levelo_inurba_marseille","lat":43.24799,"lon":5.37454,"is_reserved":false,"is_disabled":false,"rental_uris":{"android":"levelo://app?vid=13212ea6-c79f-428f-bf88-2ce269adcaff","ios":"levelo://app?vid=13212ea6-c79f-428f-bf88-2ce269adcaff"},"vehicle_type_id":"4","last_reported":1744873862,"current_range_meters":8000,"station_id":"ce4bhgh2rcd13ifvqfb0","pricing_plan_id":"cebpf4jnsgd1na2vs0mg"},{"bike_id":"6294d73f-1263-40ba-88a2-440c4508eed5","system_id":"levelo_inurba_marseille","lat":43.32491,"lon":5.36562,"is_reserved":false,"is_disabled":false,"rental_uris":{"android":"levelo://app?vid=6294d73f-1263-40ba-88a2-440c4508eed5","ios":"levelo://app?vid=6294d73f-1263-40ba-88a2-440c4508eed5"},"vehicle_type_id":"4","last_reported":1744873862,"current_range_meters":8400,"station_id":"ce4bhs12rcd13ifvqhvg","pricing_plan_id":"cebpf4jnsgd1na2vs0mg"},{"bike_id":"15701ca2-b92e-4248-b2b6-04ee3b91dd40","system_id":"levelo_inurba_marseille","lat":43.29312,"lon":5.37182,"is_reserved":false,"is_disabled":false,"rental_uris":{"android":"levelo://app?vid=15701ca2-b92e-4248-b2b6-04ee3b91dd40","ios":"levelo://app?vid=15701ca2-b92e-4248-b2b6-04ee3b91dd40"},"vehicle_type_id":"4","last_reported":1744873862,"current_range_meters":8400,"station_id":"ce4bgh92rcd13ifvqb40","pricing_plan_id":"cebpf4jnsgd1na2vs0mg"},{"bike_id":"ce5fddb3-a873-4db9-81bc-b8c71a6ea92a","system_id":"levelo_inurba_marseille","lat":43.30084,"lon":5.39084,"is_reserved":false,"is_disabled":false,"rental_uris":{"android":"levelo://app?vid=ce5fddb3-a873-4db9-81bc-b8c71a6ea92a","ios":"levelo://app?vid=ce5fddb3-a873-4db9-81bc-b8c71a6ea92a"},"vehicle_type_id":"4","last_reported":1744873862,"current_range_meters":8400,"station_id":"ce4bh192rcd13ifvqdb0","pricing_plan_id":"cebpf4jnsgd1na2vs0mg"},{"bike_id":"6a3f40c4-4ded-4144-be9b-7cf436c88be1","system_id":"levelo_inurba_marseille","lat":43.25925,"lon":5.4091,"is_reserved":false,"is_disabled":false,"rental_uris":{"android":"levelo://app?vid=6a3f40c4-4ded-4144-be9b-7cf436c88be1","ios":"levelo://app?vid=6a3f40c4-4ded-4144-be9b-7cf436c88be1"},"vehicle_type_id":"4","last_reported":1744873862,"current_range_meters":8400,"station_id":"ce4bhm92rcd13ifvqglg","pricing_plan_id":"cebpf4jnsgd1na2vs0mg"},{"bike_id":"f813d5ea-a9c6-48a7-be5d-f7b6ce5328e6","system_id":"levelo_inurba_marseille","lat":43.24674,"lon":5.38154,"is_reserved":false,"is_disabled":false,"rental_uris":{"android":"levelo://app?vid=f813d5ea-a9c6-48a7-be5d-f7b6ce5328e6","ios":"levelo://app?vid=f813d5ea-a9c6-48a7-be5d-f7b6ce5328e6"},"vehicle_type_id":"4","last_reported":1744873862,"current_range_meters":8800,"station_id":"ce4bhih2rcd13ifvqfr0","pricing_plan_id":"cebpf4jnsgd1na2vs0mg"},{"bike_id":"33a6722b-a378-4581-b569-bb0fe1ac4475","system_id":"levelo_inurba_marseille","lat":43.29987,"lon":5.3718,"is_reserved":false,"is_disabled":true,"rental_uris":{"android":"levelo://app?vid=33a6722b-a378-4581-b569-bb0fe1ac4475","ios":"levelo://app?vid=33a6722b-a378-4581-b569-bb0fe1ac4475"},"vehicle_type_id":"4","last_reported":1744873862,"current_range_meters":8800,"station_id":"ce4bgr92rcd13ifvqc7g","pricing_plan_id":"cebpf4jnsgd1na2vs0mg"},{"bike_id":"fac6b5d2-8f04-4fbb-9dd7-b8205c7389d9","system_id":"levelo_inurba_marseille","lat":43.292611,"lon":5.384439,"is_reserved":false,"is_disabled":false,"rental_uris":{"android":"levelo://app?vid=fac6b5d2-8f04-4fbb-9dd7-b8205c7389d9","ios":"levelo://app?vid=fac6b5d2-8f04-4fbb-9dd7-b8205c7389d9"},"vehicle_type_id":"4","last_reported":1744873862,"current_range_meters":9200,"station_id":"ce4bh692rcd13ifvqea0","pricing_plan_id":"cebpf4jnsgd1na2vs0mg"},{"bike_id":"25f8713b-f2da-4af5-9754-60162fc3b53a","system_id":"levelo_inurba_marseille","lat":43.30154,"lon":5.38094,"is_reserved":false,"is_disabled":false,"rental_uris":{"android":"levelo://app?vid=25f8713b-f2da-4af5-9754-60162fc3b53a","ios":"levelo://app?vid=25f8713b-f2da-4af5-9754-60162fc3b53a"},"vehicle_type_id":"4","last_reported":1744873862,"current_range_meters":9200,"station_id":"ce4bgjp2rcd13ifvqbh0","pricing_plan_id":"cebpf4jnsgd1na2vs0mg"},{"bike_id":"a514d395-39f7-4e9a-9140-2d828a875d5f","system_id":"levelo_inurba_marseille","lat":43.30953,"lon":5.39051,"is_reserved":false,"is_disabled":false,"rental_uris":{"android":"levelo://app?vid=a514d395-39f7-4e9a-9140-2d828a875d5f","ios":"levelo://app?vid=a514d395-39f7-4e9a-9140-2d828a875d5f"},"vehicle_type_id":"4","last_reported":1744873862,"current_range_meters":9200,"station_id":"ce4bgup2rcd13ifvqco0","pricing_plan_id":"cebpf4jnsgd1na2vs0mg"},{"bike_id":"84b58d90-bb57-4bdb-8485-62b6e661a441","system_id":"levelo_inurba_marseille","lat":43.24172,"lon":5.39733,"is_reserved":false,"is_disabled":true,"rental_uris":{"android":"levelo://app?vid=84b58d90-bb57-4bdb-8485-62b6e661a441","ios":"levelo://app?vid=84b58d90-bb57-4bdb-8485-62b6e661a441"},"vehicle_type_id":"4","last_reported":1744873862,"current_range_meters":9600,"station_id":"ce4bhn12rcd13ifvqgpg","pricing_plan_id":"cebpf4jnsgd1na2vs0mg"},{"bike_id":"d039d2b4-40e8-4f5c-af2b-a64b88326650","system_id":"levelo_inurba_marseille","lat":43.2594,"lon":5.40896,"is_reserved":false,"is_disabled":false,"rental_uris":{"android":"levelo://app?vid=d039d2b4-40e8-4f5c-af2b-a64b88326650","ios":"levelo://app?vid=d039d2b4-40e8-4f5c-af2b-a64b88326650"},"vehicle_type_id":"4","last_reported":1744873862,"current_range_meters":9600,"station_id":"ce4bhm92rcd13ifvqglg","pricing_plan_id":"cebpf4jnsgd1na2vs0mg"},{"bike_id":"dce566b6-40dc-4297-957e-bcdb54c975cf","system_id":"levelo_inurba_marseille","lat":43.26951,"lon":5.38638,"is_reserved":false,"is_disabled":false,"rental_uris":{"android":"levelo://app?vid=dce566b6-40dc-4297-957e-bcdb54c975cf","ios":"levelo://app?vid=dce566b6-40dc-4297-957e-bcdb54c975cf"},"vehicle_type_id":"4","last_reported":1744873862,"current_range_meters":9600,"station_id":"ce4bhh92rcd13ifvqfh0","pricing_plan_id":"cebpf4jnsgd1na2vs0mg"},{"bike_id":"834ec9e1-9d50-4bee-85ae-d1db335c55e5","system_id":"levelo_inurba_marseille","lat":43.31794,"lon":5.36827,"is_reserved":false,"is_disabled":false,"rental_uris":{"android":"levelo://app?vid=834ec9e1-9d50-4bee-85ae-d1db335c55e5","ios":"levelo://app?vid=834ec9e1-9d50-4bee-85ae-d1db335c55e5"},"vehicle_type_id":"4","last_reported":1744873862,"current_range_meters":9600,"station_id":"","pricing_plan_id":"cebpf4jnsgd1na2vs0mg"},{"bike_id":"2c9dea28-15f6-4e6e-aaef-e2416bf01ba5","system_id":"levelo_inurba_marseille","lat":43.28938,"lon":5.366397,"is_reserved":false,"is_disabled":false,"rental_uris":{"android":"levelo://app?vid=2c9dea28-15f6-4e6e-aaef-e2416bf01ba5","ios":"levelo://app?vid=2c9dea28-15f6-4e6e-aaef-e2416bf01ba5"},"vehicle_type_id":"4","last_reported":1744873862,"current_range_meters":9600,"station_id":"ce4bh9p2rcd13ifvqed0","pricing_plan_id":"cebpf4jnsgd1na2vs0mg"},{"bike_id":"fd4720f2-143e-4caf-97bd-f2a6aef89cdb","system_id":"levelo_inurba_marseille","lat":43.32542,"lon":5.4144,"is_reserved":false,"is_disabled":false,"rental_uris":{"android":"levelo://app?vid=fd4720f2-143e-4caf-97bd-f2a6aef89cdb","ios":"levelo://app?vid=fd4720f2-143e-4caf-97bd-f2a6aef89cdb"},"vehicle_type_id":"4","last_reported":1744873862,"current_range_meters":9600,"station_id":"ce4bhq12rcd13ifvqhhg","pricing_plan_id":"cebpf4jnsgd1na2vs0mg"},{"bike_id":"2e4df3f8-36a0-4aaa-a40e-25b01eb78413","system_id":"levelo_inurba_marseille","lat":43.3113,"lon":5.3778,"is_reserved":false,"is_disabled":false,"rental_uris":{"android":"levelo://app?vid=2e4df3f8-36a0-4aaa-a40e-25b01eb78413","ios":"levelo://app?vid=2e4df3f8-36a0-4aaa-a40e-25b01eb78413"},"vehicle_type_id":"4","last_reported":1744873862,"current_range_meters":10000,"station_id":"ce4bgt92rcd13ifvqcg0","pricing_plan_id":"cebpf4jnsgd1na2vs0mg"},{"bike_id":"b031717c-d653-4f88-afc2-538ee742058b","system_id":"levelo_inurba_marseille","lat":43.25577,"lon":5.38248,"is_reserved":false,"is_disabled":false,"rental_uris":{"android":"levelo://app?vid=b031717c-d653-4f88-afc2-538ee742058b","ios":"levelo://app?vid=b031717c-d653-4f88-afc2-538ee742058b"},"vehicle_type_id":"4","last_reported":1744873862,"current_range_meters":10000,"station_id":"ce4bhih2rcd13ifvqfs0","pricing_plan_id":"cebpf4jnsgd1na2vs0mg"},{"bike_id":"5df85a79-274c-4999-ab35-d1f225e8f5cd","system_id":"levelo_inurba_marseille","lat":43.31371,"lon":5.36692,"is_reserved":false,"is_disabled":false,"rental_uris":{"android":"levelo://app?vid=5df85a79-274c-4999-ab35-d1f225e8f5cd","ios":"levelo://app?vid=5df85a79-274c-4999-ab35-d1f225e8f5cd"},"vehicle_type_id":"4","last_reported":1744873862,"current_range_meters":10000,"station_id":"ce4bgr92rcd13ifvqc6g","pricing_plan_id":"cebpf4jnsgd1na2vs0mg"},{"bike_id":"93be371e-f079-4065-9c94-f1bd2172cfd1","system_id":"levelo_inurba_marseille","lat":43.28635,"lon":5.37058,"is_reserved":false,"is_disabled":false,"rental_uris":{"android":"levelo://app?vid=93be371e-f079-4065-9c94-f1bd2172cfd1","ios":"levelo://app?vid=93be371e-f079-4065-9c94-f1bd2172cfd1"},"vehicle_type_id":"4","last_reported":1744873862,"current_range_meters":10800,"station_id":"ce4bht12rcd13ifvqi60","pricing_plan_id":"cebpf4jnsgd1na2vs0mg"},{"bike_id":"5eccede5-a092-4c79-861e-9ba408b79172","system_id":"levelo_inurba_marseille","lat":43.321026,"lon":5.36794,"is_reserved":false,"is_disabled":false,"rental_uris":{"android":"levelo://app?vid=5eccede5-a092-4c79-861e-9ba408b79172","ios":"levelo://app?vid=5eccede5-a092-4c79-861e-9ba408b79172"},"vehicle_type_id":"4","last_reported":1744873862,"current_range_meters":10800,"station_id":"ce4bhrh2rcd13ifvqhug","pricing_plan_id":"cebpf4jnsgd1na2vs0mg"},{"bike_id":"9032f14c-fd09-4b52-bf50-b879d730ed1b","system_id":"levelo_inurba_marseille","lat":43.25721,"lon":5.41129,"is_reserved":false,"is_disabled":false,"rental_uris":{"android":"levelo://app?vid=9032f14c-fd09-4b52-bf50-b879d730ed1b","ios":"levelo://app?vid=9032f14c-fd09-4b52-bf50-b879d730ed1b"},"vehicle_type_id":"4","last_reported":1744873862,"current_range_meters":11200,"station_id":"ce4bhkp2rcd13ifvqgd0","pricing_plan_id":"cebpf4jnsgd1na2vs0mg"},{"bike_id":"1bdba7a7-a82e-4252-906c-80db6beb180e","system_id":"levelo_inurba_marseille","lat":43.24889,"lon":5.39403,"is_reserved":false,"is_disabled":false,"rental_uris":{"android":"levelo://app?vid=1bdba7a7-a82e-4252-906c-80db6beb180e","ios":"levelo://app?vid=1bdba7a7-a82e-4252-906c-80db6beb180e"},"vehicle_type_id":"4","last_reported":1744873862,"current_range_meters":11200,"station_id":"","pricing_plan_id":"cebpf4jnsgd1na2vs0mg"},{"bike_id":"b37478c9-c9d1-4921-942f-50c7a856681e","system_id":"levelo_inurba_marseille","lat":43.27034,"lon":5.40296,"is_reserved":false,"is_disabled":true,"rental_uris":{"android":"levelo://app?vid=b37478c9-c9d1-4921-942f-50c7a856681e","ios":"levelo://app?vid=b37478c9-c9d1-4921-942f-50c7a856681e"},"vehicle_type_id":"4","last_reported":1744873862,"current_range_meters":11200,"station_id":"ce4bhk92rcd13ifvqgc0","pricing_plan_id":"cebpf4jnsgd1na2vs0mg"},{"bike_id":"f589c8bb-ff26-4daa-8375-ca47779bb557","system_id":"levelo_inurba_marseille","lat":43.25501,"lon":5.37651,"is_reserved":false,"is_disabled":false,"rental_uris":{"android":"levelo://app?vid=f589c8bb-ff26-4daa-8375-ca47779bb557","ios":"levelo://app?vid=f589c8bb-ff26-4daa-8375-ca47779bb557"},"vehicle_type_id":"4","last_reported":1744873862,"current_range_meters":11200,"station_id":"ce4bhh12rcd13ifvqff0","pricing_plan_id":"cebpf4jnsgd1na2vs0mg"},{"bike_id":"88a0cb80-a51d-46bc-8228-c9a9fb028348","system_id":"levelo_inurba_marseille","lat":43.25634,"lon":5.42001,"is_reserved":false,"is_disabled":false,"rental_uris":{"android":"levelo://app?vid=88a0cb80-a51d-46bc-8228-c9a9fb028348","ios":"levelo://app?vid=88a0cb80-a51d-46bc-8228-c9a9fb028348"},"vehicle_type_id":"4","last_reported":1744873862,"current_range_meters":11600,"station_id":"","pricing_plan_id":"cebpf4jnsgd1na2vs0mg"},{"bike_id":"f663d8f8-94df-44ad-8cd8-9a35c10a4df5","system_id":"levelo_inurba_marseille","lat":43.25725,"lon":5.41108,"is_reserved":false,"is_disabled":false,"rental_uris":{"android":"levelo://app?vid=f663d8f8-94df-44ad-8cd8-9a35c10a4df5","ios":"levelo://app?vid=f663d8f8-94df-44ad-8cd8-9a35c10a4df5"},"vehicle_type_id":"4","last_reported":1744873862,"current_range_meters":11600,"station_id":"ce4bhkp2rcd13ifvqgd0","pricing_plan_id":"cebpf4jnsgd1na2vs0mg"},{"bike_id":"5a93d799-973b-4cf9-9d96-d6feba3f193d","system_id":"levelo_inurba_marseille","lat":43.24091,"lon":5.37702,"is_reserved":false,"is_disabled":true,"rental_uris":{"android":"levelo://app?vid=5a93d799-973b-4cf9-9d96-d6feba3f193d","ios":"levelo://app?vid=5a93d799-973b-4cf9-9d96-d6feba3f193d"},"vehicle_type_id":"4","last_reported":1744873862,"current_range_meters":11600,"station_id":"ce4bhnp2rcd13ifvqgvg","pricing_plan_id":"cebpf4jnsgd1na2vs0mg"},{"bike_id":"4c1ddfc7-5467-47b7-afaf-657a8d340b70","system_id":"levelo_inurba_marseille","lat":43.259308,"lon":5.40911,"is_reserved":false,"is_disabled":false,"rental_uris":{"android":"levelo://app?vid=4c1ddfc7-5467-47b7-afaf-657a8d340b70","ios":"levelo://app?vid=4c1ddfc7-5467-47b7-afaf-657a8d340b70"},"vehicle_type_id":"4","last_reported":1744873862,"current_range_meters":11600,"station_id":"ce4bhm92rcd13ifvqglg","pricing_plan_id":"cebpf4jnsgd1na2vs0mg"},{"bike_id":"37f9071e-853b-46c7-8103-e592f5e125f5","system_id":"levelo_inurba_marseille","lat":43.26679,"lon":5.38268,"is_reserved":false,"is_disabled":false,"rental_uris":{"android":"levelo://app?vid=37f9071e-853b-46c7-8103-e592f5e125f5","ios":"levelo://app?vid=37f9071e-853b-46c7-8103-e592f5e125f5"},"vehicle_type_id":"4","last_reported":1744873862,"current_range_meters":11600,"station_id":"ce4bhg92rcd13ifvqf90","pricing_plan_id":"cebpf4jnsgd1na2vs0mg"},{"bike_id":"4f3dfbf4-d1ae-44db-8110-b28c7d24107a","system_id":"levelo_inurba_marseille","lat":43.2708,"lon":5.40263,"is_reserved":false,"is_disabled":false,"rental_uris":{"android":"levelo://app?vid=4f3dfbf4-d1ae-44db-8110-b28c7d24107a","ios":"levelo://app?vid=4f3dfbf4-d1ae-44db-8110-b28c7d24107a"},"vehicle_type_id":"4","last_reported":1744873862,"current_range_meters":12000,"station_id":"ce4bhk92rcd13ifvqgc0","pricing_plan_id":"cebpf4jnsgd1na2vs0mg"},{"bike_id":"78639c4a-dfa5-4f82-b777-6fd3b58b5770","system_id":"levelo_inurba_marseille","lat":43.28121,"lon":5.37865,"is_reserved":false,"is_disabled":false,"rental_uris":{"android":"levelo://app?vid=78639c4a-dfa5-4f82-b777-6fd3b58b5770","ios":"levelo://app?vid=78639c4a-dfa5-4f82-b777-6fd3b58b5770"},"vehicle_type_id":"4","last_reported":1744873862,"current_range_meters":12000,"station_id":"ce4bha12rcd13ifvqee0","pricing_plan_id":"cebpf4jnsgd1na2vs0mg"},{"bike_id":"6032e738-f012-4275-92a6-1c203e24e4cd","system_id":"levelo_inurba_marseille","lat":43.29886,"lon":5.43659,"is_reserved":false,"is_disabled":false,"rental_uris":{"android":"levelo://app?vid=6032e738-f012-4275-92a6-1c203e24e4cd","ios":"levelo://app?vid=6032e738-f012-4275-92a6-1c203e24e4cd"},"vehicle_type_id":"4","last_reported":1744873862,"current_range_meters":12000,"station_id":"ce4bhpp2rcd13ifvqhfg","pricing_plan_id":"cebpf4jnsgd1na2vs0mg"},{"bike_id":"44ac3e56-8798-42d8-a1cc-bd3af8b36a49","system_id":"levelo_inurba_marseille","lat":43.290839,"lon":5.381413,"is_reserved":false,"is_disabled":false,"rental_uris":{"android":"levelo://app?vid=44ac3e56-8798-42d8-a1cc-bd3af8b36a49","ios":"levelo://app?vid=44ac3e56-8798-42d8-a1cc-bd3af8b36a49"},"vehicle_type_id":"4","last_reported":1744873862,"current_range_meters":12000,"station_id":"ce4bhr12rcd13ifvqhqg","pricing_plan_id":"cebpf4jnsgd1na2vs0mg"},{"bike_id":"425ab992-51b7-4a18-82ae-2c5568793a66","system_id":"levelo_inurba_marseille","lat":43.31211,"lon":5.36845,"is_reserved":false,"is_disabled":false,"rental_uris":{"android":"levelo://app?vid=425ab992-51b7-4a18-82ae-2c5568793a66","ios":"levelo://app?vid=425ab992-51b7-4a18-82ae-2c5568793a66"},"vehicle_type_id":"4","last_reported":1744873862,"current_range_meters":12400,"station_id":"ce4bgl92rcd13ifvqbq0","pricing_plan_id":"cebpf4jnsgd1na2vs0mg"},{"bike_id":"dbf71c66-3f39-430b-be1e-812fac9fa5cb","system_id":"levelo_inurba_marseille","lat":43.292614,"lon":5.384392,"is_reserved":false,"is_disabled":false,"rental_uris":{"android":"levelo://app?vid=dbf71c66-3f39-430b-be1e-812fac9fa5cb","ios":"levelo://app?vid=dbf71c66-3f39-430b-be1e-812fac9fa5cb"},"vehicle_type_id":"4","last_reported":1744873862,"current_range_meters":12400,"station_id":"ce4bh692rcd13ifvqea0","pricing_plan_id":"cebpf4jnsgd1na2vs0mg"},{"bike_id":"5058f5ea-7ea7-4d2f-a102-403aa449d947","system_id":"levelo_inurba_marseille","lat":43.30305,"lon":5.36877,"is_reserved":false,"is_disabled":false,"rental_uris":{"android":"levelo://app?vid=5058f5ea-7ea7-4d2f-a102-403aa449d947","ios":"levelo://app?vid=5058f5ea-7ea7-4d2f-a102-403aa449d947"},"vehicle_type_id":"4","last_reported":1744873862,"current_range_meters":12400,"station_id":"ce4bgqh2rcd13ifvqc5g","pricing_plan_id":"cebpf4jnsgd1na2vs0mg"},{"bike_id":"57406be6-c0b4-4691-8abf-3f6842e4ec81","system_id":"levelo_inurba_marseille","lat":43.28451,"lon":5.39173,"is_reserved":false,"is_disabled":true,"rental_uris":{"android":"levelo://app?vid=57406be6-c0b4-4691-8abf-3f6842e4ec81","ios":"levelo://app?vid=57406be6-c0b4-4691-8abf-3f6842e4ec81"},"vehicle_type_id":"4","last_reported":1744873862,"current_range_meters":12400,"station_id":"ce4bhoh2rcd13ifvqh5g","pricing_plan_id":"cebpf4jnsgd1na2vs0mg"},{"bike_id":"550e07e9-9fc8-4630-829a-1fb298f7bfb3","system_id":"levelo_inurba_marseille","lat":43.26787,"lon":5.39412,"is_reserved":false,"is_disabled":false,"rental_uris":{"android":"levelo://app?vid=550e07e9-9fc8-4630-829a-1fb298f7bfb3","ios":"levelo://app?vid=550e07e9-9fc8-4630-829a-1fb298f7bfb3"},"vehicle_type_id":"4","last_reported":1744873862,"current_range_meters":9600,"station_id":"ce4bhh12rcd13ifvqfg0","pricing_plan_id":"cebpf4jnsgd1na2vs0mg"},{"bike_id":"e06d49c3-720f-46c4-916c-cef1338107d7","system_id":"levelo_inurba_marseille","lat":43.32357,"lon":5.36749,"is_reserved":false,"is_disabled":false,"rental_uris":{"android":"levelo://app?vid=e06d49c3-720f-46c4-916c-cef1338107d7","ios":"levelo://app?vid=e06d49c3-720f-46c4-916c-cef1338107d7"},"vehicle_type_id":"4","last_reported":1744873862,"current_range_meters":12800,"station_id":"ce4bhsh2rcd13ifvqi2g","pricing_plan_id":"cebpf4jnsgd1na2vs0mg"},{"bike_id":"03bf794e-97dd-4c67-ae28-5cd291d0b4c4","system_id":"levelo_inurba_marseille","lat":43.30133,"lon":5.38098,"is_reserved":false,"is_disabled":false,"rental_uris":{"android":"levelo://app?vid=03bf794e-97dd-4c67-ae28-5cd291d0b4c4","ios":"levelo://app?vid=03bf794e-97dd-4c67-ae28-5cd291d0b4c4"},"vehicle_type_id":"4","last_reported":1744873862,"current_range_meters":12800,"station_id":"ce4bgjp2rcd13ifvqbh0","pricing_plan_id":"cebpf4jnsgd1na2vs0mg"},{"bike_id":"b3368a4b-172f-436c-89f1-5b68b3612fbc","system_id":"levelo_inurba_marseille","lat":43.29552,"lon":5.42262,"is_reserved":false,"is_disabled":false,"rental_uris":{"android":"levelo://app?vid=b3368a4b-172f-436c-89f1-5b68b3612fbc","ios":"levelo://app?vid=b3368a4b-172f-436c-89f1-5b68b3612fbc"},"vehicle_type_id":"4","last_reported":1744873862,"current_range_meters":13600,"station_id":"ce4bhph2rcd13ifvqhdg","pricing_plan_id":"cebpf4jnsgd1na2vs0mg"},{"bike_id":"27ceca5f-cd6d-4256-96c8-0924d154f0b3","system_id":"levelo_inurba_marseille","lat":43.303064,"lon":5.392037,"is_reserved":false,"is_disabled":true,"rental_uris":{"android":"levelo://app?vid=27ceca5f-cd6d-4256-96c8-0924d154f0b3","ios":"levelo://app?vid=27ceca5f-cd6d-4256-96c8-0924d154f0b3"},"vehicle_type_id":"4","last_reported":1744873862,"current_range_meters":13600,"station_id":"ce4bgkh2rcd13ifvqbk0","pricing_plan_id":"cebpf4jnsgd1na2vs0mg"},{"bike_id":"f9d212f9-ca9b-4ac4-90c9-16b344b24cfd","system_id":"levelo_inurba_marseille","lat":43.25728,"lon":5.41112,"is_reserved":false,"is_disabled":false,"rental_uris":{"android":"levelo://app?vid=f9d212f9-ca9b-4ac4-90c9-16b344b24cfd","ios":"levelo://app?vid=f9d212f9-ca9b-4ac4-90c9-16b344b24cfd"},"vehicle_type_id":"4","last_reported":1744873862,"current_range_meters":13600,"station_id":"ce4bhkp2rcd13ifvqgd0","pricing_plan_id":"cebpf4jnsgd1na2vs0mg"},{"bike_id":"ce03ad46-9270-40bd-95e3-665a24df5431","system_id":"levelo_inurba_marseille","lat":43.30449,"lon":5.37908,"is_reserved":false,"is_disabled":false,"rental_uris":{"android":"levelo://app?vid=ce03ad46-9270-40bd-95e3-665a24df5431","ios":"levelo://app?vid=ce03ad46-9270-40bd-95e3-665a24df5431"},"vehicle_type_id":"4","last_reported":1744873862,"current_range_meters":13600,"station_id":"ce4bgup2rcd13ifvqcn0","pricing_plan_id":"cebpf4jnsgd1na2vs0mg"},{"bike_id":"ff935f1c-246d-4e07-a399-40ad7e059de5","system_id":"levelo_inurba_marseille","lat":43.2548,"lon":5.37677,"is_reserved":false,"is_disabled":true,"rental_uris":{"android":"levelo://app?vid=ff935f1c-246d-4e07-a399-40ad7e059de5","ios":"levelo://app?vid=ff935f1c-246d-4e07-a399-40ad7e059de5"},"vehicle_type_id":"4","last_reported":1744873862,"current_range_meters":14000,"station_id":"ce4bhh12rcd13ifvqff0","pricing_plan_id":"cebpf4jnsgd1na2vs0mg"},{"bike_id":"0f64a87a-c9e2-44f0-8cb9-2bf890157d04","system_id":"levelo_inurba_marseille","lat":43.27215,"lon":5.39183,"is_reserved":false,"is_disabled":false,"rental_uris":{"android":"levelo://app?vid=0f64a87a-c9e2-44f0-8cb9-2bf890157d04","ios":"levelo://app?vid=0f64a87a-c9e2-44f0-8cb9-2bf890157d04"},"vehicle_type_id":"4","last_reported":1744873862,"current_range_meters":14000,"station_id":"ce4bhhp2rcd13ifvqfm0","pricing_plan_id":"cebpf4jnsgd1na2vs0mg"},{"bike_id":"04528569-5741-442d-b28a-f5b92ff4b11d","system_id":"levelo_inurba_marseille","lat":43.25724,"lon":5.41108,"is_reserved":false,"is_disabled":false,"rental_uris":{"android":"levelo://app?vid=04528569-5741-442d-b28a-f5b92ff4b11d","ios":"levelo://app?vid=04528569-5741-442d-b28a-f5b92ff4b11d"},"vehicle_type_id":"4","last_reported":1744873862,"current_range_meters":14000,"station_id":"ce4bhkp2rcd13ifvqgd0","pricing_plan_id":"cebpf4jnsgd1na2vs0mg"},{"bike_id":"fe552450-c0a0-482b-ad4d-745c7e3315b5","system_id":"levelo_inurba_marseille","lat":43.23953,"lon":5.36648,"is_reserved":false,"is_disabled":false,"rental_uris":{"android":"levelo://app?vid=fe552450-c0a0-482b-ad4d-745c7e3315b5","ios":"levelo://app?vid=fe552450-c0a0-482b-ad4d-745c7e3315b5"},"vehicle_type_id":"4","last_reported":1744873862,"current_range_meters":14400,"station_id":"ce4bhi12rcd13ifvqfp0","pricing_plan_id":"cebpf4jnsgd1na2vs0mg"},{"bike_id":"cdd7c088-0fe0-4a9c-afb7-bde2c9be909f","system_id":"levelo_inurba_marseille","lat":43.324861,"lon":5.365743,"is_reserved":false,"is_disabled":true,"rental_uris":{"android":"levelo://app?vid=cdd7c088-0fe0-4a9c-afb7-bde2c9be909f","ios":"levelo://app?vid=cdd7c088-0fe0-4a9c-afb7-bde2c9be909f"},"vehicle_type_id":"4","last_reported":1744873862,"current_range_meters":14400,"station_id":"ce4bh8p2rcd13ifvqeb0","pricing_plan_id":"cebpf4jnsgd1na2vs0mg"},{"bike_id":"4afe915f-fa01-4403-81b9-e1ed03fdcce7","system_id":"levelo_inurba_marseille","lat":43.30315,"lon":5.369,"is_reserved":false,"is_disabled":false,"rental_uris":{"android":"levelo://app?vid=4afe915f-fa01-4403-81b9-e1ed03fdcce7","ios":"levelo://app?vid=4afe915f-fa01-4403-81b9-e1ed03fdcce7"},"vehicle_type_id":"4","last_reported":1744873862,"current_range_meters":14400,"station_id":"ce4bgqh2rcd13ifvqc5g","pricing_plan_id":"cebpf4jnsgd1na2vs0mg"},{"bike_id":"baf04868-3ad9-4949-b39a-063b0d0c8334","system_id":"levelo_inurba_marseille","lat":43.30934,"lon":5.40143,"is_reserved":false,"is_disabled":false,"rental_uris":{"android":"levelo://app?vid=baf04868-3ad9-4949-b39a-063b0d0c8334","ios":"levelo://app?vid=baf04868-3ad9-4949-b39a-063b0d0c8334"},"vehicle_type_id":"4","last_reported":1744873862,"current_range_meters":14400,"station_id":"ce4bgvp2rcd13ifvqct0","pricing_plan_id":"cebpf4jnsgd1na2vs0mg"},{"bike_id":"da0699e6-fffb-42fd-bda2-fa249cfedfd8","system_id":"levelo_inurba_marseille","lat":43.31486,"lon":5.37311,"is_reserved":false,"is_disabled":false,"rental_uris":{"android":"levelo://app?vid=da0699e6-fffb-42fd-bda2-fa249cfedfd8","ios":"levelo://app?vid=da0699e6-fffb-42fd-bda2-fa249cfedfd8"},"vehicle_type_id":"4","last_reported":1744873862,"current_range_meters":14800,"station_id":"ce4bgt12rcd13ifvqcd0","pricing_plan_id":"cebpf4jnsgd1na2vs0mg"},{"bike_id":"0b7b9afc-b2db-43f5-aeb8-7a1248a5408e","system_id":"levelo_inurba_marseille","lat":43.31275,"lon":5.3776,"is_reserved":false,"is_disabled":false,"rental_uris":{"android":"levelo://app?vid=0b7b9afc-b2db-43f5-aeb8-7a1248a5408e","ios":"levelo://app?vid=0b7b9afc-b2db-43f5-aeb8-7a1248a5408e"},"vehicle_type_id":"4","last_reported":1744873862,"current_range_meters":14800,"station_id":"","pricing_plan_id":"cebpf4jnsgd1na2vs0mg"},{"bike_id":"50e7476c-2a0d-4e59-a81e-3738960f28dd","system_id":"levelo_inurba_marseille","lat":43.26692,"lon":5.38277,"is_reserved":false,"is_disabled":false,"rental_uris":{"android":"levelo://app?vid=50e7476c-2a0d-4e59-a81e-3738960f28dd","ios":"levelo://app?vid=50e7476c-2a0d-4e59-a81e-3738960f28dd"},"vehicle_type_id":"4","last_reported":1744873862,"current_range_meters":14800,"station_id":"ce4bhg92rcd13ifvqf90","pricing_plan_id":"cebpf4jnsgd1na2vs0mg"},{"bike_id":"4f02c949-2f80-41bc-beab-99067c60e8d5","system_id":"levelo_inurba_marseille","lat":43.2407,"lon":5.37766,"is_reserved":false,"is_disabled":false,"rental_uris":{"android":"levelo://app?vid=4f02c949-2f80-41bc-beab-99067c60e8d5","ios":"levelo://app?vid=4f02c949-2f80-41bc-beab-99067c60e8d5"},"vehicle_type_id":"4","last_reported":1744873862,"current_range_meters":14800,"station_id":"ce4bhnp2rcd13ifvqgvg","pricing_plan_id":"cebpf4jnsgd1na2vs0mg"},{"bike_id":"ec8c9ac7-1e95-4171-97f3-226ce1e3c951","system_id":"levelo_inurba_marseille","lat":43.32106,"lon":5.36788,"is_reserved":false,"is_disabled":false,"rental_uris":{"android":"levelo://app?vid=ec8c9ac7-1e95-4171-97f3-226ce1e3c951","ios":"levelo://app?vid=ec8c9ac7-1e95-4171-97f3-226ce1e3c951"},"vehicle_type_id":"4","last_reported":1744873862,"current_range_meters":15200,"station_id":"ce4bhrh2rcd13ifvqhug","pricing_plan_id":"cebpf4jnsgd1na2vs0mg"},{"bike_id":"7e7ac4bb-1ee2-471d-b8da-2ad03fab870c","system_id":"levelo_inurba_marseille","lat":43.29848,"lon":5.36272,"is_reserved":false,"is_disabled":false,"rental_uris":{"android":"levelo://app?vid=7e7ac4bb-1ee2-471d-b8da-2ad03fab870c","ios":"levelo://app?vid=7e7ac4bb-1ee2-471d-b8da-2ad03fab870c"},"vehicle_type_id":"4","last_reported":1744873862,"current_range_meters":15200,"station_id":"ce4bgpp2rcd13ifvqc3g","pricing_plan_id":"cebpf4jnsgd1na2vs0mg"},{"bike_id":"f9294aff-5b6f-4d62-9db7-b7bdca4ffaf5","system_id":"levelo_inurba_marseille","lat":43.32542,"lon":5.41434,"is_reserved":false,"is_disabled":true,"rental_uris":{"android":"levelo://app?vid=f9294aff-5b6f-4d62-9db7-b7bdca4ffaf5","ios":"levelo://app?vid=f9294aff-5b6f-4d62-9db7-b7bdca4ffaf5"},"vehicle_type_id":"4","last_reported":1744873862,"current_range_meters":15200,"station_id":"ce4bhq12rcd13ifvqhhg","pricing_plan_id":"cebpf4jnsgd1na2vs0mg"},{"bike_id":"a3cb3541-e34e-4e91-96bd-3d2be11ba3ea","system_id":"levelo_inurba_marseille","lat":43.30483,"lon":5.37909,"is_reserved":false,"is_disabled":false,"rental_uris":{"android":"levelo://app?vid=a3cb3541-e34e-4e91-96bd-3d2be11ba3ea","ios":"levelo://app?vid=a3cb3541-e34e-4e91-96bd-3d2be11ba3ea"},"vehicle_type_id":"4","last_reported":1744873862,"current_range_meters":15200,"station_id":"ce4bgup2rcd13ifvqcn0","pricing_plan_id":"cebpf4jnsgd1na2vs0mg"},{"bike_id":"9f512418-6ab3-4979-b5e9-011752bb741b","system_id":"levelo_inurba_marseille","lat":43.30153,"lon":5.38097,"is_reserved":false,"is_disabled":false,"rental_uris":{"android":"levelo://app?vid=9f512418-6ab3-4979-b5e9-011752bb741b","ios":"levelo://app?vid=9f512418-6ab3-4979-b5e9-011752bb741b"},"vehicle_type_id":"4","last_reported":1744873862,"current_range_meters":16000,"station_id":"ce4bgjp2rcd13ifvqbh0","pricing_plan_id":"cebpf4jnsgd1na2vs0mg"},{"bike_id":"173d39b4-7a97-4693-9385-db8bda0fe199","system_id":"levelo_inurba_marseille","lat":43.21746,"lon":5.34627,"is_reserved":false,"is_disabled":false,"rental_uris":{"android":"levelo://app?vid=173d39b4-7a97-4693-9385-db8bda0fe199","ios":"levelo://app?vid=173d39b4-7a97-4693-9385-db8bda0fe199"},"vehicle_type_id":"4","last_reported":1744873862,"current_range_meters":16000,"station_id":"st_cvj6r9ubvosntc0bgbag","pricing_plan_id":"cebpf4jnsgd1na2vs0mg"},{"bike_id":"e916a315-5ec2-469a-a5e0-369cd1f01123","system_id":"levelo_inurba_marseille","lat":43.33805,"lon":5.37436,"is_reserved":false,"is_disabled":false,"rental_uris":{"android":"levelo://app?vid=e916a315-5ec2-469a-a5e0-369cd1f01123","ios":"levelo://app?vid=e916a315-5ec2-469a-a5e0-369cd1f01123"},"vehicle_type_id":"4","last_reported":1744873862,"current_range_meters":16000,"station_id":"","pricing_plan_id":"cebpf4jnsgd1na2vs0mg"},{"bike_id":"f637015a-f468-4470-b7ec-72a0f3fb0055","system_id":"levelo_inurba_marseille","lat":43.30393,"lon":5.42476,"is_reserved":false,"is_disabled":false,"rental_uris":{"android":"levelo://app?vid=f637015a-f468-4470-b7ec-72a0f3fb0055","ios":"levelo://app?vid=f637015a-f468-4470-b7ec-72a0f3fb0055"},"vehicle_type_id":"4","last_reported":1744873862,"current_range_meters":16000,"station_id":"ce4bghh2rcd13ifvqb60","pricing_plan_id":"cebpf4jnsgd1na2vs0mg"},{"bike_id":"dc88ca14-385b-47d2-8f34-ba0ff66a2869","system_id":"levelo_inurba_marseille","lat":43.3093,"lon":5.37894,"is_reserved":false,"is_disabled":false,"rental_uris":{"android":"levelo://app?vid=dc88ca14-385b-47d2-8f34-ba0ff66a2869","ios":"levelo://app?vid=dc88ca14-385b-47d2-8f34-ba0ff66a2869"},"vehicle_type_id":"4","last_reported":1744873862,"current_range_meters":16000,"station_id":"","pricing_plan_id":"cebpf4jnsgd1na2vs0mg"},{"bike_id":"5678fa7b-d9cc-4b30-ae84-f01bc3057eef","system_id":"levelo_inurba_marseille","lat":43.2594,"lon":5.40901,"is_reserved":false,"is_disabled":false,"rental_uris":{"android":"levelo://app?vid=5678fa7b-d9cc-4b30-ae84-f01bc3057eef","ios":"levelo://app?vid=5678fa7b-d9cc-4b30-ae84-f01bc3057eef"},"vehicle_type_id":"4","last_reported":1744873862,"current_range_meters":16000,"station_id":"ce4bhm92rcd13ifvqglg","pricing_plan_id":"cebpf4jnsgd1na2vs0mg"},{"bike_id":"3d335cc5-ab5d-4c15-bec4-5792bd340494","system_id":"levelo_inurba_marseille","lat":43.25116,"lon":5.40319,"is_reserved":false,"is_disabled":false,"rental_uris":{"android":"levelo://app?vid=3d335cc5-ab5d-4c15-bec4-5792bd340494","ios":"levelo://app?vid=3d335cc5-ab5d-4c15-bec4-5792bd340494"},"vehicle_type_id":"4","last_reported":1744873862,"current_range_meters":16400,"station_id":"ce4bhlh2rcd13ifvqgig","pricing_plan_id":"cebpf4jnsgd1na2vs0mg"},{"bike_id":"999233d2-899c-4760-82ef-66c430251393","system_id":"levelo_inurba_marseille","lat":43.30601,"lon":5.37231,"is_reserved":false,"is_disabled":false,"rental_uris":{"android":"levelo://app?vid=999233d2-899c-4760-82ef-66c430251393","ios":"levelo://app?vid=999233d2-899c-4760-82ef-66c430251393"},"vehicle_type_id":"4","last_reported":1744873862,"current_range_meters":16400,"station_id":"ce4bgqh2rcd13ifvqc4g","pricing_plan_id":"cebpf4jnsgd1na2vs0mg"},{"bike_id":"1c017811-a00a-4df4-9497-416b03ecc4a4","system_id":"levelo_inurba_marseille","lat":43.26561,"lon":5.39005,"is_reserved":false,"is_disabled":false,"rental_uris":{"android":"levelo://app?vid=1c017811-a00a-4df4-9497-416b03ecc4a4","ios":"levelo://app?vid=1c017811-a00a-4df4-9497-416b03ecc4a4"},"vehicle_type_id":"4","last_reported":1744873862,"current_range_meters":16400,"station_id":"ce4bhe12rcd13ifvqf30","pricing_plan_id":"cebpf4jnsgd1na2vs0mg"},{"bike_id":"0291b7a7-5f86-48ec-8437-eba04e7bafe8","system_id":"levelo_inurba_marseille","lat":43.32358,"lon":5.36715,"is_reserved":false,"is_disabled":false,"rental_uris":{"android":"levelo://app?vid=0291b7a7-5f86-48ec-8437-eba04e7bafe8","ios":"levelo://app?vid=0291b7a7-5f86-48ec-8437-eba04e7bafe8"},"vehicle_type_id":"4","last_reported":1744873862,"current_range_meters":16400,"station_id":"ce4bhsh2rcd13ifvqi2g","pricing_plan_id":"cebpf4jnsgd1na2vs0mg"},{"bike_id":"402d7d90-3268-4198-b73c-a18c7bc17684","system_id":"levelo_inurba_marseille","lat":43.29952,"lon":5.36545,"is_reserved":false,"is_disabled":false,"rental_uris":{"android":"levelo://app?vid=402d7d90-3268-4198-b73c-a18c7bc17684","ios":"levelo://app?vid=402d7d90-3268-4198-b73c-a18c7bc17684"},"vehicle_type_id":"4","last_reported":1744873862,"current_range_meters":16400,"station_id":"ce4bgm92rcd13ifvqbr0","pricing_plan_id":"cebpf4jnsgd1na2vs0mg"},{"bike_id":"303bf534-5dfc-4ede-b662-1b5d6a6ccf35","system_id":"levelo_inurba_marseille","lat":43.30908,"lon":5.36852,"is_reserved":false,"is_disabled":false,"rental_uris":{"android":"levelo://app?vid=303bf534-5dfc-4ede-b662-1b5d6a6ccf35","ios":"levelo://app?vid=303bf534-5dfc-4ede-b662-1b5d6a6ccf35"},"vehicle_type_id":"4","last_reported":1744873862,"current_range_meters":16400,"station_id":"ce4bgn92rcd13ifvqbvg","pricing_plan_id":"cebpf4jnsgd1na2vs0mg"},{"bike_id":"87cde924-2a81-438b-a29c-971b9fe65d0b","system_id":"levelo_inurba_marseille","lat":43.28111,"lon":5.37861,"is_reserved":false,"is_disabled":false,"rental_uris":{"android":"levelo://app?vid=87cde924-2a81-438b-a29c-971b9fe65d0b","ios":"levelo://app?vid=87cde924-2a81-438b-a29c-971b9fe65d0b"},"vehicle_type_id":"4","last_reported":1744873862,"current_range_meters":16400,"station_id":"ce4bha12rcd13ifvqee0","pricing_plan_id":"cebpf4jnsgd1na2vs0mg"},{"bike_id":"97776603-da77-437c-9d0e-8ebd4592da4c","system_id":"levelo_inurba_marseille","lat":43.31228,"lon":5.36864,"is_reserved":false,"is_disabled":false,"rental_uris":{"android":"levelo://app?vid=97776603-da77-437c-9d0e-8ebd4592da4c","ios":"levelo://app?vid=97776603-da77-437c-9d0e-8ebd4592da4c"},"vehicle_type_id":"4","last_reported":1744873862,"current_range_meters":16800,"station_id":"ce4bgl92rcd13ifvqbq0","pricing_plan_id":"cebpf4jnsgd1na2vs0mg"},{"bike_id":"6849f656-05e0-44ad-ac4a-1dbddfbea146","system_id":"levelo_inurba_marseille","lat":43.31366,"lon":5.38492,"is_reserved":false,"is_disabled":true,"rental_uris":{"android":"levelo://app?vid=6849f656-05e0-44ad-ac4a-1dbddfbea146","ios":"levelo://app?vid=6849f656-05e0-44ad-ac4a-1dbddfbea146"},"vehicle_type_id":"4","last_reported":1744873862,"current_range_meters":16800,"station_id":"ce4bgt92rcd13ifvqcf0","pricing_plan_id":"cebpf4jnsgd1na2vs0mg"},{"bike_id":"47a912ca-ac96-497d-944d-7a5ef938c635","system_id":"levelo_inurba_marseille","lat":43.30552,"lon":5.38451,"is_reserved":false,"is_disabled":false,"rental_uris":{"android":"levelo://app?vid=47a912ca-ac96-497d-944d-7a5ef938c635","ios":"levelo://app?vid=47a912ca-ac96-497d-944d-7a5ef938c635"},"vehicle_type_id":"4","last_reported":1744873862,"current_range_meters":16800,"station_id":"ce4bhs12rcd13ifvqhvg","pricing_plan_id":"cebpf4jnsgd1na2vs0mg"},{"bike_id":"7cc7649a-fb97-470b-862b-8c71c0fc1254","system_id":"levelo_inurba_marseille","lat":43.29026,"lon":5.39979,"is_reserved":false,"is_disabled":false,"rental_uris":{"android":"levelo://app?vid=7cc7649a-fb97-470b-862b-8c71c0fc1254","ios":"levelo://app?vid=7cc7649a-fb97-470b-862b-8c71c0fc1254"},"vehicle_type_id":"4","last_reported":1744873862,"current_range_meters":17200,"station_id":"ce4bh392rcd13ifvqdm0","pricing_plan_id":"cebpf4jnsgd1na2vs0mg"},{"bike_id":"3af48173-ba90-4f90-a09a-afe24b29a50c","system_id":"levelo_inurba_marseille","lat":43.24172,"lon":5.3973,"is_reserved":false,"is_disabled":false,"rental_uris":{"android":"levelo://app?vid=3af48173-ba90-4f90-a09a-afe24b29a50c","ios":"levelo://app?vid=3af48173-ba90-4f90-a09a-afe24b29a50c"},"vehicle_type_id":"4","last_reported":1744873862,"current_range_meters":16800,"station_id":"ce4bhn12rcd13ifvqgpg","pricing_plan_id":"cebpf4jnsgd1na2vs0mg"},{"bike_id":"0620d2fb-fed7-4ee2-913e-6d03123ff78c","system_id":"levelo_inurba_marseille","lat":43.22951,"lon":5.35408,"is_reserved":false,"is_disabled":false,"rental_uris":{"android":"levelo://app?vid=0620d2fb-fed7-4ee2-913e-6d03123ff78c","ios":"levelo://app?vid=0620d2fb-fed7-4ee2-913e-6d03123ff78c"},"vehicle_type_id":"4","last_reported":1744873862,"current_range_meters":16800,"station_id":"cpo3532slgdg3j2ikp40","pricing_plan_id":"cebpf4jnsgd1na2vs0mg"},{"bike_id":"87414c9b-5a7f-4e6e-af18-f06fe542a99a","system_id":"levelo_inurba_marseille","lat":43.27199,"lon":5.39196,"is_reserved":false,"is_disabled":false,"rental_uris":{"android":"levelo://app?vid=87414c9b-5a7f-4e6e-af18-f06fe542a99a","ios":"levelo://app?vid=87414c9b-5a7f-4e6e-af18-f06fe542a99a"},"vehicle_type_id":"4","last_reported":1744873862,"current_range_meters":16800,"station_id":"ce4bhhp2rcd13ifvqfm0","pricing_plan_id":"cebpf4jnsgd1na2vs0mg"},{"bike_id":"d750596a-6ac6-4755-84cc-45acd4464f3d","system_id":"levelo_inurba_marseille","lat":43.243909,"lon":5.370806,"is_reserved":false,"is_disabled":false,"rental_uris":{"android":"levelo://app?vid=d750596a-6ac6-4755-84cc-45acd4464f3d","ios":"levelo://app?vid=d750596a-6ac6-4755-84cc-45acd4464f3d"},"vehicle_type_id":"4","last_reported":1744873862,"current_range_meters":17200,"station_id":"ce4bhhh2rcd13ifvqfk0","pricing_plan_id":"cebpf4jnsgd1na2vs0mg"},{"bike_id":"d67b9230-76ac-44c0-a11d-f5f9ea7f9459","system_id":"levelo_inurba_marseille","lat":43.26676,"lon":5.38289,"is_reserved":false,"is_disabled":false,"rental_uris":{"android":"levelo://app?vid=d67b9230-76ac-44c0-a11d-f5f9ea7f9459","ios":"levelo://app?vid=d67b9230-76ac-44c0-a11d-f5f9ea7f9459"},"vehicle_type_id":"4","last_reported":1744873862,"current_range_meters":17200,"station_id":"ce4bhg92rcd13ifvqf90","pricing_plan_id":"cebpf4jnsgd1na2vs0mg"},{"bike_id":"1c89d74c-cb57-457b-aeff-4b64b5b9f8df","system_id":"levelo_inurba_marseille","lat":43.3054,"lon":5.38421,"is_reserved":false,"is_disabled":false,"rental_uris":{"android":"levelo://app?vid=1c89d74c-cb57-457b-aeff-4b64b5b9f8df","ios":"levelo://app?vid=1c89d74c-cb57-457b-aeff-4b64b5b9f8df"},"vehicle_type_id":"4","last_reported":1744873862,"current_range_meters":17200,"station_id":"ce4bgg92rcd13ifvqb30","pricing_plan_id":"cebpf4jnsgd1na2vs0mg"},{"bike_id":"41fb0398-f2fe-4abb-ae37-a38f47615ea9","system_id":"levelo_inurba_marseille","lat":43.323564,"lon":5.367638,"is_reserved":false,"is_disabled":false,"rental_uris":{"android":"levelo://app?vid=41fb0398-f2fe-4abb-ae37-a38f47615ea9","ios":"levelo://app?vid=41fb0398-f2fe-4abb-ae37-a38f47615ea9"},"vehicle_type_id":"4","last_reported":1744873862,"current_range_meters":17200,"station_id":"ce4bhsh2rcd13ifvqi2g","pricing_plan_id":"cebpf4jnsgd1na2vs0mg"},{"bike_id":"5e1950f1-3570-4e07-a7cc-3dbf8a21d845","system_id":"levelo_inurba_marseille","lat":43.28154,"lon":5.42663,"is_reserved":false,"is_disabled":false,"rental_uris":{"android":"levelo://app?vid=5e1950f1-3570-4e07-a7cc-3dbf8a21d845","ios":"levelo://app?vid=5e1950f1-3570-4e07-a7cc-3dbf8a21d845"},"vehicle_type_id":"4","last_reported":1744873862,"current_range_meters":17200,"station_id":"ce4bhnh2rcd13ifvqgug","pricing_plan_id":"cebpf4jnsgd1na2vs0mg"},{"bike_id":"26d351cb-f654-4c62-ace7-2b4d968c51f9","system_id":"levelo_inurba_marseille","lat":43.30126,"lon":5.38094,"is_reserved":false,"is_disabled":false,"rental_uris":{"android":"levelo://app?vid=26d351cb-f654-4c62-ace7-2b4d968c51f9","ios":"levelo://app?vid=26d351cb-f654-4c62-ace7-2b4d968c51f9"},"vehicle_type_id":"4","last_reported":1744873862,"current_range_meters":18000,"station_id":"ce4bgjp2rcd13ifvqbh0","pricing_plan_id":"cebpf4jnsgd1na2vs0mg"},{"bike_id":"de82c0b6-3627-4f32-9540-2f29e2a656c1","system_id":"levelo_inurba_marseille","lat":43.32103,"lon":5.36767,"is_reserved":false,"is_disabled":false,"rental_uris":{"android":"levelo://app?vid=de82c0b6-3627-4f32-9540-2f29e2a656c1","ios":"levelo://app?vid=de82c0b6-3627-4f32-9540-2f29e2a656c1"},"vehicle_type_id":"4","last_reported":1744873862,"current_range_meters":18000,"station_id":"ce4bhrh2rcd13ifvqhug","pricing_plan_id":"cebpf4jnsgd1na2vs0mg"},{"bike_id":"502eb57f-58c1-46b5-bbab-f82b11336169","system_id":"levelo_inurba_marseille","lat":43.30523,"lon":5.36524,"is_reserved":false,"is_disabled":false,"rental_uris":{"android":"levelo://app?vid=502eb57f-58c1-46b5-bbab-f82b11336169","ios":"levelo://app?vid=502eb57f-58c1-46b5-bbab-f82b11336169"},"vehicle_type_id":"4","last_reported":1744873862,"current_range_meters":18000,"station_id":"ce4bgs12rcd13ifvqcag","pricing_plan_id":"cebpf4jnsgd1na2vs0mg"},{"bike_id":"934a8fc0-98f8-4aaf-a145-d485dee937c7","system_id":"levelo_inurba_marseille","lat":43.32352,"lon":5.36763,"is_reserved":false,"is_disabled":false,"rental_uris":{"android":"levelo://app?vid=934a8fc0-98f8-4aaf-a145-d485dee937c7","ios":"levelo://app?vid=934a8fc0-98f8-4aaf-a145-d485dee937c7"},"vehicle_type_id":"4","last_reported":1744873862,"current_range_meters":18000,"station_id":"ce4bhsh2rcd13ifvqi2g","pricing_plan_id":"cebpf4jnsgd1na2vs0mg"},{"bike_id":"a17920db-4b7e-474c-ab57-3b97ec496a14","system_id":"levelo_inurba_marseille","lat":43.24176,"lon":5.39727,"is_reserved":false,"is_disabled":false,"rental_uris":{"android":"levelo://app?vid=a17920db-4b7e-474c-ab57-3b97ec496a14","ios":"levelo://app?vid=a17920db-4b7e-474c-ab57-3b97ec496a14"},"vehicle_type_id":"4","last_reported":1744873862,"current_range_meters":18800,"station_id":"ce4bhn12rcd13ifvqgpg","pricing_plan_id":"cebpf4jnsgd1na2vs0mg"},{"bike_id":"6cc465b5-d0f6-42c0-96ac-64c41e74fb95","system_id":"levelo_inurba_marseille","lat":43.29295,"lon":5.37468,"is_reserved":false,"is_disabled":false,"rental_uris":{"android":"levelo://app?vid=6cc465b5-d0f6-42c0-96ac-64c41e74fb95","ios":"levelo://app?vid=6cc465b5-d0f6-42c0-96ac-64c41e74fb95"},"vehicle_type_id":"4","last_reported":1744873862,"current_range_meters":18800,"station_id":"ce4bgi12rcd13ifvqb70","pricing_plan_id":"cebpf4jnsgd1na2vs0mg"},{"bike_id":"116bddcf-6d1d-437e-9158-fa18b63062ca","system_id":"levelo_inurba_marseille","lat":43.24807,"lon":5.3746,"is_reserved":false,"is_disabled":false,"rental_uris":{"android":"levelo://app?vid=116bddcf-6d1d-437e-9158-fa18b63062ca","ios":"levelo://app?vid=116bddcf-6d1d-437e-9158-fa18b63062ca"},"vehicle_type_id":"4","last_reported":1744873862,"current_range_meters":18800,"station_id":"ce4bhgh2rcd13ifvqfb0","pricing_plan_id":"cebpf4jnsgd1na2vs0mg"},{"bike_id":"6d708c82-cabc-408c-9253-b3af4836dad6","system_id":"levelo_inurba_marseille","lat":43.31346,"lon":5.36725,"is_reserved":false,"is_disabled":false,"rental_uris":{"android":"levelo://app?vid=6d708c82-cabc-408c-9253-b3af4836dad6","ios":"levelo://app?vid=6d708c82-cabc-408c-9253-b3af4836dad6"},"vehicle_type_id":"4","last_reported":1744873862,"current_range_meters":18800,"station_id":"ce4bgr92rcd13ifvqc6g","pricing_plan_id":"cebpf4jnsgd1na2vs0mg"},{"bike_id":"35f1cc88-7bb3-42cf-ba4a-cd435a8760b0","system_id":"levelo_inurba_marseille","lat":43.30541,"lon":5.36554,"is_reserved":false,"is_disabled":false,"rental_uris":{"android":"levelo://app?vid=35f1cc88-7bb3-42cf-ba4a-cd435a8760b0","ios":"levelo://app?vid=35f1cc88-7bb3-42cf-ba4a-cd435a8760b0"},"vehicle_type_id":"4","last_reported":1744873862,"current_range_meters":18800,"station_id":"ce4bgs12rcd13ifvqcag","pricing_plan_id":"cebpf4jnsgd1na2vs0mg"},{"bike_id":"78043e39-4d3f-41c9-be5a-628323dd1f09","system_id":"levelo_inurba_marseille","lat":43.28369,"lon":5.38625,"is_reserved":false,"is_disabled":false,"rental_uris":{"android":"levelo://app?vid=78043e39-4d3f-41c9-be5a-628323dd1f09","ios":"levelo://app?vid=78043e39-4d3f-41c9-be5a-628323dd1f09"},"vehicle_type_id":"4","last_reported":1744873862,"current_range_meters":18800,"station_id":"ce4bh492rcd13ifvqdvg","pricing_plan_id":"cebpf4jnsgd1na2vs0mg"},{"bike_id":"f95d43ed-2a21-4aca-b947-74ed53257cbc","system_id":"levelo_inurba_marseille","lat":43.262264,"lon":5.404483,"is_reserved":false,"is_disabled":false,"rental_uris":{"android":"levelo://app?vid=f95d43ed-2a21-4aca-b947-74ed53257cbc","ios":"levelo://app?vid=f95d43ed-2a21-4aca-b947-74ed53257cbc"},"vehicle_type_id":"4","last_reported":1744873862,"current_range_meters":18800,"station_id":"ce4bhmh2rcd13ifvqgmg","pricing_plan_id":"cebpf4jnsgd1na2vs0mg"},{"bike_id":"a0ddb0a5-f7f0-4281-aa27-9e82747cc573","system_id":"levelo_inurba_marseille","lat":43.33754,"lon":5.37491,"is_reserved":false,"is_disabled":false,"rental_uris":{"android":"levelo://app?vid=a0ddb0a5-f7f0-4281-aa27-9e82747cc573","ios":"levelo://app?vid=a0ddb0a5-f7f0-4281-aa27-9e82747cc573"},"vehicle_type_id":"4","last_reported":1744873862,"current_range_meters":18800,"station_id":"","pricing_plan_id":"cebpf4jnsgd1na2vs0mg"},{"bike_id":"bc2ef231-31fc-49c3-932e-f58ee6d3f9bd","system_id":"levelo_inurba_marseille","lat":43.29307,"lon":5.37192,"is_reserved":false,"is_disabled":false,"rental_uris":{"android":"levelo://app?vid=bc2ef231-31fc-49c3-932e-f58ee6d3f9bd","ios":"levelo://app?vid=bc2ef231-31fc-49c3-932e-f58ee6d3f9bd"},"vehicle_type_id":"4","last_reported":1744873862,"current_range_meters":19200,"station_id":"ce4bgh92rcd13ifvqb40","pricing_plan_id":"cebpf4jnsgd1na2vs0mg"},{"bike_id":"9b32d9b0-b425-4d34-812f-0c610ee31565","system_id":"levelo_inurba_marseille","lat":43.30206,"lon":5.39465,"is_reserved":false,"is_disabled":true,"rental_uris":{"android":"levelo://app?vid=9b32d9b0-b425-4d34-812f-0c610ee31565","ios":"levelo://app?vid=9b32d9b0-b425-4d34-812f-0c610ee31565"},"vehicle_type_id":"4","last_reported":1744873862,"current_range_meters":19200,"station_id":"","pricing_plan_id":"cebpf4jnsgd1na2vs0mg"},{"bike_id":"bbb1c662-cc65-4c72-8489-de78d2f0f12f","system_id":"levelo_inurba_marseille","lat":43.23097,"lon":5.35499,"is_reserved":false,"is_disabled":false,"rental_uris":{"android":"levelo://app?vid=bbb1c662-cc65-4c72-8489-de78d2f0f12f","ios":"levelo://app?vid=bbb1c662-cc65-4c72-8489-de78d2f0f12f"},"vehicle_type_id":"4","last_reported":1744873862,"current_range_meters":19200,"station_id":"","pricing_plan_id":"cebpf4jnsgd1na2vs0mg"},{"bike_id":"c120b98a-1b24-4573-8272-5c4942bc0409","system_id":"levelo_inurba_marseille","lat":43.30534,"lon":5.36535,"is_reserved":false,"is_disabled":false,"rental_uris":{"android":"levelo://app?vid=c120b98a-1b24-4573-8272-5c4942bc0409","ios":"levelo://app?vid=c120b98a-1b24-4573-8272-5c4942bc0409"},"vehicle_type_id":"4","last_reported":1744873862,"current_range_meters":19200,"station_id":"ce4bgs12rcd13ifvqcag","pricing_plan_id":"cebpf4jnsgd1na2vs0mg"},{"bike_id":"7ed91d22-3d5b-4254-83bf-64eb2a7d5481","system_id":"levelo_inurba_marseille","lat":43.22501,"lon":5.34789,"is_reserved":false,"is_disabled":false,"rental_uris":{"android":"levelo://app?vid=7ed91d22-3d5b-4254-83bf-64eb2a7d5481","ios":"levelo://app?vid=7ed91d22-3d5b-4254-83bf-64eb2a7d5481"},"vehicle_type_id":"4","last_reported":1744873862,"current_range_meters":19200,"station_id":"","pricing_plan_id":"cebpf4jnsgd1na2vs0mg"},{"bike_id":"4db06d98-ef3f-4322-bb1a-56487e040895","system_id":"levelo_inurba_marseille","lat":43.24192,"lon":5.39732,"is_reserved":false,"is_disabled":false,"rental_uris":{"android":"levelo://app?vid=4db06d98-ef3f-4322-bb1a-56487e040895","ios":"levelo://app?vid=4db06d98-ef3f-4322-bb1a-56487e040895"},"vehicle_type_id":"4","last_reported":1744873862,"current_range_meters":19200,"station_id":"ce4bhn12rcd13ifvqgpg","pricing_plan_id":"cebpf4jnsgd1na2vs0mg"},{"bike_id":"8934c9ff-b955-4903-b5d2-c595dc711b7c","system_id":"levelo_inurba_marseille","lat":43.29571,"lon":5.39958,"is_reserved":false,"is_disabled":true,"rental_uris":{"android":"levelo://app?vid=8934c9ff-b955-4903-b5d2-c595dc711b7c","ios":"levelo://app?vid=8934c9ff-b955-4903-b5d2-c595dc711b7c"},"vehicle_type_id":"4","last_reported":1744873862,"current_range_meters":19200,"station_id":"ce4bh312rcd13ifvqdj0","pricing_plan_id":"cebpf4jnsgd1na2vs0mg"},{"bike_id":"d7b28c2c-c047-4813-b119-c62bcfa50241","system_id":"levelo_inurba_marseille","lat":43.29033,"lon":5.3755,"is_reserved":false,"is_disabled":false,"rental_uris":{"android":"levelo://app?vid=d7b28c2c-c047-4813-b119-c62bcfa50241","ios":"levelo://app?vid=d7b28c2c-c047-4813-b119-c62bcfa50241"},"vehicle_type_id":"4","last_reported":1744873862,"current_range_meters":18800,"station_id":"ce4bh692rcd13ifvqe90","pricing_plan_id":"cebpf4jnsgd1na2vs0mg"},{"bike_id":"84c48c85-9b00-408c-a761-1ac18b23fed5","system_id":"levelo_inurba_marseille","lat":43.24408,"lon":5.37083,"is_reserved":false,"is_disabled":true,"rental_uris":{"android":"levelo://app?vid=84c48c85-9b00-408c-a761-1ac18b23fed5","ios":"levelo://app?vid=84c48c85-9b00-408c-a761-1ac18b23fed5"},"vehicle_type_id":"4","last_reported":1744873862,"current_range_meters":19200,"station_id":"ce4bhhh2rcd13ifvqfk0","pricing_plan_id":"cebpf4jnsgd1na2vs0mg"},{"bike_id":"5376db3a-f912-4a95-826f-4197746248f5","system_id":"levelo_inurba_marseille","lat":43.30373,"lon":5.4249,"is_reserved":false,"is_disabled":true,"rental_uris":{"android":"levelo://app?vid=5376db3a-f912-4a95-826f-4197746248f5","ios":"levelo://app?vid=5376db3a-f912-4a95-826f-4197746248f5"},"vehicle_type_id":"4","last_reported":1744873862,"current_range_meters":19200,"station_id":"ce4bhoh2rcd13ifvqh6g","pricing_plan_id":"cebpf4jnsgd1na2vs0mg"},{"bike_id":"4d65027c-bef4-4bad-9e78-a8b0c04e01c9","system_id":"levelo_inurba_marseille","lat":43.32034,"lon":5.41555,"is_reserved":false,"is_disabled":false,"rental_uris":{"android":"levelo://app?vid=4d65027c-bef4-4bad-9e78-a8b0c04e01c9","ios":"levelo://app?vid=4d65027c-bef4-4bad-9e78-a8b0c04e01c9"},"vehicle_type_id":"4","last_reported":1744873862,"current_range_meters":19200,"station_id":"ce4bhq92rcd13ifvqhkg","pricing_plan_id":"cebpf4jnsgd1na2vs0mg"},{"bike_id":"fa933596-af3a-43c0-9deb-6367122e8f51","system_id":"levelo_inurba_marseille","lat":43.289289,"lon":5.378516,"is_reserved":false,"is_disabled":false,"rental_uris":{"android":"levelo://app?vid=fa933596-af3a-43c0-9deb-6367122e8f51","ios":"levelo://app?vid=fa933596-af3a-43c0-9deb-6367122e8f51"},"vehicle_type_id":"4","last_reported":1744873862,"current_range_meters":19600,"station_id":"ce4bh9p2rcd13ifvqec0","pricing_plan_id":"cebpf4jnsgd1na2vs0mg"},{"bike_id":"345f3b88-e34e-4d48-9f0c-6592661ae354","system_id":"levelo_inurba_marseille","lat":43.27931,"lon":5.41078,"is_reserved":false,"is_disabled":false,"rental_uris":{"android":"levelo://app?vid=345f3b88-e34e-4d48-9f0c-6592661ae354","ios":"levelo://app?vid=345f3b88-e34e-4d48-9f0c-6592661ae354"},"vehicle_type_id":"4","last_reported":1744873862,"current_range_meters":19600,"station_id":"ce4bhnp2rcd13ifvqh0g","pricing_plan_id":"cebpf4jnsgd1na2vs0mg"},{"bike_id":"b85996bd-cf3a-4528-bc1a-56c2891ffe91","system_id":"levelo_inurba_marseille","lat":43.29901,"lon":5.37467,"is_reserved":false,"is_disabled":false,"rental_uris":{"android":"levelo://app?vid=b85996bd-cf3a-4528-bc1a-56c2891ffe91","ios":"levelo://app?vid=b85996bd-cf3a-4528-bc1a-56c2891ffe91"},"vehicle_type_id":"4","last_reported":1744873862,"current_range_meters":19600,"station_id":"ce4bgjh2rcd13ifvqbg0","pricing_plan_id":"cebpf4jnsgd1na2vs0mg"},{"bike_id":"332d50ef-0349-465a-a3f8-a14d47a27c91","system_id":"levelo_inurba_marseille","lat":43.30549,"lon":5.3653,"is_reserved":false,"is_disabled":false,"rental_uris":{"android":"levelo://app?vid=332d50ef-0349-465a-a3f8-a14d47a27c91","ios":"levelo://app?vid=332d50ef-0349-465a-a3f8-a14d47a27c91"},"vehicle_type_id":"4","last_reported":1744873862,"current_range_meters":19600,"station_id":"ce4bgs12rcd13ifvqcag","pricing_plan_id":"cebpf4jnsgd1na2vs0mg"},{"bike_id":"bf719354-3a0f-4a08-a3dc-ea01891f96a8","system_id":"levelo_inurba_marseille","lat":43.29235,"lon":5.38429,"is_reserved":false,"is_disabled":true,"rental_uris":{"android":"levelo://app?vid=bf719354-3a0f-4a08-a3dc-ea01891f96a8","ios":"levelo://app?vid=bf719354-3a0f-4a08-a3dc-ea01891f96a8"},"vehicle_type_id":"4","last_reported":1744873862,"current_range_meters":19600,"station_id":"","pricing_plan_id":"cebpf4jnsgd1na2vs0mg"},{"bike_id":"7eb8853e-3665-40f5-8308-1299f0674652","system_id":"levelo_inurba_marseille","lat":43.30399,"lon":5.42479,"is_reserved":false,"is_disabled":false,"rental_uris":{"android":"levelo://app?vid=7eb8853e-3665-40f5-8308-1299f0674652","ios":"levelo://app?vid=7eb8853e-3665-40f5-8308-1299f0674652"},"vehicle_type_id":"4","last_reported":1744873862,"current_range_meters":19600,"station_id":"ce4bhoh2rcd13ifvqh6g","pricing_plan_id":"cebpf4jnsgd1na2vs0mg"},{"bike_id":"9d8e2c4d-6a59-45bd-a557-73dc6f3f9ccf","system_id":"levelo_inurba_marseille","lat":43.24818,"lon":5.37453,"is_reserved":false,"is_disabled":false,"rental_uris":{"android":"levelo://app?vid=9d8e2c4d-6a59-45bd-a557-73dc6f3f9ccf","ios":"levelo://app?vid=9d8e2c4d-6a59-45bd-a557-73dc6f3f9ccf"},"vehicle_type_id":"4","last_reported":1744873862,"current_range_meters":19600,"station_id":"ce4bhgh2rcd13ifvqfb0","pricing_plan_id":"cebpf4jnsgd1na2vs0mg"},{"bike_id":"cc250298-de78-48ca-910c-a354646c94bb","system_id":"levelo_inurba_marseille","lat":43.31986,"lon":5.38127,"is_reserved":false,"is_disabled":false,"rental_uris":{"android":"levelo://app?vid=cc250298-de78-48ca-910c-a354646c94bb","ios":"levelo://app?vid=cc250298-de78-48ca-910c-a354646c94bb"},"vehicle_type_id":"4","last_reported":1744873862,"current_range_meters":19600,"station_id":"ce4bhr12rcd13ifvqhpg","pricing_plan_id":"cebpf4jnsgd1na2vs0mg"},{"bike_id":"ca4612f1-dd57-4e0d-84f9-d607d0582268","system_id":"levelo_inurba_marseille","lat":43.288257,"lon":5.358469,"is_reserved":false,"is_disabled":false,"rental_uris":{"android":"levelo://app?vid=ca4612f1-dd57-4e0d-84f9-d607d0582268","ios":"levelo://app?vid=ca4612f1-dd57-4e0d-84f9-d607d0582268"},"vehicle_type_id":"4","last_reported":1744873862,"current_range_meters":20000,"station_id":"ce4bgqh2rcd13ifvqc5g","pricing_plan_id":"cebpf4jnsgd1na2vs0mg"},{"bike_id":"a4255c6e-92c9-4780-a3bb-374a1185e55b","system_id":"levelo_inurba_marseille","lat":43.30913,"lon":5.36847,"is_reserved":false,"is_disabled":false,"rental_uris":{"android":"levelo://app?vid=a4255c6e-92c9-4780-a3bb-374a1185e55b","ios":"levelo://app?vid=a4255c6e-92c9-4780-a3bb-374a1185e55b"},"vehicle_type_id":"4","last_reported":1744873862,"current_range_meters":20000,"station_id":"ce4bgn92rcd13ifvqbvg","pricing_plan_id":"cebpf4jnsgd1na2vs0mg"},{"bike_id":"9bb7361c-307f-49cb-ac99-d77623f20e19","system_id":"levelo_inurba_marseille","lat":43.3248,"lon":5.36563,"is_reserved":false,"is_disabled":false,"rental_uris":{"android":"levelo://app?vid=9bb7361c-307f-49cb-ac99-d77623f20e19","ios":"levelo://app?vid=9bb7361c-307f-49cb-ac99-d77623f20e19"},"vehicle_type_id":"4","last_reported":1744873862,"current_range_meters":20000,"station_id":"ce4bhs12rcd13ifvqhvg","pricing_plan_id":"cebpf4jnsgd1na2vs0mg"},{"bike_id":"a1481493-c5cb-4563-9930-6f7d256800fb","system_id":"levelo_inurba_marseille","lat":43.30589,"lon":5.39355,"is_reserved":false,"is_disabled":false,"rental_uris":{"android":"levelo://app?vid=a1481493-c5cb-4563-9930-6f7d256800fb","ios":"levelo://app?vid=a1481493-c5cb-4563-9930-6f7d256800fb"},"vehicle_type_id":"4","last_reported":1744873862,"current_range_meters":20000,"station_id":"ce4bh0p2rcd13ifvqd80","pricing_plan_id":"cebpf4jnsgd1na2vs0mg"},{"bike_id":"01930f64-c679-4b05-b064-7998f12896b3","system_id":"levelo_inurba_marseille","lat":43.25941,"lon":5.40902,"is_reserved":false,"is_disabled":false,"rental_uris":{"android":"levelo://app?vid=01930f64-c679-4b05-b064-7998f12896b3","ios":"levelo://app?vid=01930f64-c679-4b05-b064-7998f12896b3"},"vehicle_type_id":"4","last_reported":1744873862,"current_range_meters":20000,"station_id":"ce4bhm92rcd13ifvqglg","pricing_plan_id":"cebpf4jnsgd1na2vs0mg"},{"bike_id":"ef6e9c6f-8f69-4fcf-9727-b556a001e5bc","system_id":"levelo_inurba_marseille","lat":43.29551,"lon":5.4228,"is_reserved":false,"is_disabled":false,"rental_uris":{"android":"levelo://app?vid=ef6e9c6f-8f69-4fcf-9727-b556a001e5bc","ios":"levelo://app?vid=ef6e9c6f-8f69-4fcf-9727-b556a001e5bc"},"vehicle_type_id":"4","last_reported":1744873862,"current_range_meters":20000,"station_id":"ce4bhph2rcd13ifvqhdg","pricing_plan_id":"cebpf4jnsgd1na2vs0mg"},{"bike_id":"33efbe4e-e642-4271-be29-4926b421ca5b","system_id":"levelo_inurba_marseille","lat":43.24167,"lon":5.36393,"is_reserved":false,"is_disabled":false,"rental_uris":{"android":"levelo://app?vid=33efbe4e-e642-4271-be29-4926b421ca5b","ios":"levelo://app?vid=33efbe4e-e642-4271-be29-4926b421ca5b"},"vehicle_type_id":"4","last_reported":1744873862,"current_range_meters":20000,"station_id":"cpo36qri1sfpv3e86is0","pricing_plan_id":"cebpf4jnsgd1na2vs0mg"},{"bike_id":"f8f5a0d7-53b4-48a2-b8c1-8f26bf886713","system_id":"levelo_inurba_marseille","lat":43.30955,"lon":5.39036,"is_reserved":false,"is_disabled":false,"rental_uris":{"android":"levelo://app?vid=f8f5a0d7-53b4-48a2-b8c1-8f26bf886713","ios":"levelo://app?vid=f8f5a0d7-53b4-48a2-b8c1-8f26bf886713"},"vehicle_type_id":"4","last_reported":1744873862,"current_range_meters":20000,"station_id":"ce4bgup2rcd13ifvqco0","pricing_plan_id":"cebpf4jnsgd1na2vs0mg"},{"bike_id":"68342d9f-f0b6-47e7-b690-b27078e67a77","system_id":"levelo_inurba_marseille","lat":43.24168,"lon":5.36395,"is_reserved":false,"is_disabled":false,"rental_uris":{"android":"levelo://app?vid=68342d9f-f0b6-47e7-b690-b27078e67a77","ios":"levelo://app?vid=68342d9f-f0b6-47e7-b690-b27078e67a77"},"vehicle_type_id":"4","last_reported":1744873862,"current_range_meters":20400,"station_id":"cpo36qri1sfpv3e86is0","pricing_plan_id":"cebpf4jnsgd1na2vs0mg"},{"bike_id":"2a3df68e-728a-4b9c-bbc2-4259a4448e26","system_id":"levelo_inurba_marseille","lat":43.27998,"lon":5.40016,"is_reserved":false,"is_disabled":false,"rental_uris":{"android":"levelo://app?vid=2a3df68e-728a-4b9c-bbc2-4259a4448e26","ios":"levelo://app?vid=2a3df68e-728a-4b9c-bbc2-4259a4448e26"},"vehicle_type_id":"4","last_reported":1744873862,"current_range_meters":20400,"station_id":"ce4bho92rcd13ifvqh4g","pricing_plan_id":"cebpf4jnsgd1na2vs0mg"},{"bike_id":"789c3822-56ca-4769-bcd4-8845bdea2fda","system_id":"levelo_inurba_marseille","lat":43.241654,"lon":5.36395,"is_reserved":false,"is_disabled":false,"rental_uris":{"android":"levelo://app?vid=789c3822-56ca-4769-bcd4-8845bdea2fda","ios":"levelo://app?vid=789c3822-56ca-4769-bcd4-8845bdea2fda"},"vehicle_type_id":"4","last_reported":1744873862,"current_range_meters":20400,"station_id":"cpo36qri1sfpv3e86is0","pricing_plan_id":"cebpf4jnsgd1na2vs0mg"},{"bike_id":"90d60260-2c69-448a-a5c8-5570d9622063","system_id":"levelo_inurba_marseille","lat":43.30462,"lon":5.37914,"is_reserved":false,"is_disabled":false,"rental_uris":{"android":"levelo://app?vid=90d60260-2c69-448a-a5c8-5570d9622063","ios":"levelo://app?vid=90d60260-2c69-448a-a5c8-5570d9622063"},"vehicle_type_id":"4","last_reported":1744873862,"current_range_meters":20400,"station_id":"ce4bgup2rcd13ifvqcn0","pricing_plan_id":"cebpf4jnsgd1na2vs0mg"},{"bike_id":"22f0669d-f747-4756-afb9-a3681c11c7f4","system_id":"levelo_inurba_marseille","lat":43.30554,"lon":5.38452,"is_reserved":false,"is_disabled":false,"rental_uris":{"android":"levelo://app?vid=22f0669d-f747-4756-afb9-a3681c11c7f4","ios":"levelo://app?vid=22f0669d-f747-4756-afb9-a3681c11c7f4"},"vehicle_type_id":"4","last_reported":1744873862,"current_range_meters":20400,"station_id":"ce4bgg92rcd13ifvqb30","pricing_plan_id":"cebpf4jnsgd1na2vs0mg"},{"bike_id":"bd3f7c87-2214-4add-a4a2-d3b9bb19b65d","system_id":"levelo_inurba_marseille","lat":43.31754,"lon":5.38817,"is_reserved":false,"is_disabled":false,"rental_uris":{"android":"levelo://app?vid=bd3f7c87-2214-4add-a4a2-d3b9bb19b65d","ios":"levelo://app?vid=bd3f7c87-2214-4add-a4a2-d3b9bb19b65d"},"vehicle_type_id":"4","last_reported":1744873862,"current_range_meters":20400,"station_id":"","pricing_plan_id":"cebpf4jnsgd1na2vs0mg"},{"bike_id":"3b15e86a-6b6f-4ec6-9418-eeb3ac36c10f","system_id":"levelo_inurba_marseille","lat":43.317458,"lon":5.388514,"is_reserved":false,"is_disabled":false,"rental_uris":{"android":"levelo://app?vid=3b15e86a-6b6f-4ec6-9418-eeb3ac36c10f","ios":"levelo://app?vid=3b15e86a-6b6f-4ec6-9418-eeb3ac36c10f"},"vehicle_type_id":"4","last_reported":1744873862,"current_range_meters":20400,"station_id":"","pricing_plan_id":"cebpf4jnsgd1na2vs0mg"},{"bike_id":"e8ec2750-e967-430c-b76e-64b065d8530e","system_id":"levelo_inurba_marseille","lat":43.2592,"lon":5.408556,"is_reserved":false,"is_disabled":true,"rental_uris":{"android":"levelo://app?vid=e8ec2750-e967-430c-b76e-64b065d8530e","ios":"levelo://app?vid=e8ec2750-e967-430c-b76e-64b065d8530e"},"vehicle_type_id":"4","last_reported":1744873862,"current_range_meters":20400,"station_id":"ce4bhm92rcd13ifvqglg","pricing_plan_id":"cebpf4jnsgd1na2vs0mg"},{"bike_id":"1f3d5d90-a5e7-42da-b30a-ed5e19b3ee0f","system_id":"levelo_inurba_marseille","lat":43.26562,"lon":5.37286,"is_reserved":false,"is_disabled":false,"rental_uris":{"android":"levelo://app?vid=1f3d5d90-a5e7-42da-b30a-ed5e19b3ee0f","ios":"levelo://app?vid=1f3d5d90-a5e7-42da-b30a-ed5e19b3ee0f"},"vehicle_type_id":"4","last_reported":1744873862,"current_range_meters":20800,"station_id":"ce4bhg12rcd13ifvqf70","pricing_plan_id":"cebpf4jnsgd1na2vs0mg"},{"bike_id":"ce91a124-09ea-4ce6-b45e-165b6a5bcd52","system_id":"levelo_inurba_marseille","lat":43.29019,"lon":5.38127,"is_reserved":false,"is_disabled":true,"rental_uris":{"android":"levelo://app?vid=ce91a124-09ea-4ce6-b45e-165b6a5bcd52","ios":"levelo://app?vid=ce91a124-09ea-4ce6-b45e-165b6a5bcd52"},"vehicle_type_id":"4","last_reported":1744873862,"current_range_meters":20800,"station_id":"ce4bh4p2rcd13ifvqe1g","pricing_plan_id":"cebpf4jnsgd1na2vs0mg"},{"bike_id":"3d478ed8-ed25-416a-87f2-402df3b77c0b","system_id":"levelo_inurba_marseille","lat":43.24167,"lon":5.39734,"is_reserved":false,"is_disabled":false,"rental_uris":{"android":"levelo://app?vid=3d478ed8-ed25-416a-87f2-402df3b77c0b","ios":"levelo://app?vid=3d478ed8-ed25-416a-87f2-402df3b77c0b"},"vehicle_type_id":"4","last_reported":1744873862,"current_range_meters":20800,"station_id":"ce4bhn12rcd13ifvqgpg","pricing_plan_id":"cebpf4jnsgd1na2vs0mg"},{"bike_id":"caf43a36-457e-4f88-aa42-1b57467e1a43","system_id":"levelo_inurba_marseille","lat":43.33014,"lon":5.39044,"is_reserved":false,"is_disabled":false,"rental_uris":{"android":"levelo://app?vid=caf43a36-457e-4f88-aa42-1b57467e1a43","ios":"levelo://app?vid=caf43a36-457e-4f88-aa42-1b57467e1a43"},"vehicle_type_id":"4","last_reported":1744873862,"current_range_meters":20800,"station_id":"ce4bhr92rcd13ifvqhrg","pricing_plan_id":"cebpf4jnsgd1na2vs0mg"},{"bike_id":"690d36e2-8534-4a1f-bbd1-d3137eb31481","system_id":"levelo_inurba_marseille","lat":43.29182,"lon":5.3933,"is_reserved":false,"is_disabled":false,"rental_uris":{"android":"levelo://app?vid=690d36e2-8534-4a1f-bbd1-d3137eb31481","ios":"levelo://app?vid=690d36e2-8534-4a1f-bbd1-d3137eb31481"},"vehicle_type_id":"4","last_reported":1744873862,"current_range_meters":20800,"station_id":"ce4bh192rcd13ifvqdd0","pricing_plan_id":"cebpf4jnsgd1na2vs0mg"},{"bike_id":"49656461-bedc-4f0f-a69f-7ac8c555c02a","system_id":"levelo_inurba_marseille","lat":43.24394,"lon":5.37049,"is_reserved":false,"is_disabled":false,"rental_uris":{"android":"levelo://app?vid=49656461-bedc-4f0f-a69f-7ac8c555c02a","ios":"levelo://app?vid=49656461-bedc-4f0f-a69f-7ac8c555c02a"},"vehicle_type_id":"4","last_reported":1744873862,"current_range_meters":21600,"station_id":"ce4bhhh2rcd13ifvqfk0","pricing_plan_id":"cebpf4jnsgd1na2vs0mg"},{"bike_id":"8823a0ce-4d1d-4e5f-be31-053ac777c447","system_id":"levelo_inurba_marseille","lat":43.303161,"lon":5.37933,"is_reserved":false,"is_disabled":false,"rental_uris":{"android":"levelo://app?vid=8823a0ce-4d1d-4e5f-be31-053ac777c447","ios":"levelo://app?vid=8823a0ce-4d1d-4e5f-be31-053ac777c447"},"vehicle_type_id":"4","last_reported":1744873862,"current_range_meters":21600,"station_id":"ce4bgup2rcd13ifvqcn0","pricing_plan_id":"cebpf4jnsgd1na2vs0mg"},{"bike_id":"f9d3fbe6-73e5-424e-af02-f446d5b07152","system_id":"levelo_inurba_marseille","lat":43.21761,"lon":5.34611,"is_reserved":false,"is_disabled":false,"rental_uris":{"android":"levelo://app?vid=f9d3fbe6-73e5-424e-af02-f446d5b07152","ios":"levelo://app?vid=f9d3fbe6-73e5-424e-af02-f446d5b07152"},"vehicle_type_id":"4","last_reported":1744873862,"current_range_meters":21600,"station_id":"st_cvj6r9ubvosntc0bgbag","pricing_plan_id":"cebpf4jnsgd1na2vs0mg"},{"bike_id":"c977c711-1106-4f90-9e69-3a0c01028321","system_id":"levelo_inurba_marseille","lat":43.3091,"lon":5.36852,"is_reserved":false,"is_disabled":false,"rental_uris":{"android":"levelo://app?vid=c977c711-1106-4f90-9e69-3a0c01028321","ios":"levelo://app?vid=c977c711-1106-4f90-9e69-3a0c01028321"},"vehicle_type_id":"4","last_reported":1744873862,"current_range_meters":21600,"station_id":"ce4bgn92rcd13ifvqbvg","pricing_plan_id":"cebpf4jnsgd1na2vs0mg"},{"bike_id":"7e2b1f25-9563-49f7-8e92-8965f8392c33","system_id":"levelo_inurba_marseille","lat":43.3304,"lon":5.3901,"is_reserved":false,"is_disabled":false,"rental_uris":{"android":"levelo://app?vid=7e2b1f25-9563-49f7-8e92-8965f8392c33","ios":"levelo://app?vid=7e2b1f25-9563-49f7-8e92-8965f8392c33"},"vehicle_type_id":"4","last_reported":1744873862,"current_range_meters":22000,"station_id":"","pricing_plan_id":"cebpf4jnsgd1na2vs0mg"},{"bike_id":"d39e5537-c00a-4bf8-9f22-53966b448679","system_id":"levelo_inurba_marseille","lat":43.29583,"lon":5.42317,"is_reserved":false,"is_disabled":false,"rental_uris":{"android":"levelo://app?vid=d39e5537-c00a-4bf8-9f22-53966b448679","ios":"levelo://app?vid=d39e5537-c00a-4bf8-9f22-53966b448679"},"vehicle_type_id":"4","last_reported":1744873862,"current_range_meters":22000,"station_id":"ce4bhph2rcd13ifvqhdg","pricing_plan_id":"cebpf4jnsgd1na2vs0mg"},{"bike_id":"04cd718a-739b-4f09-8fdf-74e445452766","system_id":"levelo_inurba_marseille","lat":43.315,"lon":5.37314,"is_reserved":false,"is_disabled":false,"rental_uris":{"android":"levelo://app?vid=04cd718a-739b-4f09-8fdf-74e445452766","ios":"levelo://app?vid=04cd718a-739b-4f09-8fdf-74e445452766"},"vehicle_type_id":"4","last_reported":1744873862,"current_range_meters":22000,"station_id":"ce4bgt12rcd13ifvqcd0","pricing_plan_id":"cebpf4jnsgd1na2vs0mg"},{"bike_id":"57ea081b-ffae-42b4-bc49-911f164f8d55","system_id":"levelo_inurba_marseille","lat":43.29274,"lon":5.40138,"is_reserved":false,"is_disabled":false,"rental_uris":{"android":"levelo://app?vid=57ea081b-ffae-42b4-bc49-911f164f8d55","ios":"levelo://app?vid=57ea081b-ffae-42b4-bc49-911f164f8d55"},"vehicle_type_id":"4","last_reported":1744873862,"current_range_meters":22000,"station_id":"ce4bh312rcd13ifvqdk0","pricing_plan_id":"cebpf4jnsgd1na2vs0mg"},{"bike_id":"5e7e5918-345f-4918-b112-eee7ac3f604a","system_id":"levelo_inurba_marseille","lat":43.292604,"lon":5.384401,"is_reserved":false,"is_disabled":false,"rental_uris":{"android":"levelo://app?vid=5e7e5918-345f-4918-b112-eee7ac3f604a","ios":"levelo://app?vid=5e7e5918-345f-4918-b112-eee7ac3f604a"},"vehicle_type_id":"4","last_reported":1744873862,"current_range_meters":22000,"station_id":"ce4bh692rcd13ifvqea0","pricing_plan_id":"cebpf4jnsgd1na2vs0mg"},{"bike_id":"767ac8e2-0e80-4549-a954-7d5c8496a13a","system_id":"levelo_inurba_marseille","lat":43.30541,"lon":5.36544,"is_reserved":false,"is_disabled":false,"rental_uris":{"android":"levelo://app?vid=767ac8e2-0e80-4549-a954-7d5c8496a13a","ios":"levelo://app?vid=767ac8e2-0e80-4549-a954-7d5c8496a13a"},"vehicle_type_id":"4","last_reported":1744873862,"current_range_meters":22000,"station_id":"ce4bgs12rcd13ifvqcag","pricing_plan_id":"cebpf4jnsgd1na2vs0mg"},{"bike_id":"88bfa4d6-b033-456c-a8d9-b51526e39406","system_id":"levelo_inurba_marseille","lat":43.299032,"lon":5.436643,"is_reserved":false,"is_disabled":false,"rental_uris":{"android":"levelo://app?vid=88bfa4d6-b033-456c-a8d9-b51526e39406","ios":"levelo://app?vid=88bfa4d6-b033-456c-a8d9-b51526e39406"},"vehicle_type_id":"4","last_reported":1744873862,"current_range_meters":22000,"station_id":"ce4bhpp2rcd13ifvqhfg","pricing_plan_id":"cebpf4jnsgd1na2vs0mg"},{"bike_id":"91281899-b3a8-48e8-9340-f6a18d0ddfec","system_id":"levelo_inurba_marseille","lat":43.30889,"lon":5.39658,"is_reserved":false,"is_disabled":false,"rental_uris":{"android":"levelo://app?vid=91281899-b3a8-48e8-9340-f6a18d0ddfec","ios":"levelo://app?vid=91281899-b3a8-48e8-9340-f6a18d0ddfec"},"vehicle_type_id":"4","last_reported":1744873862,"current_range_meters":22000,"station_id":"ce4bh012rcd13ifvqcv0","pricing_plan_id":"cebpf4jnsgd1na2vs0mg"},{"bike_id":"bfc0f2bb-f1f4-4fed-b9af-c547a21d1d5d","system_id":"levelo_inurba_marseille","lat":43.28635,"lon":5.35112,"is_reserved":false,"is_disabled":false,"rental_uris":{"android":"levelo://app?vid=bfc0f2bb-f1f4-4fed-b9af-c547a21d1d5d","ios":"levelo://app?vid=bfc0f2bb-f1f4-4fed-b9af-c547a21d1d5d"},"vehicle_type_id":"4","last_reported":1744873862,"current_range_meters":22000,"station_id":"ce4bhch2rcd13ifvqeug","pricing_plan_id":"cebpf4jnsgd1na2vs0mg"},{"bike_id":"a3638813-f476-4974-977f-f780756d0fe6","system_id":"levelo_inurba_marseille","lat":43.28264,"lon":5.35063,"is_reserved":false,"is_disabled":false,"rental_uris":{"android":"levelo://app?vid=a3638813-f476-4974-977f-f780756d0fe6","ios":"levelo://app?vid=a3638813-f476-4974-977f-f780756d0fe6"},"vehicle_type_id":"4","last_reported":1744873862,"current_range_meters":22000,"station_id":"ce4bhbp2rcd13ifvqerg","pricing_plan_id":"cebpf4jnsgd1na2vs0mg"},{"bike_id":"602aec56-3546-483f-b9f3-4d09ac66b818","system_id":"levelo_inurba_marseille","lat":43.31338,"lon":5.3675,"is_reserved":false,"is_disabled":false,"rental_uris":{"android":"levelo://app?vid=602aec56-3546-483f-b9f3-4d09ac66b818","ios":"levelo://app?vid=602aec56-3546-483f-b9f3-4d09ac66b818"},"vehicle_type_id":"4","last_reported":1744873862,"current_range_meters":22000,"station_id":"ce4bgr92rcd13ifvqc6g","pricing_plan_id":"cebpf4jnsgd1na2vs0mg"},{"bike_id":"c305c827-8b59-4e6c-91de-4d8a3fcbcac2","system_id":"levelo_inurba_marseille","lat":43.24176,"lon":5.36414,"is_reserved":false,"is_disabled":false,"rental_uris":{"android":"levelo://app?vid=c305c827-8b59-4e6c-91de-4d8a3fcbcac2","ios":"levelo://app?vid=c305c827-8b59-4e6c-91de-4d8a3fcbcac2"},"vehicle_type_id":"4","last_reported":1744873862,"current_range_meters":22000,"station_id":"cpo36qri1sfpv3e86is0","pricing_plan_id":"cebpf4jnsgd1na2vs0mg"},{"bike_id":"16b3e5e5-90fb-4ad4-866c-afa3014eded4","system_id":"levelo_inurba_marseille","lat":43.323661,"lon":5.367592,"is_reserved":false,"is_disabled":false,"rental_uris":{"android":"levelo://app?vid=16b3e5e5-90fb-4ad4-866c-afa3014eded4","ios":"levelo://app?vid=16b3e5e5-90fb-4ad4-866c-afa3014eded4"},"vehicle_type_id":"4","last_reported":1744873862,"current_range_meters":22400,"station_id":"ce4bhsh2rcd13ifvqi2g","pricing_plan_id":"cebpf4jnsgd1na2vs0mg"},{"bike_id":"04b0cb39-9229-4c02-890e-562e273ff746","system_id":"levelo_inurba_marseille","lat":43.29768,"lon":5.38105,"is_reserved":false,"is_disabled":true,"rental_uris":{"android":"levelo://app?vid=04b0cb39-9229-4c02-890e-562e273ff746","ios":"levelo://app?vid=04b0cb39-9229-4c02-890e-562e273ff746"},"vehicle_type_id":"4","last_reported":1744873862,"current_range_meters":22400,"station_id":"ce4bgip2rcd13ifvqbb0","pricing_plan_id":"cebpf4jnsgd1na2vs0mg"},{"bike_id":"40e4267f-7f8d-416c-8333-e54ff9b7c02c","system_id":"levelo_inurba_marseille","lat":43.24074,"lon":5.37766,"is_reserved":false,"is_disabled":false,"rental_uris":{"android":"levelo://app?vid=40e4267f-7f8d-416c-8333-e54ff9b7c02c","ios":"levelo://app?vid=40e4267f-7f8d-416c-8333-e54ff9b7c02c"},"vehicle_type_id":"4","last_reported":1744873862,"current_range_meters":22400,"station_id":"ce4bhnp2rcd13ifvqgvg","pricing_plan_id":"cebpf4jnsgd1na2vs0mg"},{"bike_id":"c2d1727e-d27f-4edd-af49-b57009f24a6d","system_id":"levelo_inurba_marseille","lat":43.28459,"lon":5.35892,"is_reserved":false,"is_disabled":false,"rental_uris":{"android":"levelo://app?vid=c2d1727e-d27f-4edd-af49-b57009f24a6d","ios":"levelo://app?vid=c2d1727e-d27f-4edd-af49-b57009f24a6d"},"vehicle_type_id":"4","last_reported":1744873862,"current_range_meters":22400,"station_id":"ce4bhah2rcd13ifvqei0","pricing_plan_id":"cebpf4jnsgd1na2vs0mg"},{"bike_id":"310817ee-bb1f-4a28-a993-5248dc08c804","system_id":"levelo_inurba_marseille","lat":43.30893,"lon":5.37184,"is_reserved":false,"is_disabled":false,"rental_uris":{"android":"levelo://app?vid=310817ee-bb1f-4a28-a993-5248dc08c804","ios":"levelo://app?vid=310817ee-bb1f-4a28-a993-5248dc08c804"},"vehicle_type_id":"4","last_reported":1744873862,"current_range_meters":22400,"station_id":"ce4bguh2rcd13ifvqckg","pricing_plan_id":"cebpf4jnsgd1na2vs0mg"},{"bike_id":"b243effd-df59-4def-a8a5-00addb1467e8","system_id":"levelo_inurba_marseille","lat":43.27322,"lon":5.39075,"is_reserved":false,"is_disabled":false,"rental_uris":{"android":"levelo://app?vid=b243effd-df59-4def-a8a5-00addb1467e8","ios":"levelo://app?vid=b243effd-df59-4def-a8a5-00addb1467e8"},"vehicle_type_id":"4","last_reported":1744873862,"current_range_meters":22400,"station_id":"ce4bhgp2rcd13ifvqfe0","pricing_plan_id":"cebpf4jnsgd1na2vs0mg"},{"bike_id":"8c0be09f-1a08-4f03-adf3-9ab53d05b7e1","system_id":"levelo_inurba_marseille","lat":43.30384,"lon":5.41289,"is_reserved":false,"is_disabled":true,"rental_uris":{"android":"levelo://app?vid=8c0be09f-1a08-4f03-adf3-9ab53d05b7e1","ios":"levelo://app?vid=8c0be09f-1a08-4f03-adf3-9ab53d05b7e1"},"vehicle_type_id":"4","last_reported":1744873862,"current_range_meters":22400,"station_id":"ce4bhop2rcd13ifvqh8g","pricing_plan_id":"cebpf4jnsgd1na2vs0mg"},{"bike_id":"7bce0807-93f9-4e13-8b17-c78186d378c3","system_id":"levelo_inurba_marseille","lat":43.26234,"lon":5.40481,"is_reserved":false,"is_disabled":false,"rental_uris":{"android":"levelo://app?vid=7bce0807-93f9-4e13-8b17-c78186d378c3","ios":"levelo://app?vid=7bce0807-93f9-4e13-8b17-c78186d378c3"},"vehicle_type_id":"4","last_reported":1744873862,"current_range_meters":22400,"station_id":"ce4bhmh2rcd13ifvqgmg","pricing_plan_id":"cebpf4jnsgd1na2vs0mg"},{"bike_id":"c7153f08-efe4-4004-8960-3a6728357ff3","system_id":"levelo_inurba_marseille","lat":43.2593,"lon":5.40909,"is_reserved":false,"is_disabled":false,"rental_uris":{"android":"levelo://app?vid=c7153f08-efe4-4004-8960-3a6728357ff3","ios":"levelo://app?vid=c7153f08-efe4-4004-8960-3a6728357ff3"},"vehicle_type_id":"4","last_reported":1744873862,"current_range_meters":22400,"station_id":"ce4bhm92rcd13ifvqglg","pricing_plan_id":"cebpf4jnsgd1na2vs0mg"},{"bike_id":"62d49e84-dc62-4701-8f11-f9f0e785f0f5","system_id":"levelo_inurba_marseille","lat":43.304155,"lon":5.415412,"is_reserved":false,"is_disabled":false,"rental_uris":{"android":"levelo://app?vid=62d49e84-dc62-4701-8f11-f9f0e785f0f5","ios":"levelo://app?vid=62d49e84-dc62-4701-8f11-f9f0e785f0f5"},"vehicle_type_id":"4","last_reported":1744873862,"current_range_meters":22400,"station_id":"ce4bhop2rcd13ifvqh8g","pricing_plan_id":"cebpf4jnsgd1na2vs0mg"},{"bike_id":"d1a2b493-7d30-4a9c-a02b-dfad0b4f73f7","system_id":"levelo_inurba_marseille","lat":43.24806,"lon":5.37457,"is_reserved":false,"is_disabled":false,"rental_uris":{"android":"levelo://app?vid=d1a2b493-7d30-4a9c-a02b-dfad0b4f73f7","ios":"levelo://app?vid=d1a2b493-7d30-4a9c-a02b-dfad0b4f73f7"},"vehicle_type_id":"4","last_reported":1744873862,"current_range_meters":22400,"station_id":"ce4bhgh2rcd13ifvqfb0","pricing_plan_id":"cebpf4jnsgd1na2vs0mg"},{"bike_id":"111a9116-5ac2-4b6d-93d2-b92f401f8e89","system_id":"levelo_inurba_marseille","lat":43.3186,"lon":5.37459,"is_reserved":false,"is_disabled":false,"rental_uris":{"android":"levelo://app?vid=111a9116-5ac2-4b6d-93d2-b92f401f8e89","ios":"levelo://app?vid=111a9116-5ac2-4b6d-93d2-b92f401f8e89"},"vehicle_type_id":"4","last_reported":1744873862,"current_range_meters":22800,"station_id":"","pricing_plan_id":"cebpf4jnsgd1na2vs0mg"},{"bike_id":"33bf5d63-424c-48d6-a0cb-a0565488ee3e","system_id":"levelo_inurba_marseille","lat":43.24183,"lon":5.39724,"is_reserved":false,"is_disabled":false,"rental_uris":{"android":"levelo://app?vid=33bf5d63-424c-48d6-a0cb-a0565488ee3e","ios":"levelo://app?vid=33bf5d63-424c-48d6-a0cb-a0565488ee3e"},"vehicle_type_id":"4","last_reported":1744873862,"current_range_meters":22800,"station_id":"ce4bhn12rcd13ifvqgpg","pricing_plan_id":"cebpf4jnsgd1na2vs0mg"},{"bike_id":"4f172882-e66e-4d6c-944a-b9671eae4dda","system_id":"levelo_inurba_marseille","lat":43.241638,"lon":5.397501,"is_reserved":false,"is_disabled":false,"rental_uris":{"android":"levelo://app?vid=4f172882-e66e-4d6c-944a-b9671eae4dda","ios":"levelo://app?vid=4f172882-e66e-4d6c-944a-b9671eae4dda"},"vehicle_type_id":"4","last_reported":1744873862,"current_range_meters":22800,"station_id":"ce4bhn12rcd13ifvqgpg","pricing_plan_id":"cebpf4jnsgd1na2vs0mg"},{"bike_id":"4f0ae3f2-6f4a-4da5-a21c-aa47c040632f","system_id":"levelo_inurba_marseille","lat":43.3229,"lon":5.38297,"is_reserved":false,"is_disabled":false,"rental_uris":{"android":"levelo://app?vid=4f0ae3f2-6f4a-4da5-a21c-aa47c040632f","ios":"levelo://app?vid=4f0ae3f2-6f4a-4da5-a21c-aa47c040632f"},"vehicle_type_id":"4","last_reported":1744873862,"current_range_meters":22800,"station_id":"ce4bhr12rcd13ifvqhqg","pricing_plan_id":"cebpf4jnsgd1na2vs0mg"},{"bike_id":"dfde2e22-235f-4bba-941c-f660f56ee633","system_id":"levelo_inurba_marseille","lat":43.29478,"lon":5.39053,"is_reserved":false,"is_disabled":false,"rental_uris":{"android":"levelo://app?vid=dfde2e22-235f-4bba-941c-f660f56ee633","ios":"levelo://app?vid=dfde2e22-235f-4bba-941c-f660f56ee633"},"vehicle_type_id":"4","last_reported":1744873862,"current_range_meters":22800,"station_id":"ce4bh3p2rcd13ifvqdp0","pricing_plan_id":"cebpf4jnsgd1na2vs0mg"},{"bike_id":"829ce4a6-dd7c-4bdf-8d60-b533479cab14","system_id":"levelo_inurba_marseille","lat":43.26247,"lon":5.40467,"is_reserved":false,"is_disabled":false,"rental_uris":{"android":"levelo://app?vid=829ce4a6-dd7c-4bdf-8d60-b533479cab14","ios":"levelo://app?vid=829ce4a6-dd7c-4bdf-8d60-b533479cab14"},"vehicle_type_id":"4","last_reported":1744873862,"current_range_meters":22800,"station_id":"ce4bhmh2rcd13ifvqgmg","pricing_plan_id":"cebpf4jnsgd1na2vs0mg"},{"bike_id":"eab72e13-6ede-42d7-b087-313fb4dfb126","system_id":"levelo_inurba_marseille","lat":43.30891,"lon":5.37196,"is_reserved":false,"is_disabled":false,"rental_uris":{"android":"levelo://app?vid=eab72e13-6ede-42d7-b087-313fb4dfb126","ios":"levelo://app?vid=eab72e13-6ede-42d7-b087-313fb4dfb126"},"vehicle_type_id":"4","last_reported":1744873862,"current_range_meters":22800,"station_id":"ce4bguh2rcd13ifvqckg","pricing_plan_id":"cebpf4jnsgd1na2vs0mg"},{"bike_id":"5e6be620-a3d0-49c3-9ff0-b85332cde817","system_id":"levelo_inurba_marseille","lat":43.23196,"lon":5.3556,"is_reserved":false,"is_disabled":false,"rental_uris":{"android":"levelo://app?vid=5e6be620-a3d0-49c3-9ff0-b85332cde817","ios":"levelo://app?vid=5e6be620-a3d0-49c3-9ff0-b85332cde817"},"vehicle_type_id":"4","last_reported":1744873862,"current_range_meters":22800,"station_id":"ce4bhu92rcd13ifvqi70","pricing_plan_id":"cebpf4jnsgd1na2vs0mg"},{"bike_id":"1efd7175-aa27-415e-afe0-3ac360b24444","system_id":"levelo_inurba_marseille","lat":43.33609,"lon":5.41035,"is_reserved":false,"is_disabled":false,"rental_uris":{"android":"levelo://app?vid=1efd7175-aa27-415e-afe0-3ac360b24444","ios":"levelo://app?vid=1efd7175-aa27-415e-afe0-3ac360b24444"},"vehicle_type_id":"4","last_reported":1744873862,"current_range_meters":22800,"station_id":"ce4bhqh2rcd13ifvqhmg","pricing_plan_id":"cebpf4jnsgd1na2vs0mg"},{"bike_id":"d09a9237-3b9b-40ec-9f32-e17d6d379cb5","system_id":"levelo_inurba_marseille","lat":43.32088,"lon":5.36825,"is_reserved":false,"is_disabled":false,"rental_uris":{"android":"levelo://app?vid=d09a9237-3b9b-40ec-9f32-e17d6d379cb5","ios":"levelo://app?vid=d09a9237-3b9b-40ec-9f32-e17d6d379cb5"},"vehicle_type_id":"4","last_reported":1744873862,"current_range_meters":23200,"station_id":"ce4bhrh2rcd13ifvqhug","pricing_plan_id":"cebpf4jnsgd1na2vs0mg"},{"bike_id":"d6c705c6-2fa0-4c1d-a8dc-c179b825e9b4","system_id":"levelo_inurba_marseille","lat":43.268457,"lon":5.384669,"is_reserved":false,"is_disabled":false,"rental_uris":{"android":"levelo://app?vid=d6c705c6-2fa0-4c1d-a8dc-c179b825e9b4","ios":"levelo://app?vid=d6c705c6-2fa0-4c1d-a8dc-c179b825e9b4"},"vehicle_type_id":"4","last_reported":1744873862,"current_range_meters":23200,"station_id":"ce4bhg92rcd13ifvqf90","pricing_plan_id":"cebpf4jnsgd1na2vs0mg"},{"bike_id":"3c863c1e-5703-459e-86f2-3e252f5541e4","system_id":"levelo_inurba_marseille","lat":43.29429,"lon":5.38611,"is_reserved":false,"is_disabled":true,"rental_uris":{"android":"levelo://app?vid=3c863c1e-5703-459e-86f2-3e252f5541e4","ios":"levelo://app?vid=3c863c1e-5703-459e-86f2-3e252f5541e4"},"vehicle_type_id":"4","last_reported":1744873862,"current_range_meters":23200,"station_id":"ce4bh2h2rcd13ifvqdh0","pricing_plan_id":"cebpf4jnsgd1na2vs0mg"},{"bike_id":"873bcab6-b973-48ed-b129-34762c209441","system_id":"levelo_inurba_marseille","lat":43.3149,"lon":5.37299,"is_reserved":false,"is_disabled":false,"rental_uris":{"android":"levelo://app?vid=873bcab6-b973-48ed-b129-34762c209441","ios":"levelo://app?vid=873bcab6-b973-48ed-b129-34762c209441"},"vehicle_type_id":"4","last_reported":1744873862,"current_range_meters":23200,"station_id":"ce4bgt12rcd13ifvqcd0","pricing_plan_id":"cebpf4jnsgd1na2vs0mg"},{"bike_id":"0f43b6f9-74d9-4ab2-a151-393b64a5a8ba","system_id":"levelo_inurba_marseille","lat":43.29721,"lon":5.37692,"is_reserved":false,"is_disabled":false,"rental_uris":{"android":"levelo://app?vid=0f43b6f9-74d9-4ab2-a151-393b64a5a8ba","ios":"levelo://app?vid=0f43b6f9-74d9-4ab2-a151-393b64a5a8ba"},"vehicle_type_id":"4","last_reported":1744873862,"current_range_meters":23200,"station_id":"ce4bgkh2rcd13ifvqbl0","pricing_plan_id":"cebpf4jnsgd1na2vs0mg"},{"bike_id":"02adc141-f747-4567-94e3-1db674d0c0a0","system_id":"levelo_inurba_marseille","lat":43.27957,"lon":5.38729,"is_reserved":false,"is_disabled":false,"rental_uris":{"android":"levelo://app?vid=02adc141-f747-4567-94e3-1db674d0c0a0","ios":"levelo://app?vid=02adc141-f747-4567-94e3-1db674d0c0a0"},"vehicle_type_id":"4","last_reported":1744873862,"current_range_meters":23200,"station_id":"ce4bhg12rcd13ifvqf80","pricing_plan_id":"cebpf4jnsgd1na2vs0mg"},{"bike_id":"e79ca3b0-7a79-4614-9a59-28c5db25e753","system_id":"levelo_inurba_marseille","lat":43.30909,"lon":5.36849,"is_reserved":false,"is_disabled":false,"rental_uris":{"android":"levelo://app?vid=e79ca3b0-7a79-4614-9a59-28c5db25e753","ios":"levelo://app?vid=e79ca3b0-7a79-4614-9a59-28c5db25e753"},"vehicle_type_id":"4","last_reported":1744873862,"current_range_meters":23200,"station_id":"ce4bgn92rcd13ifvqbvg","pricing_plan_id":"cebpf4jnsgd1na2vs0mg"},{"bike_id":"b4731719-76bd-4ff6-b77c-00183bdb4e7b","system_id":"levelo_inurba_marseille","lat":43.29069,"lon":5.37183,"is_reserved":false,"is_disabled":false,"rental_uris":{"android":"levelo://app?vid=b4731719-76bd-4ff6-b77c-00183bdb4e7b","ios":"levelo://app?vid=b4731719-76bd-4ff6-b77c-00183bdb4e7b"},"vehicle_type_id":"4","last_reported":1744873862,"current_range_meters":23200,"station_id":"ce4bh5p2rcd13ifvqe4g","pricing_plan_id":"cebpf4jnsgd1na2vs0mg"},{"bike_id":"80bac1fe-218c-4068-937c-4aa733df023f","system_id":"levelo_inurba_marseille","lat":43.2862,"lon":5.37063,"is_reserved":false,"is_disabled":false,"rental_uris":{"android":"levelo://app?vid=80bac1fe-218c-4068-937c-4aa733df023f","ios":"levelo://app?vid=80bac1fe-218c-4068-937c-4aa733df023f"},"vehicle_type_id":"4","last_reported":1744873862,"current_range_meters":23200,"station_id":"ce4bht12rcd13ifvqi60","pricing_plan_id":"cebpf4jnsgd1na2vs0mg"},{"bike_id":"91aa591a-3e56-4092-a295-ecb6aebe69eb","system_id":"levelo_inurba_marseille","lat":43.22505,"lon":5.34788,"is_reserved":false,"is_disabled":false,"rental_uris":{"android":"levelo://app?vid=91aa591a-3e56-4092-a295-ecb6aebe69eb","ios":"levelo://app?vid=91aa591a-3e56-4092-a295-ecb6aebe69eb"},"vehicle_type_id":"4","last_reported":1744873862,"current_range_meters":24000,"station_id":"st_cvj5dfep6f1abm77gieg","pricing_plan_id":"cebpf4jnsgd1na2vs0mg"},{"bike_id":"aea2afb6-112e-4c3a-968a-5eb5aa77e9be","system_id":"levelo_inurba_marseille","lat":43.21199,"lon":5.3508,"is_reserved":false,"is_disabled":false,"rental_uris":{"android":"levelo://app?vid=aea2afb6-112e-4c3a-968a-5eb5aa77e9be","ios":"levelo://app?vid=aea2afb6-112e-4c3a-968a-5eb5aa77e9be"},"vehicle_type_id":"4","last_reported":1744873862,"current_range_meters":24000,"station_id":"st_cvj6sg6p6f1abm77japg","pricing_plan_id":"cebpf4jnsgd1na2vs0mg"},{"bike_id":"09ed2f99-3de5-46d0-a2e0-ed554d61393f","system_id":"levelo_inurba_marseille","lat":43.30982,"lon":5.38473,"is_reserved":false,"is_disabled":false,"rental_uris":{"android":"levelo://app?vid=09ed2f99-3de5-46d0-a2e0-ed554d61393f","ios":"levelo://app?vid=09ed2f99-3de5-46d0-a2e0-ed554d61393f"},"vehicle_type_id":"4","last_reported":1744873862,"current_range_meters":24000,"station_id":"","pricing_plan_id":"cebpf4jnsgd1na2vs0mg"},{"bike_id":"62be7576-98ff-414c-85af-c5452c6fcd04","system_id":"levelo_inurba_marseille","lat":43.26229,"lon":5.4045,"is_reserved":false,"is_disabled":false,"rental_uris":{"android":"levelo://app?vid=62be7576-98ff-414c-85af-c5452c6fcd04","ios":"levelo://app?vid=62be7576-98ff-414c-85af-c5452c6fcd04"},"vehicle_type_id":"4","last_reported":1744873862,"current_range_meters":24000,"station_id":"ce4bhmh2rcd13ifvqgmg","pricing_plan_id":"cebpf4jnsgd1na2vs0mg"},{"bike_id":"591191cd-51bf-4c83-bb9b-2e5191db2d56","system_id":"levelo_inurba_marseille","lat":43.25931,"lon":5.40914,"is_reserved":false,"is_disabled":false,"rental_uris":{"android":"levelo://app?vid=591191cd-51bf-4c83-bb9b-2e5191db2d56","ios":"levelo://app?vid=591191cd-51bf-4c83-bb9b-2e5191db2d56"},"vehicle_type_id":"4","last_reported":1744873862,"current_range_meters":24000,"station_id":"ce4bhm92rcd13ifvqglg","pricing_plan_id":"cebpf4jnsgd1na2vs0mg"},{"bike_id":"46c042ff-0a19-46d6-b490-8e97809d76cb","system_id":"levelo_inurba_marseille","lat":43.26958,"lon":5.38631,"is_reserved":false,"is_disabled":false,"rental_uris":{"android":"levelo://app?vid=46c042ff-0a19-46d6-b490-8e97809d76cb","ios":"levelo://app?vid=46c042ff-0a19-46d6-b490-8e97809d76cb"},"vehicle_type_id":"4","last_reported":1744873862,"current_range_meters":24000,"station_id":"ce4bhh92rcd13ifvqfh0","pricing_plan_id":"cebpf4jnsgd1na2vs0mg"},{"bike_id":"8a0a2825-e27c-4a04-9f37-7d37515ee796","system_id":"levelo_inurba_marseille","lat":43.270572,"lon":5.402567,"is_reserved":false,"is_disabled":false,"rental_uris":{"android":"levelo://app?vid=8a0a2825-e27c-4a04-9f37-7d37515ee796","ios":"levelo://app?vid=8a0a2825-e27c-4a04-9f37-7d37515ee796"},"vehicle_type_id":"4","last_reported":1744873862,"current_range_meters":24000,"station_id":"ce4bhm92rcd13ifvqglg","pricing_plan_id":"cebpf4jnsgd1na2vs0mg"},{"bike_id":"9eb6738d-486c-4d0a-88f4-70b8d81983d1","system_id":"levelo_inurba_marseille","lat":43.21762,"lon":5.34612,"is_reserved":false,"is_disabled":false,"rental_uris":{"android":"levelo://app?vid=9eb6738d-486c-4d0a-88f4-70b8d81983d1","ios":"levelo://app?vid=9eb6738d-486c-4d0a-88f4-70b8d81983d1"},"vehicle_type_id":"4","last_reported":1744873862,"current_range_meters":24000,"station_id":"st_cvj6r9ubvosntc0bgbag","pricing_plan_id":"cebpf4jnsgd1na2vs0mg"},{"bike_id":"03b86f4f-1cae-494e-b2ba-cd490506f4d8","system_id":"levelo_inurba_marseille","lat":43.30239,"lon":5.40065,"is_reserved":false,"is_disabled":true,"rental_uris":{"android":"levelo://app?vid=03b86f4f-1cae-494e-b2ba-cd490506f4d8","ios":"levelo://app?vid=03b86f4f-1cae-494e-b2ba-cd490506f4d8"},"vehicle_type_id":"4","last_reported":1744873862,"current_range_meters":24000,"station_id":"ce4bgvh2rcd13ifvqcs0","pricing_plan_id":"cebpf4jnsgd1na2vs0mg"},{"bike_id":"f2841487-3683-49d4-9c9b-abb9095f695c","system_id":"levelo_inurba_marseille","lat":43.29532,"lon":5.394022,"is_reserved":false,"is_disabled":false,"rental_uris":{"android":"levelo://app?vid=f2841487-3683-49d4-9c9b-abb9095f695c","ios":"levelo://app?vid=f2841487-3683-49d4-9c9b-abb9095f695c"},"vehicle_type_id":"4","last_reported":1744873862,"current_range_meters":24000,"station_id":"ce4bgjp2rcd13ifvqbh0","pricing_plan_id":"cebpf4jnsgd1na2vs0mg"},