{"last_updated":1741471645,"ttl":60,"version":"2.2","data":{"bikes":[{"bike_id":"f90efa61-82d5-4b97-b63e-fd11981af807","system_id":"levelo_inurba_marseille","lat":43.24783,"lon":5.3746,"is_reserved":false,"is_disabled":false,"rental_uris":{"android":"levelo://app?vid=f90efa61-82d5-4b97-b63e-fd11981af807","ios":"levelo://app?vid=f90efa61-82d5-4b97-b63e-fd11981af807"},"vehicle_type_id":"4","last_reported":1741471646,"current_range_meters":2800,"station_id":"ce4bhgh2rcd13ifvqfb0","pricing_plan_id":"cebpf4jnsgd1na2vs0mg"},{"bike_id":"e24a9942-85dc-4c3d-a41e-08301066391b","system_id":"levelo_inurba_marseille","lat":43.30883,"lon":5.3965,"is_reserved":false,"is_disabled":false,"rental_uris":{"android":"levelo://app?vid=e24a9942-85dc-4c3d-a41e-08301066391b","ios":"levelo://app?vid=e24a9942-85dc-4c3d-a41e-08301066391b"},"vehicle_type_id":"4","last_reported":1741471646,"current_range_meters":2800,"station_id":"ce4bh012rcd13ifvqcv0","pricing_plan_id":"cebpf4jnsgd1na2vs0mg"},{"bike_id":"f628a614-2e2d-47cb-8ef6-044862b94e66","system_id":"levelo_inurba_marseille","lat":43.27952,"lon":5.3875,"is_reserved":false,"is_disabled":false,"rental_uris":{"android":"levelo://app?vid=f628a614-2e2d-47cb-8ef6-044862b94e66","ios":"levelo://app?vid=f628a614-2e2d-47cb-8ef6-044862b94e66"},"vehicle_type_id":"4","last_reported":1741471646,"current_range_meters":2800,"station_id":"ce4bhg12rcd13ifvqf80","pricing_plan_id":"cebpf4jnsgd1na2vs0mg"},{"bike_id":"aea9b58c-6425-448b-aae7-05253159e7d7","system_id":"levelo_inurba_marseille","lat":43.2809,"lon":5.39659,"is_reserved":false,"is_disabled":false,"rental_uris":{"android":"levelo://app?vid=aea9b58c-6425-448b-aae7-05253159e7d7","ios":"levelo://app?vid=aea9b58c-6425-448b-aae7-05253159e7d7"},"vehicle_type_id":"4","last_reported":1741471646,"current_range_meters":1600,"station_id":"ce4bho12rcd13ifvqh2g","pricing_plan_id":"cebpf4jnsgd1na2vs0mg"},{"bike_id":"c989a96a-6e31-4ce3-9fe3-c9add618e27c","system_id":"levelo_inurba_marseille","lat":43.28456,"lon":5.39187,"is_reserved":false,"is_disabled":true,"rental_uris":{"android":"levelo://app?vid=c989a96a-6e31-4ce3-9fe3-c9add618e27c","ios":"levelo://app?vid=c989a96a-6e31-4ce3-9fe3-c9add618e27c"},"vehicle_type_id":"4","last_reported":1741471646,"current_range_meters":2800,"station_id":"ce4bhoh2rcd13ifvqh5g","pricing_plan_id":"cebpf4jnsgd1na2vs0mg"},{"bike_id":"d0a76768-0bb0-4e00-b757-23fcfe57ff81","system_id":"levelo_inurba_marseille","lat":43.269403,"lon":5.389188,"is_reserved":false,"is_disabled":false,"rental_uris":{"android":"levelo://app?vid=d0a76768-0bb0-4e00-b757-23fcfe57ff81","ios":"levelo://app?vid=d0a76768-0bb0-4e00-b757-23fcfe57ff81"},"vehicle_type_id":"4","last_reported":1741471646,"current_range_meters":2800,"station_id":"ce4bhhh2rcd13ifvqfl0","pricing_plan_id":"cebpf4jnsgd1na2vs0mg"},{"bike_id":"468ec4cd-a077-405f-9a6c-d4da0ef13f61","system_id":"levelo_inurba_marseille","lat":43.27998,"lon":5.41662,"is_reserved":false,"is_disabled":false,"rental_uris":{"android":"levelo://app?vid=468ec4cd-a077-405f-9a6c-d4da0ef13f61","ios":"levelo://app?vid=468ec4cd-a077-405f-9a6c-d4da0ef13f61"},"vehicle_type_id":"4","last_reported":1741471646,"current_range_meters":3200,"station_id":"ce4bho12rcd13ifvqh1g","pricing_plan_id":"cebpf4jnsgd1na2vs0mg"},{"bike_id":"719815ac-6e33-4081-8fd7-0dff6a787f2d","system_id":"levelo_inurba_marseille","lat":43.31116,"lon":5.3776,"is_reserved":false,"is_disabled":false,"rental_uris":{"android":"levelo://app?vid=719815ac-6e33-4081-8fd7-0dff6a787f2d","ios":"levelo://app?vid=719815ac-6e33-4081-8fd7-0dff6a787f2d"},"vehicle_type_id":"4","last_reported":1741471646,"current_range_meters":3200,"station_id":"ce4bgt92rcd13ifvqcg0","pricing_plan_id":"cebpf4jnsgd1na2vs0mg"},{"bike_id":"4ed10b44-88a8-4dec-99db-545daad23c1c","system_id":"levelo_inurba_marseille","lat":43.2397,"lon":5.36628,"is_reserved":false,"is_disabled":false,"rental_uris":{"android":"levelo://app?vid=4ed10b44-88a8-4dec-99db-545daad23c1c","ios":"levelo://app?vid=4ed10b44-88a8-4dec-99db-545daad23c1c"},"vehicle_type_id":"4","last_reported":1741471646,"current_range_meters":3200,"station_id":"ce4bhi12rcd13ifvqfp0","pricing_plan_id":"cebpf4jnsgd1na2vs0mg"},{"bike_id":"c3ace0f1-258a-473f-bbca-705d4d023f18","system_id":"levelo_inurba_marseille","lat":43.25694,"lon":5.41118,"is_reserved":false,"is_disabled":false,"rental_uris":{"android":"levelo://app?vid=c3ace0f1-258a-473f-bbca-705d4d023f18","ios":"levelo://app?vid=c3ace0f1-258a-473f-bbca-705d4d023f18"},"vehicle_type_id":"4","last_reported":1741471646,"current_range_meters":3200,"station_id":"ce4bhkp2rcd13ifvqgd0","pricing_plan_id":"cebpf4jnsgd1na2vs0mg"},{"bike_id":"e216f249-0d8e-46e1-8bc3-011b7d6a3143","system_id":"levelo_inurba_marseille","lat":43.27958,"lon":5.41041,"is_reserved":false,"is_disabled":true,"rental_uris":{"android":"levelo://app?vid=e216f249-0d8e-46e1-8bc3-011b7d6a3143","ios":"levelo://app?vid=e216f249-0d8e-46e1-8bc3-011b7d6a3143"},"vehicle_type_id":"4","last_reported":1741471646,"current_range_meters":3200,"station_id":"ce4bhnp2rcd13ifvqh0g","pricing_plan_id":"cebpf4jnsgd1na2vs0mg"},{"bike_id":"30af4b38-17f9-4eae-85ca-9d0045cd4d6d","system_id":"levelo_inurba_marseille","lat":43.25735,"lon":5.41093,"is_reserved":false,"is_disabled":false,"rental_uris":{"android":"levelo://app?vid=30af4b38-17f9-4eae-85ca-9d0045cd4d6d","ios":"levelo://app?vid=30af4b38-17f9-4eae-85ca-9d0045cd4d6d"},"vehicle_type_id":"4","last_reported":1741471646,"current_range_meters":3200,"station_id":"ce4bhkp2rcd13ifvqgd0","pricing_plan_id":"cebpf4jnsgd1na2vs0mg"},{"bike_id":"89b9b55a-1392-498d-b8a5-8520a39c9a74","system_id":"levelo_inurba_marseille","lat":43.29298,"lon":5.40135,"is_reserved":false,"is_disabled":true,"rental_uris":{"android":"levelo://app?vid=89b9b55a-1392-498d-b8a5-8520a39c9a74","ios":"levelo://app?vid=89b9b55a-1392-498d-b8a5-8520a39c9a74"},"vehicle_type_id":"4","last_reported":1741471646,"current_range_meters":3600,"station_id":"ce4bh312rcd13ifvqdk0","pricing_plan_id":"cebpf4jnsgd1na2vs0mg"},{"bike_id":"ef841903-cdc0-4227-af7f-cb9f26dc3c9b","system_id":"levelo_inurba_marseille","lat":43.31411,"lon":5.39251,"is_reserved":false,"is_disabled":false,"rental_uris":{"android":"levelo://app?vid=ef841903-cdc0-4227-af7f-cb9f26dc3c9b","ios":"levelo://app?vid=ef841903-cdc0-4227-af7f-cb9f26dc3c9b"},"vehicle_type_id":"4","last_reported":1741471646,"current_range_meters":3600,"station_id":"","pricing_plan_id":"cebpf4jnsgd1na2vs0mg"},{"bike_id":"6e5c1ec0-55c7-428f-ab14-fe8ef478e880","system_id":"levelo_inurba_marseille","lat":43.32088,"lon":5.40114,"is_reserved":false,"is_disabled":false,"rental_uris":{"android":"levelo://app?vid=6e5c1ec0-55c7-428f-ab14-fe8ef478e880","ios":"levelo://app?vid=6e5c1ec0-55c7-428f-ab14-fe8ef478e880"},"vehicle_type_id":"4","last_reported":1741471646,"current_range_meters":3600,"station_id":"","pricing_plan_id":"cebpf4jnsgd1na2vs0mg"},{"bike_id":"13f87cb2-3be8-43e8-b05d-0de2144b32fe","system_id":"levelo_inurba_marseille","lat":43.29845,"lon":5.36287,"is_reserved":false,"is_disabled":false,"rental_uris":{"android":"levelo://app?vid=13f87cb2-3be8-43e8-b05d-0de2144b32fe","ios":"levelo://app?vid=13f87cb2-3be8-43e8-b05d-0de2144b32fe"},"vehicle_type_id":"4","last_reported":1741471646,"current_range_meters":4000,"station_id":"ce4bgpp2rcd13ifvqc3g","pricing_plan_id":"cebpf4jnsgd1na2vs0mg"},{"bike_id":"892a04eb-b51b-4f91-a1d5-2b15029f5095","system_id":"levelo_inurba_marseille","lat":43.27564,"lon":5.38414,"is_reserved":false,"is_disabled":false,"rental_uris":{"android":"levelo://app?vid=892a04eb-b51b-4f91-a1d5-2b15029f5095","ios":"levelo://app?vid=892a04eb-b51b-4f91-a1d5-2b15029f5095"},"vehicle_type_id":"4","last_reported":1741471646,"current_range_meters":4000,"station_id":"ce4bhh92rcd13ifvqfi0","pricing_plan_id":"cebpf4jnsgd1na2vs0mg"},{"bike_id":"db361612-8186-4e1c-a8a1-a778740c3e27","system_id":"levelo_inurba_marseille","lat":43.26058,"lon":5.39396,"is_reserved":false,"is_disabled":false,"rental_uris":{"android":"levelo://app?vid=db361612-8186-4e1c-a8a1-a778740c3e27","ios":"levelo://app?vid=db361612-8186-4e1c-a8a1-a778740c3e27"},"vehicle_type_id":"4","last_reported":1741471646,"current_range_meters":4000,"station_id":"ce4bhh92rcd13ifvqfj0","pricing_plan_id":"cebpf4jnsgd1na2vs0mg"},{"bike_id":"d269bc45-fd75-432c-88c1-f8ad06cec595","system_id":"levelo_inurba_marseille","lat":43.28432,"lon":5.39192,"is_reserved":false,"is_disabled":false,"rental_uris":{"android":"levelo://app?vid=d269bc45-fd75-432c-88c1-f8ad06cec595","ios":"levelo://app?vid=d269bc45-fd75-432c-88c1-f8ad06cec595"},"vehicle_type_id":"4","last_reported":1741471646,"current_range_meters":3600,"station_id":"ce4bhoh2rcd13ifvqh5g","pricing_plan_id":"cebpf4jnsgd1na2vs0mg"},{"bike_id":"794ab296-0ffb-4b94-b5cc-6430ce848b61","system_id":"levelo_inurba_marseille","lat":43.29668,"lon":5.40572,"is_reserved":false,"is_disabled":false,"rental_uris":{"android":"levelo://app?vid=794ab296-0ffb-4b94-b5cc-6430ce848b61","ios":"levelo://app?vid=794ab296-0ffb-4b94-b5cc-6430ce848b61"},"vehicle_type_id":"4","last_reported":1741471646,"current_range_meters":4000,"station_id":"","pricing_plan_id":"cebpf4jnsgd1na2vs0mg"},{"bike_id":"247b4340-3338-49f7-b20d-e36de088bbb8","system_id":"levelo_inurba_marseille","lat":43.29218,"lon":5.42672,"is_reserved":false,"is_disabled":false,"rental_uris":{"android":"levelo://app?vid=247b4340-3338-49f7-b20d-e36de088bbb8","ios":"levelo://app?vid=247b4340-3338-49f7-b20d-e36de088bbb8"},"vehicle_type_id":"4","last_reported":1741471646,"current_range_meters":4400,"station_id":"","pricing_plan_id":"cebpf4jnsgd1na2vs0mg"},{"bike_id":"ec87f67c-b0f1-4af6-bac9-4e1b8c1f63e0","system_id":"levelo_inurba_marseille","lat":43.26483,"lon":5.39553,"is_reserved":false,"is_disabled":false,"rental_uris":{"android":"levelo://app?vid=ec87f67c-b0f1-4af6-bac9-4e1b8c1f63e0","ios":"levelo://app?vid=ec87f67c-b0f1-4af6-bac9-4e1b8c1f63e0"},"vehicle_type_id":"4","last_reported":1741471646,"current_range_meters":4400,"station_id":"ce4bhi12rcd13ifvqfq0","pricing_plan_id":"cebpf4jnsgd1na2vs0mg"},{"bike_id":"06f184b4-f84d-47e7-a215-820bd1382060","system_id":"levelo_inurba_marseille","lat":43.2511,"lon":5.40323,"is_reserved":false,"is_disabled":false,"rental_uris":{"android":"levelo://app?vid=06f184b4-f84d-47e7-a215-820bd1382060","ios":"levelo://app?vid=06f184b4-f84d-47e7-a215-820bd1382060"},"vehicle_type_id":"4","last_reported":1741471646,"current_range_meters":4400,"station_id":"ce4bhlh2rcd13ifvqgig","pricing_plan_id":"cebpf4jnsgd1na2vs0mg"},{"bike_id":"6c911d9e-0959-4f34-ab55-d2b0d3a16293","system_id":"levelo_inurba_marseille","lat":43.3238,"lon":5.36777,"is_reserved":false,"is_disabled":false,"rental_uris":{"android":"levelo://app?vid=6c911d9e-0959-4f34-ab55-d2b0d3a16293","ios":"levelo://app?vid=6c911d9e-0959-4f34-ab55-d2b0d3a16293"},"vehicle_type_id":"4","last_reported":1741471646,"current_range_meters":4400,"station_id":"ce4bhsh2rcd13ifvqi2g","pricing_plan_id":"cebpf4jnsgd1na2vs0mg"},{"bike_id":"5d4e4574-6498-4372-afcd-f02df8652fd1","system_id":"levelo_inurba_marseille","lat":43.25709,"lon":5.41096,"is_reserved":false,"is_disabled":false,"rental_uris":{"android":"levelo://app?vid=5d4e4574-6498-4372-afcd-f02df8652fd1","ios":"levelo://app?vid=5d4e4574-6498-4372-afcd-f02df8652fd1"},"vehicle_type_id":"4","last_reported":1741471646,"current_range_meters":4400,"station_id":"ce4bhkp2rcd13ifvqgd0","pricing_plan_id":"cebpf4jnsgd1na2vs0mg"},{"bike_id":"60e1fe0f-c1dd-449c-85d9-a3dd616d061a","system_id":"levelo_inurba_marseille","lat":43.23192,"lon":5.35561,"is_reserved":false,"is_disabled":false,"rental_uris":{"android":"levelo://app?vid=60e1fe0f-c1dd-449c-85d9-a3dd616d061a","ios":"levelo://app?vid=60e1fe0f-c1dd-449c-85d9-a3dd616d061a"},"vehicle_type_id":"4","last_reported":1741471646,"current_range_meters":4800,"station_id":"ce4bhu92rcd13ifvqi70","pricing_plan_id":"cebpf4jnsgd1na2vs0mg"},{"bike_id":"9a60e1e8-63f7-404b-ae3b-040e6f3b24d4","system_id":"levelo_inurba_marseille","lat":43.27327,"lon":5.39035,"is_reserved":false,"is_disabled":false,"rental_uris":{"android":"levelo://app?vid=9a60e1e8-63f7-404b-ae3b-040e6f3b24d4","ios":"levelo://app?vid=9a60e1e8-63f7-404b-ae3b-040e6f3b24d4"},"vehicle_type_id":"4","last_reported":1741471646,"current_range_meters":4800,"station_id":"ce4bhgp2rcd13ifvqfe0","pricing_plan_id":"cebpf4jnsgd1na2vs0mg"},{"bike_id":"de5e9f86-f674-4c5a-9fc3-493aa3f843db","system_id":"levelo_inurba_marseille","lat":43.3122,"lon":5.36859,"is_reserved":false,"is_disabled":false,"rental_uris":{"android":"levelo://app?vid=de5e9f86-f674-4c5a-9fc3-493aa3f843db","ios":"levelo://app?vid=de5e9f86-f674-4c5a-9fc3-493aa3f843db"},"vehicle_type_id":"4","last_reported":1741471646,"current_range_meters":4800,"station_id":"ce4bgl92rcd13ifvqbq0","pricing_plan_id":"cebpf4jnsgd1na2vs0mg"},{"bike_id":"de8570c5-a7bb-4eab-80fb-3feec99a7b98","system_id":"levelo_inurba_marseille","lat":43.30889,"lon":5.37203,"is_reserved":false,"is_disabled":false,"rental_uris":{"android":"levelo://app?vid=de8570c5-a7bb-4eab-80fb-3feec99a7b98","ios":"levelo://app?vid=de8570c5-a7bb-4eab-80fb-3feec99a7b98"},"vehicle_type_id":"4","last_reported":1741471646,"current_range_meters":4800,"station_id":"ce4bguh2rcd13ifvqckg","pricing_plan_id":"cebpf4jnsgd1na2vs0mg"},{"bike_id":"6e07003d-2528-4989-a262-2ba0dca90bdd","system_id":"levelo_inurba_marseille","lat":43.29869,"lon":5.39734,"is_reserved":false,"is_disabled":false,"rental_uris":{"android":"levelo://app?vid=6e07003d-2528-4989-a262-2ba0dca90bdd","ios":"levelo://app?vid=6e07003d-2528-4989-a262-2ba0dca90bdd"},"vehicle_type_id":"4","last_reported":1741471646,"current_range_meters":5600,"station_id":"ce4bh0h2rcd13ifvqd50","pricing_plan_id":"cebpf4jnsgd1na2vs0mg"},{"bike_id":"8310cde6-c1e7-4f34-9185-55193707cf9d","system_id":"levelo_inurba_marseille","lat":43.27808,"lon":5.40716,"is_reserved":false,"is_disabled":false,"rental_uris":{"android":"levelo://app?vid=8310cde6-c1e7-4f34-9185-55193707cf9d","ios":"levelo://app?vid=8310cde6-c1e7-4f34-9185-55193707cf9d"},"vehicle_type_id":"4","last_reported":1741471646,"current_range_meters":5600,"station_id":"ce4bhnh2rcd13ifvqgtg","pricing_plan_id":"cebpf4jnsgd1na2vs0mg"},{"bike_id":"02832e18-088e-4353-9d3d-d396bfb0075f","system_id":"levelo_inurba_marseille","lat":43.29269,"lon":5.38425,"is_reserved":false,"is_disabled":false,"rental_uris":{"android":"levelo://app?vid=02832e18-088e-4353-9d3d-d396bfb0075f","ios":"levelo://app?vid=02832e18-088e-4353-9d3d-d396bfb0075f"},"vehicle_type_id":"4","last_reported":1741471646,"current_range_meters":5600,"station_id":"ce4bh692rcd13ifvqea0","pricing_plan_id":"cebpf4jnsgd1na2vs0mg"},{"bike_id":"9f22fbb6-a380-4b54-b337-75d43e2de561","system_id":"levelo_inurba_marseille","lat":43.25082,"lon":5.39524,"is_reserved":false,"is_disabled":false,"rental_uris":{"android":"levelo://app?vid=9f22fbb6-a380-4b54-b337-75d43e2de561","ios":"levelo://app?vid=9f22fbb6-a380-4b54-b337-75d43e2de561"},"vehicle_type_id":"4","last_reported":1741471646,"current_range_meters":5600,"station_id":"ce4bhm12rcd13ifvqgkg","pricing_plan_id":"cebpf4jnsgd1na2vs0mg"},{"bike_id":"8b3eb7e1-026c-4069-94eb-bb98c55a51a8","system_id":"levelo_inurba_marseille","lat":43.30256,"lon":5.40073,"is_reserved":false,"is_disabled":false,"rental_uris":{"android":"levelo://app?vid=8b3eb7e1-026c-4069-94eb-bb98c55a51a8","ios":"levelo://app?vid=8b3eb7e1-026c-4069-94eb-bb98c55a51a8"},"vehicle_type_id":"4","last_reported":1741471646,"current_range_meters":5600,"station_id":"ce4bgvh2rcd13ifvqcs0","pricing_plan_id":"cebpf4jnsgd1na2vs0mg"},{"bike_id":"8a04142c-0bc4-43e4-8f9e-fc8f2beafa5a","system_id":"levelo_inurba_marseille","lat":43.23971,"lon":5.36635,"is_reserved":false,"is_disabled":false,"rental_uris":{"android":"levelo://app?vid=8a04142c-0bc4-43e4-8f9e-fc8f2beafa5a","ios":"levelo://app?vid=8a04142c-0bc4-43e4-8f9e-fc8f2beafa5a"},"vehicle_type_id":"4","last_reported":1741471646,"current_range_meters":5600,"station_id":"ce4bhi12rcd13ifvqfp0","pricing_plan_id":"cebpf4jnsgd1na2vs0mg"},{"bike_id":"e5c2f9a0-d065-4e10-9bff-a9a02c7dbc80","system_id":"levelo_inurba_marseille","lat":43.298984,"lon":5.436658,"is_reserved":false,"is_disabled":false,"rental_uris":{"android":"levelo://app?vid=e5c2f9a0-d065-4e10-9bff-a9a02c7dbc80","ios":"levelo://app?vid=e5c2f9a0-d065-4e10-9bff-a9a02c7dbc80"},"vehicle_type_id":"4","last_reported":1741471646,"current_range_meters":6000,"station_id":"ce4bhpp2rcd13ifvqhfg","pricing_plan_id":"cebpf4jnsgd1na2vs0mg"},{"bike_id":"98099f5b-2d89-4ebc-af70-310ad79dd9aa","system_id":"levelo_inurba_marseille","lat":43.24686,"lon":5.38154,"is_reserved":false,"is_disabled":false,"rental_uris":{"android":"levelo://app?vid=98099f5b-2d89-4ebc-af70-310ad79dd9aa","ios":"levelo://app?vid=98099f5b-2d89-4ebc-af70-310ad79dd9aa"},"vehicle_type_id":"4","last_reported":1741471646,"current_range_meters":6000,"station_id":"ce4bhih2rcd13ifvqfr0","pricing_plan_id":"cebpf4jnsgd1na2vs0mg"},{"bike_id":"2fe3fa9d-c136-4274-aa2d-ddbc2f5c56d4","system_id":"levelo_inurba_marseille","lat":43.2757,"lon":5.39613,"is_reserved":false,"is_disabled":false,"rental_uris":{"android":"levelo://app?vid=2fe3fa9d-c136-4274-aa2d-ddbc2f5c56d4","ios":"levelo://app?vid=2fe3fa9d-c136-4274-aa2d-ddbc2f5c56d4"},"vehicle_type_id":"4","last_reported":1741471646,"current_range_meters":6000,"station_id":"","pricing_plan_id":"cebpf4jnsgd1na2vs0mg"},{"bike_id":"01707fc8-b22c-4b78-8d41-d56d2b266eff","system_id":"levelo_inurba_marseille","lat":43.294067,"lon":5.386437,"is_reserved":false,"is_disabled":false,"rental_uris":{"android":"levelo://app?vid=01707fc8-b22c-4b78-8d41-d56d2b266eff","ios":"levelo://app?vid=01707fc8-b22c-4b78-8d41-d56d2b266eff"},"vehicle_type_id":"4","last_reported":1741471646,"current_range_meters":6000,"station_id":"ce4bh412rcd13ifvqdr0","pricing_plan_id":"cebpf4jnsgd1na2vs0mg"},{"bike_id":"80418265-aad6-403f-843b-51a8235dd7ec","system_id":"levelo_inurba_marseille","lat":43.29887,"lon":5.38905,"is_reserved":false,"is_disabled":false,"rental_uris":{"android":"levelo://app?vid=80418265-aad6-403f-843b-51a8235dd7ec","ios":"levelo://app?vid=80418265-aad6-403f-843b-51a8235dd7ec"},"vehicle_type_id":"4","last_reported":1741471646,"current_range_meters":6000,"station_id":"ce4bh392rcd13ifvqdl0","pricing_plan_id":"cebpf4jnsgd1na2vs0mg"},{"bike_id":"92fe86a8-06a2-4d35-9008-98e1ffa3f498","system_id":"levelo_inurba_marseille","lat":43.30322,"lon":5.40437,"is_reserved":false,"is_disabled":false,"rental_uris":{"android":"levelo://app?vid=92fe86a8-06a2-4d35-9008-98e1ffa3f498","ios":"levelo://app?vid=92fe86a8-06a2-4d35-9008-98e1ffa3f498"},"vehicle_type_id":"4","last_reported":1741471646,"current_range_meters":6000,"station_id":"ce4bh012rcd13ifvqd10","pricing_plan_id":"cebpf4jnsgd1na2vs0mg"},{"bike_id":"4cc5c768-97d6-4527-b038-ce2ac02a21d3","system_id":"levelo_inurba_marseille","lat":43.33023,"lon":5.3904,"is_reserved":false,"is_disabled":false,"rental_uris":{"android":"levelo://app?vid=4cc5c768-97d6-4527-b038-ce2ac02a21d3","ios":"levelo://app?vid=4cc5c768-97d6-4527-b038-ce2ac02a21d3"},"vehicle_type_id":"4","last_reported":1741471646,"current_range_meters":6400,"station_id":"ce4bhr92rcd13ifvqhrg","pricing_plan_id":"cebpf4jnsgd1na2vs0mg"},{"bike_id":"27305ad5-3fc8-47a3-9c3d-1a17f119d9fa","system_id":"levelo_inurba_marseille","lat":43.25083,"lon":5.39521,"is_reserved":false,"is_disabled":false,"rental_uris":{"android":"levelo://app?vid=27305ad5-3fc8-47a3-9c3d-1a17f119d9fa","ios":"levelo://app?vid=27305ad5-3fc8-47a3-9c3d-1a17f119d9fa"},"vehicle_type_id":"4","last_reported":1741471646,"current_range_meters":6400,"station_id":"ce4bhm12rcd13ifvqgkg","pricing_plan_id":"cebpf4jnsgd1na2vs0mg"},{"bike_id":"25305dbe-974d-481a-8296-0926ee678627","system_id":"levelo_inurba_marseille","lat":43.24068,"lon":5.37753,"is_reserved":false,"is_disabled":false,"rental_uris":{"android":"levelo://app?vid=25305dbe-974d-481a-8296-0926ee678627","ios":"levelo://app?vid=25305dbe-974d-481a-8296-0926ee678627"},"vehicle_type_id":"4","last_reported":1741471646,"current_range_meters":6400,"station_id":"ce4bhnp2rcd13ifvqgvg","pricing_plan_id":"cebpf4jnsgd1na2vs0mg"},{"bike_id":"82b29a48-b593-40a3-a023-49c1a7ca6f53","system_id":"levelo_inurba_marseille","lat":43.24392,"lon":5.37043,"is_reserved":false,"is_disabled":false,"rental_uris":{"android":"levelo://app?vid=82b29a48-b593-40a3-a023-49c1a7ca6f53","ios":"levelo://app?vid=82b29a48-b593-40a3-a023-49c1a7ca6f53"},"vehicle_type_id":"4","last_reported":1741471646,"current_range_meters":6400,"station_id":"ce4bhhh2rcd13ifvqfk0","pricing_plan_id":"cebpf4jnsgd1na2vs0mg"},{"bike_id":"04027f9f-3617-4d0f-8003-b61a82d55757","system_id":"levelo_inurba_marseille","lat":43.27816,"lon":5.40706,"is_reserved":false,"is_disabled":false,"rental_uris":{"android":"levelo://app?vid=04027f9f-3617-4d0f-8003-b61a82d55757","ios":"levelo://app?vid=04027f9f-3617-4d0f-8003-b61a82d55757"},"vehicle_type_id":"4","last_reported":1741471646,"current_range_meters":6400,"station_id":"ce4bhnh2rcd13ifvqgtg","pricing_plan_id":"cebpf4jnsgd1na2vs0mg"},{"bike_id":"414c5dc9-b378-4437-ad3e-c9007df2b5fb","system_id":"levelo_inurba_marseille","lat":43.2623,"lon":5.40447,"is_reserved":false,"is_disabled":false,"rental_uris":{"android":"levelo://app?vid=414c5dc9-b378-4437-ad3e-c9007df2b5fb","ios":"levelo://app?vid=414c5dc9-b378-4437-ad3e-c9007df2b5fb"},"vehicle_type_id":"4","last_reported":1741471646,"current_range_meters":6400,"station_id":"ce4bhmh2rcd13ifvqgmg","pricing_plan_id":"cebpf4jnsgd1na2vs0mg"},{"bike_id":"c1b37ffe-209e-42d6-87de-eb1e250701e0","system_id":"levelo_inurba_marseille","lat":43.27938,"lon":5.41046,"is_reserved":false,"is_disabled":false,"rental_uris":{"android":"levelo://app?vid=c1b37ffe-209e-42d6-87de-eb1e250701e0","ios":"levelo://app?vid=c1b37ffe-209e-42d6-87de-eb1e250701e0"},"vehicle_type_id":"4","last_reported":1741471646,"current_range_meters":6400,"station_id":"ce4bhnp2rcd13ifvqh0g","pricing_plan_id":"cebpf4jnsgd1na2vs0mg"},{"bike_id":"ff69b590-8439-4948-a50c-f9b899fda469","system_id":"levelo_inurba_marseille","lat":43.23957,"lon":5.36636,"is_reserved":false,"is_disabled":false,"rental_uris":{"android":"levelo://app?vid=ff69b590-8439-4948-a50c-f9b899fda469","ios":"levelo://app?vid=ff69b590-8439-4948-a50c-f9b899fda469"},"vehicle_type_id":"4","last_reported":1741471646,"current_range_meters":6400,"station_id":"ce4bhi12rcd13ifvqfp0","pricing_plan_id":"cebpf4jnsgd1na2vs0mg"},{"bike_id":"45e74ffc-2cca-4755-99a2-a317bcba5976","system_id":"levelo_inurba_marseille","lat":43.250082,"lon":5.389165,"is_reserved":false,"is_disabled":false,"rental_uris":{"android":"levelo://app?vid=45e74ffc-2cca-4755-99a2-a317bcba5976","ios":"levelo://app?vid=45e74ffc-2cca-4755-99a2-a317bcba5976"},"vehicle_type_id":"4","last_reported":1741471646,"current_range_meters":6400,"station_id":"ce4bhgp2rcd13ifvqfd0","pricing_plan_id":"cebpf4jnsgd1na2vs0mg"},{"bike_id":"43900f3a-f33b-4012-b4bc-ba37bd85dcda","system_id":"levelo_inurba_marseille","lat":43.29422,"lon":5.38634,"is_reserved":false,"is_disabled":false,"rental_uris":{"android":"levelo://app?vid=43900f3a-f33b-4012-b4bc-ba37bd85dcda","ios":"levelo://app?vid=43900f3a-f33b-4012-b4bc-ba37bd85dcda"},"vehicle_type_id":"4","last_reported":1741471646,"current_range_meters":6800,"station_id":"ce4bh2h2rcd13ifvqdh0","pricing_plan_id":"cebpf4jnsgd1na2vs0mg"},{"bike_id":"e0e365ad-90f9-4c63-b2be-e1173fdad29b","system_id":"levelo_inurba_marseille","lat":43.29536,"lon":5.39029,"is_reserved":false,"is_disabled":false,"rental_uris":{"android":"levelo://app?vid=e0e365ad-90f9-4c63-b2be-e1173fdad29b","ios":"levelo://app?vid=e0e365ad-90f9-4c63-b2be-e1173fdad29b"},"vehicle_type_id":"4","last_reported":1741471646,"current_range_meters":6800,"station_id":"ce4bh3p2rcd13ifvqdp0","pricing_plan_id":"cebpf4jnsgd1na2vs0mg"},{"bike_id":"a3ea0991-4b1c-4b3b-b5f9-ab60777b4148","system_id":"levelo_inurba_marseille","lat":43.24179,"lon":5.39725,"is_reserved":false,"is_disabled":false,"rental_uris":{"android":"levelo://app?vid=a3ea0991-4b1c-4b3b-b5f9-ab60777b4148","ios":"levelo://app?vid=a3ea0991-4b1c-4b3b-b5f9-ab60777b4148"},"vehicle_type_id":"4","last_reported":1741471646,"current_range_meters":6800,"station_id":"ce4bhn12rcd13ifvqgpg","pricing_plan_id":"cebpf4jnsgd1na2vs0mg"},{"bike_id":"90b8db64-bbd7-44bb-b7ee-15ff858ae528","system_id":"levelo_inurba_marseille","lat":43.2763,"lon":5.39924,"is_reserved":false,"is_disabled":false,"rental_uris":{"android":"levelo://app?vid=90b8db64-bbd7-44bb-b7ee-15ff858ae528","ios":"levelo://app?vid=90b8db64-bbd7-44bb-b7ee-15ff858ae528"},"vehicle_type_id":"4","last_reported":1741471646,"current_range_meters":6800,"station_id":"","pricing_plan_id":"cebpf4jnsgd1na2vs0mg"},{"bike_id":"79964f25-eee8-4e4b-8e4a-caafc208ee87","system_id":"levelo_inurba_marseille","lat":43.32069,"lon":5.41546,"is_reserved":false,"is_disabled":false,"rental_uris":{"android":"levelo://app?vid=79964f25-eee8-4e4b-8e4a-caafc208ee87","ios":"levelo://app?vid=79964f25-eee8-4e4b-8e4a-caafc208ee87"},"vehicle_type_id":"4","last_reported":1741471646,"current_range_meters":6800,"station_id":"ce4bhq92rcd13ifvqhkg","pricing_plan_id":"cebpf4jnsgd1na2vs0mg"},{"bike_id":"24eab6f7-5b40-4e15-a267-f117df0d4ccf","system_id":"levelo_inurba_marseille","lat":43.23959,"lon":5.36639,"is_reserved":false,"is_disabled":false,"rental_uris":{"android":"levelo://app?vid=24eab6f7-5b40-4e15-a267-f117df0d4ccf","ios":"levelo://app?vid=24eab6f7-5b40-4e15-a267-f117df0d4ccf"},"vehicle_type_id":"4","last_reported":1741471646,"current_range_meters":6800,"station_id":"ce4bhi12rcd13ifvqfp0","pricing_plan_id":"cebpf4jnsgd1na2vs0mg"},{"bike_id":"60fba7df-4520-4d63-9c5b-9a7a002cedfb","system_id":"levelo_inurba_marseille","lat":43.2806,"lon":5.3916,"is_reserved":false,"is_disabled":false,"rental_uris":{"android":"levelo://app?vid=60fba7df-4520-4d63-9c5b-9a7a002cedfb","ios":"levelo://app?vid=60fba7df-4520-4d63-9c5b-9a7a002cedfb"},"vehicle_type_id":"4","last_reported":1741471646,"current_range_meters":6800,"station_id":"","pricing_plan_id":"cebpf4jnsgd1na2vs0mg"},{"bike_id":"e73fb96e-0764-498c-88ac-adb20e0dd955","system_id":"levelo_inurba_marseille","lat":43.26067,"lon":5.39381,"is_reserved":false,"is_disabled":false,"rental_uris":{"android":"levelo://app?vid=e73fb96e-0764-498c-88ac-adb20e0dd955","ios":"levelo://app?vid=e73fb96e-0764-498c-88ac-adb20e0dd955"},"vehicle_type_id":"4","last_reported":1741471646,"current_range_meters":6800,"station_id":"ce4bhh92rcd13ifvqfj0","pricing_plan_id":"cebpf4jnsgd1na2vs0mg"},{"bike_id":"5288f7d5-930d-45a8-bab2-bb08912ffd7d","system_id":"levelo_inurba_marseille","lat":43.26948,"lon":5.38641,"is_reserved":false,"is_disabled":false,"rental_uris":{"android":"levelo://app?vid=5288f7d5-930d-45a8-bab2-bb08912ffd7d","ios":"levelo://app?vid=5288f7d5-930d-45a8-bab2-bb08912ffd7d"},"vehicle_type_id":"4","last_reported":1741471646,"current_range_meters":6800,"station_id":"ce4bhh92rcd13ifvqfh0","pricing_plan_id":"cebpf4jnsgd1na2vs0mg"},{"bike_id":"9653428e-c460-43e8-8f96-8b7acaf2f668","system_id":"levelo_inurba_marseille","lat":43.27297,"lon":5.39079,"is_reserved":false,"is_disabled":false,"rental_uris":{"android":"levelo://app?vid=9653428e-c460-43e8-8f96-8b7acaf2f668","ios":"levelo://app?vid=9653428e-c460-43e8-8f96-8b7acaf2f668"},"vehicle_type_id":"4","last_reported":1741471646,"current_range_meters":6800,"station_id":"ce4bhgp2rcd13ifvqfe0","pricing_plan_id":"cebpf4jnsgd1na2vs0mg"},{"bike_id":"5860bbb5-20e7-4ade-adaf-3efe3995a300","system_id":"levelo_inurba_marseille","lat":43.29174,"lon":5.3715,"is_reserved":false,"is_disabled":false,"rental_uris":{"android":"levelo://app?vid=5860bbb5-20e7-4ade-adaf-3efe3995a300","ios":"levelo://app?vid=5860bbb5-20e7-4ade-adaf-3efe3995a300"},"vehicle_type_id":"4","last_reported":1741471646,"current_range_meters":6800,"station_id":"ce4bha92rcd13ifvqeh0","pricing_plan_id":"cebpf4jnsgd1na2vs0mg"},{"bike_id":"7d295ec4-9c0e-4850-9c53-dd65645b97b2","system_id":"levelo_inurba_marseille","lat":43.26061,"lon":5.39398,"is_reserved":false,"is_disabled":false,"rental_uris":{"android":"levelo://app?vid=7d295ec4-9c0e-4850-9c53-dd65645b97b2","ios":"levelo://app?vid=7d295ec4-9c0e-4850-9c53-dd65645b97b2"},"vehicle_type_id":"4","last_reported":1741471646,"current_range_meters":7200,"station_id":"ce4bhh92rcd13ifvqfj0","pricing_plan_id":"cebpf4jnsgd1na2vs0mg"},{"bike_id":"21b363e8-386f-49ae-a31e-ee1cf97cc543","system_id":"levelo_inurba_marseille","lat":43.26557,"lon":5.37297,"is_reserved":false,"is_disabled":false,"rental_uris":{"android":"levelo://app?vid=21b363e8-386f-49ae-a31e-ee1cf97cc543","ios":"levelo://app?vid=21b363e8-386f-49ae-a31e-ee1cf97cc543"},"vehicle_type_id":"4","last_reported":1741471646,"current_range_meters":7200,"station_id":"ce4bhg12rcd13ifvqf70","pricing_plan_id":"cebpf4jnsgd1na2vs0mg"},{"bike_id":"f7b9a431-cef0-47cd-aa60-d241d5be9eb1","system_id":"levelo_inurba_marseille","lat":43.308,"lon":5.38165,"is_reserved":false,"is_disabled":false,"rental_uris":{"android":"levelo://app?vid=f7b9a431-cef0-47cd-aa60-d241d5be9eb1","ios":"levelo://app?vid=f7b9a431-cef0-47cd-aa60-d241d5be9eb1"},"vehicle_type_id":"4","last_reported":1741471646,"current_range_meters":7200,"station_id":"ce4bgt12rcd13ifvqce0","pricing_plan_id":"cebpf4jnsgd1na2vs0mg"},{"bike_id":"b6d4299b-4fdb-4612-927d-2e81bbe91b45","system_id":"levelo_inurba_marseille","lat":43.32108,"lon":5.3679,"is_reserved":false,"is_disabled":false,"rental_uris":{"android":"levelo://app?vid=b6d4299b-4fdb-4612-927d-2e81bbe91b45","ios":"levelo://app?vid=b6d4299b-4fdb-4612-927d-2e81bbe91b45"},"vehicle_type_id":"4","last_reported":1741471646,"current_range_meters":7200,"station_id":"ce4bhrh2rcd13ifvqhug","pricing_plan_id":"cebpf4jnsgd1na2vs0mg"},{"bike_id":"9effefb9-02e3-4c25-ab75-e3a5ac01515f","system_id":"levelo_inurba_marseille","lat":43.26554,"lon":5.3729,"is_reserved":false,"is_disabled":true,"rental_uris":{"android":"levelo://app?vid=9effefb9-02e3-4c25-ab75-e3a5ac01515f","ios":"levelo://app?vid=9effefb9-02e3-4c25-ab75-e3a5ac01515f"},"vehicle_type_id":"4","last_reported":1741471646,"current_range_meters":7200,"station_id":"ce4bhg12rcd13ifvqf70","pricing_plan_id":"cebpf4jnsgd1na2vs0mg"},{"bike_id":"0e8e6e18-3a5d-419d-9840-cebb5c405ec4","system_id":"levelo_inurba_marseille","lat":43.27662,"lon":5.38824,"is_reserved":false,"is_disabled":true,"rental_uris":{"android":"levelo://app?vid=0e8e6e18-3a5d-419d-9840-cebb5c405ec4","ios":"levelo://app?vid=0e8e6e18-3a5d-419d-9840-cebb5c405ec4"},"vehicle_type_id":"4","last_reported":1741471646,"current_range_meters":7200,"station_id":"ce4bhi12rcd13ifvqfo0","pricing_plan_id":"cebpf4jnsgd1na2vs0mg"},{"bike_id":"d04764b2-721c-4149-b1b8-42d1c3ceb1a5","system_id":"levelo_inurba_marseille","lat":43.31358,"lon":5.38504,"is_reserved":false,"is_disabled":false,"rental_uris":{"android":"levelo://app?vid=d04764b2-721c-4149-b1b8-42d1c3ceb1a5","ios":"levelo://app?vid=d04764b2-721c-4149-b1b8-42d1c3ceb1a5"},"vehicle_type_id":"4","last_reported":1741471646,"current_range_meters":7200,"station_id":"ce4bgt92rcd13ifvqcf0","pricing_plan_id":"cebpf4jnsgd1na2vs0mg"},{"bike_id":"70a48b30-c2c8-4771-95f5-650081824e6b","system_id":"levelo_inurba_marseille","lat":43.27577,"lon":5.38438,"is_reserved":false,"is_disabled":false,"rental_uris":{"android":"levelo://app?vid=70a48b30-c2c8-4771-95f5-650081824e6b","ios":"levelo://app?vid=70a48b30-c2c8-4771-95f5-650081824e6b"},"vehicle_type_id":"4","last_reported":1741471646,"current_range_meters":7200,"station_id":"ce4bhh92rcd13ifvqfi0","pricing_plan_id":"cebpf4jnsgd1na2vs0mg"},{"bike_id":"21dda7ec-58bd-4ec5-b46b-7fc383d9774f","system_id":"levelo_inurba_marseille","lat":43.3206,"lon":5.41544,"is_reserved":false,"is_disabled":false,"rental_uris":{"android":"levelo://app?vid=21dda7ec-58bd-4ec5-b46b-7fc383d9774f","ios":"levelo://app?vid=21dda7ec-58bd-4ec5-b46b-7fc383d9774f"},"vehicle_type_id":"4","last_reported":1741471646,"current_range_meters":7200,"station_id":"ce4bhq92rcd13ifvqhkg","pricing_plan_id":"cebpf4jnsgd1na2vs0mg"},{"bike_id":"8968ebf0-976e-4199-a05d-0b5eb90e8fa7","system_id":"levelo_inurba_marseille","lat":43.25724,"lon":5.41113,"is_reserved":false,"is_disabled":false,"rental_uris":{"android":"levelo://app?vid=8968ebf0-976e-4199-a05d-0b5eb90e8fa7","ios":"levelo://app?vid=8968ebf0-976e-4199-a05d-0b5eb90e8fa7"},"vehicle_type_id":"4","last_reported":1741471646,"current_range_meters":8000,"station_id":"ce4bhkp2rcd13ifvqgd0","pricing_plan_id":"cebpf4jnsgd1na2vs0mg"},{"bike_id":"6d0356cd-03ed-4a8b-97c7-0e2dd8952c4d","system_id":"levelo_inurba_marseille","lat":43.31711,"lon":5.43706,"is_reserved":false,"is_disabled":false,"rental_uris":{"android":"levelo://app?vid=6d0356cd-03ed-4a8b-97c7-0e2dd8952c4d","ios":"levelo://app?vid=6d0356cd-03ed-4a8b-97c7-0e2dd8952c4d"},"vehicle_type_id":"4","last_reported":1741471646,"current_range_meters":8000,"station_id":"ce4bhp92rcd13ifvqhcg","pricing_plan_id":"cebpf4jnsgd1na2vs0mg"},{"bike_id":"99121d6d-76c3-4940-bf6e-13375dbd5bf4","system_id":"levelo_inurba_marseille","lat":43.23962,"lon":5.36642,"is_reserved":false,"is_disabled":false,"rental_uris":{"android":"levelo://app?vid=99121d6d-76c3-4940-bf6e-13375dbd5bf4","ios":"levelo://app?vid=99121d6d-76c3-4940-bf6e-13375dbd5bf4"},"vehicle_type_id":"4","last_reported":1741471646,"current_range_meters":8000,"station_id":"ce4bhi12rcd13ifvqfp0","pricing_plan_id":"cebpf4jnsgd1na2vs0mg"},{"bike_id":"445f5ccc-731a-484d-b373-ff618ed50dbb","system_id":"levelo_inurba_marseille","lat":43.26953,"lon":5.38641,"is_reserved":false,"is_disabled":false,"rental_uris":{"android":"levelo://app?vid=445f5ccc-731a-484d-b373-ff618ed50dbb","ios":"levelo://app?vid=445f5ccc-731a-484d-b373-ff618ed50dbb"},"vehicle_type_id":"4","last_reported":1741471646,"current_range_meters":8000,"station_id":"ce4bhh92rcd13ifvqfh0","pricing_plan_id":"cebpf4jnsgd1na2vs0mg"},{"bike_id":"5be52f49-4f25-48ec-911a-4250e8441b48","system_id":"levelo_inurba_marseille","lat":43.258435,"lon":5.398349,"is_reserved":false,"is_disabled":false,"rental_uris":{"android":"levelo://app?vid=5be52f49-4f25-48ec-911a-4250e8441b48","ios":"levelo://app?vid=5be52f49-4f25-48ec-911a-4250e8441b48"},"vehicle_type_id":"4","last_reported":1741471646,"current_range_meters":8000,"station_id":"ce4bhl92rcd13ifvqghg","pricing_plan_id":"cebpf4jnsgd1na2vs0mg"},{"bike_id":"903ca8fb-a01f-48af-9d7f-844151e9f785","system_id":"levelo_inurba_marseille","lat":43.27947,"lon":5.41054,"is_reserved":false,"is_disabled":true,"rental_uris":{"android":"levelo://app?vid=903ca8fb-a01f-48af-9d7f-844151e9f785","ios":"levelo://app?vid=903ca8fb-a01f-48af-9d7f-844151e9f785"},"vehicle_type_id":"4","last_reported":1741471646,"current_range_meters":8000,"station_id":"ce4bhnp2rcd13ifvqh0g","pricing_plan_id":"cebpf4jnsgd1na2vs0mg"},{"bike_id":"ad7522f5-acfe-43b5-8d72-b252118d9b11","system_id":"levelo_inurba_marseille","lat":43.31217,"lon":5.36911,"is_reserved":false,"is_disabled":false,"rental_uris":{"android":"levelo://app?vid=ad7522f5-acfe-43b5-8d72-b252118d9b11","ios":"levelo://app?vid=ad7522f5-acfe-43b5-8d72-b252118d9b11"},"vehicle_type_id":"4","last_reported":1741471646,"current_range_meters":8000,"station_id":"ce4bgl92rcd13ifvqbq0","pricing_plan_id":"cebpf4jnsgd1na2vs0mg"},{"bike_id":"cb0d4d15-0ce0-4061-8a04-93bcbe80bd0f","system_id":"levelo_inurba_marseille","lat":43.25948,"lon":5.40893,"is_reserved":false,"is_disabled":false,"rental_uris":{"android":"levelo://app?vid=cb0d4d15-0ce0-4061-8a04-93bcbe80bd0f","ios":"levelo://app?vid=cb0d4d15-0ce0-4061-8a04-93bcbe80bd0f"},"vehicle_type_id":"4","last_reported":1741471646,"current_range_meters":8000,"station_id":"ce4bhm92rcd13ifvqglg","pricing_plan_id":"cebpf4jnsgd1na2vs0mg"},{"bike_id":"4c63458e-2db0-4cb3-bfc1-7ab137c5f028","system_id":"levelo_inurba_marseille","lat":43.26926,"lon":5.40255,"is_reserved":false,"is_disabled":false,"rental_uris":{"android":"levelo://app?vid=4c63458e-2db0-4cb3-bfc1-7ab137c5f028","ios":"levelo://app?vid=4c63458e-2db0-4cb3-bfc1-7ab137c5f028"},"vehicle_type_id":"4","last_reported":1741471646,"current_range_meters":8000,"station_id":"cjm6bp8fraef2m0cb0m0","pricing_plan_id":"cebpf4jnsgd1na2vs0mg"},{"bike_id":"c0b10922-0901-419f-ad58-f92f5000eaf2","system_id":"levelo_inurba_marseille","lat":43.26783,"lon":5.39419,"is_reserved":false,"is_disabled":false,"rental_uris":{"android":"levelo://app?vid=c0b10922-0901-419f-ad58-f92f5000eaf2","ios":"levelo://app?vid=c0b10922-0901-419f-ad58-f92f5000eaf2"},"vehicle_type_id":"4","last_reported":1741471646,"current_range_meters":8000,"station_id":"ce4bhh12rcd13ifvqfg0","pricing_plan_id":"cebpf4jnsgd1na2vs0mg"},{"bike_id":"376042b6-d144-4f2f-ba7b-bb81ca0b030f","system_id":"levelo_inurba_marseille","lat":43.30333,"lon":5.4043,"is_reserved":false,"is_disabled":false,"rental_uris":{"android":"levelo://app?vid=376042b6-d144-4f2f-ba7b-bb81ca0b030f","ios":"levelo://app?vid=376042b6-d144-4f2f-ba7b-bb81ca0b030f"},"vehicle_type_id":"4","last_reported":1741471646,"current_range_meters":8000,"station_id":"ce4bh012rcd13ifvqd10","pricing_plan_id":"cebpf4jnsgd1na2vs0mg"},{"bike_id":"53bd1732-d8ff-41a5-8f1b-42274afdde26","system_id":"levelo_inurba_marseille","lat":43.29349,"lon":5.4284,"is_reserved":false,"is_disabled":false,"rental_uris":{"android":"levelo://app?vid=53bd1732-d8ff-41a5-8f1b-42274afdde26","ios":"levelo://app?vid=53bd1732-d8ff-41a5-8f1b-42274afdde26"},"vehicle_type_id":"4","last_reported":1741471646,"current_range_meters":8000,"station_id":"","pricing_plan_id":"cebpf4jnsgd1na2vs0mg"},{"bike_id":"1bf00f3f-31f0-437e-b8bd-28491a689a30","system_id":"levelo_inurba_marseille","lat":43.2871,"lon":5.39992,"is_reserved":false,"is_disabled":false,"rental_uris":{"android":"levelo://app?vid=1bf00f3f-31f0-437e-b8bd-28491a689a30","ios":"levelo://app?vid=1bf00f3f-31f0-437e-b8bd-28491a689a30"},"vehicle_type_id":"4","last_reported":1741471646,"current_range_meters":8000,"station_id":"ce4bho92rcd13ifvqh3g","pricing_plan_id":"cebpf4jnsgd1na2vs0mg"},{"bike_id":"c9bc0d77-21fc-4da2-8a26-6f1d0f23b32e","system_id":"levelo_inurba_marseille","lat":43.29098,"lon":5.38141,"is_reserved":false,"is_disabled":false,"rental_uris":{"android":"levelo://app?vid=c9bc0d77-21fc-4da2-8a26-6f1d0f23b32e","ios":"levelo://app?vid=c9bc0d77-21fc-4da2-8a26-6f1d0f23b32e"},"vehicle_type_id":"4","last_reported":1741471646,"current_range_meters":8000,"station_id":"ce4bh512rcd13ifvqe2g","pricing_plan_id":"cebpf4jnsgd1na2vs0mg"},{"bike_id":"a8f484f1-d47f-4ef2-b175-70c6757421df","system_id":"levelo_inurba_marseille","lat":43.30541,"lon":5.36924,"is_reserved":false,"is_disabled":false,"rental_uris":{"android":"levelo://app?vid=a8f484f1-d47f-4ef2-b175-70c6757421df","ios":"levelo://app?vid=a8f484f1-d47f-4ef2-b175-70c6757421df"},"vehicle_type_id":"4","last_reported":1741471646,"current_range_meters":8400,"station_id":"","pricing_plan_id":"cebpf4jnsgd1na2vs0mg"},{"bike_id":"4f508b50-1e3d-40c5-be77-1e6495edbe07","system_id":"levelo_inurba_marseille","lat":43.25732,"lon":5.41113,"is_reserved":false,"is_disabled":false,"rental_uris":{"android":"levelo://app?vid=4f508b50-1e3d-40c5-be77-1e6495edbe07","ios":"levelo://app?vid=4f508b50-1e3d-40c5-be77-1e6495edbe07"},"vehicle_type_id":"4","last_reported":1741471646,"current_range_meters":8400,"station_id":"ce4bhkp2rcd13ifvqgd0","pricing_plan_id":"cebpf4jnsgd1na2vs0mg"},{"bike_id":"c40c13ce-fdbb-4f52-b2d8-1005d4c9277b","system_id":"levelo_inurba_marseille","lat":43.254014,"lon":5.418898,"is_reserved":false,"is_disabled":false,"rental_uris":{"android":"levelo://app?vid=c40c13ce-fdbb-4f52-b2d8-1005d4c9277b","ios":"levelo://app?vid=c40c13ce-fdbb-4f52-b2d8-1005d4c9277b"},"vehicle_type_id":"4","last_reported":1741471646,"current_range_meters":8400,"station_id":"","pricing_plan_id":"cebpf4jnsgd1na2vs0mg"},{"bike_id":"6f46e430-3990-4530-b0f2-2d4583660ccd","system_id":"levelo_inurba_marseille","lat":43.27425,"lon":5.39407,"is_reserved":false,"is_disabled":false,"rental_uris":{"android":"levelo://app?vid=6f46e430-3990-4530-b0f2-2d4583660ccd","ios":"levelo://app?vid=6f46e430-3990-4530-b0f2-2d4583660ccd"},"vehicle_type_id":"4","last_reported":1741471646,"current_range_meters":8400,"station_id":"ce4bhdp2rcd13ifvqf20","pricing_plan_id":"cebpf4jnsgd1na2vs0mg"},{"bike_id":"a51a5b6e-8305-4f1d-8d51-838f7c02acf1","system_id":"levelo_inurba_marseille","lat":43.30255,"lon":5.40056,"is_reserved":false,"is_disabled":false,"rental_uris":{"android":"levelo://app?vid=a51a5b6e-8305-4f1d-8d51-838f7c02acf1","ios":"levelo://app?vid=a51a5b6e-8305-4f1d-8d51-838f7c02acf1"},"vehicle_type_id":"4","last_reported":1741471646,"current_range_meters":8400,"station_id":"ce4bgvh2rcd13ifvqcs0","pricing_plan_id":"cebpf4jnsgd1na2vs0mg"},{"bike_id":"a6c74a05-39e7-4da6-8b71-1ba187fc5bae","system_id":"levelo_inurba_marseille","lat":43.30542,"lon":5.36558,"is_reserved":false,"is_disabled":true,"rental_uris":{"android":"levelo://app?vid=a6c74a05-39e7-4da6-8b71-1ba187fc5bae","ios":"levelo://app?vid=a6c74a05-39e7-4da6-8b71-1ba187fc5bae"},"vehicle_type_id":"4","last_reported":1741471646,"current_range_meters":8400,"station_id":"ce4bgs12rcd13ifvqcag","pricing_plan_id":"cebpf4jnsgd1na2vs0mg"},{"bike_id":"42155170-f769-480e-b54a-7297d54b5579","system_id":"levelo_inurba_marseille","lat":43.27312,"lon":5.39137,"is_reserved":false,"is_disabled":false,"rental_uris":{"android":"levelo://app?vid=42155170-f769-480e-b54a-7297d54b5579","ios":"levelo://app?vid=42155170-f769-480e-b54a-7297d54b5579"},"vehicle_type_id":"4","last_reported":1741471646,"current_range_meters":8400,"station_id":"ce4bhgp2rcd13ifvqfe0","pricing_plan_id":"cebpf4jnsgd1na2vs0mg"},{"bike_id":"985a64d9-a554-43d3-b14d-6c54aece15a8","system_id":"levelo_inurba_marseille","lat":43.26939,"lon":5.40256,"is_reserved":false,"is_disabled":false,"rental_uris":{"android":"levelo://app?vid=985a64d9-a554-43d3-b14d-6c54aece15a8","ios":"levelo://app?vid=985a64d9-a554-43d3-b14d-6c54aece15a8"},"vehicle_type_id":"4","last_reported":1741471646,"current_range_meters":8400,"station_id":"cjm6bp8fraef2m0cb0m0","pricing_plan_id":"cebpf4jnsgd1na2vs0mg"},{"bike_id":"ba6a9529-6921-4576-9d22-8c8433cc0718","system_id":"levelo_inurba_marseille","lat":43.31068,"lon":5.38343,"is_reserved":false,"is_disabled":false,"rental_uris":{"android":"levelo://app?vid=ba6a9529-6921-4576-9d22-8c8433cc0718","ios":"levelo://app?vid=ba6a9529-6921-4576-9d22-8c8433cc0718"},"vehicle_type_id":"4","last_reported":1741471646,"current_range_meters":8400,"station_id":"ce4bgv92rcd13ifvqcr0","pricing_plan_id":"cebpf4jnsgd1na2vs0mg"},{"bike_id":"29a2dc41-176e-4ce3-9704-1e0c81ed4573","system_id":"levelo_inurba_marseille","lat":43.26067,"lon":5.39384,"is_reserved":false,"is_disabled":false,"rental_uris":{"android":"levelo://app?vid=29a2dc41-176e-4ce3-9704-1e0c81ed4573","ios":"levelo://app?vid=29a2dc41-176e-4ce3-9704-1e0c81ed4573"},"vehicle_type_id":"4","last_reported":1741471646,"current_range_meters":8400,"station_id":"ce4bhh92rcd13ifvqfj0","pricing_plan_id":"cebpf4jnsgd1na2vs0mg"},{"bike_id":"cf8661bc-fee9-494a-8f13-615307c50d1c","system_id":"levelo_inurba_marseille","lat":43.32788,"lon":5.39196,"is_reserved":false,"is_disabled":false,"rental_uris":{"android":"levelo://app?vid=cf8661bc-fee9-494a-8f13-615307c50d1c","ios":"levelo://app?vid=cf8661bc-fee9-494a-8f13-615307c50d1c"},"vehicle_type_id":"4","last_reported":1741471646,"current_range_meters":8400,"station_id":"","pricing_plan_id":"cebpf4jnsgd1na2vs0mg"},{"bike_id":"e33dac95-281a-4fd5-ab6d-7ca26ffc6df5","system_id":"levelo_inurba_marseille","lat":43.24818,"lon":5.37443,"is_reserved":false,"is_disabled":false,"rental_uris":{"android":"levelo://app?vid=e33dac95-281a-4fd5-ab6d-7ca26ffc6df5","ios":"levelo://app?vid=e33dac95-281a-4fd5-ab6d-7ca26ffc6df5"},"vehicle_type_id":"4","last_reported":1741471646,"current_range_meters":8800,"station_id":"ce4bhgh2rcd13ifvqfb0","pricing_plan_id":"cebpf4jnsgd1na2vs0mg"},{"bike_id":"c787a0ef-03a5-4d36-b53c-60238e9036da","system_id":"levelo_inurba_marseille","lat":43.23185,"lon":5.39986,"is_reserved":false,"is_disabled":false,"rental_uris":{"android":"levelo://app?vid=c787a0ef-03a5-4d36-b53c-60238e9036da","ios":"levelo://app?vid=c787a0ef-03a5-4d36-b53c-60238e9036da"},"vehicle_type_id":"4","last_reported":1741471646,"current_range_meters":8800,"station_id":"ce4bhn12rcd13ifvqgqg","pricing_plan_id":"cebpf4jnsgd1na2vs0mg"},{"bike_id":"40851586-e1c7-4a2e-a44a-901d0312659c","system_id":"levelo_inurba_marseille","lat":43.30802,"lon":5.38162,"is_reserved":false,"is_disabled":false,"rental_uris":{"android":"levelo://app?vid=40851586-e1c7-4a2e-a44a-901d0312659c","ios":"levelo://app?vid=40851586-e1c7-4a2e-a44a-901d0312659c"},"vehicle_type_id":"4","last_reported":1741471646,"current_range_meters":8800,"station_id":"ce4bgt12rcd13ifvqce0","pricing_plan_id":"cebpf4jnsgd1na2vs0mg"},{"bike_id":"08ce511a-3c8d-4a9f-8913-e63ebbdff829","system_id":"levelo_inurba_marseille","lat":43.28938,"lon":5.39627,"is_reserved":false,"is_disabled":false,"rental_uris":{"android":"levelo://app?vid=08ce511a-3c8d-4a9f-8913-e63ebbdff829","ios":"levelo://app?vid=08ce511a-3c8d-4a9f-8913-e63ebbdff829"},"vehicle_type_id":"4","last_reported":1741471646,"current_range_meters":8800,"station_id":"ce4bh3h2rcd13ifvqdn0","pricing_plan_id":"cebpf4jnsgd1na2vs0mg"},{"bike_id":"7608df5b-89ec-4ea9-946b-9db71cfd80f8","system_id":"levelo_inurba_marseille","lat":43.2728,"lon":5.39128,"is_reserved":false,"is_disabled":false,"rental_uris":{"android":"levelo://app?vid=7608df5b-89ec-4ea9-946b-9db71cfd80f8","ios":"levelo://app?vid=7608df5b-89ec-4ea9-946b-9db71cfd80f8"},"vehicle_type_id":"4","last_reported":1741471646,"current_range_meters":8800,"station_id":"","pricing_plan_id":"cebpf4jnsgd1na2vs0mg"},{"bike_id":"5e9c1d5b-659a-4519-b507-288690b532d7","system_id":"levelo_inurba_marseille","lat":43.2848,"lon":5.38429,"is_reserved":false,"is_disabled":false,"rental_uris":{"android":"levelo://app?vid=5e9c1d5b-659a-4519-b507-288690b532d7","ios":"levelo://app?vid=5e9c1d5b-659a-4519-b507-288690b532d7"},"vehicle_type_id":"4","last_reported":1741471646,"current_range_meters":8800,"station_id":"ce4bh512rcd13ifvqe3g","pricing_plan_id":"cebpf4jnsgd1na2vs0mg"},{"bike_id":"7e48344a-4db8-47b3-8baa-574165663505","system_id":"levelo_inurba_marseille","lat":43.24395,"lon":5.37057,"is_reserved":false,"is_disabled":false,"rental_uris":{"android":"levelo://app?vid=7e48344a-4db8-47b3-8baa-574165663505","ios":"levelo://app?vid=7e48344a-4db8-47b3-8baa-574165663505"},"vehicle_type_id":"4","last_reported":1741471646,"current_range_meters":8800,"station_id":"ce4bhhh2rcd13ifvqfk0","pricing_plan_id":"cebpf4jnsgd1na2vs0mg"},{"bike_id":"bdce6986-86c4-4404-aa26-b17249768109","system_id":"levelo_inurba_marseille","lat":43.27826,"lon":5.40726,"is_reserved":false,"is_disabled":false,"rental_uris":{"android":"levelo://app?vid=bdce6986-86c4-4404-aa26-b17249768109","ios":"levelo://app?vid=bdce6986-86c4-4404-aa26-b17249768109"},"vehicle_type_id":"4","last_reported":1741471646,"current_range_meters":8800,"station_id":"ce4bhnh2rcd13ifvqgtg","pricing_plan_id":"cebpf4jnsgd1na2vs0mg"},{"bike_id":"46c4231f-7385-4d40-9ad3-8b5e57378081","system_id":"levelo_inurba_marseille","lat":43.295366,"lon":5.385495,"is_reserved":false,"is_disabled":false,"rental_uris":{"android":"levelo://app?vid=46c4231f-7385-4d40-9ad3-8b5e57378081","ios":"levelo://app?vid=46c4231f-7385-4d40-9ad3-8b5e57378081"},"vehicle_type_id":"4","last_reported":1741471646,"current_range_meters":8800,"station_id":"ce4bgih2rcd13ifvqba0","pricing_plan_id":"cebpf4jnsgd1na2vs0mg"},{"bike_id":"a48a0a8c-7eb3-4952-8bac-2c9cd873cdc1","system_id":"levelo_inurba_marseille","lat":43.27938,"lon":5.38696,"is_reserved":false,"is_disabled":false,"rental_uris":{"android":"levelo://app?vid=a48a0a8c-7eb3-4952-8bac-2c9cd873cdc1","ios":"levelo://app?vid=a48a0a8c-7eb3-4952-8bac-2c9cd873cdc1"},"vehicle_type_id":"4","last_reported":1741471646,"current_range_meters":8800,"station_id":"ce4bhg12rcd13ifvqf80","pricing_plan_id":"cebpf4jnsgd1na2vs0mg"},{"bike_id":"42aedb88-473c-4518-8d54-dc991a6234b1","system_id":"levelo_inurba_marseille","lat":43.2784,"lon":5.407127,"is_reserved":false,"is_disabled":false,"rental_uris":{"android":"levelo://app?vid=42aedb88-473c-4518-8d54-dc991a6234b1","ios":"levelo://app?vid=42aedb88-473c-4518-8d54-dc991a6234b1"},"vehicle_type_id":"4","last_reported":1741471646,"current_range_meters":8800,"station_id":"ce4bhnh2rcd13ifvqgtg","pricing_plan_id":"cebpf4jnsgd1na2vs0mg"},{"bike_id":"6cd8dc9e-f156-40b9-a6c1-e1fab6de7552","system_id":"levelo_inurba_marseille","lat":43.26681,"lon":5.38273,"is_reserved":false,"is_disabled":false,"rental_uris":{"android":"levelo://app?vid=6cd8dc9e-f156-40b9-a6c1-e1fab6de7552","ios":"levelo://app?vid=6cd8dc9e-f156-40b9-a6c1-e1fab6de7552"},"vehicle_type_id":"4","last_reported":1741471646,"current_range_meters":8800,"station_id":"ce4bhg92rcd13ifvqf90","pricing_plan_id":"cebpf4jnsgd1na2vs0mg"},{"bike_id":"1c3b3f09-7d3f-4256-9de7-cbf4f23106ef","system_id":"levelo_inurba_marseille","lat":43.33062,"lon":5.39558,"is_reserved":false,"is_disabled":false,"rental_uris":{"android":"levelo://app?vid=1c3b3f09-7d3f-4256-9de7-cbf4f23106ef","ios":"levelo://app?vid=1c3b3f09-7d3f-4256-9de7-cbf4f23106ef"},"vehicle_type_id":"4","last_reported":1741471646,"current_range_meters":9200,"station_id":"","pricing_plan_id":"cebpf4jnsgd1na2vs0mg"},{"bike_id":"fdf45df4-47d5-41e8-a6c7-03ee85585140","system_id":"levelo_inurba_marseille","lat":43.26778,"lon":5.39429,"is_reserved":false,"is_disabled":true,"rental_uris":{"android":"levelo://app?vid=fdf45df4-47d5-41e8-a6c7-03ee85585140","ios":"levelo://app?vid=fdf45df4-47d5-41e8-a6c7-03ee85585140"},"vehicle_type_id":"4","last_reported":1741471646,"current_range_meters":9200,"station_id":"ce4bhh12rcd13ifvqfg0","pricing_plan_id":"cebpf4jnsgd1na2vs0mg"},{"bike_id":"af2ebc1e-e4b6-4dd5-9b8a-36fa14ab0e82","system_id":"levelo_inurba_marseille","lat":43.29877,"lon":5.39728,"is_reserved":false,"is_disabled":false,"rental_uris":{"android":"levelo://app?vid=af2ebc1e-e4b6-4dd5-9b8a-36fa14ab0e82","ios":"levelo://app?vid=af2ebc1e-e4b6-4dd5-9b8a-36fa14ab0e82"},"vehicle_type_id":"4","last_reported":1741471646,"current_range_meters":9200,"station_id":"ce4bh0h2rcd13ifvqd50","pricing_plan_id":"cebpf4jnsgd1na2vs0mg"},{"bike_id":"14cf3877-3af3-46f4-af3f-e93bc737cb7b","system_id":"levelo_inurba_marseille","lat":43.29869,"lon":5.3626,"is_reserved":false,"is_disabled":false,"rental_uris":{"android":"levelo://app?vid=14cf3877-3af3-46f4-af3f-e93bc737cb7b","ios":"levelo://app?vid=14cf3877-3af3-46f4-af3f-e93bc737cb7b"},"vehicle_type_id":"4","last_reported":1741471646,"current_range_meters":9200,"station_id":"ce4bgpp2rcd13ifvqc3g","pricing_plan_id":"cebpf4jnsgd1na2vs0mg"},{"bike_id":"692c3fd1-e388-4c38-bc5f-023f56dd0104","system_id":"levelo_inurba_marseille","lat":43.2573,"lon":5.41118,"is_reserved":false,"is_disabled":false,"rental_uris":{"android":"levelo://app?vid=692c3fd1-e388-4c38-bc5f-023f56dd0104","ios":"levelo://app?vid=692c3fd1-e388-4c38-bc5f-023f56dd0104"},"vehicle_type_id":"4","last_reported":1741471646,"current_range_meters":9200,"station_id":"ce4bhkp2rcd13ifvqgd0","pricing_plan_id":"cebpf4jnsgd1na2vs0mg"},{"bike_id":"7ccf354e-d9c3-453e-9d8c-ff76790a4a22","system_id":"levelo_inurba_marseille","lat":43.29529,"lon":5.38541,"is_reserved":false,"is_disabled":false,"rental_uris":{"android":"levelo://app?vid=7ccf354e-d9c3-453e-9d8c-ff76790a4a22","ios":"levelo://app?vid=7ccf354e-d9c3-453e-9d8c-ff76790a4a22"},"vehicle_type_id":"4","last_reported":1741471646,"current_range_meters":9200,"station_id":"ce4bgih2rcd13ifvqba0","pricing_plan_id":"cebpf4jnsgd1na2vs0mg"},{"bike_id":"ab66da5b-f0e9-439e-9ff7-184a96ef1430","system_id":"levelo_inurba_marseille","lat":43.32366,"lon":5.36751,"is_reserved":false,"is_disabled":false,"rental_uris":{"android":"levelo://app?vid=ab66da5b-f0e9-439e-9ff7-184a96ef1430","ios":"levelo://app?vid=ab66da5b-f0e9-439e-9ff7-184a96ef1430"},"vehicle_type_id":"4","last_reported":1741471646,"current_range_meters":9200,"station_id":"ce4bhsh2rcd13ifvqi2g","pricing_plan_id":"cebpf4jnsgd1na2vs0mg"},{"bike_id":"d399c68f-4683-4187-95d7-e32ffde3c66c","system_id":"levelo_inurba_marseille","lat":43.25082,"lon":5.3951,"is_reserved":false,"is_disabled":false,"rental_uris":{"android":"levelo://app?vid=d399c68f-4683-4187-95d7-e32ffde3c66c","ios":"levelo://app?vid=d399c68f-4683-4187-95d7-e32ffde3c66c"},"vehicle_type_id":"4","last_reported":1741471646,"current_range_meters":9200,"station_id":"ce4bhm12rcd13ifvqgkg","pricing_plan_id":"cebpf4jnsgd1na2vs0mg"},{"bike_id":"6b937baf-8fc2-4105-ab81-d2e048a9a93c","system_id":"levelo_inurba_marseille","lat":43.29393,"lon":5.38662,"is_reserved":false,"is_disabled":false,"rental_uris":{"android":"levelo://app?vid=6b937baf-8fc2-4105-ab81-d2e048a9a93c","ios":"levelo://app?vid=6b937baf-8fc2-4105-ab81-d2e048a9a93c"},"vehicle_type_id":"4","last_reported":1741471646,"current_range_meters":9200,"station_id":"ce4bh2h2rcd13ifvqdh0","pricing_plan_id":"cebpf4jnsgd1na2vs0mg"},{"bike_id":"28a222b8-ee91-4818-b3f4-9fc2f0d905f9","system_id":"levelo_inurba_marseille","lat":43.30101,"lon":5.39075,"is_reserved":false,"is_disabled":false,"rental_uris":{"android":"levelo://app?vid=28a222b8-ee91-4818-b3f4-9fc2f0d905f9","ios":"levelo://app?vid=28a222b8-ee91-4818-b3f4-9fc2f0d905f9"},"vehicle_type_id":"4","last_reported":1741471646,"current_range_meters":9200,"station_id":"ce4bh192rcd13ifvqdb0","pricing_plan_id":"cebpf4jnsgd1na2vs0mg"},{"bike_id":"b533f38f-df9a-4e01-86fb-08f4b9bfcdfb","system_id":"levelo_inurba_marseille","lat":43.26216,"lon":5.42138,"is_reserved":false,"is_disabled":false,"rental_uris":{"android":"levelo://app?vid=b533f38f-df9a-4e01-86fb-08f4b9bfcdfb","ios":"levelo://app?vid=b533f38f-df9a-4e01-86fb-08f4b9bfcdfb"},"vehicle_type_id":"4","last_reported":1741471646,"current_range_meters":9200,"station_id":"","pricing_plan_id":"cebpf4jnsgd1na2vs0mg"},{"bike_id":"dad63a22-3573-4eb3-a8b7-44c1b9eff39e","system_id":"levelo_inurba_marseille","lat":43.32642,"lon":5.41007,"is_reserved":false,"is_disabled":false,"rental_uris":{"android":"levelo://app?vid=dad63a22-3573-4eb3-a8b7-44c1b9eff39e","ios":"levelo://app?vid=dad63a22-3573-4eb3-a8b7-44c1b9eff39e"},"vehicle_type_id":"4","last_reported":1741471646,"current_range_meters":9200,"station_id":"ce4bhpp2rcd13ifvqhgg","pricing_plan_id":"cebpf4jnsgd1na2vs0mg"},{"bike_id":"2e3c60b3-f5fc-40b6-b347-86b0b4f3ee6e","system_id":"levelo_inurba_marseille","lat":43.23178,"lon":5.3999,"is_reserved":false,"is_disabled":false,"rental_uris":{"android":"levelo://app?vid=2e3c60b3-f5fc-40b6-b347-86b0b4f3ee6e","ios":"levelo://app?vid=2e3c60b3-f5fc-40b6-b347-86b0b4f3ee6e"},"vehicle_type_id":"4","last_reported":1741471646,"current_range_meters":9200,"station_id":"ce4bhn12rcd13ifvqgqg","pricing_plan_id":"cebpf4jnsgd1na2vs0mg"},{"bike_id":"508e4c87-e0a2-4432-b4f8-7d1470e0510a","system_id":"levelo_inurba_marseille","lat":43.27563,"lon":5.38432,"is_reserved":false,"is_disabled":false,"rental_uris":{"android":"levelo://app?vid=508e4c87-e0a2-4432-b4f8-7d1470e0510a","ios":"levelo://app?vid=508e4c87-e0a2-4432-b4f8-7d1470e0510a"},"vehicle_type_id":"4","last_reported":1741471646,"current_range_meters":9200,"station_id":"ce4bhh92rcd13ifvqfi0","pricing_plan_id":"cebpf4jnsgd1na2vs0mg"},{"bike_id":"4535af30-838a-436f-9c39-afb86353063f","system_id":"levelo_inurba_marseille","lat":43.30196,"lon":5.39958,"is_reserved":false,"is_disabled":false,"rental_uris":{"android":"levelo://app?vid=4535af30-838a-436f-9c39-afb86353063f","ios":"levelo://app?vid=4535af30-838a-436f-9c39-afb86353063f"},"vehicle_type_id":"4","last_reported":1741471646,"current_range_meters":9200,"station_id":"","pricing_plan_id":"cebpf4jnsgd1na2vs0mg"},{"bike_id":"b2c2514d-58df-4080-9acc-0a3325c87525","system_id":"levelo_inurba_marseille","lat":43.32352,"lon":5.3673,"is_reserved":false,"is_disabled":false,"rental_uris":{"android":"levelo://app?vid=b2c2514d-58df-4080-9acc-0a3325c87525","ios":"levelo://app?vid=b2c2514d-58df-4080-9acc-0a3325c87525"},"vehicle_type_id":"4","last_reported":1741471646,"current_range_meters":9600,"station_id":"ce4bhsh2rcd13ifvqi2g","pricing_plan_id":"cebpf4jnsgd1na2vs0mg"},{"bike_id":"0ee34a75-da67-4fcc-bde2-63a3210d095a","system_id":"levelo_inurba_marseille","lat":43.29427,"lon":5.38627,"is_reserved":false,"is_disabled":false,"rental_uris":{"android":"levelo://app?vid=0ee34a75-da67-4fcc-bde2-63a3210d095a","ios":"levelo://app?vid=0ee34a75-da67-4fcc-bde2-63a3210d095a"},"vehicle_type_id":"4","last_reported":1741471646,"current_range_meters":9600,"station_id":"ce4bh2h2rcd13ifvqdh0","pricing_plan_id":"cebpf4jnsgd1na2vs0mg"},{"bike_id":"ac5b8d6f-3708-475a-8455-60892e41c2a8","system_id":"levelo_inurba_marseille","lat":43.28351,"lon":5.38108,"is_reserved":false,"is_disabled":false,"rental_uris":{"android":"levelo://app?vid=ac5b8d6f-3708-475a-8455-60892e41c2a8","ios":"levelo://app?vid=ac5b8d6f-3708-475a-8455-60892e41c2a8"},"vehicle_type_id":"4","last_reported":1741471646,"current_range_meters":9600,"station_id":"ce4bh412rcd13ifvqdr0","pricing_plan_id":"cebpf4jnsgd1na2vs0mg"},{"bike_id":"49728009-0f50-46ba-a132-6d4fe5f38e91","system_id":"levelo_inurba_marseille","lat":43.29417,"lon":5.38629,"is_reserved":false,"is_disabled":false,"rental_uris":{"android":"levelo://app?vid=49728009-0f50-46ba-a132-6d4fe5f38e91","ios":"levelo://app?vid=49728009-0f50-46ba-a132-6d4fe5f38e91"},"vehicle_type_id":"4","last_reported":1741471646,"current_range_meters":9600,"station_id":"ce4bh2h2rcd13ifvqdh0","pricing_plan_id":"cebpf4jnsgd1na2vs0mg"},{"bike_id":"688b58da-2130-443d-8e04-5795370dcb1f","system_id":"levelo_inurba_marseille","lat":43.27068,"lon":5.42269,"is_reserved":false,"is_disabled":false,"rental_uris":{"android":"levelo://app?vid=688b58da-2130-443d-8e04-5795370dcb1f","ios":"levelo://app?vid=688b58da-2130-443d-8e04-5795370dcb1f"},"vehicle_type_id":"4","last_reported":1741471646,"current_range_meters":9600,"station_id":"ce4bhk92rcd13ifvqgb0","pricing_plan_id":"cebpf4jnsgd1na2vs0mg"},{"bike_id":"8a918602-9ac4-47c1-baf8-d4080cced523","system_id":"levelo_inurba_marseille","lat":43.29423,"lon":5.38636,"is_reserved":false,"is_disabled":false,"rental_uris":{"android":"levelo://app?vid=8a918602-9ac4-47c1-baf8-d4080cced523","ios":"levelo://app?vid=8a918602-9ac4-47c1-baf8-d4080cced523"},"vehicle_type_id":"4","last_reported":1741471646,"current_range_meters":9600,"station_id":"ce4bh2h2rcd13ifvqdh0","pricing_plan_id":"cebpf4jnsgd1na2vs0mg"},{"bike_id":"344eec88-8503-48cc-b750-e9b8cb1dcb80","system_id":"levelo_inurba_marseille","lat":43.25087,"lon":5.39512,"is_reserved":false,"is_disabled":false,"rental_uris":{"android":"levelo://app?vid=344eec88-8503-48cc-b750-e9b8cb1dcb80","ios":"levelo://app?vid=344eec88-8503-48cc-b750-e9b8cb1dcb80"},"vehicle_type_id":"4","last_reported":1741471646,"current_range_meters":9600,"station_id":"ce4bhm12rcd13ifvqgkg","pricing_plan_id":"cebpf4jnsgd1na2vs0mg"},{"bike_id":"436bcdbb-61d6-407c-bb12-7dc81cb26c80","system_id":"levelo_inurba_marseille","lat":43.29262,"lon":5.37623,"is_reserved":false,"is_disabled":false,"rental_uris":{"android":"levelo://app?vid=436bcdbb-61d6-407c-bb12-7dc81cb26c80","ios":"levelo://app?vid=436bcdbb-61d6-407c-bb12-7dc81cb26c80"},"vehicle_type_id":"4","last_reported":1741471646,"current_range_meters":9600,"station_id":"ce4bgi12rcd13ifvqb80","pricing_plan_id":"cebpf4jnsgd1na2vs0mg"},{"bike_id":"50449ee7-1b1a-4061-af77-cfec7131683f","system_id":"levelo_inurba_marseille","lat":43.27172,"lon":5.40991,"is_reserved":false,"is_disabled":false,"rental_uris":{"android":"levelo://app?vid=50449ee7-1b1a-4061-af77-cfec7131683f","ios":"levelo://app?vid=50449ee7-1b1a-4061-af77-cfec7131683f"},"vehicle_type_id":"4","last_reported":1741471646,"current_range_meters":9600,"station_id":"ce4bhl12rcd13ifvqgf0","pricing_plan_id":"cebpf4jnsgd1na2vs0mg"},{"bike_id":"aacce901-d8dc-4ae4-9842-db7141d6d2a7","system_id":"levelo_inurba_marseille","lat":43.27071,"lon":5.42284,"is_reserved":false,"is_disabled":false,"rental_uris":{"android":"levelo://app?vid=aacce901-d8dc-4ae4-9842-db7141d6d2a7","ios":"levelo://app?vid=aacce901-d8dc-4ae4-9842-db7141d6d2a7"},"vehicle_type_id":"4","last_reported":1741471646,"current_range_meters":6400,"station_id":"ce4bhk92rcd13ifvqgb0","pricing_plan_id":"cebpf4jnsgd1na2vs0mg"},{"bike_id":"eaa3cf00-9ae8-4c97-9bea-c424ccd5e353","system_id":"levelo_inurba_marseille","lat":43.29442,"lon":5.38635,"is_reserved":false,"is_disabled":false,"rental_uris":{"android":"levelo://app?vid=eaa3cf00-9ae8-4c97-9bea-c424ccd5e353","ios":"levelo://app?vid=eaa3cf00-9ae8-4c97-9bea-c424ccd5e353"},"vehicle_type_id":"4","last_reported":1741471646,"current_range_meters":10000,"station_id":"ce4bh2h2rcd13ifvqdh0","pricing_plan_id":"cebpf4jnsgd1na2vs0mg"},{"bike_id":"ad284fdb-e6f9-4c5a-9e2c-c44130087410","system_id":"levelo_inurba_marseille","lat":43.23189,"lon":5.39955,"is_reserved":false,"is_disabled":false,"rental_uris":{"android":"levelo://app?vid=ad284fdb-e6f9-4c5a-9e2c-c44130087410","ios":"levelo://app?vid=ad284fdb-e6f9-4c5a-9e2c-c44130087410"},"vehicle_type_id":"4","last_reported":1741471646,"current_range_meters":10000,"station_id":"ce4bhn12rcd13ifvqgqg","pricing_plan_id":"cebpf4jnsgd1na2vs0mg"},{"bike_id":"6e2925bf-8875-4fff-a415-293325b374e2","system_id":"levelo_inurba_marseille","lat":43.29424,"lon":5.38637,"is_reserved":false,"is_disabled":false,"rental_uris":{"android":"levelo://app?vid=6e2925bf-8875-4fff-a415-293325b374e2","ios":"levelo://app?vid=6e2925bf-8875-4fff-a415-293325b374e2"},"vehicle_type_id":"4","last_reported":1741471646,"current_range_meters":10000,"station_id":"ce4bh2h2rcd13ifvqdh0","pricing_plan_id":"cebpf4jnsgd1na2vs0mg"},{"bike_id":"82798ebb-132d-402c-a08c-5aa81e89de35","system_id":"levelo_inurba_marseille","lat":43.27253,"lon":5.3912,"is_reserved":false,"is_disabled":false,"rental_uris":{"android":"levelo://app?vid=82798ebb-132d-402c-a08c-5aa81e89de35","ios":"levelo://app?vid=82798ebb-132d-402c-a08c-5aa81e89de35"},"vehicle_type_id":"4","last_reported":1741471646,"current_range_meters":10000,"station_id":"","pricing_plan_id":"cebpf4jnsgd1na2vs0mg"},{"bike_id":"b1f7cf29-7408-4d87-9cb8-baf70db34fac","system_id":"levelo_inurba_marseille","lat":43.29284,"lon":5.38421,"is_reserved":false,"is_disabled":false,"rental_uris":{"android":"levelo://app?vid=b1f7cf29-7408-4d87-9cb8-baf70db34fac","ios":"levelo://app?vid=b1f7cf29-7408-4d87-9cb8-baf70db34fac"},"vehicle_type_id":"4","last_reported":1741471646,"current_range_meters":10000,"station_id":"ce4bh692rcd13ifvqea0","pricing_plan_id":"cebpf4jnsgd1na2vs0mg"},{"bike_id":"388ea826-f5fa-4632-a530-45d13cc0a769","system_id":"levelo_inurba_marseille","lat":43.23199,"lon":5.3998,"is_reserved":false,"is_disabled":false,"rental_uris":{"android":"levelo://app?vid=388ea826-f5fa-4632-a530-45d13cc0a769","ios":"levelo://app?vid=388ea826-f5fa-4632-a530-45d13cc0a769"},"vehicle_type_id":"4","last_reported":1741471646,"current_range_meters":10000,"station_id":"ce4bhn12rcd13ifvqgqg","pricing_plan_id":"cebpf4jnsgd1na2vs0mg"},{"bike_id":"cdc6fa71-b8c0-46e7-902c-4e18b52385d2","system_id":"levelo_inurba_marseille","lat":43.28834,"lon":5.39987,"is_reserved":false,"is_disabled":false,"rental_uris":{"android":"levelo://app?vid=cdc6fa71-b8c0-46e7-902c-4e18b52385d2","ios":"levelo://app?vid=cdc6fa71-b8c0-46e7-902c-4e18b52385d2"},"vehicle_type_id":"4","last_reported":1741471646,"current_range_meters":10000,"station_id":"","pricing_plan_id":"cebpf4jnsgd1na2vs0mg"},{"bike_id":"51e3163b-db9f-4541-9cd3-6ea675a921b2","system_id":"levelo_inurba_marseille","lat":43.290224,"lon":5.381394,"is_reserved":false,"is_disabled":false,"rental_uris":{"android":"levelo://app?vid=51e3163b-db9f-4541-9cd3-6ea675a921b2","ios":"levelo://app?vid=51e3163b-db9f-4541-9cd3-6ea675a921b2"},"vehicle_type_id":"4","last_reported":1741471646,"current_range_meters":10000,"station_id":"ce4bh4p2rcd13ifvqe1g","pricing_plan_id":"cebpf4jnsgd1na2vs0mg"},{"bike_id":"ce8e0952-bd72-46a8-9481-a4de30a0a55a","system_id":"levelo_inurba_marseille","lat":43.2926,"lon":5.38445,"is_reserved":false,"is_disabled":false,"rental_uris":{"android":"levelo://app?vid=ce8e0952-bd72-46a8-9481-a4de30a0a55a","ios":"levelo://app?vid=ce8e0952-bd72-46a8-9481-a4de30a0a55a"},"vehicle_type_id":"4","last_reported":1741471646,"current_range_meters":10000,"station_id":"ce4bh692rcd13ifvqea0","pricing_plan_id":"cebpf4jnsgd1na2vs0mg"},{"bike_id":"a5ddb1a2-6779-43c5-b3c1-23e758d87bb7","system_id":"levelo_inurba_marseille","lat":43.29533,"lon":5.3854,"is_reserved":false,"is_disabled":false,"rental_uris":{"android":"levelo://app?vid=a5ddb1a2-6779-43c5-b3c1-23e758d87bb7","ios":"levelo://app?vid=a5ddb1a2-6779-43c5-b3c1-23e758d87bb7"},"vehicle_type_id":"4","last_reported":1741471646,"current_range_meters":10000,"station_id":"ce4bgih2rcd13ifvqba0","pricing_plan_id":"cebpf4jnsgd1na2vs0mg"},{"bike_id":"30ca0a12-56c0-4feb-9059-10680035a6ae","system_id":"levelo_inurba_marseille","lat":43.28709,"lon":5.37389,"is_reserved":false,"is_disabled":true,"rental_uris":{"android":"levelo://app?vid=30ca0a12-56c0-4feb-9059-10680035a6ae","ios":"levelo://app?vid=30ca0a12-56c0-4feb-9059-10680035a6ae"},"vehicle_type_id":"4","last_reported":1741471646,"current_range_meters":10800,"station_id":"ce4bh3p2rcd13ifvqdq0","pricing_plan_id":"cebpf4jnsgd1na2vs0mg"},{"bike_id":"60f8ef87-6492-4d6a-9dd0-daf4538f792e","system_id":"levelo_inurba_marseille","lat":43.3033,"lon":5.40434,"is_reserved":false,"is_disabled":false,"rental_uris":{"android":"levelo://app?vid=60f8ef87-6492-4d6a-9dd0-daf4538f792e","ios":"levelo://app?vid=60f8ef87-6492-4d6a-9dd0-daf4538f792e"},"vehicle_type_id":"4","last_reported":1741471646,"current_range_meters":10800,"station_id":"ce4bh012rcd13ifvqd10","pricing_plan_id":"cebpf4jnsgd1na2vs0mg"},{"bike_id":"dd64b325-7c82-46fb-b25c-812dfa3b2669","system_id":"levelo_inurba_marseille","lat":43.30602,"lon":5.37218,"is_reserved":false,"is_disabled":false,"rental_uris":{"android":"levelo://app?vid=dd64b325-7c82-46fb-b25c-812dfa3b2669","ios":"levelo://app?vid=dd64b325-7c82-46fb-b25c-812dfa3b2669"},"vehicle_type_id":"4","last_reported":1741471646,"current_range_meters":10800,"station_id":"ce4bgqh2rcd13ifvqc4g","pricing_plan_id":"cebpf4jnsgd1na2vs0mg"},{"bike_id":"93b65028-e8a4-4c8f-876a-ae246ea8ac90","system_id":"levelo_inurba_marseille","lat":43.31348,"lon":5.38514,"is_reserved":false,"is_disabled":true,"rental_uris":{"android":"levelo://app?vid=93b65028-e8a4-4c8f-876a-ae246ea8ac90","ios":"levelo://app?vid=93b65028-e8a4-4c8f-876a-ae246ea8ac90"},"vehicle_type_id":"4","last_reported":1741471646,"current_range_meters":11200,"station_id":"ce4bgt92rcd13ifvqcf0","pricing_plan_id":"cebpf4jnsgd1na2vs0mg"},{"bike_id":"06432a94-d00d-40be-8a87-c8ce2b96d5c3","system_id":"levelo_inurba_marseille","lat":43.24807,"lon":5.37458,"is_reserved":false,"is_disabled":false,"rental_uris":{"android":"levelo://app?vid=06432a94-d00d-40be-8a87-c8ce2b96d5c3","ios":"levelo://app?vid=06432a94-d00d-40be-8a87-c8ce2b96d5c3"},"vehicle_type_id":"4","last_reported":1741471646,"current_range_meters":11200,"station_id":"ce4bhgh2rcd13ifvqfb0","pricing_plan_id":"cebpf4jnsgd1na2vs0mg"},{"bike_id":"3e3ed28a-d70d-4e7b-8492-a13a8b5faa63","system_id":"levelo_inurba_marseille","lat":43.25865,"lon":5.39901,"is_reserved":false,"is_disabled":false,"rental_uris":{"android":"levelo://app?vid=3e3ed28a-d70d-4e7b-8492-a13a8b5faa63","ios":"levelo://app?vid=3e3ed28a-d70d-4e7b-8492-a13a8b5faa63"},"vehicle_type_id":"4","last_reported":1741471646,"current_range_meters":11200,"station_id":"ce4bhl92rcd13ifvqghg","pricing_plan_id":"cebpf4jnsgd1na2vs0mg"},{"bike_id":"19bbe8da-d7df-496e-a677-cbaab925cf5e","system_id":"levelo_inurba_marseille","lat":43.24873,"lon":5.42507,"is_reserved":false,"is_disabled":false,"rental_uris":{"android":"levelo://app?vid=19bbe8da-d7df-496e-a677-cbaab925cf5e","ios":"levelo://app?vid=19bbe8da-d7df-496e-a677-cbaab925cf5e"},"vehicle_type_id":"4","last_reported":1741471646,"current_range_meters":11200,"station_id":"","pricing_plan_id":"cebpf4jnsgd1na2vs0mg"},{"bike_id":"565fac05-172c-4b9b-92f1-8fa35566d080","system_id":"levelo_inurba_marseille","lat":43.25723,"lon":5.41092,"is_reserved":false,"is_disabled":false,"rental_uris":{"android":"levelo://app?vid=565fac05-172c-4b9b-92f1-8fa35566d080","ios":"levelo://app?vid=565fac05-172c-4b9b-92f1-8fa35566d080"},"vehicle_type_id":"4","last_reported":1741471646,"current_range_meters":11200,"station_id":"ce4bhkp2rcd13ifvqgd0","pricing_plan_id":"cebpf4jnsgd1na2vs0mg"},{"bike_id":"97687e68-be46-4713-8e56-6dcec5493f0a","system_id":"levelo_inurba_marseille","lat":43.248225,"lon":5.37463,"is_reserved":false,"is_disabled":false,"rental_uris":{"android":"levelo://app?vid=97687e68-be46-4713-8e56-6dcec5493f0a","ios":"levelo://app?vid=97687e68-be46-4713-8e56-6dcec5493f0a"},"vehicle_type_id":"4","last_reported":1741471646,"current_range_meters":11200,"station_id":"ce4bhgh2rcd13ifvqfb0","pricing_plan_id":"cebpf4jnsgd1na2vs0mg"},{"bike_id":"9a57486b-22b4-4721-b55c-e97d985873cf","system_id":"levelo_inurba_marseille","lat":43.32482,"lon":5.36563,"is_reserved":false,"is_disabled":false,"rental_uris":{"android":"levelo://app?vid=9a57486b-22b4-4721-b55c-e97d985873cf","ios":"levelo://app?vid=9a57486b-22b4-4721-b55c-e97d985873cf"},"vehicle_type_id":"4","last_reported":1741471646,"current_range_meters":11200,"station_id":"ce4bhs12rcd13ifvqhvg","pricing_plan_id":"cebpf4jnsgd1na2vs0mg"},{"bike_id":"d4d80517-15f5-40ba-adfb-dbbe2bf1cada","system_id":"levelo_inurba_marseille","lat":43.29048,"lon":5.43664,"is_reserved":false,"is_disabled":false,"rental_uris":{"android":"levelo://app?vid=d4d80517-15f5-40ba-adfb-dbbe2bf1cada","ios":"levelo://app?vid=d4d80517-15f5-40ba-adfb-dbbe2bf1cada"},"vehicle_type_id":"4","last_reported":1741471646,"current_range_meters":11200,"station_id":"","pricing_plan_id":"cebpf4jnsgd1na2vs0mg"},{"bike_id":"ae353e94-7e4c-4b6b-9baa-27cbf5d6202d","system_id":"levelo_inurba_marseille","lat":43.2928,"lon":5.38419,"is_reserved":false,"is_disabled":false,"rental_uris":{"android":"levelo://app?vid=ae353e94-7e4c-4b6b-9baa-27cbf5d6202d","ios":"levelo://app?vid=ae353e94-7e4c-4b6b-9baa-27cbf5d6202d"},"vehicle_type_id":"4","last_reported":1741471646,"current_range_meters":11200,"station_id":"ce4bh692rcd13ifvqea0","pricing_plan_id":"cebpf4jnsgd1na2vs0mg"},{"bike_id":"2ccee320-67e8-4dc3-b761-19553b6bcc0d","system_id":"levelo_inurba_marseille","lat":43.25713,"lon":5.41104,"is_reserved":false,"is_disabled":false,"rental_uris":{"android":"levelo://app?vid=2ccee320-67e8-4dc3-b761-19553b6bcc0d","ios":"levelo://app?vid=2ccee320-67e8-4dc3-b761-19553b6bcc0d"},"vehicle_type_id":"4","last_reported":1741471646,"current_range_meters":11200,"station_id":"ce4bhkp2rcd13ifvqgd0","pricing_plan_id":"cebpf4jnsgd1na2vs0mg"},{"bike_id":"7dc5451c-3fc9-4df5-a9df-5de6995b6357","system_id":"levelo_inurba_marseille","lat":43.29416,"lon":5.38645,"is_reserved":false,"is_disabled":false,"rental_uris":{"android":"levelo://app?vid=7dc5451c-3fc9-4df5-a9df-5de6995b6357","ios":"levelo://app?vid=7dc5451c-3fc9-4df5-a9df-5de6995b6357"},"vehicle_type_id":"4","last_reported":1741471646,"current_range_meters":11200,"station_id":"ce4bh2h2rcd13ifvqdh0","pricing_plan_id":"cebpf4jnsgd1na2vs0mg"},{"bike_id":"64f4ef8a-1c6c-46c3-ae62-8e05492b6515","system_id":"levelo_inurba_marseille","lat":43.31469,"lon":5.39223,"is_reserved":false,"is_disabled":false,"rental_uris":{"android":"levelo://app?vid=64f4ef8a-1c6c-46c3-ae62-8e05492b6515","ios":"levelo://app?vid=64f4ef8a-1c6c-46c3-ae62-8e05492b6515"},"vehicle_type_id":"4","last_reported":1741471646,"current_range_meters":11200,"station_id":"","pricing_plan_id":"cebpf4jnsgd1na2vs0mg"},{"bike_id":"d8d28d85-68d4-4b6f-8a1f-722fc1806dff","system_id":"levelo_inurba_marseille","lat":43.29413,"lon":5.38636,"is_reserved":false,"is_disabled":false,"rental_uris":{"android":"levelo://app?vid=d8d28d85-68d4-4b6f-8a1f-722fc1806dff","ios":"levelo://app?vid=d8d28d85-68d4-4b6f-8a1f-722fc1806dff"},"vehicle_type_id":"4","last_reported":1741471646,"current_range_meters":11200,"station_id":"ce4bh2h2rcd13ifvqdh0","pricing_plan_id":"cebpf4jnsgd1na2vs0mg"},{"bike_id":"219ab01a-dbec-4335-b342-0306126be10d","system_id":"levelo_inurba_marseille","lat":43.277161,"lon":5.388504,"is_reserved":false,"is_disabled":false,"rental_uris":{"android":"levelo://app?vid=219ab01a-dbec-4335-b342-0306126be10d","ios":"levelo://app?vid=219ab01a-dbec-4335-b342-0306126be10d"},"vehicle_type_id":"4","last_reported":1741471646,"current_range_meters":11600,"station_id":"ce4bhi12rcd13ifvqfo0","pricing_plan_id":"cebpf4jnsgd1na2vs0mg"},{"bike_id":"df34d157-e902-457e-82e5-cb7287e60b93","system_id":"levelo_inurba_marseille","lat":43.27312,"lon":5.39082,"is_reserved":false,"is_disabled":false,"rental_uris":{"android":"levelo://app?vid=df34d157-e902-457e-82e5-cb7287e60b93","ios":"levelo://app?vid=df34d157-e902-457e-82e5-cb7287e60b93"},"vehicle_type_id":"4","last_reported":1741471646,"current_range_meters":11600,"station_id":"ce4bhgp2rcd13ifvqfe0","pricing_plan_id":"cebpf4jnsgd1na2vs0mg"},{"bike_id":"3ec3e2aa-eb1a-4432-8bc2-401db54ef086","system_id":"levelo_inurba_marseille","lat":43.2953,"lon":5.38541,"is_reserved":false,"is_disabled":false,"rental_uris":{"android":"levelo://app?vid=3ec3e2aa-eb1a-4432-8bc2-401db54ef086","ios":"levelo://app?vid=3ec3e2aa-eb1a-4432-8bc2-401db54ef086"},"vehicle_type_id":"4","last_reported":1741471646,"current_range_meters":11600,"station_id":"ce4bgih2rcd13ifvqba0","pricing_plan_id":"cebpf4jnsgd1na2vs0mg"},{"bike_id":"3c0e4035-a221-4175-9c1f-5404a2e80550","system_id":"levelo_inurba_marseille","lat":43.2694,"lon":5.40241,"is_reserved":false,"is_disabled":false,"rental_uris":{"android":"levelo://app?vid=3c0e4035-a221-4175-9c1f-5404a2e80550","ios":"levelo://app?vid=3c0e4035-a221-4175-9c1f-5404a2e80550"},"vehicle_type_id":"4","last_reported":1741471646,"current_range_meters":11600,"station_id":"cjm6bp8fraef2m0cb0m0","pricing_plan_id":"cebpf4jnsgd1na2vs0mg"},{"bike_id":"fc5966ba-78bb-4e6f-a5e7-e1a08b7e88dd","system_id":"levelo_inurba_marseille","lat":43.27071,"lon":5.4227,"is_reserved":false,"is_disabled":false,"rental_uris":{"android":"levelo://app?vid=fc5966ba-78bb-4e6f-a5e7-e1a08b7e88dd","ios":"levelo://app?vid=fc5966ba-78bb-4e6f-a5e7-e1a08b7e88dd"},"vehicle_type_id":"4","last_reported":1741471646,"current_range_meters":11600,"station_id":"ce4bhk92rcd13ifvqgb0","pricing_plan_id":"cebpf4jnsgd1na2vs0mg"},{"bike_id":"0e698c9d-47bc-4045-944d-ecfd6b2414bc","system_id":"levelo_inurba_marseille","lat":43.31077,"lon":5.42457,"is_reserved":false,"is_disabled":false,"rental_uris":{"android":"levelo://app?vid=0e698c9d-47bc-4045-944d-ecfd6b2414bc","ios":"levelo://app?vid=0e698c9d-47bc-4045-944d-ecfd6b2414bc"},"vehicle_type_id":"4","last_reported":1741471646,"current_range_meters":11600,"station_id":"ce4bhp92rcd13ifvqhag","pricing_plan_id":"cebpf4jnsgd1na2vs0mg"},{"bike_id":"55697050-ec30-44eb-b3e1-8149eafc9819","system_id":"levelo_inurba_marseille","lat":43.28692,"lon":5.38661,"is_reserved":false,"is_disabled":false,"rental_uris":{"android":"levelo://app?vid=55697050-ec30-44eb-b3e1-8149eafc9819","ios":"levelo://app?vid=55697050-ec30-44eb-b3e1-8149eafc9819"},"vehicle_type_id":"4","last_reported":1741471646,"current_range_meters":12000,"station_id":"ce4bh492rcd13ifvqdug","pricing_plan_id":"cebpf4jnsgd1na2vs0mg"},{"bike_id":"f72c9b0e-0bdf-400f-bbef-96af06910e94","system_id":"levelo_inurba_marseille","lat":43.28703,"lon":5.39992,"is_reserved":false,"is_disabled":false,"rental_uris":{"android":"levelo://app?vid=f72c9b0e-0bdf-400f-bbef-96af06910e94","ios":"levelo://app?vid=f72c9b0e-0bdf-400f-bbef-96af06910e94"},"vehicle_type_id":"4","last_reported":1741471646,"current_range_meters":12000,"station_id":"ce4bho92rcd13ifvqh3g","pricing_plan_id":"cebpf4jnsgd1na2vs0mg"},{"bike_id":"716ad52e-6276-401a-9565-37b068cf8f1c","system_id":"levelo_inurba_marseille","lat":43.24818,"lon":5.3743,"is_reserved":false,"is_disabled":false,"rental_uris":{"android":"levelo://app?vid=716ad52e-6276-401a-9565-37b068cf8f1c","ios":"levelo://app?vid=716ad52e-6276-401a-9565-37b068cf8f1c"},"vehicle_type_id":"4","last_reported":1741471646,"current_range_meters":12000,"station_id":"ce4bhgh2rcd13ifvqfb0","pricing_plan_id":"cebpf4jnsgd1na2vs0mg"},{"bike_id":"2a456351-ab0e-4027-a266-d89165679a6e","system_id":"levelo_inurba_marseille","lat":43.28977,"lon":5.3785,"is_reserved":false,"is_disabled":false,"rental_uris":{"android":"levelo://app?vid=2a456351-ab0e-4027-a266-d89165679a6e","ios":"levelo://app?vid=2a456351-ab0e-4027-a266-d89165679a6e"},"vehicle_type_id":"4","last_reported":1741471646,"current_range_meters":12000,"station_id":"ce4bh9p2rcd13ifvqed0","pricing_plan_id":"cebpf4jnsgd1na2vs0mg"},{"bike_id":"6cfa6918-9998-41e2-be7e-8892614f1312","system_id":"levelo_inurba_marseille","lat":43.23961,"lon":5.36635,"is_reserved":false,"is_disabled":false,"rental_uris":{"android":"levelo://app?vid=6cfa6918-9998-41e2-be7e-8892614f1312","ios":"levelo://app?vid=6cfa6918-9998-41e2-be7e-8892614f1312"},"vehicle_type_id":"4","last_reported":1741471646,"current_range_meters":12000,"station_id":"ce4bhi12rcd13ifvqfp0","pricing_plan_id":"cebpf4jnsgd1na2vs0mg"},{"bike_id":"15593790-3c19-4fa4-832f-515dcdc1902b","system_id":"levelo_inurba_marseille","lat":43.25817,"lon":5.39439,"is_reserved":false,"is_disabled":false,"rental_uris":{"android":"levelo://app?vid=15593790-3c19-4fa4-832f-515dcdc1902b","ios":"levelo://app?vid=15593790-3c19-4fa4-832f-515dcdc1902b"},"vehicle_type_id":"4","last_reported":1741471646,"current_range_meters":18000,"station_id":"ce4bhip2rcd13ifvqft0","pricing_plan_id":"cebpf4jnsgd1na2vs0mg"},{"bike_id":"670bbdcb-3bc0-443b-ba17-4f89ca51cc15","system_id":"levelo_inurba_marseille","lat":43.28081,"lon":5.3966,"is_reserved":false,"is_disabled":false,"rental_uris":{"android":"levelo://app?vid=670bbdcb-3bc0-443b-ba17-4f89ca51cc15","ios":"levelo://app?vid=670bbdcb-3bc0-443b-ba17-4f89ca51cc15"},"vehicle_type_id":"4","last_reported":1741471646,"current_range_meters":9200,"station_id":"ce4bho12rcd13ifvqh2g","pricing_plan_id":"cebpf4jnsgd1na2vs0mg"},{"bike_id":"fa8c6a5b-e91f-4274-b418-5c3522c430aa","system_id":"levelo_inurba_marseille","lat":43.2795,"lon":5.41052,"is_reserved":false,"is_disabled":false,"rental_uris":{"android":"levelo://app?vid=fa8c6a5b-e91f-4274-b418-5c3522c430aa","ios":"levelo://app?vid=fa8c6a5b-e91f-4274-b418-5c3522c430aa"},"vehicle_type_id":"4","last_reported":1741471646,"current_range_meters":12000,"station_id":"ce4bhnp2rcd13ifvqh0g","pricing_plan_id":"cebpf4jnsgd1na2vs0mg"},{"bike_id":"a564cb24-c86f-479f-99ca-ac2593506507","system_id":"levelo_inurba_marseille","lat":43.29935,"lon":5.37443,"is_reserved":false,"is_disabled":false,"rental_uris":{"android":"levelo://app?vid=a564cb24-c86f-479f-99ca-ac2593506507","ios":"levelo://app?vid=a564cb24-c86f-479f-99ca-ac2593506507"},"vehicle_type_id":"4","last_reported":1741471646,"current_range_meters":10800,"station_id":"ce4bgjh2rcd13ifvqbg0","pricing_plan_id":"cebpf4jnsgd1na2vs0mg"},{"bike_id":"128c6e9a-f050-4340-a828-773721c0287d","system_id":"levelo_inurba_marseille","lat":43.26934,"lon":5.40259,"is_reserved":false,"is_disabled":false,"rental_uris":{"android":"levelo://app?vid=128c6e9a-f050-4340-a828-773721c0287d","ios":"levelo://app?vid=128c6e9a-f050-4340-a828-773721c0287d"},"vehicle_type_id":"4","last_reported":1741471646,"current_range_meters":12000,"station_id":"cjm6bp8fraef2m0cb0m0","pricing_plan_id":"cebpf4jnsgd1na2vs0mg"},{"bike_id":"cda480f5-496d-456d-af66-37f4b2d64afd","system_id":"levelo_inurba_marseille","lat":43.31326,"lon":5.39708,"is_reserved":false,"is_disabled":false,"rental_uris":{"android":"levelo://app?vid=cda480f5-496d-456d-af66-37f4b2d64afd","ios":"levelo://app?vid=cda480f5-496d-456d-af66-37f4b2d64afd"},"vehicle_type_id":"4","last_reported":1741471646,"current_range_meters":12400,"station_id":"ce4bgvp2rcd13ifvqcu0","pricing_plan_id":"cebpf4jnsgd1na2vs0mg"},{"bike_id":"7ea24603-5d75-4156-9d29-c1641ffd9327","system_id":"levelo_inurba_marseille","lat":43.29441,"lon":5.38604,"is_reserved":false,"is_disabled":false,"rental_uris":{"android":"levelo://app?vid=7ea24603-5d75-4156-9d29-c1641ffd9327","ios":"levelo://app?vid=7ea24603-5d75-4156-9d29-c1641ffd9327"},"vehicle_type_id":"4","last_reported":1741471646,"current_range_meters":12400,"station_id":"ce4bh2h2rcd13ifvqdh0","pricing_plan_id":"cebpf4jnsgd1na2vs0mg"},{"bike_id":"7116349d-57a0-4906-ad18-66041f25e9db","system_id":"levelo_inurba_marseille","lat":43.29916,"lon":5.37459,"is_reserved":false,"is_disabled":false,"rental_uris":{"android":"levelo://app?vid=7116349d-57a0-4906-ad18-66041f25e9db","ios":"levelo://app?vid=7116349d-57a0-4906-ad18-66041f25e9db"},"vehicle_type_id":"4","last_reported":1741471646,"current_range_meters":12400,"station_id":"ce4bgjh2rcd13ifvqbg0","pricing_plan_id":"cebpf4jnsgd1na2vs0mg"},{"bike_id":"3cd27547-3fcd-4794-aecf-58440a4552bc","system_id":"levelo_inurba_marseille","lat":43.29414,"lon":5.38635,"is_reserved":false,"is_disabled":false,"rental_uris":{"android":"levelo://app?vid=3cd27547-3fcd-4794-aecf-58440a4552bc","ios":"levelo://app?vid=3cd27547-3fcd-4794-aecf-58440a4552bc"},"vehicle_type_id":"4","last_reported":1741471646,"current_range_meters":12400,"station_id":"ce4bh2h2rcd13ifvqdh0","pricing_plan_id":"cebpf4jnsgd1na2vs0mg"},{"bike_id":"1255397c-ce62-4d3c-b34c-42b1e892168c","system_id":"levelo_inurba_marseille","lat":43.25713,"lon":5.41114,"is_reserved":false,"is_disabled":false,"rental_uris":{"android":"levelo://app?vid=1255397c-ce62-4d3c-b34c-42b1e892168c","ios":"levelo://app?vid=1255397c-ce62-4d3c-b34c-42b1e892168c"},"vehicle_type_id":"4","last_reported":1741471646,"current_range_meters":12400,"station_id":"ce4bhkp2rcd13ifvqgd0","pricing_plan_id":"cebpf4jnsgd1na2vs0mg"},{"bike_id":"a0f47016-86c2-44a8-86e4-ab6fc080b00d","system_id":"levelo_inurba_marseille","lat":43.27943,"lon":5.41047,"is_reserved":false,"is_disabled":false,"rental_uris":{"android":"levelo://app?vid=a0f47016-86c2-44a8-86e4-ab6fc080b00d","ios":"levelo://app?vid=a0f47016-86c2-44a8-86e4-ab6fc080b00d"},"vehicle_type_id":"4","last_reported":1741471646,"current_range_meters":12400,"station_id":"ce4bhnp2rcd13ifvqh0g","pricing_plan_id":"cebpf4jnsgd1na2vs0mg"},{"bike_id":"bfe03db3-d69a-445a-a62a-d6ccdbb319ad","system_id":"levelo_inurba_marseille","lat":43.29532,"lon":5.38536,"is_reserved":false,"is_disabled":false,"rental_uris":{"android":"levelo://app?vid=bfe03db3-d69a-445a-a62a-d6ccdbb319ad","ios":"levelo://app?vid=bfe03db3-d69a-445a-a62a-d6ccdbb319ad"},"vehicle_type_id":"4","last_reported":1741471646,"current_range_meters":12400,"station_id":"ce4bgih2rcd13ifvqba0","pricing_plan_id":"cebpf4jnsgd1na2vs0mg"},{"bike_id":"61e388e0-88e8-4998-828e-6cf2d929078c","system_id":"levelo_inurba_marseille","lat":43.32114,"lon":5.36759,"is_reserved":false,"is_disabled":false,"rental_uris":{"android":"levelo://app?vid=61e388e0-88e8-4998-828e-6cf2d929078c","ios":"levelo://app?vid=61e388e0-88e8-4998-828e-6cf2d929078c"},"vehicle_type_id":"4","last_reported":1741471646,"current_range_meters":12400,"station_id":"ce4bhrh2rcd13ifvqhug","pricing_plan_id":"cebpf4jnsgd1na2vs0mg"},{"bike_id":"7f96a4f6-a6d4-4546-8fdf-97303c1c66e4","system_id":"levelo_inurba_marseille","lat":43.302996,"lon":5.368921,"is_reserved":false,"is_disabled":false,"rental_uris":{"android":"levelo://app?vid=7f96a4f6-a6d4-4546-8fdf-97303c1c66e4","ios":"levelo://app?vid=7f96a4f6-a6d4-4546-8fdf-97303c1c66e4"},"vehicle_type_id":"4","last_reported":1741471646,"current_range_meters":12400,"station_id":"ce4bh192rcd13ifvqdd0","pricing_plan_id":"cebpf4jnsgd1na2vs0mg"},{"bike_id":"cb9741bc-643a-4d23-8717-61f0eafe1247","system_id":"levelo_inurba_marseille","lat":43.29267,"lon":5.38438,"is_reserved":false,"is_disabled":false,"rental_uris":{"android":"levelo://app?vid=cb9741bc-643a-4d23-8717-61f0eafe1247","ios":"levelo://app?vid=cb9741bc-643a-4d23-8717-61f0eafe1247"},"vehicle_type_id":"4","last_reported":1741471646,"current_range_meters":12400,"station_id":"ce4bh692rcd13ifvqea0","pricing_plan_id":"cebpf4jnsgd1na2vs0mg"},{"bike_id":"e4862560-8b14-41f0-b4ab-304f0c05b04a","system_id":"levelo_inurba_marseille","lat":43.25076,"lon":5.3952,"is_reserved":false,"is_disabled":false,"rental_uris":{"android":"levelo://app?vid=e4862560-8b14-41f0-b4ab-304f0c05b04a","ios":"levelo://app?vid=e4862560-8b14-41f0-b4ab-304f0c05b04a"},"vehicle_type_id":"4","last_reported":1741471646,"current_range_meters":12800,"station_id":"ce4bhm12rcd13ifvqgkg","pricing_plan_id":"cebpf4jnsgd1na2vs0mg"},{"bike_id":"15d7ce56-fe05-43b9-ae81-3b7d6bf9921a","system_id":"levelo_inurba_marseille","lat":43.273113,"lon":5.390864,"is_reserved":false,"is_disabled":false,"rental_uris":{"android":"levelo://app?vid=15d7ce56-fe05-43b9-ae81-3b7d6bf9921a","ios":"levelo://app?vid=15d7ce56-fe05-43b9-ae81-3b7d6bf9921a"},"vehicle_type_id":"4","last_reported":1741471646,"current_range_meters":12800,"station_id":"ce4bhgp2rcd13ifvqfe0","pricing_plan_id":"cebpf4jnsgd1na2vs0mg"},{"bike_id":"87d6e4ef-3df7-4bbb-ac4a-4299f7db2aa6","system_id":"levelo_inurba_marseille","lat":43.25647,"lon":5.41047,"is_reserved":false,"is_disabled":false,"rental_uris":{"android":"levelo://app?vid=87d6e4ef-3df7-4bbb-ac4a-4299f7db2aa6","ios":"levelo://app?vid=87d6e4ef-3df7-4bbb-ac4a-4299f7db2aa6"},"vehicle_type_id":"4","last_reported":1741471646,"current_range_meters":12800,"station_id":"ce4bhkp2rcd13ifvqgd0","pricing_plan_id":"cebpf4jnsgd1na2vs0mg"},{"bike_id":"ee4ea2ef-1433-4b15-ba5a-93decf17183b","system_id":"levelo_inurba_marseille","lat":43.274261,"lon":5.394169,"is_reserved":false,"is_disabled":false,"rental_uris":{"android":"levelo://app?vid=ee4ea2ef-1433-4b15-ba5a-93decf17183b","ios":"levelo://app?vid=ee4ea2ef-1433-4b15-ba5a-93decf17183b"},"vehicle_type_id":"4","last_reported":1741471646,"current_range_meters":12800,"station_id":"ce4bhdp2rcd13ifvqf20","pricing_plan_id":"cebpf4jnsgd1na2vs0mg"},{"bike_id":"05156e07-47f0-4de0-bb69-b66700e92b0e","system_id":"levelo_inurba_marseille","lat":43.24415,"lon":5.37038,"is_reserved":false,"is_disabled":true,"rental_uris":{"android":"levelo://app?vid=05156e07-47f0-4de0-bb69-b66700e92b0e","ios":"levelo://app?vid=05156e07-47f0-4de0-bb69-b66700e92b0e"},"vehicle_type_id":"4","last_reported":1741471646,"current_range_meters":12800,"station_id":"ce4bhhh2rcd13ifvqfk0","pricing_plan_id":"cebpf4jnsgd1na2vs0mg"},{"bike_id":"f0a12ca0-129c-45e9-86c2-d821cb1fc440","system_id":"levelo_inurba_marseille","lat":43.28366,"lon":5.38644,"is_reserved":false,"is_disabled":false,"rental_uris":{"android":"levelo://app?vid=f0a12ca0-129c-45e9-86c2-d821cb1fc440","ios":"levelo://app?vid=f0a12ca0-129c-45e9-86c2-d821cb1fc440"},"vehicle_type_id":"4","last_reported":1741471646,"current_range_meters":12800,"station_id":"ce4bh492rcd13ifvqdvg","pricing_plan_id":"cebpf4jnsgd1na2vs0mg"},{"bike_id":"c26aeefe-6efa-4367-a4c3-a0a18a302ae1","system_id":"levelo_inurba_marseille","lat":43.2944,"lon":5.38626,"is_reserved":false,"is_disabled":false,"rental_uris":{"android":"levelo://app?vid=c26aeefe-6efa-4367-a4c3-a0a18a302ae1","ios":"levelo://app?vid=c26aeefe-6efa-4367-a4c3-a0a18a302ae1"},"vehicle_type_id":"4","last_reported":1741471646,"current_range_meters":12800,"station_id":"ce4bh2h2rcd13ifvqdh0","pricing_plan_id":"cebpf4jnsgd1na2vs0mg"},{"bike_id":"7758ed75-5f25-4863-b21b-fc212239a75b","system_id":"levelo_inurba_marseille","lat":43.25717,"lon":5.41109,"is_reserved":false,"is_disabled":false,"rental_uris":{"android":"levelo://app?vid=7758ed75-5f25-4863-b21b-fc212239a75b","ios":"levelo://app?vid=7758ed75-5f25-4863-b21b-fc212239a75b"},"vehicle_type_id":"4","last_reported":1741471646,"current_range_meters":13600,"station_id":"ce4bhkp2rcd13ifvqgd0","pricing_plan_id":"cebpf4jnsgd1na2vs0mg"},{"bike_id":"047e79cc-bf17-4bff-8f6a-c458879f6f81","system_id":"levelo_inurba_marseille","lat":43.30542,"lon":5.3841,"is_reserved":false,"is_disabled":false,"rental_uris":{"android":"levelo://app?vid=047e79cc-bf17-4bff-8f6a-c458879f6f81","ios":"levelo://app?vid=047e79cc-bf17-4bff-8f6a-c458879f6f81"},"vehicle_type_id":"4","last_reported":1741471646,"current_range_meters":13600,"station_id":"ce4bgg92rcd13ifvqb30","pricing_plan_id":"cebpf4jnsgd1na2vs0mg"},{"bike_id":"dd9a88d6-be9f-49f5-ab3a-4a9b434f536b","system_id":"levelo_inurba_marseille","lat":43.30928,"lon":5.40145,"is_reserved":false,"is_disabled":true,"rental_uris":{"android":"levelo://app?vid=dd9a88d6-be9f-49f5-ab3a-4a9b434f536b","ios":"levelo://app?vid=dd9a88d6-be9f-49f5-ab3a-4a9b434f536b"},"vehicle_type_id":"4","last_reported":1741471646,"current_range_meters":13600,"station_id":"ce4bgvp2rcd13ifvqct0","pricing_plan_id":"cebpf4jnsgd1na2vs0mg"},{"bike_id":"edaacdef-4d91-4846-968c-2fb91df3ab69","system_id":"levelo_inurba_marseille","lat":43.26803,"lon":5.40266,"is_reserved":false,"is_disabled":false,"rental_uris":{"android":"levelo://app?vid=edaacdef-4d91-4846-968c-2fb91df3ab69","ios":"levelo://app?vid=edaacdef-4d91-4846-968c-2fb91df3ab69"},"vehicle_type_id":"4","last_reported":1741471646,"current_range_meters":13600,"station_id":"ce501612rcd8frsf0b60","pricing_plan_id":"cebpf4jnsgd1na2vs0mg"},{"bike_id":"abe85e27-884b-429d-9250-e7f2ee93ed01","system_id":"levelo_inurba_marseille","lat":43.29251,"lon":5.38437,"is_reserved":false,"is_disabled":false,"rental_uris":{"android":"levelo://app?vid=abe85e27-884b-429d-9250-e7f2ee93ed01","ios":"levelo://app?vid=abe85e27-884b-429d-9250-e7f2ee93ed01"},"vehicle_type_id":"4","last_reported":1741471646,"current_range_meters":13600,"station_id":"ce4bh692rcd13ifvqea0","pricing_plan_id":"cebpf4jnsgd1na2vs0mg"},{"bike_id":"be236fa1-70c0-4a4a-9bd6-b6047d6525e6","system_id":"levelo_inurba_marseille","lat":43.31719,"lon":5.4045,"is_reserved":false,"is_disabled":false,"rental_uris":{"android":"levelo://app?vid=be236fa1-70c0-4a4a-9bd6-b6047d6525e6","ios":"levelo://app?vid=be236fa1-70c0-4a4a-9bd6-b6047d6525e6"},"vehicle_type_id":"4","last_reported":1741471646,"current_range_meters":13600,"station_id":"ce4bh012rcd13ifvqd00","pricing_plan_id":"cebpf4jnsgd1na2vs0mg"},{"bike_id":"1264c37a-27cd-4cc1-9816-1011da90b7f5","system_id":"levelo_inurba_marseille","lat":43.31224,"lon":5.36853,"is_reserved":false,"is_disabled":false,"rental_uris":{"android":"levelo://app?vid=1264c37a-27cd-4cc1-9816-1011da90b7f5","ios":"levelo://app?vid=1264c37a-27cd-4cc1-9816-1011da90b7f5"},"vehicle_type_id":"4","last_reported":1741471646,"current_range_meters":13600,"station_id":"ce4bgl92rcd13ifvqbq0","pricing_plan_id":"cebpf4jnsgd1na2vs0mg"},{"bike_id":"c1d3e2f5-1f04-428b-a9bf-689741b8eee7","system_id":"levelo_inurba_marseille","lat":43.30548,"lon":5.36728,"is_reserved":false,"is_disabled":false,"rental_uris":{"android":"levelo://app?vid=c1d3e2f5-1f04-428b-a9bf-689741b8eee7","ios":"levelo://app?vid=c1d3e2f5-1f04-428b-a9bf-689741b8eee7"},"vehicle_type_id":"4","last_reported":1741471646,"current_range_meters":13600,"station_id":"ce4bgrp2rcd13ifvqc9g","pricing_plan_id":"cebpf4jnsgd1na2vs0mg"},{"bike_id":"fe0ec737-5a80-48e8-adfe-00e47b1c2424","system_id":"levelo_inurba_marseille","lat":43.31167,"lon":5.38728,"is_reserved":false,"is_disabled":false,"rental_uris":{"android":"levelo://app?vid=fe0ec737-5a80-48e8-adfe-00e47b1c2424","ios":"levelo://app?vid=fe0ec737-5a80-48e8-adfe-00e47b1c2424"},"vehicle_type_id":"4","last_reported":1741471646,"current_range_meters":13600,"station_id":"ce4bgv12rcd13ifvqcp0","pricing_plan_id":"cebpf4jnsgd1na2vs0mg"},{"bike_id":"1882bff9-3a4a-48a1-ae14-1aea4af61a78","system_id":"levelo_inurba_marseille","lat":43.32291,"lon":5.382731,"is_reserved":false,"is_disabled":false,"rental_uris":{"android":"levelo://app?vid=1882bff9-3a4a-48a1-ae14-1aea4af61a78","ios":"levelo://app?vid=1882bff9-3a4a-48a1-ae14-1aea4af61a78"},"vehicle_type_id":"4","last_reported":1741471646,"current_range_meters":13600,"station_id":"ce4bhr12rcd13ifvqhqg","pricing_plan_id":"cebpf4jnsgd1na2vs0mg"},{"bike_id":"e5c91572-bbe5-47ca-be70-ea950ef42604","system_id":"levelo_inurba_marseille","lat":43.29578,"lon":5.36741,"is_reserved":false,"is_disabled":false,"rental_uris":{"android":"levelo://app?vid=e5c91572-bbe5-47ca-be70-ea950ef42604","ios":"levelo://app?vid=e5c91572-bbe5-47ca-be70-ea950ef42604"},"vehicle_type_id":"4","last_reported":1741471646,"current_range_meters":13600,"station_id":"ce4bgph2rcd13ifvqc2g","pricing_plan_id":"cebpf4jnsgd1na2vs0mg"},{"bike_id":"13513abf-da5d-4352-a994-6ef189ef02cf","system_id":"levelo_inurba_marseille","lat":43.27073,"lon":5.42288,"is_reserved":false,"is_disabled":false,"rental_uris":{"android":"levelo://app?vid=13513abf-da5d-4352-a994-6ef189ef02cf","ios":"levelo://app?vid=13513abf-da5d-4352-a994-6ef189ef02cf"},"vehicle_type_id":"4","last_reported":1741471646,"current_range_meters":13600,"station_id":"ce4bhk92rcd13ifvqgb0","pricing_plan_id":"cebpf4jnsgd1na2vs0mg"},{"bike_id":"4c5d8bb4-3d1e-4689-9d72-361d8d376cce","system_id":"levelo_inurba_marseille","lat":43.24799,"lon":5.37465,"is_reserved":false,"is_disabled":false,"rental_uris":{"android":"levelo://app?vid=4c5d8bb4-3d1e-4689-9d72-361d8d376cce","ios":"levelo://app?vid=4c5d8bb4-3d1e-4689-9d72-361d8d376cce"},"vehicle_type_id":"4","last_reported":1741471646,"current_range_meters":13600,"station_id":"ce4bhgh2rcd13ifvqfb0","pricing_plan_id":"cebpf4jnsgd1na2vs0mg"},{"bike_id":"6b3fac2b-5d38-48f2-ae55-d3ebd887c4ab","system_id":"levelo_inurba_marseille","lat":43.30539,"lon":5.36714,"is_reserved":false,"is_disabled":false,"rental_uris":{"android":"levelo://app?vid=6b3fac2b-5d38-48f2-ae55-d3ebd887c4ab","ios":"levelo://app?vid=6b3fac2b-5d38-48f2-ae55-d3ebd887c4ab"},"vehicle_type_id":"4","last_reported":1741471646,"current_range_meters":14000,"station_id":"ce4bgrp2rcd13ifvqc9g","pricing_plan_id":"cebpf4jnsgd1na2vs0mg"},{"bike_id":"62e8f49d-1fb8-4364-a58f-936663923914","system_id":"levelo_inurba_marseille","lat":43.28103,"lon":5.37834,"is_reserved":false,"is_disabled":false,"rental_uris":{"android":"levelo://app?vid=62e8f49d-1fb8-4364-a58f-936663923914","ios":"levelo://app?vid=62e8f49d-1fb8-4364-a58f-936663923914"},"vehicle_type_id":"4","last_reported":1741471646,"current_range_meters":12000,"station_id":"ce4bha12rcd13ifvqee0","pricing_plan_id":"cebpf4jnsgd1na2vs0mg"},{"bike_id":"a59c4eaf-cc11-41ac-ae88-e39f4a1540b4","system_id":"levelo_inurba_marseille","lat":43.23971,"lon":5.36652,"is_reserved":false,"is_disabled":false,"rental_uris":{"android":"levelo://app?vid=a59c4eaf-cc11-41ac-ae88-e39f4a1540b4","ios":"levelo://app?vid=a59c4eaf-cc11-41ac-ae88-e39f4a1540b4"},"vehicle_type_id":"4","last_reported":1741471646,"current_range_meters":14400,"station_id":"ce4bhi12rcd13ifvqfp0","pricing_plan_id":"cebpf4jnsgd1na2vs0mg"},{"bike_id":"914852dc-ab93-40ed-b772-acf2c6266c9f","system_id":"levelo_inurba_marseille","lat":43.28618,"lon":5.35101,"is_reserved":false,"is_disabled":false,"rental_uris":{"android":"levelo://app?vid=914852dc-ab93-40ed-b772-acf2c6266c9f","ios":"levelo://app?vid=914852dc-ab93-40ed-b772-acf2c6266c9f"},"vehicle_type_id":"4","last_reported":1741471646,"current_range_meters":14400,"station_id":"ce4bhch2rcd13ifvqeug","pricing_plan_id":"cebpf4jnsgd1na2vs0mg"},{"bike_id":"ef0488e8-6026-48e5-aaca-1f24dcdf46ab","system_id":"levelo_inurba_marseille","lat":43.27319,"lon":5.39079,"is_reserved":false,"is_disabled":false,"rental_uris":{"android":"levelo://app?vid=ef0488e8-6026-48e5-aaca-1f24dcdf46ab","ios":"levelo://app?vid=ef0488e8-6026-48e5-aaca-1f24dcdf46ab"},"vehicle_type_id":"4","last_reported":1741471646,"current_range_meters":14000,"station_id":"ce4bhgp2rcd13ifvqfe0","pricing_plan_id":"cebpf4jnsgd1na2vs0mg"},{"bike_id":"83464d8d-da01-48ab-a574-6841c0f43d0f","system_id":"levelo_inurba_marseille","lat":43.27938,"lon":5.41042,"is_reserved":false,"is_disabled":false,"rental_uris":{"android":"levelo://app?vid=83464d8d-da01-48ab-a574-6841c0f43d0f","ios":"levelo://app?vid=83464d8d-da01-48ab-a574-6841c0f43d0f"},"vehicle_type_id":"4","last_reported":1741471646,"current_range_meters":14400,"station_id":"ce4bhnp2rcd13ifvqh0g","pricing_plan_id":"cebpf4jnsgd1na2vs0mg"},{"bike_id":"d8feaf20-f6cc-4f3a-9bf0-f4a5dcebd831","system_id":"levelo_inurba_marseille","lat":43.29257,"lon":5.38432,"is_reserved":false,"is_disabled":false,"rental_uris":{"android":"levelo://app?vid=d8feaf20-f6cc-4f3a-9bf0-f4a5dcebd831","ios":"levelo://app?vid=d8feaf20-f6cc-4f3a-9bf0-f4a5dcebd831"},"vehicle_type_id":"4","last_reported":1741471646,"current_range_meters":14400,"station_id":"ce4bh692rcd13ifvqea0","pricing_plan_id":"cebpf4jnsgd1na2vs0mg"},{"bike_id":"13ab1637-d907-4b06-8f71-580137053ecf","system_id":"levelo_inurba_marseille","lat":43.29604,"lon":5.38112,"is_reserved":false,"is_disabled":false,"rental_uris":{"android":"levelo://app?vid=13ab1637-d907-4b06-8f71-580137053ecf","ios":"levelo://app?vid=13ab1637-d907-4b06-8f71-580137053ecf"},"vehicle_type_id":"4","last_reported":1741471646,"current_range_meters":14800,"station_id":"ce4bgl12rcd13ifvqbo0","pricing_plan_id":"cebpf4jnsgd1na2vs0mg"},{"bike_id":"deb81f77-c6e9-45d2-b680-8c00a5704cb4","system_id":"levelo_inurba_marseille","lat":43.32111,"lon":5.3678,"is_reserved":false,"is_disabled":false,"rental_uris":{"android":"levelo://app?vid=deb81f77-c6e9-45d2-b680-8c00a5704cb4","ios":"levelo://app?vid=deb81f77-c6e9-45d2-b680-8c00a5704cb4"},"vehicle_type_id":"4","last_reported":1741471646,"current_range_meters":14800,"station_id":"ce4bhrh2rcd13ifvqhug","pricing_plan_id":"cebpf4jnsgd1na2vs0mg"},{"bike_id":"6654ce1c-0f07-4eeb-bf8d-b09a7719124e","system_id":"levelo_inurba_marseille","lat":43.27945,"lon":5.38759,"is_reserved":false,"is_disabled":false,"rental_uris":{"android":"levelo://app?vid=6654ce1c-0f07-4eeb-bf8d-b09a7719124e","ios":"levelo://app?vid=6654ce1c-0f07-4eeb-bf8d-b09a7719124e"},"vehicle_type_id":"4","last_reported":1741471646,"current_range_meters":14800,"station_id":"ce4bhg12rcd13ifvqf80","pricing_plan_id":"cebpf4jnsgd1na2vs0mg"},{"bike_id":"34565812-0fff-4dbb-b10e-c8a1a59facae","system_id":"levelo_inurba_marseille","lat":43.31715,"lon":5.43707,"is_reserved":false,"is_disabled":true,"rental_uris":{"android":"levelo://app?vid=34565812-0fff-4dbb-b10e-c8a1a59facae","ios":"levelo://app?vid=34565812-0fff-4dbb-b10e-c8a1a59facae"},"vehicle_type_id":"4","last_reported":1741471646,"current_range_meters":14800,"station_id":"ce4bhp92rcd13ifvqhcg","pricing_plan_id":"cebpf4jnsgd1na2vs0mg"},{"bike_id":"3be8c499-627d-47bc-89a0-e77bb54b7784","system_id":"levelo_inurba_marseille","lat":43.29425,"lon":5.38626,"is_reserved":false,"is_disabled":false,"rental_uris":{"android":"levelo://app?vid=3be8c499-627d-47bc-89a0-e77bb54b7784","ios":"levelo://app?vid=3be8c499-627d-47bc-89a0-e77bb54b7784"},"vehicle_type_id":"4","last_reported":1741471646,"current_range_meters":14800,"station_id":"ce4bh2h2rcd13ifvqdh0","pricing_plan_id":"cebpf4jnsgd1na2vs0mg"},{"bike_id":"82d05882-146d-4bd7-a50c-7504fa17e792","system_id":"levelo_inurba_marseille","lat":43.29408,"lon":5.38627,"is_reserved":false,"is_disabled":false,"rental_uris":{"android":"levelo://app?vid=82d05882-146d-4bd7-a50c-7504fa17e792","ios":"levelo://app?vid=82d05882-146d-4bd7-a50c-7504fa17e792"},"vehicle_type_id":"4","last_reported":1741471646,"current_range_meters":15200,"station_id":"ce4bh2h2rcd13ifvqdh0","pricing_plan_id":"cebpf4jnsgd1na2vs0mg"},{"bike_id":"2d61ec87-0577-43ad-a521-fdb089acfcf2","system_id":"levelo_inurba_marseille","lat":43.30952,"lon":5.39044,"is_reserved":false,"is_disabled":false,"rental_uris":{"android":"levelo://app?vid=2d61ec87-0577-43ad-a521-fdb089acfcf2","ios":"levelo://app?vid=2d61ec87-0577-43ad-a521-fdb089acfcf2"},"vehicle_type_id":"4","last_reported":1741471646,"current_range_meters":15200,"station_id":"ce4bgup2rcd13ifvqco0","pricing_plan_id":"cebpf4jnsgd1na2vs0mg"},{"bike_id":"e9dab2ce-7c7d-40d2-82aa-ed5c703d86fd","system_id":"levelo_inurba_marseille","lat":43.32116,"lon":5.36776,"is_reserved":false,"is_disabled":false,"rental_uris":{"android":"levelo://app?vid=e9dab2ce-7c7d-40d2-82aa-ed5c703d86fd","ios":"levelo://app?vid=e9dab2ce-7c7d-40d2-82aa-ed5c703d86fd"},"vehicle_type_id":"4","last_reported":1741471646,"current_range_meters":15200,"station_id":"ce4bhrh2rcd13ifvqhug","pricing_plan_id":"cebpf4jnsgd1na2vs0mg"},{"bike_id":"b3b6de43-7ccc-473b-9e87-034a0d9f1009","system_id":"levelo_inurba_marseille","lat":43.29024,"lon":5.37548,"is_reserved":false,"is_disabled":true,"rental_uris":{"android":"levelo://app?vid=b3b6de43-7ccc-473b-9e87-034a0d9f1009","ios":"levelo://app?vid=b3b6de43-7ccc-473b-9e87-034a0d9f1009"},