{"last_updated":1702415179,"ttl":30,"version":"2.2","data":{"bikes":[{"bike_id":"eb0bc621-fe69-417a-8181-f48c42813174","system_id":"levelo_inurba_marseille","lat":43.31341,"lon":5.367098,"is_reserved":false,"is_disabled":false,"rental_uris":{"android":"levelo://app?vid=eb0bc621-fe69-417a-8181-f48c42813174","ios":"levelo://app?vid=eb0bc621-fe69-417a-8181-f48c42813174"},"vehicle_type_id":"4","last_reported":1702415179,"current_range_meters":30400,"station_id":"ce4bgr92rcd13ifvqc6g","pricing_plan_id":"free"},{"bike_id":"68e58824-0a5f-4e27-b6c5-7be064983acc","system_id":"levelo_inurba_marseille","lat":43.31341,"lon":5.367098,"is_reserved":false,"is_disabled":false,"rental_uris":{"android":"levelo://app?vid=68e58824-0a5f-4e27-b6c5-7be064983acc","ios":"levelo://app?vid=68e58824-0a5f-4e27-b6c5-7be064983acc"},"vehicle_type_id":"4","last_reported":1702415179,"current_range_meters":31600,"station_id":"ce4bgr92rcd13ifvqc6g","pricing_plan_id":"free"},{"bike_id":"7b3d8340-515d-4819-a5a6-566426c82313","system_id":"levelo_inurba_marseille","lat":43.31341,"lon":5.367098,"is_reserved":false,"is_disabled":false,"rental_uris":{"android":"levelo://app?vid=7b3d8340-515d-4819-a5a6-566426c82313","ios":"levelo://app?vid=7b3d8340-515d-4819-a5a6-566426c82313"},"vehicle_type_id":"4","last_reported":1702415179,"current_range_meters":29200,"station_id":"ce4bgr92rcd13ifvqc6g","pricing_plan_id":"free"},{"bike_id":"f601babd-3d1d-41ce-91e8-d6a701c2085f","system_id":"levelo_inurba_marseille","lat":43.309076,"lon":5.368465,"is_reserved":false,"is_disabled":false,"rental_uris":{"android":"levelo://app?vid=f601babd-3d1d-41ce-91e8-d6a701c2085f","ios":"levelo://app?vid=f601babd-3d1d-41ce-91e8-d6a701c2085f"},"vehicle_type_id":"4","last_reported":1702415179,"current_range_meters":17200,"station_id":"ce4bgn92rcd13ifvqbvg","pricing_plan_id":"free"},{"bike_id":"ec0e2456-04c4-4aab-83d8-4c0ce7d9e81a","system_id":"levelo_inurba_marseille","lat":43.309039,"lon":5.371797,"is_reserved":false,"is_disabled":false,"rental_uris":{"android":"levelo://app?vid=ec0e2456-04c4-4aab-83d8-4c0ce7d9e81a","ios":"levelo://app?vid=ec0e2456-04c4-4aab-83d8-4c0ce7d9e81a"},"vehicle_type_id":"4","last_reported":1702415179,"current_range_meters":20400,"station_id":"ce4bguh2rcd13ifvqckg","pricing_plan_id":"free"},{"bike_id":"fa71a62c-8ab2-44fc-853a-b7c2085191ea","system_id":"levelo_inurba_marseille","lat":43.309039,"lon":5.371797,"is_reserved":false,"is_disabled":false,"rental_uris":{"android":"levelo://app?vid=fa71a62c-8ab2-44fc-853a-b7c2085191ea","ios":"levelo://app?vid=fa71a62c-8ab2-44fc-853a-b7c2085191ea"},"vehicle_type_id":"4","last_reported":1702415179,"current_range_meters":13600,"station_id":"ce4bguh2rcd13ifvqckg","pricing_plan_id":"free"},{"bike_id":"955e4ab2-16e5-44e8-a986-a2f50ff96c06","system_id":"levelo_inurba_marseille","lat":43.305382,"lon":5.365389,"is_reserved":false,"is_disabled":false,"rental_uris":{"android":"levelo://app?vid=955e4ab2-16e5-44e8-a986-a2f50ff96c06","ios":"levelo://app?vid=955e4ab2-16e5-44e8-a986-a2f50ff96c06"},"vehicle_type_id":"4","last_reported":1702415179,"current_range_meters":29600,"station_id":"","pricing_plan_id":"free"},{"bike_id":"3aed4bfe-c3f5-48b4-9510-c839bdc6a844","system_id":"levelo_inurba_marseille","lat":43.305706,"lon":5.365654,"is_reserved":false,"is_disabled":false,"rental_uris":{"android":"levelo://app?vid=3aed4bfe-c3f5-48b4-9510-c839bdc6a844","ios":"levelo://app?vid=3aed4bfe-c3f5-48b4-9510-c839bdc6a844"},"vehicle_type_id":"4","last_reported":1702415179,"current_range_meters":12000,"station_id":"ce4bgs12rcd13ifvqcag","pricing_plan_id":"free"},{"bike_id":"c0daaf2f-bf34-433c-9dae-2310b23dbfcd","system_id":"levelo_inurba_marseille","lat":43.305989,"lon":5.37225,"is_reserved":false,"is_disabled":false,"rental_uris":{"android":"levelo://app?vid=c0daaf2f-bf34-433c-9dae-2310b23dbfcd","ios":"levelo://app?vid=c0daaf2f-bf34-433c-9dae-2310b23dbfcd"},"vehicle_type_id":"4","last_reported":1702415179,"current_range_meters":5200,"station_id":"ce4bgqh2rcd13ifvqc4g","pricing_plan_id":"free"},{"bike_id":"dc68debd-6203-4696-b9a5-55eea857c5a0","system_id":"levelo_inurba_marseille","lat":43.317163,"lon":5.376824,"is_reserved":false,"is_disabled":false,"rental_uris":{"android":"levelo://app?vid=dc68debd-6203-4696-b9a5-55eea857c5a0","ios":"levelo://app?vid=dc68debd-6203-4696-b9a5-55eea857c5a0"},"vehicle_type_id":"4","last_reported":1702415179,"current_range_meters":26800,"station_id":"ce4bgth2rcd13ifvqch0","pricing_plan_id":"free"},{"bike_id":"1dcbe0d8-be57-4513-9898-727b736e0085","system_id":"levelo_inurba_marseille","lat":43.32058,"lon":5.37466,"is_reserved":false,"is_disabled":false,"rental_uris":{"android":"levelo://app?vid=1dcbe0d8-be57-4513-9898-727b736e0085","ios":"levelo://app?vid=1dcbe0d8-be57-4513-9898-727b736e0085"},"vehicle_type_id":"4","last_reported":1702415179,"current_range_meters":23600,"station_id":"","pricing_plan_id":"free"},{"bike_id":"c37ba88e-098b-437f-90b5-a3a23039521c","system_id":"levelo_inurba_marseille","lat":43.301939,"lon":5.366286,"is_reserved":false,"is_disabled":false,"rental_uris":{"android":"levelo://app?vid=c37ba88e-098b-437f-90b5-a3a23039521c","ios":"levelo://app?vid=c37ba88e-098b-437f-90b5-a3a23039521c"},"vehicle_type_id":"4","last_reported":1702415179,"current_range_meters":3600,"station_id":"ce4bgrh2rcd13ifvqc8g","pricing_plan_id":"free"},{"bike_id":"8f81567e-2bb9-4924-a767-22ab3d053b21","system_id":"levelo_inurba_marseille","lat":43.30248,"lon":5.37445,"is_reserved":false,"is_disabled":false,"rental_uris":{"android":"levelo://app?vid=8f81567e-2bb9-4924-a767-22ab3d053b21","ios":"levelo://app?vid=8f81567e-2bb9-4924-a767-22ab3d053b21"},"vehicle_type_id":"4","last_reported":1702415179,"current_range_meters":0,"station_id":"","pricing_plan_id":"free"},{"bike_id":"421d0a9d-1028-41c8-bf26-acd254ee081b","system_id":"levelo_inurba_marseille","lat":43.304606,"lon":5.379026,"is_reserved":false,"is_disabled":false,"rental_uris":{"android":"levelo://app?vid=421d0a9d-1028-41c8-bf26-acd254ee081b","ios":"levelo://app?vid=421d0a9d-1028-41c8-bf26-acd254ee081b"},"vehicle_type_id":"4","last_reported":1702415179,"current_range_meters":6000,"station_id":"ce4bgup2rcd13ifvqcn0","pricing_plan_id":"free"},{"bike_id":"56913c7b-9fa7-4e62-b2da-052847dbaf22","system_id":"levelo_inurba_marseille","lat":43.304606,"lon":5.379026,"is_reserved":false,"is_disabled":false,"rental_uris":{"android":"levelo://app?vid=56913c7b-9fa7-4e62-b2da-052847dbaf22","ios":"levelo://app?vid=56913c7b-9fa7-4e62-b2da-052847dbaf22"},"vehicle_type_id":"4","last_reported":1702415179,"current_range_meters":25200,"station_id":"ce4bgup2rcd13ifvqcn0","pricing_plan_id":"free"},{"bike_id":"aa3cdc10-a2b4-4348-a58d-ea513d683fe2","system_id":"levelo_inurba_marseille","lat":43.32479,"lon":5.36559,"is_reserved":false,"is_disabled":false,"rental_uris":{"android":"levelo://app?vid=aa3cdc10-a2b4-4348-a58d-ea513d683fe2","ios":"levelo://app?vid=aa3cdc10-a2b4-4348-a58d-ea513d683fe2"},"vehicle_type_id":"4","last_reported":1702415179,"current_range_meters":25600,"station_id":"ce4bhs12rcd13ifvqhvg","pricing_plan_id":"free"},{"bike_id":"f984f9a8-16f0-4733-85b8-394cf197ecfe","system_id":"levelo_inurba_marseille","lat":43.30277,"lon":5.37717,"is_reserved":false,"is_disabled":false,"rental_uris":{"android":"levelo://app?vid=f984f9a8-16f0-4733-85b8-394cf197ecfe","ios":"levelo://app?vid=f984f9a8-16f0-4733-85b8-394cf197ecfe"},"vehicle_type_id":"4","last_reported":1702415179,"current_range_meters":9600,"station_id":"ce4bguh2rcd13ifvqcj0","pricing_plan_id":"free"},{"bike_id":"c2f3e96d-81da-4d6b-9242-aca96b660b86","system_id":"levelo_inurba_marseille","lat":43.319935,"lon":5.381699,"is_reserved":false,"is_disabled":false,"rental_uris":{"android":"levelo://app?vid=c2f3e96d-81da-4d6b-9242-aca96b660b86","ios":"levelo://app?vid=c2f3e96d-81da-4d6b-9242-aca96b660b86"},"vehicle_type_id":"4","last_reported":1702415179,"current_range_meters":17200,"station_id":"ce4bhr12rcd13ifvqhpg","pricing_plan_id":"free"},{"bike_id":"4c7ecad3-d973-4057-a20a-bd7fc2959028","system_id":"levelo_inurba_marseille","lat":43.313571,"lon":5.384829,"is_reserved":false,"is_disabled":false,"rental_uris":{"android":"levelo://app?vid=4c7ecad3-d973-4057-a20a-bd7fc2959028","ios":"levelo://app?vid=4c7ecad3-d973-4057-a20a-bd7fc2959028"},"vehicle_type_id":"4","last_reported":1702415179,"current_range_meters":26400,"station_id":"ce4bgt92rcd13ifvqcf0","pricing_plan_id":"free"},{"bike_id":"4c00249a-cd9a-43df-b751-0c54480abe52","system_id":"levelo_inurba_marseille","lat":43.313571,"lon":5.384829,"is_reserved":false,"is_disabled":false,"rental_uris":{"android":"levelo://app?vid=4c00249a-cd9a-43df-b751-0c54480abe52","ios":"levelo://app?vid=4c00249a-cd9a-43df-b751-0c54480abe52"},"vehicle_type_id":"4","last_reported":1702415179,"current_range_meters":0,"station_id":"ce4bgt92rcd13ifvqcf0","pricing_plan_id":"free"},{"bike_id":"77a6c46d-d898-4e4f-8846-efa91689c7f0","system_id":"levelo_inurba_marseille","lat":43.302006,"lon":5.38065,"is_reserved":false,"is_disabled":false,"rental_uris":{"android":"levelo://app?vid=77a6c46d-d898-4e4f-8846-efa91689c7f0","ios":"levelo://app?vid=77a6c46d-d898-4e4f-8846-efa91689c7f0"},"vehicle_type_id":"4","last_reported":1702415179,"current_range_meters":0,"station_id":"","pricing_plan_id":"free"},{"bike_id":"3afbdb8c-92db-4c57-ad4e-90de64ad0150","system_id":"levelo_inurba_marseille","lat":43.31172,"lon":5.38714,"is_reserved":false,"is_disabled":false,"rental_uris":{"android":"levelo://app?vid=3afbdb8c-92db-4c57-ad4e-90de64ad0150","ios":"levelo://app?vid=3afbdb8c-92db-4c57-ad4e-90de64ad0150"},"vehicle_type_id":"4","last_reported":1702415179,"current_range_meters":0,"station_id":"ce4bgv12rcd13ifvqcp0","pricing_plan_id":"free"},{"bike_id":"18aea7f3-ed26-4926-b0a0-367e39ccd5ee","system_id":"levelo_inurba_marseille","lat":43.298433,"lon":5.362774,"is_reserved":false,"is_disabled":false,"rental_uris":{"android":"levelo://app?vid=18aea7f3-ed26-4926-b0a0-367e39ccd5ee","ios":"levelo://app?vid=18aea7f3-ed26-4926-b0a0-367e39ccd5ee"},"vehicle_type_id":"4","last_reported":1702415179,"current_range_meters":15600,"station_id":"ce4bgpp2rcd13ifvqc3g","pricing_plan_id":"free"},{"bike_id":"88783d26-0cf0-484e-b913-7c462e1ae4ef","system_id":"levelo_inurba_marseille","lat":43.311722,"lon":5.387247,"is_reserved":false,"is_disabled":false,"rental_uris":{"android":"levelo://app?vid=88783d26-0cf0-484e-b913-7c462e1ae4ef","ios":"levelo://app?vid=88783d26-0cf0-484e-b913-7c462e1ae4ef"},"vehicle_type_id":"4","last_reported":1702415179,"current_range_meters":28000,"station_id":"ce4bgv12rcd13ifvqcp0","pricing_plan_id":"free"},{"bike_id":"fcc3a406-8219-4d19-a1b2-f9d5a2feeb13","system_id":"levelo_inurba_marseille","lat":43.322872,"lon":5.382756,"is_reserved":false,"is_disabled":false,"rental_uris":{"android":"levelo://app?vid=fcc3a406-8219-4d19-a1b2-f9d5a2feeb13","ios":"levelo://app?vid=fcc3a406-8219-4d19-a1b2-f9d5a2feeb13"},"vehicle_type_id":"4","last_reported":1702415179,"current_range_meters":28000,"station_id":"ce4bhr12rcd13ifvqhqg","pricing_plan_id":"free"},{"bike_id":"ef62d099-880c-48b4-a857-30e56a94bd16","system_id":"levelo_inurba_marseille","lat":43.32284,"lon":5.38268,"is_reserved":false,"is_disabled":false,"rental_uris":{"android":"levelo://app?vid=ef62d099-880c-48b4-a857-30e56a94bd16","ios":"levelo://app?vid=ef62d099-880c-48b4-a857-30e56a94bd16"},"vehicle_type_id":"4","last_reported":1702415179,"current_range_meters":6000,"station_id":"ce4bhr12rcd13ifvqhqg","pricing_plan_id":"free"},{"bike_id":"4e6dcc4f-3405-416d-8522-8318837508c0","system_id":"levelo_inurba_marseille","lat":43.32297,"lon":5.38255,"is_reserved":false,"is_disabled":false,"rental_uris":{"android":"levelo://app?vid=4e6dcc4f-3405-416d-8522-8318837508c0","ios":"levelo://app?vid=4e6dcc4f-3405-416d-8522-8318837508c0"},"vehicle_type_id":"4","last_reported":1702415179,"current_range_meters":7200,"station_id":"ce4bhr12rcd13ifvqhqg","pricing_plan_id":"free"},{"bike_id":"7c5c6212-95e6-412b-bba0-e6e1e8f7e4ca","system_id":"levelo_inurba_marseille","lat":43.322872,"lon":5.382756,"is_reserved":false,"is_disabled":false,"rental_uris":{"android":"levelo://app?vid=7c5c6212-95e6-412b-bba0-e6e1e8f7e4ca","ios":"levelo://app?vid=7c5c6212-95e6-412b-bba0-e6e1e8f7e4ca"},"vehicle_type_id":"4","last_reported":1702415179,"current_range_meters":26000,"station_id":"ce4bhr12rcd13ifvqhqg","pricing_plan_id":"free"},{"bike_id":"e3935d40-6844-4fe8-8a96-631442334792","system_id":"levelo_inurba_marseille","lat":43.328371,"lon":5.366909,"is_reserved":false,"is_disabled":false,"rental_uris":{"android":"levelo://app?vid=e3935d40-6844-4fe8-8a96-631442334792","ios":"levelo://app?vid=e3935d40-6844-4fe8-8a96-631442334792"},"vehicle_type_id":"4","last_reported":1702415179,"current_range_meters":2000,"station_id":"ce4bhs92rcd13ifvqi0g","pricing_plan_id":"free"},{"bike_id":"029c3e82-bc39-4933-a0ee-6c644524061e","system_id":"levelo_inurba_marseille","lat":43.297163,"lon":5.365866,"is_reserved":false,"is_disabled":false,"rental_uris":{"android":"levelo://app?vid=029c3e82-bc39-4933-a0ee-6c644524061e","ios":"levelo://app?vid=029c3e82-bc39-4933-a0ee-6c644524061e"},"vehicle_type_id":"4","last_reported":1702415179,"current_range_meters":26400,"station_id":"ce4bgn12rcd13ifvqbt0","pricing_plan_id":"free"},{"bike_id":"f6a62362-1831-4aa5-9227-c5f949743ee8","system_id":"levelo_inurba_marseille","lat":43.328371,"lon":5.366909,"is_reserved":false,"is_disabled":false,"rental_uris":{"android":"levelo://app?vid=f6a62362-1831-4aa5-9227-c5f949743ee8","ios":"levelo://app?vid=f6a62362-1831-4aa5-9227-c5f949743ee8"},"vehicle_type_id":"4","last_reported":1702415179,"current_range_meters":2000,"station_id":"ce4bhs92rcd13ifvqi0g","pricing_plan_id":"free"},{"bike_id":"1cac8cc5-9f2f-41c0-b58c-c533383c8290","system_id":"levelo_inurba_marseille","lat":43.2968,"lon":5.37291,"is_reserved":false,"is_disabled":false,"rental_uris":{"android":"levelo://app?vid=1cac8cc5-9f2f-41c0-b58c-c533383c8290","ios":"levelo://app?vid=1cac8cc5-9f2f-41c0-b58c-c533383c8290"},"vehicle_type_id":"4","last_reported":1702415179,"current_range_meters":23600,"station_id":"ce4bgk12rcd13ifvqbj0","pricing_plan_id":"free"},{"bike_id":"7a878ee5-6910-45dd-b3bd-722059d35da7","system_id":"levelo_inurba_marseille","lat":43.29787,"lon":5.37679,"is_reserved":false,"is_disabled":false,"rental_uris":{"android":"levelo://app?vid=7a878ee5-6910-45dd-b3bd-722059d35da7","ios":"levelo://app?vid=7a878ee5-6910-45dd-b3bd-722059d35da7"},"vehicle_type_id":"4","last_reported":1702415179,"current_range_meters":11600,"station_id":"","pricing_plan_id":"free"},{"bike_id":"3aba5a87-1014-43aa-9f67-c244d6caee15","system_id":"levelo_inurba_marseille","lat":43.296129,"lon":5.370777,"is_reserved":false,"is_disabled":false,"rental_uris":{"android":"levelo://app?vid=3aba5a87-1014-43aa-9f67-c244d6caee15","ios":"levelo://app?vid=3aba5a87-1014-43aa-9f67-c244d6caee15"},"vehicle_type_id":"4","last_reported":1702415179,"current_range_meters":17200,"station_id":"ce4bgnh2rcd13ifvqc0g","pricing_plan_id":"free"},{"bike_id":"6fa8add2-2fe2-443d-afd2-4bc6a8ac9da7","system_id":"levelo_inurba_marseille","lat":43.299028,"lon":5.381509,"is_reserved":false,"is_disabled":false,"rental_uris":{"android":"levelo://app?vid=6fa8add2-2fe2-443d-afd2-4bc6a8ac9da7","ios":"levelo://app?vid=6fa8add2-2fe2-443d-afd2-4bc6a8ac9da7"},"vehicle_type_id":"4","last_reported":1702415179,"current_range_meters":16000,"station_id":"ce4bgj12rcd13ifvqbc0","pricing_plan_id":"free"},{"bike_id":"53ff580a-8f26-4436-827a-6ac529f261e0","system_id":"levelo_inurba_marseille","lat":43.317557,"lon":5.390173,"is_reserved":false,"is_disabled":false,"rental_uris":{"android":"levelo://app?vid=53ff580a-8f26-4436-827a-6ac529f261e0","ios":"levelo://app?vid=53ff580a-8f26-4436-827a-6ac529f261e0"},"vehicle_type_id":"4","last_reported":1702415179,"current_range_meters":17200,"station_id":"ce4bhqp2rcd13ifvqhng","pricing_plan_id":"free"},{"bike_id":"12deaa88-d271-4606-aa02-2b16fcaa2cda","system_id":"levelo_inurba_marseille","lat":43.317557,"lon":5.390173,"is_reserved":false,"is_disabled":false,"rental_uris":{"android":"levelo://app?vid=12deaa88-d271-4606-aa02-2b16fcaa2cda","ios":"levelo://app?vid=12deaa88-d271-4606-aa02-2b16fcaa2cda"},"vehicle_type_id":"4","last_reported":1702415179,"current_range_meters":21600,"station_id":"ce4bhqp2rcd13ifvqhng","pricing_plan_id":"free"},{"bike_id":"0b56da03-7ba8-4b52-9d96-d30a5a472554","system_id":"levelo_inurba_marseille","lat":43.304274,"lon":5.388873,"is_reserved":false,"is_disabled":false,"rental_uris":{"android":"levelo://app?vid=0b56da03-7ba8-4b52-9d96-d30a5a472554","ios":"levelo://app?vid=0b56da03-7ba8-4b52-9d96-d30a5a472554"},"vehicle_type_id":"4","last_reported":1702415179,"current_range_meters":9200,"station_id":"ce4bgk12rcd13ifvqbi0","pricing_plan_id":"free"},{"bike_id":"ace0775d-9c87-4539-82b8-eaa36222f40d","system_id":"levelo_inurba_marseille","lat":43.299707,"lon":5.384859,"is_reserved":false,"is_disabled":false,"rental_uris":{"android":"levelo://app?vid=ace0775d-9c87-4539-82b8-eaa36222f40d","ios":"levelo://app?vid=ace0775d-9c87-4539-82b8-eaa36222f40d"},"vehicle_type_id":"4","last_reported":1702415179,"current_range_meters":3200,"station_id":"ce4bgj92rcd13ifvqbd0","pricing_plan_id":"free"},{"bike_id":"d03092f9-45fc-4d51-a3f6-86554dcd2643","system_id":"levelo_inurba_marseille","lat":43.32367,"lon":5.38878,"is_reserved":false,"is_disabled":false,"rental_uris":{"android":"levelo://app?vid=d03092f9-45fc-4d51-a3f6-86554dcd2643","ios":"levelo://app?vid=d03092f9-45fc-4d51-a3f6-86554dcd2643"},"vehicle_type_id":"4","last_reported":1702415179,"current_range_meters":12400,"station_id":"ce4bhqp2rcd13ifvqhog","pricing_plan_id":"free"},{"bike_id":"fb0e77c2-5a18-4107-9008-29501d1a3f22","system_id":"levelo_inurba_marseille","lat":43.296363,"lon":5.38095,"is_reserved":false,"is_disabled":false,"rental_uris":{"android":"levelo://app?vid=fb0e77c2-5a18-4107-9008-29501d1a3f22","ios":"levelo://app?vid=fb0e77c2-5a18-4107-9008-29501d1a3f22"},"vehicle_type_id":"4","last_reported":1702415179,"current_range_meters":1600,"station_id":"ce4bgl12rcd13ifvqbo0","pricing_plan_id":"free"},{"bike_id":"9fafa219-4010-46ac-a092-39e6cd5dabf7","system_id":"levelo_inurba_marseille","lat":43.32364,"lon":5.38882,"is_reserved":false,"is_disabled":false,"rental_uris":{"android":"levelo://app?vid=9fafa219-4010-46ac-a092-39e6cd5dabf7","ios":"levelo://app?vid=9fafa219-4010-46ac-a092-39e6cd5dabf7"},"vehicle_type_id":"4","last_reported":1702415179,"current_range_meters":20000,"station_id":"ce4bhqp2rcd13ifvqhog","pricing_plan_id":"free"},{"bike_id":"bff9db26-45f0-4d89-be98-df76335b799a","system_id":"levelo_inurba_marseille","lat":43.32367,"lon":5.388836,"is_reserved":false,"is_disabled":false,"rental_uris":{"android":"levelo://app?vid=bff9db26-45f0-4d89-be98-df76335b799a","ios":"levelo://app?vid=bff9db26-45f0-4d89-be98-df76335b799a"},"vehicle_type_id":"4","last_reported":1702415179,"current_range_meters":21200,"station_id":"ce4bhqp2rcd13ifvqhog","pricing_plan_id":"free"},{"bike_id":"8b9586e7-da38-4234-ac9d-36b937bb2b9f","system_id":"levelo_inurba_marseille","lat":43.30085,"lon":5.390856,"is_reserved":false,"is_disabled":false,"rental_uris":{"android":"levelo://app?vid=8b9586e7-da38-4234-ac9d-36b937bb2b9f","ios":"levelo://app?vid=8b9586e7-da38-4234-ac9d-36b937bb2b9f"},"vehicle_type_id":"4","last_reported":1702415179,"current_range_meters":8800,"station_id":"ce4bh192rcd13ifvqdb0","pricing_plan_id":"free"},{"bike_id":"85880ac5-9981-4a48-b1e5-6b575dc6a89a","system_id":"levelo_inurba_marseille","lat":43.300852,"lon":5.390859,"is_reserved":false,"is_disabled":false,"rental_uris":{"android":"levelo://app?vid=85880ac5-9981-4a48-b1e5-6b575dc6a89a","ios":"levelo://app?vid=85880ac5-9981-4a48-b1e5-6b575dc6a89a"},"vehicle_type_id":"4","last_reported":1702415179,"current_range_meters":6800,"station_id":"ce4bh192rcd13ifvqdb0","pricing_plan_id":"free"},{"bike_id":"f549a9a6-1fe4-4213-951d-0e18a49331f5","system_id":"levelo_inurba_marseille","lat":43.291647,"lon":5.37152,"is_reserved":false,"is_disabled":false,"rental_uris":{"android":"levelo://app?vid=f549a9a6-1fe4-4213-951d-0e18a49331f5","ios":"levelo://app?vid=f549a9a6-1fe4-4213-951d-0e18a49331f5"},"vehicle_type_id":"4","last_reported":1702415179,"current_range_meters":0,"station_id":"ce4bha92rcd13ifvqeh0","pricing_plan_id":"free"},{"bike_id":"55093b44-a7af-41a6-82a2-1658257b03fa","system_id":"levelo_inurba_marseille","lat":43.298737,"lon":5.38912,"is_reserved":false,"is_disabled":false,"rental_uris":{"android":"levelo://app?vid=55093b44-a7af-41a6-82a2-1658257b03fa","ios":"levelo://app?vid=55093b44-a7af-41a6-82a2-1658257b03fa"},"vehicle_type_id":"4","last_reported":1702415179,"current_range_meters":19600,"station_id":"","pricing_plan_id":"free"},{"bike_id":"e99f1b65-5183-430b-afcb-35c171269e43","system_id":"levelo_inurba_marseille","lat":43.309038,"lon":5.396546,"is_reserved":false,"is_disabled":false,"rental_uris":{"android":"levelo://app?vid=e99f1b65-5183-430b-afcb-35c171269e43","ios":"levelo://app?vid=e99f1b65-5183-430b-afcb-35c171269e43"},"vehicle_type_id":"4","last_reported":1702415179,"current_range_meters":16400,"station_id":"ce4bh012rcd13ifvqcv0","pricing_plan_id":"free"},{"bike_id":"c982b96f-4f85-4e73-8f7f-c9b4eb16a30b","system_id":"levelo_inurba_marseille","lat":43.309047,"lon":5.396551,"is_reserved":false,"is_disabled":false,"rental_uris":{"android":"levelo://app?vid=c982b96f-4f85-4e73-8f7f-c9b4eb16a30b","ios":"levelo://app?vid=c982b96f-4f85-4e73-8f7f-c9b4eb16a30b"},"vehicle_type_id":"4","last_reported":1702415179,"current_range_meters":29600,"station_id":"ce4bh012rcd13ifvqcv0","pricing_plan_id":"free"},{"bike_id":"0b366e26-8227-4363-87b8-44957b073095","system_id":"levelo_inurba_marseille","lat":43.30886,"lon":5.39637,"is_reserved":false,"is_disabled":false,"rental_uris":{"android":"levelo://app?vid=0b366e26-8227-4363-87b8-44957b073095","ios":"levelo://app?vid=0b366e26-8227-4363-87b8-44957b073095"},"vehicle_type_id":"4","last_reported":1702415179,"current_range_meters":29200,"station_id":"ce4bh012rcd13ifvqcv0","pricing_plan_id":"free"},{"bike_id":"0b26f426-b5fc-483c-a9b6-130ce032c077","system_id":"levelo_inurba_marseille","lat":43.309038,"lon":5.396546,"is_reserved":false,"is_disabled":false,"rental_uris":{"android":"levelo://app?vid=0b26f426-b5fc-483c-a9b6-130ce032c077","ios":"levelo://app?vid=0b26f426-b5fc-483c-a9b6-130ce032c077"},"vehicle_type_id":"4","last_reported":1702415179,"current_range_meters":400,"station_id":"ce4bh012rcd13ifvqcv0","pricing_plan_id":"free"},{"bike_id":"b3e3c3ac-515d-432e-8a8b-e4e5e14bb55e","system_id":"levelo_inurba_marseille","lat":43.30888,"lon":5.3964,"is_reserved":false,"is_disabled":false,"rental_uris":{"android":"levelo://app?vid=b3e3c3ac-515d-432e-8a8b-e4e5e14bb55e","ios":"levelo://app?vid=b3e3c3ac-515d-432e-8a8b-e4e5e14bb55e"},"vehicle_type_id":"4","last_reported":1702415179,"current_range_meters":8400,"station_id":"ce4bh012rcd13ifvqcv0","pricing_plan_id":"free"},{"bike_id":"a9e4d9ba-dd2d-4106-84f5-41a9ed6966c8","system_id":"levelo_inurba_marseille","lat":43.313291,"lon":5.396838,"is_reserved":false,"is_disabled":false,"rental_uris":{"android":"levelo://app?vid=a9e4d9ba-dd2d-4106-84f5-41a9ed6966c8","ios":"levelo://app?vid=a9e4d9ba-dd2d-4106-84f5-41a9ed6966c8"},"vehicle_type_id":"4","last_reported":1702415179,"current_range_meters":15600,"station_id":"ce4bgvp2rcd13ifvqcu0","pricing_plan_id":"free"},{"bike_id":"d26174aa-83c9-4864-950d-e3c84cae543f","system_id":"levelo_inurba_marseille","lat":43.31326,"lon":5.3969,"is_reserved":false,"is_disabled":false,"rental_uris":{"android":"levelo://app?vid=d26174aa-83c9-4864-950d-e3c84cae543f","ios":"levelo://app?vid=d26174aa-83c9-4864-950d-e3c84cae543f"},"vehicle_type_id":"4","last_reported":1702415179,"current_range_meters":0,"station_id":"ce4bgvp2rcd13ifvqcu0","pricing_plan_id":"free"},{"bike_id":"ff44dcf7-31a3-4058-84b8-149be4fb727d","system_id":"levelo_inurba_marseille","lat":43.30885,"lon":5.39643,"is_reserved":false,"is_disabled":false,"rental_uris":{"android":"levelo://app?vid=ff44dcf7-31a3-4058-84b8-149be4fb727d","ios":"levelo://app?vid=ff44dcf7-31a3-4058-84b8-149be4fb727d"},"vehicle_type_id":"4","last_reported":1702415179,"current_range_meters":26400,"station_id":"ce4bh012rcd13ifvqcv0","pricing_plan_id":"free"},{"bike_id":"53f0c346-fa6f-45e8-91b1-81bd56a25855","system_id":"levelo_inurba_marseille","lat":43.30881,"lon":5.39645,"is_reserved":false,"is_disabled":false,"rental_uris":{"android":"levelo://app?vid=53f0c346-fa6f-45e8-91b1-81bd56a25855","ios":"levelo://app?vid=53f0c346-fa6f-45e8-91b1-81bd56a25855"},"vehicle_type_id":"4","last_reported":1702415179,"current_range_meters":31200,"station_id":"ce4bh012rcd13ifvqcv0","pricing_plan_id":"free"},{"bike_id":"9c088e17-437a-4c78-8e15-490fc306b2db","system_id":"levelo_inurba_marseille","lat":43.309047,"lon":5.396551,"is_reserved":false,"is_disabled":false,"rental_uris":{"android":"levelo://app?vid=9c088e17-437a-4c78-8e15-490fc306b2db","ios":"levelo://app?vid=9c088e17-437a-4c78-8e15-490fc306b2db"},"vehicle_type_id":"4","last_reported":1702415179,"current_range_meters":30800,"station_id":"ce4bh012rcd13ifvqcv0","pricing_plan_id":"free"},{"bike_id":"9f677b5a-8f8f-4e6b-a8e8-c4f8dc3b6594","system_id":"levelo_inurba_marseille","lat":43.30891,"lon":5.3966,"is_reserved":false,"is_disabled":false,"rental_uris":{"android":"levelo://app?vid=9f677b5a-8f8f-4e6b-a8e8-c4f8dc3b6594","ios":"levelo://app?vid=9f677b5a-8f8f-4e6b-a8e8-c4f8dc3b6594"},"vehicle_type_id":"4","last_reported":1702415179,"current_range_meters":22000,"station_id":"ce4bh012rcd13ifvqcv0","pricing_plan_id":"free"},{"bike_id":"3e081cf0-43ce-498b-99d4-11323d64b9cd","system_id":"levelo_inurba_marseille","lat":43.29529,"lon":5.385581,"is_reserved":false,"is_disabled":false,"rental_uris":{"android":"levelo://app?vid=3e081cf0-43ce-498b-99d4-11323d64b9cd","ios":"levelo://app?vid=3e081cf0-43ce-498b-99d4-11323d64b9cd"},"vehicle_type_id":"4","last_reported":1702415179,"current_range_meters":22000,"station_id":"ce4bgih2rcd13ifvqba0","pricing_plan_id":"free"},{"bike_id":"45cb3780-2045-44bc-857f-16ff55478078","system_id":"levelo_inurba_marseille","lat":43.302008,"lon":5.394694,"is_reserved":false,"is_disabled":false,"rental_uris":{"android":"levelo://app?vid=45cb3780-2045-44bc-857f-16ff55478078","ios":"levelo://app?vid=45cb3780-2045-44bc-857f-16ff55478078"},"vehicle_type_id":"4","last_reported":1702415179,"current_range_meters":24000,"station_id":"ce4bh0p2rcd13ifvqd70","pricing_plan_id":"free"},{"bike_id":"be1a3676-c091-4a19-b7d9-57073549431c","system_id":"levelo_inurba_marseille","lat":43.289184,"lon":5.366408,"is_reserved":false,"is_disabled":false,"rental_uris":{"android":"levelo://app?vid=be1a3676-c091-4a19-b7d9-57073549431c","ios":"levelo://app?vid=be1a3676-c091-4a19-b7d9-57073549431c"},"vehicle_type_id":"4","last_reported":1702415179,"current_range_meters":800,"station_id":"ce4bhap2rcd13ifvqek0","pricing_plan_id":"free"},{"bike_id":"b6b4c311-a1c2-4e5b-af87-a9957a0eeeee","system_id":"levelo_inurba_marseille","lat":43.289184,"lon":5.366408,"is_reserved":false,"is_disabled":false,"rental_uris":{"android":"levelo://app?vid=b6b4c311-a1c2-4e5b-af87-a9957a0eeeee","ios":"levelo://app?vid=b6b4c311-a1c2-4e5b-af87-a9957a0eeeee"},"vehicle_type_id":"4","last_reported":1702415179,"current_range_meters":8400,"station_id":"ce4bhap2rcd13ifvqek0","pricing_plan_id":"free"},{"bike_id":"fee78461-23d7-48dc-8810-c3b8e393e033","system_id":"levelo_inurba_marseille","lat":43.289184,"lon":5.366408,"is_reserved":false,"is_disabled":false,"rental_uris":{"android":"levelo://app?vid=fee78461-23d7-48dc-8810-c3b8e393e033","ios":"levelo://app?vid=fee78461-23d7-48dc-8810-c3b8e393e033"},"vehicle_type_id":"4","last_reported":1702415179,"current_range_meters":14400,"station_id":"ce4bhap2rcd13ifvqek0","pricing_plan_id":"free"},{"bike_id":"d89e333a-fb9f-41a6-8524-cd4218089c55","system_id":"levelo_inurba_marseille","lat":43.292644,"lon":5.384257,"is_reserved":false,"is_disabled":false,"rental_uris":{"android":"levelo://app?vid=d89e333a-fb9f-41a6-8524-cd4218089c55","ios":"levelo://app?vid=d89e333a-fb9f-41a6-8524-cd4218089c55"},"vehicle_type_id":"4","last_reported":1702415179,"current_range_meters":9200,"station_id":"ce4bh692rcd13ifvqea0","pricing_plan_id":"free"},{"bike_id":"dc52a2d0-ff5a-40bb-b482-bf367da51b96","system_id":"levelo_inurba_marseille","lat":43.304274,"lon":5.397513,"is_reserved":false,"is_disabled":false,"rental_uris":{"android":"levelo://app?vid=dc52a2d0-ff5a-40bb-b482-bf367da51b96","ios":"levelo://app?vid=dc52a2d0-ff5a-40bb-b482-bf367da51b96"},"vehicle_type_id":"4","last_reported":1702415179,"current_range_meters":12000,"station_id":"ce4bh092rcd13ifvqd20","pricing_plan_id":"free"},{"bike_id":"90212e5a-f930-4ba5-ad39-37ea8f52571a","system_id":"levelo_inurba_marseille","lat":43.330442,"lon":5.389148,"is_reserved":false,"is_disabled":false,"rental_uris":{"android":"levelo://app?vid=90212e5a-f930-4ba5-ad39-37ea8f52571a","ios":"levelo://app?vid=90212e5a-f930-4ba5-ad39-37ea8f52571a"},"vehicle_type_id":"4","last_reported":1702415179,"current_range_meters":25200,"station_id":"ce4bhr92rcd13ifvqhrg","pricing_plan_id":"free"},{"bike_id":"b759538c-75fc-4ccb-9b73-2031bf78f0fa","system_id":"levelo_inurba_marseille","lat":43.33044,"lon":5.3892,"is_reserved":false,"is_disabled":false,"rental_uris":{"android":"levelo://app?vid=b759538c-75fc-4ccb-9b73-2031bf78f0fa","ios":"levelo://app?vid=b759538c-75fc-4ccb-9b73-2031bf78f0fa"},"vehicle_type_id":"4","last_reported":1702415179,"current_range_meters":16800,"station_id":"ce4bhr92rcd13ifvqhrg","pricing_plan_id":"free"},{"bike_id":"62e94a04-2220-4204-a03b-cf7d6d909360","system_id":"levelo_inurba_marseille","lat":43.330442,"lon":5.389148,"is_reserved":false,"is_disabled":false,"rental_uris":{"android":"levelo://app?vid=62e94a04-2220-4204-a03b-cf7d6d909360","ios":"levelo://app?vid=62e94a04-2220-4204-a03b-cf7d6d909360"},"vehicle_type_id":"4","last_reported":1702415179,"current_range_meters":30400,"station_id":"ce4bhr92rcd13ifvqhrg","pricing_plan_id":"free"},{"bike_id":"30e4265b-1f93-43b1-b83b-65f8a98543ae","system_id":"levelo_inurba_marseille","lat":43.29791,"lon":5.39337,"is_reserved":false,"is_disabled":false,"rental_uris":{"android":"levelo://app?vid=30e4265b-1f93-43b1-b83b-65f8a98543ae","ios":"levelo://app?vid=30e4265b-1f93-43b1-b83b-65f8a98543ae"},"vehicle_type_id":"4","last_reported":1702415179,"current_range_meters":11600,"station_id":"chh1huq6cuj3fo74tm60","pricing_plan_id":"free"},{"bike_id":"bfee4159-10cb-4e00-90aa-274e22a4b2d8","system_id":"levelo_inurba_marseille","lat":43.29788,"lon":5.39345,"is_reserved":false,"is_disabled":false,"rental_uris":{"android":"levelo://app?vid=bfee4159-10cb-4e00-90aa-274e22a4b2d8","ios":"levelo://app?vid=bfee4159-10cb-4e00-90aa-274e22a4b2d8"},"vehicle_type_id":"4","last_reported":1702415179,"current_range_meters":12800,"station_id":"chh1huq6cuj3fo74tm60","pricing_plan_id":"free"},{"bike_id":"2770c214-7f41-4b67-a63b-c6ab37eb7422","system_id":"levelo_inurba_marseille","lat":43.289743,"lon":5.378304,"is_reserved":false,"is_disabled":false,"rental_uris":{"android":"levelo://app?vid=2770c214-7f41-4b67-a63b-c6ab37eb7422","ios":"levelo://app?vid=2770c214-7f41-4b67-a63b-c6ab37eb7422"},"vehicle_type_id":"4","last_reported":1702415179,"current_range_meters":19600,"station_id":"ce4bh9p2rcd13ifvqed0","pricing_plan_id":"free"},{"bike_id":"48a4c2dd-1e5d-4daf-a986-71073e49d5f9","system_id":"levelo_inurba_marseille","lat":43.289741,"lon":5.378306,"is_reserved":false,"is_disabled":false,"rental_uris":{"android":"levelo://app?vid=48a4c2dd-1e5d-4daf-a986-71073e49d5f9","ios":"levelo://app?vid=48a4c2dd-1e5d-4daf-a986-71073e49d5f9"},"vehicle_type_id":"4","last_reported":1702415179,"current_range_meters":14800,"station_id":"ce4bh9p2rcd13ifvqed0","pricing_plan_id":"free"},{"bike_id":"67a71298-f781-4402-8d03-cdb5dd11acae","system_id":"levelo_inurba_marseille","lat":43.33741,"lon":5.374569,"is_reserved":false,"is_disabled":false,"rental_uris":{"android":"levelo://app?vid=67a71298-f781-4402-8d03-cdb5dd11acae","ios":"levelo://app?vid=67a71298-f781-4402-8d03-cdb5dd11acae"},"vehicle_type_id":"4","last_reported":1702415179,"current_range_meters":27200,"station_id":"","pricing_plan_id":"free"},{"bike_id":"e87ce577-db1a-4168-8945-5d6bf99737f3","system_id":"levelo_inurba_marseille","lat":43.33769,"lon":5.37442,"is_reserved":false,"is_disabled":false,"rental_uris":{"android":"levelo://app?vid=e87ce577-db1a-4168-8945-5d6bf99737f3","ios":"levelo://app?vid=e87ce577-db1a-4168-8945-5d6bf99737f3"},"vehicle_type_id":"4","last_reported":1702415179,"current_range_meters":12800,"station_id":"","pricing_plan_id":"free"},{"bike_id":"3b77d1ef-c35d-4489-ad0c-5054fcc84d2f","system_id":"levelo_inurba_marseille","lat":43.337712,"lon":5.374352,"is_reserved":false,"is_disabled":false,"rental_uris":{"android":"levelo://app?vid=3b77d1ef-c35d-4489-ad0c-5054fcc84d2f","ios":"levelo://app?vid=3b77d1ef-c35d-4489-ad0c-5054fcc84d2f"},"vehicle_type_id":"4","last_reported":1702415179,"current_range_meters":26000,"station_id":"","pricing_plan_id":"free"},{"bike_id":"709bebcd-7a96-4a30-894a-152bbb656aa7","system_id":"levelo_inurba_marseille","lat":43.33767,"lon":5.37473,"is_reserved":false,"is_disabled":false,"rental_uris":{"android":"levelo://app?vid=709bebcd-7a96-4a30-894a-152bbb656aa7","ios":"levelo://app?vid=709bebcd-7a96-4a30-894a-152bbb656aa7"},"vehicle_type_id":"4","last_reported":1702415179,"current_range_meters":19200,"station_id":"","pricing_plan_id":"free"},{"bike_id":"e113e230-c3c3-49ea-a0f2-bad2a945b9f8","system_id":"levelo_inurba_marseille","lat":43.3378,"lon":5.37475,"is_reserved":false,"is_disabled":false,"rental_uris":{"android":"levelo://app?vid=e113e230-c3c3-49ea-a0f2-bad2a945b9f8","ios":"levelo://app?vid=e113e230-c3c3-49ea-a0f2-bad2a945b9f8"},"vehicle_type_id":"4","last_reported":1702415179,"current_range_meters":0,"station_id":"","pricing_plan_id":"free"},{"bike_id":"322a53c4-cc1e-4a22-a671-1265027cdfb0","system_id":"levelo_inurba_marseille","lat":43.286593,"lon":5.363346,"is_reserved":false,"is_disabled":false,"rental_uris":{"android":"levelo://app?vid=322a53c4-cc1e-4a22-a671-1265027cdfb0","ios":"levelo://app?vid=322a53c4-cc1e-4a22-a671-1265027cdfb0"},"vehicle_type_id":"4","last_reported":1702415179,"current_range_meters":31600,"station_id":"ce4bhah2rcd13ifvqej0","pricing_plan_id":"free"},{"bike_id":"2fddd81a-2378-4a5c-8dcf-34ac1ede1a84","system_id":"levelo_inurba_marseille","lat":43.298681,"lon":5.397225,"is_reserved":false,"is_disabled":false,"rental_uris":{"android":"levelo://app?vid=2fddd81a-2378-4a5c-8dcf-34ac1ede1a84","ios":"levelo://app?vid=2fddd81a-2378-4a5c-8dcf-34ac1ede1a84"},"vehicle_type_id":"4","last_reported":1702415179,"current_range_meters":28000,"station_id":"ce4bh0h2rcd13ifvqd50","pricing_plan_id":"free"},{"bike_id":"f1ba6f1e-840f-49a1-a23a-11c4ff8c7c32","system_id":"levelo_inurba_marseille","lat":43.286591,"lon":5.363346,"is_reserved":false,"is_disabled":false,"rental_uris":{"android":"levelo://app?vid=f1ba6f1e-840f-49a1-a23a-11c4ff8c7c32","ios":"levelo://app?vid=f1ba6f1e-840f-49a1-a23a-11c4ff8c7c32"},"vehicle_type_id":"4","last_reported":1702415179,"current_range_meters":13200,"station_id":"ce4bhah2rcd13ifvqej0","pricing_plan_id":"free"},{"bike_id":"44ba2703-0cc8-464a-906a-58da3c3fa20b","system_id":"levelo_inurba_marseille","lat":43.286593,"lon":5.363346,"is_reserved":false,"is_disabled":false,"rental_uris":{"android":"levelo://app?vid=44ba2703-0cc8-464a-906a-58da3c3fa20b","ios":"levelo://app?vid=44ba2703-0cc8-464a-906a-58da3c3fa20b"},"vehicle_type_id":"4","last_reported":1702415179,"current_range_meters":0,"station_id":"ce4bhah2rcd13ifvqej0","pricing_plan_id":"free"},{"bike_id":"fb7f9f68-78db-4e95-b068-e2fd6e00ce7b","system_id":"levelo_inurba_marseille","lat":43.28921,"lon":5.384,"is_reserved":false,"is_disabled":false,"rental_uris":{"android":"levelo://app?vid=fb7f9f68-78db-4e95-b068-e2fd6e00ce7b","ios":"levelo://app?vid=fb7f9f68-78db-4e95-b068-e2fd6e00ce7b"},"vehicle_type_id":"4","last_reported":1702415179,"current_range_meters":0,"station_id":"ce4bh612rcd13ifvqe6g","pricing_plan_id":"free"},{"bike_id":"68aa0727-5ee5-460c-bfa2-5a1ee2853baa","system_id":"levelo_inurba_marseille","lat":43.290245,"lon":5.38646,"is_reserved":false,"is_disabled":false,"rental_uris":{"android":"levelo://app?vid=68aa0727-5ee5-460c-bfa2-5a1ee2853baa","ios":"levelo://app?vid=68aa0727-5ee5-460c-bfa2-5a1ee2853baa"},"vehicle_type_id":"4","last_reported":1702415179,"current_range_meters":0,"station_id":"ce4bh4p2rcd13ifvqe0g","pricing_plan_id":"free"},{"bike_id":"4b77080f-20a8-4cba-b4f5-20089a67377b","system_id":"levelo_inurba_marseille","lat":43.302759,"lon":5.400793,"is_reserved":false,"is_disabled":false,"rental_uris":{"android":"levelo://app?vid=4b77080f-20a8-4cba-b4f5-20089a67377b","ios":"levelo://app?vid=4b77080f-20a8-4cba-b4f5-20089a67377b"},"vehicle_type_id":"4","last_reported":1702415179,"current_range_meters":7200,"station_id":"ce4bgvh2rcd13ifvqcs0","pricing_plan_id":"free"},{"bike_id":"9b41e4ac-3a8b-4d22-84da-23c319bc046f","system_id":"levelo_inurba_marseille","lat":43.291994,"lon":5.392907,"is_reserved":false,"is_disabled":false,"rental_uris":{"android":"levelo://app?vid=9b41e4ac-3a8b-4d22-84da-23c319bc046f","ios":"levelo://app?vid=9b41e4ac-3a8b-4d22-84da-23c319bc046f"},"vehicle_type_id":"4","last_reported":1702415179,"current_range_meters":0,"station_id":"ce4bh192rcd13ifvqdd0","pricing_plan_id":"free"},{"bike_id":"82b6bf74-a8ca-43a2-9479-e2618fb20f11","system_id":"levelo_inurba_marseille","lat":43.284534,"lon":5.358662,"is_reserved":false,"is_disabled":false,"rental_uris":{"android":"levelo://app?vid=82b6bf74-a8ca-43a2-9479-e2618fb20f11","ios":"levelo://app?vid=82b6bf74-a8ca-43a2-9479-e2618fb20f11"},"vehicle_type_id":"4","last_reported":1702415179,"current_range_meters":15200,"station_id":"ce4bhah2rcd13ifvqei0","pricing_plan_id":"free"},{"bike_id":"dd2a43d6-454c-4123-99ca-9dc1a260e5a9","system_id":"levelo_inurba_marseille","lat":43.291994,"lon":5.392907,"is_reserved":false,"is_disabled":false,"rental_uris":{"android":"levelo://app?vid=dd2a43d6-454c-4123-99ca-9dc1a260e5a9","ios":"levelo://app?vid=dd2a43d6-454c-4123-99ca-9dc1a260e5a9"},"vehicle_type_id":"4","last_reported":1702415179,"current_range_meters":29600,"station_id":"ce4bh192rcd13ifvqdd0","pricing_plan_id":"free"},{"bike_id":"ace2f6e3-da3a-49b3-9b6a-90c11d9d5c63","system_id":"levelo_inurba_marseille","lat":43.284538,"lon":5.358657,"is_reserved":false,"is_disabled":false,"rental_uris":{"android":"levelo://app?vid=ace2f6e3-da3a-49b3-9b6a-90c11d9d5c63","ios":"levelo://app?vid=ace2f6e3-da3a-49b3-9b6a-90c11d9d5c63"},"vehicle_type_id":"4","last_reported":1702415179,"current_range_meters":17600,"station_id":"ce4bhah2rcd13ifvqei0","pricing_plan_id":"free"},{"bike_id":"6814ec46-eebe-48dd-8818-d96aa14a2a19","system_id":"levelo_inurba_marseille","lat":43.284538,"lon":5.358657,"is_reserved":false,"is_disabled":false,"rental_uris":{"android":"levelo://app?vid=6814ec46-eebe-48dd-8818-d96aa14a2a19","ios":"levelo://app?vid=6814ec46-eebe-48dd-8818-d96aa14a2a19"},"vehicle_type_id":"4","last_reported":1702415179,"current_range_meters":28400,"station_id":"ce4bhah2rcd13ifvqei0","pricing_plan_id":"free"},{"bike_id":"d7056ef0-8c7c-4e9f-a383-2d20b24a3785","system_id":"levelo_inurba_marseille","lat":43.284538,"lon":5.358657,"is_reserved":false,"is_disabled":false,"rental_uris":{"android":"levelo://app?vid=d7056ef0-8c7c-4e9f-a383-2d20b24a3785","ios":"levelo://app?vid=d7056ef0-8c7c-4e9f-a383-2d20b24a3785"},"vehicle_type_id":"4","last_reported":1702415179,"current_range_meters":12000,"station_id":"ce4bhah2rcd13ifvqei0","pricing_plan_id":"free"},{"bike_id":"cc4cbcc3-4e48-4685-a76e-b27f9845174b","system_id":"levelo_inurba_marseille","lat":43.284538,"lon":5.358657,"is_reserved":false,"is_disabled":false,"rental_uris":{"android":"levelo://app?vid=cc4cbcc3-4e48-4685-a76e-b27f9845174b","ios":"levelo://app?vid=cc4cbcc3-4e48-4685-a76e-b27f9845174b"},"vehicle_type_id":"4","last_reported":1702415179,"current_range_meters":19200,"station_id":"ce4bhah2rcd13ifvqei0","pricing_plan_id":"free"},{"bike_id":"0d5c8609-bb01-4d1f-bdf0-78bd91ea6593","system_id":"levelo_inurba_marseille","lat":43.284538,"lon":5.358657,"is_reserved":false,"is_disabled":false,"rental_uris":{"android":"levelo://app?vid=0d5c8609-bb01-4d1f-bdf0-78bd91ea6593","ios":"levelo://app?vid=0d5c8609-bb01-4d1f-bdf0-78bd91ea6593"},"vehicle_type_id":"4","last_reported":1702415179,"current_range_meters":6800,"station_id":"ce4bhah2rcd13ifvqei0","pricing_plan_id":"free"},{"bike_id":"c0423800-d64a-42fc-a9ff-75b2fa178351","system_id":"levelo_inurba_marseille","lat":43.284534,"lon":5.358662,"is_reserved":false,"is_disabled":false,"rental_uris":{"android":"levelo://app?vid=c0423800-d64a-42fc-a9ff-75b2fa178351","ios":"levelo://app?vid=c0423800-d64a-42fc-a9ff-75b2fa178351"},"vehicle_type_id":"4","last_reported":1702415179,"current_range_meters":22400,"station_id":"ce4bhah2rcd13ifvqei0","pricing_plan_id":"free"},{"bike_id":"ede71824-9da8-4181-acae-1396526ab063","system_id":"levelo_inurba_marseille","lat":43.284538,"lon":5.358657,"is_reserved":false,"is_disabled":false,"rental_uris":{"android":"levelo://app?vid=ede71824-9da8-4181-acae-1396526ab063","ios":"levelo://app?vid=ede71824-9da8-4181-acae-1396526ab063"},"vehicle_type_id":"4","last_reported":1702415179,"current_range_meters":24000,"station_id":"ce4bhah2rcd13ifvqei0","pricing_plan_id":"free"},{"bike_id":"f9e78213-6b52-42ac-8b27-c72d0754bdcc","system_id":"levelo_inurba_marseille","lat":43.284538,"lon":5.358657,"is_reserved":false,"is_disabled":false,"rental_uris":{"android":"levelo://app?vid=f9e78213-6b52-42ac-8b27-c72d0754bdcc","ios":"levelo://app?vid=f9e78213-6b52-42ac-8b27-c72d0754bdcc"},"vehicle_type_id":"4","last_reported":1702415179,"current_range_meters":23600,"station_id":"ce4bhah2rcd13ifvqei0","pricing_plan_id":"free"},{"bike_id":"ebcc1118-b3b9-45eb-b9f8-7456bed9b49f","system_id":"levelo_inurba_marseille","lat":43.284538,"lon":5.358657,"is_reserved":false,"is_disabled":false,"rental_uris":{"android":"levelo://app?vid=ebcc1118-b3b9-45eb-b9f8-7456bed9b49f","ios":"levelo://app?vid=ebcc1118-b3b9-45eb-b9f8-7456bed9b49f"},"vehicle_type_id":"4","last_reported":1702415179,"current_range_meters":13600,"station_id":"ce4bhah2rcd13ifvqei0","pricing_plan_id":"free"},{"bike_id":"230db383-e6ae-46e1-a0d2-8ff3a3a4cff4","system_id":"levelo_inurba_marseille","lat":43.284534,"lon":5.358662,"is_reserved":false,"is_disabled":false,"rental_uris":{"android":"levelo://app?vid=230db383-e6ae-46e1-a0d2-8ff3a3a4cff4","ios":"levelo://app?vid=230db383-e6ae-46e1-a0d2-8ff3a3a4cff4"},"vehicle_type_id":"4","last_reported":1702415179,"current_range_meters":1200,"station_id":"ce4bhah2rcd13ifvqei0","pricing_plan_id":"free"},{"bike_id":"f26bb3fb-3e31-4648-bf0a-dc376d6777c3","system_id":"levelo_inurba_marseille","lat":43.294314,"lon":5.397498,"is_reserved":false,"is_disabled":false,"rental_uris":{"android":"levelo://app?vid=f26bb3fb-3e31-4648-bf0a-dc376d6777c3","ios":"levelo://app?vid=f26bb3fb-3e31-4648-bf0a-dc376d6777c3"},"vehicle_type_id":"4","last_reported":1702415179,"current_range_meters":25600,"station_id":"ce4bh3h2rcd13ifvqdo0","pricing_plan_id":"free"},{"bike_id":"cc64d4e0-4992-4102-9019-9d51befddcdb","system_id":"levelo_inurba_marseille","lat":43.285856,"lon":5.350771,"is_reserved":false,"is_disabled":false,"rental_uris":{"android":"levelo://app?vid=cc64d4e0-4992-4102-9019-9d51befddcdb","ios":"levelo://app?vid=cc64d4e0-4992-4102-9019-9d51befddcdb"},"vehicle_type_id":"4","last_reported":1702415179,"current_range_meters":16800,"station_id":"ce4bhch2rcd13ifvqeug","pricing_plan_id":"free"},{"bike_id":"cf7ca54e-9bb8-433e-bc71-ca5915cdee40","system_id":"levelo_inurba_marseille","lat":43.323464,"lon":5.406297,"is_reserved":false,"is_disabled":false,"rental_uris":{"android":"levelo://app?vid=cf7ca54e-9bb8-433e-bc71-ca5915cdee40","ios":"levelo://app?vid=cf7ca54e-9bb8-433e-bc71-ca5915cdee40"},"vehicle_type_id":"4","last_reported":1702415179,"current_range_meters":28000,"station_id":"ce4bhq92rcd13ifvqhjg","pricing_plan_id":"free"},{"bike_id":"387644c3-5109-49f9-867c-b6187f8c7043","system_id":"levelo_inurba_marseille","lat":43.323464,"lon":5.406297,"is_reserved":false,"is_disabled":false,"rental_uris":{"android":"levelo://app?vid=387644c3-5109-49f9-867c-b6187f8c7043","ios":"levelo://app?vid=387644c3-5109-49f9-867c-b6187f8c7043"},"vehicle_type_id":"4","last_reported":1702415179,"current_range_meters":26800,"station_id":"ce4bhq92rcd13ifvqhjg","pricing_plan_id":"free"},{"bike_id":"a49c5c64-bff0-47bf-af2c-aa258506df4f","system_id":"levelo_inurba_marseille","lat":43.323464,"lon":5.406297,"is_reserved":false,"is_disabled":false,"rental_uris":{"android":"levelo://app?vid=a49c5c64-bff0-47bf-af2c-aa258506df4f","ios":"levelo://app?vid=a49c5c64-bff0-47bf-af2c-aa258506df4f"},"vehicle_type_id":"4","last_reported":1702415179,"current_range_meters":30800,"station_id":"ce4bhq92rcd13ifvqhjg","pricing_plan_id":"free"},{"bike_id":"2931331c-7f33-41f0-b26c-61e107adc9dd","system_id":"levelo_inurba_marseille","lat":43.284217,"lon":5.349697,"is_reserved":false,"is_disabled":false,"rental_uris":{"android":"levelo://app?vid=2931331c-7f33-41f0-b26c-61e107adc9dd","ios":"levelo://app?vid=2931331c-7f33-41f0-b26c-61e107adc9dd"},"vehicle_type_id":"4","last_reported":1702415179,"current_range_meters":24000,"station_id":"ce4bhbh2rcd13ifvqepg","pricing_plan_id":"free"},{"bike_id":"37d6cc14-8447-4ddc-9d0c-1dbef6bfd9e4","system_id":"levelo_inurba_marseille","lat":43.282754,"lon":5.350519,"is_reserved":false,"is_disabled":false,"rental_uris":{"android":"levelo://app?vid=37d6cc14-8447-4ddc-9d0c-1dbef6bfd9e4","ios":"levelo://app?vid=37d6cc14-8447-4ddc-9d0c-1dbef6bfd9e4"},"vehicle_type_id":"4","last_reported":1702415179,"current_range_meters":4800,"station_id":"ce4bhbp2rcd13ifvqerg","pricing_plan_id":"free"},{"bike_id":"65aceb1a-e463-49e3-ae69-c978f007eb63","system_id":"levelo_inurba_marseille","lat":43.282754,"lon":5.350519,"is_reserved":false,"is_disabled":false,"rental_uris":{"android":"levelo://app?vid=65aceb1a-e463-49e3-ae69-c978f007eb63","ios":"levelo://app?vid=65aceb1a-e463-49e3-ae69-c978f007eb63"},"vehicle_type_id":"4","last_reported":1702415179,"current_range_meters":10400,"station_id":"ce4bhbp2rcd13ifvqerg","pricing_plan_id":"free"},{"bike_id":"62cfb8d1-1b28-4848-a4f8-45d559b3ac4b","system_id":"levelo_inurba_marseille","lat":43.2804,"lon":5.36942,"is_reserved":false,"is_disabled":false,"rental_uris":{"android":"levelo://app?vid=62cfb8d1-1b28-4848-a4f8-45d559b3ac4b","ios":"levelo://app?vid=62cfb8d1-1b28-4848-a4f8-45d559b3ac4b"},"vehicle_type_id":"4","last_reported":1702415179,"current_range_meters":1200,"station_id":"ce4bha12rcd13ifvqef0","pricing_plan_id":"free"},{"bike_id":"af0631cd-ba31-474c-9e7e-6b0fa8ba9b9e","system_id":"levelo_inurba_marseille","lat":43.28039,"lon":5.369297,"is_reserved":false,"is_disabled":false,"rental_uris":{"android":"levelo://app?vid=af0631cd-ba31-474c-9e7e-6b0fa8ba9b9e","ios":"levelo://app?vid=af0631cd-ba31-474c-9e7e-6b0fa8ba9b9e"},"vehicle_type_id":"4","last_reported":1702415179,"current_range_meters":14400,"station_id":"ce4bha12rcd13ifvqef0","pricing_plan_id":"free"},{"bike_id":"3835d326-5a9f-480b-aac3-17abfdac3aed","system_id":"levelo_inurba_marseille","lat":43.280382,"lon":5.369291,"is_reserved":false,"is_disabled":false,"rental_uris":{"android":"levelo://app?vid=3835d326-5a9f-480b-aac3-17abfdac3aed","ios":"levelo://app?vid=3835d326-5a9f-480b-aac3-17abfdac3aed"},"vehicle_type_id":"4","last_reported":1702415179,"current_range_meters":26400,"station_id":"ce4bha12rcd13ifvqef0","pricing_plan_id":"free"},{"bike_id":"86289d51-7d85-4546-98f4-64f34071095a","system_id":"levelo_inurba_marseille","lat":43.285742,"lon":5.395004,"is_reserved":false,"is_disabled":false,"rental_uris":{"android":"levelo://app?vid=86289d51-7d85-4546-98f4-64f34071095a","ios":"levelo://app?vid=86289d51-7d85-4546-98f4-64f34071095a"},"vehicle_type_id":"4","last_reported":1702415179,"current_range_meters":4800,"station_id":"ce4bh292rcd13ifvqdg0","pricing_plan_id":"free"},{"bike_id":"7f851180-ab1c-4027-b43e-91f0c037d59d","system_id":"levelo_inurba_marseille","lat":43.285742,"lon":5.395004,"is_reserved":false,"is_disabled":false,"rental_uris":{"android":"levelo://app?vid=7f851180-ab1c-4027-b43e-91f0c037d59d","ios":"levelo://app?vid=7f851180-ab1c-4027-b43e-91f0c037d59d"},"vehicle_type_id":"4","last_reported":1702415179,"current_range_meters":16400,"station_id":"ce4bh292rcd13ifvqdg0","pricing_plan_id":"free"},{"bike_id":"8284e565-c710-487b-a661-5680f880d33d","system_id":"levelo_inurba_marseille","lat":43.285742,"lon":5.395004,"is_reserved":false,"is_disabled":false,"rental_uris":{"android":"levelo://app?vid=8284e565-c710-487b-a661-5680f880d33d","ios":"levelo://app?vid=8284e565-c710-487b-a661-5680f880d33d"},"vehicle_type_id":"4","last_reported":1702415179,"current_range_meters":5600,"station_id":"ce4bh292rcd13ifvqdg0","pricing_plan_id":"free"},{"bike_id":"e21ef52f-fc74-4e55-8fa5-2e4068d1c8ad","system_id":"levelo_inurba_marseille","lat":43.326605,"lon":5.409903,"is_reserved":false,"is_disabled":false,"rental_uris":{"android":"levelo://app?vid=e21ef52f-fc74-4e55-8fa5-2e4068d1c8ad","ios":"levelo://app?vid=e21ef52f-fc74-4e55-8fa5-2e4068d1c8ad"},"vehicle_type_id":"4","last_reported":1702415179,"current_range_meters":26800,"station_id":"ce4bhpp2rcd13ifvqhgg","pricing_plan_id":"free"},{"bike_id":"aa696b50-ef7f-4e76-baad-1d20cd652501","system_id":"levelo_inurba_marseille","lat":43.304188,"lon":5.412904,"is_reserved":false,"is_disabled":false,"rental_uris":{"android":"levelo://app?vid=aa696b50-ef7f-4e76-baad-1d20cd652501","ios":"levelo://app?vid=aa696b50-ef7f-4e76-baad-1d20cd652501"},"vehicle_type_id":"4","last_reported":1702415179,"current_range_meters":15600,"station_id":"ce4bhop2rcd13ifvqh8g","pricing_plan_id":"free"},{"bike_id":"7cc049a9-b61f-4da8-8e5c-bbfd7488b03a","system_id":"levelo_inurba_marseille","lat":43.287154,"lon":5.399979,"is_reserved":false,"is_disabled":false,"rental_uris":{"android":"levelo://app?vid=7cc049a9-b61f-4da8-8e5c-bbfd7488b03a","ios":"levelo://app?vid=7cc049a9-b61f-4da8-8e5c-bbfd7488b03a"},"vehicle_type_id":"4","last_reported":1702415179,"current_range_meters":7200,"station_id":"ce4bho92rcd13ifvqh3g","pricing_plan_id":"free"},{"bike_id":"ff0fca49-10b9-4827-b99b-e22733a24426","system_id":"levelo_inurba_marseille","lat":43.287154,"lon":5.399979,"is_reserved":false,"is_disabled":false,"rental_uris":{"android":"levelo://app?vid=ff0fca49-10b9-4827-b99b-e22733a24426","ios":"levelo://app?vid=ff0fca49-10b9-4827-b99b-e22733a24426"},"vehicle_type_id":"4","last_reported":1702415179,"current_range_meters":30400,"station_id":"ce4bho92rcd13ifvqh3g","pricing_plan_id":"free"},{"bike_id":"79c1f618-80d3-4ca3-9724-b954195176e1","system_id":"levelo_inurba_marseille","lat":43.287154,"lon":5.399979,"is_reserved":false,"is_disabled":false,"rental_uris":{"android":"levelo://app?vid=79c1f618-80d3-4ca3-9724-b954195176e1","ios":"levelo://app?vid=79c1f618-80d3-4ca3-9724-b954195176e1"},"vehicle_type_id":"4","last_reported":1702415179,"current_range_meters":32000,"station_id":"ce4bho92rcd13ifvqh3g","pricing_plan_id":"free"},{"bike_id":"d7926ed0-32d6-4847-9324-9092e1a6f267","system_id":"levelo_inurba_marseille","lat":43.287154,"lon":5.399979,"is_reserved":false,"is_disabled":false,"rental_uris":{"android":"levelo://app?vid=d7926ed0-32d6-4847-9324-9092e1a6f267","ios":"levelo://app?vid=d7926ed0-32d6-4847-9324-9092e1a6f267"},"vehicle_type_id":"4","last_reported":1702415179,"current_range_meters":12000,"station_id":"ce4bho92rcd13ifvqh3g","pricing_plan_id":"free"},{"bike_id":"78921ecb-6ae2-45db-8757-2749a19ccde3","system_id":"levelo_inurba_marseille","lat":43.279742,"lon":5.38744,"is_reserved":false,"is_disabled":false,"rental_uris":{"android":"levelo://app?vid=78921ecb-6ae2-45db-8757-2749a19ccde3","ios":"levelo://app?vid=78921ecb-6ae2-45db-8757-2749a19ccde3"},"vehicle_type_id":"4","last_reported":1702415179,"current_range_meters":30000,"station_id":"ce4bhg12rcd13ifvqf80","pricing_plan_id":"free"},{"bike_id":"dd25e155-3199-4e78-909d-c7fde2851763","system_id":"levelo_inurba_marseille","lat":43.292571,"lon":5.409107,"is_reserved":false,"is_disabled":false,"rental_uris":{"android":"levelo://app?vid=dd25e155-3199-4e78-909d-c7fde2851763","ios":"levelo://app?vid=dd25e155-3199-4e78-909d-c7fde2851763"},"vehicle_type_id":"4","last_reported":1702415179,"current_range_meters":23200,"station_id":"ce4bh192rcd13ifvqdc0","pricing_plan_id":"free"},{"bike_id":"6c58522e-ceac-401b-9b3f-91bf175acac3","system_id":"levelo_inurba_marseille","lat":43.292569,"lon":5.409107,"is_reserved":false,"is_disabled":false,"rental_uris":{"android":"levelo://app?vid=6c58522e-ceac-401b-9b3f-91bf175acac3","ios":"levelo://app?vid=6c58522e-ceac-401b-9b3f-91bf175acac3"},"vehicle_type_id":"4","last_reported":1702415179,"current_range_meters":6000,"station_id":"ce4bh192rcd13ifvqdc0","pricing_plan_id":"free"},{"bike_id":"5d9259c6-7940-4e8b-96ab-1a1c252f0c8a","system_id":"levelo_inurba_marseille","lat":43.292569,"lon":5.409107,"is_reserved":false,"is_disabled":false,"rental_uris":{"android":"levelo://app?vid=5d9259c6-7940-4e8b-96ab-1a1c252f0c8a","ios":"levelo://app?vid=5d9259c6-7940-4e8b-96ab-1a1c252f0c8a"},"vehicle_type_id":"4","last_reported":1702415179,"current_range_meters":5600,"station_id":"ce4bh192rcd13ifvqdc0","pricing_plan_id":"free"},{"bike_id":"27f15ae5-cf2c-491e-98c2-fc384fde3dc3","system_id":"levelo_inurba_marseille","lat":43.27618,"lon":5.361009,"is_reserved":false,"is_disabled":false,"rental_uris":{"android":"levelo://app?vid=27f15ae5-cf2c-491e-98c2-fc384fde3dc3","ios":"levelo://app?vid=27f15ae5-cf2c-491e-98c2-fc384fde3dc3"},"vehicle_type_id":"4","last_reported":1702415179,"current_range_meters":23600,"station_id":"ce4bgj92rcd13ifvqbe0","pricing_plan_id":"free"},{"bike_id":"81ee97aa-ae91-473a-b413-74f9ea0f4351","system_id":"levelo_inurba_marseille","lat":43.27617,"lon":5.36107,"is_reserved":false,"is_disabled":false,"rental_uris":{"android":"levelo://app?vid=81ee97aa-ae91-473a-b413-74f9ea0f4351","ios":"levelo://app?vid=81ee97aa-ae91-473a-b413-74f9ea0f4351"},"vehicle_type_id":"4","last_reported":1702415179,"current_range_meters":14000,"station_id":"ce4bgj92rcd13ifvqbe0","pricing_plan_id":"free"},{"bike_id":"ebd4b39a-ef57-416e-bbb3-81ad5226b5eb","system_id":"levelo_inurba_marseille","lat":43.28081,"lon":5.3966,"is_reserved":false,"is_disabled":false,"rental_uris":{"android":"levelo://app?vid=ebd4b39a-ef57-416e-bbb3-81ad5226b5eb","ios":"levelo://app?vid=ebd4b39a-ef57-416e-bbb3-81ad5226b5eb"},"vehicle_type_id":"4","last_reported":1702415179,"current_range_meters":0,"station_id":"ce4bho12rcd13ifvqh2g","pricing_plan_id":"free"},{"bike_id":"a0d227e6-62ba-4197-a9b9-510c67e20c76","system_id":"levelo_inurba_marseille","lat":43.280784,"lon":5.396622,"is_reserved":false,"is_disabled":false,"rental_uris":{"android":"levelo://app?vid=a0d227e6-62ba-4197-a9b9-510c67e20c76","ios":"levelo://app?vid=a0d227e6-62ba-4197-a9b9-510c67e20c76"},"vehicle_type_id":"4","last_reported":1702415179,"current_range_meters":24800,"station_id":"ce4bho12rcd13ifvqh2g","pricing_plan_id":"free"},{"bike_id":"5ea461d9-094a-471f-aaac-c3d7bb4e6775","system_id":"levelo_inurba_marseille","lat":43.280784,"lon":5.396622,"is_reserved":false,"is_disabled":false,"rental_uris":{"android":"levelo://app?vid=5ea461d9-094a-471f-aaac-c3d7bb4e6775","ios":"levelo://app?vid=5ea461d9-094a-471f-aaac-c3d7bb4e6775"},"vehicle_type_id":"4","last_reported":1702415179,"current_range_meters":6000,"station_id":"ce4bho12rcd13ifvqh2g","pricing_plan_id":"free"},{"bike_id":"04541a06-2e9b-4fcd-96d4-af47f4269871","system_id":"levelo_inurba_marseille","lat":43.280784,"lon":5.396622,"is_reserved":false,"is_disabled":false,"rental_uris":{"android":"levelo://app?vid=04541a06-2e9b-4fcd-96d4-af47f4269871","ios":"levelo://app?vid=04541a06-2e9b-4fcd-96d4-af47f4269871"},"vehicle_type_id":"4","last_reported":1702415179,"current_range_meters":26800,"station_id":"ce4bho12rcd13ifvqh2g","pricing_plan_id":"free"},{"bike_id":"7efad1da-02f5-4d3a-bc1f-166af404abd3","system_id":"levelo_inurba_marseille","lat":43.303837,"lon":5.418724,"is_reserved":false,"is_disabled":false,"rental_uris":{"android":"levelo://app?vid=7efad1da-02f5-4d3a-bc1f-166af404abd3","ios":"levelo://app?vid=7efad1da-02f5-4d3a-bc1f-166af404abd3"},"vehicle_type_id":"4","last_reported":1702415179,"current_range_meters":28000,"station_id":"ce4bhop2rcd13ifvqh7g","pricing_plan_id":"free"},{"bike_id":"b1d31a80-70d5-438e-ac3b-02581ad7399e","system_id":"levelo_inurba_marseille","lat":43.303837,"lon":5.418724,"is_reserved":false,"is_disabled":false,"rental_uris":{"android":"levelo://app?vid=b1d31a80-70d5-438e-ac3b-02581ad7399e","ios":"levelo://app?vid=b1d31a80-70d5-438e-ac3b-02581ad7399e"},"vehicle_type_id":"4","last_reported":1702415179,"current_range_meters":28800,"station_id":"ce4bhop2rcd13ifvqh7g","pricing_plan_id":"free"},{"bike_id":"a1f57e5b-2827-4c8a-afba-8d4b4dc8bb5e","system_id":"levelo_inurba_marseille","lat":43.278401,"lon":5.392152,"is_reserved":false,"is_disabled":false,"rental_uris":{"android":"levelo://app?vid=a1f57e5b-2827-4c8a-afba-8d4b4dc8bb5e","ios":"levelo://app?vid=a1f57e5b-2827-4c8a-afba-8d4b4dc8bb5e"},"vehicle_type_id":"4","last_reported":1702415179,"current_range_meters":14000,"station_id":"ce4bhjp2rcd13ifvqga0","pricing_plan_id":"free"},{"bike_id":"b5d88297-bc8f-4b90-8b42-c4c67f6a7aa9","system_id":"levelo_inurba_marseille","lat":43.278401,"lon":5.392152,"is_reserved":false,"is_disabled":false,"rental_uris":{"android":"levelo://app?vid=b5d88297-bc8f-4b90-8b42-c4c67f6a7aa9","ios":"levelo://app?vid=b5d88297-bc8f-4b90-8b42-c4c67f6a7aa9"},"vehicle_type_id":"4","last_reported":1702415179,"current_range_meters":6800,"station_id":"ce4bhjp2rcd13ifvqga0","pricing_plan_id":"free"},{"bike_id":"67a4892a-eefc-43e0-94e3-3f8be94468e9","system_id":"levelo_inurba_marseille","lat":43.273609,"lon":5.362708,"is_reserved":false,"is_disabled":false,"rental_uris":{"android":"levelo://app?vid=67a4892a-eefc-43e0-94e3-3f8be94468e9","ios":"levelo://app?vid=67a4892a-eefc-43e0-94e3-3f8be94468e9"},"vehicle_type_id":"4","last_reported":1702415179,"current_range_meters":26400,"station_id":"ce4bhbh2rcd13ifvqeo0","pricing_plan_id":"free"},{"bike_id":"905559d4-9eff-48bc-a681-7d0e3fd2b94a","system_id":"levelo_inurba_marseille","lat":43.275625,"lon":5.384392,"is_reserved":false,"is_disabled":false,"rental_uris":{"android":"levelo://app?vid=905559d4-9eff-48bc-a681-7d0e3fd2b94a","ios":"levelo://app?vid=905559d4-9eff-48bc-a681-7d0e3fd2b94a"},"vehicle_type_id":"4","last_reported":1702415179,"current_range_meters":23600,"station_id":"ce4bhh92rcd13ifvqfi0","pricing_plan_id":"free"},{"bike_id":"40221589-3415-4339-883a-46458a0ce18f","system_id":"levelo_inurba_marseille","lat":43.279952,"lon":5.400085,"is_reserved":false,"is_disabled":false,"rental_uris":{"android":"levelo://app?vid=40221589-3415-4339-883a-46458a0ce18f","ios":"levelo://app?vid=40221589-3415-4339-883a-46458a0ce18f"},"vehicle_type_id":"4","last_reported":1702415179,"current_range_meters":12800,"station_id":"ce4bho92rcd13ifvqh4g","pricing_plan_id":"free"},{"bike_id":"d4f33ce9-27ee-4db6-a579-5c607fcf8ec7","system_id":"levelo_inurba_marseille","lat":43.279952,"lon":5.400085,"is_reserved":false,"is_disabled":false,"rental_uris":{"android":"levelo://app?vid=d4f33ce9-27ee-4db6-a579-5c607fcf8ec7","ios":"levelo://app?vid=d4f33ce9-27ee-4db6-a579-5c607fcf8ec7"},"vehicle_type_id":"4","last_reported":1702415179,"current_range_meters":26000,"station_id":"ce4bho92rcd13ifvqh4g","pricing_plan_id":"free"},{"bike_id":"f8f6e64f-882d-46b7-8a20-463d58111728","system_id":"levelo_inurba_marseille","lat":43.279975,"lon":5.40009,"is_reserved":false,"is_disabled":false,"rental_uris":{"android":"levelo://app?vid=f8f6e64f-882d-46b7-8a20-463d58111728","ios":"levelo://app?vid=f8f6e64f-882d-46b7-8a20-463d58111728"},"vehicle_type_id":"4","last_reported":1702415179,"current_range_meters":0,"station_id":"ce4bho92rcd13ifvqh4g","pricing_plan_id":"free"},{"bike_id":"60d14e17-ede4-4c9e-966c-3f04c8e42a8b","system_id":"levelo_inurba_marseille","lat":43.310785,"lon":5.424305,"is_reserved":false,"is_disabled":false,"rental_uris":{"android":"levelo://app?vid=60d14e17-ede4-4c9e-966c-3f04c8e42a8b","ios":"levelo://app?vid=60d14e17-ede4-4c9e-966c-3f04c8e42a8b"},"vehicle_type_id":"4","last_reported":1702415179,"current_range_meters":8800,"station_id":"ce4bhp92rcd13ifvqhag","pricing_plan_id":"free"},{"bike_id":"1d5ae7fc-d788-4e3b-9e50-c093618912d7","system_id":"levelo_inurba_marseille","lat":43.310785,"lon":5.424305,"is_reserved":false,"is_disabled":false,"rental_uris":{"android":"levelo://app?vid=1d5ae7fc-d788-4e3b-9e50-c093618912d7","ios":"levelo://app?vid=1d5ae7fc-d788-4e3b-9e50-c093618912d7"},"vehicle_type_id":"4","last_reported":1702415179,"current_range_meters":25600,"station_id":"ce4bhp92rcd13ifvqhag","pricing_plan_id":"free"},{"bike_id":"e15fcb76-150b-4e94-ba14-1765fbabad44","system_id":"levelo_inurba_marseille","lat":43.310785,"lon":5.424305,"is_reserved":false,"is_disabled":false,"rental_uris":{"android":"levelo://app?vid=e15fcb76-150b-4e94-ba14-1765fbabad44","ios":"levelo://app?vid=e15fcb76-150b-4e94-ba14-1765fbabad44"},"vehicle_type_id":"4","last_reported":1702415179,"current_range_meters":31200,"station_id":"ce4bhp92rcd13ifvqhag","pricing_plan_id":"free"},{"bike_id":"b1c028eb-0fe1-4afa-b35c-b9783a0e9537","system_id":"levelo_inurba_marseille","lat":43.31723,"lon":5.42405,"is_reserved":false,"is_disabled":false,"rental_uris":{"android":"levelo://app?vid=b1c028eb-0fe1-4afa-b35c-b9783a0e9537","ios":"levelo://app?vid=b1c028eb-0fe1-4afa-b35c-b9783a0e9537"},"vehicle_type_id":"4","last_reported":1702415179,"current_range_meters":4400,"station_id":"ce4bhp92rcd13ifvqhbg","pricing_plan_id":"free"},{"bike_id":"ad0ede87-306b-4852-825a-b81cfa83c91b","system_id":"levelo_inurba_marseille","lat":43.340804,"lon":5.410219,"is_reserved":false,"is_disabled":false,"rental_uris":{"android":"levelo://app?vid=ad0ede87-306b-4852-825a-b81cfa83c91b","ios":"levelo://app?vid=ad0ede87-306b-4852-825a-b81cfa83c91b"},"vehicle_type_id":"4","last_reported":1702415179,"current_range_meters":16000,"station_id":"ce4bhqh2rcd13ifvqhlg","pricing_plan_id":"free"},{"bike_id":"88f6ede8-3ab4-4bc7-8cc5-327c4da929e8","system_id":"levelo_inurba_marseille","lat":43.278128,"lon":5.407195,"is_reserved":false,"is_disabled":false,"rental_uris":{"android":"levelo://app?vid=88f6ede8-3ab4-4bc7-8cc5-327c4da929e8","ios":"levelo://app?vid=88f6ede8-3ab4-4bc7-8cc5-327c4da929e8"},"vehicle_type_id":"4","last_reported":1702415179,"current_range_meters":2000,"station_id":"ce4bhnh2rcd13ifvqgtg","pricing_plan_id":"free"},{"bike_id":"23a430f3-1b21-42da-9969-976a02037df0","system_id":"levelo_inurba_marseille","lat":43.278128,"lon":5.407195,"is_reserved":false,"is_disabled":false,"rental_uris":{"android":"levelo://app?vid=23a430f3-1b21-42da-9969-976a02037df0","ios":"levelo://app?vid=23a430f3-1b21-42da-9969-976a02037df0"},"vehicle_type_id":"4","last_reported":1702415179,"current_range_meters":1600,"station_id":"ce4bhnh2rcd13ifvqgtg","pricing_plan_id":"free"},{"bike_id":"33566000-1e76-439c-bafd-e73bc3e16c5f","system_id":"levelo_inurba_marseille","lat":43.279465,"lon":5.410561,"is_reserved":false,"is_disabled":false,"rental_uris":{"android":"levelo://app?vid=33566000-1e76-439c-bafd-e73bc3e16c5f","ios":"levelo://app?vid=33566000-1e76-439c-bafd-e73bc3e16c5f"},"vehicle_type_id":"4","last_reported":1702415179,"current_range_meters":0,"station_id":"ce4bhnp2rcd13ifvqh0g","pricing_plan_id":"free"},{"bike_id":"0d642a10-029c-4788-b70d-958e6d670b6a","system_id":"levelo_inurba_marseille","lat":43.27939,"lon":5.41053,"is_reserved":false,"is_disabled":false,"rental_uris":{"android":"levelo://app?vid=0d642a10-029c-4788-b70d-958e6d670b6a","ios":"levelo://app?vid=0d642a10-029c-4788-b70d-958e6d670b6a"},"vehicle_type_id":"4","last_reported":1702415179,"current_range_meters":0,"station_id":"ce4bhnp2rcd13ifvqh0g","pricing_plan_id":"free"},{"bike_id":"91a8e291-b9fc-48e5-ab7f-31589c700097","system_id":"levelo_inurba_marseille","lat":43.279465,"lon":5.410561,"is_reserved":false,"is_disabled":false,"rental_uris":{"android":"levelo://app?vid=91a8e291-b9fc-48e5-ab7f-31589c700097","ios":"levelo://app?vid=91a8e291-b9fc-48e5-ab7f-31589c700097"},"vehicle_type_id":"4","last_reported":1702415179,"current_range_meters":15600,"station_id":"ce4bhnp2rcd13ifvqh0g","pricing_plan_id":"free"},{"bike_id":"4aa9640e-67cd-4cc9-a003-3e6c2c7ba207","system_id":"levelo_inurba_marseille","lat":43.26681,"lon":5.382694,"is_reserved":false,"is_disabled":false,"rental_uris":{"android":"levelo://app?vid=4aa9640e-67cd-4cc9-a003-3e6c2c7ba207","ios":"levelo://app?vid=4aa9640e-67cd-4cc9-a003-3e6c2c7ba207"},"vehicle_type_id":"4","last_reported":1702415179,"current_range_meters":3200,"station_id":"ce4bhg92rcd13ifvqf90","pricing_plan_id":"free"},{"bike_id":"d7a6c85d-a811-4fa8-800a-8c7d7fbad1e5","system_id":"levelo_inurba_marseille","lat":43.26874,"lon":5.397147,"is_reserved":false,"is_disabled":false,"rental_uris":{"android":"levelo://app?vid=d7a6c85d-a811-4fa8-800a-8c7d7fbad1e5","ios":"levelo://app?vid=d7a6c85d-a811-4fa8-800a-8c7d7fbad1e5"},"vehicle_type_id":"4","last_reported":1702415179,"current_range_meters":0,"station_id":"","pricing_plan_id":"free"},{"bike_id":"7d0b0b8c-d611-4443-9015-d9de7d6b8fed","system_id":"levelo_inurba_marseille","lat":43.307991,"lon":5.435159,"is_reserved":false,"is_disabled":false,"rental_uris":{"android":"levelo://app?vid=7d0b0b8c-d611-4443-9015-d9de7d6b8fed","ios":"levelo://app?vid=7d0b0b8c-d611-4443-9015-d9de7d6b8fed"},"vehicle_type_id":"4","last_reported":1702415179,"current_range_meters":0,"station_id":"ce4bhph2rcd13ifvqheg","pricing_plan_id":"free"},{"bike_id":"4ac8fae6-f063-4741-8de6-271d813b1ae1","system_id":"levelo_inurba_marseille","lat":43.308051,"lon":5.43527,"is_reserved":false,"is_disabled":false,"rental_uris":{"android":"levelo://app?vid=4ac8fae6-f063-4741-8de6-271d813b1ae1","ios":"levelo://app?vid=4ac8fae6-f063-4741-8de6-271d813b1ae1"},"vehicle_type_id":"4","last_reported":1702415179,"current_range_meters":15200,"station_id":"ce4bhph2rcd13ifvqheg","pricing_plan_id":"free"},{"bike_id":"14bc19f9-c5ac-4814-b202-5604c65f25d1","system_id":"levelo_inurba_marseille","lat":43.307976,"lon":5.435249,"is_reserved":false,"is_disabled":false,"rental_uris":{"android":"levelo://app?vid=14bc19f9-c5ac-4814-b202-5604c65f25d1","ios":"levelo://app?vid=14bc19f9-c5ac-4814-b202-5604c65f25d1"},"vehicle_type_id":"4","last_reported":1702415179,"current_range_meters":16000,"station_id":"ce4bhph2rcd13ifvqheg","pricing_plan_id":"free"},{"bike_id":"7b55d306-2871-4eea-a8f0-c1498403b888","system_id":"levelo_inurba_marseille","lat":43.308051,"lon":5.43527,"is_reserved":false,"is_disabled":false,"rental_uris":{"android":"levelo://app?vid=7b55d306-2871-4eea-a8f0-c1498403b888","ios":"levelo://app?vid=7b55d306-2871-4eea-a8f0-c1498403b888"},"vehicle_type_id":"4","last_reported":1702415179,"current_range_meters":30000,"station_id":"ce4bhph2rcd13ifvqheg","pricing_plan_id":"free"},{"bike_id":"8e6fe0f2-0dbf-46a8-afbc-76c7982175b3","system_id":"levelo_inurba_marseille","lat":43.26949,"lon":5.40262,"is_reserved":false,"is_disabled":false,"rental_uris":{"android":"levelo://app?vid=8e6fe0f2-0dbf-46a8-afbc-76c7982175b3","ios":"levelo://app?vid=8e6fe0f2-0dbf-46a8-afbc-76c7982175b3"},"vehicle_type_id":"4","last_reported":1702415179,"current_range_meters":11600,"station_id":"cjm6bp8fraef2m0cb0m0","pricing_plan_id":"free"},{"bike_id":"f9ab312c-c33c-4080-a02b-9d1ec7e8b42d","system_id":"levelo_inurba_marseille","lat":43.261782,"lon":5.374515,"is_reserved":false,"is_disabled":false,"rental_uris":{"android":"levelo://app?vid=f9ab312c-c33c-4080-a02b-9d1ec7e8b42d","ios":"levelo://app?vid=f9ab312c-c33c-4080-a02b-9d1ec7e8b42d"},"vehicle_type_id":"4","last_reported":1702415179,"current_range_meters":1200,"station_id":"ce4bhgp2rcd13ifvqfc0","pricing_plan_id":"free"},{"bike_id":"2d5995c6-f07c-4be4-b1ce-07610b76bbd1","system_id":"levelo_inurba_marseille","lat":43.261782,"lon":5.374515,"is_reserved":false,"is_disabled":false,"rental_uris":{"android":"levelo://app?vid=2d5995c6-f07c-4be4-b1ce-07610b76bbd1","ios":"levelo://app?vid=2d5995c6-f07c-4be4-b1ce-07610b76bbd1"},"vehicle_type_id":"4","last_reported":1702415179,"current_range_meters":15200,"station_id":"ce4bhgp2rcd13ifvqfc0","pricing_plan_id":"free"},{"bike_id":"7010811e-5d6a-4506-8f86-a2839f396acc","system_id":"levelo_inurba_marseille","lat":43.26202,"lon":5.379299,"is_reserved":false,"is_disabled":false,"rental_uris":{"android":"levelo://app?vid=7010811e-5d6a-4506-8f86-a2839f396acc","ios":"levelo://app?vid=7010811e-5d6a-4506-8f86-a2839f396acc"},"vehicle_type_id":"4","last_reported":1702415179,"current_range_meters":30000,"station_id":"ce4bhjp2rcd13ifvqg90","pricing_plan_id":"free"},{"bike_id":"8f80214e-e1c1-46b3-9da9-edf63e6d20c7","system_id":"levelo_inurba_marseille","lat":43.271368,"lon":5.40928,"is_reserved":false,"is_disabled":false,"rental_uris":{"android":"levelo://app?vid=8f80214e-e1c1-46b3-9da9-edf63e6d20c7","ios":"levelo://app?vid=8f80214e-e1c1-46b3-9da9-edf63e6d20c7"},"vehicle_type_id":"4","last_reported":1702415179,"current_range_meters":10000,"station_id":"ce4bhl12rcd13ifvqgf0","pricing_plan_id":"free"},{"bike_id":"04c919dd-cf3b-4de8-b939-b2c157c66fb0","system_id":"levelo_inurba_marseille","lat":43.267959,"lon":5.402685,"is_reserved":false,"is_disabled":false,"rental_uris":{"android":"levelo://app?vid=04c919dd-cf3b-4de8-b939-b2c157c66fb0","ios":"levelo://app?vid=04c919dd-cf3b-4de8-b939-b2c157c66fb0"},"vehicle_type_id":"4","last_reported":1702415179,"current_range_meters":7600,"station_id":"ce501612rcd8frsf0b60","pricing_plan_id":"free"},{"bike_id":"0a4bb84d-ad01-4337-a2be-c07f2c6fcc01","system_id":"levelo_inurba_marseille","lat":43.267959,"lon":5.402687,"is_reserved":false,"is_disabled":false,"rental_uris":{"android":"levelo://app?vid=0a4bb84d-ad01-4337-a2be-c07f2c6fcc01","ios":"levelo://app?vid=0a4bb84d-ad01-4337-a2be-c07f2c6fcc01"},"vehicle_type_id":"4","last_reported":1702415179,"current_range_meters":12000,"station_id":"ce501612rcd8frsf0b60","pricing_plan_id":"free"},{"bike_id":"60e4e2f6-4390-4029-b71c-11414f373115","system_id":"levelo_inurba_marseille","lat":43.27097,"lon":5.4095,"is_reserved":false,"is_disabled":false,"rental_uris":{"android":"levelo://app?vid=60e4e2f6-4390-4029-b71c-11414f373115","ios":"levelo://app?vid=60e4e2f6-4390-4029-b71c-11414f373115"},"vehicle_type_id":"4","last_reported":1702415179,"current_range_meters":28000,"station_id":"","pricing_plan_id":"free"},{"bike_id":"14fb5ba6-affc-4814-9729-4e5def4dd2eb","system_id":"levelo_inurba_marseille","lat":43.298768,"lon":5.43643,"is_reserved":false,"is_disabled":false,"rental_uris":{"android":"levelo://app?vid=14fb5ba6-affc-4814-9729-4e5def4dd2eb","ios":"levelo://app?vid=14fb5ba6-affc-4814-9729-4e5def4dd2eb"},"vehicle_type_id":"4","last_reported":1702415179,"current_range_meters":11600,"station_id":"ce4bhpp2rcd13ifvqhfg","pricing_plan_id":"free"},{"bike_id":"c6fd12df-9f3a-4af6-97ac-045eea3df2d1","system_id":"levelo_inurba_marseille","lat":43.298768,"lon":5.43643,"is_reserved":false,"is_disabled":false,"rental_uris":{"android":"levelo://app?vid=c6fd12df-9f3a-4af6-97ac-045eea3df2d1","ios":"levelo://app?vid=c6fd12df-9f3a-4af6-97ac-045eea3df2d1"},"vehicle_type_id":"4","last_reported":1702415179,"current_range_meters":30400,"station_id":"ce4bhpp2rcd13ifvqhfg","pricing_plan_id":"free"},{"bike_id":"422bf428-4855-484c-a41c-d4564e3e8e7e","system_id":"levelo_inurba_marseille","lat":43.2607,"lon":5.393983,"is_reserved":false,"is_disabled":false,"rental_uris":{"android":"levelo://app?vid=422bf428-4855-484c-a41c-d4564e3e8e7e","ios":"levelo://app?vid=422bf428-4855-484c-a41c-d4564e3e8e7e"},"vehicle_type_id":"4","last_reported":1702415179,"current_range_meters":17600,"station_id":"ce4bhh92rcd13ifvqfj0","pricing_plan_id":"free"},{"bike_id":"55676f63-e2aa-41d4-a9aa-18ad58bf432e","system_id":"levelo_inurba_marseille","lat":43.275028,"lon":5.424534,"is_reserved":false,"is_disabled":false,"rental_uris":{"android":"levelo://app?vid=55676f63-e2aa-41d4-a9aa-18ad58bf432e","ios":"levelo://app?vid=55676f63-e2aa-41d4-a9aa-18ad58bf432e"},"vehicle_type_id":"4","last_reported":1702415179,"current_range_meters":30800,"station_id":"ce4bhn92rcd13ifvqgrg","pricing_plan_id":"free"},{"bike_id":"4f6bf374-0b3c-40f4-a301-3f4d0e294967","system_id":"levelo_inurba_marseille","lat":43.25577,"lon":5.38234,"is_reserved":false,"is_disabled":false,"rental_uris":{"android":"levelo://app?vid=4f6bf374-0b3c-40f4-a301-3f4d0e294967","ios":"levelo://app?vid=4f6bf374-0b3c-40f4-a301-3f4d0e294967"},"vehicle_type_id":"4","last_reported":1702415179,"current_range_meters":20800,"station_id":"ce4bhih2rcd13ifvqfs0","pricing_plan_id":"free"},{"bike_id":"07aa06bf-740e-4f37-9bc8-d62a97c1abe1","system_id":"levelo_inurba_marseille","lat":43.258224,"lon":5.394369,"is_reserved":false,"is_disabled":false,"rental_uris":{"android":"levelo://app?vid=07aa06bf-740e-4f37-9bc8-d62a97c1abe1","ios":"levelo://app?vid=07aa06bf-740e-4f37-9bc8-d62a97c1abe1"},"vehicle_type_id":"4","last_reported":1702415179,"current_range_meters":23600,"station_id":"ce4bhip2rcd13ifvqft0","pricing_plan_id":"free"},{"bike_id":"80a9534d-2138-4a9a-ac64-defe67d59938","system_id":"levelo_inurba_marseille","lat":43.25575,"lon":5.38236,"is_reserved":false,"is_disabled":false,"rental_uris":{"android":"levelo://app?vid=80a9534d-2138-4a9a-ac64-defe67d59938","ios":"levelo://app?vid=80a9534d-2138-4a9a-ac64-defe67d59938"},"vehicle_type_id":"4","last_reported":1702415179,"current_range_meters":19200,"station_id":"ce4bhih2rcd13ifvqfs0","pricing_plan_id":"free"},{"bike_id":"b964cdc5-dd23-4310-b90d-63837f2982b0","system_id":"levelo_inurba_marseille","lat":43.258224,"lon":5.394369,"is_reserved":false,"is_disabled":false,"rental_uris":{"android":"levelo://app?vid=b964cdc5-dd23-4310-b90d-63837f2982b0","ios":"levelo://app?vid=b964cdc5-dd23-4310-b90d-63837f2982b0"},"vehicle_type_id":"4","last_reported":1702415179,"current_range_meters":21600,"station_id":"ce4bhip2rcd13ifvqft0","pricing_plan_id":"free"},{"bike_id":"035bfb46-9b43-496e-920a-bdd11fc64efa","system_id":"levelo_inurba_marseille","lat":43.258224,"lon":5.394369,"is_reserved":false,"is_disabled":false,"rental_uris":{"android":"levelo://app?vid=035bfb46-9b43-496e-920a-bdd11fc64efa","ios":"levelo://app?vid=035bfb46-9b43-496e-920a-bdd11fc64efa"},"vehicle_type_id":"4","last_reported":1702415179,"current_range_meters":20800,"station_id":"ce4bhip2rcd13ifvqft0","pricing_plan_id":"free"},{"bike_id":"8bee575f-1ce6-4207-9d3e-11062018182f","system_id":"levelo_inurba_marseille","lat":43.25928,"lon":5.40908,"is_reserved":false,"is_disabled":false,"rental_uris":{"android":"levelo://app?vid=8bee575f-1ce6-4207-9d3e-11062018182f","ios":"levelo://app?vid=8bee575f-1ce6-4207-9d3e-11062018182f"},"vehicle_type_id":"4","last_reported":1702415179,"current_range_meters":0,"station_id":"ce4bhm92rcd13ifvqglg","pricing_plan_id":"free"},{"bike_id":"05e59e65-f6b5-4f82-89dd-335e2b21d5cc","system_id":"levelo_inurba_marseille","lat":43.250009,"lon":5.389195,"is_reserved":false,"is_disabled":false,"rental_uris":{"android":"levelo://app?vid=05e59e65-f6b5-4f82-89dd-335e2b21d5cc","ios":"levelo://app?vid=05e59e65-f6b5-4f82-89dd-335e2b21d5cc"},"vehicle_type_id":"4","last_reported":1702415179,"current_range_meters":9600,"station_id":"ce4bhgp2rcd13ifvqfd0","pricing_plan_id":"free"},{"bike_id":"d9552269-9777-4e51-b137-cbca6b11c58f","system_id":"levelo_inurba_marseille","lat":43.2479,"lon":5.374457,"is_reserved":false,"is_disabled":false,"rental_uris":{"android":"levelo://app?vid=d9552269-9777-4e51-b137-cbca6b11c58f","ios":"levelo://app?vid=d9552269-9777-4e51-b137-cbca6b11c58f"},"vehicle_type_id":"4","last_reported":1702415179,"current_range_meters":19600,"station_id":"ce4bhgh2rcd13ifvqfb0","pricing_plan_id":"free"},{"bike_id":"9d48d986-2988-4976-9fac-1e7c93edd5ab","system_id":"levelo_inurba_marseille","lat":43.2479,"lon":5.374457,"is_reserved":false,"is_disabled":false,"rental_uris":{"android":"levelo://app?vid=9d48d986-2988-4976-9fac-1e7c93edd5ab","ios":"levelo://app?vid=9d48d986-2988-4976-9fac-1e7c93edd5ab"},"vehicle_type_id":"4","last_reported":1702415179,"current_range_meters":22000,"station_id":"ce4bhgh2rcd13ifvqfb0","pricing_plan_id":"free"},{"bike_id":"b951beb5-0d1b-4479-a54b-5635d8bfafcd","system_id":"levelo_inurba_marseille","lat":43.2479,"lon":5.374457,"is_reserved":false,"is_disabled":false,"rental_uris":{"android":"levelo://app?vid=b951beb5-0d1b-4479-a54b-5635d8bfafcd","ios":"levelo://app?vid=b951beb5-0d1b-4479-a54b-5635d8bfafcd"},"vehicle_type_id":"4","last_reported":1702415179,"current_range_meters":18000,"station_id":"ce4bhgh2rcd13ifvqfb0","pricing_plan_id":"free"},{"bike_id":"89cd57c9-7161-4c72-96c1-ff91849bfc07","system_id":"levelo_inurba_marseille","lat":43.250853,"lon":5.395108,"is_reserved":false,"is_disabled":false,"rental_uris":{"android":"levelo://app?vid=89cd57c9-7161-4c72-96c1-ff91849bfc07","ios":"levelo://app?vid=89cd57c9-7161-4c72-96c1-ff91849bfc07"},"vehicle_type_id":"4","last_reported":1702415179,"current_range_meters":400,"station_id":"ce4bhm12rcd13ifvqgkg","pricing_plan_id":"free"},{"bike_id":"93e642cb-070d-42d2-9712-edfb4707b641","system_id":"levelo_inurba_marseille","lat":43.250966,"lon":5.395186,"is_reserved":false,"is_disabled":false,"rental_uris":{"android":"levelo://app?vid=93e642cb-070d-42d2-9712-edfb4707b641","ios":"levelo://app?vid=93e642cb-070d-42d2-9712-edfb4707b641"},"vehicle_type_id":"4","last_reported":1702415179,"current_range_meters":28400,"station_id":"ce4bhm12rcd13ifvqgkg","pricing_plan_id":"free"},{"bike_id":"6443e078-9e63-4c13-895d-bcca0fbc21a8","system_id":"levelo_inurba_marseille","lat":43.25102,"lon":5.403214,"is_reserved":false,"is_disabled":false,"rental_uris":{"android":"levelo://app?vid=6443e078-9e63-4c13-895d-bcca0fbc21a8","ios":"levelo://app?vid=6443e078-9e63-4c13-895d-bcca0fbc21a8"},"vehicle_type_id":"4","last_reported":1702415179,"current_range_meters":0,"station_id":"ce4bhlh2rcd13ifvqgig","pricing_plan_id":"free"},{"bike_id":"a294ad3f-85a1-40b4-8bdf-9451db5c9f4a","system_id":"levelo_inurba_marseille","lat":43.25102,"lon":5.403214,"is_reserved":false,"is_disabled":false,"rental_uris":{"android":"levelo://app?vid=a294ad3f-85a1-40b4-8bdf-9451db5c9f4a","ios":"levelo://app?vid=a294ad3f-85a1-40b4-8bdf-9451db5c9f4a"},"vehicle_type_id":"4","last_reported":1702415179,"current_range_meters":27200,"station_id":"ce4bhlh2rcd13ifvqgig","pricing_plan_id":"free"},{"bike_id":"0f76516c-d69d-4b3d-b7b6-e7fd6a938df2","system_id":"levelo_inurba_marseille","lat":43.243884,"lon":5.370737,"is_reserved":false,"is_disabled":false,"rental_uris":{"android":"levelo://app?vid=0f76516c-d69d-4b3d-b7b6-e7fd6a938df2","ios":"levelo://app?vid=0f76516c-d69d-4b3d-b7b6-e7fd6a938df2"},"vehicle_type_id":"4","last_reported":1702415179,"current_range_meters":11200,"station_id":"ce4bhhh2rcd13ifvqfk0","pricing_plan_id":"free"},{"bike_id":"4e9ad50d-7124-4cd1-8ec9-ae65dc86a2d9","system_id":"levelo_inurba_marseille","lat":43.245581,"lon":5.395069,"is_reserved":false,"is_disabled":false,"rental_uris":{"android":"levelo://app?vid=4e9ad50d-7124-4cd1-8ec9-ae65dc86a2d9","ios":"levelo://app?vid=4e9ad50d-7124-4cd1-8ec9-ae65dc86a2d9"},"vehicle_type_id":"4","last_reported":1702415179,"current_range_meters":28000,"station_id":"ce4bhlp2rcd13ifvqgjg","pricing_plan_id":"free"},{"bike_id":"8a556c14-5982-43a1-8f75-b2ee88f80658","system_id":"levelo_inurba_marseille","lat":43.245581,"lon":5.395069,"is_reserved":false,"is_disabled":false,"rental_uris":{"android":"levelo://app?vid=8a556c14-5982-43a1-8f75-b2ee88f80658","ios":"levelo://app?vid=8a556c14-5982-43a1-8f75-b2ee88f80658"},"vehicle_type_id":"4","last_reported":1702415179,"current_range_meters":19200,"station_id":"ce4bhlp2rcd13ifvqgjg","pricing_plan_id":"free"},{"bike_id":"d1f26f1c-66c7-4318-906f-15aa2b56ee47","system_id":"levelo_inurba_marseille","lat":43.240623,"lon":5.377642,"is_reserved":false,"is_disabled":false,"rental_uris":{"android":"levelo://app?vid=d1f26f1c-66c7-4318-906f-15aa2b56ee47","ios":"levelo://app?vid=d1f26f1c-66c7-4318-906f-15aa2b56ee47"},"vehicle_type_id":"4","last_reported":1702415179,"current_range_meters":6800,"station_id":"ce4bhnp2rcd13ifvqgvg","pricing_plan_id":"free"},{"bike_id":"9c22ab75-65a5-4b82-b9cb-34c34de7d97f","system_id":"levelo_inurba_marseille","lat":43.240623,"lon":5.377642,"is_reserved":false,"is_disabled":false,"rental_uris":{"android":"levelo://app?vid=9c22ab75-65a5-4b82-b9cb-34c34de7d97f","ios":"levelo://app?vid=9c22ab75-65a5-4b82-b9cb-34c34de7d97f"},"vehicle_type_id":"4","last_reported":1702415179,"current_range_meters":30000,"station_id":"ce4bhnp2rcd13ifvqgvg","pricing_plan_id":"free"},{"bike_id":"3dc095af-a885-44c9-b900-c7749334e677","system_id":"levelo_inurba_marseille","lat":43.239588,"lon":5.366238,"is_reserved":false,"is_disabled":false,"rental_uris":{"android":"levelo://app?vid=3dc095af-a885-44c9-b900-c7749334e677","ios":"levelo://app?vid=3dc095af-a885-44c9-b900-c7749334e677"},"vehicle_type_id":"4","last_reported":1702415179,"current_range_meters":23200,"station_id":"ce4bhi12rcd13ifvqfp0","pricing_plan_id":"free"},{"bike_id":"e5f8a3f9-ad33-4c96-8f80-c9bb436ceb1b","system_id":"levelo_inurba_marseille","lat":43.235828,"lon":5.41047,"is_reserved":false,"is_disabled":false,"rental_uris":{"android":"levelo://app?vid=e5f8a3f9-ad33-4c96-8f80-c9bb436ceb1b","ios":"levelo://app?vid=e5f8a3f9-ad33-4c96-8f80-c9bb436ceb1b"},"vehicle_type_id":"4","last_reported":1702415179,"current_range_meters":14400,"station_id":"","pricing_plan_id":"free"},{"bike_id":"ecc6b30e-afbb-430b-a8fd-f3e07403c9ad","system_id":"levelo_inurba_marseille","lat":43.231794,"lon":5.400052,"is_reserved":false,"is_disabled":false,"rental_uris":{"android":"levelo://app?vid=ecc6b30e-afbb-430b-a8fd-f3e07403c9ad","ios":"levelo://app?vid=ecc6b30e-afbb-430b-a8fd-f3e07403c9ad"},"vehicle_type_id":"4","last_reported":1702415179,"current_range_meters":16800,"station_id":"ce4bhn12rcd13ifvqgqg","pricing_plan_id":"free"},{"bike_id":"28a81c8f-eba8-456c-89c4-2281c172fec8","system_id":"levelo_inurba_marseille","lat":43.231794,"lon":5.400052,"is_reserved":false,"is_disabled":false,"rental_uris":{"android":"levelo://app?vid=28a81c8f-eba8-456c-89c4-2281c172fec8","ios":"levelo://app?vid=28a81c8f-eba8-456c-89c4-2281c172fec8"},"vehicle_type_id":"4","last_reported":1702415179,"current_range_meters":0,"station_id":"ce4bhn12rcd13ifvqgqg","pricing_plan_id":"free"},{"bike_id":"20c0d9a4-1709-485b-9105-287bac4fabfc","system_id":"levelo_inurba_marseille","lat":43.231794,"lon":5.400052,"is_reserved":false,"is_disabled":false,"rental_uris":{"android":"levelo://app?vid=20c0d9a4-1709-485b-9105-287bac4fabfc","ios":"levelo://app?vid=20c0d9a4-1709-485b-9105-287bac4fabfc"},"vehicle_type_id":"4","last_reported":1702415179,"current_range_meters":16400,"station_id":"ce4bhn12rcd13ifvqgqg","pricing_plan_id":"free"},{"bike_id":"3b6acbeb-fcf2-4d7f-83a0-ba4dc62f4887","system_id":"levelo_inurba_marseille","lat":43.231794,"lon":5.400052,"is_reserved":false,"is_disabled":false,"rental_uris":{"android":"levelo://app?vid=3b6acbeb-fcf2-4d7f-83a0-ba4dc62f4887","ios":"levelo://app?vid=3b6acbeb-fcf2-4d7f-83a0-ba4dc62f4887"},"vehicle_type_id":"4","last_reported":1702415179,"current_range_meters":18000,"station_id":"ce4bhn12rcd13ifvqgqg","pricing_plan_id":"free"},{"bike_id":"e6e78515-aff2-4fc4-80b5-70f36396b81a","system_id":"levelo_inurba_marseille","lat":43.231794,"lon":5.400052,"is_reserved":false,"is_disabled":false,"rental_uris":{"android":"levelo://app?vid=e6e78515-aff2-4fc4-80b5-70f36396b81a","ios":"levelo://app?vid=e6e78515-aff2-4fc4-80b5-70f36396b81a"},"vehicle_type_id":"4","last_reported":1702415179,"current_range_meters":20000,"station_id":"ce4bhn12rcd13ifvqgqg","pricing_plan_id":"free"},{"bike_id":"5b630b40-ff29-4dd6-a19d-40fab0f10db9","system_id":"levelo_inurba_marseille","lat":43.231794,"lon":5.400052,"is_reserved":false,"is_disabled":false,"rental_uris":{"android":"levelo://app?vid=5b630b40-ff29-4dd6-a19d-40fab0f10db9","ios":"levelo://app?vid=5b630b40-ff29-4dd6-a19d-40fab0f10db9"},"vehicle_type_id":"4","last_reported":1702415179,"current_range_meters":28400,"station_id":"ce4bhn12rcd13ifvqgqg","pricing_plan_id":"free"},{"bike_id":"58ad7b1b-1e96-4241-8f3b-6d49dc932f71","system_id":"levelo_inurba_marseille","lat":43.231562,"lon":5.436933,"is_reserved":false,"is_disabled":false,"rental_uris":{"android":"levelo://app?vid=58ad7b1b-1e96-4241-8f3b-6d49dc932f71","ios":"levelo://app?vid=58ad7b1b-1e96-4241-8f3b-6d49dc932f71"},"vehicle_type_id":"4","last_reported":1702415179,"current_range_meters":13600,"station_id":"ce4bhmp2rcd13ifvqgog","pricing_plan_id":"free"}]}}