{"last_updated":1711400784,"ttl":30,"version":"2.2","data":{"bikes":[{"bike_id":"399e9665-1dfb-4f60-a8b9-743d58c80fcb","system_id":"levelo_inurba_marseille","lat":43.312239,"lon":5.368562,"is_reserved":false,"is_disabled":false,"rental_uris":{"android":"levelo://app?vid=399e9665-1dfb-4f60-a8b9-743d58c80fcb","ios":"levelo://app?vid=399e9665-1dfb-4f60-a8b9-743d58c80fcb"},"vehicle_type_id":"4","last_reported":1711400784,"current_range_meters":16800,"station_id":"ce4bgl92rcd13ifvqbq0","pricing_plan_id":"cebpf4jnsgd1na2vs0mg"},{"bike_id":"f64441b7-5481-414b-9c8c-42b2313465fe","system_id":"levelo_inurba_marseille","lat":43.314811,"lon":5.373103,"is_reserved":false,"is_disabled":false,"rental_uris":{"android":"levelo://app?vid=f64441b7-5481-414b-9c8c-42b2313465fe","ios":"levelo://app?vid=f64441b7-5481-414b-9c8c-42b2313465fe"},"vehicle_type_id":"4","last_reported":1711400784,"current_range_meters":6800,"station_id":"ce4bgt12rcd13ifvqcd0","pricing_plan_id":"cebpf4jnsgd1na2vs0mg"},{"bike_id":"46e6982a-e81e-450a-a1b3-bf78ebdbe6f8","system_id":"levelo_inurba_marseille","lat":43.308936,"lon":5.371912,"is_reserved":false,"is_disabled":false,"rental_uris":{"android":"levelo://app?vid=46e6982a-e81e-450a-a1b3-bf78ebdbe6f8","ios":"levelo://app?vid=46e6982a-e81e-450a-a1b3-bf78ebdbe6f8"},"vehicle_type_id":"4","last_reported":1711400784,"current_range_meters":0,"station_id":"ce4bguh2rcd13ifvqckg","pricing_plan_id":"cebpf4jnsgd1na2vs0mg"},{"bike_id":"1a9b279f-0a29-47e9-9d6d-46f5bbe69853","system_id":"levelo_inurba_marseille","lat":43.305499,"lon":5.365299,"is_reserved":false,"is_disabled":false,"rental_uris":{"android":"levelo://app?vid=1a9b279f-0a29-47e9-9d6d-46f5bbe69853","ios":"levelo://app?vid=1a9b279f-0a29-47e9-9d6d-46f5bbe69853"},"vehicle_type_id":"4","last_reported":1711400784,"current_range_meters":0,"station_id":"ce4bgs12rcd13ifvqcag","pricing_plan_id":"cebpf4jnsgd1na2vs0mg"},{"bike_id":"5cf3b37e-4787-402e-9a36-0a1347efc790","system_id":"levelo_inurba_marseille","lat":43.29529,"lon":5.385581,"is_reserved":false,"is_disabled":false,"rental_uris":{"android":"levelo://app?vid=5cf3b37e-4787-402e-9a36-0a1347efc790","ios":"levelo://app?vid=5cf3b37e-4787-402e-9a36-0a1347efc790"},"vehicle_type_id":"4","last_reported":1711400784,"current_range_meters":800,"station_id":"ce4bgih2rcd13ifvqba0","pricing_plan_id":"cebpf4jnsgd1na2vs0mg"},{"bike_id":"ab964618-9c75-416a-b523-cf987f78803c","system_id":"levelo_inurba_marseille","lat":43.311213,"lon":5.377567,"is_reserved":false,"is_disabled":false,"rental_uris":{"android":"levelo://app?vid=ab964618-9c75-416a-b523-cf987f78803c","ios":"levelo://app?vid=ab964618-9c75-416a-b523-cf987f78803c"},"vehicle_type_id":"4","last_reported":1711400784,"current_range_meters":22000,"station_id":"ce4bgt92rcd13ifvqcg0","pricing_plan_id":"cebpf4jnsgd1na2vs0mg"},{"bike_id":"cc55003d-8576-4ae0-ba3a-47e526018473","system_id":"levelo_inurba_marseille","lat":43.311125,"lon":5.377624,"is_reserved":false,"is_disabled":false,"rental_uris":{"android":"levelo://app?vid=cc55003d-8576-4ae0-ba3a-47e526018473","ios":"levelo://app?vid=cc55003d-8576-4ae0-ba3a-47e526018473"},"vehicle_type_id":"4","last_reported":1711400784,"current_range_meters":14000,"station_id":"ce4bgt92rcd13ifvqcg0","pricing_plan_id":"cebpf4jnsgd1na2vs0mg"},{"bike_id":"79a63b1f-4c54-4dea-b3e8-ebb487525e23","system_id":"levelo_inurba_marseille","lat":43.311211,"lon":5.377596,"is_reserved":false,"is_disabled":false,"rental_uris":{"android":"levelo://app?vid=79a63b1f-4c54-4dea-b3e8-ebb487525e23","ios":"levelo://app?vid=79a63b1f-4c54-4dea-b3e8-ebb487525e23"},"vehicle_type_id":"4","last_reported":1711400784,"current_range_meters":1200,"station_id":"ce4bgt92rcd13ifvqcg0","pricing_plan_id":"cebpf4jnsgd1na2vs0mg"},{"bike_id":"d20d41e7-983f-4cce-9fb6-5793cb371ca2","system_id":"levelo_inurba_marseille","lat":43.29529,"lon":5.385581,"is_reserved":false,"is_disabled":false,"rental_uris":{"android":"levelo://app?vid=d20d41e7-983f-4cce-9fb6-5793cb371ca2","ios":"levelo://app?vid=d20d41e7-983f-4cce-9fb6-5793cb371ca2"},"vehicle_type_id":"4","last_reported":1711400784,"current_range_meters":16400,"station_id":"ce4bgih2rcd13ifvqba0","pricing_plan_id":"cebpf4jnsgd1na2vs0mg"},{"bike_id":"3e46a5e5-84c4-4892-986a-b6b04fa5915c","system_id":"levelo_inurba_marseille","lat":43.267966,"lon":5.393976,"is_reserved":false,"is_disabled":false,"rental_uris":{"android":"levelo://app?vid=3e46a5e5-84c4-4892-986a-b6b04fa5915c","ios":"levelo://app?vid=3e46a5e5-84c4-4892-986a-b6b04fa5915c"},"vehicle_type_id":"4","last_reported":1711400784,"current_range_meters":6000,"station_id":"ce4bhh12rcd13ifvqfg0","pricing_plan_id":"cebpf4jnsgd1na2vs0mg"},{"bike_id":"2dcc38a2-fed9-4260-ad30-59d5730321df","system_id":"levelo_inurba_marseille","lat":43.311131,"lon":5.377651,"is_reserved":false,"is_disabled":false,"rental_uris":{"android":"levelo://app?vid=2dcc38a2-fed9-4260-ad30-59d5730321df","ios":"levelo://app?vid=2dcc38a2-fed9-4260-ad30-59d5730321df"},"vehicle_type_id":"4","last_reported":1711400784,"current_range_meters":12400,"station_id":"ce4bgt92rcd13ifvqcg0","pricing_plan_id":"cebpf4jnsgd1na2vs0mg"},{"bike_id":"dbf09931-ef74-427f-bd36-825c31cd2a1f","system_id":"levelo_inurba_marseille","lat":43.307945,"lon":5.376487,"is_reserved":false,"is_disabled":false,"rental_uris":{"android":"levelo://app?vid=dbf09931-ef74-427f-bd36-825c31cd2a1f","ios":"levelo://app?vid=dbf09931-ef74-427f-bd36-825c31cd2a1f"},"vehicle_type_id":"4","last_reported":1711400784,"current_range_meters":0,"station_id":"ce4bgv92rcd13ifvqcq0","pricing_plan_id":"cebpf4jnsgd1na2vs0mg"},{"bike_id":"fa12fedc-c150-4959-8172-462b429a0446","system_id":"levelo_inurba_marseille","lat":43.317075,"lon":5.377367,"is_reserved":false,"is_disabled":false,"rental_uris":{"android":"levelo://app?vid=fa12fedc-c150-4959-8172-462b429a0446","ios":"levelo://app?vid=fa12fedc-c150-4959-8172-462b429a0446"},"vehicle_type_id":"4","last_reported":1711400784,"current_range_meters":13600,"station_id":"ce4bgth2rcd13ifvqch0","pricing_plan_id":"cebpf4jnsgd1na2vs0mg"},{"bike_id":"939b6bf5-1fce-4acd-bd94-4a1c05f12092","system_id":"levelo_inurba_marseille","lat":43.31708,"lon":5.37735,"is_reserved":false,"is_disabled":false,"rental_uris":{"android":"levelo://app?vid=939b6bf5-1fce-4acd-bd94-4a1c05f12092","ios":"levelo://app?vid=939b6bf5-1fce-4acd-bd94-4a1c05f12092"},"vehicle_type_id":"4","last_reported":1711400784,"current_range_meters":7200,"station_id":"ce4bgth2rcd13ifvqch0","pricing_plan_id":"cebpf4jnsgd1na2vs0mg"},{"bike_id":"b4e5d7d1-723e-4af0-8684-0a80a02c9a14","system_id":"levelo_inurba_marseille","lat":43.317075,"lon":5.377367,"is_reserved":false,"is_disabled":false,"rental_uris":{"android":"levelo://app?vid=b4e5d7d1-723e-4af0-8684-0a80a02c9a14","ios":"levelo://app?vid=b4e5d7d1-723e-4af0-8684-0a80a02c9a14"},"vehicle_type_id":"4","last_reported":1711400784,"current_range_meters":31200,"station_id":"ce4bgth2rcd13ifvqch0","pricing_plan_id":"cebpf4jnsgd1na2vs0mg"},{"bike_id":"dcf7f0a5-2019-46e4-b163-588a3ef4c3b7","system_id":"levelo_inurba_marseille","lat":43.319935,"lon":5.381699,"is_reserved":false,"is_disabled":false,"rental_uris":{"android":"levelo://app?vid=dcf7f0a5-2019-46e4-b163-588a3ef4c3b7","ios":"levelo://app?vid=dcf7f0a5-2019-46e4-b163-588a3ef4c3b7"},"vehicle_type_id":"4","last_reported":1711400784,"current_range_meters":20800,"station_id":"ce4bhr12rcd13ifvqhpg","pricing_plan_id":"cebpf4jnsgd1na2vs0mg"},{"bike_id":"fb2cc470-409c-4d78-aeb7-3a145b7b2b0b","system_id":"levelo_inurba_marseille","lat":43.317075,"lon":5.377367,"is_reserved":false,"is_disabled":false,"rental_uris":{"android":"levelo://app?vid=fb2cc470-409c-4d78-aeb7-3a145b7b2b0b","ios":"levelo://app?vid=fb2cc470-409c-4d78-aeb7-3a145b7b2b0b"},"vehicle_type_id":"4","last_reported":1711400784,"current_range_meters":9200,"station_id":"ce4bgth2rcd13ifvqch0","pricing_plan_id":"cebpf4jnsgd1na2vs0mg"},{"bike_id":"d786829b-5310-4a29-91e8-f1ec5b58b820","system_id":"levelo_inurba_marseille","lat":43.317075,"lon":5.377367,"is_reserved":false,"is_disabled":false,"rental_uris":{"android":"levelo://app?vid=d786829b-5310-4a29-91e8-f1ec5b58b820","ios":"levelo://app?vid=d786829b-5310-4a29-91e8-f1ec5b58b820"},"vehicle_type_id":"4","last_reported":1711400784,"current_range_meters":31200,"station_id":"ce4bgth2rcd13ifvqch0","pricing_plan_id":"cebpf4jnsgd1na2vs0mg"},{"bike_id":"7d20f22e-21f9-45d5-9611-98f24ba7ec26","system_id":"levelo_inurba_marseille","lat":43.315293,"lon":5.380349,"is_reserved":false,"is_disabled":false,"rental_uris":{"android":"levelo://app?vid=7d20f22e-21f9-45d5-9611-98f24ba7ec26","ios":"levelo://app?vid=7d20f22e-21f9-45d5-9611-98f24ba7ec26"},"vehicle_type_id":"4","last_reported":1711400784,"current_range_meters":6000,"station_id":"ce4bhsp2rcd13ifvqi50","pricing_plan_id":"cebpf4jnsgd1na2vs0mg"},{"bike_id":"c19fb62c-8537-4d02-bd38-8373759ec1e1","system_id":"levelo_inurba_marseille","lat":43.315289,"lon":5.380349,"is_reserved":false,"is_disabled":false,"rental_uris":{"android":"levelo://app?vid=c19fb62c-8537-4d02-bd38-8373759ec1e1","ios":"levelo://app?vid=c19fb62c-8537-4d02-bd38-8373759ec1e1"},"vehicle_type_id":"4","last_reported":1711400784,"current_range_meters":10000,"station_id":"ce4bhsp2rcd13ifvqi50","pricing_plan_id":"cebpf4jnsgd1na2vs0mg"},{"bike_id":"9180e575-bba3-4c87-9987-a37c573b6798","system_id":"levelo_inurba_marseille","lat":43.315289,"lon":5.380349,"is_reserved":false,"is_disabled":false,"rental_uris":{"android":"levelo://app?vid=9180e575-bba3-4c87-9987-a37c573b6798","ios":"levelo://app?vid=9180e575-bba3-4c87-9987-a37c573b6798"},"vehicle_type_id":"4","last_reported":1711400784,"current_range_meters":14400,"station_id":"ce4bhsp2rcd13ifvqi50","pricing_plan_id":"cebpf4jnsgd1na2vs0mg"},{"bike_id":"c0e2dbea-3c21-4e66-b050-4884c9ac2745","system_id":"levelo_inurba_marseille","lat":43.301939,"lon":5.366286,"is_reserved":false,"is_disabled":false,"rental_uris":{"android":"levelo://app?vid=c0e2dbea-3c21-4e66-b050-4884c9ac2745","ios":"levelo://app?vid=c0e2dbea-3c21-4e66-b050-4884c9ac2745"},"vehicle_type_id":"4","last_reported":1711400784,"current_range_meters":0,"station_id":"ce4bgrh2rcd13ifvqc8g","pricing_plan_id":"cebpf4jnsgd1na2vs0mg"},{"bike_id":"6839d562-5923-40ae-856a-7e33adb62eb1","system_id":"levelo_inurba_marseille","lat":43.301939,"lon":5.366286,"is_reserved":false,"is_disabled":false,"rental_uris":{"android":"levelo://app?vid=6839d562-5923-40ae-856a-7e33adb62eb1","ios":"levelo://app?vid=6839d562-5923-40ae-856a-7e33adb62eb1"},"vehicle_type_id":"4","last_reported":1711400784,"current_range_meters":2800,"station_id":"ce4bgrh2rcd13ifvqc8g","pricing_plan_id":"cebpf4jnsgd1na2vs0mg"},{"bike_id":"aa5b0390-5d05-4819-bc6b-6552633e7bed","system_id":"levelo_inurba_marseille","lat":43.308012,"lon":5.381511,"is_reserved":false,"is_disabled":false,"rental_uris":{"android":"levelo://app?vid=aa5b0390-5d05-4819-bc6b-6552633e7bed","ios":"levelo://app?vid=aa5b0390-5d05-4819-bc6b-6552633e7bed"},"vehicle_type_id":"4","last_reported":1711400784,"current_range_meters":22800,"station_id":"ce4bgt12rcd13ifvqce0","pricing_plan_id":"cebpf4jnsgd1na2vs0mg"},{"bike_id":"68bcaff6-c169-448d-82e9-b5405e03ddca","system_id":"levelo_inurba_marseille","lat":43.308012,"lon":5.381511,"is_reserved":false,"is_disabled":false,"rental_uris":{"android":"levelo://app?vid=68bcaff6-c169-448d-82e9-b5405e03ddca","ios":"levelo://app?vid=68bcaff6-c169-448d-82e9-b5405e03ddca"},"vehicle_type_id":"4","last_reported":1711400784,"current_range_meters":20400,"station_id":"ce4bgt12rcd13ifvqce0","pricing_plan_id":"cebpf4jnsgd1na2vs0mg"},{"bike_id":"07b05e7e-b240-49b2-aa30-ec278519be68","system_id":"levelo_inurba_marseille","lat":43.308012,"lon":5.381511,"is_reserved":false,"is_disabled":false,"rental_uris":{"android":"levelo://app?vid=07b05e7e-b240-49b2-aa30-ec278519be68","ios":"levelo://app?vid=07b05e7e-b240-49b2-aa30-ec278519be68"},"vehicle_type_id":"4","last_reported":1711400784,"current_range_meters":0,"station_id":"ce4bgt12rcd13ifvqce0","pricing_plan_id":"cebpf4jnsgd1na2vs0mg"},{"bike_id":"5e693aa7-d1c0-408e-a6c7-00d944c7d643","system_id":"levelo_inurba_marseille","lat":43.308012,"lon":5.381511,"is_reserved":false,"is_disabled":false,"rental_uris":{"android":"levelo://app?vid=5e693aa7-d1c0-408e-a6c7-00d944c7d643","ios":"levelo://app?vid=5e693aa7-d1c0-408e-a6c7-00d944c7d643"},"vehicle_type_id":"4","last_reported":1711400784,"current_range_meters":12800,"station_id":"ce4bgt12rcd13ifvqce0","pricing_plan_id":"cebpf4jnsgd1na2vs0mg"},{"bike_id":"12be5ff7-81c8-4883-b903-f46e1f342699","system_id":"levelo_inurba_marseille","lat":43.308012,"lon":5.381511,"is_reserved":false,"is_disabled":false,"rental_uris":{"android":"levelo://app?vid=12be5ff7-81c8-4883-b903-f46e1f342699","ios":"levelo://app?vid=12be5ff7-81c8-4883-b903-f46e1f342699"},"vehicle_type_id":"4","last_reported":1711400784,"current_range_meters":0,"station_id":"ce4bgt12rcd13ifvqce0","pricing_plan_id":"cebpf4jnsgd1na2vs0mg"},{"bike_id":"bb7447ee-9f19-4b84-bc68-c9a31907a312","system_id":"levelo_inurba_marseille","lat":43.308012,"lon":5.381511,"is_reserved":false,"is_disabled":false,"rental_uris":{"android":"levelo://app?vid=bb7447ee-9f19-4b84-bc68-c9a31907a312","ios":"levelo://app?vid=bb7447ee-9f19-4b84-bc68-c9a31907a312"},"vehicle_type_id":"4","last_reported":1711400784,"current_range_meters":9200,"station_id":"ce4bgt12rcd13ifvqce0","pricing_plan_id":"cebpf4jnsgd1na2vs0mg"},{"bike_id":"0964b34e-6c70-40e8-9aa5-77bb6b27f6b6","system_id":"levelo_inurba_marseille","lat":43.308012,"lon":5.381511,"is_reserved":false,"is_disabled":false,"rental_uris":{"android":"levelo://app?vid=0964b34e-6c70-40e8-9aa5-77bb6b27f6b6","ios":"levelo://app?vid=0964b34e-6c70-40e8-9aa5-77bb6b27f6b6"},"vehicle_type_id":"4","last_reported":1711400784,"current_range_meters":31600,"station_id":"ce4bgt12rcd13ifvqce0","pricing_plan_id":"cebpf4jnsgd1na2vs0mg"},{"bike_id":"c80bf600-49eb-412a-9bd3-755835131af1","system_id":"levelo_inurba_marseille","lat":43.308012,"lon":5.381511,"is_reserved":false,"is_disabled":false,"rental_uris":{"android":"levelo://app?vid=c80bf600-49eb-412a-9bd3-755835131af1","ios":"levelo://app?vid=c80bf600-49eb-412a-9bd3-755835131af1"},"vehicle_type_id":"4","last_reported":1711400784,"current_range_meters":18000,"station_id":"ce4bgt12rcd13ifvqce0","pricing_plan_id":"cebpf4jnsgd1na2vs0mg"},{"bike_id":"a9c0c247-b46c-4f0a-8013-b710c17e7785","system_id":"levelo_inurba_marseille","lat":43.308012,"lon":5.381511,"is_reserved":false,"is_disabled":false,"rental_uris":{"android":"levelo://app?vid=a9c0c247-b46c-4f0a-8013-b710c17e7785","ios":"levelo://app?vid=a9c0c247-b46c-4f0a-8013-b710c17e7785"},"vehicle_type_id":"4","last_reported":1711400784,"current_range_meters":5600,"station_id":"ce4bgt12rcd13ifvqce0","pricing_plan_id":"cebpf4jnsgd1na2vs0mg"},{"bike_id":"e95f7f7c-892f-43f0-875c-813ac82589ff","system_id":"levelo_inurba_marseille","lat":43.3079,"lon":5.38159,"is_reserved":false,"is_disabled":false,"rental_uris":{"android":"levelo://app?vid=e95f7f7c-892f-43f0-875c-813ac82589ff","ios":"levelo://app?vid=e95f7f7c-892f-43f0-875c-813ac82589ff"},"vehicle_type_id":"4","last_reported":1711400784,"current_range_meters":0,"station_id":"ce4bgt12rcd13ifvqce0","pricing_plan_id":"cebpf4jnsgd1na2vs0mg"},{"bike_id":"10339236-09fa-474a-8ebd-3e01ca6d5e50","system_id":"levelo_inurba_marseille","lat":43.304606,"lon":5.379026,"is_reserved":false,"is_disabled":false,"rental_uris":{"android":"levelo://app?vid=10339236-09fa-474a-8ebd-3e01ca6d5e50","ios":"levelo://app?vid=10339236-09fa-474a-8ebd-3e01ca6d5e50"},"vehicle_type_id":"4","last_reported":1711400784,"current_range_meters":20000,"station_id":"ce4bgup2rcd13ifvqcn0","pricing_plan_id":"cebpf4jnsgd1na2vs0mg"},{"bike_id":"af167f4f-2d71-4a57-ab8f-dcb66567f0c3","system_id":"levelo_inurba_marseille","lat":43.32469,"lon":5.36569,"is_reserved":false,"is_disabled":false,"rental_uris":{"android":"levelo://app?vid=af167f4f-2d71-4a57-ab8f-dcb66567f0c3","ios":"levelo://app?vid=af167f4f-2d71-4a57-ab8f-dcb66567f0c3"},"vehicle_type_id":"4","last_reported":1711400784,"current_range_meters":14800,"station_id":"ce4bhs12rcd13ifvqhvg","pricing_plan_id":"cebpf4jnsgd1na2vs0mg"},{"bike_id":"7e9803be-5f25-4748-bdb0-c5a2afa7edd6","system_id":"levelo_inurba_marseille","lat":43.304606,"lon":5.379026,"is_reserved":false,"is_disabled":false,"rental_uris":{"android":"levelo://app?vid=7e9803be-5f25-4748-bdb0-c5a2afa7edd6","ios":"levelo://app?vid=7e9803be-5f25-4748-bdb0-c5a2afa7edd6"},"vehicle_type_id":"4","last_reported":1711400784,"current_range_meters":7600,"station_id":"ce4bgup2rcd13ifvqcn0","pricing_plan_id":"cebpf4jnsgd1na2vs0mg"},{"bike_id":"ee315106-341d-4bf1-9af2-6b11388a77d8","system_id":"levelo_inurba_marseille","lat":43.324771,"lon":5.36557,"is_reserved":false,"is_disabled":false,"rental_uris":{"android":"levelo://app?vid=ee315106-341d-4bf1-9af2-6b11388a77d8","ios":"levelo://app?vid=ee315106-341d-4bf1-9af2-6b11388a77d8"},"vehicle_type_id":"4","last_reported":1711400784,"current_range_meters":26400,"station_id":"ce4bhs12rcd13ifvqhvg","pricing_plan_id":"cebpf4jnsgd1na2vs0mg"},{"bike_id":"a0d31af7-370b-4f99-8c08-89a40e47803f","system_id":"levelo_inurba_marseille","lat":43.324771,"lon":5.36557,"is_reserved":false,"is_disabled":false,"rental_uris":{"android":"levelo://app?vid=a0d31af7-370b-4f99-8c08-89a40e47803f","ios":"levelo://app?vid=a0d31af7-370b-4f99-8c08-89a40e47803f"},"vehicle_type_id":"4","last_reported":1711400784,"current_range_meters":28000,"station_id":"ce4bhs12rcd13ifvqhvg","pricing_plan_id":"cebpf4jnsgd1na2vs0mg"},{"bike_id":"5091d187-3170-4181-abba-a00e8a71f847","system_id":"levelo_inurba_marseille","lat":43.324771,"lon":5.36557,"is_reserved":false,"is_disabled":false,"rental_uris":{"android":"levelo://app?vid=5091d187-3170-4181-abba-a00e8a71f847","ios":"levelo://app?vid=5091d187-3170-4181-abba-a00e8a71f847"},"vehicle_type_id":"4","last_reported":1711400784,"current_range_meters":0,"station_id":"ce4bhs12rcd13ifvqhvg","pricing_plan_id":"cebpf4jnsgd1na2vs0mg"},{"bike_id":"a26085b4-c08f-407f-92bc-4fa83dbf1dee","system_id":"levelo_inurba_marseille","lat":43.324771,"lon":5.36557,"is_reserved":false,"is_disabled":false,"rental_uris":{"android":"levelo://app?vid=a26085b4-c08f-407f-92bc-4fa83dbf1dee","ios":"levelo://app?vid=a26085b4-c08f-407f-92bc-4fa83dbf1dee"},"vehicle_type_id":"4","last_reported":1711400784,"current_range_meters":8400,"station_id":"ce4bhs12rcd13ifvqhvg","pricing_plan_id":"cebpf4jnsgd1na2vs0mg"},{"bike_id":"26aab7eb-0fed-402e-8f7d-f704da75ca7c","system_id":"levelo_inurba_marseille","lat":43.324771,"lon":5.36557,"is_reserved":false,"is_disabled":false,"rental_uris":{"android":"levelo://app?vid=26aab7eb-0fed-402e-8f7d-f704da75ca7c","ios":"levelo://app?vid=26aab7eb-0fed-402e-8f7d-f704da75ca7c"},"vehicle_type_id":"4","last_reported":1711400784,"current_range_meters":6400,"station_id":"ce4bhs12rcd13ifvqhvg","pricing_plan_id":"cebpf4jnsgd1na2vs0mg"},{"bike_id":"4aa023fc-bd6a-49d9-bb66-0067c94f6096","system_id":"levelo_inurba_marseille","lat":43.32489,"lon":5.36575,"is_reserved":false,"is_disabled":false,"rental_uris":{"android":"levelo://app?vid=4aa023fc-bd6a-49d9-bb66-0067c94f6096","ios":"levelo://app?vid=4aa023fc-bd6a-49d9-bb66-0067c94f6096"},"vehicle_type_id":"4","last_reported":1711400784,"current_range_meters":28000,"station_id":"ce4bhs12rcd13ifvqhvg","pricing_plan_id":"cebpf4jnsgd1na2vs0mg"},{"bike_id":"805d9a86-506b-40b1-9209-944928d07a7b","system_id":"levelo_inurba_marseille","lat":43.31072,"lon":5.38351,"is_reserved":false,"is_disabled":false,"rental_uris":{"android":"levelo://app?vid=805d9a86-506b-40b1-9209-944928d07a7b","ios":"levelo://app?vid=805d9a86-506b-40b1-9209-944928d07a7b"},"vehicle_type_id":"4","last_reported":1711400784,"current_range_meters":11600,"station_id":"ce4bgv92rcd13ifvqcr0","pricing_plan_id":"cebpf4jnsgd1na2vs0mg"},{"bike_id":"62be9f93-0bba-4b5a-baaf-305f53ed08f3","system_id":"levelo_inurba_marseille","lat":43.31069,"lon":5.38351,"is_reserved":false,"is_disabled":false,"rental_uris":{"android":"levelo://app?vid=62be9f93-0bba-4b5a-baaf-305f53ed08f3","ios":"levelo://app?vid=62be9f93-0bba-4b5a-baaf-305f53ed08f3"},"vehicle_type_id":"4","last_reported":1711400784,"current_range_meters":15200,"station_id":"ce4bgv92rcd13ifvqcr0","pricing_plan_id":"cebpf4jnsgd1na2vs0mg"},{"bike_id":"36a2e22e-53e2-4a3e-973e-5d7d4b4ccf20","system_id":"levelo_inurba_marseille","lat":43.310747,"lon":5.38353,"is_reserved":false,"is_disabled":false,"rental_uris":{"android":"levelo://app?vid=36a2e22e-53e2-4a3e-973e-5d7d4b4ccf20","ios":"levelo://app?vid=36a2e22e-53e2-4a3e-973e-5d7d4b4ccf20"},"vehicle_type_id":"4","last_reported":1711400784,"current_range_meters":2400,"station_id":"ce4bgv92rcd13ifvqcr0","pricing_plan_id":"cebpf4jnsgd1na2vs0mg"},{"bike_id":"86c2095f-66b9-4109-aff6-f9cda9639c22","system_id":"levelo_inurba_marseille","lat":43.31069,"lon":5.38355,"is_reserved":false,"is_disabled":false,"rental_uris":{"android":"levelo://app?vid=86c2095f-66b9-4109-aff6-f9cda9639c22","ios":"levelo://app?vid=86c2095f-66b9-4109-aff6-f9cda9639c22"},"vehicle_type_id":"4","last_reported":1711400784,"current_range_meters":11600,"station_id":"ce4bgv92rcd13ifvqcr0","pricing_plan_id":"cebpf4jnsgd1na2vs0mg"},{"bike_id":"3827812e-6bb5-40be-a7d6-7224aababdd1","system_id":"levelo_inurba_marseille","lat":43.310804,"lon":5.38359,"is_reserved":false,"is_disabled":false,"rental_uris":{"android":"levelo://app?vid=3827812e-6bb5-40be-a7d6-7224aababdd1","ios":"levelo://app?vid=3827812e-6bb5-40be-a7d6-7224aababdd1"},"vehicle_type_id":"4","last_reported":1711400784,"current_range_meters":15200,"station_id":"ce4bgv92rcd13ifvqcr0","pricing_plan_id":"cebpf4jnsgd1na2vs0mg"},{"bike_id":"524e56aa-8437-4ec0-bf57-520df951f83f","system_id":"levelo_inurba_marseille","lat":43.31073,"lon":5.38359,"is_reserved":false,"is_disabled":false,"rental_uris":{"android":"levelo://app?vid=524e56aa-8437-4ec0-bf57-520df951f83f","ios":"levelo://app?vid=524e56aa-8437-4ec0-bf57-520df951f83f"},"vehicle_type_id":"4","last_reported":1711400784,"current_range_meters":400,"station_id":"ce4bgv92rcd13ifvqcr0","pricing_plan_id":"cebpf4jnsgd1na2vs0mg"},{"bike_id":"7d3c11db-0682-4e95-9e28-2bcca3cee667","system_id":"levelo_inurba_marseille","lat":43.310812,"lon":5.383638,"is_reserved":false,"is_disabled":false,"rental_uris":{"android":"levelo://app?vid=7d3c11db-0682-4e95-9e28-2bcca3cee667","ios":"levelo://app?vid=7d3c11db-0682-4e95-9e28-2bcca3cee667"},"vehicle_type_id":"4","last_reported":1711400784,"current_range_meters":1600,"station_id":"ce4bgv92rcd13ifvqcr0","pricing_plan_id":"cebpf4jnsgd1na2vs0mg"},{"bike_id":"fed57d2a-eb5c-4101-9a5f-41aa4f466cf3","system_id":"levelo_inurba_marseille","lat":43.31076,"lon":5.38364,"is_reserved":false,"is_disabled":false,"rental_uris":{"android":"levelo://app?vid=fed57d2a-eb5c-4101-9a5f-41aa4f466cf3","ios":"levelo://app?vid=fed57d2a-eb5c-4101-9a5f-41aa4f466cf3"},"vehicle_type_id":"4","last_reported":1711400784,"current_range_meters":28400,"station_id":"ce4bgv92rcd13ifvqcr0","pricing_plan_id":"cebpf4jnsgd1na2vs0mg"},{"bike_id":"12324478-8035-411d-b4b6-eed4ea0d2979","system_id":"levelo_inurba_marseille","lat":43.30143,"lon":5.37413,"is_reserved":false,"is_disabled":false,"rental_uris":{"android":"levelo://app?vid=12324478-8035-411d-b4b6-eed4ea0d2979","ios":"levelo://app?vid=12324478-8035-411d-b4b6-eed4ea0d2979"},"vehicle_type_id":"4","last_reported":1711400784,"current_range_meters":11600,"station_id":"ce4bgs92rcd13ifvqcc0","pricing_plan_id":"cebpf4jnsgd1na2vs0mg"},{"bike_id":"e051e831-e8a2-4cb5-8f48-038a7102470d","system_id":"levelo_inurba_marseille","lat":43.30274,"lon":5.3771,"is_reserved":false,"is_disabled":false,"rental_uris":{"android":"levelo://app?vid=e051e831-e8a2-4cb5-8f48-038a7102470d","ios":"levelo://app?vid=e051e831-e8a2-4cb5-8f48-038a7102470d"},"vehicle_type_id":"4","last_reported":1711400784,"current_range_meters":800,"station_id":"ce4bguh2rcd13ifvqcj0","pricing_plan_id":"cebpf4jnsgd1na2vs0mg"},{"bike_id":"0709fcdf-3e3d-4e2a-ad94-e0b885ea337e","system_id":"levelo_inurba_marseille","lat":43.301429,"lon":5.37413,"is_reserved":false,"is_disabled":false,"rental_uris":{"android":"levelo://app?vid=0709fcdf-3e3d-4e2a-ad94-e0b885ea337e","ios":"levelo://app?vid=0709fcdf-3e3d-4e2a-ad94-e0b885ea337e"},"vehicle_type_id":"4","last_reported":1711400784,"current_range_meters":10400,"station_id":"ce4bgs92rcd13ifvqcc0","pricing_plan_id":"cebpf4jnsgd1na2vs0mg"},{"bike_id":"013472d7-ab0a-47b8-86c5-cdb685af73af","system_id":"levelo_inurba_marseille","lat":43.319935,"lon":5.381699,"is_reserved":false,"is_disabled":false,"rental_uris":{"android":"levelo://app?vid=013472d7-ab0a-47b8-86c5-cdb685af73af","ios":"levelo://app?vid=013472d7-ab0a-47b8-86c5-cdb685af73af"},"vehicle_type_id":"4","last_reported":1711400784,"current_range_meters":0,"station_id":"ce4bhr12rcd13ifvqhpg","pricing_plan_id":"cebpf4jnsgd1na2vs0mg"},{"bike_id":"0248e6ce-0201-4e04-9ac2-876973a617ba","system_id":"levelo_inurba_marseille","lat":43.31995,"lon":5.381505,"is_reserved":false,"is_disabled":false,"rental_uris":{"android":"levelo://app?vid=0248e6ce-0201-4e04-9ac2-876973a617ba","ios":"levelo://app?vid=0248e6ce-0201-4e04-9ac2-876973a617ba"},"vehicle_type_id":"4","last_reported":1711400784,"current_range_meters":0,"station_id":"ce4bhr12rcd13ifvqhpg","pricing_plan_id":"cebpf4jnsgd1na2vs0mg"},{"bike_id":"ea959437-bf8b-414f-b285-d8869b036858","system_id":"levelo_inurba_marseille","lat":43.319935,"lon":5.381699,"is_reserved":false,"is_disabled":false,"rental_uris":{"android":"levelo://app?vid=ea959437-bf8b-414f-b285-d8869b036858","ios":"levelo://app?vid=ea959437-bf8b-414f-b285-d8869b036858"},"vehicle_type_id":"4","last_reported":1711400784,"current_range_meters":0,"station_id":"ce4bhr12rcd13ifvqhpg","pricing_plan_id":"cebpf4jnsgd1na2vs0mg"},{"bike_id":"a969d855-85ef-438a-b930-3993343da247","system_id":"levelo_inurba_marseille","lat":43.32001,"lon":5.38149,"is_reserved":false,"is_disabled":false,"rental_uris":{"android":"levelo://app?vid=a969d855-85ef-438a-b930-3993343da247","ios":"levelo://app?vid=a969d855-85ef-438a-b930-3993343da247"},"vehicle_type_id":"4","last_reported":1711400784,"current_range_meters":4400,"station_id":"ce4bhr12rcd13ifvqhpg","pricing_plan_id":"cebpf4jnsgd1na2vs0mg"},{"bike_id":"f2c2e7b3-f649-44fd-bb5b-a9d75f0e4a54","system_id":"levelo_inurba_marseille","lat":43.319935,"lon":5.381699,"is_reserved":false,"is_disabled":false,"rental_uris":{"android":"levelo://app?vid=f2c2e7b3-f649-44fd-bb5b-a9d75f0e4a54","ios":"levelo://app?vid=f2c2e7b3-f649-44fd-bb5b-a9d75f0e4a54"},"vehicle_type_id":"4","last_reported":1711400784,"current_range_meters":17200,"station_id":"ce4bhr12rcd13ifvqhpg","pricing_plan_id":"cebpf4jnsgd1na2vs0mg"},{"bike_id":"c7613e6c-3e7d-4c29-9933-77e411c63d4e","system_id":"levelo_inurba_marseille","lat":43.31368,"lon":5.38487,"is_reserved":false,"is_disabled":false,"rental_uris":{"android":"levelo://app?vid=c7613e6c-3e7d-4c29-9933-77e411c63d4e","ios":"levelo://app?vid=c7613e6c-3e7d-4c29-9933-77e411c63d4e"},"vehicle_type_id":"4","last_reported":1711400784,"current_range_meters":25200,"station_id":"ce4bgt92rcd13ifvqcf0","pricing_plan_id":"cebpf4jnsgd1na2vs0mg"},{"bike_id":"06b30ae0-a20d-49c4-bb1d-c6f5eea9599a","system_id":"levelo_inurba_marseille","lat":43.313571,"lon":5.384829,"is_reserved":false,"is_disabled":false,"rental_uris":{"android":"levelo://app?vid=06b30ae0-a20d-49c4-bb1d-c6f5eea9599a","ios":"levelo://app?vid=06b30ae0-a20d-49c4-bb1d-c6f5eea9599a"},"vehicle_type_id":"4","last_reported":1711400784,"current_range_meters":15600,"station_id":"ce4bgt92rcd13ifvqcf0","pricing_plan_id":"cebpf4jnsgd1na2vs0mg"},{"bike_id":"b1107e2e-50f4-47e0-9291-6c89d4b34de5","system_id":"levelo_inurba_marseille","lat":43.28573,"lon":5.394992,"is_reserved":false,"is_disabled":false,"rental_uris":{"android":"levelo://app?vid=b1107e2e-50f4-47e0-9291-6c89d4b34de5","ios":"levelo://app?vid=b1107e2e-50f4-47e0-9291-6c89d4b34de5"},"vehicle_type_id":"4","last_reported":1711400784,"current_range_meters":3600,"station_id":"ce4bh292rcd13ifvqdg0","pricing_plan_id":"cebpf4jnsgd1na2vs0mg"},{"bike_id":"e9a8e3df-15ae-4fbd-9b99-bdffc396355d","system_id":"levelo_inurba_marseille","lat":43.313571,"lon":5.384829,"is_reserved":false,"is_disabled":false,"rental_uris":{"android":"levelo://app?vid=e9a8e3df-15ae-4fbd-9b99-bdffc396355d","ios":"levelo://app?vid=e9a8e3df-15ae-4fbd-9b99-bdffc396355d"},"vehicle_type_id":"4","last_reported":1711400784,"current_range_meters":0,"station_id":"ce4bgt92rcd13ifvqcf0","pricing_plan_id":"cebpf4jnsgd1na2vs0mg"},{"bike_id":"831f98f3-9c71-4f22-95bc-515ec6aa7ee2","system_id":"levelo_inurba_marseille","lat":43.313571,"lon":5.384829,"is_reserved":false,"is_disabled":false,"rental_uris":{"android":"levelo://app?vid=831f98f3-9c71-4f22-95bc-515ec6aa7ee2","ios":"levelo://app?vid=831f98f3-9c71-4f22-95bc-515ec6aa7ee2"},"vehicle_type_id":"4","last_reported":1711400784,"current_range_meters":22000,"station_id":"ce4bgt92rcd13ifvqcf0","pricing_plan_id":"cebpf4jnsgd1na2vs0mg"},{"bike_id":"eccf0a3c-c415-4063-aca0-f0f4fa150fd5","system_id":"levelo_inurba_marseille","lat":43.31356,"lon":5.38491,"is_reserved":false,"is_disabled":false,"rental_uris":{"android":"levelo://app?vid=eccf0a3c-c415-4063-aca0-f0f4fa150fd5","ios":"levelo://app?vid=eccf0a3c-c415-4063-aca0-f0f4fa150fd5"},"vehicle_type_id":"4","last_reported":1711400784,"current_range_meters":2000,"station_id":"ce4bgt92rcd13ifvqcf0","pricing_plan_id":"cebpf4jnsgd1na2vs0mg"},{"bike_id":"a7765369-4add-4cf6-a153-4d4e55db0c32","system_id":"levelo_inurba_marseille","lat":43.313571,"lon":5.384829,"is_reserved":false,"is_disabled":false,"rental_uris":{"android":"levelo://app?vid=a7765369-4add-4cf6-a153-4d4e55db0c32","ios":"levelo://app?vid=a7765369-4add-4cf6-a153-4d4e55db0c32"},"vehicle_type_id":"4","last_reported":1711400784,"current_range_meters":14800,"station_id":"ce4bgt92rcd13ifvqcf0","pricing_plan_id":"cebpf4jnsgd1na2vs0mg"},{"bike_id":"c1bdb0a8-9688-436f-b159-9a58d9f7bc9d","system_id":"levelo_inurba_marseille","lat":43.2999,"lon":5.371777,"is_reserved":false,"is_disabled":false,"rental_uris":{"android":"levelo://app?vid=c1bdb0a8-9688-436f-b159-9a58d9f7bc9d","ios":"levelo://app?vid=c1bdb0a8-9688-436f-b159-9a58d9f7bc9d"},"vehicle_type_id":"4","last_reported":1711400784,"current_range_meters":1600,"station_id":"ce4bgr92rcd13ifvqc7g","pricing_plan_id":"cebpf4jnsgd1na2vs0mg"},{"bike_id":"4502b9cc-22a6-4628-b30d-b22430cb0f82","system_id":"levelo_inurba_marseille","lat":43.299724,"lon":5.371829,"is_reserved":false,"is_disabled":false,"rental_uris":{"android":"levelo://app?vid=4502b9cc-22a6-4628-b30d-b22430cb0f82","ios":"levelo://app?vid=4502b9cc-22a6-4628-b30d-b22430cb0f82"},"vehicle_type_id":"4","last_reported":1711400784,"current_range_meters":13200,"station_id":"ce4bgr92rcd13ifvqc7g","pricing_plan_id":"cebpf4jnsgd1na2vs0mg"},{"bike_id":"57286457-503f-4003-855c-98d9bae22ac7","system_id":"levelo_inurba_marseille","lat":43.299724,"lon":5.371829,"is_reserved":false,"is_disabled":false,"rental_uris":{"android":"levelo://app?vid=57286457-503f-4003-855c-98d9bae22ac7","ios":"levelo://app?vid=57286457-503f-4003-855c-98d9bae22ac7"},"vehicle_type_id":"4","last_reported":1711400784,"current_range_meters":15600,"station_id":"ce4bgr92rcd13ifvqc7g","pricing_plan_id":"cebpf4jnsgd1na2vs0mg"},{"bike_id":"4878ea8d-a6c2-433a-a2b0-4df83e369be3","system_id":"levelo_inurba_marseille","lat":43.299222,"lon":5.365554,"is_reserved":false,"is_disabled":false,"rental_uris":{"android":"levelo://app?vid=4878ea8d-a6c2-433a-a2b0-4df83e369be3","ios":"levelo://app?vid=4878ea8d-a6c2-433a-a2b0-4df83e369be3"},"vehicle_type_id":"4","last_reported":1711400784,"current_range_meters":14400,"station_id":"ce4bgm92rcd13ifvqbr0","pricing_plan_id":"cebpf4jnsgd1na2vs0mg"},{"bike_id":"007676d4-3150-419c-8e88-808ebf5f993e","system_id":"levelo_inurba_marseille","lat":43.299724,"lon":5.371829,"is_reserved":false,"is_disabled":false,"rental_uris":{"android":"levelo://app?vid=007676d4-3150-419c-8e88-808ebf5f993e","ios":"levelo://app?vid=007676d4-3150-419c-8e88-808ebf5f993e"},"vehicle_type_id":"4","last_reported":1711400784,"current_range_meters":20400,"station_id":"ce4bgr92rcd13ifvqc7g","pricing_plan_id":"cebpf4jnsgd1na2vs0mg"},{"bike_id":"474cd414-bd49-442e-9604-b1e936917a46","system_id":"levelo_inurba_marseille","lat":43.299724,"lon":5.371829,"is_reserved":false,"is_disabled":false,"rental_uris":{"android":"levelo://app?vid=474cd414-bd49-442e-9604-b1e936917a46","ios":"levelo://app?vid=474cd414-bd49-442e-9604-b1e936917a46"},"vehicle_type_id":"4","last_reported":1711400784,"current_range_meters":15200,"station_id":"ce4bgr92rcd13ifvqc7g","pricing_plan_id":"cebpf4jnsgd1na2vs0mg"},{"bike_id":"dd103c2e-f9f6-4498-92bd-ef7b173b6393","system_id":"levelo_inurba_marseille","lat":43.299724,"lon":5.371829,"is_reserved":false,"is_disabled":false,"rental_uris":{"android":"levelo://app?vid=dd103c2e-f9f6-4498-92bd-ef7b173b6393","ios":"levelo://app?vid=dd103c2e-f9f6-4498-92bd-ef7b173b6393"},"vehicle_type_id":"4","last_reported":1711400784,"current_range_meters":18400,"station_id":"ce4bgr92rcd13ifvqc7g","pricing_plan_id":"cebpf4jnsgd1na2vs0mg"},{"bike_id":"e8c4d982-2d47-4297-b546-e9b0845ddd07","system_id":"levelo_inurba_marseille","lat":43.299724,"lon":5.371829,"is_reserved":false,"is_disabled":false,"rental_uris":{"android":"levelo://app?vid=e8c4d982-2d47-4297-b546-e9b0845ddd07","ios":"levelo://app?vid=e8c4d982-2d47-4297-b546-e9b0845ddd07"},"vehicle_type_id":"4","last_reported":1711400784,"current_range_meters":22000,"station_id":"ce4bgr92rcd13ifvqc7g","pricing_plan_id":"cebpf4jnsgd1na2vs0mg"},{"bike_id":"61fc1fc4-e6c7-4fb7-a6d3-22a1523c65e7","system_id":"levelo_inurba_marseille","lat":43.298433,"lon":5.362774,"is_reserved":false,"is_disabled":false,"rental_uris":{"android":"levelo://app?vid=61fc1fc4-e6c7-4fb7-a6d3-22a1523c65e7","ios":"levelo://app?vid=61fc1fc4-e6c7-4fb7-a6d3-22a1523c65e7"},"vehicle_type_id":"4","last_reported":1711400784,"current_range_meters":8800,"station_id":"ce4bgpp2rcd13ifvqc3g","pricing_plan_id":"cebpf4jnsgd1na2vs0mg"},{"bike_id":"d6d9dfda-4d17-4f3f-b3ee-d082b487bbe7","system_id":"levelo_inurba_marseille","lat":43.298518,"lon":5.362815,"is_reserved":false,"is_disabled":false,"rental_uris":{"android":"levelo://app?vid=d6d9dfda-4d17-4f3f-b3ee-d082b487bbe7","ios":"levelo://app?vid=d6d9dfda-4d17-4f3f-b3ee-d082b487bbe7"},"vehicle_type_id":"4","last_reported":1711400784,"current_range_meters":19200,"station_id":"ce4bgpp2rcd13ifvqc3g","pricing_plan_id":"cebpf4jnsgd1na2vs0mg"},{"bike_id":"e81796bc-9933-48f1-a382-8022c3b30cb8","system_id":"levelo_inurba_marseille","lat":43.29846,"lon":5.36283,"is_reserved":false,"is_disabled":false,"rental_uris":{"android":"levelo://app?vid=e81796bc-9933-48f1-a382-8022c3b30cb8","ios":"levelo://app?vid=e81796bc-9933-48f1-a382-8022c3b30cb8"},"vehicle_type_id":"4","last_reported":1711400784,"current_range_meters":6800,"station_id":"ce4bgpp2rcd13ifvqc3g","pricing_plan_id":"cebpf4jnsgd1na2vs0mg"},{"bike_id":"6d04aba3-6dc1-436f-baff-c4f2e9efa807","system_id":"levelo_inurba_marseille","lat":43.298433,"lon":5.362774,"is_reserved":false,"is_disabled":false,"rental_uris":{"android":"levelo://app?vid=6d04aba3-6dc1-436f-baff-c4f2e9efa807","ios":"levelo://app?vid=6d04aba3-6dc1-436f-baff-c4f2e9efa807"},"vehicle_type_id":"4","last_reported":1711400784,"current_range_meters":10000,"station_id":"ce4bgpp2rcd13ifvqc3g","pricing_plan_id":"cebpf4jnsgd1na2vs0mg"},{"bike_id":"0461083a-43d7-4ce4-854c-efc7eaaa830e","system_id":"levelo_inurba_marseille","lat":43.298433,"lon":5.362774,"is_reserved":false,"is_disabled":false,"rental_uris":{"android":"levelo://app?vid=0461083a-43d7-4ce4-854c-efc7eaaa830e","ios":"levelo://app?vid=0461083a-43d7-4ce4-854c-efc7eaaa830e"},"vehicle_type_id":"4","last_reported":1711400784,"current_range_meters":21600,"station_id":"ce4bgpp2rcd13ifvqc3g","pricing_plan_id":"cebpf4jnsgd1na2vs0mg"},{"bike_id":"d6e65acf-9178-416b-8269-4ba8f7899dcf","system_id":"levelo_inurba_marseille","lat":43.305364,"lon":5.384119,"is_reserved":false,"is_disabled":false,"rental_uris":{"android":"levelo://app?vid=d6e65acf-9178-416b-8269-4ba8f7899dcf","ios":"levelo://app?vid=d6e65acf-9178-416b-8269-4ba8f7899dcf"},"vehicle_type_id":"4","last_reported":1711400784,"current_range_meters":12000,"station_id":"ce4bgg92rcd13ifvqb30","pricing_plan_id":"cebpf4jnsgd1na2vs0mg"},{"bike_id":"3a8efc07-3d43-4768-b551-b7e7450ddcb5","system_id":"levelo_inurba_marseille","lat":43.298433,"lon":5.362774,"is_reserved":false,"is_disabled":false,"rental_uris":{"android":"levelo://app?vid=3a8efc07-3d43-4768-b551-b7e7450ddcb5","ios":"levelo://app?vid=3a8efc07-3d43-4768-b551-b7e7450ddcb5"},"vehicle_type_id":"4","last_reported":1711400784,"current_range_meters":26400,"station_id":"ce4bgpp2rcd13ifvqc3g","pricing_plan_id":"cebpf4jnsgd1na2vs0mg"},{"bike_id":"184fd75d-c71f-405f-9453-4b166ca94e32","system_id":"levelo_inurba_marseille","lat":43.298433,"lon":5.362774,"is_reserved":false,"is_disabled":false,"rental_uris":{"android":"levelo://app?vid=184fd75d-c71f-405f-9453-4b166ca94e32","ios":"levelo://app?vid=184fd75d-c71f-405f-9453-4b166ca94e32"},"vehicle_type_id":"4","last_reported":1711400784,"current_range_meters":4400,"station_id":"ce4bgpp2rcd13ifvqc3g","pricing_plan_id":"cebpf4jnsgd1na2vs0mg"},{"bike_id":"474ccfc0-4141-4d85-87f0-7a2342664ccd","system_id":"levelo_inurba_marseille","lat":43.299243,"lon":5.374807,"is_reserved":false,"is_disabled":false,"rental_uris":{"android":"levelo://app?vid=474ccfc0-4141-4d85-87f0-7a2342664ccd","ios":"levelo://app?vid=474ccfc0-4141-4d85-87f0-7a2342664ccd"},"vehicle_type_id":"4","last_reported":1711400784,"current_range_meters":26800,"station_id":"ce4bgjh2rcd13ifvqbg0","pricing_plan_id":"cebpf4jnsgd1na2vs0mg"},{"bike_id":"3ce052c8-95d1-4211-9329-7bbad41db032","system_id":"levelo_inurba_marseille","lat":43.311722,"lon":5.387247,"is_reserved":false,"is_disabled":false,"rental_uris":{"android":"levelo://app?vid=3ce052c8-95d1-4211-9329-7bbad41db032","ios":"levelo://app?vid=3ce052c8-95d1-4211-9329-7bbad41db032"},"vehicle_type_id":"4","last_reported":1711400784,"current_range_meters":24800,"station_id":"ce4bgv12rcd13ifvqcp0","pricing_plan_id":"cebpf4jnsgd1na2vs0mg"},{"bike_id":"b0979dc7-052c-4f48-b806-d86ba087c45b","system_id":"levelo_inurba_marseille","lat":43.311722,"lon":5.387247,"is_reserved":false,"is_disabled":false,"rental_uris":{"android":"levelo://app?vid=b0979dc7-052c-4f48-b806-d86ba087c45b","ios":"levelo://app?vid=b0979dc7-052c-4f48-b806-d86ba087c45b"},"vehicle_type_id":"4","last_reported":1711400784,"current_range_meters":17600,"station_id":"ce4bgv12rcd13ifvqcp0","pricing_plan_id":"cebpf4jnsgd1na2vs0mg"},{"bike_id":"cb49985f-fedb-4c43-b65f-2a14ad039536","system_id":"levelo_inurba_marseille","lat":43.304606,"lon":5.379026,"is_reserved":false,"is_disabled":false,"rental_uris":{"android":"levelo://app?vid=cb49985f-fedb-4c43-b65f-2a14ad039536","ios":"levelo://app?vid=cb49985f-fedb-4c43-b65f-2a14ad039536"},"vehicle_type_id":"4","last_reported":1711400784,"current_range_meters":10400,"station_id":"ce4bgup2rcd13ifvqcn0","pricing_plan_id":"cebpf4jnsgd1na2vs0mg"},{"bike_id":"7436b88e-0991-4d88-a975-fb1163463dd5","system_id":"levelo_inurba_marseille","lat":43.311722,"lon":5.387247,"is_reserved":false,"is_disabled":false,"rental_uris":{"android":"levelo://app?vid=7436b88e-0991-4d88-a975-fb1163463dd5","ios":"levelo://app?vid=7436b88e-0991-4d88-a975-fb1163463dd5"},"vehicle_type_id":"4","last_reported":1711400784,"current_range_meters":21200,"station_id":"ce4bgv12rcd13ifvqcp0","pricing_plan_id":"cebpf4jnsgd1na2vs0mg"},{"bike_id":"772ebf0a-e4de-4b9b-913a-48914e7cd23a","system_id":"levelo_inurba_marseille","lat":43.29793,"lon":5.3711,"is_reserved":false,"is_disabled":false,"rental_uris":{"android":"levelo://app?vid=772ebf0a-e4de-4b9b-913a-48914e7cd23a","ios":"levelo://app?vid=772ebf0a-e4de-4b9b-913a-48914e7cd23a"},"vehicle_type_id":"4","last_reported":1711400784,"current_range_meters":21200,"station_id":"ce4bgop2rcd13ifvqc1g","pricing_plan_id":"cebpf4jnsgd1na2vs0mg"},{"bike_id":"feead7e7-9cee-4c57-94a6-da647512767c","system_id":"levelo_inurba_marseille","lat":43.322896,"lon":5.382515,"is_reserved":false,"is_disabled":false,"rental_uris":{"android":"levelo://app?vid=feead7e7-9cee-4c57-94a6-da647512767c","ios":"levelo://app?vid=feead7e7-9cee-4c57-94a6-da647512767c"},"vehicle_type_id":"4","last_reported":1711400784,"current_range_meters":0,"station_id":"ce4bhr12rcd13ifvqhqg","pricing_plan_id":"cebpf4jnsgd1na2vs0mg"},{"bike_id":"ac18a901-aff0-4f99-bd5b-270feddb1e94","system_id":"levelo_inurba_marseille","lat":43.322872,"lon":5.382756,"is_reserved":false,"is_disabled":false,"rental_uris":{"android":"levelo://app?vid=ac18a901-aff0-4f99-bd5b-270feddb1e94","ios":"levelo://app?vid=ac18a901-aff0-4f99-bd5b-270feddb1e94"},"vehicle_type_id":"4","last_reported":1711400784,"current_range_meters":28400,"station_id":"ce4bhr12rcd13ifvqhqg","pricing_plan_id":"cebpf4jnsgd1na2vs0mg"},{"bike_id":"419ca877-5d8b-4401-ad16-2811cfd4b9dc","system_id":"levelo_inurba_marseille","lat":43.297794,"lon":5.370888,"is_reserved":false,"is_disabled":false,"rental_uris":{"android":"levelo://app?vid=419ca877-5d8b-4401-ad16-2811cfd4b9dc","ios":"levelo://app?vid=419ca877-5d8b-4401-ad16-2811cfd4b9dc"},"vehicle_type_id":"4","last_reported":1711400784,"current_range_meters":30800,"station_id":"ce4bgop2rcd13ifvqc1g","pricing_plan_id":"cebpf4jnsgd1na2vs0mg"},{"bike_id":"71bf0d2d-854e-4785-b177-31a04cb9cb3f","system_id":"levelo_inurba_marseille","lat":43.322872,"lon":5.382756,"is_reserved":false,"is_disabled":false,"rental_uris":{"android":"levelo://app?vid=71bf0d2d-854e-4785-b177-31a04cb9cb3f","ios":"levelo://app?vid=71bf0d2d-854e-4785-b177-31a04cb9cb3f"},"vehicle_type_id":"4","last_reported":1711400784,"current_range_meters":15600,"station_id":"ce4bhr12rcd13ifvqhqg","pricing_plan_id":"cebpf4jnsgd1na2vs0mg"},{"bike_id":"b6f3b6ca-7c2a-4ab1-b5f9-d07c38663097","system_id":"levelo_inurba_marseille","lat":43.322872,"lon":5.382756,"is_reserved":false,"is_disabled":false,"rental_uris":{"android":"levelo://app?vid=b6f3b6ca-7c2a-4ab1-b5f9-d07c38663097","ios":"levelo://app?vid=b6f3b6ca-7c2a-4ab1-b5f9-d07c38663097"},"vehicle_type_id":"4","last_reported":1711400784,"current_range_meters":27600,"station_id":"ce4bhr12rcd13ifvqhqg","pricing_plan_id":"cebpf4jnsgd1na2vs0mg"},{"bike_id":"d97363d0-66d4-41ff-a284-e92de9f4d0ca","system_id":"levelo_inurba_marseille","lat":43.322872,"lon":5.382756,"is_reserved":false,"is_disabled":false,"rental_uris":{"android":"levelo://app?vid=d97363d0-66d4-41ff-a284-e92de9f4d0ca","ios":"levelo://app?vid=d97363d0-66d4-41ff-a284-e92de9f4d0ca"},"vehicle_type_id":"4","last_reported":1711400784,"current_range_meters":8800,"station_id":"ce4bhr12rcd13ifvqhqg","pricing_plan_id":"cebpf4jnsgd1na2vs0mg"},{"bike_id":"97e9c4a2-dd04-48d1-b53b-8bea725f8010","system_id":"levelo_inurba_marseille","lat":43.297163,"lon":5.365866,"is_reserved":false,"is_disabled":false,"rental_uris":{"android":"levelo://app?vid=97e9c4a2-dd04-48d1-b53b-8bea725f8010","ios":"levelo://app?vid=97e9c4a2-dd04-48d1-b53b-8bea725f8010"},"vehicle_type_id":"4","last_reported":1711400784,"current_range_meters":15600,"station_id":"ce4bgn12rcd13ifvqbt0","pricing_plan_id":"cebpf4jnsgd1na2vs0mg"},{"bike_id":"cc6de53c-688b-482c-aba1-71ea4e3a836b","system_id":"levelo_inurba_marseille","lat":43.297163,"lon":5.365866,"is_reserved":false,"is_disabled":false,"rental_uris":{"android":"levelo://app?vid=cc6de53c-688b-482c-aba1-71ea4e3a836b","ios":"levelo://app?vid=cc6de53c-688b-482c-aba1-71ea4e3a836b"},"vehicle_type_id":"4","last_reported":1711400784,"current_range_meters":6400,"station_id":"ce4bgn12rcd13ifvqbt0","pricing_plan_id":"cebpf4jnsgd1na2vs0mg"},{"bike_id":"6e17a8b0-cf86-4965-b9e4-db0ed7a190d1","system_id":"levelo_inurba_marseille","lat":43.297163,"lon":5.365866,"is_reserved":false,"is_disabled":false,"rental_uris":{"android":"levelo://app?vid=6e17a8b0-cf86-4965-b9e4-db0ed7a190d1","ios":"levelo://app?vid=6e17a8b0-cf86-4965-b9e4-db0ed7a190d1"},"vehicle_type_id":"4","last_reported":1711400784,"current_range_meters":22400,"station_id":"ce4bgn12rcd13ifvqbt0","pricing_plan_id":"cebpf4jnsgd1na2vs0mg"},{"bike_id":"a64c375d-f2f8-4755-b6f7-8743db8cfbc3","system_id":"levelo_inurba_marseille","lat":43.297163,"lon":5.365866,"is_reserved":false,"is_disabled":false,"rental_uris":{"android":"levelo://app?vid=a64c375d-f2f8-4755-b6f7-8743db8cfbc3","ios":"levelo://app?vid=a64c375d-f2f8-4755-b6f7-8743db8cfbc3"},"vehicle_type_id":"4","last_reported":1711400784,"current_range_meters":27600,"station_id":"ce4bgn12rcd13ifvqbt0","pricing_plan_id":"cebpf4jnsgd1na2vs0mg"},{"bike_id":"45b53918-0d65-40fa-9688-2d82f11c9a2a","system_id":"levelo_inurba_marseille","lat":43.297163,"lon":5.365866,"is_reserved":false,"is_disabled":false,"rental_uris":{"android":"levelo://app?vid=45b53918-0d65-40fa-9688-2d82f11c9a2a","ios":"levelo://app?vid=45b53918-0d65-40fa-9688-2d82f11c9a2a"},"vehicle_type_id":"4","last_reported":1711400784,"current_range_meters":19600,"station_id":"ce4bgn12rcd13ifvqbt0","pricing_plan_id":"cebpf4jnsgd1na2vs0mg"},{"bike_id":"d1081c21-8fe3-45c1-9163-f6393635e832","system_id":"levelo_inurba_marseille","lat":43.297163,"lon":5.365866,"is_reserved":false,"is_disabled":false,"rental_uris":{"android":"levelo://app?vid=d1081c21-8fe3-45c1-9163-f6393635e832","ios":"levelo://app?vid=d1081c21-8fe3-45c1-9163-f6393635e832"},"vehicle_type_id":"4","last_reported":1711400784,"current_range_meters":31600,"station_id":"ce4bgn12rcd13ifvqbt0","pricing_plan_id":"cebpf4jnsgd1na2vs0mg"},{"bike_id":"85a669f5-2610-4f20-8e1e-b7489f36a6fc","system_id":"levelo_inurba_marseille","lat":43.297163,"lon":5.365866,"is_reserved":false,"is_disabled":false,"rental_uris":{"android":"levelo://app?vid=85a669f5-2610-4f20-8e1e-b7489f36a6fc","ios":"levelo://app?vid=85a669f5-2610-4f20-8e1e-b7489f36a6fc"},"vehicle_type_id":"4","last_reported":1711400784,"current_range_meters":4800,"station_id":"ce4bgn12rcd13ifvqbt0","pricing_plan_id":"cebpf4jnsgd1na2vs0mg"},{"bike_id":"8eb4089b-f13d-49ef-b895-b5683981d7b3","system_id":"levelo_inurba_marseille","lat":43.297163,"lon":5.365866,"is_reserved":false,"is_disabled":false,"rental_uris":{"android":"levelo://app?vid=8eb4089b-f13d-49ef-b895-b5683981d7b3","ios":"levelo://app?vid=8eb4089b-f13d-49ef-b895-b5683981d7b3"},"vehicle_type_id":"4","last_reported":1711400784,"current_range_meters":13600,"station_id":"ce4bgn12rcd13ifvqbt0","pricing_plan_id":"cebpf4jnsgd1na2vs0mg"},{"bike_id":"df1e6ea2-2d2a-4468-bf41-ca2da1e31172","system_id":"levelo_inurba_marseille","lat":43.31556,"lon":5.38842,"is_reserved":false,"is_disabled":false,"rental_uris":{"android":"levelo://app?vid=df1e6ea2-2d2a-4468-bf41-ca2da1e31172","ios":"levelo://app?vid=df1e6ea2-2d2a-4468-bf41-ca2da1e31172"},"vehicle_type_id":"4","last_reported":1711400784,"current_range_meters":10000,"station_id":"","pricing_plan_id":"cebpf4jnsgd1na2vs0mg"},{"bike_id":"67b9b8db-57e6-44fd-a81f-69b316e31ab8","system_id":"levelo_inurba_marseille","lat":43.2968,"lon":5.37291,"is_reserved":false,"is_disabled":false,"rental_uris":{"android":"levelo://app?vid=67b9b8db-57e6-44fd-a81f-69b316e31ab8","ios":"levelo://app?vid=67b9b8db-57e6-44fd-a81f-69b316e31ab8"},"vehicle_type_id":"4","last_reported":1711400784,"current_range_meters":0,"station_id":"ce4bgk12rcd13ifvqbj0","pricing_plan_id":"cebpf4jnsgd1na2vs0mg"},{"bike_id":"acfd3c17-98f2-4dc3-bcca-eaca310381f0","system_id":"levelo_inurba_marseille","lat":43.29573,"lon":5.367355,"is_reserved":false,"is_disabled":false,"rental_uris":{"android":"levelo://app?vid=acfd3c17-98f2-4dc3-bcca-eaca310381f0","ios":"levelo://app?vid=acfd3c17-98f2-4dc3-bcca-eaca310381f0"},"vehicle_type_id":"4","last_reported":1711400784,"current_range_meters":4400,"station_id":"ce4bgph2rcd13ifvqc2g","pricing_plan_id":"cebpf4jnsgd1na2vs0mg"},{"bike_id":"e8cd5ddb-d3de-4b28-93a4-d484c54b1098","system_id":"levelo_inurba_marseille","lat":43.296131,"lon":5.370791,"is_reserved":false,"is_disabled":false,"rental_uris":{"android":"levelo://app?vid=e8cd5ddb-d3de-4b28-93a4-d484c54b1098","ios":"levelo://app?vid=e8cd5ddb-d3de-4b28-93a4-d484c54b1098"},"vehicle_type_id":"4","last_reported":1711400784,"current_range_meters":7600,"station_id":"ce4bgnh2rcd13ifvqc0g","pricing_plan_id":"cebpf4jnsgd1na2vs0mg"},{"bike_id":"357f5ef0-feb1-4f3b-8bbb-c5eb95d9afd4","system_id":"levelo_inurba_marseille","lat":43.296129,"lon":5.370777,"is_reserved":false,"is_disabled":false,"rental_uris":{"android":"levelo://app?vid=357f5ef0-feb1-4f3b-8bbb-c5eb95d9afd4","ios":"levelo://app?vid=357f5ef0-feb1-4f3b-8bbb-c5eb95d9afd4"},"vehicle_type_id":"4","last_reported":1711400784,"current_range_meters":16000,"station_id":"ce4bgnh2rcd13ifvqc0g","pricing_plan_id":"cebpf4jnsgd1na2vs0mg"},{"bike_id":"6ed3f315-b466-4c8c-b739-9fdd02609004","system_id":"levelo_inurba_marseille","lat":43.29573,"lon":5.367355,"is_reserved":false,"is_disabled":false,"rental_uris":{"android":"levelo://app?vid=6ed3f315-b466-4c8c-b739-9fdd02609004","ios":"levelo://app?vid=6ed3f315-b466-4c8c-b739-9fdd02609004"},"vehicle_type_id":"4","last_reported":1711400784,"current_range_meters":16400,"station_id":"ce4bgph2rcd13ifvqc2g","pricing_plan_id":"cebpf4jnsgd1na2vs0mg"},{"bike_id":"35137c27-5f69-4587-875f-44b053c4b9ca","system_id":"levelo_inurba_marseille","lat":43.29573,"lon":5.367355,"is_reserved":false,"is_disabled":false,"rental_uris":{"android":"levelo://app?vid=35137c27-5f69-4587-875f-44b053c4b9ca","ios":"levelo://app?vid=35137c27-5f69-4587-875f-44b053c4b9ca"},"vehicle_type_id":"4","last_reported":1711400784,"current_range_meters":2800,"station_id":"ce4bgph2rcd13ifvqc2g","pricing_plan_id":"cebpf4jnsgd1na2vs0mg"},{"bike_id":"05efc580-e884-4027-9caf-851351add085","system_id":"levelo_inurba_marseille","lat":43.296935,"lon":5.376544,"is_reserved":false,"is_disabled":false,"rental_uris":{"android":"levelo://app?vid=05efc580-e884-4027-9caf-851351add085","ios":"levelo://app?vid=05efc580-e884-4027-9caf-851351add085"},"vehicle_type_id":"4","last_reported":1711400784,"current_range_meters":29600,"station_id":"ce4bgkh2rcd13ifvqbl0","pricing_plan_id":"cebpf4jnsgd1na2vs0mg"},{"bike_id":"a349c510-f361-4125-9790-a0f2d6ac048b","system_id":"levelo_inurba_marseille","lat":43.296935,"lon":5.376544,"is_reserved":false,"is_disabled":false,"rental_uris":{"android":"levelo://app?vid=a349c510-f361-4125-9790-a0f2d6ac048b","ios":"levelo://app?vid=a349c510-f361-4125-9790-a0f2d6ac048b"},"vehicle_type_id":"4","last_reported":1711400784,"current_range_meters":0,"station_id":"ce4bgkh2rcd13ifvqbl0","pricing_plan_id":"cebpf4jnsgd1na2vs0mg"},{"bike_id":"01e7f9cb-87b2-41e2-a0c9-0f948248c267","system_id":"levelo_inurba_marseille","lat":43.299028,"lon":5.381509,"is_reserved":false,"is_disabled":false,"rental_uris":{"android":"levelo://app?vid=01e7f9cb-87b2-41e2-a0c9-0f948248c267","ios":"levelo://app?vid=01e7f9cb-87b2-41e2-a0c9-0f948248c267"},"vehicle_type_id":"4","last_reported":1711400784,"current_range_meters":30000,"station_id":"ce4bgj12rcd13ifvqbc0","pricing_plan_id":"cebpf4jnsgd1na2vs0mg"},{"bike_id":"90e1d3ea-cc58-4628-a896-c19d77c74c96","system_id":"levelo_inurba_marseille","lat":43.29905,"lon":5.38145,"is_reserved":false,"is_disabled":false,"rental_uris":{"android":"levelo://app?vid=90e1d3ea-cc58-4628-a896-c19d77c74c96","ios":"levelo://app?vid=90e1d3ea-cc58-4628-a896-c19d77c74c96"},"vehicle_type_id":"4","last_reported":1711400784,"current_range_meters":1200,"station_id":"ce4bgj12rcd13ifvqbc0","pricing_plan_id":"cebpf4jnsgd1na2vs0mg"},{"bike_id":"f18dc60a-0c36-46d9-829d-e1077c994cf0","system_id":"levelo_inurba_marseille","lat":43.299028,"lon":5.381509,"is_reserved":false,"is_disabled":false,"rental_uris":{"android":"levelo://app?vid=f18dc60a-0c36-46d9-829d-e1077c994cf0","ios":"levelo://app?vid=f18dc60a-0c36-46d9-829d-e1077c994cf0"},"vehicle_type_id":"4","last_reported":1711400784,"current_range_meters":31200,"station_id":"ce4bgj12rcd13ifvqbc0","pricing_plan_id":"cebpf4jnsgd1na2vs0mg"},{"bike_id":"e50a075d-8955-492f-bb34-0845bdc05641","system_id":"levelo_inurba_marseille","lat":43.29907,"lon":5.38153,"is_reserved":false,"is_disabled":false,"rental_uris":{"android":"levelo://app?vid=e50a075d-8955-492f-bb34-0845bdc05641","ios":"levelo://app?vid=e50a075d-8955-492f-bb34-0845bdc05641"},"vehicle_type_id":"4","last_reported":1711400784,"current_range_meters":17600,"station_id":"ce4bgj12rcd13ifvqbc0","pricing_plan_id":"cebpf4jnsgd1na2vs0mg"},{"bike_id":"a05a7f16-c179-41a6-b6f7-acc8bed2676e","system_id":"levelo_inurba_marseille","lat":43.309589,"lon":5.390258,"is_reserved":false,"is_disabled":false,"rental_uris":{"android":"levelo://app?vid=a05a7f16-c179-41a6-b6f7-acc8bed2676e","ios":"levelo://app?vid=a05a7f16-c179-41a6-b6f7-acc8bed2676e"},"vehicle_type_id":"4","last_reported":1711400784,"current_range_meters":3200,"station_id":"ce4bgup2rcd13ifvqco0","pricing_plan_id":"cebpf4jnsgd1na2vs0mg"},{"bike_id":"74974c3e-a3ed-4db4-862b-8a3a954f9899","system_id":"levelo_inurba_marseille","lat":43.317557,"lon":5.390173,"is_reserved":false,"is_disabled":false,"rental_uris":{"android":"levelo://app?vid=74974c3e-a3ed-4db4-862b-8a3a954f9899","ios":"levelo://app?vid=74974c3e-a3ed-4db4-862b-8a3a954f9899"},"vehicle_type_id":"4","last_reported":1711400784,"current_range_meters":30400,"station_id":"ce4bhqp2rcd13ifvqhng","pricing_plan_id":"cebpf4jnsgd1na2vs0mg"},{"bike_id":"3cfcb15f-5e0d-4726-a726-880573b2cddf","system_id":"levelo_inurba_marseille","lat":43.317557,"lon":5.390173,"is_reserved":false,"is_disabled":false,"rental_uris":{"android":"levelo://app?vid=3cfcb15f-5e0d-4726-a726-880573b2cddf","ios":"levelo://app?vid=3cfcb15f-5e0d-4726-a726-880573b2cddf"},"vehicle_type_id":"4","last_reported":1711400784,"current_range_meters":9200,"station_id":"ce4bhqp2rcd13ifvqhng","pricing_plan_id":"cebpf4jnsgd1na2vs0mg"},{"bike_id":"a931c455-d728-49e7-b88a-2acee71fb49c","system_id":"levelo_inurba_marseille","lat":43.317557,"lon":5.390173,"is_reserved":false,"is_disabled":false,"rental_uris":{"android":"levelo://app?vid=a931c455-d728-49e7-b88a-2acee71fb49c","ios":"levelo://app?vid=a931c455-d728-49e7-b88a-2acee71fb49c"},"vehicle_type_id":"4","last_reported":1711400784,"current_range_meters":25200,"station_id":"ce4bhqp2rcd13ifvqhng","pricing_plan_id":"cebpf4jnsgd1na2vs0mg"},{"bike_id":"61811189-75cf-4d15-a6f4-1f7399341d0f","system_id":"levelo_inurba_marseille","lat":43.31758,"lon":5.39015,"is_reserved":false,"is_disabled":false,"rental_uris":{"android":"levelo://app?vid=61811189-75cf-4d15-a6f4-1f7399341d0f","ios":"levelo://app?vid=61811189-75cf-4d15-a6f4-1f7399341d0f"},"vehicle_type_id":"4","last_reported":1711400784,"current_range_meters":14400,"station_id":"ce4bhqp2rcd13ifvqhng","pricing_plan_id":"cebpf4jnsgd1na2vs0mg"},{"bike_id":"d5f55ddd-68b1-43b4-a156-720154add23b","system_id":"levelo_inurba_marseille","lat":43.317603,"lon":5.390167,"is_reserved":false,"is_disabled":false,"rental_uris":{"android":"levelo://app?vid=d5f55ddd-68b1-43b4-a156-720154add23b","ios":"levelo://app?vid=d5f55ddd-68b1-43b4-a156-720154add23b"},"vehicle_type_id":"4","last_reported":1711400784,"current_range_meters":0,"station_id":"ce4bhqp2rcd13ifvqhng","pricing_plan_id":"cebpf4jnsgd1na2vs0mg"},{"bike_id":"96880fb3-9072-474a-b7df-b58771331d89","system_id":"levelo_inurba_marseille","lat":43.31755,"lon":5.3902,"is_reserved":false,"is_disabled":false,"rental_uris":{"android":"levelo://app?vid=96880fb3-9072-474a-b7df-b58771331d89","ios":"levelo://app?vid=96880fb3-9072-474a-b7df-b58771331d89"},"vehicle_type_id":"4","last_reported":1711400784,"current_range_meters":14400,"station_id":"ce4bhqp2rcd13ifvqhng","pricing_plan_id":"cebpf4jnsgd1na2vs0mg"},{"bike_id":"83108d97-d6fa-4d19-b3b0-1dbede4bac67","system_id":"levelo_inurba_marseille","lat":43.31755,"lon":5.39021,"is_reserved":false,"is_disabled":false,"rental_uris":{"android":"levelo://app?vid=83108d97-d6fa-4d19-b3b0-1dbede4bac67","ios":"levelo://app?vid=83108d97-d6fa-4d19-b3b0-1dbede4bac67"},"vehicle_type_id":"4","last_reported":1711400784,"current_range_meters":16400,"station_id":"ce4bhqp2rcd13ifvqhng","pricing_plan_id":"cebpf4jnsgd1na2vs0mg"},{"bike_id":"5a0fd1d2-8e65-443e-9fca-b2ba02caa8e8","system_id":"levelo_inurba_marseille","lat":43.31757,"lon":5.39021,"is_reserved":false,"is_disabled":false,"rental_uris":{"android":"levelo://app?vid=5a0fd1d2-8e65-443e-9fca-b2ba02caa8e8","ios":"levelo://app?vid=5a0fd1d2-8e65-443e-9fca-b2ba02caa8e8"},"vehicle_type_id":"4","last_reported":1711400784,"current_range_meters":25200,"station_id":"ce4bhqp2rcd13ifvqhng","pricing_plan_id":"cebpf4jnsgd1na2vs0mg"},{"bike_id":"d642746c-c3b3-4993-8c11-edc5a35ab173","system_id":"levelo_inurba_marseille","lat":43.3176,"lon":5.39021,"is_reserved":false,"is_disabled":false,"rental_uris":{"android":"levelo://app?vid=d642746c-c3b3-4993-8c11-edc5a35ab173","ios":"levelo://app?vid=d642746c-c3b3-4993-8c11-edc5a35ab173"},"vehicle_type_id":"4","last_reported":1711400784,"current_range_meters":26000,"station_id":"ce4bhqp2rcd13ifvqhng","pricing_plan_id":"cebpf4jnsgd1na2vs0mg"},{"bike_id":"b0618c2a-5e87-4a42-adfb-8de954a580f3","system_id":"levelo_inurba_marseille","lat":43.3044,"lon":5.38882,"is_reserved":false,"is_disabled":false,"rental_uris":{"android":"levelo://app?vid=b0618c2a-5e87-4a42-adfb-8de954a580f3","ios":"levelo://app?vid=b0618c2a-5e87-4a42-adfb-8de954a580f3"},"vehicle_type_id":"4","last_reported":1711400784,"current_range_meters":23200,"station_id":"ce4bgk12rcd13ifvqbi0","pricing_plan_id":"cebpf4jnsgd1na2vs0mg"},{"bike_id":"b1709483-0233-43f7-bffc-623e8b3a8958","system_id":"levelo_inurba_marseille","lat":43.296263,"lon":5.377094,"is_reserved":false,"is_disabled":false,"rental_uris":{"android":"levelo://app?vid=b1709483-0233-43f7-bffc-623e8b3a8958","ios":"levelo://app?vid=b1709483-0233-43f7-bffc-623e8b3a8958"},"vehicle_type_id":"4","last_reported":1711400784,"current_range_meters":15600,"station_id":"ce4bgi92rcd13ifvqb90","pricing_plan_id":"cebpf4jnsgd1na2vs0mg"},{"bike_id":"cd830c5a-172e-4cb2-999e-5048d2514e49","system_id":"levelo_inurba_marseille","lat":43.30439,"lon":5.38887,"is_reserved":false,"is_disabled":false,"rental_uris":{"android":"levelo://app?vid=cd830c5a-172e-4cb2-999e-5048d2514e49","ios":"levelo://app?vid=cd830c5a-172e-4cb2-999e-5048d2514e49"},"vehicle_type_id":"4","last_reported":1711400784,"current_range_meters":7200,"station_id":"ce4bgk12rcd13ifvqbi0","pricing_plan_id":"cebpf4jnsgd1na2vs0mg"},{"bike_id":"eb815009-c956-4b7a-9ca6-0812933e8952","system_id":"levelo_inurba_marseille","lat":43.30441,"lon":5.3889,"is_reserved":false,"is_disabled":false,"rental_uris":{"android":"levelo://app?vid=eb815009-c956-4b7a-9ca6-0812933e8952","ios":"levelo://app?vid=eb815009-c956-4b7a-9ca6-0812933e8952"},"vehicle_type_id":"4","last_reported":1711400784,"current_range_meters":10000,"station_id":"ce4bgk12rcd13ifvqbi0","pricing_plan_id":"cebpf4jnsgd1na2vs0mg"},{"bike_id":"617b0e6f-676e-40f0-bbaf-c9395e5b4dcd","system_id":"levelo_inurba_marseille","lat":43.31476,"lon":5.39155,"is_reserved":false,"is_disabled":false,"rental_uris":{"android":"levelo://app?vid=617b0e6f-676e-40f0-bbaf-c9395e5b4dcd","ios":"levelo://app?vid=617b0e6f-676e-40f0-bbaf-c9395e5b4dcd"},"vehicle_type_id":"4","last_reported":1711400784,"current_range_meters":1200,"station_id":"","pricing_plan_id":"cebpf4jnsgd1na2vs0mg"},{"bike_id":"7910b961-32a8-477f-a357-f7afe15c11f4","system_id":"levelo_inurba_marseille","lat":43.304274,"lon":5.388873,"is_reserved":false,"is_disabled":false,"rental_uris":{"android":"levelo://app?vid=7910b961-32a8-477f-a357-f7afe15c11f4","ios":"levelo://app?vid=7910b961-32a8-477f-a357-f7afe15c11f4"},"vehicle_type_id":"4","last_reported":1711400784,"current_range_meters":30000,"station_id":"ce4bgk12rcd13ifvqbi0","pricing_plan_id":"cebpf4jnsgd1na2vs0mg"},{"bike_id":"91a0868f-59ad-4c58-ab9e-7d8ceff900e3","system_id":"levelo_inurba_marseille","lat":43.304274,"lon":5.388873,"is_reserved":false,"is_disabled":false,"rental_uris":{"android":"levelo://app?vid=91a0868f-59ad-4c58-ab9e-7d8ceff900e3","ios":"levelo://app?vid=91a0868f-59ad-4c58-ab9e-7d8ceff900e3"},"vehicle_type_id":"4","last_reported":1711400784,"current_range_meters":20800,"station_id":"ce4bgk12rcd13ifvqbi0","pricing_plan_id":"cebpf4jnsgd1na2vs0mg"},{"bike_id":"5c33c0da-eae7-4bd1-aef5-973670d0d9c5","system_id":"levelo_inurba_marseille","lat":43.304274,"lon":5.388873,"is_reserved":false,"is_disabled":false,"rental_uris":{"android":"levelo://app?vid=5c33c0da-eae7-4bd1-aef5-973670d0d9c5","ios":"levelo://app?vid=5c33c0da-eae7-4bd1-aef5-973670d0d9c5"},"vehicle_type_id":"4","last_reported":1711400784,"current_range_meters":13600,"station_id":"ce4bgk12rcd13ifvqbi0","pricing_plan_id":"cebpf4jnsgd1na2vs0mg"},{"bike_id":"5b3969db-8490-4788-b0f6-6d19885c1ad4","system_id":"levelo_inurba_marseille","lat":43.30438,"lon":5.38893,"is_reserved":false,"is_disabled":false,"rental_uris":{"android":"levelo://app?vid=5b3969db-8490-4788-b0f6-6d19885c1ad4","ios":"levelo://app?vid=5b3969db-8490-4788-b0f6-6d19885c1ad4"},"vehicle_type_id":"4","last_reported":1711400784,"current_range_meters":5200,"station_id":"ce4bgk12rcd13ifvqbi0","pricing_plan_id":"cebpf4jnsgd1na2vs0mg"},{"bike_id":"efd9b04e-45a6-46ae-8625-c8bb91f27fc1","system_id":"levelo_inurba_marseille","lat":43.304274,"lon":5.388873,"is_reserved":false,"is_disabled":false,"rental_uris":{"android":"levelo://app?vid=efd9b04e-45a6-46ae-8625-c8bb91f27fc1","ios":"levelo://app?vid=efd9b04e-45a6-46ae-8625-c8bb91f27fc1"},"vehicle_type_id":"4","last_reported":1711400784,"current_range_meters":400,"station_id":"ce4bgk12rcd13ifvqbi0","pricing_plan_id":"cebpf4jnsgd1na2vs0mg"},{"bike_id":"b0d70539-152b-404a-b2cf-4c997140854b","system_id":"levelo_inurba_marseille","lat":43.30437,"lon":5.38894,"is_reserved":false,"is_disabled":false,"rental_uris":{"android":"levelo://app?vid=b0d70539-152b-404a-b2cf-4c997140854b","ios":"levelo://app?vid=b0d70539-152b-404a-b2cf-4c997140854b"},"vehicle_type_id":"4","last_reported":1711400784,"current_range_meters":22800,"station_id":"ce4bgk12rcd13ifvqbi0","pricing_plan_id":"cebpf4jnsgd1na2vs0mg"},{"bike_id":"0e5494c0-0eca-4a5c-958a-abd2d3ed6222","system_id":"levelo_inurba_marseille","lat":43.296263,"lon":5.377094,"is_reserved":false,"is_disabled":false,"rental_uris":{"android":"levelo://app?vid=0e5494c0-0eca-4a5c-958a-abd2d3ed6222","ios":"levelo://app?vid=0e5494c0-0eca-4a5c-958a-abd2d3ed6222"},"vehicle_type_id":"4","last_reported":1711400784,"current_range_meters":400,"station_id":"ce4bgi92rcd13ifvqb90","pricing_plan_id":"cebpf4jnsgd1na2vs0mg"},{"bike_id":"9d490ab4-7e85-4b19-8aff-c7031d4524df","system_id":"levelo_inurba_marseille","lat":43.296249,"lon":5.377386,"is_reserved":false,"is_disabled":false,"rental_uris":{"android":"levelo://app?vid=9d490ab4-7e85-4b19-8aff-c7031d4524df","ios":"levelo://app?vid=9d490ab4-7e85-4b19-8aff-c7031d4524df"},"vehicle_type_id":"4","last_reported":1711400784,"current_range_meters":0,"station_id":"","pricing_plan_id":"cebpf4jnsgd1na2vs0mg"},{"bike_id":"bf9bf615-bce6-4b76-a67d-ae2385bcd89c","system_id":"levelo_inurba_marseille","lat":43.314695,"lon":5.391982,"is_reserved":false,"is_disabled":false,"rental_uris":{"android":"levelo://app?vid=bf9bf615-bce6-4b76-a67d-ae2385bcd89c","ios":"levelo://app?vid=bf9bf615-bce6-4b76-a67d-ae2385bcd89c"},"vehicle_type_id":"4","last_reported":1711400784,"current_range_meters":27200,"station_id":"","pricing_plan_id":"cebpf4jnsgd1na2vs0mg"},{"bike_id":"7a98862f-2e2d-417c-b6d2-7c1eecf8eeea","system_id":"levelo_inurba_marseille","lat":43.29977,"lon":5.38486,"is_reserved":false,"is_disabled":false,"rental_uris":{"android":"levelo://app?vid=7a98862f-2e2d-417c-b6d2-7c1eecf8eeea","ios":"levelo://app?vid=7a98862f-2e2d-417c-b6d2-7c1eecf8eeea"},"vehicle_type_id":"4","last_reported":1711400784,"current_range_meters":0,"station_id":"ce4bgj92rcd13ifvqbd0","pricing_plan_id":"cebpf4jnsgd1na2vs0mg"},{"bike_id":"3c624ee4-722c-4dfd-aeec-c80b35be08a1","system_id":"levelo_inurba_marseille","lat":43.299707,"lon":5.384859,"is_reserved":false,"is_disabled":false,"rental_uris":{"android":"levelo://app?vid=3c624ee4-722c-4dfd-aeec-c80b35be08a1","ios":"levelo://app?vid=3c624ee4-722c-4dfd-aeec-c80b35be08a1"},"vehicle_type_id":"4","last_reported":1711400784,"current_range_meters":6000,"station_id":"ce4bgj92rcd13ifvqbd0","pricing_plan_id":"cebpf4jnsgd1na2vs0mg"},{"bike_id":"fa5c3893-8bd7-4ede-a002-bbc566ec9e50","system_id":"levelo_inurba_marseille","lat":43.29522,"lon":5.37498,"is_reserved":false,"is_disabled":false,"rental_uris":{"android":"levelo://app?vid=fa5c3893-8bd7-4ede-a002-bbc566ec9e50","ios":"levelo://app?vid=fa5c3893-8bd7-4ede-a002-bbc566ec9e50"},"vehicle_type_id":"4","last_reported":1711400784,"current_range_meters":12400,"station_id":"ce4bgkp2rcd13ifvqbmg","pricing_plan_id":"cebpf4jnsgd1na2vs0mg"},{"bike_id":"e6b8d9f2-9dea-43f9-90f2-ce6a354423b1","system_id":"levelo_inurba_marseille","lat":43.299707,"lon":5.384859,"is_reserved":false,"is_disabled":false,"rental_uris":{"android":"levelo://app?vid=e6b8d9f2-9dea-43f9-90f2-ce6a354423b1","ios":"levelo://app?vid=e6b8d9f2-9dea-43f9-90f2-ce6a354423b1"},"vehicle_type_id":"4","last_reported":1711400784,"current_range_meters":16000,"station_id":"ce4bgj92rcd13ifvqbd0","pricing_plan_id":"cebpf4jnsgd1na2vs0mg"},{"bike_id":"54920884-8715-49f0-b682-b60737037e70","system_id":"levelo_inurba_marseille","lat":43.299707,"lon":5.384859,"is_reserved":false,"is_disabled":false,"rental_uris":{"android":"levelo://app?vid=54920884-8715-49f0-b682-b60737037e70","ios":"levelo://app?vid=54920884-8715-49f0-b682-b60737037e70"},"vehicle_type_id":"4","last_reported":1711400784,"current_range_meters":19200,"station_id":"ce4bgj92rcd13ifvqbd0","pricing_plan_id":"cebpf4jnsgd1na2vs0mg"},{"bike_id":"c56e3e85-d19c-4dc5-b26c-a5fb7445c568","system_id":"levelo_inurba_marseille","lat":43.32367,"lon":5.388837,"is_reserved":false,"is_disabled":false,"rental_uris":{"android":"levelo://app?vid=c56e3e85-d19c-4dc5-b26c-a5fb7445c568","ios":"levelo://app?vid=c56e3e85-d19c-4dc5-b26c-a5fb7445c568"},"vehicle_type_id":"4","last_reported":1711400784,"current_range_meters":10400,"station_id":"ce4bhqp2rcd13ifvqhog","pricing_plan_id":"cebpf4jnsgd1na2vs0mg"},{"bike_id":"3aa46326-71f7-4121-8f47-dfcc74d3bb25","system_id":"levelo_inurba_marseille","lat":43.32367,"lon":5.388836,"is_reserved":false,"is_disabled":false,"rental_uris":{"android":"levelo://app?vid=3aa46326-71f7-4121-8f47-dfcc74d3bb25","ios":"levelo://app?vid=3aa46326-71f7-4121-8f47-dfcc74d3bb25"},"vehicle_type_id":"4","last_reported":1711400784,"current_range_meters":8800,"station_id":"ce4bhqp2rcd13ifvqhog","pricing_plan_id":"cebpf4jnsgd1na2vs0mg"},{"bike_id":"80e7d431-bc23-457e-942d-1f6ab9bfa5dd","system_id":"levelo_inurba_marseille","lat":43.32369,"lon":5.38893,"is_reserved":false,"is_disabled":false,"rental_uris":{"android":"levelo://app?vid=80e7d431-bc23-457e-942d-1f6ab9bfa5dd","ios":"levelo://app?vid=80e7d431-bc23-457e-942d-1f6ab9bfa5dd"},"vehicle_type_id":"4","last_reported":1711400784,"current_range_meters":0,"station_id":"ce4bhqp2rcd13ifvqhog","pricing_plan_id":"cebpf4jnsgd1na2vs0mg"},{"bike_id":"e9957f63-2478-4f71-8e28-e8a1e63aaf51","system_id":"levelo_inurba_marseille","lat":43.3237,"lon":5.38893,"is_reserved":false,"is_disabled":false,"rental_uris":{"android":"levelo://app?vid=e9957f63-2478-4f71-8e28-e8a1e63aaf51","ios":"levelo://app?vid=e9957f63-2478-4f71-8e28-e8a1e63aaf51"},"vehicle_type_id":"4","last_reported":1711400784,"current_range_meters":16400,"station_id":"ce4bhqp2rcd13ifvqhog","pricing_plan_id":"cebpf4jnsgd1na2vs0mg"},{"bike_id":"51da314f-d3e9-4207-b1d1-9859a5d3a83c","system_id":"levelo_inurba_marseille","lat":43.29606,"lon":5.38099,"is_reserved":false,"is_disabled":false,"rental_uris":{"android":"levelo://app?vid=51da314f-d3e9-4207-b1d1-9859a5d3a83c","ios":"levelo://app?vid=51da314f-d3e9-4207-b1d1-9859a5d3a83c"},"vehicle_type_id":"4","last_reported":1711400784,"current_range_meters":0,"station_id":"ce4bgl12rcd13ifvqbo0","pricing_plan_id":"cebpf4jnsgd1na2vs0mg"},{"bike_id":"ac4349db-be9f-4fd7-8c5c-5a97368f69e7","system_id":"levelo_inurba_marseille","lat":43.29602,"lon":5.381084,"is_reserved":false,"is_disabled":false,"rental_uris":{"android":"levelo://app?vid=ac4349db-be9f-4fd7-8c5c-5a97368f69e7","ios":"levelo://app?vid=ac4349db-be9f-4fd7-8c5c-5a97368f69e7"},"vehicle_type_id":"4","last_reported":1711400784,"current_range_meters":16400,"station_id":"ce4bgl12rcd13ifvqbo0","pricing_plan_id":"cebpf4jnsgd1na2vs0mg"},{"bike_id":"30040b86-29fa-4894-8269-4cb075f40e9a","system_id":"levelo_inurba_marseille","lat":43.293259,"lon":5.371586,"is_reserved":false,"is_disabled":false,"rental_uris":{"android":"levelo://app?vid=30040b86-29fa-4894-8269-4cb075f40e9a","ios":"levelo://app?vid=30040b86-29fa-4894-8269-4cb075f40e9a"},"vehicle_type_id":"4","last_reported":1711400784,"current_range_meters":8800,"station_id":"ce4bgh92rcd13ifvqb40","pricing_plan_id":"cebpf4jnsgd1na2vs0mg"},{"bike_id":"241f7b9a-7959-4a84-9067-490482deaa67","system_id":"levelo_inurba_marseille","lat":43.292749,"lon":5.368402,"is_reserved":false,"is_disabled":false,"rental_uris":{"android":"levelo://app?vid=241f7b9a-7959-4a84-9067-490482deaa67","ios":"levelo://app?vid=241f7b9a-7959-4a84-9067-490482deaa67"},"vehicle_type_id":"4","last_reported":1711400784,"current_range_meters":30800,"station_id":"ce4bhbp2rcd13ifvqesg","pricing_plan_id":"cebpf4jnsgd1na2vs0mg"},{"bike_id":"36ab76bc-ec21-4e1f-b7b1-8233710d1268","system_id":"levelo_inurba_marseille","lat":43.305994,"lon":5.393687,"is_reserved":false,"is_disabled":false,"rental_uris":{"android":"levelo://app?vid=36ab76bc-ec21-4e1f-b7b1-8233710d1268","ios":"levelo://app?vid=36ab76bc-ec21-4e1f-b7b1-8233710d1268"},"vehicle_type_id":"4","last_reported":1711400784,"current_range_meters":14000,"station_id":"ce4bh0p2rcd13ifvqd80","pricing_plan_id":"cebpf4jnsgd1na2vs0mg"},{"bike_id":"28df2d05-564f-40a5-988b-8de5dd21da5e","system_id":"levelo_inurba_marseille","lat":43.29299,"lon":5.37462,"is_reserved":false,"is_disabled":false,"rental_uris":{"android":"levelo://app?vid=28df2d05-564f-40a5-988b-8de5dd21da5e","ios":"levelo://app?vid=28df2d05-564f-40a5-988b-8de5dd21da5e"},"vehicle_type_id":"4","last_reported":1711400784,"current_range_meters":0,"station_id":"ce4bgi12rcd13ifvqb70","pricing_plan_id":"cebpf4jnsgd1na2vs0mg"},{"bike_id":"f3f6dff5-5a05-464c-bc6e-785c81b8bb26","system_id":"levelo_inurba_marseille","lat":43.293009,"lon":5.374584,"is_reserved":false,"is_disabled":false,"rental_uris":{"android":"levelo://app?vid=f3f6dff5-5a05-464c-bc6e-785c81b8bb26","ios":"levelo://app?vid=f3f6dff5-5a05-464c-bc6e-785c81b8bb26"},"vehicle_type_id":"4","last_reported":1711400784,"current_range_meters":7200,"station_id":"ce4bgi12rcd13ifvqb70","pricing_plan_id":"cebpf4jnsgd1na2vs0mg"},{"bike_id":"7b085e9b-f9c8-4539-a113-d36d09a69ead","system_id":"levelo_inurba_marseille","lat":43.302992,"lon":5.392136,"is_reserved":false,"is_disabled":false,"rental_uris":{"android":"levelo://app?vid=7b085e9b-f9c8-4539-a113-d36d09a69ead","ios":"levelo://app?vid=7b085e9b-f9c8-4539-a113-d36d09a69ead"},"vehicle_type_id":"4","last_reported":1711400784,"current_range_meters":24000,"station_id":"ce4bgkh2rcd13ifvqbk0","pricing_plan_id":"cebpf4jnsgd1na2vs0mg"},{"bike_id":"4e2b870f-5290-48f0-871c-5c9333788f5d","system_id":"levelo_inurba_marseille","lat":43.303002,"lon":5.392142,"is_reserved":false,"is_disabled":false,"rental_uris":{"android":"levelo://app?vid=4e2b870f-5290-48f0-871c-5c9333788f5d","ios":"levelo://app?vid=4e2b870f-5290-48f0-871c-5c9333788f5d"},"vehicle_type_id":"4","last_reported":1711400784,"current_range_meters":26800,"station_id":"ce4bgkh2rcd13ifvqbk0","pricing_plan_id":"cebpf4jnsgd1na2vs0mg"},{"bike_id":"cac10537-6dfe-422d-9a5b-20dae560a1fe","system_id":"levelo_inurba_marseille","lat":43.302992,"lon":5.392136,"is_reserved":false,"is_disabled":false,"rental_uris":{"android":"levelo://app?vid=cac10537-6dfe-422d-9a5b-20dae560a1fe","ios":"levelo://app?vid=cac10537-6dfe-422d-9a5b-20dae560a1fe"},"vehicle_type_id":"4","last_reported":1711400784,"current_range_meters":14000,"station_id":"ce4bgkh2rcd13ifvqbk0","pricing_plan_id":"cebpf4jnsgd1na2vs0mg"},{"bike_id":"33a11a7b-9b5f-4fd2-92a1-77f98ee249ee","system_id":"levelo_inurba_marseille","lat":43.302992,"lon":5.392136,"is_reserved":false,"is_disabled":false,"rental_uris":{"android":"levelo://app?vid=33a11a7b-9b5f-4fd2-92a1-77f98ee249ee","ios":"levelo://app?vid=33a11a7b-9b5f-4fd2-92a1-77f98ee249ee"},"vehicle_type_id":"4","last_reported":1711400784,"current_range_meters":20400,"station_id":"ce4bgkh2rcd13ifvqbk0","pricing_plan_id":"cebpf4jnsgd1na2vs0mg"},{"bike_id":"7f17f471-1dd5-4370-a910-0f37568ea551","system_id":"levelo_inurba_marseille","lat":43.302992,"lon":5.392136,"is_reserved":false,"is_disabled":false,"rental_uris":{"android":"levelo://app?vid=7f17f471-1dd5-4370-a910-0f37568ea551","ios":"levelo://app?vid=7f17f471-1dd5-4370-a910-0f37568ea551"},"vehicle_type_id":"4","last_reported":1711400784,"current_range_meters":13200,"station_id":"ce4bgkh2rcd13ifvqbk0","pricing_plan_id":"cebpf4jnsgd1na2vs0mg"},{"bike_id":"154dca1b-aadf-4439-a91b-de17d9b3b6fa","system_id":"levelo_inurba_marseille","lat":43.2936,"lon":5.37835,"is_reserved":false,"is_disabled":false,"rental_uris":{"android":"levelo://app?vid=154dca1b-aadf-4439-a91b-de17d9b3b6fa","ios":"levelo://app?vid=154dca1b-aadf-4439-a91b-de17d9b3b6fa"},"vehicle_type_id":"4","last_reported":1711400784,"current_range_meters":8000,"station_id":"ce4bgjh2rcd13ifvqbf0","pricing_plan_id":"cebpf4jnsgd1na2vs0mg"},{"bike_id":"c86b70ff-0cec-4278-b891-1a73ed6bda98","system_id":"levelo_inurba_marseille","lat":43.300852,"lon":5.390859,"is_reserved":false,"is_disabled":false,"rental_uris":{"android":"levelo://app?vid=c86b70ff-0cec-4278-b891-1a73ed6bda98","ios":"levelo://app?vid=c86b70ff-0cec-4278-b891-1a73ed6bda98"},"vehicle_type_id":"4","last_reported":1711400784,"current_range_meters":19200,"station_id":"ce4bh192rcd13ifvqdb0","pricing_plan_id":"cebpf4jnsgd1na2vs0mg"},{"bike_id":"7a05dfde-e4fe-4597-ab56-abc7a2dc8a8d","system_id":"levelo_inurba_marseille","lat":43.30085,"lon":5.390856,"is_reserved":false,"is_disabled":false,"rental_uris":{"android":"levelo://app?vid=7a05dfde-e4fe-4597-ab56-abc7a2dc8a8d","ios":"levelo://app?vid=7a05dfde-e4fe-4597-ab56-abc7a2dc8a8d"},"vehicle_type_id":"4","last_reported":1711400784,"current_range_meters":17600,"station_id":"ce4bh192rcd13ifvqdb0","pricing_plan_id":"cebpf4jnsgd1na2vs0mg"},{"bike_id":"bbfa64f3-6f6b-4825-a854-76c3cd11ea4e","system_id":"levelo_inurba_marseille","lat":43.300852,"lon":5.390859,"is_reserved":false,"is_disabled":false,"rental_uris":{"android":"levelo://app?vid=bbfa64f3-6f6b-4825-a854-76c3cd11ea4e","ios":"levelo://app?vid=bbfa64f3-6f6b-4825-a854-76c3cd11ea4e"},"vehicle_type_id":"4","last_reported":1711400784,"current_range_meters":16800,"station_id":"ce4bh192rcd13ifvqdb0","pricing_plan_id":"cebpf4jnsgd1na2vs0mg"},{"bike_id":"72154de6-756f-4110-acbb-e106b43ac5d1","system_id":"levelo_inurba_marseille","lat":43.30085,"lon":5.390856,"is_reserved":false,"is_disabled":false,"rental_uris":{"android":"levelo://app?vid=72154de6-756f-4110-acbb-e106b43ac5d1","ios":"levelo://app?vid=72154de6-756f-4110-acbb-e106b43ac5d1"},"vehicle_type_id":"4","last_reported":1711400784,"current_range_meters":16800,"station_id":"ce4bh192rcd13ifvqdb0","pricing_plan_id":"cebpf4jnsgd1na2vs0mg"},{"bike_id":"1ce71e68-0ad6-4150-84dd-fcd2a7b6c285","system_id":"levelo_inurba_marseille","lat":43.292311,"lon":5.360731,"is_reserved":false,"is_disabled":false,"rental_uris":{"android":"levelo://app?vid=1ce71e68-0ad6-4150-84dd-fcd2a7b6c285","ios":"levelo://app?vid=1ce71e68-0ad6-4150-84dd-fcd2a7b6c285"},"vehicle_type_id":"4","last_reported":1711400784,"current_range_meters":31600,"station_id":"ce4bhbh2rcd13ifvqeqg","pricing_plan_id":"cebpf4jnsgd1na2vs0mg"},{"bike_id":"c5480326-5475-4606-8fee-92de8b9ac89c","system_id":"levelo_inurba_marseille","lat":43.300852,"lon":5.390859,"is_reserved":false,"is_disabled":false,"rental_uris":{"android":"levelo://app?vid=c5480326-5475-4606-8fee-92de8b9ac89c","ios":"levelo://app?vid=c5480326-5475-4606-8fee-92de8b9ac89c"},"vehicle_type_id":"4","last_reported":1711400784,"current_range_meters":14000,"station_id":"ce4bh192rcd13ifvqdb0","pricing_plan_id":"cebpf4jnsgd1na2vs0mg"},{"bike_id":"172bf3dd-3969-4d04-bf51-e7aa16eb319f","system_id":"levelo_inurba_marseille","lat":43.300852,"lon":5.390859,"is_reserved":false,"is_disabled":false,"rental_uris":{"android":"levelo://app?vid=172bf3dd-3969-4d04-bf51-e7aa16eb319f","ios":"levelo://app?vid=172bf3dd-3969-4d04-bf51-e7aa16eb319f"},"vehicle_type_id":"4","last_reported":1711400784,"current_range_meters":0,"station_id":"ce4bh192rcd13ifvqdb0","pricing_plan_id":"cebpf4jnsgd1na2vs0mg"},{"bike_id":"4d90b432-052f-4d0d-b57a-6486d1e0e4f1","system_id":"levelo_inurba_marseille","lat":43.30085,"lon":5.390856,"is_reserved":false,"is_disabled":false,"rental_uris":{"android":"levelo://app?vid=4d90b432-052f-4d0d-b57a-6486d1e0e4f1","ios":"levelo://app?vid=4d90b432-052f-4d0d-b57a-6486d1e0e4f1"},"vehicle_type_id":"4","last_reported":1711400784,"current_range_meters":20800,"station_id":"ce4bh192rcd13ifvqdb0","pricing_plan_id":"cebpf4jnsgd1na2vs0mg"},{"bike_id":"313a3376-c374-4204-8ec8-ca6b09466186","system_id":"levelo_inurba_marseille","lat":43.30085,"lon":5.390856,"is_reserved":false,"is_disabled":false,"rental_uris":{"android":"levelo://app?vid=313a3376-c374-4204-8ec8-ca6b09466186","ios":"levelo://app?vid=313a3376-c374-4204-8ec8-ca6b09466186"},"vehicle_type_id":"4","last_reported":1711400784,"current_range_meters":12800,"station_id":"ce4bh192rcd13ifvqdb0","pricing_plan_id":"cebpf4jnsgd1na2vs0mg"},{"bike_id":"ee3d0ea6-70a6-4b44-aac8-6352fcd8e963","system_id":"levelo_inurba_marseille","lat":43.30085,"lon":5.390856,"is_reserved":false,"is_disabled":false,"rental_uris":{"android":"levelo://app?vid=ee3d0ea6-70a6-4b44-aac8-6352fcd8e963","ios":"levelo://app?vid=ee3d0ea6-70a6-4b44-aac8-6352fcd8e963"},"vehicle_type_id":"4","last_reported":1711400784,"current_range_meters":25200,"station_id":"ce4bh192rcd13ifvqdb0","pricing_plan_id":"cebpf4jnsgd1na2vs0mg"},{"bike_id":"904273ae-f8b9-4e98-9de8-acfcfbd91ea9","system_id":"levelo_inurba_marseille","lat":43.298764,"lon":5.388973,"is_reserved":false,"is_disabled":false,"rental_uris":{"android":"levelo://app?vid=904273ae-f8b9-4e98-9de8-acfcfbd91ea9","ios":"levelo://app?vid=904273ae-f8b9-4e98-9de8-acfcfbd91ea9"},"vehicle_type_id":"4","last_reported":1711400784,"current_range_meters":6800,"station_id":"ce4bh392rcd13ifvqdl0","pricing_plan_id":"cebpf4jnsgd1na2vs0mg"},{"bike_id":"7d676dee-121d-46b4-a959-cf9206b758d7","system_id":"levelo_inurba_marseille","lat":43.298764,"lon":5.388973,"is_reserved":false,"is_disabled":false,"rental_uris":{"android":"levelo://app?vid=7d676dee-121d-46b4-a959-cf9206b758d7","ios":"levelo://app?vid=7d676dee-121d-46b4-a959-cf9206b758d7"},"vehicle_type_id":"4","last_reported":1711400784,"current_range_meters":18800,"station_id":"ce4bh392rcd13ifvqdl0","pricing_plan_id":"cebpf4jnsgd1na2vs0mg"},{"bike_id":"5d140a35-ed34-4783-9bbe-6ffedd1c46b4","system_id":"levelo_inurba_marseille","lat":43.298764,"lon":5.388973,"is_reserved":false,"is_disabled":false,"rental_uris":{"android":"levelo://app?vid=5d140a35-ed34-4783-9bbe-6ffedd1c46b4","ios":"levelo://app?vid=5d140a35-ed34-4783-9bbe-6ffedd1c46b4"},"vehicle_type_id":"4","last_reported":1711400784,"current_range_meters":28800,"station_id":"ce4bh392rcd13ifvqdl0","pricing_plan_id":"cebpf4jnsgd1na2vs0mg"},{"bike_id":"527b1cde-35a7-429f-a828-401892e85bd1","system_id":"levelo_inurba_marseille","lat":43.298764,"lon":5.388973,"is_reserved":false,"is_disabled":false,"rental_uris":{"android":"levelo://app?vid=527b1cde-35a7-429f-a828-401892e85bd1","ios":"levelo://app?vid=527b1cde-35a7-429f-a828-401892e85bd1"},"vehicle_type_id":"4","last_reported":1711400784,"current_range_meters":22400,"station_id":"ce4bh392rcd13ifvqdl0","pricing_plan_id":"cebpf4jnsgd1na2vs0mg"},{"bike_id":"b127c72d-149b-4d53-84e8-42701b4413e8","system_id":"levelo_inurba_marseille","lat":43.298764,"lon":5.388973,"is_reserved":false,"is_disabled":false,"rental_uris":{"android":"levelo://app?vid=b127c72d-149b-4d53-84e8-42701b4413e8","ios":"levelo://app?vid=b127c72d-149b-4d53-84e8-42701b4413e8"},"vehicle_type_id":"4","last_reported":1711400784,"current_range_meters":8800,"station_id":"ce4bh392rcd13ifvqdl0","pricing_plan_id":"cebpf4jnsgd1na2vs0mg"},{"bike_id":"a9c131be-7a0a-40ff-b8b6-5e2688de363c","system_id":"levelo_inurba_marseille","lat":43.298764,"lon":5.388973,"is_reserved":false,"is_disabled":false,"rental_uris":{"android":"levelo://app?vid=a9c131be-7a0a-40ff-b8b6-5e2688de363c","ios":"levelo://app?vid=a9c131be-7a0a-40ff-b8b6-5e2688de363c"},"vehicle_type_id":"4","last_reported":1711400784,"current_range_meters":16400,"station_id":"ce4bh392rcd13ifvqdl0","pricing_plan_id":"cebpf4jnsgd1na2vs0mg"},{"bike_id":"4cd7b6cf-48e2-49ac-828a-81cd868a8b77","system_id":"levelo_inurba_marseille","lat":43.283494,"lon":5.380945,"is_reserved":false,"is_disabled":false,"rental_uris":{"android":"levelo://app?vid=4cd7b6cf-48e2-49ac-828a-81cd868a8b77","ios":"levelo://app?vid=4cd7b6cf-48e2-49ac-828a-81cd868a8b77"},"vehicle_type_id":"4","last_reported":1711400784,"current_range_meters":12800,"station_id":"ce4bh412rcd13ifvqdr0","pricing_plan_id":"cebpf4jnsgd1na2vs0mg"},{"bike_id":"5ca6d259-87cc-4abd-b66d-52e3ed6bd99a","system_id":"levelo_inurba_marseille","lat":43.298764,"lon":5.388973,"is_reserved":false,"is_disabled":false,"rental_uris":{"android":"levelo://app?vid=5ca6d259-87cc-4abd-b66d-52e3ed6bd99a","ios":"levelo://app?vid=5ca6d259-87cc-4abd-b66d-52e3ed6bd99a"},"vehicle_type_id":"4","last_reported":1711400784,"current_range_meters":400,"station_id":"ce4bh392rcd13ifvqdl0","pricing_plan_id":"cebpf4jnsgd1na2vs0mg"},{"bike_id":"2fcf0a97-1ffa-49d7-9159-5a21a46b451b","system_id":"levelo_inurba_marseille","lat":43.29875,"lon":5.38907,"is_reserved":false,"is_disabled":false,"rental_uris":{"android":"levelo://app?vid=2fcf0a97-1ffa-49d7-9159-5a21a46b451b","ios":"levelo://app?vid=2fcf0a97-1ffa-49d7-9159-5a21a46b451b"},"vehicle_type_id":"4","last_reported":1711400784,"current_range_meters":27200,"station_id":"ce4bh392rcd13ifvqdl0","pricing_plan_id":"cebpf4jnsgd1na2vs0mg"},{"bike_id":"35234c23-8e78-4e6c-95ce-18b853685849","system_id":"levelo_inurba_marseille","lat":43.298764,"lon":5.388973,"is_reserved":false,"is_disabled":false,"rental_uris":{"android":"levelo://app?vid=35234c23-8e78-4e6c-95ce-18b853685849","ios":"levelo://app?vid=35234c23-8e78-4e6c-95ce-18b853685849"},"vehicle_type_id":"4","last_reported":1711400784,"current_range_meters":24000,"station_id":"ce4bh392rcd13ifvqdl0","pricing_plan_id":"cebpf4jnsgd1na2vs0mg"},{"bike_id":"2791f39c-d0a4-4eb0-a510-f88a90646201","system_id":"levelo_inurba_marseille","lat":43.298703,"lon":5.389068,"is_reserved":false,"is_disabled":false,"rental_uris":{"android":"levelo://app?vid=2791f39c-d0a4-4eb0-a510-f88a90646201","ios":"levelo://app?vid=2791f39c-d0a4-4eb0-a510-f88a90646201"},"vehicle_type_id":"4","last_reported":1711400784,"current_range_meters":31200,"station_id":"ce4bh392rcd13ifvqdl0","pricing_plan_id":"cebpf4jnsgd1na2vs0mg"},{"bike_id":"b9a09614-8d55-4767-9df9-dfce61331735","system_id":"levelo_inurba_marseille","lat":43.29875,"lon":5.38913,"is_reserved":false,"is_disabled":false,"rental_uris":{"android":"levelo://app?vid=b9a09614-8d55-4767-9df9-dfce61331735","ios":"levelo://app?vid=b9a09614-8d55-4767-9df9-dfce61331735"},"vehicle_type_id":"4","last_reported":1711400784,"current_range_meters":12000,"station_id":"ce4bh392rcd13ifvqdl0","pricing_plan_id":"cebpf4jnsgd1na2vs0mg"},{"bike_id":"925b4e2c-3c7e-44f1-bdee-b8eac53f5c5e","system_id":"levelo_inurba_marseille","lat":43.291994,"lon":5.357886,"is_reserved":false,"is_disabled":false,"rental_uris":{"android":"levelo://app?vid=925b4e2c-3c7e-44f1-bdee-b8eac53f5c5e","ios":"levelo://app?vid=925b4e2c-3c7e-44f1-bdee-b8eac53f5c5e"},"vehicle_type_id":"4","last_reported":1711400784,"current_range_meters":21600,"station_id":"ce4bhb12rcd13ifvqel0","pricing_plan_id":"cebpf4jnsgd1na2vs0mg"},{"bike_id":"2de18028-9cdf-40f4-abb1-2eb75f653f93","system_id":"levelo_inurba_marseille","lat":43.292,"lon":5.35808,"is_reserved":false,"is_disabled":false,"rental_uris":{"android":"levelo://app?vid=2de18028-9cdf-40f4-abb1-2eb75f653f93","ios":"levelo://app?vid=2de18028-9cdf-40f4-abb1-2eb75f653f93"},"vehicle_type_id":"4","last_reported":1711400784,"current_range_meters":20000,"station_id":"ce4bhb12rcd13ifvqel0","pricing_plan_id":"cebpf4jnsgd1na2vs0mg"},{"bike_id":"28038952-3433-4767-86f2-70cdde0d99db","system_id":"levelo_inurba_marseille","lat":43.291994,"lon":5.357886,"is_reserved":false,"is_disabled":false,"rental_uris":{"android":"levelo://app?vid=28038952-3433-4767-86f2-70cdde0d99db","ios":"levelo://app?vid=28038952-3433-4767-86f2-70cdde0d99db"},"vehicle_type_id":"4","last_reported":1711400784,"current_range_meters":4800,"station_id":"ce4bhb12rcd13ifvqel0","pricing_plan_id":"cebpf4jnsgd1na2vs0mg"},{"bike_id":"50be8e44-2351-47c7-9c8a-230020f7de79","system_id":"levelo_inurba_marseille","lat":43.291994,"lon":5.357886,"is_reserved":false,"is_disabled":false,"rental_uris":{"android":"levelo://app?vid=50be8e44-2351-47c7-9c8a-230020f7de79","ios":"levelo://app?vid=50be8e44-2351-47c7-9c8a-230020f7de79"},"vehicle_type_id":"4","last_reported":1711400784,"current_range_meters":0,"station_id":"ce4bhb12rcd13ifvqel0","pricing_plan_id":"cebpf4jnsgd1na2vs0mg"},{"bike_id":"29f4c34c-7827-46c9-9c09-4460273cde30","system_id":"levelo_inurba_marseille","lat":43.29196,"lon":5.35803,"is_reserved":false,"is_disabled":false,"rental_uris":{"android":"levelo://app?vid=29f4c34c-7827-46c9-9c09-4460273cde30","ios":"levelo://app?vid=29f4c34c-7827-46c9-9c09-4460273cde30"},"vehicle_type_id":"4","last_reported":1711400784,"current_range_meters":25600,"station_id":"ce4bhb12rcd13ifvqel0","pricing_plan_id":"cebpf4jnsgd1na2vs0mg"},{"bike_id":"70772e2d-975c-485c-8c9c-fd41ec5fba07","system_id":"levelo_inurba_marseille","lat":43.30891,"lon":5.3964,"is_reserved":false,"is_disabled":false,"rental_uris":{"android":"levelo://app?vid=70772e2d-975c-485c-8c9c-fd41ec5fba07","ios":"levelo://app?vid=70772e2d-975c-485c-8c9c-fd41ec5fba07"},"vehicle_type_id":"4","last_reported":1711400784,"current_range_meters":22800,"station_id":"ce4bh012rcd13ifvqcv0","pricing_plan_id":"cebpf4jnsgd1na2vs0mg"},{"bike_id":"057e2b3e-6f90-4562-adfe-60c04adec599","system_id":"levelo_inurba_marseille","lat":43.309038,"lon":5.396546,"is_reserved":false,"is_disabled":false,"rental_uris":{"android":"levelo://app?vid=057e2b3e-6f90-4562-adfe-60c04adec599","ios":"levelo://app?vid=057e2b3e-6f90-4562-adfe-60c04adec599"},"vehicle_type_id":"4","last_reported":1711400784,"current_range_meters":26400,"station_id":"ce4bh012rcd13ifvqcv0","pricing_plan_id":"cebpf4jnsgd1na2vs0mg"},{"bike_id":"b465860a-df16-46f1-9dac-c7d04ae21a8d","system_id":"levelo_inurba_marseille","lat":43.29193,"lon":5.35804,"is_reserved":false,"is_disabled":false,"rental_uris":{"android":"levelo://app?vid=b465860a-df16-46f1-9dac-c7d04ae21a8d","ios":"levelo://app?vid=b465860a-df16-46f1-9dac-c7d04ae21a8d"},"vehicle_type_id":"4","last_reported":1711400784,"current_range_meters":13200,"station_id":"ce4bhb12rcd13ifvqel0","pricing_plan_id":"cebpf4jnsgd1na2vs0mg"},{"bike_id":"04eb31e6-cb57-48cd-9033-06a735a50b52","system_id":"levelo_inurba_marseille","lat":43.308884,"lon":5.396416,"is_reserved":false,"is_disabled":false,"rental_uris":{"android":"levelo://app?vid=04eb31e6-cb57-48cd-9033-06a735a50b52","ios":"levelo://app?vid=04eb31e6-cb57-48cd-9033-06a735a50b52"},"vehicle_type_id":"4","last_reported":1711400784,"current_range_meters":0,"station_id":"ce4bh012rcd13ifvqcv0","pricing_plan_id":"cebpf4jnsgd1na2vs0mg"},{"bike_id":"00b142bc-ca80-4af4-9a9a-1e471405f908","system_id":"levelo_inurba_marseille","lat":43.308936,"lon":5.396436,"is_reserved":false,"is_disabled":false,"rental_uris":{"android":"levelo://app?vid=00b142bc-ca80-4af4-9a9a-1e471405f908","ios":"levelo://app?vid=00b142bc-ca80-4af4-9a9a-1e471405f908"},"vehicle_type_id":"4","last_reported":1711400784,"current_range_meters":0,"station_id":"ce4bh012rcd13ifvqcv0","pricing_plan_id":"cebpf4jnsgd1na2vs0mg"},{"bike_id":"59d0b7d5-c23f-49e8-ab38-f0f0916b81c4","system_id":"levelo_inurba_marseille","lat":43.313291,"lon":5.396838,"is_reserved":false,"is_disabled":false,"rental_uris":{"android":"levelo://app?vid=59d0b7d5-c23f-49e8-ab38-f0f0916b81c4","ios":"levelo://app?vid=59d0b7d5-c23f-49e8-ab38-f0f0916b81c4"},"vehicle_type_id":"4","last_reported":1711400784,"current_range_meters":27600,"station_id":"ce4bgvp2rcd13ifvqcu0","pricing_plan_id":"cebpf4jnsgd1na2vs0mg"},{"bike_id":"17c32c6a-fa0f-4637-a14c-bbf84debcc27","system_id":"levelo_inurba_marseille","lat":43.309038,"lon":5.396546,"is_reserved":false,"is_disabled":false,"rental_uris":{"android":"levelo://app?vid=17c32c6a-fa0f-4637-a14c-bbf84debcc27","ios":"levelo://app?vid=17c32c6a-fa0f-4637-a14c-bbf84debcc27"},"vehicle_type_id":"4","last_reported":1711400784,"current_range_meters":0,"station_id":"ce4bh012rcd13ifvqcv0","pricing_plan_id":"cebpf4jnsgd1na2vs0mg"},{"bike_id":"5588236e-2a31-4326-ac16-134b3514197d","system_id":"levelo_inurba_marseille","lat":43.313291,"lon":5.396838,"is_reserved":false,"is_disabled":false,"rental_uris":{"android":"levelo://app?vid=5588236e-2a31-4326-ac16-134b3514197d","ios":"levelo://app?vid=5588236e-2a31-4326-ac16-134b3514197d"},"vehicle_type_id":"4","last_reported":1711400784,"current_range_meters":27600,"station_id":"ce4bgvp2rcd13ifvqcu0","pricing_plan_id":"cebpf4jnsgd1na2vs0mg"},{"bike_id":"ff4c9b3b-6c51-4ffb-89c1-cf85212e61c7","system_id":"levelo_inurba_marseille","lat":43.313291,"lon":5.396838,"is_reserved":false,"is_disabled":false,"rental_uris":{"android":"levelo://app?vid=ff4c9b3b-6c51-4ffb-89c1-cf85212e61c7","ios":"levelo://app?vid=ff4c9b3b-6c51-4ffb-89c1-cf85212e61c7"},"vehicle_type_id":"4","last_reported":1711400784,"current_range_meters":14000,"station_id":"ce4bgvp2rcd13ifvqcu0","pricing_plan_id":"cebpf4jnsgd1na2vs0mg"},{"bike_id":"e845e878-b181-4fa7-8a7c-8eebf83b236c","system_id":"levelo_inurba_marseille","lat":43.309038,"lon":5.396546,"is_reserved":false,"is_disabled":false,"rental_uris":{"android":"levelo://app?vid=e845e878-b181-4fa7-8a7c-8eebf83b236c","ios":"levelo://app?vid=e845e878-b181-4fa7-8a7c-8eebf83b236c"},"vehicle_type_id":"4","last_reported":1711400784,"current_range_meters":30800,"station_id":"ce4bh012rcd13ifvqcv0","pricing_plan_id":"cebpf4jnsgd1na2vs0mg"},{"bike_id":"a1d56bd8-1704-4bbc-a692-abac57fe2345","system_id":"levelo_inurba_marseille","lat":43.313291,"lon":5.396838,"is_reserved":false,"is_disabled":false,"rental_uris":{"android":"levelo://app?vid=a1d56bd8-1704-4bbc-a692-abac57fe2345","ios":"levelo://app?vid=a1d56bd8-1704-4bbc-a692-abac57fe2345"},"vehicle_type_id":"4","last_reported":1711400784,"current_range_meters":14800,"station_id":"ce4bgvp2rcd13ifvqcu0","pricing_plan_id":"cebpf4jnsgd1na2vs0mg"},{"bike_id":"2cc60d4f-6b04-4b38-907a-9fe1564129fd","system_id":"levelo_inurba_marseille","lat":43.313291,"lon":5.396838,"is_reserved":false,"is_disabled":false,"rental_uris":{"android":"levelo://app?vid=2cc60d4f-6b04-4b38-907a-9fe1564129fd","ios":"levelo://app?vid=2cc60d4f-6b04-4b38-907a-9fe1564129fd"},"vehicle_type_id":"4","last_reported":1711400784,"current_range_meters":31200,"station_id":"ce4bgvp2rcd13ifvqcu0","pricing_plan_id":"cebpf4jnsgd1na2vs0mg"},{"bike_id":"72094b59-f8a2-46f3-ad5b-94160bcf0d8a","system_id":"levelo_inurba_marseille","lat":43.309047,"lon":5.396551,"is_reserved":false,"is_disabled":false,"rental_uris":{"android":"levelo://app?vid=72094b59-f8a2-46f3-ad5b-94160bcf0d8a","ios":"levelo://app?vid=72094b59-f8a2-46f3-ad5b-94160bcf0d8a"},"vehicle_type_id":"4","last_reported":1711400784,"current_range_meters":20800,"station_id":"ce4bh012rcd13ifvqcv0","pricing_plan_id":"cebpf4jnsgd1na2vs0mg"},{"bike_id":"d378ac4c-48f3-486d-b585-20a6912f2644","system_id":"levelo_inurba_marseille","lat":43.291994,"lon":5.357886,"is_reserved":false,"is_disabled":false,"rental_uris":{"android":"levelo://app?vid=d378ac4c-48f3-486d-b585-20a6912f2644","ios":"levelo://app?vid=d378ac4c-48f3-486d-b585-20a6912f2644"},"vehicle_type_id":"4","last_reported":1711400784,"current_range_meters":14400,"station_id":"ce4bhb12rcd13ifvqel0","pricing_plan_id":"cebpf4jnsgd1na2vs0mg"},{"bike_id":"1d8d7cd6-d9f0-4fcc-90fd-d56f52a1d9c0","system_id":"levelo_inurba_marseille","lat":43.313291,"lon":5.396838,"is_reserved":false,"is_disabled":false,"rental_uris":{"android":"levelo://app?vid=1d8d7cd6-d9f0-4fcc-90fd-d56f52a1d9c0","ios":"levelo://app?vid=1d8d7cd6-d9f0-4fcc-90fd-d56f52a1d9c0"},"vehicle_type_id":"4","last_reported":1711400784,"current_range_meters":27600,"station_id":"ce4bgvp2rcd13ifvqcu0","pricing_plan_id":"cebpf4jnsgd1na2vs0mg"},{"bike_id":"03b21357-59f2-4bbd-9715-2b42c1f3bf46","system_id":"levelo_inurba_marseille","lat":43.30885,"lon":5.3965,"is_reserved":false,"is_disabled":false,"rental_uris":{"android":"levelo://app?vid=03b21357-59f2-4bbd-9715-2b42c1f3bf46","ios":"levelo://app?vid=03b21357-59f2-4bbd-9715-2b42c1f3bf46"},"vehicle_type_id":"4","last_reported":1711400784,"current_range_meters":23200,"station_id":"ce4bh012rcd13ifvqcv0","pricing_plan_id":"cebpf4jnsgd1na2vs0mg"},{"bike_id":"4e308d63-811b-4dc4-a0f8-5c177b33d954","system_id":"levelo_inurba_marseille","lat":43.309038,"lon":5.396546,"is_reserved":false,"is_disabled":false,"rental_uris":{"android":"levelo://app?vid=4e308d63-811b-4dc4-a0f8-5c177b33d954","ios":"levelo://app?vid=4e308d63-811b-4dc4-a0f8-5c177b33d954"},"vehicle_type_id":"4","last_reported":1711400784,"current_range_meters":4400,"station_id":"ce4bh012rcd13ifvqcv0","pricing_plan_id":"cebpf4jnsgd1na2vs0mg"},{"bike_id":"227eaf79-f6e2-4625-83c9-24f13d6bc005","system_id":"levelo_inurba_marseille","lat":43.313291,"lon":5.396838,"is_reserved":false,"is_disabled":false,"rental_uris":{"android":"levelo://app?vid=227eaf79-f6e2-4625-83c9-24f13d6bc005","ios":"levelo://app?vid=227eaf79-f6e2-4625-83c9-24f13d6bc005"},"vehicle_type_id":"4","last_reported":1711400784,"current_range_meters":2400,"station_id":"ce4bgvp2rcd13ifvqcu0","pricing_plan_id":"cebpf4jnsgd1na2vs0mg"},{"bike_id":"ad427e7e-aa1c-45fc-ba89-66f18eb6a0de","system_id":"levelo_inurba_marseille","lat":43.309047,"lon":5.396551,"is_reserved":false,"is_disabled":false,"rental_uris":{"android":"levelo://app?vid=ad427e7e-aa1c-45fc-ba89-66f18eb6a0de","ios":"levelo://app?vid=ad427e7e-aa1c-45fc-ba89-66f18eb6a0de"},"vehicle_type_id":"4","last_reported":1711400784,"current_range_meters":17200,"station_id":"ce4bh012rcd13ifvqcv0","pricing_plan_id":"cebpf4jnsgd1na2vs0mg"},{"bike_id":"779d30d8-45e0-4edf-b3ca-48eba2dfd799","system_id":"levelo_inurba_marseille","lat":43.309047,"lon":5.396551,"is_reserved":false,"is_disabled":false,"rental_uris":{"android":"levelo://app?vid=779d30d8-45e0-4edf-b3ca-48eba2dfd799","ios":"levelo://app?vid=779d30d8-45e0-4edf-b3ca-48eba2dfd799"},"vehicle_type_id":"4","last_reported":1711400784,"current_range_meters":800,"station_id":"ce4bh012rcd13ifvqcv0","pricing_plan_id":"cebpf4jnsgd1na2vs0mg"},{"bike_id":"1ee62e9e-3209-411c-bddb-cba5a86b96dd","system_id":"levelo_inurba_marseille","lat":43.29529,"lon":5.385581,"is_reserved":false,"is_disabled":false,"rental_uris":{"android":"levelo://app?vid=1ee62e9e-3209-411c-bddb-cba5a86b96dd","ios":"levelo://app?vid=1ee62e9e-3209-411c-bddb-cba5a86b96dd"},"vehicle_type_id":"4","last_reported":1711400784,"current_range_meters":22000,"station_id":"ce4bgih2rcd13ifvqba0","pricing_plan_id":"cebpf4jnsgd1na2vs0mg"},{"bike_id":"ee16da97-87c4-4fd7-8182-ec95c4e602ab","system_id":"levelo_inurba_marseille","lat":43.29529,"lon":5.385581,"is_reserved":false,"is_disabled":false,"rental_uris":{"android":"levelo://app?vid=ee16da97-87c4-4fd7-8182-ec95c4e602ab","ios":"levelo://app?vid=ee16da97-87c4-4fd7-8182-ec95c4e602ab"},"vehicle_type_id":"4","last_reported":1711400784,"current_range_meters":23600,"station_id":"ce4bgih2rcd13ifvqba0","pricing_plan_id":"cebpf4jnsgd1na2vs0mg"},{"bike_id":"2472b06c-f1cf-4ca7-b399-5fe390b350a0","system_id":"levelo_inurba_marseille","lat":43.29529,"lon":5.385581,"is_reserved":false,"is_disabled":false,"rental_uris":{"android":"levelo://app?vid=2472b06c-f1cf-4ca7-b399-5fe390b350a0","ios":"levelo://app?vid=2472b06c-f1cf-4ca7-b399-5fe390b350a0"},"vehicle_type_id":"4","last_reported":1711400784,"current_range_meters":18000,"station_id":"ce4bgih2rcd13ifvqba0","pricing_plan_id":"cebpf4jnsgd1na2vs0mg"},{"bike_id":"fc515dab-6191-4671-b459-c0ea9e2b521e","system_id":"levelo_inurba_marseille","lat":43.29529,"lon":5.385581,"is_reserved":false,"is_disabled":false,"rental_uris":{"android":"levelo://app?vid=fc515dab-6191-4671-b459-c0ea9e2b521e","ios":"levelo://app?vid=fc515dab-6191-4671-b459-c0ea9e2b521e"},"vehicle_type_id":"4","last_reported":1711400784,"current_range_meters":22000,"station_id":"ce4bgih2rcd13ifvqba0","pricing_plan_id":"cebpf4jnsgd1na2vs0mg"},{"bike_id":"47439597-c15b-49e9-9e29-86c49b8e1d90","system_id":"levelo_inurba_marseille","lat":43.29529,"lon":5.385581,"is_reserved":false,"is_disabled":false,"rental_uris":{"android":"levelo://app?vid=47439597-c15b-49e9-9e29-86c49b8e1d90","ios":"levelo://app?vid=47439597-c15b-49e9-9e29-86c49b8e1d90"},"vehicle_type_id":"4","last_reported":1711400784,"current_range_meters":22400,"station_id":"ce4bgih2rcd13ifvqba0","pricing_plan_id":"cebpf4jnsgd1na2vs0mg"},{"bike_id":"a36bc718-d0b8-48fc-9e22-08a9c8ea2628","system_id":"levelo_inurba_marseille","lat":43.29529,"lon":5.385581,"is_reserved":false,"is_disabled":false,"rental_uris":{"android":"levelo://app?vid=a36bc718-d0b8-48fc-9e22-08a9c8ea2628","ios":"levelo://app?vid=a36bc718-d0b8-48fc-9e22-08a9c8ea2628"},"vehicle_type_id":"4","last_reported":1711400784,"current_range_meters":800,"station_id":"ce4bgih2rcd13ifvqba0","pricing_plan_id":"cebpf4jnsgd1na2vs0mg"},{"bike_id":"c722f583-56d9-4e53-896d-2ffc6be97bb4","system_id":"levelo_inurba_marseille","lat":43.29529,"lon":5.385581,"is_reserved":false,"is_disabled":false,"rental_uris":{"android":"levelo://app?vid=c722f583-56d9-4e53-896d-2ffc6be97bb4","ios":"levelo://app?vid=c722f583-56d9-4e53-896d-2ffc6be97bb4"},"vehicle_type_id":"4","last_reported":1711400784,"current_range_meters":13600,"station_id":"ce4bgih2rcd13ifvqba0","pricing_plan_id":"cebpf4jnsgd1na2vs0mg"},{"bike_id":"e1eff047-0c0e-4346-8e03-ba128adc0398","system_id":"levelo_inurba_marseille","lat":43.29529,"lon":5.385581,"is_reserved":false,"is_disabled":false,"rental_uris":{"android":"levelo://app?vid=e1eff047-0c0e-4346-8e03-ba128adc0398","ios":"levelo://app?vid=e1eff047-0c0e-4346-8e03-ba128adc0398"},"vehicle_type_id":"4","last_reported":1711400784,"current_range_meters":0,"station_id":"ce4bgih2rcd13ifvqba0","pricing_plan_id":"cebpf4jnsgd1na2vs0mg"},{"bike_id":"553be6ba-c65d-4cef-80a9-9bd5e9dea82e","system_id":"levelo_inurba_marseille","lat":43.328077,"lon":5.388814,"is_reserved":false,"is_disabled":false,"rental_uris":{"android":"levelo://app?vid=553be6ba-c65d-4cef-80a9-9bd5e9dea82e","ios":"levelo://app?vid=553be6ba-c65d-4cef-80a9-9bd5e9dea82e"},"vehicle_type_id":"4","last_reported":1711400784,"current_range_meters":26400,"station_id":"","pricing_plan_id":"cebpf4jnsgd1na2vs0mg"},{"bike_id":"0a595288-91a3-4add-aefc-4f6e14e969ce","system_id":"levelo_inurba_marseille","lat":43.296375,"lon":5.387806,"is_reserved":false,"is_disabled":false,"rental_uris":{"android":"levelo://app?vid=0a595288-91a3-4add-aefc-4f6e14e969ce","ios":"levelo://app?vid=0a595288-91a3-4add-aefc-4f6e14e969ce"},"vehicle_type_id":"4","last_reported":1711400784,"current_range_meters":14800,"station_id":"","pricing_plan_id":"cebpf4jnsgd1na2vs0mg"},{"bike_id":"9bed9b54-d2f3-4809-8548-4e419129c3c3","system_id":"levelo_inurba_marseille","lat":43.290779,"lon":5.371482,"is_reserved":false,"is_disabled":false,"rental_uris":{"android":"levelo://app?vid=9bed9b54-d2f3-4809-8548-4e419129c3c3","ios":"levelo://app?vid=9bed9b54-d2f3-4809-8548-4e419129c3c3"},"vehicle_type_id":"4","last_reported":1711400784,"current_range_meters":13200,"station_id":"ce4bh5p2rcd13ifvqe4g","pricing_plan_id":"cebpf4jnsgd1na2vs0mg"},