{"last_updated":1714558133,"ttl":30,"version":"2.2","data":{"bikes":[{"bike_id":"cc6c0179-428f-4e23-82d1-0422925a7e63","system_id":"levelo_inurba_marseille","lat":43.31341,"lon":5.367098,"is_reserved":false,"is_disabled":false,"rental_uris":{"android":"levelo://app?vid=cc6c0179-428f-4e23-82d1-0422925a7e63","ios":"levelo://app?vid=cc6c0179-428f-4e23-82d1-0422925a7e63"},"vehicle_type_id":"4","last_reported":1714558133,"current_range_meters":25200,"station_id":"ce4bgr92rcd13ifvqc6g","pricing_plan_id":"cebpf4jnsgd1na2vs0mg"},{"bike_id":"fc9d75e7-d2c7-4e30-b9ba-1f655ebe2d91","system_id":"levelo_inurba_marseille","lat":43.312239,"lon":5.368562,"is_reserved":false,"is_disabled":false,"rental_uris":{"android":"levelo://app?vid=fc9d75e7-d2c7-4e30-b9ba-1f655ebe2d91","ios":"levelo://app?vid=fc9d75e7-d2c7-4e30-b9ba-1f655ebe2d91"},"vehicle_type_id":"4","last_reported":1714558133,"current_range_meters":22000,"station_id":"ce4bgl92rcd13ifvqbq0","pricing_plan_id":"cebpf4jnsgd1na2vs0mg"},{"bike_id":"464db947-513a-48d3-b9b3-4bd6e62cc103","system_id":"levelo_inurba_marseille","lat":43.312239,"lon":5.368562,"is_reserved":false,"is_disabled":false,"rental_uris":{"android":"levelo://app?vid=464db947-513a-48d3-b9b3-4bd6e62cc103","ios":"levelo://app?vid=464db947-513a-48d3-b9b3-4bd6e62cc103"},"vehicle_type_id":"4","last_reported":1714558133,"current_range_meters":30000,"station_id":"ce4bgl92rcd13ifvqbq0","pricing_plan_id":"cebpf4jnsgd1na2vs0mg"},{"bike_id":"db36555f-b9fa-4c8e-8a3a-86c958147825","system_id":"levelo_inurba_marseille","lat":43.309076,"lon":5.368465,"is_reserved":false,"is_disabled":false,"rental_uris":{"android":"levelo://app?vid=db36555f-b9fa-4c8e-8a3a-86c958147825","ios":"levelo://app?vid=db36555f-b9fa-4c8e-8a3a-86c958147825"},"vehicle_type_id":"4","last_reported":1714558133,"current_range_meters":25600,"station_id":"ce4bgn92rcd13ifvqbvg","pricing_plan_id":"cebpf4jnsgd1na2vs0mg"},{"bike_id":"c07b3360-b34e-4474-aa8b-b97a8f57a876","system_id":"levelo_inurba_marseille","lat":43.309076,"lon":5.368465,"is_reserved":false,"is_disabled":false,"rental_uris":{"android":"levelo://app?vid=c07b3360-b34e-4474-aa8b-b97a8f57a876","ios":"levelo://app?vid=c07b3360-b34e-4474-aa8b-b97a8f57a876"},"vehicle_type_id":"4","last_reported":1714558133,"current_range_meters":25600,"station_id":"ce4bgn92rcd13ifvqbvg","pricing_plan_id":"cebpf4jnsgd1na2vs0mg"},{"bike_id":"0a0eb501-b7c7-4a50-9900-c6132cbc5c4a","system_id":"levelo_inurba_marseille","lat":43.309076,"lon":5.368465,"is_reserved":false,"is_disabled":false,"rental_uris":{"android":"levelo://app?vid=0a0eb501-b7c7-4a50-9900-c6132cbc5c4a","ios":"levelo://app?vid=0a0eb501-b7c7-4a50-9900-c6132cbc5c4a"},"vehicle_type_id":"4","last_reported":1714558133,"current_range_meters":28400,"station_id":"ce4bgn92rcd13ifvqbvg","pricing_plan_id":"cebpf4jnsgd1na2vs0mg"},{"bike_id":"c31083b2-2ff0-4c4b-861b-e799e723e640","system_id":"levelo_inurba_marseille","lat":43.309076,"lon":5.368465,"is_reserved":false,"is_disabled":false,"rental_uris":{"android":"levelo://app?vid=c31083b2-2ff0-4c4b-861b-e799e723e640","ios":"levelo://app?vid=c31083b2-2ff0-4c4b-861b-e799e723e640"},"vehicle_type_id":"4","last_reported":1714558133,"current_range_meters":29200,"station_id":"ce4bgn92rcd13ifvqbvg","pricing_plan_id":"cebpf4jnsgd1na2vs0mg"},{"bike_id":"d08eaabb-6ec2-45d2-91da-2208438fb670","system_id":"levelo_inurba_marseille","lat":43.3148,"lon":5.37299,"is_reserved":false,"is_disabled":false,"rental_uris":{"android":"levelo://app?vid=d08eaabb-6ec2-45d2-91da-2208438fb670","ios":"levelo://app?vid=d08eaabb-6ec2-45d2-91da-2208438fb670"},"vehicle_type_id":"4","last_reported":1714558133,"current_range_meters":25200,"station_id":"ce4bgt12rcd13ifvqcd0","pricing_plan_id":"cebpf4jnsgd1na2vs0mg"},{"bike_id":"e1c8d70d-3318-464c-9619-ef3e9025013a","system_id":"levelo_inurba_marseille","lat":43.31479,"lon":5.373,"is_reserved":false,"is_disabled":false,"rental_uris":{"android":"levelo://app?vid=e1c8d70d-3318-464c-9619-ef3e9025013a","ios":"levelo://app?vid=e1c8d70d-3318-464c-9619-ef3e9025013a"},"vehicle_type_id":"4","last_reported":1714558133,"current_range_meters":18800,"station_id":"ce4bgt12rcd13ifvqcd0","pricing_plan_id":"cebpf4jnsgd1na2vs0mg"},{"bike_id":"b9a9bea2-adfb-4842-8840-86d5ded3c417","system_id":"levelo_inurba_marseille","lat":43.314811,"lon":5.373104,"is_reserved":false,"is_disabled":false,"rental_uris":{"android":"levelo://app?vid=b9a9bea2-adfb-4842-8840-86d5ded3c417","ios":"levelo://app?vid=b9a9bea2-adfb-4842-8840-86d5ded3c417"},"vehicle_type_id":"4","last_reported":1714558133,"current_range_meters":26800,"station_id":"ce4bgt12rcd13ifvqcd0","pricing_plan_id":"cebpf4jnsgd1na2vs0mg"},{"bike_id":"eddde26c-93d1-484a-8140-ba91b1ad5db2","system_id":"levelo_inurba_marseille","lat":43.314811,"lon":5.373103,"is_reserved":false,"is_disabled":false,"rental_uris":{"android":"levelo://app?vid=eddde26c-93d1-484a-8140-ba91b1ad5db2","ios":"levelo://app?vid=eddde26c-93d1-484a-8140-ba91b1ad5db2"},"vehicle_type_id":"4","last_reported":1714558133,"current_range_meters":12800,"station_id":"ce4bgt12rcd13ifvqcd0","pricing_plan_id":"cebpf4jnsgd1na2vs0mg"},{"bike_id":"191c2809-53c5-4fd7-99ea-4f052d061aa5","system_id":"levelo_inurba_marseille","lat":43.314811,"lon":5.373103,"is_reserved":false,"is_disabled":false,"rental_uris":{"android":"levelo://app?vid=191c2809-53c5-4fd7-99ea-4f052d061aa5","ios":"levelo://app?vid=191c2809-53c5-4fd7-99ea-4f052d061aa5"},"vehicle_type_id":"4","last_reported":1714558133,"current_range_meters":31600,"station_id":"ce4bgt12rcd13ifvqcd0","pricing_plan_id":"cebpf4jnsgd1na2vs0mg"},{"bike_id":"b3331664-dcb4-433b-83ea-295a34c9ad25","system_id":"levelo_inurba_marseille","lat":43.314811,"lon":5.373103,"is_reserved":false,"is_disabled":false,"rental_uris":{"android":"levelo://app?vid=b3331664-dcb4-433b-83ea-295a34c9ad25","ios":"levelo://app?vid=b3331664-dcb4-433b-83ea-295a34c9ad25"},"vehicle_type_id":"4","last_reported":1714558133,"current_range_meters":31600,"station_id":"ce4bgt12rcd13ifvqcd0","pricing_plan_id":"cebpf4jnsgd1na2vs0mg"},{"bike_id":"dfac322a-b75f-43d5-8c00-de38b27acd43","system_id":"levelo_inurba_marseille","lat":43.314811,"lon":5.373104,"is_reserved":false,"is_disabled":false,"rental_uris":{"android":"levelo://app?vid=dfac322a-b75f-43d5-8c00-de38b27acd43","ios":"levelo://app?vid=dfac322a-b75f-43d5-8c00-de38b27acd43"},"vehicle_type_id":"4","last_reported":1714558133,"current_range_meters":20400,"station_id":"ce4bgt12rcd13ifvqcd0","pricing_plan_id":"cebpf4jnsgd1na2vs0mg"},{"bike_id":"dde0ced5-e528-4796-955d-118b917cb692","system_id":"levelo_inurba_marseille","lat":43.314811,"lon":5.373104,"is_reserved":false,"is_disabled":false,"rental_uris":{"android":"levelo://app?vid=dde0ced5-e528-4796-955d-118b917cb692","ios":"levelo://app?vid=dde0ced5-e528-4796-955d-118b917cb692"},"vehicle_type_id":"4","last_reported":1714558133,"current_range_meters":17600,"station_id":"ce4bgt12rcd13ifvqcd0","pricing_plan_id":"cebpf4jnsgd1na2vs0mg"},{"bike_id":"49de5c94-1461-41b9-b657-31e0625ae0c1","system_id":"levelo_inurba_marseille","lat":43.314811,"lon":5.373104,"is_reserved":false,"is_disabled":false,"rental_uris":{"android":"levelo://app?vid=49de5c94-1461-41b9-b657-31e0625ae0c1","ios":"levelo://app?vid=49de5c94-1461-41b9-b657-31e0625ae0c1"},"vehicle_type_id":"4","last_reported":1714558133,"current_range_meters":18800,"station_id":"ce4bgt12rcd13ifvqcd0","pricing_plan_id":"cebpf4jnsgd1na2vs0mg"},{"bike_id":"0dab1c0b-5bf4-40b1-bbd9-9d9ca12c4fcf","system_id":"levelo_inurba_marseille","lat":43.309039,"lon":5.371797,"is_reserved":false,"is_disabled":false,"rental_uris":{"android":"levelo://app?vid=0dab1c0b-5bf4-40b1-bbd9-9d9ca12c4fcf","ios":"levelo://app?vid=0dab1c0b-5bf4-40b1-bbd9-9d9ca12c4fcf"},"vehicle_type_id":"4","last_reported":1714558133,"current_range_meters":20000,"station_id":"ce4bguh2rcd13ifvqckg","pricing_plan_id":"cebpf4jnsgd1na2vs0mg"},{"bike_id":"1e74f22d-e624-4e1e-82db-e1c5cf490244","system_id":"levelo_inurba_marseille","lat":43.309039,"lon":5.371797,"is_reserved":false,"is_disabled":false,"rental_uris":{"android":"levelo://app?vid=1e74f22d-e624-4e1e-82db-e1c5cf490244","ios":"levelo://app?vid=1e74f22d-e624-4e1e-82db-e1c5cf490244"},"vehicle_type_id":"4","last_reported":1714558133,"current_range_meters":23600,"station_id":"ce4bguh2rcd13ifvqckg","pricing_plan_id":"cebpf4jnsgd1na2vs0mg"},{"bike_id":"9f812ea8-5bc9-4912-a103-05da4b0afe6d","system_id":"levelo_inurba_marseille","lat":43.309039,"lon":5.371797,"is_reserved":false,"is_disabled":false,"rental_uris":{"android":"levelo://app?vid=9f812ea8-5bc9-4912-a103-05da4b0afe6d","ios":"levelo://app?vid=9f812ea8-5bc9-4912-a103-05da4b0afe6d"},"vehicle_type_id":"4","last_reported":1714558133,"current_range_meters":32000,"station_id":"ce4bguh2rcd13ifvqckg","pricing_plan_id":"cebpf4jnsgd1na2vs0mg"},{"bike_id":"ca50b1b4-773f-4e54-985c-039f1be4b1d2","system_id":"levelo_inurba_marseille","lat":43.309034,"lon":5.371783,"is_reserved":false,"is_disabled":false,"rental_uris":{"android":"levelo://app?vid=ca50b1b4-773f-4e54-985c-039f1be4b1d2","ios":"levelo://app?vid=ca50b1b4-773f-4e54-985c-039f1be4b1d2"},"vehicle_type_id":"4","last_reported":1714558133,"current_range_meters":31200,"station_id":"ce4bguh2rcd13ifvqckg","pricing_plan_id":"cebpf4jnsgd1na2vs0mg"},{"bike_id":"8b3fb82c-4892-4f45-adcd-b2f375cad618","system_id":"levelo_inurba_marseille","lat":43.305368,"lon":5.367343,"is_reserved":false,"is_disabled":false,"rental_uris":{"android":"levelo://app?vid=8b3fb82c-4892-4f45-adcd-b2f375cad618","ios":"levelo://app?vid=8b3fb82c-4892-4f45-adcd-b2f375cad618"},"vehicle_type_id":"4","last_reported":1714558133,"current_range_meters":12800,"station_id":"ce4bgrp2rcd13ifvqc9g","pricing_plan_id":"cebpf4jnsgd1na2vs0mg"},{"bike_id":"ad38eae3-136e-4643-a0a2-f3a232fbb41f","system_id":"levelo_inurba_marseille","lat":43.305368,"lon":5.367343,"is_reserved":false,"is_disabled":false,"rental_uris":{"android":"levelo://app?vid=ad38eae3-136e-4643-a0a2-f3a232fbb41f","ios":"levelo://app?vid=ad38eae3-136e-4643-a0a2-f3a232fbb41f"},"vehicle_type_id":"4","last_reported":1714558133,"current_range_meters":21200,"station_id":"ce4bgrp2rcd13ifvqc9g","pricing_plan_id":"cebpf4jnsgd1na2vs0mg"},{"bike_id":"a9b94c99-1f77-45dd-be63-21fb6c49bdab","system_id":"levelo_inurba_marseille","lat":43.305368,"lon":5.367343,"is_reserved":false,"is_disabled":false,"rental_uris":{"android":"levelo://app?vid=a9b94c99-1f77-45dd-be63-21fb6c49bdab","ios":"levelo://app?vid=a9b94c99-1f77-45dd-be63-21fb6c49bdab"},"vehicle_type_id":"4","last_reported":1714558133,"current_range_meters":4000,"station_id":"ce4bgrp2rcd13ifvqc9g","pricing_plan_id":"cebpf4jnsgd1na2vs0mg"},{"bike_id":"fdf53630-c5b5-4c8c-bae3-4986e4c3e307","system_id":"levelo_inurba_marseille","lat":43.305989,"lon":5.37225,"is_reserved":false,"is_disabled":false,"rental_uris":{"android":"levelo://app?vid=fdf53630-c5b5-4c8c-bae3-4986e4c3e307","ios":"levelo://app?vid=fdf53630-c5b5-4c8c-bae3-4986e4c3e307"},"vehicle_type_id":"4","last_reported":1714558133,"current_range_meters":21200,"station_id":"ce4bgqh2rcd13ifvqc4g","pricing_plan_id":"cebpf4jnsgd1na2vs0mg"},{"bike_id":"433ce2cc-d9db-44d3-a66c-e24b66269af9","system_id":"levelo_inurba_marseille","lat":43.305989,"lon":5.37225,"is_reserved":false,"is_disabled":false,"rental_uris":{"android":"levelo://app?vid=433ce2cc-d9db-44d3-a66c-e24b66269af9","ios":"levelo://app?vid=433ce2cc-d9db-44d3-a66c-e24b66269af9"},"vehicle_type_id":"4","last_reported":1714558133,"current_range_meters":23600,"station_id":"ce4bgqh2rcd13ifvqc4g","pricing_plan_id":"cebpf4jnsgd1na2vs0mg"},{"bike_id":"9a927041-bdd8-4100-893e-23814207244f","system_id":"levelo_inurba_marseille","lat":43.311125,"lon":5.377624,"is_reserved":false,"is_disabled":false,"rental_uris":{"android":"levelo://app?vid=9a927041-bdd8-4100-893e-23814207244f","ios":"levelo://app?vid=9a927041-bdd8-4100-893e-23814207244f"},"vehicle_type_id":"4","last_reported":1714558133,"current_range_meters":18400,"station_id":"ce4bgt92rcd13ifvqcg0","pricing_plan_id":"cebpf4jnsgd1na2vs0mg"},{"bike_id":"68fe41e6-1a21-4439-bdae-17cc7d9f2fb6","system_id":"levelo_inurba_marseille","lat":43.317075,"lon":5.377367,"is_reserved":false,"is_disabled":false,"rental_uris":{"android":"levelo://app?vid=68fe41e6-1a21-4439-bdae-17cc7d9f2fb6","ios":"levelo://app?vid=68fe41e6-1a21-4439-bdae-17cc7d9f2fb6"},"vehicle_type_id":"4","last_reported":1714558133,"current_range_meters":30400,"station_id":"ce4bgth2rcd13ifvqch0","pricing_plan_id":"cebpf4jnsgd1na2vs0mg"},{"bike_id":"bb5a4ed8-58a4-492d-a37f-fee3e50533b9","system_id":"levelo_inurba_marseille","lat":43.317075,"lon":5.377367,"is_reserved":false,"is_disabled":false,"rental_uris":{"android":"levelo://app?vid=bb5a4ed8-58a4-492d-a37f-fee3e50533b9","ios":"levelo://app?vid=bb5a4ed8-58a4-492d-a37f-fee3e50533b9"},"vehicle_type_id":"4","last_reported":1714558133,"current_range_meters":27600,"station_id":"ce4bgth2rcd13ifvqch0","pricing_plan_id":"cebpf4jnsgd1na2vs0mg"},{"bike_id":"164a693c-6743-4f57-8283-f63523ffeedc","system_id":"levelo_inurba_marseille","lat":43.317075,"lon":5.377367,"is_reserved":false,"is_disabled":false,"rental_uris":{"android":"levelo://app?vid=164a693c-6743-4f57-8283-f63523ffeedc","ios":"levelo://app?vid=164a693c-6743-4f57-8283-f63523ffeedc"},"vehicle_type_id":"4","last_reported":1714558133,"current_range_meters":11600,"station_id":"ce4bgth2rcd13ifvqch0","pricing_plan_id":"cebpf4jnsgd1na2vs0mg"},{"bike_id":"7ac2a2a2-b565-4241-978d-2eb6a1db99a9","system_id":"levelo_inurba_marseille","lat":43.317059,"lon":5.377549,"is_reserved":false,"is_disabled":false,"rental_uris":{"android":"levelo://app?vid=7ac2a2a2-b565-4241-978d-2eb6a1db99a9","ios":"levelo://app?vid=7ac2a2a2-b565-4241-978d-2eb6a1db99a9"},"vehicle_type_id":"4","last_reported":1714558133,"current_range_meters":12400,"station_id":"ce4bgth2rcd13ifvqch0","pricing_plan_id":"cebpf4jnsgd1na2vs0mg"},{"bike_id":"4ee60a04-ed89-48bd-b443-561f10b2a85f","system_id":"levelo_inurba_marseille","lat":43.317075,"lon":5.377367,"is_reserved":false,"is_disabled":false,"rental_uris":{"android":"levelo://app?vid=4ee60a04-ed89-48bd-b443-561f10b2a85f","ios":"levelo://app?vid=4ee60a04-ed89-48bd-b443-561f10b2a85f"},"vehicle_type_id":"4","last_reported":1714558133,"current_range_meters":2000,"station_id":"ce4bgth2rcd13ifvqch0","pricing_plan_id":"cebpf4jnsgd1na2vs0mg"},{"bike_id":"9c3124cb-c3b3-4656-b821-893d289ef5b6","system_id":"levelo_inurba_marseille","lat":43.317075,"lon":5.377367,"is_reserved":false,"is_disabled":false,"rental_uris":{"android":"levelo://app?vid=9c3124cb-c3b3-4656-b821-893d289ef5b6","ios":"levelo://app?vid=9c3124cb-c3b3-4656-b821-893d289ef5b6"},"vehicle_type_id":"4","last_reported":1714558133,"current_range_meters":10800,"station_id":"ce4bgth2rcd13ifvqch0","pricing_plan_id":"cebpf4jnsgd1na2vs0mg"},{"bike_id":"c4a6b556-f15c-4537-8939-13490512f92c","system_id":"levelo_inurba_marseille","lat":43.30304,"lon":5.368987,"is_reserved":false,"is_disabled":false,"rental_uris":{"android":"levelo://app?vid=c4a6b556-f15c-4537-8939-13490512f92c","ios":"levelo://app?vid=c4a6b556-f15c-4537-8939-13490512f92c"},"vehicle_type_id":"4","last_reported":1714558133,"current_range_meters":29200,"station_id":"ce4bgqh2rcd13ifvqc5g","pricing_plan_id":"cebpf4jnsgd1na2vs0mg"},{"bike_id":"de89ce66-faea-43a8-a680-eccc2e7d2193","system_id":"levelo_inurba_marseille","lat":43.303046,"lon":5.368981,"is_reserved":false,"is_disabled":false,"rental_uris":{"android":"levelo://app?vid=de89ce66-faea-43a8-a680-eccc2e7d2193","ios":"levelo://app?vid=de89ce66-faea-43a8-a680-eccc2e7d2193"},"vehicle_type_id":"4","last_reported":1714558133,"current_range_meters":24800,"station_id":"ce4bgqh2rcd13ifvqc5g","pricing_plan_id":"cebpf4jnsgd1na2vs0mg"},{"bike_id":"91a54925-782f-4896-bbf8-c9f56994b0fc","system_id":"levelo_inurba_marseille","lat":43.30301,"lon":5.36891,"is_reserved":false,"is_disabled":false,"rental_uris":{"android":"levelo://app?vid=91a54925-782f-4896-bbf8-c9f56994b0fc","ios":"levelo://app?vid=91a54925-782f-4896-bbf8-c9f56994b0fc"},"vehicle_type_id":"4","last_reported":1714558133,"current_range_meters":26800,"station_id":"ce4bhnp2rcd13ifvqgvg","pricing_plan_id":"cebpf4jnsgd1na2vs0mg"},{"bike_id":"57baab8f-84f0-4695-8cd4-7f39dfcdf86f","system_id":"levelo_inurba_marseille","lat":43.315289,"lon":5.380349,"is_reserved":false,"is_disabled":false,"rental_uris":{"android":"levelo://app?vid=57baab8f-84f0-4695-8cd4-7f39dfcdf86f","ios":"levelo://app?vid=57baab8f-84f0-4695-8cd4-7f39dfcdf86f"},"vehicle_type_id":"4","last_reported":1714558133,"current_range_meters":2800,"station_id":"ce4bhsp2rcd13ifvqi50","pricing_plan_id":"cebpf4jnsgd1na2vs0mg"},{"bike_id":"9ead4b83-15a7-421a-a9fe-83221f3f0b5f","system_id":"levelo_inurba_marseille","lat":43.315293,"lon":5.380349,"is_reserved":false,"is_disabled":false,"rental_uris":{"android":"levelo://app?vid=9ead4b83-15a7-421a-a9fe-83221f3f0b5f","ios":"levelo://app?vid=9ead4b83-15a7-421a-a9fe-83221f3f0b5f"},"vehicle_type_id":"4","last_reported":1714558133,"current_range_meters":30800,"station_id":"ce4bhsp2rcd13ifvqi50","pricing_plan_id":"cebpf4jnsgd1na2vs0mg"},{"bike_id":"f54a6613-6733-4b94-a238-9cc58e2396ec","system_id":"levelo_inurba_marseille","lat":43.315289,"lon":5.380349,"is_reserved":false,"is_disabled":false,"rental_uris":{"android":"levelo://app?vid=f54a6613-6733-4b94-a238-9cc58e2396ec","ios":"levelo://app?vid=f54a6613-6733-4b94-a238-9cc58e2396ec"},"vehicle_type_id":"4","last_reported":1714558133,"current_range_meters":32000,"station_id":"ce4bhsp2rcd13ifvqi50","pricing_plan_id":"cebpf4jnsgd1na2vs0mg"},{"bike_id":"183af1fe-a5cd-4558-a770-d0985a6f786f","system_id":"levelo_inurba_marseille","lat":43.315293,"lon":5.380349,"is_reserved":false,"is_disabled":false,"rental_uris":{"android":"levelo://app?vid=183af1fe-a5cd-4558-a770-d0985a6f786f","ios":"levelo://app?vid=183af1fe-a5cd-4558-a770-d0985a6f786f"},"vehicle_type_id":"4","last_reported":1714558133,"current_range_meters":30400,"station_id":"ce4bhsp2rcd13ifvqi50","pricing_plan_id":"cebpf4jnsgd1na2vs0mg"},{"bike_id":"7c7328a1-5a1a-4042-ae36-b0c4fb0fd768","system_id":"levelo_inurba_marseille","lat":43.315293,"lon":5.380349,"is_reserved":false,"is_disabled":false,"rental_uris":{"android":"levelo://app?vid=7c7328a1-5a1a-4042-ae36-b0c4fb0fd768","ios":"levelo://app?vid=7c7328a1-5a1a-4042-ae36-b0c4fb0fd768"},"vehicle_type_id":"4","last_reported":1714558133,"current_range_meters":24800,"station_id":"ce4bhsp2rcd13ifvqi50","pricing_plan_id":"cebpf4jnsgd1na2vs0mg"},{"bike_id":"97441412-a4b5-4afc-9e9f-8670100afc68","system_id":"levelo_inurba_marseille","lat":43.301939,"lon":5.366286,"is_reserved":false,"is_disabled":false,"rental_uris":{"android":"levelo://app?vid=97441412-a4b5-4afc-9e9f-8670100afc68","ios":"levelo://app?vid=97441412-a4b5-4afc-9e9f-8670100afc68"},"vehicle_type_id":"4","last_reported":1714558133,"current_range_meters":16400,"station_id":"ce4bgrh2rcd13ifvqc8g","pricing_plan_id":"cebpf4jnsgd1na2vs0mg"},{"bike_id":"24c5e688-c380-4072-b712-0d50a8266f1e","system_id":"levelo_inurba_marseille","lat":43.301939,"lon":5.366286,"is_reserved":false,"is_disabled":false,"rental_uris":{"android":"levelo://app?vid=24c5e688-c380-4072-b712-0d50a8266f1e","ios":"levelo://app?vid=24c5e688-c380-4072-b712-0d50a8266f1e"},"vehicle_type_id":"4","last_reported":1714558133,"current_range_meters":31600,"station_id":"ce4bgrh2rcd13ifvqc8g","pricing_plan_id":"cebpf4jnsgd1na2vs0mg"},{"bike_id":"ebc5f2e4-2d70-420a-ae29-0a32a2f301f3","system_id":"levelo_inurba_marseille","lat":43.301939,"lon":5.366286,"is_reserved":false,"is_disabled":false,"rental_uris":{"android":"levelo://app?vid=ebc5f2e4-2d70-420a-ae29-0a32a2f301f3","ios":"levelo://app?vid=ebc5f2e4-2d70-420a-ae29-0a32a2f301f3"},"vehicle_type_id":"4","last_reported":1714558133,"current_range_meters":29200,"station_id":"ce4bgrh2rcd13ifvqc8g","pricing_plan_id":"cebpf4jnsgd1na2vs0mg"},{"bike_id":"f7acc1f6-ce5a-44f7-89c7-94c72c11a197","system_id":"levelo_inurba_marseille","lat":43.301939,"lon":5.366286,"is_reserved":false,"is_disabled":false,"rental_uris":{"android":"levelo://app?vid=f7acc1f6-ce5a-44f7-89c7-94c72c11a197","ios":"levelo://app?vid=f7acc1f6-ce5a-44f7-89c7-94c72c11a197"},"vehicle_type_id":"4","last_reported":1714558133,"current_range_meters":8400,"station_id":"ce4bgrh2rcd13ifvqc8g","pricing_plan_id":"cebpf4jnsgd1na2vs0mg"},{"bike_id":"44179ebd-b417-45dc-9f7c-91d33ff24849","system_id":"levelo_inurba_marseille","lat":43.301939,"lon":5.366286,"is_reserved":false,"is_disabled":false,"rental_uris":{"android":"levelo://app?vid=44179ebd-b417-45dc-9f7c-91d33ff24849","ios":"levelo://app?vid=44179ebd-b417-45dc-9f7c-91d33ff24849"},"vehicle_type_id":"4","last_reported":1714558133,"current_range_meters":22400,"station_id":"ce4bgrh2rcd13ifvqc8g","pricing_plan_id":"cebpf4jnsgd1na2vs0mg"},{"bike_id":"4d02b4f3-8479-47c1-a9df-fbed88bd9312","system_id":"levelo_inurba_marseille","lat":43.301939,"lon":5.366286,"is_reserved":false,"is_disabled":false,"rental_uris":{"android":"levelo://app?vid=4d02b4f3-8479-47c1-a9df-fbed88bd9312","ios":"levelo://app?vid=4d02b4f3-8479-47c1-a9df-fbed88bd9312"},"vehicle_type_id":"4","last_reported":1714558133,"current_range_meters":18000,"station_id":"ce4bgrh2rcd13ifvqc8g","pricing_plan_id":"cebpf4jnsgd1na2vs0mg"},{"bike_id":"66c238c6-7824-4f14-9f5f-ed7a7ef890c1","system_id":"levelo_inurba_marseille","lat":43.285856,"lon":5.350771,"is_reserved":false,"is_disabled":false,"rental_uris":{"android":"levelo://app?vid=66c238c6-7824-4f14-9f5f-ed7a7ef890c1","ios":"levelo://app?vid=66c238c6-7824-4f14-9f5f-ed7a7ef890c1"},"vehicle_type_id":"4","last_reported":1714558133,"current_range_meters":23200,"station_id":"ce4bhch2rcd13ifvqeug","pricing_plan_id":"cebpf4jnsgd1na2vs0mg"},{"bike_id":"30123344-1aeb-40c2-82fc-4ba08c960bf3","system_id":"levelo_inurba_marseille","lat":43.308012,"lon":5.381511,"is_reserved":false,"is_disabled":false,"rental_uris":{"android":"levelo://app?vid=30123344-1aeb-40c2-82fc-4ba08c960bf3","ios":"levelo://app?vid=30123344-1aeb-40c2-82fc-4ba08c960bf3"},"vehicle_type_id":"4","last_reported":1714558133,"current_range_meters":28800,"station_id":"ce4bgt12rcd13ifvqce0","pricing_plan_id":"cebpf4jnsgd1na2vs0mg"},{"bike_id":"94031709-3bc2-4738-be59-e7c2d4b328b2","system_id":"levelo_inurba_marseille","lat":43.308012,"lon":5.381511,"is_reserved":false,"is_disabled":false,"rental_uris":{"android":"levelo://app?vid=94031709-3bc2-4738-be59-e7c2d4b328b2","ios":"levelo://app?vid=94031709-3bc2-4738-be59-e7c2d4b328b2"},"vehicle_type_id":"4","last_reported":1714558133,"current_range_meters":26000,"station_id":"ce4bgt12rcd13ifvqce0","pricing_plan_id":"cebpf4jnsgd1na2vs0mg"},{"bike_id":"6be39645-1f86-4356-9ccc-8df11f80e6c9","system_id":"levelo_inurba_marseille","lat":43.308012,"lon":5.381511,"is_reserved":false,"is_disabled":false,"rental_uris":{"android":"levelo://app?vid=6be39645-1f86-4356-9ccc-8df11f80e6c9","ios":"levelo://app?vid=6be39645-1f86-4356-9ccc-8df11f80e6c9"},"vehicle_type_id":"4","last_reported":1714558133,"current_range_meters":29600,"station_id":"ce4bgt12rcd13ifvqce0","pricing_plan_id":"cebpf4jnsgd1na2vs0mg"},{"bike_id":"f71c330f-72fb-4ec2-9b08-bcc75a18186f","system_id":"levelo_inurba_marseille","lat":43.308012,"lon":5.381511,"is_reserved":false,"is_disabled":false,"rental_uris":{"android":"levelo://app?vid=f71c330f-72fb-4ec2-9b08-bcc75a18186f","ios":"levelo://app?vid=f71c330f-72fb-4ec2-9b08-bcc75a18186f"},"vehicle_type_id":"4","last_reported":1714558133,"current_range_meters":11200,"station_id":"ce4bgt12rcd13ifvqce0","pricing_plan_id":"cebpf4jnsgd1na2vs0mg"},{"bike_id":"3a18c2b3-8d60-452f-8afa-fde4dec17f3e","system_id":"levelo_inurba_marseille","lat":43.308012,"lon":5.381511,"is_reserved":false,"is_disabled":false,"rental_uris":{"android":"levelo://app?vid=3a18c2b3-8d60-452f-8afa-fde4dec17f3e","ios":"levelo://app?vid=3a18c2b3-8d60-452f-8afa-fde4dec17f3e"},"vehicle_type_id":"4","last_reported":1714558133,"current_range_meters":12800,"station_id":"ce4bgt12rcd13ifvqce0","pricing_plan_id":"cebpf4jnsgd1na2vs0mg"},{"bike_id":"9e8ced68-a53b-4206-9131-16f073c8fc08","system_id":"levelo_inurba_marseille","lat":43.304606,"lon":5.379026,"is_reserved":false,"is_disabled":false,"rental_uris":{"android":"levelo://app?vid=9e8ced68-a53b-4206-9131-16f073c8fc08","ios":"levelo://app?vid=9e8ced68-a53b-4206-9131-16f073c8fc08"},"vehicle_type_id":"4","last_reported":1714558133,"current_range_meters":10400,"station_id":"ce4bgup2rcd13ifvqcn0","pricing_plan_id":"cebpf4jnsgd1na2vs0mg"},{"bike_id":"6a6f71cb-1a69-4c76-92f4-7c1e3ae9897c","system_id":"levelo_inurba_marseille","lat":43.304606,"lon":5.379026,"is_reserved":false,"is_disabled":false,"rental_uris":{"android":"levelo://app?vid=6a6f71cb-1a69-4c76-92f4-7c1e3ae9897c","ios":"levelo://app?vid=6a6f71cb-1a69-4c76-92f4-7c1e3ae9897c"},"vehicle_type_id":"4","last_reported":1714558133,"current_range_meters":22000,"station_id":"ce4bgup2rcd13ifvqcn0","pricing_plan_id":"cebpf4jnsgd1na2vs0mg"},{"bike_id":"6986dc06-43a5-42db-b0d6-8b40c69beb15","system_id":"levelo_inurba_marseille","lat":43.304606,"lon":5.379026,"is_reserved":false,"is_disabled":false,"rental_uris":{"android":"levelo://app?vid=6986dc06-43a5-42db-b0d6-8b40c69beb15","ios":"levelo://app?vid=6986dc06-43a5-42db-b0d6-8b40c69beb15"},"vehicle_type_id":"4","last_reported":1714558133,"current_range_meters":14000,"station_id":"ce4bgup2rcd13ifvqcn0","pricing_plan_id":"cebpf4jnsgd1na2vs0mg"},{"bike_id":"78745cbd-be09-4544-b72e-38d4e01b2d88","system_id":"levelo_inurba_marseille","lat":43.30467,"lon":5.37904,"is_reserved":false,"is_disabled":false,"rental_uris":{"android":"levelo://app?vid=78745cbd-be09-4544-b72e-38d4e01b2d88","ios":"levelo://app?vid=78745cbd-be09-4544-b72e-38d4e01b2d88"},"vehicle_type_id":"4","last_reported":1714558133,"current_range_meters":8800,"station_id":"ce4bgup2rcd13ifvqcn0","pricing_plan_id":"cebpf4jnsgd1na2vs0mg"},{"bike_id":"0ed9891a-a5e6-4cd3-8617-f2559f9ec675","system_id":"levelo_inurba_marseille","lat":43.304606,"lon":5.379026,"is_reserved":false,"is_disabled":false,"rental_uris":{"android":"levelo://app?vid=0ed9891a-a5e6-4cd3-8617-f2559f9ec675","ios":"levelo://app?vid=0ed9891a-a5e6-4cd3-8617-f2559f9ec675"},"vehicle_type_id":"4","last_reported":1714558133,"current_range_meters":9200,"station_id":"ce4bgup2rcd13ifvqcn0","pricing_plan_id":"cebpf4jnsgd1na2vs0mg"},{"bike_id":"61f148c8-a6cf-400a-a852-48aa57397481","system_id":"levelo_inurba_marseille","lat":43.304606,"lon":5.379026,"is_reserved":false,"is_disabled":false,"rental_uris":{"android":"levelo://app?vid=61f148c8-a6cf-400a-a852-48aa57397481","ios":"levelo://app?vid=61f148c8-a6cf-400a-a852-48aa57397481"},"vehicle_type_id":"4","last_reported":1714558133,"current_range_meters":11600,"station_id":"ce4bgup2rcd13ifvqcn0","pricing_plan_id":"cebpf4jnsgd1na2vs0mg"},{"bike_id":"e973b43a-a997-4d4a-a8fe-1cc0c6c96848","system_id":"levelo_inurba_marseille","lat":43.30474,"lon":5.37916,"is_reserved":false,"is_disabled":false,"rental_uris":{"android":"levelo://app?vid=e973b43a-a997-4d4a-a8fe-1cc0c6c96848","ios":"levelo://app?vid=e973b43a-a997-4d4a-a8fe-1cc0c6c96848"},"vehicle_type_id":"4","last_reported":1714558133,"current_range_meters":20400,"station_id":"ce4bgup2rcd13ifvqcn0","pricing_plan_id":"cebpf4jnsgd1na2vs0mg"},{"bike_id":"53a42792-564b-4387-ae2b-32c476faacb4","system_id":"levelo_inurba_marseille","lat":43.304606,"lon":5.379026,"is_reserved":false,"is_disabled":false,"rental_uris":{"android":"levelo://app?vid=53a42792-564b-4387-ae2b-32c476faacb4","ios":"levelo://app?vid=53a42792-564b-4387-ae2b-32c476faacb4"},"vehicle_type_id":"4","last_reported":1714558133,"current_range_meters":20000,"station_id":"ce4bgup2rcd13ifvqcn0","pricing_plan_id":"cebpf4jnsgd1na2vs0mg"},{"bike_id":"ef181368-e2d9-4b77-8e0c-b15cff5cd3c9","system_id":"levelo_inurba_marseille","lat":43.304606,"lon":5.379026,"is_reserved":false,"is_disabled":false,"rental_uris":{"android":"levelo://app?vid=ef181368-e2d9-4b77-8e0c-b15cff5cd3c9","ios":"levelo://app?vid=ef181368-e2d9-4b77-8e0c-b15cff5cd3c9"},"vehicle_type_id":"4","last_reported":1714558133,"current_range_meters":27200,"station_id":"ce4bgup2rcd13ifvqcn0","pricing_plan_id":"cebpf4jnsgd1na2vs0mg"},{"bike_id":"2633600e-4dab-4cbe-b2ff-9c7a4b9a43d2","system_id":"levelo_inurba_marseille","lat":43.304606,"lon":5.379026,"is_reserved":false,"is_disabled":false,"rental_uris":{"android":"levelo://app?vid=2633600e-4dab-4cbe-b2ff-9c7a4b9a43d2","ios":"levelo://app?vid=2633600e-4dab-4cbe-b2ff-9c7a4b9a43d2"},"vehicle_type_id":"4","last_reported":1714558133,"current_range_meters":19600,"station_id":"ce4bgup2rcd13ifvqcn0","pricing_plan_id":"cebpf4jnsgd1na2vs0mg"},{"bike_id":"8a62af9a-2a8d-4f3c-b563-ddb2df53a4b2","system_id":"levelo_inurba_marseille","lat":43.304606,"lon":5.379026,"is_reserved":false,"is_disabled":false,"rental_uris":{"android":"levelo://app?vid=8a62af9a-2a8d-4f3c-b563-ddb2df53a4b2","ios":"levelo://app?vid=8a62af9a-2a8d-4f3c-b563-ddb2df53a4b2"},"vehicle_type_id":"4","last_reported":1714558133,"current_range_meters":24800,"station_id":"ce4bgup2rcd13ifvqcn0","pricing_plan_id":"cebpf4jnsgd1na2vs0mg"},{"bike_id":"3fafe9df-2f59-4db7-b205-2990c7720223","system_id":"levelo_inurba_marseille","lat":43.30464,"lon":5.37909,"is_reserved":false,"is_disabled":false,"rental_uris":{"android":"levelo://app?vid=3fafe9df-2f59-4db7-b205-2990c7720223","ios":"levelo://app?vid=3fafe9df-2f59-4db7-b205-2990c7720223"},"vehicle_type_id":"4","last_reported":1714558133,"current_range_meters":25600,"station_id":"ce4bgup2rcd13ifvqcn0","pricing_plan_id":"cebpf4jnsgd1na2vs0mg"},{"bike_id":"b7e1812b-71b7-413a-9761-bc07c6cc1d8b","system_id":"levelo_inurba_marseille","lat":43.304606,"lon":5.379026,"is_reserved":false,"is_disabled":false,"rental_uris":{"android":"levelo://app?vid=b7e1812b-71b7-413a-9761-bc07c6cc1d8b","ios":"levelo://app?vid=b7e1812b-71b7-413a-9761-bc07c6cc1d8b"},"vehicle_type_id":"4","last_reported":1714558133,"current_range_meters":24400,"station_id":"ce4bgup2rcd13ifvqcn0","pricing_plan_id":"cebpf4jnsgd1na2vs0mg"},{"bike_id":"b7061a59-00c9-41e0-b22c-5493f85f2f82","system_id":"levelo_inurba_marseille","lat":43.304606,"lon":5.379026,"is_reserved":false,"is_disabled":false,"rental_uris":{"android":"levelo://app?vid=b7061a59-00c9-41e0-b22c-5493f85f2f82","ios":"levelo://app?vid=b7061a59-00c9-41e0-b22c-5493f85f2f82"},"vehicle_type_id":"4","last_reported":1714558133,"current_range_meters":20400,"station_id":"ce4bgup2rcd13ifvqcn0","pricing_plan_id":"cebpf4jnsgd1na2vs0mg"},{"bike_id":"d2ddab09-7fec-459d-ba1a-ad7303dada15","system_id":"levelo_inurba_marseille","lat":43.304606,"lon":5.379026,"is_reserved":false,"is_disabled":false,"rental_uris":{"android":"levelo://app?vid=d2ddab09-7fec-459d-ba1a-ad7303dada15","ios":"levelo://app?vid=d2ddab09-7fec-459d-ba1a-ad7303dada15"},"vehicle_type_id":"4","last_reported":1714558133,"current_range_meters":2400,"station_id":"ce4bgup2rcd13ifvqcn0","pricing_plan_id":"cebpf4jnsgd1na2vs0mg"},{"bike_id":"937a6bbc-5fb5-47f2-8fb4-743a833a38c3","system_id":"levelo_inurba_marseille","lat":43.304606,"lon":5.379026,"is_reserved":false,"is_disabled":false,"rental_uris":{"android":"levelo://app?vid=937a6bbc-5fb5-47f2-8fb4-743a833a38c3","ios":"levelo://app?vid=937a6bbc-5fb5-47f2-8fb4-743a833a38c3"},"vehicle_type_id":"4","last_reported":1714558133,"current_range_meters":18800,"station_id":"ce4bgup2rcd13ifvqcn0","pricing_plan_id":"cebpf4jnsgd1na2vs0mg"},{"bike_id":"48b929d2-e3df-404d-820d-793f9abd15f1","system_id":"levelo_inurba_marseille","lat":43.304606,"lon":5.379026,"is_reserved":false,"is_disabled":false,"rental_uris":{"android":"levelo://app?vid=48b929d2-e3df-404d-820d-793f9abd15f1","ios":"levelo://app?vid=48b929d2-e3df-404d-820d-793f9abd15f1"},"vehicle_type_id":"4","last_reported":1714558133,"current_range_meters":32000,"station_id":"ce4bgup2rcd13ifvqcn0","pricing_plan_id":"cebpf4jnsgd1na2vs0mg"},{"bike_id":"d590a500-ea74-49d7-9ef4-2e59ad632601","system_id":"levelo_inurba_marseille","lat":43.304606,"lon":5.379026,"is_reserved":false,"is_disabled":false,"rental_uris":{"android":"levelo://app?vid=d590a500-ea74-49d7-9ef4-2e59ad632601","ios":"levelo://app?vid=d590a500-ea74-49d7-9ef4-2e59ad632601"},"vehicle_type_id":"4","last_reported":1714558133,"current_range_meters":31600,"station_id":"ce4bgup2rcd13ifvqcn0","pricing_plan_id":"cebpf4jnsgd1na2vs0mg"},{"bike_id":"672309a1-679a-42d4-8c5f-40865aa4059b","system_id":"levelo_inurba_marseille","lat":43.304606,"lon":5.379026,"is_reserved":false,"is_disabled":false,"rental_uris":{"android":"levelo://app?vid=672309a1-679a-42d4-8c5f-40865aa4059b","ios":"levelo://app?vid=672309a1-679a-42d4-8c5f-40865aa4059b"},"vehicle_type_id":"4","last_reported":1714558133,"current_range_meters":22800,"station_id":"ce4bgup2rcd13ifvqcn0","pricing_plan_id":"cebpf4jnsgd1na2vs0mg"},{"bike_id":"8c92d843-6754-4ba3-96e0-b8996e5542b0","system_id":"levelo_inurba_marseille","lat":43.304606,"lon":5.379026,"is_reserved":false,"is_disabled":false,"rental_uris":{"android":"levelo://app?vid=8c92d843-6754-4ba3-96e0-b8996e5542b0","ios":"levelo://app?vid=8c92d843-6754-4ba3-96e0-b8996e5542b0"},"vehicle_type_id":"4","last_reported":1714558133,"current_range_meters":27200,"station_id":"ce4bgup2rcd13ifvqcn0","pricing_plan_id":"cebpf4jnsgd1na2vs0mg"},{"bike_id":"00012da4-ad03-4020-bdd6-54b780983417","system_id":"levelo_inurba_marseille","lat":43.304606,"lon":5.379026,"is_reserved":false,"is_disabled":false,"rental_uris":{"android":"levelo://app?vid=00012da4-ad03-4020-bdd6-54b780983417","ios":"levelo://app?vid=00012da4-ad03-4020-bdd6-54b780983417"},"vehicle_type_id":"4","last_reported":1714558133,"current_range_meters":24000,"station_id":"ce4bgup2rcd13ifvqcn0","pricing_plan_id":"cebpf4jnsgd1na2vs0mg"},{"bike_id":"2d745f19-9e6f-407d-8030-70a535b6c69a","system_id":"levelo_inurba_marseille","lat":43.304606,"lon":5.379026,"is_reserved":false,"is_disabled":false,"rental_uris":{"android":"levelo://app?vid=2d745f19-9e6f-407d-8030-70a535b6c69a","ios":"levelo://app?vid=2d745f19-9e6f-407d-8030-70a535b6c69a"},"vehicle_type_id":"4","last_reported":1714558133,"current_range_meters":14000,"station_id":"ce4bgup2rcd13ifvqcn0","pricing_plan_id":"cebpf4jnsgd1na2vs0mg"},{"bike_id":"e5c5d40d-ddb9-45af-a363-1283403827e8","system_id":"levelo_inurba_marseille","lat":43.304606,"lon":5.379026,"is_reserved":false,"is_disabled":false,"rental_uris":{"android":"levelo://app?vid=e5c5d40d-ddb9-45af-a363-1283403827e8","ios":"levelo://app?vid=e5c5d40d-ddb9-45af-a363-1283403827e8"},"vehicle_type_id":"4","last_reported":1714558133,"current_range_meters":18000,"station_id":"ce4bgup2rcd13ifvqcn0","pricing_plan_id":"cebpf4jnsgd1na2vs0mg"},{"bike_id":"19ae5a57-6375-4c97-a582-22f32a84cff6","system_id":"levelo_inurba_marseille","lat":43.304606,"lon":5.379026,"is_reserved":false,"is_disabled":false,"rental_uris":{"android":"levelo://app?vid=19ae5a57-6375-4c97-a582-22f32a84cff6","ios":"levelo://app?vid=19ae5a57-6375-4c97-a582-22f32a84cff6"},"vehicle_type_id":"4","last_reported":1714558133,"current_range_meters":25200,"station_id":"ce4bgup2rcd13ifvqcn0","pricing_plan_id":"cebpf4jnsgd1na2vs0mg"},{"bike_id":"a2c062aa-e037-49d5-bfe9-71d9ba3a2ae5","system_id":"levelo_inurba_marseille","lat":43.304606,"lon":5.379026,"is_reserved":false,"is_disabled":false,"rental_uris":{"android":"levelo://app?vid=a2c062aa-e037-49d5-bfe9-71d9ba3a2ae5","ios":"levelo://app?vid=a2c062aa-e037-49d5-bfe9-71d9ba3a2ae5"},"vehicle_type_id":"4","last_reported":1714558133,"current_range_meters":26400,"station_id":"ce4bgup2rcd13ifvqcn0","pricing_plan_id":"cebpf4jnsgd1na2vs0mg"},{"bike_id":"6e0da1e1-7ac5-4b14-86fc-689fa5c4c571","system_id":"levelo_inurba_marseille","lat":43.304606,"lon":5.379026,"is_reserved":false,"is_disabled":false,"rental_uris":{"android":"levelo://app?vid=6e0da1e1-7ac5-4b14-86fc-689fa5c4c571","ios":"levelo://app?vid=6e0da1e1-7ac5-4b14-86fc-689fa5c4c571"},"vehicle_type_id":"4","last_reported":1714558133,"current_range_meters":25600,"station_id":"ce4bgup2rcd13ifvqcn0","pricing_plan_id":"cebpf4jnsgd1na2vs0mg"},{"bike_id":"aff14827-7060-4c86-96fa-b4c198503bed","system_id":"levelo_inurba_marseille","lat":43.304606,"lon":5.379026,"is_reserved":false,"is_disabled":false,"rental_uris":{"android":"levelo://app?vid=aff14827-7060-4c86-96fa-b4c198503bed","ios":"levelo://app?vid=aff14827-7060-4c86-96fa-b4c198503bed"},"vehicle_type_id":"4","last_reported":1714558133,"current_range_meters":21200,"station_id":"ce4bgup2rcd13ifvqcn0","pricing_plan_id":"cebpf4jnsgd1na2vs0mg"},{"bike_id":"c5a1f625-7ac2-4e06-9912-956f3738afa0","system_id":"levelo_inurba_marseille","lat":43.30463,"lon":5.379125,"is_reserved":false,"is_disabled":false,"rental_uris":{"android":"levelo://app?vid=c5a1f625-7ac2-4e06-9912-956f3738afa0","ios":"levelo://app?vid=c5a1f625-7ac2-4e06-9912-956f3738afa0"},"vehicle_type_id":"4","last_reported":1714558133,"current_range_meters":24800,"station_id":"ce4bgup2rcd13ifvqcn0","pricing_plan_id":"cebpf4jnsgd1na2vs0mg"},{"bike_id":"ca6b3bd6-8397-4690-b42c-7fcd4a0150ce","system_id":"levelo_inurba_marseille","lat":43.30463,"lon":5.379133,"is_reserved":false,"is_disabled":false,"rental_uris":{"android":"levelo://app?vid=ca6b3bd6-8397-4690-b42c-7fcd4a0150ce","ios":"levelo://app?vid=ca6b3bd6-8397-4690-b42c-7fcd4a0150ce"},"vehicle_type_id":"4","last_reported":1714558133,"current_range_meters":19600,"station_id":"ce4bgup2rcd13ifvqcn0","pricing_plan_id":"cebpf4jnsgd1na2vs0mg"},{"bike_id":"5c7ce52c-9e28-4114-802d-0b010cb9aff4","system_id":"levelo_inurba_marseille","lat":43.30461,"lon":5.37911,"is_reserved":false,"is_disabled":false,"rental_uris":{"android":"levelo://app?vid=5c7ce52c-9e28-4114-802d-0b010cb9aff4","ios":"levelo://app?vid=5c7ce52c-9e28-4114-802d-0b010cb9aff4"},"vehicle_type_id":"4","last_reported":1714558133,"current_range_meters":24000,"station_id":"ce4bgup2rcd13ifvqcn0","pricing_plan_id":"cebpf4jnsgd1na2vs0mg"},{"bike_id":"da814755-a194-4650-b7a1-e34a7b696375","system_id":"levelo_inurba_marseille","lat":43.304606,"lon":5.379026,"is_reserved":false,"is_disabled":false,"rental_uris":{"android":"levelo://app?vid=da814755-a194-4650-b7a1-e34a7b696375","ios":"levelo://app?vid=da814755-a194-4650-b7a1-e34a7b696375"},"vehicle_type_id":"4","last_reported":1714558133,"current_range_meters":12000,"station_id":"ce4bgup2rcd13ifvqcn0","pricing_plan_id":"cebpf4jnsgd1na2vs0mg"},{"bike_id":"e04c034f-1b17-4a76-a455-64a6f80bff84","system_id":"levelo_inurba_marseille","lat":43.304606,"lon":5.379026,"is_reserved":false,"is_disabled":false,"rental_uris":{"android":"levelo://app?vid=e04c034f-1b17-4a76-a455-64a6f80bff84","ios":"levelo://app?vid=e04c034f-1b17-4a76-a455-64a6f80bff84"},"vehicle_type_id":"4","last_reported":1714558133,"current_range_meters":8800,"station_id":"ce4bgup2rcd13ifvqcn0","pricing_plan_id":"cebpf4jnsgd1na2vs0mg"},{"bike_id":"58637435-8429-4f7d-a0be-7976c8a76f14","system_id":"levelo_inurba_marseille","lat":43.304613,"lon":5.379137,"is_reserved":false,"is_disabled":false,"rental_uris":{"android":"levelo://app?vid=58637435-8429-4f7d-a0be-7976c8a76f14","ios":"levelo://app?vid=58637435-8429-4f7d-a0be-7976c8a76f14"},"vehicle_type_id":"4","last_reported":1714558133,"current_range_meters":19600,"station_id":"ce4bgup2rcd13ifvqcn0","pricing_plan_id":"cebpf4jnsgd1na2vs0mg"},{"bike_id":"2aba91b8-3d08-477f-9411-e58591257de4","system_id":"levelo_inurba_marseille","lat":43.30462,"lon":5.37915,"is_reserved":false,"is_disabled":false,"rental_uris":{"android":"levelo://app?vid=2aba91b8-3d08-477f-9411-e58591257de4","ios":"levelo://app?vid=2aba91b8-3d08-477f-9411-e58591257de4"},"vehicle_type_id":"4","last_reported":1714558133,"current_range_meters":24800,"station_id":"ce4bgup2rcd13ifvqcn0","pricing_plan_id":"cebpf4jnsgd1na2vs0mg"},{"bike_id":"d68c6a04-97b9-446b-af52-1bf9a27f07c4","system_id":"levelo_inurba_marseille","lat":43.304606,"lon":5.379026,"is_reserved":false,"is_disabled":false,"rental_uris":{"android":"levelo://app?vid=d68c6a04-97b9-446b-af52-1bf9a27f07c4","ios":"levelo://app?vid=d68c6a04-97b9-446b-af52-1bf9a27f07c4"},"vehicle_type_id":"4","last_reported":1714558133,"current_range_meters":24400,"station_id":"ce4bgup2rcd13ifvqcn0","pricing_plan_id":"cebpf4jnsgd1na2vs0mg"},{"bike_id":"0b374915-5cc6-402a-a2f1-94cd03482438","system_id":"levelo_inurba_marseille","lat":43.30458,"lon":5.3791,"is_reserved":false,"is_disabled":false,"rental_uris":{"android":"levelo://app?vid=0b374915-5cc6-402a-a2f1-94cd03482438","ios":"levelo://app?vid=0b374915-5cc6-402a-a2f1-94cd03482438"},"vehicle_type_id":"4","last_reported":1714558133,"current_range_meters":0,"station_id":"ce4bgup2rcd13ifvqcn0","pricing_plan_id":"cebpf4jnsgd1na2vs0mg"},{"bike_id":"505c9fc0-49c3-4c39-ab88-1ba2555dbf58","system_id":"levelo_inurba_marseille","lat":43.324748,"lon":5.365606,"is_reserved":false,"is_disabled":false,"rental_uris":{"android":"levelo://app?vid=505c9fc0-49c3-4c39-ab88-1ba2555dbf58","ios":"levelo://app?vid=505c9fc0-49c3-4c39-ab88-1ba2555dbf58"},"vehicle_type_id":"4","last_reported":1714558133,"current_range_meters":8000,"station_id":"ce4bhs12rcd13ifvqhvg","pricing_plan_id":"cebpf4jnsgd1na2vs0mg"},{"bike_id":"9ff0830f-e0f2-4f56-8687-5dd0c71549f1","system_id":"levelo_inurba_marseille","lat":43.324746,"lon":5.365574,"is_reserved":false,"is_disabled":false,"rental_uris":{"android":"levelo://app?vid=9ff0830f-e0f2-4f56-8687-5dd0c71549f1","ios":"levelo://app?vid=9ff0830f-e0f2-4f56-8687-5dd0c71549f1"},"vehicle_type_id":"4","last_reported":1714558133,"current_range_meters":27200,"station_id":"ce4bhs12rcd13ifvqhvg","pricing_plan_id":"cebpf4jnsgd1na2vs0mg"},{"bike_id":"fca0512a-e514-43b3-a37e-665741369b77","system_id":"levelo_inurba_marseille","lat":43.324771,"lon":5.36557,"is_reserved":false,"is_disabled":false,"rental_uris":{"android":"levelo://app?vid=fca0512a-e514-43b3-a37e-665741369b77","ios":"levelo://app?vid=fca0512a-e514-43b3-a37e-665741369b77"},"vehicle_type_id":"4","last_reported":1714558133,"current_range_meters":14800,"station_id":"ce4bhs12rcd13ifvqhvg","pricing_plan_id":"cebpf4jnsgd1na2vs0mg"},{"bike_id":"fae3462d-abd6-43dc-a658-b3919568d708","system_id":"levelo_inurba_marseille","lat":43.304567,"lon":5.379092,"is_reserved":false,"is_disabled":false,"rental_uris":{"android":"levelo://app?vid=fae3462d-abd6-43dc-a658-b3919568d708","ios":"levelo://app?vid=fae3462d-abd6-43dc-a658-b3919568d708"},"vehicle_type_id":"4","last_reported":1714558133,"current_range_meters":20000,"station_id":"ce4bgup2rcd13ifvqcn0","pricing_plan_id":"cebpf4jnsgd1na2vs0mg"},{"bike_id":"dca0d2d9-9a9e-44e2-aee1-97d83fc307e1","system_id":"levelo_inurba_marseille","lat":43.304606,"lon":5.379026,"is_reserved":false,"is_disabled":false,"rental_uris":{"android":"levelo://app?vid=dca0d2d9-9a9e-44e2-aee1-97d83fc307e1","ios":"levelo://app?vid=dca0d2d9-9a9e-44e2-aee1-97d83fc307e1"},"vehicle_type_id":"4","last_reported":1714558133,"current_range_meters":20000,"station_id":"ce4bgup2rcd13ifvqcn0","pricing_plan_id":"cebpf4jnsgd1na2vs0mg"},{"bike_id":"51beea3e-599d-44cf-a7a6-779160b7eec5","system_id":"levelo_inurba_marseille","lat":43.324741,"lon":5.365429,"is_reserved":false,"is_disabled":false,"rental_uris":{"android":"levelo://app?vid=51beea3e-599d-44cf-a7a6-779160b7eec5","ios":"levelo://app?vid=51beea3e-599d-44cf-a7a6-779160b7eec5"},"vehicle_type_id":"4","last_reported":1714558133,"current_range_meters":14800,"station_id":"ce4bhs12rcd13ifvqhvg","pricing_plan_id":"cebpf4jnsgd1na2vs0mg"},{"bike_id":"b21ae7ee-dd87-4fb7-a859-109931d2977d","system_id":"levelo_inurba_marseille","lat":43.324763,"lon":5.36568,"is_reserved":false,"is_disabled":false,"rental_uris":{"android":"levelo://app?vid=b21ae7ee-dd87-4fb7-a859-109931d2977d","ios":"levelo://app?vid=b21ae7ee-dd87-4fb7-a859-109931d2977d"},"vehicle_type_id":"4","last_reported":1714558133,"current_range_meters":11600,"station_id":"ce4bhs12rcd13ifvqhvg","pricing_plan_id":"cebpf4jnsgd1na2vs0mg"},{"bike_id":"884be1f9-079f-49e3-87f1-f1de64bbab82","system_id":"levelo_inurba_marseille","lat":43.302711,"lon":5.376125,"is_reserved":false,"is_disabled":false,"rental_uris":{"android":"levelo://app?vid=884be1f9-079f-49e3-87f1-f1de64bbab82","ios":"levelo://app?vid=884be1f9-079f-49e3-87f1-f1de64bbab82"},"vehicle_type_id":"4","last_reported":1714558133,"current_range_meters":21200,"station_id":"","pricing_plan_id":"cebpf4jnsgd1na2vs0mg"},{"bike_id":"8972ab40-ec40-439b-9685-c2923064d34a","system_id":"levelo_inurba_marseille","lat":43.30461,"lon":5.379165,"is_reserved":false,"is_disabled":false,"rental_uris":{"android":"levelo://app?vid=8972ab40-ec40-439b-9685-c2923064d34a","ios":"levelo://app?vid=8972ab40-ec40-439b-9685-c2923064d34a"},"vehicle_type_id":"4","last_reported":1714558133,"current_range_meters":16000,"station_id":"ce4bgup2rcd13ifvqcn0","pricing_plan_id":"cebpf4jnsgd1na2vs0mg"},{"bike_id":"7ab2f8e1-a42b-44dc-a790-0f80a94c1eda","system_id":"levelo_inurba_marseille","lat":43.304578,"lon":5.379125,"is_reserved":false,"is_disabled":false,"rental_uris":{"android":"levelo://app?vid=7ab2f8e1-a42b-44dc-a790-0f80a94c1eda","ios":"levelo://app?vid=7ab2f8e1-a42b-44dc-a790-0f80a94c1eda"},"vehicle_type_id":"4","last_reported":1714558133,"current_range_meters":19200,"station_id":"ce4bgup2rcd13ifvqcn0","pricing_plan_id":"cebpf4jnsgd1na2vs0mg"},{"bike_id":"0a4a6ca4-0474-4f68-b089-af26c0c8b25a","system_id":"levelo_inurba_marseille","lat":43.324771,"lon":5.36557,"is_reserved":false,"is_disabled":false,"rental_uris":{"android":"levelo://app?vid=0a4a6ca4-0474-4f68-b089-af26c0c8b25a","ios":"levelo://app?vid=0a4a6ca4-0474-4f68-b089-af26c0c8b25a"},"vehicle_type_id":"4","last_reported":1714558133,"current_range_meters":16400,"station_id":"ce4bhs12rcd13ifvqhvg","pricing_plan_id":"cebpf4jnsgd1na2vs0mg"},{"bike_id":"1c6723bb-7861-4c75-a149-5251883718a7","system_id":"levelo_inurba_marseille","lat":43.32477,"lon":5.3656,"is_reserved":false,"is_disabled":false,"rental_uris":{"android":"levelo://app?vid=1c6723bb-7861-4c75-a149-5251883718a7","ios":"levelo://app?vid=1c6723bb-7861-4c75-a149-5251883718a7"},"vehicle_type_id":"4","last_reported":1714558133,"current_range_meters":28800,"station_id":"ce4bhs12rcd13ifvqhvg","pricing_plan_id":"cebpf4jnsgd1na2vs0mg"},{"bike_id":"4a8ec3cb-d1f2-496e-bf5b-edd6fc6922c4","system_id":"levelo_inurba_marseille","lat":43.32478,"lon":5.36561,"is_reserved":false,"is_disabled":false,"rental_uris":{"android":"levelo://app?vid=4a8ec3cb-d1f2-496e-bf5b-edd6fc6922c4","ios":"levelo://app?vid=4a8ec3cb-d1f2-496e-bf5b-edd6fc6922c4"},"vehicle_type_id":"4","last_reported":1714558133,"current_range_meters":17200,"station_id":"ce4bhs12rcd13ifvqhvg","pricing_plan_id":"cebpf4jnsgd1na2vs0mg"},{"bike_id":"b542f8ad-0de0-40a1-9ef7-53b385381a12","system_id":"levelo_inurba_marseille","lat":43.324771,"lon":5.36557,"is_reserved":false,"is_disabled":false,"rental_uris":{"android":"levelo://app?vid=b542f8ad-0de0-40a1-9ef7-53b385381a12","ios":"levelo://app?vid=b542f8ad-0de0-40a1-9ef7-53b385381a12"},"vehicle_type_id":"4","last_reported":1714558133,"current_range_meters":4800,"station_id":"ce4bhs12rcd13ifvqhvg","pricing_plan_id":"cebpf4jnsgd1na2vs0mg"},{"bike_id":"263ddf92-f97b-4bde-af65-350aba08e4ca","system_id":"levelo_inurba_marseille","lat":43.324771,"lon":5.36557,"is_reserved":false,"is_disabled":false,"rental_uris":{"android":"levelo://app?vid=263ddf92-f97b-4bde-af65-350aba08e4ca","ios":"levelo://app?vid=263ddf92-f97b-4bde-af65-350aba08e4ca"},"vehicle_type_id":"4","last_reported":1714558133,"current_range_meters":8400,"station_id":"ce4bhs12rcd13ifvqhvg","pricing_plan_id":"cebpf4jnsgd1na2vs0mg"},{"bike_id":"ec9ad42d-7bf5-43ef-a2cf-ce73f78031d9","system_id":"levelo_inurba_marseille","lat":43.324771,"lon":5.36557,"is_reserved":false,"is_disabled":false,"rental_uris":{"android":"levelo://app?vid=ec9ad42d-7bf5-43ef-a2cf-ce73f78031d9","ios":"levelo://app?vid=ec9ad42d-7bf5-43ef-a2cf-ce73f78031d9"},"vehicle_type_id":"4","last_reported":1714558133,"current_range_meters":5200,"station_id":"ce4bhs12rcd13ifvqhvg","pricing_plan_id":"cebpf4jnsgd1na2vs0mg"},{"bike_id":"b22ab42e-8a3a-4ec7-97c5-d3fb72660fea","system_id":"levelo_inurba_marseille","lat":43.32479,"lon":5.36562,"is_reserved":false,"is_disabled":false,"rental_uris":{"android":"levelo://app?vid=b22ab42e-8a3a-4ec7-97c5-d3fb72660fea","ios":"levelo://app?vid=b22ab42e-8a3a-4ec7-97c5-d3fb72660fea"},"vehicle_type_id":"4","last_reported":1714558133,"current_range_meters":3200,"station_id":"ce4bhs12rcd13ifvqhvg","pricing_plan_id":"cebpf4jnsgd1na2vs0mg"},{"bike_id":"7a10f6e8-8083-4b57-a90f-541d4663b3eb","system_id":"levelo_inurba_marseille","lat":43.324771,"lon":5.36557,"is_reserved":false,"is_disabled":false,"rental_uris":{"android":"levelo://app?vid=7a10f6e8-8083-4b57-a90f-541d4663b3eb","ios":"levelo://app?vid=7a10f6e8-8083-4b57-a90f-541d4663b3eb"},"vehicle_type_id":"4","last_reported":1714558133,"current_range_meters":12400,"station_id":"ce4bhs12rcd13ifvqhvg","pricing_plan_id":"cebpf4jnsgd1na2vs0mg"},{"bike_id":"11d4a8b9-4eee-4240-bd36-e179b5362527","system_id":"levelo_inurba_marseille","lat":43.30458,"lon":5.37919,"is_reserved":false,"is_disabled":false,"rental_uris":{"android":"levelo://app?vid=11d4a8b9-4eee-4240-bd36-e179b5362527","ios":"levelo://app?vid=11d4a8b9-4eee-4240-bd36-e179b5362527"},"vehicle_type_id":"4","last_reported":1714558133,"current_range_meters":19200,"station_id":"ce4bgup2rcd13ifvqcn0","pricing_plan_id":"cebpf4jnsgd1na2vs0mg"},{"bike_id":"e560c9f7-9a68-4c7c-a574-1ae51de44590","system_id":"levelo_inurba_marseille","lat":43.324771,"lon":5.36557,"is_reserved":false,"is_disabled":false,"rental_uris":{"android":"levelo://app?vid=e560c9f7-9a68-4c7c-a574-1ae51de44590","ios":"levelo://app?vid=e560c9f7-9a68-4c7c-a574-1ae51de44590"},"vehicle_type_id":"4","last_reported":1714558133,"current_range_meters":5600,"station_id":"ce4bhs12rcd13ifvqhvg","pricing_plan_id":"cebpf4jnsgd1na2vs0mg"},{"bike_id":"1c9411c0-d42f-4c9c-954b-623621242b42","system_id":"levelo_inurba_marseille","lat":43.324771,"lon":5.36557,"is_reserved":false,"is_disabled":false,"rental_uris":{"android":"levelo://app?vid=1c9411c0-d42f-4c9c-954b-623621242b42","ios":"levelo://app?vid=1c9411c0-d42f-4c9c-954b-623621242b42"},"vehicle_type_id":"4","last_reported":1714558133,"current_range_meters":10000,"station_id":"ce4bhs12rcd13ifvqhvg","pricing_plan_id":"cebpf4jnsgd1na2vs0mg"},{"bike_id":"20ee36ab-83ec-4fcb-9465-adbceb8bedfc","system_id":"levelo_inurba_marseille","lat":43.324771,"lon":5.36557,"is_reserved":false,"is_disabled":false,"rental_uris":{"android":"levelo://app?vid=20ee36ab-83ec-4fcb-9465-adbceb8bedfc","ios":"levelo://app?vid=20ee36ab-83ec-4fcb-9465-adbceb8bedfc"},"vehicle_type_id":"4","last_reported":1714558133,"current_range_meters":27200,"station_id":"ce4bhs12rcd13ifvqhvg","pricing_plan_id":"cebpf4jnsgd1na2vs0mg"},{"bike_id":"c0642eef-4c64-4ce5-97d7-9a8f95d1dc58","system_id":"levelo_inurba_marseille","lat":43.304606,"lon":5.379026,"is_reserved":false,"is_disabled":false,"rental_uris":{"android":"levelo://app?vid=c0642eef-4c64-4ce5-97d7-9a8f95d1dc58","ios":"levelo://app?vid=c0642eef-4c64-4ce5-97d7-9a8f95d1dc58"},"vehicle_type_id":"4","last_reported":1714558133,"current_range_meters":22800,"station_id":"ce4bgup2rcd13ifvqcn0","pricing_plan_id":"cebpf4jnsgd1na2vs0mg"},{"bike_id":"38034195-f3ea-4a5f-9ad9-18410ccfb664","system_id":"levelo_inurba_marseille","lat":43.32481,"lon":5.36574,"is_reserved":false,"is_disabled":false,"rental_uris":{"android":"levelo://app?vid=38034195-f3ea-4a5f-9ad9-18410ccfb664","ios":"levelo://app?vid=38034195-f3ea-4a5f-9ad9-18410ccfb664"},"vehicle_type_id":"4","last_reported":1714558133,"current_range_meters":12000,"station_id":"ce4bhs12rcd13ifvqhvg","pricing_plan_id":"cebpf4jnsgd1na2vs0mg"},{"bike_id":"06ac2027-09f1-4680-aa1f-6ab726213cb9","system_id":"levelo_inurba_marseille","lat":43.324771,"lon":5.36557,"is_reserved":false,"is_disabled":false,"rental_uris":{"android":"levelo://app?vid=06ac2027-09f1-4680-aa1f-6ab726213cb9","ios":"levelo://app?vid=06ac2027-09f1-4680-aa1f-6ab726213cb9"},"vehicle_type_id":"4","last_reported":1714558133,"current_range_meters":6000,"station_id":"ce4bhs12rcd13ifvqhvg","pricing_plan_id":"cebpf4jnsgd1na2vs0mg"},{"bike_id":"3233b655-0e42-4745-9352-e7ab6daacfd8","system_id":"levelo_inurba_marseille","lat":43.324771,"lon":5.36557,"is_reserved":false,"is_disabled":false,"rental_uris":{"android":"levelo://app?vid=3233b655-0e42-4745-9352-e7ab6daacfd8","ios":"levelo://app?vid=3233b655-0e42-4745-9352-e7ab6daacfd8"},"vehicle_type_id":"4","last_reported":1714558133,"current_range_meters":28000,"station_id":"ce4bhs12rcd13ifvqhvg","pricing_plan_id":"cebpf4jnsgd1na2vs0mg"},{"bike_id":"775b5193-55cb-42f1-b0fa-acd6f40ef433","system_id":"levelo_inurba_marseille","lat":43.324771,"lon":5.36557,"is_reserved":false,"is_disabled":false,"rental_uris":{"android":"levelo://app?vid=775b5193-55cb-42f1-b0fa-acd6f40ef433","ios":"levelo://app?vid=775b5193-55cb-42f1-b0fa-acd6f40ef433"},"vehicle_type_id":"4","last_reported":1714558133,"current_range_meters":26400,"station_id":"ce4bhs12rcd13ifvqhvg","pricing_plan_id":"cebpf4jnsgd1na2vs0mg"},{"bike_id":"caadc003-ff39-41d7-a207-143cea53cb36","system_id":"levelo_inurba_marseille","lat":43.324818,"lon":5.365776,"is_reserved":false,"is_disabled":false,"rental_uris":{"android":"levelo://app?vid=caadc003-ff39-41d7-a207-143cea53cb36","ios":"levelo://app?vid=caadc003-ff39-41d7-a207-143cea53cb36"},"vehicle_type_id":"4","last_reported":1714558133,"current_range_meters":27200,"station_id":"ce4bhs12rcd13ifvqhvg","pricing_plan_id":"cebpf4jnsgd1na2vs0mg"},{"bike_id":"c309f7ba-6ad6-4d3f-a1a7-a3843971cf8b","system_id":"levelo_inurba_marseille","lat":43.324771,"lon":5.36557,"is_reserved":false,"is_disabled":false,"rental_uris":{"android":"levelo://app?vid=c309f7ba-6ad6-4d3f-a1a7-a3843971cf8b","ios":"levelo://app?vid=c309f7ba-6ad6-4d3f-a1a7-a3843971cf8b"},"vehicle_type_id":"4","last_reported":1714558133,"current_range_meters":20800,"station_id":"ce4bhs12rcd13ifvqhvg","pricing_plan_id":"cebpf4jnsgd1na2vs0mg"},{"bike_id":"7036c69a-b779-4ece-8f74-4bc87ed55d46","system_id":"levelo_inurba_marseille","lat":43.324771,"lon":5.36557,"is_reserved":false,"is_disabled":false,"rental_uris":{"android":"levelo://app?vid=7036c69a-b779-4ece-8f74-4bc87ed55d46","ios":"levelo://app?vid=7036c69a-b779-4ece-8f74-4bc87ed55d46"},"vehicle_type_id":"4","last_reported":1714558133,"current_range_meters":14000,"station_id":"ce4bhs12rcd13ifvqhvg","pricing_plan_id":"cebpf4jnsgd1na2vs0mg"},{"bike_id":"2cb8d4af-041d-4bec-a228-7f59da5d6549","system_id":"levelo_inurba_marseille","lat":43.324819,"lon":5.36573,"is_reserved":false,"is_disabled":false,"rental_uris":{"android":"levelo://app?vid=2cb8d4af-041d-4bec-a228-7f59da5d6549","ios":"levelo://app?vid=2cb8d4af-041d-4bec-a228-7f59da5d6549"},"vehicle_type_id":"4","last_reported":1714558133,"current_range_meters":0,"station_id":"ce4bhs12rcd13ifvqhvg","pricing_plan_id":"cebpf4jnsgd1na2vs0mg"},{"bike_id":"cb5035c4-9e66-46e5-baea-a68bc4206adf","system_id":"levelo_inurba_marseille","lat":43.324824,"lon":5.365799,"is_reserved":false,"is_disabled":false,"rental_uris":{"android":"levelo://app?vid=cb5035c4-9e66-46e5-baea-a68bc4206adf","ios":"levelo://app?vid=cb5035c4-9e66-46e5-baea-a68bc4206adf"},"vehicle_type_id":"4","last_reported":1714558133,"current_range_meters":10800,"station_id":"ce4bhs12rcd13ifvqhvg","pricing_plan_id":"cebpf4jnsgd1na2vs0mg"},{"bike_id":"ff14dfe6-78af-413d-a3ea-3b224d7ea33d","system_id":"levelo_inurba_marseille","lat":43.324771,"lon":5.36557,"is_reserved":false,"is_disabled":false,"rental_uris":{"android":"levelo://app?vid=ff14dfe6-78af-413d-a3ea-3b224d7ea33d","ios":"levelo://app?vid=ff14dfe6-78af-413d-a3ea-3b224d7ea33d"},"vehicle_type_id":"4","last_reported":1714558133,"current_range_meters":20400,"station_id":"ce4bhs12rcd13ifvqhvg","pricing_plan_id":"cebpf4jnsgd1na2vs0mg"},{"bike_id":"a220ad8e-30f9-4404-aa2e-6db3aa6afb45","system_id":"levelo_inurba_marseille","lat":43.324771,"lon":5.36557,"is_reserved":false,"is_disabled":false,"rental_uris":{"android":"levelo://app?vid=a220ad8e-30f9-4404-aa2e-6db3aa6afb45","ios":"levelo://app?vid=a220ad8e-30f9-4404-aa2e-6db3aa6afb45"},"vehicle_type_id":"4","last_reported":1714558133,"current_range_meters":6800,"station_id":"ce4bhs12rcd13ifvqhvg","pricing_plan_id":"cebpf4jnsgd1na2vs0mg"},{"bike_id":"18fb7a60-66d6-4c12-ad66-c83a47a61459","system_id":"levelo_inurba_marseille","lat":43.324771,"lon":5.36557,"is_reserved":false,"is_disabled":false,"rental_uris":{"android":"levelo://app?vid=18fb7a60-66d6-4c12-ad66-c83a47a61459","ios":"levelo://app?vid=18fb7a60-66d6-4c12-ad66-c83a47a61459"},"vehicle_type_id":"4","last_reported":1714558133,"current_range_meters":20000,"station_id":"ce4bhs12rcd13ifvqhvg","pricing_plan_id":"cebpf4jnsgd1na2vs0mg"},{"bike_id":"d689d75b-2503-4c26-a0fd-e4e182d9b314","system_id":"levelo_inurba_marseille","lat":43.32489,"lon":5.3656,"is_reserved":false,"is_disabled":false,"rental_uris":{"android":"levelo://app?vid=d689d75b-2503-4c26-a0fd-e4e182d9b314","ios":"levelo://app?vid=d689d75b-2503-4c26-a0fd-e4e182d9b314"},"vehicle_type_id":"4","last_reported":1714558133,"current_range_meters":10000,"station_id":"ce4bhs12rcd13ifvqhvg","pricing_plan_id":"cebpf4jnsgd1na2vs0mg"},{"bike_id":"f008f77f-4fa9-4fb9-b447-a83c703f3529","system_id":"levelo_inurba_marseille","lat":43.310703,"lon":5.383473,"is_reserved":false,"is_disabled":false,"rental_uris":{"android":"levelo://app?vid=f008f77f-4fa9-4fb9-b447-a83c703f3529","ios":"levelo://app?vid=f008f77f-4fa9-4fb9-b447-a83c703f3529"},"vehicle_type_id":"4","last_reported":1714558133,"current_range_meters":30000,"station_id":"ce4bgv92rcd13ifvqcr0","pricing_plan_id":"cebpf4jnsgd1na2vs0mg"},{"bike_id":"e3bb15a4-ddc0-46aa-a283-1aba4953c1ec","system_id":"levelo_inurba_marseille","lat":43.310804,"lon":5.38359,"is_reserved":false,"is_disabled":false,"rental_uris":{"android":"levelo://app?vid=e3bb15a4-ddc0-46aa-a283-1aba4953c1ec","ios":"levelo://app?vid=e3bb15a4-ddc0-46aa-a283-1aba4953c1ec"},"vehicle_type_id":"4","last_reported":1714558133,"current_range_meters":21600,"station_id":"ce4bgv92rcd13ifvqcr0","pricing_plan_id":"cebpf4jnsgd1na2vs0mg"},{"bike_id":"87f26f40-8d6b-4134-b783-5bdc7e77e177","system_id":"levelo_inurba_marseille","lat":43.310804,"lon":5.38359,"is_reserved":false,"is_disabled":false,"rental_uris":{"android":"levelo://app?vid=87f26f40-8d6b-4134-b783-5bdc7e77e177","ios":"levelo://app?vid=87f26f40-8d6b-4134-b783-5bdc7e77e177"},"vehicle_type_id":"4","last_reported":1714558133,"current_range_meters":22800,"station_id":"ce4bgv92rcd13ifvqcr0","pricing_plan_id":"cebpf4jnsgd1na2vs0mg"},{"bike_id":"0febf80b-d62f-4784-a823-b2d579292f3e","system_id":"levelo_inurba_marseille","lat":43.302784,"lon":5.377158,"is_reserved":false,"is_disabled":false,"rental_uris":{"android":"levelo://app?vid=0febf80b-d62f-4784-a823-b2d579292f3e","ios":"levelo://app?vid=0febf80b-d62f-4784-a823-b2d579292f3e"},"vehicle_type_id":"4","last_reported":1714558133,"current_range_meters":26000,"station_id":"ce4bguh2rcd13ifvqcj0","pricing_plan_id":"cebpf4jnsgd1na2vs0mg"},{"bike_id":"314ff1cc-f494-4905-bb66-fca0d47b8dab","system_id":"levelo_inurba_marseille","lat":43.302784,"lon":5.377158,"is_reserved":false,"is_disabled":false,"rental_uris":{"android":"levelo://app?vid=314ff1cc-f494-4905-bb66-fca0d47b8dab","ios":"levelo://app?vid=314ff1cc-f494-4905-bb66-fca0d47b8dab"},"vehicle_type_id":"4","last_reported":1714558133,"current_range_meters":17600,"station_id":"ce4bguh2rcd13ifvqcj0","pricing_plan_id":"cebpf4jnsgd1na2vs0mg"},{"bike_id":"321f9d28-ee7f-4afa-a28c-be53e03f8d73","system_id":"levelo_inurba_marseille","lat":43.310781,"lon":5.383564,"is_reserved":false,"is_disabled":false,"rental_uris":{"android":"levelo://app?vid=321f9d28-ee7f-4afa-a28c-be53e03f8d73","ios":"levelo://app?vid=321f9d28-ee7f-4afa-a28c-be53e03f8d73"},"vehicle_type_id":"4","last_reported":1714558133,"current_range_meters":0,"station_id":"ce4bgv92rcd13ifvqcr0","pricing_plan_id":"cebpf4jnsgd1na2vs0mg"},{"bike_id":"307b2ff8-9ad6-4128-8a2f-ba86690d45f8","system_id":"levelo_inurba_marseille","lat":43.310804,"lon":5.38359,"is_reserved":false,"is_disabled":false,"rental_uris":{"android":"levelo://app?vid=307b2ff8-9ad6-4128-8a2f-ba86690d45f8","ios":"levelo://app?vid=307b2ff8-9ad6-4128-8a2f-ba86690d45f8"},"vehicle_type_id":"4","last_reported":1714558133,"current_range_meters":6000,"station_id":"ce4bgv92rcd13ifvqcr0","pricing_plan_id":"cebpf4jnsgd1na2vs0mg"},{"bike_id":"ec689b88-b81d-4df6-bdea-7281fbffbe25","system_id":"levelo_inurba_marseille","lat":43.302784,"lon":5.377158,"is_reserved":false,"is_disabled":false,"rental_uris":{"android":"levelo://app?vid=ec689b88-b81d-4df6-bdea-7281fbffbe25","ios":"levelo://app?vid=ec689b88-b81d-4df6-bdea-7281fbffbe25"},"vehicle_type_id":"4","last_reported":1714558133,"current_range_meters":20400,"station_id":"ce4bguh2rcd13ifvqcj0","pricing_plan_id":"cebpf4jnsgd1na2vs0mg"},{"bike_id":"5830afc9-62db-42a8-bcc7-25f3b36af8e5","system_id":"levelo_inurba_marseille","lat":43.30281,"lon":5.3769,"is_reserved":false,"is_disabled":false,"rental_uris":{"android":"levelo://app?vid=5830afc9-62db-42a8-bcc7-25f3b36af8e5","ios":"levelo://app?vid=5830afc9-62db-42a8-bcc7-25f3b36af8e5"},"vehicle_type_id":"4","last_reported":1714558133,"current_range_meters":27200,"station_id":"ce4bguh2rcd13ifvqcj0","pricing_plan_id":"cebpf4jnsgd1na2vs0mg"},{"bike_id":"a5f42cdb-9ce0-4dd2-8978-a3979737e5b0","system_id":"levelo_inurba_marseille","lat":43.302784,"lon":5.377158,"is_reserved":false,"is_disabled":false,"rental_uris":{"android":"levelo://app?vid=a5f42cdb-9ce0-4dd2-8978-a3979737e5b0","ios":"levelo://app?vid=a5f42cdb-9ce0-4dd2-8978-a3979737e5b0"},"vehicle_type_id":"4","last_reported":1714558133,"current_range_meters":3600,"station_id":"ce4bguh2rcd13ifvqcj0","pricing_plan_id":"cebpf4jnsgd1na2vs0mg"},{"bike_id":"2750f35a-5ecf-4180-8a3a-bc1a5574ffd9","system_id":"levelo_inurba_marseille","lat":43.310695,"lon":5.383634,"is_reserved":false,"is_disabled":false,"rental_uris":{"android":"levelo://app?vid=2750f35a-5ecf-4180-8a3a-bc1a5574ffd9","ios":"levelo://app?vid=2750f35a-5ecf-4180-8a3a-bc1a5574ffd9"},"vehicle_type_id":"4","last_reported":1714558133,"current_range_meters":22400,"station_id":"ce4bgv92rcd13ifvqcr0","pricing_plan_id":"cebpf4jnsgd1na2vs0mg"},{"bike_id":"ef11b0f3-d54b-4c01-8da3-94146d9da72b","system_id":"levelo_inurba_marseille","lat":43.30282,"lon":5.37699,"is_reserved":false,"is_disabled":false,"rental_uris":{"android":"levelo://app?vid=ef11b0f3-d54b-4c01-8da3-94146d9da72b","ios":"levelo://app?vid=ef11b0f3-d54b-4c01-8da3-94146d9da72b"},"vehicle_type_id":"4","last_reported":1714558133,"current_range_meters":23200,"station_id":"ce4bguh2rcd13ifvqcj0","pricing_plan_id":"cebpf4jnsgd1na2vs0mg"},{"bike_id":"db0e3283-2d40-44e3-922d-dbf109de58d4","system_id":"levelo_inurba_marseille","lat":43.302784,"lon":5.377158,"is_reserved":false,"is_disabled":false,"rental_uris":{"android":"levelo://app?vid=db0e3283-2d40-44e3-922d-dbf109de58d4","ios":"levelo://app?vid=db0e3283-2d40-44e3-922d-dbf109de58d4"},"vehicle_type_id":"4","last_reported":1714558133,"current_range_meters":32000,"station_id":"ce4bguh2rcd13ifvqcj0","pricing_plan_id":"cebpf4jnsgd1na2vs0mg"},{"bike_id":"cfc0f6b7-5818-466e-b21c-ff0227fc3710","system_id":"levelo_inurba_marseille","lat":43.302784,"lon":5.377158,"is_reserved":false,"is_disabled":false,"rental_uris":{"android":"levelo://app?vid=cfc0f6b7-5818-466e-b21c-ff0227fc3710","ios":"levelo://app?vid=cfc0f6b7-5818-466e-b21c-ff0227fc3710"},"vehicle_type_id":"4","last_reported":1714558133,"current_range_meters":27600,"station_id":"ce4bguh2rcd13ifvqcj0","pricing_plan_id":"cebpf4jnsgd1na2vs0mg"},{"bike_id":"9f2ef3ae-73a9-4607-96d9-01c69b64af4e","system_id":"levelo_inurba_marseille","lat":43.302784,"lon":5.377158,"is_reserved":false,"is_disabled":false,"rental_uris":{"android":"levelo://app?vid=9f2ef3ae-73a9-4607-96d9-01c69b64af4e","ios":"levelo://app?vid=9f2ef3ae-73a9-4607-96d9-01c69b64af4e"},"vehicle_type_id":"4","last_reported":1714558133,"current_range_meters":31600,"station_id":"ce4bguh2rcd13ifvqcj0","pricing_plan_id":"cebpf4jnsgd1na2vs0mg"},{"bike_id":"d110246c-cc5d-40ad-b9f6-c02c209775b5","system_id":"levelo_inurba_marseille","lat":43.302784,"lon":5.377158,"is_reserved":false,"is_disabled":false,"rental_uris":{"android":"levelo://app?vid=d110246c-cc5d-40ad-b9f6-c02c209775b5","ios":"levelo://app?vid=d110246c-cc5d-40ad-b9f6-c02c209775b5"},"vehicle_type_id":"4","last_reported":1714558133,"current_range_meters":26400,"station_id":"ce4bguh2rcd13ifvqcj0","pricing_plan_id":"cebpf4jnsgd1na2vs0mg"},{"bike_id":"5c14b3bb-2dd0-4efc-bc82-917399bfd525","system_id":"levelo_inurba_marseille","lat":43.302784,"lon":5.377158,"is_reserved":false,"is_disabled":false,"rental_uris":{"android":"levelo://app?vid=5c14b3bb-2dd0-4efc-bc82-917399bfd525","ios":"levelo://app?vid=5c14b3bb-2dd0-4efc-bc82-917399bfd525"},"vehicle_type_id":"4","last_reported":1714558133,"current_range_meters":28800,"station_id":"ce4bguh2rcd13ifvqcj0","pricing_plan_id":"cebpf4jnsgd1na2vs0mg"},{"bike_id":"a4b24a55-8a5b-4162-98ce-65c88b853c96","system_id":"levelo_inurba_marseille","lat":43.302784,"lon":5.377158,"is_reserved":false,"is_disabled":false,"rental_uris":{"android":"levelo://app?vid=a4b24a55-8a5b-4162-98ce-65c88b853c96","ios":"levelo://app?vid=a4b24a55-8a5b-4162-98ce-65c88b853c96"},"vehicle_type_id":"4","last_reported":1714558133,"current_range_meters":25600,"station_id":"ce4bguh2rcd13ifvqcj0","pricing_plan_id":"cebpf4jnsgd1na2vs0mg"},{"bike_id":"4eabf273-d6ab-4f69-aa17-5ce3078e9cfa","system_id":"levelo_inurba_marseille","lat":43.31988,"lon":5.38143,"is_reserved":false,"is_disabled":false,"rental_uris":{"android":"levelo://app?vid=4eabf273-d6ab-4f69-aa17-5ce3078e9cfa","ios":"levelo://app?vid=4eabf273-d6ab-4f69-aa17-5ce3078e9cfa"},"vehicle_type_id":"4","last_reported":1714558133,"current_range_meters":10000,"station_id":"ce4bhr12rcd13ifvqhpg","pricing_plan_id":"cebpf4jnsgd1na2vs0mg"},{"bike_id":"4b678404-bcb7-469e-8217-1687e76be9e0","system_id":"levelo_inurba_marseille","lat":43.31986,"lon":5.38148,"is_reserved":false,"is_disabled":false,"rental_uris":{"android":"levelo://app?vid=4b678404-bcb7-469e-8217-1687e76be9e0","ios":"levelo://app?vid=4b678404-bcb7-469e-8217-1687e76be9e0"},"vehicle_type_id":"4","last_reported":1714558133,"current_range_meters":20800,"station_id":"ce4bhr12rcd13ifvqhpg","pricing_plan_id":"cebpf4jnsgd1na2vs0mg"},{"bike_id":"bf7237d8-45ec-4e41-a5f9-2e40df36b0a3","system_id":"levelo_inurba_marseille","lat":43.31989,"lon":5.381499,"is_reserved":false,"is_disabled":false,"rental_uris":{"android":"levelo://app?vid=bf7237d8-45ec-4e41-a5f9-2e40df36b0a3","ios":"levelo://app?vid=bf7237d8-45ec-4e41-a5f9-2e40df36b0a3"},"vehicle_type_id":"4","last_reported":1714558133,"current_range_meters":6000,"station_id":"ce4bhr12rcd13ifvqhpg","pricing_plan_id":"cebpf4jnsgd1na2vs0mg"},{"bike_id":"30fc64c2-1c03-47dd-93a0-e492b5570672","system_id":"levelo_inurba_marseille","lat":43.301429,"lon":5.37413,"is_reserved":false,"is_disabled":false,"rental_uris":{"android":"levelo://app?vid=30fc64c2-1c03-47dd-93a0-e492b5570672","ios":"levelo://app?vid=30fc64c2-1c03-47dd-93a0-e492b5570672"},"vehicle_type_id":"4","last_reported":1714558133,"current_range_meters":17600,"station_id":"ce4bgs92rcd13ifvqcc0","pricing_plan_id":"cebpf4jnsgd1na2vs0mg"},{"bike_id":"952baf88-6145-4f3f-b32f-66ddd2b06b56","system_id":"levelo_inurba_marseille","lat":43.31996,"lon":5.38153,"is_reserved":false,"is_disabled":false,"rental_uris":{"android":"levelo://app?vid=952baf88-6145-4f3f-b32f-66ddd2b06b56","ios":"levelo://app?vid=952baf88-6145-4f3f-b32f-66ddd2b06b56"},"vehicle_type_id":"4","last_reported":1714558133,"current_range_meters":3600,"station_id":"ce4bhr12rcd13ifvqhpg","pricing_plan_id":"cebpf4jnsgd1na2vs0mg"},{"bike_id":"8232d9fb-7b9b-4412-98f1-dbe9d563af7c","system_id":"levelo_inurba_marseille","lat":43.31992,"lon":5.38168,"is_reserved":false,"is_disabled":false,"rental_uris":{"android":"levelo://app?vid=8232d9fb-7b9b-4412-98f1-dbe9d563af7c","ios":"levelo://app?vid=8232d9fb-7b9b-4412-98f1-dbe9d563af7c"},"vehicle_type_id":"4","last_reported":1714558133,"current_range_meters":15600,"station_id":"ce4bhr12rcd13ifvqhpg","pricing_plan_id":"cebpf4jnsgd1na2vs0mg"},{"bike_id":"5aa3d2ee-08a0-44ff-89f0-eed5197b75e8","system_id":"levelo_inurba_marseille","lat":43.313571,"lon":5.384829,"is_reserved":false,"is_disabled":false,"rental_uris":{"android":"levelo://app?vid=5aa3d2ee-08a0-44ff-89f0-eed5197b75e8","ios":"levelo://app?vid=5aa3d2ee-08a0-44ff-89f0-eed5197b75e8"},"vehicle_type_id":"4","last_reported":1714558133,"current_range_meters":5200,"station_id":"ce4bgt92rcd13ifvqcf0","pricing_plan_id":"cebpf4jnsgd1na2vs0mg"},{"bike_id":"6aca689b-3950-4087-aa4c-fde2c9d2a024","system_id":"levelo_inurba_marseille","lat":43.299222,"lon":5.365554,"is_reserved":false,"is_disabled":false,"rental_uris":{"android":"levelo://app?vid=6aca689b-3950-4087-aa4c-fde2c9d2a024","ios":"levelo://app?vid=6aca689b-3950-4087-aa4c-fde2c9d2a024"},"vehicle_type_id":"4","last_reported":1714558133,"current_range_meters":20000,"station_id":"ce4bgm92rcd13ifvqbr0","pricing_plan_id":"cebpf4jnsgd1na2vs0mg"},{"bike_id":"5fa8005a-ceea-458d-99ad-c677a9ff06ae","system_id":"levelo_inurba_marseille","lat":43.299222,"lon":5.365554,"is_reserved":false,"is_disabled":false,"rental_uris":{"android":"levelo://app?vid=5fa8005a-ceea-458d-99ad-c677a9ff06ae","ios":"levelo://app?vid=5fa8005a-ceea-458d-99ad-c677a9ff06ae"},"vehicle_type_id":"4","last_reported":1714558133,"current_range_meters":27600,"station_id":"ce4bgm92rcd13ifvqbr0","pricing_plan_id":"cebpf4jnsgd1na2vs0mg"},{"bike_id":"f96390ca-fa27-492a-a489-3161bcd8c4bb","system_id":"levelo_inurba_marseille","lat":43.299222,"lon":5.365554,"is_reserved":false,"is_disabled":false,"rental_uris":{"android":"levelo://app?vid=f96390ca-fa27-492a-a489-3161bcd8c4bb","ios":"levelo://app?vid=f96390ca-fa27-492a-a489-3161bcd8c4bb"},"vehicle_type_id":"4","last_reported":1714558133,"current_range_meters":18000,"station_id":"ce4bgm92rcd13ifvqbr0","pricing_plan_id":"cebpf4jnsgd1na2vs0mg"},{"bike_id":"245f2010-6750-453f-ac7c-27a2b565b4e3","system_id":"levelo_inurba_marseille","lat":43.299222,"lon":5.365554,"is_reserved":false,"is_disabled":false,"rental_uris":{"android":"levelo://app?vid=245f2010-6750-453f-ac7c-27a2b565b4e3","ios":"levelo://app?vid=245f2010-6750-453f-ac7c-27a2b565b4e3"},"vehicle_type_id":"4","last_reported":1714558133,"current_range_meters":12800,"station_id":"ce4bgm92rcd13ifvqbr0","pricing_plan_id":"cebpf4jnsgd1na2vs0mg"},{"bike_id":"a2a3894f-eec3-4aaa-89bf-ed6a9faff0c1","system_id":"levelo_inurba_marseille","lat":43.299222,"lon":5.365554,"is_reserved":false,"is_disabled":false,"rental_uris":{"android":"levelo://app?vid=a2a3894f-eec3-4aaa-89bf-ed6a9faff0c1","ios":"levelo://app?vid=a2a3894f-eec3-4aaa-89bf-ed6a9faff0c1"},"vehicle_type_id":"4","last_reported":1714558133,"current_range_meters":14800,"station_id":"ce4bgm92rcd13ifvqbr0","pricing_plan_id":"cebpf4jnsgd1na2vs0mg"},{"bike_id":"eb33a0cd-46c5-49d4-bf2a-52328d9be6a9","system_id":"levelo_inurba_marseille","lat":43.299222,"lon":5.365554,"is_reserved":false,"is_disabled":false,"rental_uris":{"android":"levelo://app?vid=eb33a0cd-46c5-49d4-bf2a-52328d9be6a9","ios":"levelo://app?vid=eb33a0cd-46c5-49d4-bf2a-52328d9be6a9"},"vehicle_type_id":"4","last_reported":1714558133,"current_range_meters":19600,"station_id":"ce4bgm92rcd13ifvqbr0","pricing_plan_id":"cebpf4jnsgd1na2vs0mg"},{"bike_id":"85e126f4-6338-44d1-bdf3-56796b44a517","system_id":"levelo_inurba_marseille","lat":43.299222,"lon":5.365554,"is_reserved":false,"is_disabled":false,"rental_uris":{"android":"levelo://app?vid=85e126f4-6338-44d1-bdf3-56796b44a517","ios":"levelo://app?vid=85e126f4-6338-44d1-bdf3-56796b44a517"},"vehicle_type_id":"4","last_reported":1714558133,"current_range_meters":17600,"station_id":"ce4bgm92rcd13ifvqbr0","pricing_plan_id":"cebpf4jnsgd1na2vs0mg"},{"bike_id":"fdf8ab90-c33e-436f-84e7-1eff77bd1ce7","system_id":"levelo_inurba_marseille","lat":43.299222,"lon":5.365554,"is_reserved":false,"is_disabled":false,"rental_uris":{"android":"levelo://app?vid=fdf8ab90-c33e-436f-84e7-1eff77bd1ce7","ios":"levelo://app?vid=fdf8ab90-c33e-436f-84e7-1eff77bd1ce7"},"vehicle_type_id":"4","last_reported":1714558133,"current_range_meters":14800,"station_id":"ce4bgm92rcd13ifvqbr0","pricing_plan_id":"cebpf4jnsgd1na2vs0mg"},{"bike_id":"6e125a9a-67da-4d2a-a483-2937ecdd964d","system_id":"levelo_inurba_marseille","lat":43.298433,"lon":5.362774,"is_reserved":false,"is_disabled":false,"rental_uris":{"android":"levelo://app?vid=6e125a9a-67da-4d2a-a483-2937ecdd964d","ios":"levelo://app?vid=6e125a9a-67da-4d2a-a483-2937ecdd964d"},"vehicle_type_id":"4","last_reported":1714558133,"current_range_meters":28800,"station_id":"ce4bgpp2rcd13ifvqc3g","pricing_plan_id":"cebpf4jnsgd1na2vs0mg"},{"bike_id":"e8541831-866d-4e02-aa69-dd14a4debf51","system_id":"levelo_inurba_marseille","lat":43.298433,"lon":5.362774,"is_reserved":false,"is_disabled":false,"rental_uris":{"android":"levelo://app?vid=e8541831-866d-4e02-aa69-dd14a4debf51","ios":"levelo://app?vid=e8541831-866d-4e02-aa69-dd14a4debf51"},"vehicle_type_id":"4","last_reported":1714558133,"current_range_meters":25600,"station_id":"ce4bgpp2rcd13ifvqc3g","pricing_plan_id":"cebpf4jnsgd1na2vs0mg"},{"bike_id":"6edb7bb5-6df4-4ee4-95b3-5ba1918086f9","system_id":"levelo_inurba_marseille","lat":43.298433,"lon":5.362774,"is_reserved":false,"is_disabled":false,"rental_uris":{"android":"levelo://app?vid=6edb7bb5-6df4-4ee4-95b3-5ba1918086f9","ios":"levelo://app?vid=6edb7bb5-6df4-4ee4-95b3-5ba1918086f9"},"vehicle_type_id":"4","last_reported":1714558133,"current_range_meters":30000,"station_id":"ce4bgpp2rcd13ifvqc3g","pricing_plan_id":"cebpf4jnsgd1na2vs0mg"},{"bike_id":"52558427-eadd-4d64-9ea5-72e77b81fa4d","system_id":"levelo_inurba_marseille","lat":43.30545,"lon":5.38427,"is_reserved":false,"is_disabled":false,"rental_uris":{"android":"levelo://app?vid=52558427-eadd-4d64-9ea5-72e77b81fa4d","ios":"levelo://app?vid=52558427-eadd-4d64-9ea5-72e77b81fa4d"},"vehicle_type_id":"4","last_reported":1714558133,"current_range_meters":6400,"station_id":"ce4bgg92rcd13ifvqb30","pricing_plan_id":"cebpf4jnsgd1na2vs0mg"},{"bike_id":"08ca568d-a82c-4079-baa4-82153591fac8","system_id":"levelo_inurba_marseille","lat":43.298433,"lon":5.362774,"is_reserved":false,"is_disabled":false,"rental_uris":{"android":"levelo://app?vid=08ca568d-a82c-4079-baa4-82153591fac8","ios":"levelo://app?vid=08ca568d-a82c-4079-baa4-82153591fac8"},"vehicle_type_id":"4","last_reported":1714558133,"current_range_meters":27600,"station_id":"ce4bgpp2rcd13ifvqc3g","pricing_plan_id":"cebpf4jnsgd1na2vs0mg"},{"bike_id":"bfa42ac1-a1c6-42bf-89d0-2c6853a84894","system_id":"levelo_inurba_marseille","lat":43.305364,"lon":5.384119,"is_reserved":false,"is_disabled":false,"rental_uris":{"android":"levelo://app?vid=bfa42ac1-a1c6-42bf-89d0-2c6853a84894","ios":"levelo://app?vid=bfa42ac1-a1c6-42bf-89d0-2c6853a84894"},"vehicle_type_id":"4","last_reported":1714558133,"current_range_meters":31200,"station_id":"ce4bgg92rcd13ifvqb30","pricing_plan_id":"cebpf4jnsgd1na2vs0mg"},{"bike_id":"b65ead4b-b6af-4c75-931b-4ff5418e8148","system_id":"levelo_inurba_marseille","lat":43.298433,"lon":5.362774,"is_reserved":false,"is_disabled":false,"rental_uris":{"android":"levelo://app?vid=b65ead4b-b6af-4c75-931b-4ff5418e8148","ios":"levelo://app?vid=b65ead4b-b6af-4c75-931b-4ff5418e8148"},"vehicle_type_id":"4","last_reported":1714558133,"current_range_meters":31200,"station_id":"ce4bgpp2rcd13ifvqc3g","pricing_plan_id":"cebpf4jnsgd1na2vs0mg"},{"bike_id":"1e4ba49a-e7cd-4c9e-9904-a5994b970c61","system_id":"levelo_inurba_marseille","lat":43.30533,"lon":5.384224,"is_reserved":false,"is_disabled":false,"rental_uris":{"android":"levelo://app?vid=1e4ba49a-e7cd-4c9e-9904-a5994b970c61","ios":"levelo://app?vid=1e4ba49a-e7cd-4c9e-9904-a5994b970c61"},"vehicle_type_id":"4","last_reported":1714558133,"current_range_meters":31200,"station_id":"ce4bgg92rcd13ifvqb30","pricing_plan_id":"cebpf4jnsgd1na2vs0mg"},{"bike_id":"a7f64e09-9f11-488b-bfaf-738c97dd5098","system_id":"levelo_inurba_marseille","lat":43.298433,"lon":5.362774,"is_reserved":false,"is_disabled":false,"rental_uris":{"android":"levelo://app?vid=a7f64e09-9f11-488b-bfaf-738c97dd5098","ios":"levelo://app?vid=a7f64e09-9f11-488b-bfaf-738c97dd5098"},"vehicle_type_id":"4","last_reported":1714558133,"current_range_meters":31200,"station_id":"ce4bgpp2rcd13ifvqc3g","pricing_plan_id":"cebpf4jnsgd1na2vs0mg"},{"bike_id":"421652c0-2fe3-4ce6-94a4-e67a3404db92","system_id":"levelo_inurba_marseille","lat":43.298433,"lon":5.362774,"is_reserved":false,"is_disabled":false,"rental_uris":{"android":"levelo://app?vid=421652c0-2fe3-4ce6-94a4-e67a3404db92","ios":"levelo://app?vid=421652c0-2fe3-4ce6-94a4-e67a3404db92"},"vehicle_type_id":"4","last_reported":1714558133,"current_range_meters":21600,"station_id":"ce4bgpp2rcd13ifvqc3g","pricing_plan_id":"cebpf4jnsgd1na2vs0mg"},{"bike_id":"2c1b4e8f-fe9f-4fa9-b596-da3b7a2dda8d","system_id":"levelo_inurba_marseille","lat":43.298433,"lon":5.362774,"is_reserved":false,"is_disabled":false,"rental_uris":{"android":"levelo://app?vid=2c1b4e8f-fe9f-4fa9-b596-da3b7a2dda8d","ios":"levelo://app?vid=2c1b4e8f-fe9f-4fa9-b596-da3b7a2dda8d"},"vehicle_type_id":"4","last_reported":1714558133,"current_range_meters":29200,"station_id":"ce4bgpp2rcd13ifvqc3g","pricing_plan_id":"cebpf4jnsgd1na2vs0mg"},{"bike_id":"9a2ee92e-95ba-4017-a23a-addd93ca5c66","system_id":"levelo_inurba_marseille","lat":43.305283,"lon":5.384227,"is_reserved":false,"is_disabled":false,"rental_uris":{"android":"levelo://app?vid=9a2ee92e-95ba-4017-a23a-addd93ca5c66","ios":"levelo://app?vid=9a2ee92e-95ba-4017-a23a-addd93ca5c66"},"vehicle_type_id":"4","last_reported":1714558133,"current_range_meters":30000,"station_id":"ce4bgg92rcd13ifvqb30","pricing_plan_id":"cebpf4jnsgd1na2vs0mg"},{"bike_id":"679a35f3-c3a1-450c-85ce-a9e24d563cce","system_id":"levelo_inurba_marseille","lat":43.305293,"lon":5.384257,"is_reserved":false,"is_disabled":false,"rental_uris":{"android":"levelo://app?vid=679a35f3-c3a1-450c-85ce-a9e24d563cce","ios":"levelo://app?vid=679a35f3-c3a1-450c-85ce-a9e24d563cce"},"vehicle_type_id":"4","last_reported":1714558133,"current_range_meters":27200,"station_id":"ce4bgg92rcd13ifvqb30","pricing_plan_id":"cebpf4jnsgd1na2vs0mg"},{"bike_id":"ab3234e2-c9e9-4f6c-b33f-be79c27f96ba","system_id":"levelo_inurba_marseille","lat":43.298433,"lon":5.362774,"is_reserved":false,"is_disabled":false,"rental_uris":{"android":"levelo://app?vid=ab3234e2-c9e9-4f6c-b33f-be79c27f96ba","ios":"levelo://app?vid=ab3234e2-c9e9-4f6c-b33f-be79c27f96ba"},"vehicle_type_id":"4","last_reported":1714558133,"current_range_meters":32000,"station_id":"ce4bgpp2rcd13ifvqc3g","pricing_plan_id":"cebpf4jnsgd1na2vs0mg"},{"bike_id":"b60a3b3e-a273-4169-b8b5-b54fb1674386","system_id":"levelo_inurba_marseille","lat":43.298433,"lon":5.362774,"is_reserved":false,"is_disabled":false,"rental_uris":{"android":"levelo://app?vid=b60a3b3e-a273-4169-b8b5-b54fb1674386","ios":"levelo://app?vid=b60a3b3e-a273-4169-b8b5-b54fb1674386"},"vehicle_type_id":"4","last_reported":1714558133,"current_range_meters":27200,"station_id":"ce4bgpp2rcd13ifvqc3g","pricing_plan_id":"cebpf4jnsgd1na2vs0mg"},{"bike_id":"e48223a4-d4ee-424c-a5ed-b03b2ac52ac3","system_id":"levelo_inurba_marseille","lat":43.298433,"lon":5.362774,"is_reserved":false,"is_disabled":false,"rental_uris":{"android":"levelo://app?vid=e48223a4-d4ee-424c-a5ed-b03b2ac52ac3","ios":"levelo://app?vid=e48223a4-d4ee-424c-a5ed-b03b2ac52ac3"},"vehicle_type_id":"4","last_reported":1714558133,"current_range_meters":25600,"station_id":"ce4bgpp2rcd13ifvqc3g","pricing_plan_id":"cebpf4jnsgd1na2vs0mg"},{"bike_id":"f40c9c0a-f3b5-4756-8f58-69d665e23edc","system_id":"levelo_inurba_marseille","lat":43.298433,"lon":5.362774,"is_reserved":false,"is_disabled":false,"rental_uris":{"android":"levelo://app?vid=f40c9c0a-f3b5-4756-8f58-69d665e23edc","ios":"levelo://app?vid=f40c9c0a-f3b5-4756-8f58-69d665e23edc"},"vehicle_type_id":"4","last_reported":1714558133,"current_range_meters":27200,"station_id":"ce4bgpp2rcd13ifvqc3g","pricing_plan_id":"cebpf4jnsgd1na2vs0mg"},{"bike_id":"f0fcc9b4-7827-4a54-874a-546abc319221","system_id":"levelo_inurba_marseille","lat":43.298433,"lon":5.362774,"is_reserved":false,"is_disabled":false,"rental_uris":{"android":"levelo://app?vid=f0fcc9b4-7827-4a54-874a-546abc319221","ios":"levelo://app?vid=f0fcc9b4-7827-4a54-874a-546abc319221"},"vehicle_type_id":"4","last_reported":1714558133,"current_range_meters":26400,"station_id":"ce4bgpp2rcd13ifvqc3g","pricing_plan_id":"cebpf4jnsgd1na2vs0mg"},{"bike_id":"72f4ea23-22a9-4715-9109-ee3d7635ab98","system_id":"levelo_inurba_marseille","lat":43.31176,"lon":5.38708,"is_reserved":false,"is_disabled":false,"rental_uris":{"android":"levelo://app?vid=72f4ea23-22a9-4715-9109-ee3d7635ab98","ios":"levelo://app?vid=72f4ea23-22a9-4715-9109-ee3d7635ab98"},"vehicle_type_id":"4","last_reported":1714558133,"current_range_meters":20400,"station_id":"ce4bgv12rcd13ifvqcp0","pricing_plan_id":"cebpf4jnsgd1na2vs0mg"},{"bike_id":"0a2dd885-c95e-4381-8c98-b74779aa3340","system_id":"levelo_inurba_marseille","lat":43.311819,"lon":5.387144,"is_reserved":false,"is_disabled":false,"rental_uris":{"android":"levelo://app?vid=0a2dd885-c95e-4381-8c98-b74779aa3340","ios":"levelo://app?vid=0a2dd885-c95e-4381-8c98-b74779aa3340"},"vehicle_type_id":"4","last_reported":1714558133,"current_range_meters":4400,"station_id":"ce4bgv12rcd13ifvqcp0","pricing_plan_id":"cebpf4jnsgd1na2vs0mg"},{"bike_id":"eef94e31-a688-4811-a5af-0d0e86bb0163","system_id":"levelo_inurba_marseille","lat":43.299243,"lon":5.374807,"is_reserved":false,"is_disabled":false,"rental_uris":{"android":"levelo://app?vid=eef94e31-a688-4811-a5af-0d0e86bb0163","ios":"levelo://app?vid=eef94e31-a688-4811-a5af-0d0e86bb0163"},"vehicle_type_id":"4","last_reported":1714558133,"current_range_meters":6000,"station_id":"ce4bgjh2rcd13ifvqbg0","pricing_plan_id":"cebpf4jnsgd1na2vs0mg"},{"bike_id":"c2b0e8d6-e6cd-4574-8ce2-c451051590db","system_id":"levelo_inurba_marseille","lat":43.29909,"lon":5.3747,"is_reserved":false,"is_disabled":false,"rental_uris":{"android":"levelo://app?vid=c2b0e8d6-e6cd-4574-8ce2-c451051590db","ios":"levelo://app?vid=c2b0e8d6-e6cd-4574-8ce2-c451051590db"},"vehicle_type_id":"4","last_reported":1714558133,"current_range_meters":28000,"station_id":"ce4bgjh2rcd13ifvqbg0","pricing_plan_id":"cebpf4jnsgd1na2vs0mg"},{"bike_id":"83b7f973-4d76-4cdf-a6ae-b203db4a28a7","system_id":"levelo_inurba_marseille","lat":43.299243,"lon":5.374807,"is_reserved":false,"is_disabled":false,"rental_uris":{"android":"levelo://app?vid=83b7f973-4d76-4cdf-a6ae-b203db4a28a7","ios":"levelo://app?vid=83b7f973-4d76-4cdf-a6ae-b203db4a28a7"},"vehicle_type_id":"4","last_reported":1714558133,"current_range_meters":0,"station_id":"ce4bgjh2rcd13ifvqbg0","pricing_plan_id":"cebpf4jnsgd1na2vs0mg"},{"bike_id":"6bd84c2c-f90c-4713-8bf2-8e0082bddf71","system_id":"levelo_inurba_marseille","lat":43.299082,"lon":5.374784,"is_reserved":false,"is_disabled":false,"rental_uris":{"android":"levelo://app?vid=6bd84c2c-f90c-4713-8bf2-8e0082bddf71","ios":"levelo://app?vid=6bd84c2c-f90c-4713-8bf2-8e0082bddf71"},"vehicle_type_id":"4","last_reported":1714558133,"current_range_meters":14400,"station_id":"ce4bgjh2rcd13ifvqbg0","pricing_plan_id":"cebpf4jnsgd1na2vs0mg"},{"bike_id":"3d4f76da-ca91-4fcf-ac1e-1831fbe9de9b","system_id":"levelo_inurba_marseille","lat":43.299243,"lon":5.37481,"is_reserved":false,"is_disabled":false,"rental_uris":{"android":"levelo://app?vid=3d4f76da-ca91-4fcf-ac1e-1831fbe9de9b","ios":"levelo://app?vid=3d4f76da-ca91-4fcf-ac1e-1831fbe9de9b"},"vehicle_type_id":"4","last_reported":1714558133,"current_range_meters":16800,"station_id":"ce4bgjh2rcd13ifvqbg0","pricing_plan_id":"cebpf4jnsgd1na2vs0mg"},{"bike_id":"9ad71e89-d550-4524-967a-3d538f2d24e2","system_id":"levelo_inurba_marseille","lat":43.29902,"lon":5.37474,"is_reserved":false,"is_disabled":false,"rental_uris":{"android":"levelo://app?vid=9ad71e89-d550-4524-967a-3d538f2d24e2","ios":"levelo://app?vid=9ad71e89-d550-4524-967a-3d538f2d24e2"},"vehicle_type_id":"4","last_reported":1714558133,"current_range_meters":25600,"station_id":"ce4bgjh2rcd13ifvqbg0","pricing_plan_id":"cebpf4jnsgd1na2vs0mg"},{"bike_id":"87afb410-72d5-4fbd-b38b-b15c82153b5f","system_id":"levelo_inurba_marseille","lat":43.322872,"lon":5.382756,"is_reserved":false,"is_disabled":false,"rental_uris":{"android":"levelo://app?vid=87afb410-72d5-4fbd-b38b-b15c82153b5f","ios":"levelo://app?vid=87afb410-72d5-4fbd-b38b-b15c82153b5f"},"vehicle_type_id":"4","last_reported":1714558133,"current_range_meters":0,"station_id":"ce4bhr12rcd13ifvqhqg","pricing_plan_id":"cebpf4jnsgd1na2vs0mg"},{"bike_id":"726e1e87-cba6-41f7-ad2e-489ae4aa3f9f","system_id":"levelo_inurba_marseille","lat":43.322872,"lon":5.382756,"is_reserved":false,"is_disabled":false,"rental_uris":{"android":"levelo://app?vid=726e1e87-cba6-41f7-ad2e-489ae4aa3f9f","ios":"levelo://app?vid=726e1e87-cba6-41f7-ad2e-489ae4aa3f9f"},"vehicle_type_id":"4","last_reported":1714558133,"current_range_meters":31600,"station_id":"ce4bhr12rcd13ifvqhqg","pricing_plan_id":"cebpf4jnsgd1na2vs0mg"},{"bike_id":"6506c128-ea5f-4a9e-8e94-9b1f3fce7950","system_id":"levelo_inurba_marseille","lat":43.322872,"lon":5.382756,"is_reserved":false,"is_disabled":false,"rental_uris":{"android":"levelo://app?vid=6506c128-ea5f-4a9e-8e94-9b1f3fce7950","ios":"levelo://app?vid=6506c128-ea5f-4a9e-8e94-9b1f3fce7950"},"vehicle_type_id":"4","last_reported":1714558133,"current_range_meters":30000,"station_id":"ce4bhr12rcd13ifvqhqg","pricing_plan_id":"cebpf4jnsgd1na2vs0mg"},{"bike_id":"8c9f14fd-0577-4912-88d9-eb0399ee9fa0","system_id":"levelo_inurba_marseille","lat":43.322872,"lon":5.382756,"is_reserved":false,"is_disabled":false,"rental_uris":{"android":"levelo://app?vid=8c9f14fd-0577-4912-88d9-eb0399ee9fa0","ios":"levelo://app?vid=8c9f14fd-0577-4912-88d9-eb0399ee9fa0"},"vehicle_type_id":"4","last_reported":1714558133,"current_range_meters":14000,"station_id":"ce4bhr12rcd13ifvqhqg","pricing_plan_id":"cebpf4jnsgd1na2vs0mg"},{"bike_id":"30228ff0-f9d4-4ec7-8a33-e3a56fb4f3ce","system_id":"levelo_inurba_marseille","lat":43.29689,"lon":5.37297,"is_reserved":false,"is_disabled":false,"rental_uris":{"android":"levelo://app?vid=30228ff0-f9d4-4ec7-8a33-e3a56fb4f3ce","ios":"levelo://app?vid=30228ff0-f9d4-4ec7-8a33-e3a56fb4f3ce"},"vehicle_type_id":"4","last_reported":1714558133,"current_range_meters":26000,"station_id":"ce4bgk12rcd13ifvqbj0","pricing_plan_id":"cebpf4jnsgd1na2vs0mg"},{"bike_id":"e9b936a6-42da-4415-9606-89fcf6dd72b9","system_id":"levelo_inurba_marseille","lat":43.29688,"lon":5.37296,"is_reserved":false,"is_disabled":false,"rental_uris":{"android":"levelo://app?vid=e9b936a6-42da-4415-9606-89fcf6dd72b9","ios":"levelo://app?vid=e9b936a6-42da-4415-9606-89fcf6dd72b9"},"vehicle_type_id":"4","last_reported":1714558133,"current_range_meters":2000,"station_id":"ce4bgk12rcd13ifvqbj0","pricing_plan_id":"cebpf4jnsgd1na2vs0mg"},{"bike_id":"25778f7e-9a87-40d8-acdc-0c4d42aacd5f","system_id":"levelo_inurba_marseille","lat":43.29682,"lon":5.3728,"is_reserved":false,"is_disabled":false,"rental_uris":{"android":"levelo://app?vid=25778f7e-9a87-40d8-acdc-0c4d42aacd5f","ios":"levelo://app?vid=25778f7e-9a87-40d8-acdc-0c4d42aacd5f"},"vehicle_type_id":"4","last_reported":1714558133,"current_range_meters":28400,"station_id":"ce4bgk12rcd13ifvqbj0","pricing_plan_id":"cebpf4jnsgd1na2vs0mg"},{"bike_id":"94c4cebb-7bfa-4445-8b7e-405ff9e5ecf5","system_id":"levelo_inurba_marseille","lat":43.2968,"lon":5.37272,"is_reserved":false,"is_disabled":false,"rental_uris":{"android":"levelo://app?vid=94c4cebb-7bfa-4445-8b7e-405ff9e5ecf5","ios":"levelo://app?vid=94c4cebb-7bfa-4445-8b7e-405ff9e5ecf5"},"vehicle_type_id":"4","last_reported":1714558133,"current_range_meters":6400,"station_id":"ce4bgk12rcd13ifvqbj0","pricing_plan_id":"cebpf4jnsgd1na2vs0mg"},{"bike_id":"fba80c6a-7b9c-4bf9-9237-286affb4869c","system_id":"levelo_inurba_marseille","lat":43.29683,"lon":5.37289,"is_reserved":false,"is_disabled":false,"rental_uris":{"android":"levelo://app?vid=fba80c6a-7b9c-4bf9-9237-286affb4869c","ios":"levelo://app?vid=fba80c6a-7b9c-4bf9-9237-286affb4869c"},"vehicle_type_id":"4","last_reported":1714558133,"current_range_meters":16000,"station_id":"ce4bgk12rcd13ifvqbj0","pricing_plan_id":"cebpf4jnsgd1na2vs0mg"},{"bike_id":"8d83816b-6b5e-4761-bec9-9fd15b0d202f","system_id":"levelo_inurba_marseille","lat":43.2968,"lon":5.37291,"is_reserved":false,"is_disabled":false,"rental_uris":{"android":"levelo://app?vid=8d83816b-6b5e-4761-bec9-9fd15b0d202f","ios":"levelo://app?vid=8d83816b-6b5e-4761-bec9-9fd15b0d202f"},"vehicle_type_id":"4","last_reported":1714558133,"current_range_meters":19200,"station_id":"ce4bgk12rcd13ifvqbj0","pricing_plan_id":"cebpf4jnsgd1na2vs0mg"},{"bike_id":"5806d3aa-c1fe-4708-969d-cc9767cd05e9","system_id":"levelo_inurba_marseille","lat":43.2968,"lon":5.37291,"is_reserved":false,"is_disabled":false,"rental_uris":{"android":"levelo://app?vid=5806d3aa-c1fe-4708-969d-cc9767cd05e9","ios":"levelo://app?vid=5806d3aa-c1fe-4708-969d-cc9767cd05e9"},"vehicle_type_id":"4","last_reported":1714558133,"current_range_meters":20400,"station_id":"ce4bgk12rcd13ifvqbj0","pricing_plan_id":"cebpf4jnsgd1na2vs0mg"},{"bike_id":"e1bb68d1-2aa2-4585-b037-10ced0bab58b","system_id":"levelo_inurba_marseille","lat":43.2968,"lon":5.37291,"is_reserved":false,"is_disabled":false,"rental_uris":{"android":"levelo://app?vid=e1bb68d1-2aa2-4585-b037-10ced0bab58b","ios":"levelo://app?vid=e1bb68d1-2aa2-4585-b037-10ced0bab58b"},"vehicle_type_id":"4","last_reported":1714558133,"current_range_meters":25600,"station_id":"ce4bgk12rcd13ifvqbj0","pricing_plan_id":"cebpf4jnsgd1na2vs0mg"},{"bike_id":"74a8afc4-fd4d-41dc-8d05-d77beae30d6c","system_id":"levelo_inurba_marseille","lat":43.29632,"lon":5.371668,"is_reserved":false,"is_disabled":false,"rental_uris":{"android":"levelo://app?vid=74a8afc4-fd4d-41dc-8d05-d77beae30d6c","ios":"levelo://app?vid=74a8afc4-fd4d-41dc-8d05-d77beae30d6c"},"vehicle_type_id":"4","last_reported":1714558133,"current_range_meters":28800,"station_id":"ce4bgnh2rcd13ifvqc0g","pricing_plan_id":"cebpf4jnsgd1na2vs0mg"},{"bike_id":"7e0bf430-6f9d-4f26-8442-32c8f269d4bc","system_id":"levelo_inurba_marseille","lat":43.296131,"lon":5.370791,"is_reserved":false,"is_disabled":false,"rental_uris":{"android":"levelo://app?vid=7e0bf430-6f9d-4f26-8442-32c8f269d4bc","ios":"levelo://app?vid=7e0bf430-6f9d-4f26-8442-32c8f269d4bc"},"vehicle_type_id":"4","last_reported":1714558133,"current_range_meters":24400,"station_id":"ce4bgnh2rcd13ifvqc0g","pricing_plan_id":"cebpf4jnsgd1na2vs0mg"},{"bike_id":"b33b06d8-4730-490a-a43b-e030b66a5667","system_id":"levelo_inurba_marseille","lat":43.296131,"lon":5.370791,"is_reserved":false,"is_disabled":false,"rental_uris":{"android":"levelo://app?vid=b33b06d8-4730-490a-a43b-e030b66a5667","ios":"levelo://app?vid=b33b06d8-4730-490a-a43b-e030b66a5667"},"vehicle_type_id":"4","last_reported":1714558133,"current_range_meters":7200,"station_id":"ce4bgnh2rcd13ifvqc0g","pricing_plan_id":"cebpf4jnsgd1na2vs0mg"},{"bike_id":"dc939476-1c11-4b54-b526-939710096313","system_id":"levelo_inurba_marseille","lat":43.296129,"lon":5.370777,"is_reserved":false,"is_disabled":false,"rental_uris":{"android":"levelo://app?vid=dc939476-1c11-4b54-b526-939710096313","ios":"levelo://app?vid=dc939476-1c11-4b54-b526-939710096313"},"vehicle_type_id":"4","last_reported":1714558133,"current_range_meters":20000,"station_id":"ce4bgnh2rcd13ifvqc0g","pricing_plan_id":"cebpf4jnsgd1na2vs0mg"},{"bike_id":"a5abed13-935f-48c9-bb6a-c81328076f3c","system_id":"levelo_inurba_marseille","lat":43.296129,"lon":5.370777,"is_reserved":false,"is_disabled":false,"rental_uris":{"android":"levelo://app?vid=a5abed13-935f-48c9-bb6a-c81328076f3c","ios":"levelo://app?vid=a5abed13-935f-48c9-bb6a-c81328076f3c"},"vehicle_type_id":"4","last_reported":1714558133,"current_range_meters":31600,"station_id":"ce4bgnh2rcd13ifvqc0g","pricing_plan_id":"cebpf4jnsgd1na2vs0mg"},{"bike_id":"792d240f-f1fe-4898-b371-dc6c87db73b6","system_id":"levelo_inurba_marseille","lat":43.296129,"lon":5.370777,"is_reserved":false,"is_disabled":false,"rental_uris":{"android":"levelo://app?vid=792d240f-f1fe-4898-b371-dc6c87db73b6","ios":"levelo://app?vid=792d240f-f1fe-4898-b371-dc6c87db73b6"},"vehicle_type_id":"4","last_reported":1714558133,"current_range_meters":24400,"station_id":"ce4bgnh2rcd13ifvqc0g","pricing_plan_id":"cebpf4jnsgd1na2vs0mg"},{"bike_id":"e0166b17-b66f-4119-96a7-f83f2390c9d5","system_id":"levelo_inurba_marseille","lat":43.296131,"lon":5.370791,"is_reserved":false,"is_disabled":false,"rental_uris":{"android":"levelo://app?vid=e0166b17-b66f-4119-96a7-f83f2390c9d5","ios":"levelo://app?vid=e0166b17-b66f-4119-96a7-f83f2390c9d5"},"vehicle_type_id":"4","last_reported":1714558133,"current_range_meters":17600,"station_id":"ce4bgnh2rcd13ifvqc0g","pricing_plan_id":"cebpf4jnsgd1na2vs0mg"},{"bike_id":"28748f29-a00c-4c5c-9c95-a2364f60cb2f","system_id":"levelo_inurba_marseille","lat":43.296131,"lon":5.370791,"is_reserved":false,"is_disabled":false,"rental_uris":{"android":"levelo://app?vid=28748f29-a00c-4c5c-9c95-a2364f60cb2f","ios":"levelo://app?vid=28748f29-a00c-4c5c-9c95-a2364f60cb2f"},"vehicle_type_id":"4","last_reported":1714558133,"current_range_meters":32000,"station_id":"ce4bgnh2rcd13ifvqc0g","pricing_plan_id":"cebpf4jnsgd1na2vs0mg"},{"bike_id":"fa50675e-d673-423a-997d-c075901cf0a7","system_id":"levelo_inurba_marseille","lat":43.29573,"lon":5.367355,"is_reserved":false,"is_disabled":false,"rental_uris":{"android":"levelo://app?vid=fa50675e-d673-423a-997d-c075901cf0a7","ios":"levelo://app?vid=fa50675e-d673-423a-997d-c075901cf0a7"},"vehicle_type_id":"4","last_reported":1714558133,"current_range_meters":7600,"station_id":"ce4bgph2rcd13ifvqc2g","pricing_plan_id":"cebpf4jnsgd1na2vs0mg"},{"bike_id":"df4a233d-3e38-4a2d-b2d8-76ffa018cad9","system_id":"levelo_inurba_marseille","lat":43.296131,"lon":5.370791,"is_reserved":false,"is_disabled":false,"rental_uris":{"android":"levelo://app?vid=df4a233d-3e38-4a2d-b2d8-76ffa018cad9","ios":"levelo://app?vid=df4a233d-3e38-4a2d-b2d8-76ffa018cad9"},"vehicle_type_id":"4","last_reported":1714558133,"current_range_meters":24800,"station_id":"ce4bgnh2rcd13ifvqc0g","pricing_plan_id":"cebpf4jnsgd1na2vs0mg"},{"bike_id":"1df47a56-dbfa-4cca-9537-58a355cc3e78","system_id":"levelo_inurba_marseille","lat":43.296225,"lon":5.371723,"is_reserved":false,"is_disabled":false,"rental_uris":{"android":"levelo://app?vid=1df47a56-dbfa-4cca-9537-58a355cc3e78","ios":"levelo://app?vid=1df47a56-dbfa-4cca-9537-58a355cc3e78"},"vehicle_type_id":"4","last_reported":1714558133,"current_range_meters":24400,"station_id":"ce4bgnh2rcd13ifvqc0g","pricing_plan_id":"cebpf4jnsgd1na2vs0mg"},{"bike_id":"c12cedd0-9d1a-48ca-8ed0-677f7aac613a","system_id":"levelo_inurba_marseille","lat":43.29573,"lon":5.367355,"is_reserved":false,"is_disabled":false,"rental_uris":{"android":"levelo://app?vid=c12cedd0-9d1a-48ca-8ed0-677f7aac613a","ios":"levelo://app?vid=c12cedd0-9d1a-48ca-8ed0-677f7aac613a"},"vehicle_type_id":"4","last_reported":1714558133,"current_range_meters":30800,"station_id":"ce4bgph2rcd13ifvqc2g","pricing_plan_id":"cebpf4jnsgd1na2vs0mg"},{"bike_id":"59d55174-a6e2-44ea-8f64-62a99ca116fe","system_id":"levelo_inurba_marseille","lat":43.29573,"lon":5.367355,"is_reserved":false,"is_disabled":false,"rental_uris":{"android":"levelo://app?vid=59d55174-a6e2-44ea-8f64-62a99ca116fe","ios":"levelo://app?vid=59d55174-a6e2-44ea-8f64-62a99ca116fe"},"vehicle_type_id":"4","last_reported":1714558133,"current_range_meters":20000,"station_id":"ce4bgph2rcd13ifvqc2g","pricing_plan_id":"cebpf4jnsgd1na2vs0mg"},{"bike_id":"04fa9cf6-8fce-4dde-94f0-63fb6c6ba5ce","system_id":"levelo_inurba_marseille","lat":43.29622,"lon":5.37173,"is_reserved":false,"is_disabled":false,"rental_uris":{"android":"levelo://app?vid=04fa9cf6-8fce-4dde-94f0-63fb6c6ba5ce","ios":"levelo://app?vid=04fa9cf6-8fce-4dde-94f0-63fb6c6ba5ce"},"vehicle_type_id":"4","last_reported":1714558133,"current_range_meters":28000,"station_id":"ce4bgnh2rcd13ifvqc0g","pricing_plan_id":"cebpf4jnsgd1na2vs0mg"},{"bike_id":"a2e85f06-e1ee-4cf6-a0d0-d4cbbab9e247","system_id":"levelo_inurba_marseille","lat":43.296131,"lon":5.370791,"is_reserved":false,"is_disabled":false,"rental_uris":{"android":"levelo://app?vid=a2e85f06-e1ee-4cf6-a0d0-d4cbbab9e247","ios":"levelo://app?vid=a2e85f06-e1ee-4cf6-a0d0-d4cbbab9e247"},"vehicle_type_id":"4","last_reported":1714558133,"current_range_meters":26800,"station_id":"ce4bgnh2rcd13ifvqc0g","pricing_plan_id":"cebpf4jnsgd1na2vs0mg"},{"bike_id":"9ddbe603-0c8f-4bef-8665-f2333b9928f2","system_id":"levelo_inurba_marseille","lat":43.296131,"lon":5.370773,"is_reserved":false,"is_disabled":false,"rental_uris":{"android":"levelo://app?vid=9ddbe603-0c8f-4bef-8665-f2333b9928f2","ios":"levelo://app?vid=9ddbe603-0c8f-4bef-8665-f2333b9928f2"},"vehicle_type_id":"4","last_reported":1714558133,"current_range_meters":21600,"station_id":"ce4bgnh2rcd13ifvqc0g","pricing_plan_id":"cebpf4jnsgd1na2vs0mg"},{"bike_id":"724be846-6804-4ceb-9bdd-3407ad9eba90","system_id":"levelo_inurba_marseille","lat":43.29619,"lon":5.3717,"is_reserved":false,"is_disabled":false,"rental_uris":{"android":"levelo://app?vid=724be846-6804-4ceb-9bdd-3407ad9eba90","ios":"levelo://app?vid=724be846-6804-4ceb-9bdd-3407ad9eba90"},"vehicle_type_id":"4","last_reported":1714558133,"current_range_meters":17600,"station_id":"ce4bgnh2rcd13ifvqc0g","pricing_plan_id":"cebpf4jnsgd1na2vs0mg"},{"bike_id":"a60d1fc2-2c67-4ff7-bbcd-1933282a08c8","system_id":"levelo_inurba_marseille","lat":43.29617,"lon":5.37169,"is_reserved":false,"is_disabled":false,"rental_uris":{"android":"levelo://app?vid=a60d1fc2-2c67-4ff7-bbcd-1933282a08c8","ios":"levelo://app?vid=a60d1fc2-2c67-4ff7-bbcd-1933282a08c8"},"vehicle_type_id":"4","last_reported":1714558133,"current_range_meters":30800,"station_id":"ce4bgnh2rcd13ifvqc0g","pricing_plan_id":"cebpf4jnsgd1na2vs0mg"},{"bike_id":"0513ea70-3d61-45a3-bd0a-99377da33069","system_id":"levelo_inurba_marseille","lat":43.29573,"lon":5.367355,"is_reserved":false,"is_disabled":false,"rental_uris":{"android":"levelo://app?vid=0513ea70-3d61-45a3-bd0a-99377da33069","ios":"levelo://app?vid=0513ea70-3d61-45a3-bd0a-99377da33069"},"vehicle_type_id":"4","last_reported":1714558133,"current_range_meters":24400,"station_id":"ce4bgph2rcd13ifvqc2g","pricing_plan_id":"cebpf4jnsgd1na2vs0mg"},{"bike_id":"1e964003-e753-419f-93e3-a5878b6f390a","system_id":"levelo_inurba_marseille","lat":43.29573,"lon":5.367355,"is_reserved":false,"is_disabled":false,"rental_uris":{"android":"levelo://app?vid=1e964003-e753-419f-93e3-a5878b6f390a","ios":"levelo://app?vid=1e964003-e753-419f-93e3-a5878b6f390a"},"vehicle_type_id":"4","last_reported":1714558133,"current_range_meters":23600,"station_id":"ce4bgph2rcd13ifvqc2g","pricing_plan_id":"cebpf4jnsgd1na2vs0mg"},{"bike_id":"cec9732f-3710-4723-8058-72b2a98ce21c","system_id":"levelo_inurba_marseille","lat":43.29573,"lon":5.367355,"is_reserved":false,"is_disabled":false,"rental_uris":{"android":"levelo://app?vid=cec9732f-3710-4723-8058-72b2a98ce21c","ios":"levelo://app?vid=cec9732f-3710-4723-8058-72b2a98ce21c"},"vehicle_type_id":"4","last_reported":1714558133,"current_range_meters":25200,"station_id":"ce4bgph2rcd13ifvqc2g","pricing_plan_id":"cebpf4jnsgd1na2vs0mg"},{"bike_id":"f592830d-8661-4cbd-862b-5b41f74379bf","system_id":"levelo_inurba_marseille","lat":43.296131,"lon":5.370791,"is_reserved":false,"is_disabled":false,"rental_uris":{"android":"levelo://app?vid=f592830d-8661-4cbd-862b-5b41f74379bf","ios":"levelo://app?vid=f592830d-8661-4cbd-862b-5b41f74379bf"},"vehicle_type_id":"4","last_reported":1714558133,"current_range_meters":26400,"station_id":"ce4bgnh2rcd13ifvqc0g","pricing_plan_id":"cebpf4jnsgd1na2vs0mg"},{"bike_id":"9ea059f0-baaa-4749-a9de-b203f878263a","system_id":"levelo_inurba_marseille","lat":43.29573,"lon":5.367355,"is_reserved":false,"is_disabled":false,"rental_uris":{"android":"levelo://app?vid=9ea059f0-baaa-4749-a9de-b203f878263a","ios":"levelo://app?vid=9ea059f0-baaa-4749-a9de-b203f878263a"},"vehicle_type_id":"4","last_reported":1714558133,"current_range_meters":32000,"station_id":"ce4bgph2rcd13ifvqc2g","pricing_plan_id":"cebpf4jnsgd1na2vs0mg"},