{"last_updated":1768385642,"ttl":60,"version":"2.2","data":{"bikes":[{"bike_id":"9dd4cee1-6e9f-4b21-8c2a-6186c33cbfd1","system_id":"levelo_inurba_marseille","lat":43.33023,"lon":5.39047,"is_reserved":false,"is_disabled":false,"rental_uris":{"android":"levelo://app?vid=9dd4cee1-6e9f-4b21-8c2a-6186c33cbfd1","ios":"levelo://app?vid=9dd4cee1-6e9f-4b21-8c2a-6186c33cbfd1"},"vehicle_type_id":"4","last_reported":1768385643,"current_range_meters":2800,"station_id":"ce4bhr92rcd13ifvqhrg","pricing_plan_id":"cebpf4jnsgd1na2vs0mg"},{"bike_id":"d482a981-b8e5-47f2-8ac3-59649288ddda","system_id":"levelo_inurba_marseille","lat":43.30153,"lon":5.38094,"is_reserved":false,"is_disabled":false,"rental_uris":{"android":"levelo://app?vid=d482a981-b8e5-47f2-8ac3-59649288ddda","ios":"levelo://app?vid=d482a981-b8e5-47f2-8ac3-59649288ddda"},"vehicle_type_id":"4","last_reported":1768385643,"current_range_meters":2800,"station_id":"ce4bgjp2rcd13ifvqbh0","pricing_plan_id":"cebpf4jnsgd1na2vs0mg"},{"bike_id":"5c513b35-843f-4bf9-bb5d-9f3924c22006","system_id":"levelo_inurba_marseille","lat":43.26926,"lon":5.4026,"is_reserved":false,"is_disabled":false,"rental_uris":{"android":"levelo://app?vid=5c513b35-843f-4bf9-bb5d-9f3924c22006","ios":"levelo://app?vid=5c513b35-843f-4bf9-bb5d-9f3924c22006"},"vehicle_type_id":"4","last_reported":1768385643,"current_range_meters":2800,"station_id":"cjm6bp8fraef2m0cb0m0","pricing_plan_id":"cebpf4jnsgd1na2vs0mg"},{"bike_id":"6688a629-7822-4dde-a1b1-aa24df94d1e6","system_id":"levelo_inurba_marseille","lat":43.31374,"lon":5.36729,"is_reserved":false,"is_disabled":false,"rental_uris":{"android":"levelo://app?vid=6688a629-7822-4dde-a1b1-aa24df94d1e6","ios":"levelo://app?vid=6688a629-7822-4dde-a1b1-aa24df94d1e6"},"vehicle_type_id":"4","last_reported":1768385643,"current_range_meters":2800,"station_id":"ce4bgr92rcd13ifvqc6g","pricing_plan_id":"cebpf4jnsgd1na2vs0mg"},{"bike_id":"afba7550-a7b2-4c5a-8d00-58516147ae0c","system_id":"levelo_inurba_marseille","lat":43.25934,"lon":5.40912,"is_reserved":false,"is_disabled":false,"rental_uris":{"android":"levelo://app?vid=afba7550-a7b2-4c5a-8d00-58516147ae0c","ios":"levelo://app?vid=afba7550-a7b2-4c5a-8d00-58516147ae0c"},"vehicle_type_id":"4","last_reported":1768385643,"current_range_meters":2800,"station_id":"ce4bhm92rcd13ifvqglg","pricing_plan_id":"cebpf4jnsgd1na2vs0mg"},{"bike_id":"4b6df42d-7c5e-4d36-9b59-cebfed8c6050","system_id":"levelo_inurba_marseille","lat":43.30471,"lon":5.37905,"is_reserved":false,"is_disabled":false,"rental_uris":{"android":"levelo://app?vid=4b6df42d-7c5e-4d36-9b59-cebfed8c6050","ios":"levelo://app?vid=4b6df42d-7c5e-4d36-9b59-cebfed8c6050"},"vehicle_type_id":"4","last_reported":1768385643,"current_range_meters":2800,"station_id":"ce4bgup2rcd13ifvqcn0","pricing_plan_id":"cebpf4jnsgd1na2vs0mg"},{"bike_id":"1ebe4e13-b88b-40b1-b34f-a1395b1e2598","system_id":"levelo_inurba_marseille","lat":43.24078,"lon":5.37753,"is_reserved":false,"is_disabled":false,"rental_uris":{"android":"levelo://app?vid=1ebe4e13-b88b-40b1-b34f-a1395b1e2598","ios":"levelo://app?vid=1ebe4e13-b88b-40b1-b34f-a1395b1e2598"},"vehicle_type_id":"4","last_reported":1768385643,"current_range_meters":2800,"station_id":"ce4bhnp2rcd13ifvqgvg","pricing_plan_id":"cebpf4jnsgd1na2vs0mg"},{"bike_id":"9af6439d-78fa-4b0d-a1a0-dc05ff49244a","system_id":"levelo_inurba_marseille","lat":43.23764,"lon":5.36608,"is_reserved":false,"is_disabled":false,"rental_uris":{"android":"levelo://app?vid=9af6439d-78fa-4b0d-a1a0-dc05ff49244a","ios":"levelo://app?vid=9af6439d-78fa-4b0d-a1a0-dc05ff49244a"},"vehicle_type_id":"4","last_reported":1768385643,"current_range_meters":3200,"station_id":"st_d3nk18o9ro0c73en2l3g","pricing_plan_id":"cebpf4jnsgd1na2vs0mg"},{"bike_id":"3baa03b2-5aa1-4ed2-bd5e-eff67c4bcc79","system_id":"levelo_inurba_marseille","lat":43.26059,"lon":5.39402,"is_reserved":false,"is_disabled":false,"rental_uris":{"android":"levelo://app?vid=3baa03b2-5aa1-4ed2-bd5e-eff67c4bcc79","ios":"levelo://app?vid=3baa03b2-5aa1-4ed2-bd5e-eff67c4bcc79"},"vehicle_type_id":"4","last_reported":1768385643,"current_range_meters":3200,"station_id":"ce4bhh92rcd13ifvqfj0","pricing_plan_id":"cebpf4jnsgd1na2vs0mg"},{"bike_id":"b945bd28-a3b4-4961-a0bf-743fe57cc1a5","system_id":"levelo_inurba_marseille","lat":43.29898,"lon":5.43664,"is_reserved":false,"is_disabled":false,"rental_uris":{"android":"levelo://app?vid=b945bd28-a3b4-4961-a0bf-743fe57cc1a5","ios":"levelo://app?vid=b945bd28-a3b4-4961-a0bf-743fe57cc1a5"},"vehicle_type_id":"4","last_reported":1768385643,"current_range_meters":3200,"station_id":"ce4bhpp2rcd13ifvqhfg","pricing_plan_id":"cebpf4jnsgd1na2vs0mg"},{"bike_id":"6f340d65-8a96-4245-a37f-c84a4e9a1d07","system_id":"levelo_inurba_marseille","lat":43.32363,"lon":5.36742,"is_reserved":false,"is_disabled":false,"rental_uris":{"android":"levelo://app?vid=6f340d65-8a96-4245-a37f-c84a4e9a1d07","ios":"levelo://app?vid=6f340d65-8a96-4245-a37f-c84a4e9a1d07"},"vehicle_type_id":"4","last_reported":1768385643,"current_range_meters":3200,"station_id":"ce4bhsh2rcd13ifvqi2g","pricing_plan_id":"cebpf4jnsgd1na2vs0mg"},{"bike_id":"d4442202-0c4c-478c-95fe-11b39fc7b10d","system_id":"levelo_inurba_marseille","lat":43.333605,"lon":5.41038,"is_reserved":false,"is_disabled":false,"rental_uris":{"android":"levelo://app?vid=d4442202-0c4c-478c-95fe-11b39fc7b10d","ios":"levelo://app?vid=d4442202-0c4c-478c-95fe-11b39fc7b10d"},"vehicle_type_id":"4","last_reported":1768385643,"current_range_meters":3200,"station_id":"ce4bhqh2rcd13ifvqhmg","pricing_plan_id":"cebpf4jnsgd1na2vs0mg"},{"bike_id":"aa9bfe41-4888-41bd-b859-aff3182b6684","system_id":"levelo_inurba_marseille","lat":43.29923,"lon":5.3745,"is_reserved":false,"is_disabled":false,"rental_uris":{"android":"levelo://app?vid=aa9bfe41-4888-41bd-b859-aff3182b6684","ios":"levelo://app?vid=aa9bfe41-4888-41bd-b859-aff3182b6684"},"vehicle_type_id":"4","last_reported":1768385643,"current_range_meters":3200,"station_id":"ce4bgjh2rcd13ifvqbg0","pricing_plan_id":"cebpf4jnsgd1na2vs0mg"},{"bike_id":"3655a9f7-901b-4885-8038-e7046951f14d","system_id":"levelo_inurba_marseille","lat":43.29762,"lon":5.42789,"is_reserved":false,"is_disabled":false,"rental_uris":{"android":"levelo://app?vid=3655a9f7-901b-4885-8038-e7046951f14d","ios":"levelo://app?vid=3655a9f7-901b-4885-8038-e7046951f14d"},"vehicle_type_id":"4","last_reported":1768385643,"current_range_meters":3200,"station_id":"st_d3md5207bmas73dh9klg","pricing_plan_id":"cebpf4jnsgd1na2vs0mg"},{"bike_id":"f44e7fc0-57ad-4c5c-87c8-d57ce9d37a8a","system_id":"levelo_inurba_marseille","lat":43.261958,"lon":5.374503,"is_reserved":false,"is_disabled":false,"rental_uris":{"android":"levelo://app?vid=f44e7fc0-57ad-4c5c-87c8-d57ce9d37a8a","ios":"levelo://app?vid=f44e7fc0-57ad-4c5c-87c8-d57ce9d37a8a"},"vehicle_type_id":"4","last_reported":1768385643,"current_range_meters":3200,"station_id":"ce4bhgp2rcd13ifvqfc0","pricing_plan_id":"cebpf4jnsgd1na2vs0mg"},{"bike_id":"4210b5e1-14c0-4350-9f09-b328efe96417","system_id":"levelo_inurba_marseille","lat":43.3017,"lon":5.37114,"is_reserved":false,"is_disabled":false,"rental_uris":{"android":"levelo://app?vid=4210b5e1-14c0-4350-9f09-b328efe96417","ios":"levelo://app?vid=4210b5e1-14c0-4350-9f09-b328efe96417"},"vehicle_type_id":"4","last_reported":1768385643,"current_range_meters":3600,"station_id":"","pricing_plan_id":"cebpf4jnsgd1na2vs0mg"},{"bike_id":"4783282d-9d70-465b-8c85-33adb47c2e9a","system_id":"levelo_inurba_marseille","lat":43.26796,"lon":5.40271,"is_reserved":false,"is_disabled":false,"rental_uris":{"android":"levelo://app?vid=4783282d-9d70-465b-8c85-33adb47c2e9a","ios":"levelo://app?vid=4783282d-9d70-465b-8c85-33adb47c2e9a"},"vehicle_type_id":"4","last_reported":1768385643,"current_range_meters":3600,"station_id":"ce501612rcd8frsf0b60","pricing_plan_id":"cebpf4jnsgd1na2vs0mg"},{"bike_id":"2cfc85ec-9acb-421e-b5ac-8439611acd69","system_id":"levelo_inurba_marseille","lat":43.27498,"lon":5.4246,"is_reserved":false,"is_disabled":false,"rental_uris":{"android":"levelo://app?vid=2cfc85ec-9acb-421e-b5ac-8439611acd69","ios":"levelo://app?vid=2cfc85ec-9acb-421e-b5ac-8439611acd69"},"vehicle_type_id":"4","last_reported":1768385643,"current_range_meters":3600,"station_id":"ce4bhn92rcd13ifvqgrg","pricing_plan_id":"cebpf4jnsgd1na2vs0mg"},{"bike_id":"3db0fcf7-9abc-4be1-b3b7-ce569865437a","system_id":"levelo_inurba_marseille","lat":43.24951,"lon":5.40499,"is_reserved":false,"is_disabled":false,"rental_uris":{"android":"levelo://app?vid=3db0fcf7-9abc-4be1-b3b7-ce569865437a","ios":"levelo://app?vid=3db0fcf7-9abc-4be1-b3b7-ce569865437a"},"vehicle_type_id":"4","last_reported":1768385643,"current_range_meters":3600,"station_id":"st_d2ngiaodas8pm72gd1h0","pricing_plan_id":"cebpf4jnsgd1na2vs0mg"},{"bike_id":"f38b4217-e7ce-4441-9531-2f1d1a856441","system_id":"levelo_inurba_marseille","lat":43.28339,"lon":5.38103,"is_reserved":false,"is_disabled":false,"rental_uris":{"android":"levelo://app?vid=f38b4217-e7ce-4441-9531-2f1d1a856441","ios":"levelo://app?vid=f38b4217-e7ce-4441-9531-2f1d1a856441"},"vehicle_type_id":"4","last_reported":1768385643,"current_range_meters":3600,"station_id":"ce4bh412rcd13ifvqdr0","pricing_plan_id":"cebpf4jnsgd1na2vs0mg"},{"bike_id":"0b0bd9e8-0e91-4cd7-8087-c13549508128","system_id":"levelo_inurba_marseille","lat":43.28533,"lon":5.44096,"is_reserved":false,"is_disabled":false,"rental_uris":{"android":"levelo://app?vid=0b0bd9e8-0e91-4cd7-8087-c13549508128","ios":"levelo://app?vid=0b0bd9e8-0e91-4cd7-8087-c13549508128"},"vehicle_type_id":"4","last_reported":1768385643,"current_range_meters":3600,"station_id":"st_d3j3df2ikq2c7380ej80","pricing_plan_id":"cebpf4jnsgd1na2vs0mg"},{"bike_id":"c8ae3415-c729-4343-878c-40d0371d5214","system_id":"levelo_inurba_marseille","lat":43.30955,"lon":5.39047,"is_reserved":false,"is_disabled":false,"rental_uris":{"android":"levelo://app?vid=c8ae3415-c729-4343-878c-40d0371d5214","ios":"levelo://app?vid=c8ae3415-c729-4343-878c-40d0371d5214"},"vehicle_type_id":"4","last_reported":1768385643,"current_range_meters":3600,"station_id":"ce4bgup2rcd13ifvqco0","pricing_plan_id":"cebpf4jnsgd1na2vs0mg"},{"bike_id":"a234d38b-6e9b-4ba0-8f44-6df9bc0535e3","system_id":"levelo_inurba_marseille","lat":43.25817,"lon":5.39443,"is_reserved":false,"is_disabled":false,"rental_uris":{"android":"levelo://app?vid=a234d38b-6e9b-4ba0-8f44-6df9bc0535e3","ios":"levelo://app?vid=a234d38b-6e9b-4ba0-8f44-6df9bc0535e3"},"vehicle_type_id":"4","last_reported":1768385643,"current_range_meters":3600,"station_id":"ce4bhip2rcd13ifvqft0","pricing_plan_id":"cebpf4jnsgd1na2vs0mg"},{"bike_id":"841440e5-4cf2-4432-a161-4904d9a6bd15","system_id":"levelo_inurba_marseille","lat":43.28521,"lon":5.4412,"is_reserved":false,"is_disabled":false,"rental_uris":{"android":"levelo://app?vid=841440e5-4cf2-4432-a161-4904d9a6bd15","ios":"levelo://app?vid=841440e5-4cf2-4432-a161-4904d9a6bd15"},"vehicle_type_id":"4","last_reported":1768385643,"current_range_meters":3600,"station_id":"st_d3j3df2ikq2c7380ej80","pricing_plan_id":"cebpf4jnsgd1na2vs0mg"},{"bike_id":"4f96e7e9-3c4c-4d3a-a015-8e17396c5d85","system_id":"levelo_inurba_marseille","lat":43.2721,"lon":5.39194,"is_reserved":false,"is_disabled":false,"rental_uris":{"android":"levelo://app?vid=4f96e7e9-3c4c-4d3a-a015-8e17396c5d85","ios":"levelo://app?vid=4f96e7e9-3c4c-4d3a-a015-8e17396c5d85"},"vehicle_type_id":"4","last_reported":1768385643,"current_range_meters":3600,"station_id":"ce4bhhp2rcd13ifvqfm0","pricing_plan_id":"cebpf4jnsgd1na2vs0mg"},{"bike_id":"3502b945-707a-499e-b3af-6caf8e3903bc","system_id":"levelo_inurba_marseille","lat":43.28483,"lon":5.48408,"is_reserved":false,"is_disabled":false,"rental_uris":{"android":"levelo://app?vid=3502b945-707a-499e-b3af-6caf8e3903bc","ios":"levelo://app?vid=3502b945-707a-499e-b3af-6caf8e3903bc"},"vehicle_type_id":"4","last_reported":1768385643,"current_range_meters":3600,"station_id":"","pricing_plan_id":"cebpf4jnsgd1na2vs0mg"},{"bike_id":"77648d21-2eba-4733-a182-ee140dc2d61a","system_id":"levelo_inurba_marseille","lat":43.23187,"lon":5.35562,"is_reserved":false,"is_disabled":false,"rental_uris":{"android":"levelo://app?vid=77648d21-2eba-4733-a182-ee140dc2d61a","ios":"levelo://app?vid=77648d21-2eba-4733-a182-ee140dc2d61a"},"vehicle_type_id":"4","last_reported":1768385643,"current_range_meters":3600,"station_id":"ce4bhu92rcd13ifvqi70","pricing_plan_id":"cebpf4jnsgd1na2vs0mg"},{"bike_id":"a9ceab4f-7363-474c-a0e0-4e83cf033539","system_id":"levelo_inurba_marseille","lat":43.28944,"lon":5.36619,"is_reserved":false,"is_disabled":false,"rental_uris":{"android":"levelo://app?vid=a9ceab4f-7363-474c-a0e0-4e83cf033539","ios":"levelo://app?vid=a9ceab4f-7363-474c-a0e0-4e83cf033539"},"vehicle_type_id":"4","last_reported":1768385643,"current_range_meters":4000,"station_id":"ce4bhap2rcd13ifvqek0","pricing_plan_id":"cebpf4jnsgd1na2vs0mg"},{"bike_id":"754deb6d-b707-4695-aea3-a1b1544cd133","system_id":"levelo_inurba_marseille","lat":43.3159,"lon":5.36628,"is_reserved":false,"is_disabled":false,"rental_uris":{"android":"levelo://app?vid=754deb6d-b707-4695-aea3-a1b1544cd133","ios":"levelo://app?vid=754deb6d-b707-4695-aea3-a1b1544cd133"},"vehicle_type_id":"4","last_reported":1768385643,"current_range_meters":4000,"station_id":"","pricing_plan_id":"cebpf4jnsgd1na2vs0mg"},{"bike_id":"1801c6f9-0c65-4e78-bbf2-c91fed55b8f3","system_id":"levelo_inurba_marseille","lat":43.2621,"lon":5.37446,"is_reserved":false,"is_disabled":false,"rental_uris":{"android":"levelo://app?vid=1801c6f9-0c65-4e78-bbf2-c91fed55b8f3","ios":"levelo://app?vid=1801c6f9-0c65-4e78-bbf2-c91fed55b8f3"},"vehicle_type_id":"4","last_reported":1768385643,"current_range_meters":4000,"station_id":"ce4bhgp2rcd13ifvqfc0","pricing_plan_id":"cebpf4jnsgd1na2vs0mg"},{"bike_id":"3de0a2ff-05e4-444a-a313-a7aa2da25619","system_id":"levelo_inurba_marseille","lat":43.295294,"lon":5.385488,"is_reserved":false,"is_disabled":true,"rental_uris":{"android":"levelo://app?vid=3de0a2ff-05e4-444a-a313-a7aa2da25619","ios":"levelo://app?vid=3de0a2ff-05e4-444a-a313-a7aa2da25619"},"vehicle_type_id":"4","last_reported":1768385643,"current_range_meters":4000,"station_id":"ce4bgih2rcd13ifvqba0","pricing_plan_id":"cebpf4jnsgd1na2vs0mg"},{"bike_id":"ea9769ab-39d8-4325-b701-f75eef547046","system_id":"levelo_inurba_marseille","lat":43.22528,"lon":5.34843,"is_reserved":false,"is_disabled":false,"rental_uris":{"android":"levelo://app?vid=ea9769ab-39d8-4325-b701-f75eef547046","ios":"levelo://app?vid=ea9769ab-39d8-4325-b701-f75eef547046"},"vehicle_type_id":"4","last_reported":1768385643,"current_range_meters":4000,"station_id":"st_cvj5dfep6f1abm77gieg","pricing_plan_id":"cebpf4jnsgd1na2vs0mg"},{"bike_id":"79ee7914-984a-46ef-841f-3312638c995c","system_id":"levelo_inurba_marseille","lat":43.27977,"lon":5.38754,"is_reserved":false,"is_disabled":false,"rental_uris":{"android":"levelo://app?vid=79ee7914-984a-46ef-841f-3312638c995c","ios":"levelo://app?vid=79ee7914-984a-46ef-841f-3312638c995c"},"vehicle_type_id":"4","last_reported":1768385643,"current_range_meters":4000,"station_id":"ce4bhg12rcd13ifvqf80","pricing_plan_id":"cebpf4jnsgd1na2vs0mg"},{"bike_id":"e7e05fd4-e640-492f-ab7c-0006c2b4672f","system_id":"levelo_inurba_marseille","lat":43.331375,"lon":5.377304,"is_reserved":false,"is_disabled":false,"rental_uris":{"android":"levelo://app?vid=e7e05fd4-e640-492f-ab7c-0006c2b4672f","ios":"levelo://app?vid=e7e05fd4-e640-492f-ab7c-0006c2b4672f"},"vehicle_type_id":"4","last_reported":1768385643,"current_range_meters":4000,"station_id":"st_d46cu089ee8s73dldbu0","pricing_plan_id":"cebpf4jnsgd1na2vs0mg"},{"bike_id":"8a7b85d3-c7d2-4196-b1ab-690364287dcf","system_id":"levelo_inurba_marseille","lat":43.31353,"lon":5.36722,"is_reserved":false,"is_disabled":false,"rental_uris":{"android":"levelo://app?vid=8a7b85d3-c7d2-4196-b1ab-690364287dcf","ios":"levelo://app?vid=8a7b85d3-c7d2-4196-b1ab-690364287dcf"},"vehicle_type_id":"4","last_reported":1768385643,"current_range_meters":4000,"station_id":"ce4bgr92rcd13ifvqc6g","pricing_plan_id":"cebpf4jnsgd1na2vs0mg"},{"bike_id":"b41f9551-ae47-4da7-a60d-f3352e00b4ad","system_id":"levelo_inurba_marseille","lat":43.28479,"lon":5.48385,"is_reserved":false,"is_disabled":false,"rental_uris":{"android":"levelo://app?vid=b41f9551-ae47-4da7-a60d-f3352e00b4ad","ios":"levelo://app?vid=b41f9551-ae47-4da7-a60d-f3352e00b4ad"},"vehicle_type_id":"4","last_reported":1768385643,"current_range_meters":4000,"station_id":"st_d3svhcjqgbts73a3dn0g","pricing_plan_id":"cebpf4jnsgd1na2vs0mg"},{"bike_id":"b72126eb-260d-4403-98ca-362357ac659c","system_id":"levelo_inurba_marseille","lat":43.29597,"lon":5.38096,"is_reserved":false,"is_disabled":false,"rental_uris":{"android":"levelo://app?vid=b72126eb-260d-4403-98ca-362357ac659c","ios":"levelo://app?vid=b72126eb-260d-4403-98ca-362357ac659c"},"vehicle_type_id":"4","last_reported":1768385643,"current_range_meters":4000,"station_id":"ce4bgl12rcd13ifvqbo0","pricing_plan_id":"cebpf4jnsgd1na2vs0mg"},{"bike_id":"7af13e9c-1761-41d0-87e5-35c03d8aedd1","system_id":"levelo_inurba_marseille","lat":43.310552,"lon":5.371659,"is_reserved":false,"is_disabled":false,"rental_uris":{"android":"levelo://app?vid=7af13e9c-1761-41d0-87e5-35c03d8aedd1","ios":"levelo://app?vid=7af13e9c-1761-41d0-87e5-35c03d8aedd1"},"vehicle_type_id":"4","last_reported":1768385643,"current_range_meters":4000,"station_id":"","pricing_plan_id":"cebpf4jnsgd1na2vs0mg"},{"bike_id":"19acb0d9-5641-4610-b2b2-7ba868c5f563","system_id":"levelo_inurba_marseille","lat":43.23963,"lon":5.36626,"is_reserved":false,"is_disabled":false,"rental_uris":{"android":"levelo://app?vid=19acb0d9-5641-4610-b2b2-7ba868c5f563","ios":"levelo://app?vid=19acb0d9-5641-4610-b2b2-7ba868c5f563"},"vehicle_type_id":"4","last_reported":1768385643,"current_range_meters":4000,"station_id":"ce4bhi12rcd13ifvqfp0","pricing_plan_id":"cebpf4jnsgd1na2vs0mg"},{"bike_id":"ec75e894-985d-4e7e-b4ba-cecc7b09defd","system_id":"levelo_inurba_marseille","lat":43.304616,"lon":5.379142,"is_reserved":false,"is_disabled":false,"rental_uris":{"android":"levelo://app?vid=ec75e894-985d-4e7e-b4ba-cecc7b09defd","ios":"levelo://app?vid=ec75e894-985d-4e7e-b4ba-cecc7b09defd"},"vehicle_type_id":"4","last_reported":1768385643,"current_range_meters":4000,"station_id":"ce4bgup2rcd13ifvqcn0","pricing_plan_id":"cebpf4jnsgd1na2vs0mg"},{"bike_id":"f9187464-dfa2-4028-82a1-671acff90963","system_id":"levelo_inurba_marseille","lat":43.323607,"lon":5.367536,"is_reserved":false,"is_disabled":false,"rental_uris":{"android":"levelo://app?vid=f9187464-dfa2-4028-82a1-671acff90963","ios":"levelo://app?vid=f9187464-dfa2-4028-82a1-671acff90963"},"vehicle_type_id":"4","last_reported":1768385643,"current_range_meters":4000,"station_id":"ce4bhsh2rcd13ifvqi2g","pricing_plan_id":"cebpf4jnsgd1na2vs0mg"},{"bike_id":"a21d7a5f-2801-46c8-99a4-232824e3ac88","system_id":"levelo_inurba_marseille","lat":43.29189,"lon":5.35802,"is_reserved":false,"is_disabled":false,"rental_uris":{"android":"levelo://app?vid=a21d7a5f-2801-46c8-99a4-232824e3ac88","ios":"levelo://app?vid=a21d7a5f-2801-46c8-99a4-232824e3ac88"},"vehicle_type_id":"4","last_reported":1768385643,"current_range_meters":4000,"station_id":"ce4bhb12rcd13ifvqel0","pricing_plan_id":"cebpf4jnsgd1na2vs0mg"},{"bike_id":"1104f587-3777-4d17-9b58-b6d053090d96","system_id":"levelo_inurba_marseille","lat":43.2319,"lon":5.35559,"is_reserved":false,"is_disabled":false,"rental_uris":{"android":"levelo://app?vid=1104f587-3777-4d17-9b58-b6d053090d96","ios":"levelo://app?vid=1104f587-3777-4d17-9b58-b6d053090d96"},"vehicle_type_id":"4","last_reported":1768385643,"current_range_meters":4000,"station_id":"ce4bhu92rcd13ifvqi70","pricing_plan_id":"cebpf4jnsgd1na2vs0mg"},{"bike_id":"d12a5c37-df8a-440d-b99b-49d121d9a484","system_id":"levelo_inurba_marseille","lat":43.22932,"lon":5.35384,"is_reserved":false,"is_disabled":false,"rental_uris":{"android":"levelo://app?vid=d12a5c37-df8a-440d-b99b-49d121d9a484","ios":"levelo://app?vid=d12a5c37-df8a-440d-b99b-49d121d9a484"},"vehicle_type_id":"4","last_reported":1768385643,"current_range_meters":4000,"station_id":"cpo3532slgdg3j2ikp40","pricing_plan_id":"cebpf4jnsgd1na2vs0mg"},{"bike_id":"bee2231a-aedd-4f8a-ae11-883f123d575e","system_id":"levelo_inurba_marseille","lat":43.31237,"lon":5.38204,"is_reserved":false,"is_disabled":false,"rental_uris":{"android":"levelo://app?vid=bee2231a-aedd-4f8a-ae11-883f123d575e","ios":"levelo://app?vid=bee2231a-aedd-4f8a-ae11-883f123d575e"},"vehicle_type_id":"4","last_reported":1768385643,"current_range_meters":4000,"station_id":"","pricing_plan_id":"cebpf4jnsgd1na2vs0mg"},{"bike_id":"af45e807-3706-4bec-a003-43617c2f99ba","system_id":"levelo_inurba_marseille","lat":43.30542,"lon":5.38437,"is_reserved":false,"is_disabled":false,"rental_uris":{"android":"levelo://app?vid=af45e807-3706-4bec-a003-43617c2f99ba","ios":"levelo://app?vid=af45e807-3706-4bec-a003-43617c2f99ba"},"vehicle_type_id":"4","last_reported":1768385643,"current_range_meters":4400,"station_id":"ce4bgg92rcd13ifvqb30","pricing_plan_id":"cebpf4jnsgd1na2vs0mg"},{"bike_id":"d4925320-f916-478a-8ad0-6db6c8e65348","system_id":"levelo_inurba_marseille","lat":43.27424,"lon":5.39421,"is_reserved":false,"is_disabled":false,"rental_uris":{"android":"levelo://app?vid=d4925320-f916-478a-8ad0-6db6c8e65348","ios":"levelo://app?vid=d4925320-f916-478a-8ad0-6db6c8e65348"},"vehicle_type_id":"4","last_reported":1768385643,"current_range_meters":4400,"station_id":"ce4bhdp2rcd13ifvqf20","pricing_plan_id":"cebpf4jnsgd1na2vs0mg"},{"bike_id":"ee6bb603-2e1d-4a52-ab5e-41c6bc6127f2","system_id":"levelo_inurba_marseille","lat":43.25506,"lon":5.37656,"is_reserved":false,"is_disabled":false,"rental_uris":{"android":"levelo://app?vid=ee6bb603-2e1d-4a52-ab5e-41c6bc6127f2","ios":"levelo://app?vid=ee6bb603-2e1d-4a52-ab5e-41c6bc6127f2"},"vehicle_type_id":"4","last_reported":1768385643,"current_range_meters":4400,"station_id":"ce4bhh12rcd13ifvqff0","pricing_plan_id":"cebpf4jnsgd1na2vs0mg"},{"bike_id":"5e235d9b-dff6-4fbf-8802-b61848997207","system_id":"levelo_inurba_marseille","lat":43.29965,"lon":5.38503,"is_reserved":false,"is_disabled":false,"rental_uris":{"android":"levelo://app?vid=5e235d9b-dff6-4fbf-8802-b61848997207","ios":"levelo://app?vid=5e235d9b-dff6-4fbf-8802-b61848997207"},"vehicle_type_id":"4","last_reported":1768385643,"current_range_meters":4400,"station_id":"ce4bgj92rcd13ifvqbd0","pricing_plan_id":"cebpf4jnsgd1na2vs0mg"},{"bike_id":"162df2af-c479-4dd8-b4e8-25c451ec3ee6","system_id":"levelo_inurba_marseille","lat":43.302736,"lon":5.376971,"is_reserved":false,"is_disabled":true,"rental_uris":{"android":"levelo://app?vid=162df2af-c479-4dd8-b4e8-25c451ec3ee6","ios":"levelo://app?vid=162df2af-c479-4dd8-b4e8-25c451ec3ee6"},"vehicle_type_id":"4","last_reported":1768385643,"current_range_meters":4400,"station_id":"","pricing_plan_id":"cebpf4jnsgd1na2vs0mg"},{"bike_id":"23a3eada-dea7-4044-b22b-1e0f7c60e76c","system_id":"levelo_inurba_marseille","lat":43.29526,"lon":5.39233,"is_reserved":false,"is_disabled":true,"rental_uris":{"android":"levelo://app?vid=23a3eada-dea7-4044-b22b-1e0f7c60e76c","ios":"levelo://app?vid=23a3eada-dea7-4044-b22b-1e0f7c60e76c"},"vehicle_type_id":"4","last_reported":1768385643,"current_range_meters":4400,"station_id":"","pricing_plan_id":"cebpf4jnsgd1na2vs0mg"},{"bike_id":"fca6ade4-fb97-4735-aea0-e5bf0b1d331c","system_id":"levelo_inurba_marseille","lat":43.31168,"lon":5.3873,"is_reserved":false,"is_disabled":false,"rental_uris":{"android":"levelo://app?vid=fca6ade4-fb97-4735-aea0-e5bf0b1d331c","ios":"levelo://app?vid=fca6ade4-fb97-4735-aea0-e5bf0b1d331c"},"vehicle_type_id":"4","last_reported":1768385643,"current_range_meters":4400,"station_id":"ce4bgv12rcd13ifvqcp0","pricing_plan_id":"cebpf4jnsgd1na2vs0mg"},{"bike_id":"3b02a338-8512-4a11-aeff-c1ab54b2d644","system_id":"levelo_inurba_marseille","lat":43.30951,"lon":5.39056,"is_reserved":false,"is_disabled":false,"rental_uris":{"android":"levelo://app?vid=3b02a338-8512-4a11-aeff-c1ab54b2d644","ios":"levelo://app?vid=3b02a338-8512-4a11-aeff-c1ab54b2d644"},"vehicle_type_id":"4","last_reported":1768385643,"current_range_meters":4400,"station_id":"ce4bgup2rcd13ifvqco0","pricing_plan_id":"cebpf4jnsgd1na2vs0mg"},{"bike_id":"2a79143f-3d8b-4742-85af-e8ce69787652","system_id":"levelo_inurba_marseille","lat":43.32092,"lon":5.36786,"is_reserved":false,"is_disabled":false,"rental_uris":{"android":"levelo://app?vid=2a79143f-3d8b-4742-85af-e8ce69787652","ios":"levelo://app?vid=2a79143f-3d8b-4742-85af-e8ce69787652"},"vehicle_type_id":"4","last_reported":1768385643,"current_range_meters":4400,"station_id":"ce4bhrh2rcd13ifvqhug","pricing_plan_id":"cebpf4jnsgd1na2vs0mg"},{"bike_id":"99f29460-4f10-4fbb-8a1d-e1ebf5603f00","system_id":"levelo_inurba_marseille","lat":43.248047,"lon":5.374592,"is_reserved":false,"is_disabled":false,"rental_uris":{"android":"levelo://app?vid=99f29460-4f10-4fbb-8a1d-e1ebf5603f00","ios":"levelo://app?vid=99f29460-4f10-4fbb-8a1d-e1ebf5603f00"},"vehicle_type_id":"4","last_reported":1768385643,"current_range_meters":4400,"station_id":"ce4bhgh2rcd13ifvqfb0","pricing_plan_id":"cebpf4jnsgd1na2vs0mg"},{"bike_id":"d93aad5b-726f-4681-895f-a4263493fbd8","system_id":"levelo_inurba_marseille","lat":43.3015,"lon":5.38083,"is_reserved":false,"is_disabled":false,"rental_uris":{"android":"levelo://app?vid=d93aad5b-726f-4681-895f-a4263493fbd8","ios":"levelo://app?vid=d93aad5b-726f-4681-895f-a4263493fbd8"},"vehicle_type_id":"4","last_reported":1768385643,"current_range_meters":4800,"station_id":"ce4bgjp2rcd13ifvqbh0","pricing_plan_id":"cebpf4jnsgd1na2vs0mg"},{"bike_id":"8a689e49-1449-46e9-9d9f-6cee66305474","system_id":"levelo_inurba_marseille","lat":43.2927,"lon":5.40925,"is_reserved":false,"is_disabled":false,"rental_uris":{"android":"levelo://app?vid=8a689e49-1449-46e9-9d9f-6cee66305474","ios":"levelo://app?vid=8a689e49-1449-46e9-9d9f-6cee66305474"},"vehicle_type_id":"4","last_reported":1768385643,"current_range_meters":4800,"station_id":"ce4bh192rcd13ifvqdc0","pricing_plan_id":"cebpf4jnsgd1na2vs0mg"},{"bike_id":"2a412a17-bdd8-4443-9613-10730db7d552","system_id":"levelo_inurba_marseille","lat":43.27213,"lon":5.39185,"is_reserved":false,"is_disabled":false,"rental_uris":{"android":"levelo://app?vid=2a412a17-bdd8-4443-9613-10730db7d552","ios":"levelo://app?vid=2a412a17-bdd8-4443-9613-10730db7d552"},"vehicle_type_id":"4","last_reported":1768385643,"current_range_meters":4800,"station_id":"ce4bhhp2rcd13ifvqfm0","pricing_plan_id":"cebpf4jnsgd1na2vs0mg"},{"bike_id":"13cd38e8-d512-4cfd-951f-24fea91e2d49","system_id":"levelo_inurba_marseille","lat":43.30181,"lon":5.36628,"is_reserved":false,"is_disabled":false,"rental_uris":{"android":"levelo://app?vid=13cd38e8-d512-4cfd-951f-24fea91e2d49","ios":"levelo://app?vid=13cd38e8-d512-4cfd-951f-24fea91e2d49"},"vehicle_type_id":"4","last_reported":1768385643,"current_range_meters":4800,"station_id":"ce4bgrh2rcd13ifvqc8g","pricing_plan_id":"cebpf4jnsgd1na2vs0mg"},{"bike_id":"486f5db0-76e1-427e-8da6-b795f5aacf8d","system_id":"levelo_inurba_marseille","lat":43.24392,"lon":5.37074,"is_reserved":false,"is_disabled":false,"rental_uris":{"android":"levelo://app?vid=486f5db0-76e1-427e-8da6-b795f5aacf8d","ios":"levelo://app?vid=486f5db0-76e1-427e-8da6-b795f5aacf8d"},"vehicle_type_id":"4","last_reported":1768385643,"current_range_meters":4800,"station_id":"ce4bhhh2rcd13ifvqfk0","pricing_plan_id":"cebpf4jnsgd1na2vs0mg"},{"bike_id":"644dfc11-0852-4e9f-9cb3-1fbca54c69b9","system_id":"levelo_inurba_marseille","lat":43.24177,"lon":5.3974,"is_reserved":false,"is_disabled":false,"rental_uris":{"android":"levelo://app?vid=644dfc11-0852-4e9f-9cb3-1fbca54c69b9","ios":"levelo://app?vid=644dfc11-0852-4e9f-9cb3-1fbca54c69b9"},"vehicle_type_id":"4","last_reported":1768385643,"current_range_meters":4800,"station_id":"ce4bhn12rcd13ifvqgpg","pricing_plan_id":"cebpf4jnsgd1na2vs0mg"},{"bike_id":"685ca00a-84c3-4cf8-b427-f42354127fab","system_id":"levelo_inurba_marseille","lat":43.30961,"lon":5.39032,"is_reserved":false,"is_disabled":false,"rental_uris":{"android":"levelo://app?vid=685ca00a-84c3-4cf8-b427-f42354127fab","ios":"levelo://app?vid=685ca00a-84c3-4cf8-b427-f42354127fab"},"vehicle_type_id":"4","last_reported":1768385643,"current_range_meters":4800,"station_id":"ce4bgup2rcd13ifvqco0","pricing_plan_id":"cebpf4jnsgd1na2vs0mg"},{"bike_id":"39becb68-37d2-4fe5-af83-65d5813b987b","system_id":"levelo_inurba_marseille","lat":43.32509,"lon":5.36884,"is_reserved":false,"is_disabled":false,"rental_uris":{"android":"levelo://app?vid=39becb68-37d2-4fe5-af83-65d5813b987b","ios":"levelo://app?vid=39becb68-37d2-4fe5-af83-65d5813b987b"},"vehicle_type_id":"4","last_reported":1768385643,"current_range_meters":4800,"station_id":"","pricing_plan_id":"cebpf4jnsgd1na2vs0mg"},{"bike_id":"99eb6c51-7f0f-4137-8b85-23f4caea2333","system_id":"levelo_inurba_marseille","lat":43.29914,"lon":5.39666,"is_reserved":false,"is_disabled":false,"rental_uris":{"android":"levelo://app?vid=99eb6c51-7f0f-4137-8b85-23f4caea2333","ios":"levelo://app?vid=99eb6c51-7f0f-4137-8b85-23f4caea2333"},"vehicle_type_id":"4","last_reported":1768385643,"current_range_meters":4800,"station_id":"","pricing_plan_id":"cebpf4jnsgd1na2vs0mg"},{"bike_id":"89d2fe58-62a2-4bdd-b3b5-cbe3fb368ea5","system_id":"levelo_inurba_marseille","lat":43.31332,"lon":5.3969,"is_reserved":false,"is_disabled":false,"rental_uris":{"android":"levelo://app?vid=89d2fe58-62a2-4bdd-b3b5-cbe3fb368ea5","ios":"levelo://app?vid=89d2fe58-62a2-4bdd-b3b5-cbe3fb368ea5"},"vehicle_type_id":"4","last_reported":1768385643,"current_range_meters":4800,"station_id":"ce4bgvp2rcd13ifvqcu0","pricing_plan_id":"cebpf4jnsgd1na2vs0mg"},{"bike_id":"b70f3d61-cba9-49c5-9c00-1aa5298b7f6f","system_id":"levelo_inurba_marseille","lat":43.26494,"lon":5.39531,"is_reserved":false,"is_disabled":false,"rental_uris":{"android":"levelo://app?vid=b70f3d61-cba9-49c5-9c00-1aa5298b7f6f","ios":"levelo://app?vid=b70f3d61-cba9-49c5-9c00-1aa5298b7f6f"},"vehicle_type_id":"4","last_reported":1768385643,"current_range_meters":4800,"station_id":"ce4bhi12rcd13ifvqfq0","pricing_plan_id":"cebpf4jnsgd1na2vs0mg"},{"bike_id":"b523c110-d25e-4af1-b7ea-2ae80dfe757b","system_id":"levelo_inurba_marseille","lat":43.237841,"lon":5.366373,"is_reserved":false,"is_disabled":false,"rental_uris":{"android":"levelo://app?vid=b523c110-d25e-4af1-b7ea-2ae80dfe757b","ios":"levelo://app?vid=b523c110-d25e-4af1-b7ea-2ae80dfe757b"},"vehicle_type_id":"4","last_reported":1768385643,"current_range_meters":5600,"station_id":"st_d3nk18o9ro0c73en2l3g","pricing_plan_id":"cebpf4jnsgd1na2vs0mg"},{"bike_id":"7e09f6aa-6a01-490d-a5d4-56de9c0277ad","system_id":"levelo_inurba_marseille","lat":43.28535,"lon":5.44099,"is_reserved":false,"is_disabled":false,"rental_uris":{"android":"levelo://app?vid=7e09f6aa-6a01-490d-a5d4-56de9c0277ad","ios":"levelo://app?vid=7e09f6aa-6a01-490d-a5d4-56de9c0277ad"},"vehicle_type_id":"4","last_reported":1768385643,"current_range_meters":5600,"station_id":"st_d3j3df2ikq2c7380ej80","pricing_plan_id":"cebpf4jnsgd1na2vs0mg"},{"bike_id":"18e7aed4-7cab-4e5f-b147-5c98f8a1e192","system_id":"levelo_inurba_marseille","lat":43.323577,"lon":5.367438,"is_reserved":false,"is_disabled":false,"rental_uris":{"android":"levelo://app?vid=18e7aed4-7cab-4e5f-b147-5c98f8a1e192","ios":"levelo://app?vid=18e7aed4-7cab-4e5f-b147-5c98f8a1e192"},"vehicle_type_id":"4","last_reported":1768385643,"current_range_meters":5600,"station_id":"ce4bhsh2rcd13ifvqi2g","pricing_plan_id":"cebpf4jnsgd1na2vs0mg"},{"bike_id":"810b9a6b-fadd-4695-9aaa-a5e731e585a2","system_id":"levelo_inurba_marseille","lat":43.297923,"lon":5.380897,"is_reserved":false,"is_disabled":true,"rental_uris":{"android":"levelo://app?vid=810b9a6b-fadd-4695-9aaa-a5e731e585a2","ios":"levelo://app?vid=810b9a6b-fadd-4695-9aaa-a5e731e585a2"},"vehicle_type_id":"4","last_reported":1768385643,"current_range_meters":5600,"station_id":"ce4bgip2rcd13ifvqbb0","pricing_plan_id":"cebpf4jnsgd1na2vs0mg"},{"bike_id":"940c8108-faeb-4510-8d32-88a45143975a","system_id":"levelo_inurba_marseille","lat":43.28872,"lon":5.42519,"is_reserved":false,"is_disabled":false,"rental_uris":{"android":"levelo://app?vid=940c8108-faeb-4510-8d32-88a45143975a","ios":"levelo://app?vid=940c8108-faeb-4510-8d32-88a45143975a"},"vehicle_type_id":"4","last_reported":1768385643,"current_range_meters":5600,"station_id":"st_d3b462108ojc7389ooeg","pricing_plan_id":"cebpf4jnsgd1na2vs0mg"},{"bike_id":"25c87b78-5b26-4fe6-a9bc-748ac1fc6751","system_id":"levelo_inurba_marseille","lat":43.27999,"lon":5.41673,"is_reserved":false,"is_disabled":false,"rental_uris":{"android":"levelo://app?vid=25c87b78-5b26-4fe6-a9bc-748ac1fc6751","ios":"levelo://app?vid=25c87b78-5b26-4fe6-a9bc-748ac1fc6751"},"vehicle_type_id":"4","last_reported":1768385643,"current_range_meters":5600,"station_id":"ce4bho12rcd13ifvqh1g","pricing_plan_id":"cebpf4jnsgd1na2vs0mg"},{"bike_id":"e0ee75ca-d010-4ce6-94b9-286d10280aac","system_id":"levelo_inurba_marseille","lat":43.28152,"lon":5.42636,"is_reserved":false,"is_disabled":false,"rental_uris":{"android":"levelo://app?vid=e0ee75ca-d010-4ce6-94b9-286d10280aac","ios":"levelo://app?vid=e0ee75ca-d010-4ce6-94b9-286d10280aac"},"vehicle_type_id":"4","last_reported":1768385643,"current_range_meters":5600,"station_id":"ce4bhnh2rcd13ifvqgug","pricing_plan_id":"cebpf4jnsgd1na2vs0mg"},{"bike_id":"c7abc581-c1e2-4eb4-888d-9d1cf33dbdd8","system_id":"levelo_inurba_marseille","lat":43.25086,"lon":5.3951,"is_reserved":false,"is_disabled":false,"rental_uris":{"android":"levelo://app?vid=c7abc581-c1e2-4eb4-888d-9d1cf33dbdd8","ios":"levelo://app?vid=c7abc581-c1e2-4eb4-888d-9d1cf33dbdd8"},"vehicle_type_id":"4","last_reported":1768385643,"current_range_meters":5600,"station_id":"ce4bhm12rcd13ifvqgkg","pricing_plan_id":"cebpf4jnsgd1na2vs0mg"},{"bike_id":"bbb74105-3be2-48fe-95ba-d328ecd4aedb","system_id":"levelo_inurba_marseille","lat":43.246505,"lon":5.388937,"is_reserved":false,"is_disabled":false,"rental_uris":{"android":"levelo://app?vid=bbb74105-3be2-48fe-95ba-d328ecd4aedb","ios":"levelo://app?vid=bbb74105-3be2-48fe-95ba-d328ecd4aedb"},"vehicle_type_id":"4","last_reported":1768385643,"current_range_meters":5600,"station_id":"ce4bhg12rcd13ifvqf60","pricing_plan_id":"cebpf4jnsgd1na2vs0mg"},{"bike_id":"95958bf0-b603-4d40-b142-a130aa7a9f20","system_id":"levelo_inurba_marseille","lat":43.28714,"lon":5.37949,"is_reserved":false,"is_disabled":false,"rental_uris":{"android":"levelo://app?vid=95958bf0-b603-4d40-b142-a130aa7a9f20","ios":"levelo://app?vid=95958bf0-b603-4d40-b142-a130aa7a9f20"},"vehicle_type_id":"4","last_reported":1768385643,"current_range_meters":5600,"station_id":"ce4bh9p2rcd13ifvqec0","pricing_plan_id":"cebpf4jnsgd1na2vs0mg"},{"bike_id":"f078a438-075e-497e-aba3-85d3adf1c45b","system_id":"levelo_inurba_marseille","lat":43.30284,"lon":5.377045,"is_reserved":false,"is_disabled":false,"rental_uris":{"android":"levelo://app?vid=f078a438-075e-497e-aba3-85d3adf1c45b","ios":"levelo://app?vid=f078a438-075e-497e-aba3-85d3adf1c45b"},"vehicle_type_id":"4","last_reported":1768385643,"current_range_meters":5600,"station_id":"ce4bguh2rcd13ifvqcj0","pricing_plan_id":"cebpf4jnsgd1na2vs0mg"},{"bike_id":"d764c213-0d3f-4378-90a5-ed1ad1633192","system_id":"levelo_inurba_marseille","lat":43.297976,"lon":5.381018,"is_reserved":false,"is_disabled":false,"rental_uris":{"android":"levelo://app?vid=d764c213-0d3f-4378-90a5-ed1ad1633192","ios":"levelo://app?vid=d764c213-0d3f-4378-90a5-ed1ad1633192"},"vehicle_type_id":"4","last_reported":1768385643,"current_range_meters":5600,"station_id":"","pricing_plan_id":"cebpf4jnsgd1na2vs0mg"},{"bike_id":"0852f0d1-f3ce-4f08-bd1e-798d203a66bb","system_id":"levelo_inurba_marseille","lat":43.28171,"lon":5.42632,"is_reserved":false,"is_disabled":false,"rental_uris":{"android":"levelo://app?vid=0852f0d1-f3ce-4f08-bd1e-798d203a66bb","ios":"levelo://app?vid=0852f0d1-f3ce-4f08-bd1e-798d203a66bb"},"vehicle_type_id":"4","last_reported":1768385643,"current_range_meters":5600,"station_id":"ce4bhnh2rcd13ifvqgug","pricing_plan_id":"cebpf4jnsgd1na2vs0mg"},{"bike_id":"20dfd869-45e6-4006-9159-9978d938bbe1","system_id":"levelo_inurba_marseille","lat":43.31017,"lon":5.37184,"is_reserved":false,"is_disabled":false,"rental_uris":{"android":"levelo://app?vid=20dfd869-45e6-4006-9159-9978d938bbe1","ios":"levelo://app?vid=20dfd869-45e6-4006-9159-9978d938bbe1"},"vehicle_type_id":"4","last_reported":1768385643,"current_range_meters":5600,"station_id":"st_d4kl2rp97mjs73e7tdfg","pricing_plan_id":"cebpf4jnsgd1na2vs0mg"},{"bike_id":"16a35ddb-ee90-4e28-9b3f-a560d433dc3b","system_id":"levelo_inurba_marseille","lat":43.29774,"lon":5.37101,"is_reserved":false,"is_disabled":false,"rental_uris":{"android":"levelo://app?vid=16a35ddb-ee90-4e28-9b3f-a560d433dc3b","ios":"levelo://app?vid=16a35ddb-ee90-4e28-9b3f-a560d433dc3b"},"vehicle_type_id":"4","last_reported":1768385643,"current_range_meters":5600,"station_id":"ce4bgop2rcd13ifvqc1g","pricing_plan_id":"cebpf4jnsgd1na2vs0mg"},{"bike_id":"a31c8f9e-9708-4ea2-9e5d-05e3441bc85f","system_id":"levelo_inurba_marseille","lat":43.284796,"lon":5.483901,"is_reserved":false,"is_disabled":false,"rental_uris":{"android":"levelo://app?vid=a31c8f9e-9708-4ea2-9e5d-05e3441bc85f","ios":"levelo://app?vid=a31c8f9e-9708-4ea2-9e5d-05e3441bc85f"},"vehicle_type_id":"4","last_reported":1768385643,"current_range_meters":5600,"station_id":"","pricing_plan_id":"cebpf4jnsgd1na2vs0mg"},{"bike_id":"f386e451-0ff7-4c2a-a6cd-27139c57272a","system_id":"levelo_inurba_marseille","lat":43.28536,"lon":5.44106,"is_reserved":false,"is_disabled":false,"rental_uris":{"android":"levelo://app?vid=f386e451-0ff7-4c2a-a6cd-27139c57272a","ios":"levelo://app?vid=f386e451-0ff7-4c2a-a6cd-27139c57272a"},"vehicle_type_id":"4","last_reported":1768385643,"current_range_meters":6000,"station_id":"st_d3j3df2ikq2c7380ej80","pricing_plan_id":"cebpf4jnsgd1na2vs0mg"},{"bike_id":"d8b52035-9107-4203-ba3b-8ab85229defc","system_id":"levelo_inurba_marseille","lat":43.25885,"lon":5.39923,"is_reserved":false,"is_disabled":false,"rental_uris":{"android":"levelo://app?vid=d8b52035-9107-4203-ba3b-8ab85229defc","ios":"levelo://app?vid=d8b52035-9107-4203-ba3b-8ab85229defc"},"vehicle_type_id":"4","last_reported":1768385643,"current_range_meters":6000,"station_id":"ce4bhl92rcd13ifvqghg","pricing_plan_id":"cebpf4jnsgd1na2vs0mg"},{"bike_id":"4da4b9b5-8e34-4a21-a7eb-76e6a1792527","system_id":"levelo_inurba_marseille","lat":43.28254,"lon":5.43038,"is_reserved":false,"is_disabled":false,"rental_uris":{"android":"levelo://app?vid=4da4b9b5-8e34-4a21-a7eb-76e6a1792527","ios":"levelo://app?vid=4da4b9b5-8e34-4a21-a7eb-76e6a1792527"},"vehicle_type_id":"4","last_reported":1768385643,"current_range_meters":6000,"station_id":"","pricing_plan_id":"cebpf4jnsgd1na2vs0mg"},{"bike_id":"b7f4c54f-f481-4643-9c7b-e12e55533981","system_id":"levelo_inurba_marseille","lat":43.28386,"lon":5.3756,"is_reserved":false,"is_disabled":false,"rental_uris":{"android":"levelo://app?vid=b7f4c54f-f481-4643-9c7b-e12e55533981","ios":"levelo://app?vid=b7f4c54f-f481-4643-9c7b-e12e55533981"},"vehicle_type_id":"4","last_reported":1768385643,"current_range_meters":6000,"station_id":"ce4bh412rcd13ifvqds0","pricing_plan_id":"cebpf4jnsgd1na2vs0mg"},{"bike_id":"ea5a0539-d10a-493d-b63d-e4e8abdbd9c8","system_id":"levelo_inurba_marseille","lat":43.291826,"lon":5.388303,"is_reserved":false,"is_disabled":false,"rental_uris":{"android":"levelo://app?vid=ea5a0539-d10a-493d-b63d-e4e8abdbd9c8","ios":"levelo://app?vid=ea5a0539-d10a-493d-b63d-e4e8abdbd9c8"},"vehicle_type_id":"4","last_reported":1768385643,"current_range_meters":6000,"station_id":"","pricing_plan_id":"cebpf4jnsgd1na2vs0mg"},{"bike_id":"96f9b611-3f33-4f31-bff7-3ba158a075c7","system_id":"levelo_inurba_marseille","lat":43.29869,"lon":5.38902,"is_reserved":false,"is_disabled":true,"rental_uris":{"android":"levelo://app?vid=96f9b611-3f33-4f31-bff7-3ba158a075c7","ios":"levelo://app?vid=96f9b611-3f33-4f31-bff7-3ba158a075c7"},"vehicle_type_id":"4","last_reported":1768385643,"current_range_meters":6000,"station_id":"ce4bh392rcd13ifvqdl0","pricing_plan_id":"cebpf4jnsgd1na2vs0mg"},{"bike_id":"940d2258-5999-4dd1-b6e0-006f48f29504","system_id":"levelo_inurba_marseille","lat":43.29927,"lon":5.36533,"is_reserved":false,"is_disabled":false,"rental_uris":{"android":"levelo://app?vid=940d2258-5999-4dd1-b6e0-006f48f29504","ios":"levelo://app?vid=940d2258-5999-4dd1-b6e0-006f48f29504"},"vehicle_type_id":"4","last_reported":1768385643,"current_range_meters":6000,"station_id":"ce4bgm92rcd13ifvqbr0","pricing_plan_id":"cebpf4jnsgd1na2vs0mg"},{"bike_id":"27f242f3-3ae7-4945-8a79-3968179ff814","system_id":"levelo_inurba_marseille","lat":43.32465,"lon":5.36604,"is_reserved":false,"is_disabled":false,"rental_uris":{"android":"levelo://app?vid=27f242f3-3ae7-4945-8a79-3968179ff814","ios":"levelo://app?vid=27f242f3-3ae7-4945-8a79-3968179ff814"},"vehicle_type_id":"4","last_reported":1768385643,"current_range_meters":6000,"station_id":"ce4bhs12rcd13ifvqhvg","pricing_plan_id":"cebpf4jnsgd1na2vs0mg"},{"bike_id":"dccf6443-2690-4508-8f9a-a0435732725f","system_id":"levelo_inurba_marseille","lat":43.25491,"lon":5.37645,"is_reserved":false,"is_disabled":false,"rental_uris":{"android":"levelo://app?vid=dccf6443-2690-4508-8f9a-a0435732725f","ios":"levelo://app?vid=dccf6443-2690-4508-8f9a-a0435732725f"},"vehicle_type_id":"4","last_reported":1768385643,"current_range_meters":6400,"station_id":"ce4bhh12rcd13ifvqff0","pricing_plan_id":"cebpf4jnsgd1na2vs0mg"},{"bike_id":"894f7596-abee-4815-8300-8cee721801ab","system_id":"levelo_inurba_marseille","lat":43.2695,"lon":5.38632,"is_reserved":false,"is_disabled":false,"rental_uris":{"android":"levelo://app?vid=894f7596-abee-4815-8300-8cee721801ab","ios":"levelo://app?vid=894f7596-abee-4815-8300-8cee721801ab"},"vehicle_type_id":"4","last_reported":1768385643,"current_range_meters":6400,"station_id":"ce4bhh92rcd13ifvqfh0","pricing_plan_id":"cebpf4jnsgd1na2vs0mg"},{"bike_id":"edae41ff-efa7-45e8-b9af-a8202fc573da","system_id":"levelo_inurba_marseille","lat":43.249925,"lon":5.389349,"is_reserved":false,"is_disabled":false,"rental_uris":{"android":"levelo://app?vid=edae41ff-efa7-45e8-b9af-a8202fc573da","ios":"levelo://app?vid=edae41ff-efa7-45e8-b9af-a8202fc573da"},"vehicle_type_id":"4","last_reported":1768385643,"current_range_meters":6400,"station_id":"ce4bhgp2rcd13ifvqfd0","pricing_plan_id":"cebpf4jnsgd1na2vs0mg"},{"bike_id":"3eb54054-7a23-486c-9375-33b176f65b40","system_id":"levelo_inurba_marseille","lat":43.28684,"lon":5.40036,"is_reserved":false,"is_disabled":false,"rental_uris":{"android":"levelo://app?vid=3eb54054-7a23-486c-9375-33b176f65b40","ios":"levelo://app?vid=3eb54054-7a23-486c-9375-33b176f65b40"},"vehicle_type_id":"4","last_reported":1768385643,"current_range_meters":6400,"station_id":"ce4bho92rcd13ifvqh3g","pricing_plan_id":"cebpf4jnsgd1na2vs0mg"},{"bike_id":"6bf9b665-e6b2-4284-811c-60ec4f0cb3b7","system_id":"levelo_inurba_marseille","lat":43.29594,"lon":5.38096,"is_reserved":false,"is_disabled":false,"rental_uris":{"android":"levelo://app?vid=6bf9b665-e6b2-4284-811c-60ec4f0cb3b7","ios":"levelo://app?vid=6bf9b665-e6b2-4284-811c-60ec4f0cb3b7"},"vehicle_type_id":"4","last_reported":1768385643,"current_range_meters":6400,"station_id":"ce4bgl12rcd13ifvqbo0","pricing_plan_id":"cebpf4jnsgd1na2vs0mg"},{"bike_id":"35a38165-7388-4804-b0ac-dd1568936910","system_id":"levelo_inurba_marseille","lat":43.24079,"lon":5.37746,"is_reserved":false,"is_disabled":false,"rental_uris":{"android":"levelo://app?vid=35a38165-7388-4804-b0ac-dd1568936910","ios":"levelo://app?vid=35a38165-7388-4804-b0ac-dd1568936910"},"vehicle_type_id":"4","last_reported":1768385643,"current_range_meters":6400,"station_id":"ce4bhnp2rcd13ifvqgvg","pricing_plan_id":"cebpf4jnsgd1na2vs0mg"},{"bike_id":"0b32360e-8748-4626-b6b9-c1bfb33896e7","system_id":"levelo_inurba_marseille","lat":43.24073,"lon":5.37745,"is_reserved":false,"is_disabled":false,"rental_uris":{"android":"levelo://app?vid=0b32360e-8748-4626-b6b9-c1bfb33896e7","ios":"levelo://app?vid=0b32360e-8748-4626-b6b9-c1bfb33896e7"},"vehicle_type_id":"4","last_reported":1768385643,"current_range_meters":6400,"station_id":"ce4bhnp2rcd13ifvqgvg","pricing_plan_id":"cebpf4jnsgd1na2vs0mg"},{"bike_id":"edcf3188-4a6b-46e2-aa32-dc6a17ca3c7d","system_id":"levelo_inurba_marseille","lat":43.25569,"lon":5.38244,"is_reserved":false,"is_disabled":false,"rental_uris":{"android":"levelo://app?vid=edcf3188-4a6b-46e2-aa32-dc6a17ca3c7d","ios":"levelo://app?vid=edcf3188-4a6b-46e2-aa32-dc6a17ca3c7d"},"vehicle_type_id":"4","last_reported":1768385643,"current_range_meters":6400,"station_id":"ce4bhih2rcd13ifvqfs0","pricing_plan_id":"cebpf4jnsgd1na2vs0mg"},{"bike_id":"0b30e26a-948a-492c-989e-333d78c35335","system_id":"levelo_inurba_marseille","lat":43.28856,"lon":5.35839,"is_reserved":false,"is_disabled":false,"rental_uris":{"android":"levelo://app?vid=0b30e26a-948a-492c-989e-333d78c35335","ios":"levelo://app?vid=0b30e26a-948a-492c-989e-333d78c35335"},"vehicle_type_id":"4","last_reported":1768385643,"current_range_meters":6400,"station_id":"ce4bhb12rcd13ifvqem0","pricing_plan_id":"cebpf4jnsgd1na2vs0mg"},{"bike_id":"a41afe78-53cf-4544-bc4e-f67c85d3e8c4","system_id":"levelo_inurba_marseille","lat":43.31412,"lon":5.36719,"is_reserved":false,"is_disabled":false,"rental_uris":{"android":"levelo://app?vid=a41afe78-53cf-4544-bc4e-f67c85d3e8c4","ios":"levelo://app?vid=a41afe78-53cf-4544-bc4e-f67c85d3e8c4"},"vehicle_type_id":"4","last_reported":1768385643,"current_range_meters":6400,"station_id":"","pricing_plan_id":"cebpf4jnsgd1na2vs0mg"},{"bike_id":"9deafb92-9293-47db-b696-81fef639ab5e","system_id":"levelo_inurba_marseille","lat":43.29965,"lon":5.38481,"is_reserved":false,"is_disabled":true,"rental_uris":{"android":"levelo://app?vid=9deafb92-9293-47db-b696-81fef639ab5e","ios":"levelo://app?vid=9deafb92-9293-47db-b696-81fef639ab5e"},"vehicle_type_id":"4","last_reported":1768385643,"current_range_meters":6400,"station_id":"ce4bgj92rcd13ifvqbd0","pricing_plan_id":"cebpf4jnsgd1na2vs0mg"},{"bike_id":"223aa241-490f-4f34-b091-18da47cdc937","system_id":"levelo_inurba_marseille","lat":43.28472,"lon":5.38407,"is_reserved":false,"is_disabled":false,"rental_uris":{"android":"levelo://app?vid=223aa241-490f-4f34-b091-18da47cdc937","ios":"levelo://app?vid=223aa241-490f-4f34-b091-18da47cdc937"},"vehicle_type_id":"4","last_reported":1768385643,"current_range_meters":6400,"station_id":"ce4bh512rcd13ifvqe3g","pricing_plan_id":"cebpf4jnsgd1na2vs0mg"},{"bike_id":"444df318-90f4-40d1-9256-1ebf4ac95caa","system_id":"levelo_inurba_marseille","lat":43.30239,"lon":5.37745,"is_reserved":false,"is_disabled":false,"rental_uris":{"android":"levelo://app?vid=444df318-90f4-40d1-9256-1ebf4ac95caa","ios":"levelo://app?vid=444df318-90f4-40d1-9256-1ebf4ac95caa"},"vehicle_type_id":"4","last_reported":1768385643,"current_range_meters":6400,"station_id":"ce4bguh2rcd13ifvqcj0","pricing_plan_id":"cebpf4jnsgd1na2vs0mg"},{"bike_id":"8df3de44-b977-4419-9d48-ab52e581c78c","system_id":"levelo_inurba_marseille","lat":43.30454,"lon":5.37912,"is_reserved":false,"is_disabled":false,"rental_uris":{"android":"levelo://app?vid=8df3de44-b977-4419-9d48-ab52e581c78c","ios":"levelo://app?vid=8df3de44-b977-4419-9d48-ab52e581c78c"},"vehicle_type_id":"4","last_reported":1768385643,"current_range_meters":6400,"station_id":"ce4bgup2rcd13ifvqcn0","pricing_plan_id":"cebpf4jnsgd1na2vs0mg"},{"bike_id":"27ea8170-0361-438d-b591-2ebcd05d2dfe","system_id":"levelo_inurba_marseille","lat":43.28444,"lon":5.34979,"is_reserved":false,"is_disabled":false,"rental_uris":{"android":"levelo://app?vid=27ea8170-0361-438d-b591-2ebcd05d2dfe","ios":"levelo://app?vid=27ea8170-0361-438d-b591-2ebcd05d2dfe"},"vehicle_type_id":"4","last_reported":1768385643,"current_range_meters":6800,"station_id":"ce4bhbh2rcd13ifvqepg","pricing_plan_id":"cebpf4jnsgd1na2vs0mg"},{"bike_id":"b88d5c4f-e510-4564-b7d1-84231c11cf04","system_id":"levelo_inurba_marseille","lat":43.27497,"lon":5.42451,"is_reserved":false,"is_disabled":false,"rental_uris":{"android":"levelo://app?vid=b88d5c4f-e510-4564-b7d1-84231c11cf04","ios":"levelo://app?vid=b88d5c4f-e510-4564-b7d1-84231c11cf04"},"vehicle_type_id":"4","last_reported":1768385643,"current_range_meters":6800,"station_id":"ce4bhn92rcd13ifvqgrg","pricing_plan_id":"cebpf4jnsgd1na2vs0mg"},{"bike_id":"1621444e-17e7-4c3c-bee0-067ccd01ec41","system_id":"levelo_inurba_marseille","lat":43.28164,"lon":5.42684,"is_reserved":false,"is_disabled":false,"rental_uris":{"android":"levelo://app?vid=1621444e-17e7-4c3c-bee0-067ccd01ec41","ios":"levelo://app?vid=1621444e-17e7-4c3c-bee0-067ccd01ec41"},"vehicle_type_id":"4","last_reported":1768385643,"current_range_meters":6800,"station_id":"ce4bhnh2rcd13ifvqgug","pricing_plan_id":"cebpf4jnsgd1na2vs0mg"},{"bike_id":"09274d01-4a95-409b-8171-0131639b6dc1","system_id":"levelo_inurba_marseille","lat":43.289954,"lon":5.381656,"is_reserved":false,"is_disabled":false,"rental_uris":{"android":"levelo://app?vid=09274d01-4a95-409b-8171-0131639b6dc1","ios":"levelo://app?vid=09274d01-4a95-409b-8171-0131639b6dc1"},"vehicle_type_id":"4","last_reported":1768385643,"current_range_meters":6800,"station_id":"ce4bgjh2rcd13ifvqbg0","pricing_plan_id":"cebpf4jnsgd1na2vs0mg"},{"bike_id":"0496460c-cd9f-43fd-8720-c5e183ef0a0e","system_id":"levelo_inurba_marseille","lat":43.23769,"lon":5.36649,"is_reserved":false,"is_disabled":false,"rental_uris":{"android":"levelo://app?vid=0496460c-cd9f-43fd-8720-c5e183ef0a0e","ios":"levelo://app?vid=0496460c-cd9f-43fd-8720-c5e183ef0a0e"},"vehicle_type_id":"4","last_reported":1768385643,"current_range_meters":6800,"station_id":"st_d3nk18o9ro0c73en2l3g","pricing_plan_id":"cebpf4jnsgd1na2vs0mg"},{"bike_id":"886207cb-2d68-4c0c-a6af-349e1c6d9f05","system_id":"levelo_inurba_marseille","lat":43.27965,"lon":5.41669,"is_reserved":false,"is_disabled":true,"rental_uris":{"android":"levelo://app?vid=886207cb-2d68-4c0c-a6af-349e1c6d9f05","ios":"levelo://app?vid=886207cb-2d68-4c0c-a6af-349e1c6d9f05"},"vehicle_type_id":"4","last_reported":1768385643,"current_range_meters":6800,"station_id":"ce4bho12rcd13ifvqh1g","pricing_plan_id":"cebpf4jnsgd1na2vs0mg"},{"bike_id":"54a665b1-efb8-4a74-a5c5-3658aaf489a2","system_id":"levelo_inurba_marseille","lat":43.28468,"lon":5.48426,"is_reserved":false,"is_disabled":false,"rental_uris":{"android":"levelo://app?vid=54a665b1-efb8-4a74-a5c5-3658aaf489a2","ios":"levelo://app?vid=54a665b1-efb8-4a74-a5c5-3658aaf489a2"},"vehicle_type_id":"4","last_reported":1768385643,"current_range_meters":6800,"station_id":"","pricing_plan_id":"cebpf4jnsgd1na2vs0mg"},{"bike_id":"16d8ad45-48da-4333-a317-ff2f8f65ddd1","system_id":"levelo_inurba_marseille","lat":43.32481,"lon":5.36578,"is_reserved":false,"is_disabled":false,"rental_uris":{"android":"levelo://app?vid=16d8ad45-48da-4333-a317-ff2f8f65ddd1","ios":"levelo://app?vid=16d8ad45-48da-4333-a317-ff2f8f65ddd1"},"vehicle_type_id":"4","last_reported":1768385643,"current_range_meters":6800,"station_id":"ce4bhs12rcd13ifvqhvg","pricing_plan_id":"cebpf4jnsgd1na2vs0mg"},{"bike_id":"d10c3e03-17c1-4a18-84d3-e167ce7531e2","system_id":"levelo_inurba_marseille","lat":43.32349,"lon":5.36752,"is_reserved":false,"is_disabled":false,"rental_uris":{"android":"levelo://app?vid=d10c3e03-17c1-4a18-84d3-e167ce7531e2","ios":"levelo://app?vid=d10c3e03-17c1-4a18-84d3-e167ce7531e2"},"vehicle_type_id":"4","last_reported":1768385643,"current_range_meters":6800,"station_id":"ce4bhsh2rcd13ifvqi2g","pricing_plan_id":"cebpf4jnsgd1na2vs0mg"},{"bike_id":"7a098b7d-1889-496a-ad8f-3f07d03d89b8","system_id":"levelo_inurba_marseille","lat":43.2306,"lon":5.35493,"is_reserved":false,"is_disabled":false,"rental_uris":{"android":"levelo://app?vid=7a098b7d-1889-496a-ad8f-3f07d03d89b8","ios":"levelo://app?vid=7a098b7d-1889-496a-ad8f-3f07d03d89b8"},"vehicle_type_id":"4","last_reported":1768385643,"current_range_meters":6800,"station_id":"cpo3342slgdg3j2ifvpg","pricing_plan_id":"cebpf4jnsgd1na2vs0mg"},{"bike_id":"fbe88db2-416a-478a-ac7c-29c397f79fa0","system_id":"levelo_inurba_marseille","lat":43.24643,"lon":5.38917,"is_reserved":false,"is_disabled":false,"rental_uris":{"android":"levelo://app?vid=fbe88db2-416a-478a-ac7c-29c397f79fa0","ios":"levelo://app?vid=fbe88db2-416a-478a-ac7c-29c397f79fa0"},"vehicle_type_id":"4","last_reported":1768385643,"current_range_meters":6800,"station_id":"ce4bhg12rcd13ifvqf60","pricing_plan_id":"cebpf4jnsgd1na2vs0mg"},{"bike_id":"6a4a1ebd-8c7d-4994-93f6-96c7adcc3fb5","system_id":"levelo_inurba_marseille","lat":43.25938,"lon":5.40921,"is_reserved":false,"is_disabled":false,"rental_uris":{"android":"levelo://app?vid=6a4a1ebd-8c7d-4994-93f6-96c7adcc3fb5","ios":"levelo://app?vid=6a4a1ebd-8c7d-4994-93f6-96c7adcc3fb5"},"vehicle_type_id":"4","last_reported":1768385643,"current_range_meters":7200,"station_id":"ce4bhm92rcd13ifvqglg","pricing_plan_id":"cebpf4jnsgd1na2vs0mg"},{"bike_id":"80e1cacf-c38d-4e99-beb6-97caf9f5d5a5","system_id":"levelo_inurba_marseille","lat":43.28174,"lon":5.39072,"is_reserved":false,"is_disabled":false,"rental_uris":{"android":"levelo://app?vid=80e1cacf-c38d-4e99-beb6-97caf9f5d5a5","ios":"levelo://app?vid=80e1cacf-c38d-4e99-beb6-97caf9f5d5a5"},"vehicle_type_id":"4","last_reported":1768385643,"current_range_meters":7200,"station_id":"","pricing_plan_id":"cebpf4jnsgd1na2vs0mg"},{"bike_id":"2ee0fab5-7040-4975-9414-0b1e23a72b5b","system_id":"levelo_inurba_marseille","lat":43.32359,"lon":5.3675,"is_reserved":false,"is_disabled":false,"rental_uris":{"android":"levelo://app?vid=2ee0fab5-7040-4975-9414-0b1e23a72b5b","ios":"levelo://app?vid=2ee0fab5-7040-4975-9414-0b1e23a72b5b"},"vehicle_type_id":"4","last_reported":1768385643,"current_range_meters":7200,"station_id":"ce4bhsh2rcd13ifvqi2g","pricing_plan_id":"cebpf4jnsgd1na2vs0mg"},{"bike_id":"168666e0-3d53-4b8d-9cb3-997d2a5a4f6e","system_id":"levelo_inurba_marseille","lat":43.2624,"lon":5.3882,"is_reserved":false,"is_disabled":false,"rental_uris":{"android":"levelo://app?vid=168666e0-3d53-4b8d-9cb3-997d2a5a4f6e","ios":"levelo://app?vid=168666e0-3d53-4b8d-9cb3-997d2a5a4f6e"},"vehicle_type_id":"4","last_reported":1768385643,"current_range_meters":7200,"station_id":"","pricing_plan_id":"cebpf4jnsgd1na2vs0mg"},{"bike_id":"05f63fa9-494d-453c-8fbd-b43a99415aa7","system_id":"levelo_inurba_marseille","lat":43.26673,"lon":5.38269,"is_reserved":false,"is_disabled":false,"rental_uris":{"android":"levelo://app?vid=05f63fa9-494d-453c-8fbd-b43a99415aa7","ios":"levelo://app?vid=05f63fa9-494d-453c-8fbd-b43a99415aa7"},"vehicle_type_id":"4","last_reported":1768385643,"current_range_meters":7200,"station_id":"ce4bhg92rcd13ifvqf90","pricing_plan_id":"cebpf4jnsgd1na2vs0mg"},{"bike_id":"47e8d937-7ec7-4d88-84dd-f958423c70de","system_id":"levelo_inurba_marseille","lat":43.263705,"lon":5.410836,"is_reserved":false,"is_disabled":false,"rental_uris":{"android":"levelo://app?vid=47e8d937-7ec7-4d88-84dd-f958423c70de","ios":"levelo://app?vid=47e8d937-7ec7-4d88-84dd-f958423c70de"},"vehicle_type_id":"4","last_reported":1768385643,"current_range_meters":7200,"station_id":"","pricing_plan_id":"cebpf4jnsgd1na2vs0mg"},{"bike_id":"b7d49573-3e66-48d0-a113-0b261fcd2347","system_id":"levelo_inurba_marseille","lat":43.30132,"lon":5.37424,"is_reserved":false,"is_disabled":false,"rental_uris":{"android":"levelo://app?vid=b7d49573-3e66-48d0-a113-0b261fcd2347","ios":"levelo://app?vid=b7d49573-3e66-48d0-a113-0b261fcd2347"},"vehicle_type_id":"4","last_reported":1768385643,"current_range_meters":7200,"station_id":"ce4bgs92rcd13ifvqcc0","pricing_plan_id":"cebpf4jnsgd1na2vs0mg"},{"bike_id":"7cccb604-f149-4e8e-9ee8-78300c58372e","system_id":"levelo_inurba_marseille","lat":43.23186,"lon":5.40026,"is_reserved":false,"is_disabled":false,"rental_uris":{"android":"levelo://app?vid=7cccb604-f149-4e8e-9ee8-78300c58372e","ios":"levelo://app?vid=7cccb604-f149-4e8e-9ee8-78300c58372e"},"vehicle_type_id":"4","last_reported":1768385643,"current_range_meters":7200,"station_id":"ce4bhn12rcd13ifvqgqg","pricing_plan_id":"cebpf4jnsgd1na2vs0mg"},{"bike_id":"d8e03ef6-0c5e-49db-943c-98c26bf654da","system_id":"levelo_inurba_marseille","lat":43.29963,"lon":5.37426,"is_reserved":false,"is_disabled":false,"rental_uris":{"android":"levelo://app?vid=d8e03ef6-0c5e-49db-943c-98c26bf654da","ios":"levelo://app?vid=d8e03ef6-0c5e-49db-943c-98c26bf654da"},"vehicle_type_id":"4","last_reported":1768385643,"current_range_meters":7200,"station_id":"","pricing_plan_id":"cebpf4jnsgd1na2vs0mg"},{"bike_id":"b18474e9-ad34-4b8a-8d2c-347f7a79d1bb","system_id":"levelo_inurba_marseille","lat":43.24971,"lon":5.3897,"is_reserved":false,"is_disabled":false,"rental_uris":{"android":"levelo://app?vid=b18474e9-ad34-4b8a-8d2c-347f7a79d1bb","ios":"levelo://app?vid=b18474e9-ad34-4b8a-8d2c-347f7a79d1bb"},"vehicle_type_id":"4","last_reported":1768385643,"current_range_meters":7200,"station_id":"","pricing_plan_id":"cebpf4jnsgd1na2vs0mg"},{"bike_id":"323bdf5a-fc85-45ab-8b18-361a392bbea5","system_id":"levelo_inurba_marseille","lat":43.29935,"lon":5.37932,"is_reserved":false,"is_disabled":false,"rental_uris":{"android":"levelo://app?vid=323bdf5a-fc85-45ab-8b18-361a392bbea5","ios":"levelo://app?vid=323bdf5a-fc85-45ab-8b18-361a392bbea5"},"vehicle_type_id":"4","last_reported":1768385643,"current_range_meters":7200,"station_id":"","pricing_plan_id":"cebpf4jnsgd1na2vs0mg"},{"bike_id":"a0f9b52c-bbb7-4f7a-b55f-b65905b6c8ef","system_id":"levelo_inurba_marseille","lat":43.24953,"lon":5.4051,"is_reserved":false,"is_disabled":false,"rental_uris":{"android":"levelo://app?vid=a0f9b52c-bbb7-4f7a-b55f-b65905b6c8ef","ios":"levelo://app?vid=a0f9b52c-bbb7-4f7a-b55f-b65905b6c8ef"},"vehicle_type_id":"4","last_reported":1768385643,"current_range_meters":7200,"station_id":"st_d2ngiaodas8pm72gd1h0","pricing_plan_id":"cebpf4jnsgd1na2vs0mg"},{"bike_id":"e0efaf6f-c59e-46f8-b067-f28f91d8b07e","system_id":"levelo_inurba_marseille","lat":43.32054,"lon":5.41555,"is_reserved":false,"is_disabled":false,"rental_uris":{"android":"levelo://app?vid=e0efaf6f-c59e-46f8-b067-f28f91d8b07e","ios":"levelo://app?vid=e0efaf6f-c59e-46f8-b067-f28f91d8b07e"},"vehicle_type_id":"4","last_reported":1768385643,"current_range_meters":7200,"station_id":"ce4bhq92rcd13ifvqhkg","pricing_plan_id":"cebpf4jnsgd1na2vs0mg"},{"bike_id":"f5a138dc-cad1-4436-ac3d-b0b90ebf4006","system_id":"levelo_inurba_marseille","lat":43.32449,"lon":5.36596,"is_reserved":false,"is_disabled":false,"rental_uris":{"android":"levelo://app?vid=f5a138dc-cad1-4436-ac3d-b0b90ebf4006","ios":"levelo://app?vid=f5a138dc-cad1-4436-ac3d-b0b90ebf4006"},"vehicle_type_id":"4","last_reported":1768385643,"current_range_meters":7200,"station_id":"ce4bhs12rcd13ifvqhvg","pricing_plan_id":"cebpf4jnsgd1na2vs0mg"},{"bike_id":"0261c6fd-283d-4283-af45-cb4a9ce5e8c4","system_id":"levelo_inurba_marseille","lat":43.2353,"lon":5.35951,"is_reserved":false,"is_disabled":false,"rental_uris":{"android":"levelo://app?vid=0261c6fd-283d-4283-af45-cb4a9ce5e8c4","ios":"levelo://app?vid=0261c6fd-283d-4283-af45-cb4a9ce5e8c4"},"vehicle_type_id":"4","last_reported":1768385643,"current_range_meters":7200,"station_id":"","pricing_plan_id":"cebpf4jnsgd1na2vs0mg"},{"bike_id":"a2c3fda5-fb1e-4329-88c2-2e7960229574","system_id":"levelo_inurba_marseille","lat":43.31203,"lon":5.40305,"is_reserved":false,"is_disabled":false,"rental_uris":{"android":"levelo://app?vid=a2c3fda5-fb1e-4329-88c2-2e7960229574","ios":"levelo://app?vid=a2c3fda5-fb1e-4329-88c2-2e7960229574"},"vehicle_type_id":"4","last_reported":1768385643,"current_range_meters":7200,"station_id":"","pricing_plan_id":"cebpf4jnsgd1na2vs0mg"},{"bike_id":"c584537b-62c7-4948-a162-60dcd0d33c4c","system_id":"levelo_inurba_marseille","lat":43.32347,"lon":5.36734,"is_reserved":false,"is_disabled":false,"rental_uris":{"android":"levelo://app?vid=c584537b-62c7-4948-a162-60dcd0d33c4c","ios":"levelo://app?vid=c584537b-62c7-4948-a162-60dcd0d33c4c"},"vehicle_type_id":"4","last_reported":1768385643,"current_range_meters":7200,"station_id":"ce4bhsh2rcd13ifvqi2g","pricing_plan_id":"cebpf4jnsgd1na2vs0mg"},{"bike_id":"f680f50c-74ae-434a-9907-5a62e8f7d3ec","system_id":"levelo_inurba_marseille","lat":43.30533,"lon":5.36699,"is_reserved":false,"is_disabled":false,"rental_uris":{"android":"levelo://app?vid=f680f50c-74ae-434a-9907-5a62e8f7d3ec","ios":"levelo://app?vid=f680f50c-74ae-434a-9907-5a62e8f7d3ec"},"vehicle_type_id":"4","last_reported":1768385643,"current_range_meters":7200,"station_id":"ce4bgrp2rcd13ifvqc9g","pricing_plan_id":"cebpf4jnsgd1na2vs0mg"},{"bike_id":"1570c673-c874-467d-9935-cb3965903422","system_id":"levelo_inurba_marseille","lat":43.27068,"lon":5.40262,"is_reserved":false,"is_disabled":false,"rental_uris":{"android":"levelo://app?vid=1570c673-c874-467d-9935-cb3965903422","ios":"levelo://app?vid=1570c673-c874-467d-9935-cb3965903422"},"vehicle_type_id":"4","last_reported":1768385643,"current_range_meters":7200,"station_id":"ce4bhk92rcd13ifvqgc0","pricing_plan_id":"cebpf4jnsgd1na2vs0mg"},{"bike_id":"2469529a-4c4f-45b7-b2ce-c4433e05b931","system_id":"levelo_inurba_marseille","lat":43.284779,"lon":5.483884,"is_reserved":false,"is_disabled":false,"rental_uris":{"android":"levelo://app?vid=2469529a-4c4f-45b7-b2ce-c4433e05b931","ios":"levelo://app?vid=2469529a-4c4f-45b7-b2ce-c4433e05b931"},"vehicle_type_id":"4","last_reported":1768385643,"current_range_meters":7200,"station_id":"st_d3svhcjqgbts73a3dn0g","pricing_plan_id":"cebpf4jnsgd1na2vs0mg"},{"bike_id":"f779cea2-2439-4f21-8a92-51321276319a","system_id":"levelo_inurba_marseille","lat":43.26817,"lon":5.40271,"is_reserved":false,"is_disabled":false,"rental_uris":{"android":"levelo://app?vid=f779cea2-2439-4f21-8a92-51321276319a","ios":"levelo://app?vid=f779cea2-2439-4f21-8a92-51321276319a"},"vehicle_type_id":"4","last_reported":1768385643,"current_range_meters":7200,"station_id":"ce501612rcd8frsf0b60","pricing_plan_id":"cebpf4jnsgd1na2vs0mg"},{"bike_id":"b0591438-4f8b-458b-95d3-396e832bb098","system_id":"levelo_inurba_marseille","lat":43.22546,"lon":5.41638,"is_reserved":false,"is_disabled":false,"rental_uris":{"android":"levelo://app?vid=b0591438-4f8b-458b-95d3-396e832bb098","ios":"levelo://app?vid=b0591438-4f8b-458b-95d3-396e832bb098"},"vehicle_type_id":"4","last_reported":1768385643,"current_range_meters":7200,"station_id":"st_d2o4gvlbi1j2169b742g","pricing_plan_id":"cebpf4jnsgd1na2vs0mg"},{"bike_id":"3628cfe9-19f5-43ff-9270-69e7b74c63cf","system_id":"levelo_inurba_marseille","lat":43.29358,"lon":5.40442,"is_reserved":false,"is_disabled":false,"rental_uris":{"android":"levelo://app?vid=3628cfe9-19f5-43ff-9270-69e7b74c63cf","ios":"levelo://app?vid=3628cfe9-19f5-43ff-9270-69e7b74c63cf"},"vehicle_type_id":"4","last_reported":1768385643,"current_range_meters":7200,"station_id":"","pricing_plan_id":"cebpf4jnsgd1na2vs0mg"},{"bike_id":"a58f59e5-c695-4724-9409-f8408af03486","system_id":"levelo_inurba_marseille","lat":43.27065,"lon":5.4228,"is_reserved":false,"is_disabled":true,"rental_uris":{"android":"levelo://app?vid=a58f59e5-c695-4724-9409-f8408af03486","ios":"levelo://app?vid=a58f59e5-c695-4724-9409-f8408af03486"},"vehicle_type_id":"4","last_reported":1768385643,"current_range_meters":7200,"station_id":"ce4bhk92rcd13ifvqgb0","pricing_plan_id":"cebpf4jnsgd1na2vs0mg"},{"bike_id":"c5ca41df-a10b-4946-8859-f377e5e5fca6","system_id":"levelo_inurba_marseille","lat":43.32526,"lon":5.41481,"is_reserved":false,"is_disabled":false,"rental_uris":{"android":"levelo://app?vid=c5ca41df-a10b-4946-8859-f377e5e5fca6","ios":"levelo://app?vid=c5ca41df-a10b-4946-8859-f377e5e5fca6"},"vehicle_type_id":"4","last_reported":1768385643,"current_range_meters":7200,"station_id":"ce4bhq12rcd13ifvqhhg","pricing_plan_id":"cebpf4jnsgd1na2vs0mg"},{"bike_id":"eff1c099-2175-4cfc-822d-368ef04ab989","system_id":"levelo_inurba_marseille","lat":43.27079,"lon":5.42317,"is_reserved":false,"is_disabled":false,"rental_uris":{"android":"levelo://app?vid=eff1c099-2175-4cfc-822d-368ef04ab989","ios":"levelo://app?vid=eff1c099-2175-4cfc-822d-368ef04ab989"},"vehicle_type_id":"4","last_reported":1768385643,"current_range_meters":8000,"station_id":"ce4bhk92rcd13ifvqgb0","pricing_plan_id":"cebpf4jnsgd1na2vs0mg"},{"bike_id":"3b88fccb-2070-42e4-8a4f-8d5ceb071e46","system_id":"levelo_inurba_marseille","lat":43.32574,"lon":5.41449,"is_reserved":false,"is_disabled":false,"rental_uris":{"android":"levelo://app?vid=3b88fccb-2070-42e4-8a4f-8d5ceb071e46","ios":"levelo://app?vid=3b88fccb-2070-42e4-8a4f-8d5ceb071e46"},"vehicle_type_id":"4","last_reported":1768385643,"current_range_meters":8000,"station_id":"","pricing_plan_id":"cebpf4jnsgd1na2vs0mg"},{"bike_id":"52b1696a-4946-4218-bad2-363e78c37719","system_id":"levelo_inurba_marseille","lat":43.30192,"lon":5.38094,"is_reserved":false,"is_disabled":false,"rental_uris":{"android":"levelo://app?vid=52b1696a-4946-4218-bad2-363e78c37719","ios":"levelo://app?vid=52b1696a-4946-4218-bad2-363e78c37719"},"vehicle_type_id":"4","last_reported":1768385643,"current_range_meters":8000,"station_id":"","pricing_plan_id":"cebpf4jnsgd1na2vs0mg"},{"bike_id":"7dd08ae0-15c1-430e-b90c-31bae0657aec","system_id":"levelo_inurba_marseille","lat":43.28396,"lon":5.35003,"is_reserved":false,"is_disabled":false,"rental_uris":{"android":"levelo://app?vid=7dd08ae0-15c1-430e-b90c-31bae0657aec","ios":"levelo://app?vid=7dd08ae0-15c1-430e-b90c-31bae0657aec"},"vehicle_type_id":"4","last_reported":1768385643,"current_range_meters":8000,"station_id":"ce4bhbh2rcd13ifvqepg","pricing_plan_id":"cebpf4jnsgd1na2vs0mg"},{"bike_id":"f7abde8f-7468-4866-b223-898f45c00d6c","system_id":"levelo_inurba_marseille","lat":43.26685,"lon":5.38242,"is_reserved":false,"is_disabled":false,"rental_uris":{"android":"levelo://app?vid=f7abde8f-7468-4866-b223-898f45c00d6c","ios":"levelo://app?vid=f7abde8f-7468-4866-b223-898f45c00d6c"},"vehicle_type_id":"4","last_reported":1768385643,"current_range_meters":8000,"station_id":"ce4bhg92rcd13ifvqf90","pricing_plan_id":"cebpf4jnsgd1na2vs0mg"},{"bike_id":"8803a6e9-67a3-479e-b849-a893754260d5","system_id":"levelo_inurba_marseille","lat":43.22928,"lon":5.35376,"is_reserved":false,"is_disabled":false,"rental_uris":{"android":"levelo://app?vid=8803a6e9-67a3-479e-b849-a893754260d5","ios":"levelo://app?vid=8803a6e9-67a3-479e-b849-a893754260d5"},"vehicle_type_id":"4","last_reported":1768385643,"current_range_meters":8000,"station_id":"cpo3532slgdg3j2ikp40","pricing_plan_id":"cebpf4jnsgd1na2vs0mg"},{"bike_id":"a95b6f12-0846-4420-87fd-d24a14a6b78d","system_id":"levelo_inurba_marseille","lat":43.26196,"lon":5.37938,"is_reserved":false,"is_disabled":false,"rental_uris":{"android":"levelo://app?vid=a95b6f12-0846-4420-87fd-d24a14a6b78d","ios":"levelo://app?vid=a95b6f12-0846-4420-87fd-d24a14a6b78d"},"vehicle_type_id":"4","last_reported":1768385643,"current_range_meters":8000,"station_id":"ce4bhjp2rcd13ifvqg90","pricing_plan_id":"cebpf4jnsgd1na2vs0mg"},{"bike_id":"2b6134c4-e044-4e14-a88c-decf59e24f4e","system_id":"levelo_inurba_marseille","lat":43.26353,"lon":5.41041,"is_reserved":false,"is_disabled":false,"rental_uris":{"android":"levelo://app?vid=2b6134c4-e044-4e14-a88c-decf59e24f4e","ios":"levelo://app?vid=2b6134c4-e044-4e14-a88c-decf59e24f4e"},"vehicle_type_id":"4","last_reported":1768385643,"current_range_meters":8000,"station_id":"st_d4e5ca6na9uc73bfl5fg","pricing_plan_id":"cebpf4jnsgd1na2vs0mg"},{"bike_id":"1157bb66-81dd-4f63-9b19-edf7537602c8","system_id":"levelo_inurba_marseille","lat":43.25568,"lon":5.38245,"is_reserved":false,"is_disabled":false,"rental_uris":{"android":"levelo://app?vid=1157bb66-81dd-4f63-9b19-edf7537602c8","ios":"levelo://app?vid=1157bb66-81dd-4f63-9b19-edf7537602c8"},"vehicle_type_id":"4","last_reported":1768385643,"current_range_meters":8000,"station_id":"ce4bhih2rcd13ifvqfs0","pricing_plan_id":"cebpf4jnsgd1na2vs0mg"},{"bike_id":"a4158126-cc64-4f65-ac5f-55229fc9a715","system_id":"levelo_inurba_marseille","lat":43.26373,"lon":5.41069,"is_reserved":false,"is_disabled":false,"rental_uris":{"android":"levelo://app?vid=a4158126-cc64-4f65-ac5f-55229fc9a715","ios":"levelo://app?vid=a4158126-cc64-4f65-ac5f-55229fc9a715"},"vehicle_type_id":"4","last_reported":1768385643,"current_range_meters":8000,"station_id":"st_d4e5ca6na9uc73bfl5fg","pricing_plan_id":"cebpf4jnsgd1na2vs0mg"},{"bike_id":"227ef7d6-f444-4878-a619-92da00bac090","system_id":"levelo_inurba_marseille","lat":43.28104,"lon":5.37845,"is_reserved":false,"is_disabled":false,"rental_uris":{"android":"levelo://app?vid=227ef7d6-f444-4878-a619-92da00bac090","ios":"levelo://app?vid=227ef7d6-f444-4878-a619-92da00bac090"},"vehicle_type_id":"4","last_reported":1768385643,"current_range_meters":8000,"station_id":"ce4bha12rcd13ifvqee0","pricing_plan_id":"cebpf4jnsgd1na2vs0mg"},{"bike_id":"c4c5a3df-e90e-4579-88a2-9cc4ceac9cd9","system_id":"levelo_inurba_marseille","lat":43.3055,"lon":5.3671,"is_reserved":false,"is_disabled":false,"rental_uris":{"android":"levelo://app?vid=c4c5a3df-e90e-4579-88a2-9cc4ceac9cd9","ios":"levelo://app?vid=c4c5a3df-e90e-4579-88a2-9cc4ceac9cd9"},"vehicle_type_id":"4","last_reported":1768385643,"current_range_meters":8400,"station_id":"ce4bgrp2rcd13ifvqc9g","pricing_plan_id":"cebpf4jnsgd1na2vs0mg"},{"bike_id":"f2049890-c572-4714-8b33-7e9fff79f626","system_id":"levelo_inurba_marseille","lat":43.26951,"lon":5.38631,"is_reserved":false,"is_disabled":false,"rental_uris":{"android":"levelo://app?vid=f2049890-c572-4714-8b33-7e9fff79f626","ios":"levelo://app?vid=f2049890-c572-4714-8b33-7e9fff79f626"},"vehicle_type_id":"4","last_reported":1768385643,"current_range_meters":8400,"station_id":"ce4bhh92rcd13ifvqfh0","pricing_plan_id":"cebpf4jnsgd1na2vs0mg"},{"bike_id":"feba94b8-89e0-43a3-bcc3-4d546088cc4d","system_id":"levelo_inurba_marseille","lat":43.29042,"lon":5.39948,"is_reserved":false,"is_disabled":false,"rental_uris":{"android":"levelo://app?vid=feba94b8-89e0-43a3-bcc3-4d546088cc4d","ios":"levelo://app?vid=feba94b8-89e0-43a3-bcc3-4d546088cc4d"},"vehicle_type_id":"4","last_reported":1768385643,"current_range_meters":8400,"station_id":"ce4bh392rcd13ifvqdm0","pricing_plan_id":"cebpf4jnsgd1na2vs0mg"},{"bike_id":"ac51e41a-d68d-43fd-8cda-0bb66198b83a","system_id":"levelo_inurba_marseille","lat":43.29076,"lon":5.37164,"is_reserved":false,"is_disabled":false,"rental_uris":{"android":"levelo://app?vid=ac51e41a-d68d-43fd-8cda-0bb66198b83a","ios":"levelo://app?vid=ac51e41a-d68d-43fd-8cda-0bb66198b83a"},"vehicle_type_id":"4","last_reported":1768385643,"current_range_meters":8400,"station_id":"ce4bh5p2rcd13ifvqe4g","pricing_plan_id":"cebpf4jnsgd1na2vs0mg"},{"bike_id":"2f317efe-a01b-468a-9036-21dfc4cc3358","system_id":"levelo_inurba_marseille","lat":43.25824,"lon":5.39435,"is_reserved":false,"is_disabled":false,"rental_uris":{"android":"levelo://app?vid=2f317efe-a01b-468a-9036-21dfc4cc3358","ios":"levelo://app?vid=2f317efe-a01b-468a-9036-21dfc4cc3358"},"vehicle_type_id":"4","last_reported":1768385643,"current_range_meters":8400,"station_id":"ce4bhip2rcd13ifvqft0","pricing_plan_id":"cebpf4jnsgd1na2vs0mg"},{"bike_id":"660f8d3d-996c-4d0c-a098-476ebc30f600","system_id":"levelo_inurba_marseille","lat":43.22558,"lon":5.41636,"is_reserved":false,"is_disabled":false,"rental_uris":{"android":"levelo://app?vid=660f8d3d-996c-4d0c-a098-476ebc30f600","ios":"levelo://app?vid=660f8d3d-996c-4d0c-a098-476ebc30f600"},"vehicle_type_id":"4","last_reported":1768385643,"current_range_meters":8400,"station_id":"st_d2o4gvlbi1j2169b742g","pricing_plan_id":"cebpf4jnsgd1na2vs0mg"},{"bike_id":"e6a4415e-66da-4886-926f-dde89eafb0da","system_id":"levelo_inurba_marseille","lat":43.265395,"lon":5.372878,"is_reserved":false,"is_disabled":false,"rental_uris":{"android":"levelo://app?vid=e6a4415e-66da-4886-926f-dde89eafb0da","ios":"levelo://app?vid=e6a4415e-66da-4886-926f-dde89eafb0da"},"vehicle_type_id":"4","last_reported":1768385643,"current_range_meters":8400,"station_id":"ce4bhg12rcd13ifvqf70","pricing_plan_id":"cebpf4jnsgd1na2vs0mg"},{"bike_id":"2c1cbf9a-b592-4076-8e79-74a89cb7989a","system_id":"levelo_inurba_marseille","lat":43.32442,"lon":5.36556,"is_reserved":false,"is_disabled":false,"rental_uris":{"android":"levelo://app?vid=2c1cbf9a-b592-4076-8e79-74a89cb7989a","ios":"levelo://app?vid=2c1cbf9a-b592-4076-8e79-74a89cb7989a"},"vehicle_type_id":"4","last_reported":1768385643,"current_range_meters":8400,"station_id":"","pricing_plan_id":"cebpf4jnsgd1na2vs0mg"},{"bike_id":"1b86cd81-805e-401a-afd6-42b63d39aa5a","system_id":"levelo_inurba_marseille","lat":43.30964,"lon":5.39044,"is_reserved":false,"is_disabled":false,"rental_uris":{"android":"levelo://app?vid=1b86cd81-805e-401a-afd6-42b63d39aa5a","ios":"levelo://app?vid=1b86cd81-805e-401a-afd6-42b63d39aa5a"},"vehicle_type_id":"4","last_reported":1768385643,"current_range_meters":8400,"station_id":"ce4bgup2rcd13ifvqco0","pricing_plan_id":"cebpf4jnsgd1na2vs0mg"},{"bike_id":"56954961-8cd4-4ceb-aa26-f09b1ffac044","system_id":"levelo_inurba_marseille","lat":43.26679,"lon":5.38289,"is_reserved":false,"is_disabled":false,"rental_uris":{"android":"levelo://app?vid=56954961-8cd4-4ceb-aa26-f09b1ffac044","ios":"levelo://app?vid=56954961-8cd4-4ceb-aa26-f09b1ffac044"},"vehicle_type_id":"4","last_reported":1768385643,"current_range_meters":8400,"station_id":"ce4bhg92rcd13ifvqf90","pricing_plan_id":"cebpf4jnsgd1na2vs0mg"},{"bike_id":"e3689fe5-a0aa-4258-8eec-13656f1f8382","system_id":"levelo_inurba_marseille","lat":43.24803,"lon":5.37458,"is_reserved":false,"is_disabled":false,"rental_uris":{"android":"levelo://app?vid=e3689fe5-a0aa-4258-8eec-13656f1f8382","ios":"levelo://app?vid=e3689fe5-a0aa-4258-8eec-13656f1f8382"},"vehicle_type_id":"4","last_reported":1768385643,"current_range_meters":8400,"station_id":"ce4bhgh2rcd13ifvqfb0","pricing_plan_id":"cebpf4jnsgd1na2vs0mg"},{"bike_id":"f27272d4-b42c-4660-aff8-11729aa104cc","system_id":"levelo_inurba_marseille","lat":43.31222,"lon":5.36861,"is_reserved":false,"is_disabled":false,"rental_uris":{"android":"levelo://app?vid=f27272d4-b42c-4660-aff8-11729aa104cc","ios":"levelo://app?vid=f27272d4-b42c-4660-aff8-11729aa104cc"},"vehicle_type_id":"4","last_reported":1768385643,"current_range_meters":8400,"station_id":"ce4bgl92rcd13ifvqbq0","pricing_plan_id":"cebpf4jnsgd1na2vs0mg"},{"bike_id":"5410fd45-b8b4-470d-9bd7-ad1acafbc363","system_id":"levelo_inurba_marseille","lat":43.28477,"lon":5.48392,"is_reserved":false,"is_disabled":false,"rental_uris":{"android":"levelo://app?vid=5410fd45-b8b4-470d-9bd7-ad1acafbc363","ios":"levelo://app?vid=5410fd45-b8b4-470d-9bd7-ad1acafbc363"},"vehicle_type_id":"4","last_reported":1768385643,"current_range_meters":8400,"station_id":"","pricing_plan_id":"cebpf4jnsgd1na2vs0mg"},{"bike_id":"326fd45d-11eb-4826-92b5-835d5b4d7fbd","system_id":"levelo_inurba_marseille","lat":43.300324,"lon":5.388794,"is_reserved":false,"is_disabled":false,"rental_uris":{"android":"levelo://app?vid=326fd45d-11eb-4826-92b5-835d5b4d7fbd","ios":"levelo://app?vid=326fd45d-11eb-4826-92b5-835d5b4d7fbd"},"vehicle_type_id":"4","last_reported":1768385643,"current_range_meters":8400,"station_id":"","pricing_plan_id":"cebpf4jnsgd1na2vs0mg"},{"bike_id":"cb91171a-b433-4d62-9e48-7aa16e13fdf7","system_id":"levelo_inurba_marseille","lat":43.29758,"lon":5.42772,"is_reserved":false,"is_disabled":false,"rental_uris":{"android":"levelo://app?vid=cb91171a-b433-4d62-9e48-7aa16e13fdf7","ios":"levelo://app?vid=cb91171a-b433-4d62-9e48-7aa16e13fdf7"},"vehicle_type_id":"4","last_reported":1768385643,"current_range_meters":8400,"station_id":"st_d3md5207bmas73dh9klg","pricing_plan_id":"cebpf4jnsgd1na2vs0mg"},{"bike_id":"73a7241a-5d0d-4819-b8b4-5f79cbbd3bb0","system_id":"levelo_inurba_marseille","lat":43.28851,"lon":5.39319,"is_reserved":false,"is_disabled":false,"rental_uris":{"android":"levelo://app?vid=73a7241a-5d0d-4819-b8b4-5f79cbbd3bb0","ios":"levelo://app?vid=73a7241a-5d0d-4819-b8b4-5f79cbbd3bb0"},"vehicle_type_id":"4","last_reported":1768385643,"current_range_meters":8400,"station_id":"ce4bh2p2rcd13ifvqdi0","pricing_plan_id":"cebpf4jnsgd1na2vs0mg"},{"bike_id":"7757c024-8de5-4d60-ba36-3581873ca4bd","system_id":"levelo_inurba_marseille","lat":43.29275,"lon":5.38439,"is_reserved":false,"is_disabled":true,"rental_uris":{"android":"levelo://app?vid=7757c024-8de5-4d60-ba36-3581873ca4bd","ios":"levelo://app?vid=7757c024-8de5-4d60-ba36-3581873ca4bd"},"vehicle_type_id":"4","last_reported":1768385643,"current_range_meters":8400,"station_id":"ce4bh692rcd13ifvqea0","pricing_plan_id":"cebpf4jnsgd1na2vs0mg"},{"bike_id":"10a8b439-3518-4251-8041-5d71e3d761fd","system_id":"levelo_inurba_marseille","lat":43.292625,"lon":5.409,"is_reserved":false,"is_disabled":false,"rental_uris":{"android":"levelo://app?vid=10a8b439-3518-4251-8041-5d71e3d761fd","ios":"levelo://app?vid=10a8b439-3518-4251-8041-5d71e3d761fd"},"vehicle_type_id":"4","last_reported":1768385643,"current_range_meters":8400,"station_id":"ce4bh192rcd13ifvqdc0","pricing_plan_id":"cebpf4jnsgd1na2vs0mg"},{"bike_id":"7c4a0af7-a805-41fd-804c-ea59757b4ed1","system_id":"levelo_inurba_marseille","lat":43.28868,"lon":5.42512,"is_reserved":false,"is_disabled":false,"rental_uris":{"android":"levelo://app?vid=7c4a0af7-a805-41fd-804c-ea59757b4ed1","ios":"levelo://app?vid=7c4a0af7-a805-41fd-804c-ea59757b4ed1"},"vehicle_type_id":"4","last_reported":1768385643,"current_range_meters":8400,"station_id":"st_d3b462108ojc7389ooeg","pricing_plan_id":"cebpf4jnsgd1na2vs0mg"},{"bike_id":"a45f187f-4ab2-403a-85d2-aa48ef73c203","system_id":"levelo_inurba_marseille","lat":43.30567,"lon":5.37239,"is_reserved":false,"is_disabled":false,"rental_uris":{"android":"levelo://app?vid=a45f187f-4ab2-403a-85d2-aa48ef73c203","ios":"levelo://app?vid=a45f187f-4ab2-403a-85d2-aa48ef73c203"},"vehicle_type_id":"4","last_reported":1768385643,"current_range_meters":8400,"station_id":"ce4bgqh2rcd13ifvqc4g","pricing_plan_id":"cebpf4jnsgd1na2vs0mg"},{"bike_id":"091c8081-61de-43ac-bb2c-74077a5d4149","system_id":"levelo_inurba_marseille","lat":43.22547,"lon":5.41619,"is_reserved":false,"is_disabled":false,"rental_uris":{"android":"levelo://app?vid=091c8081-61de-43ac-bb2c-74077a5d4149","ios":"levelo://app?vid=091c8081-61de-43ac-bb2c-74077a5d4149"},"vehicle_type_id":"4","last_reported":1768385643,"current_range_meters":8400,"station_id":"st_d2o4gvlbi1j2169b742g","pricing_plan_id":"cebpf4jnsgd1na2vs0mg"},{"bike_id":"204ac4ab-e203-4329-9ff0-720626e1f908","system_id":"levelo_inurba_marseille","lat":43.270658,"lon":5.383118,"is_reserved":false,"is_disabled":true,"rental_uris":{"android":"levelo://app?vid=204ac4ab-e203-4329-9ff0-720626e1f908","ios":"levelo://app?vid=204ac4ab-e203-4329-9ff0-720626e1f908"},"vehicle_type_id":"4","last_reported":1768385643,"current_range_meters":8400,"station_id":"st_d3n2fo6cfp8s73cte1j0","pricing_plan_id":"cebpf4jnsgd1na2vs0mg"},{"bike_id":"d822d21f-2a31-408a-b00b-b3387695630b","system_id":"levelo_inurba_marseille","lat":43.2119,"lon":5.3508,"is_reserved":false,"is_disabled":false,"rental_uris":{"android":"levelo://app?vid=d822d21f-2a31-408a-b00b-b3387695630b","ios":"levelo://app?vid=d822d21f-2a31-408a-b00b-b3387695630b"},"vehicle_type_id":"4","last_reported":1768385643,"current_range_meters":8400,"station_id":"st_cvj6sg6p6f1abm77japg","pricing_plan_id":"cebpf4jnsgd1na2vs0mg"},{"bike_id":"7b6dccec-5abb-4dad-9197-7a7032cf29ed","system_id":"levelo_inurba_marseille","lat":43.29053,"lon":5.37162,"is_reserved":false,"is_disabled":false,"rental_uris":{"android":"levelo://app?vid=7b6dccec-5abb-4dad-9197-7a7032cf29ed","ios":"levelo://app?vid=7b6dccec-5abb-4dad-9197-7a7032cf29ed"},"vehicle_type_id":"4","last_reported":1768385643,"current_range_meters":8400,"station_id":"ce4bh5p2rcd13ifvqe4g","pricing_plan_id":"cebpf4jnsgd1na2vs0mg"},{"bike_id":"037a0099-1ded-43c7-8e30-7e3e2a0dc4bc","system_id":"levelo_inurba_marseille","lat":43.24947,"lon":5.40498,"is_reserved":false,"is_disabled":false,"rental_uris":{"android":"levelo://app?vid=037a0099-1ded-43c7-8e30-7e3e2a0dc4bc","ios":"levelo://app?vid=037a0099-1ded-43c7-8e30-7e3e2a0dc4bc"},"vehicle_type_id":"4","last_reported":1768385643,"current_range_meters":8400,"station_id":"st_d2ngiaodas8pm72gd1h0","pricing_plan_id":"cebpf4jnsgd1na2vs0mg"},{"bike_id":"e132dfde-773d-467b-b281-4eeb31a6b007","system_id":"levelo_inurba_marseille","lat":43.24812,"lon":5.37454,"is_reserved":false,"is_disabled":false,"rental_uris":{"android":"levelo://app?vid=e132dfde-773d-467b-b281-4eeb31a6b007","ios":"levelo://app?vid=e132dfde-773d-467b-b281-4eeb31a6b007"},"vehicle_type_id":"4","last_reported":1768385643,"current_range_meters":8800,"station_id":"ce4bhgh2rcd13ifvqfb0","pricing_plan_id":"cebpf4jnsgd1na2vs0mg"},{"bike_id":"54328619-cff2-4dca-bb9d-3f5f45c6b8d8","system_id":"levelo_inurba_marseille","lat":43.27205,"lon":5.39195,"is_reserved":false,"is_disabled":false,"rental_uris":{"android":"levelo://app?vid=54328619-cff2-4dca-bb9d-3f5f45c6b8d8","ios":"levelo://app?vid=54328619-cff2-4dca-bb9d-3f5f45c6b8d8"},"vehicle_type_id":"4","last_reported":1768385643,"current_range_meters":8800,"station_id":"ce4bhhp2rcd13ifvqfm0","pricing_plan_id":"cebpf4jnsgd1na2vs0mg"},{"bike_id":"e9bd1159-2018-4eed-bf77-f80aa638842c","system_id":"levelo_inurba_marseille","lat":43.29841,"lon":5.36266,"is_reserved":false,"is_disabled":false,"rental_uris":{"android":"levelo://app?vid=e9bd1159-2018-4eed-bf77-f80aa638842c","ios":"levelo://app?vid=e9bd1159-2018-4eed-bf77-f80aa638842c"},"vehicle_type_id":"4","last_reported":1768385643,"current_range_meters":8800,"station_id":"ce4bgpp2rcd13ifvqc3g","pricing_plan_id":"cebpf4jnsgd1na2vs0mg"},{"bike_id":"c75b139b-6977-457c-8fab-86c172554976","system_id":"levelo_inurba_marseille","lat":43.25097,"lon":5.40492,"is_reserved":false,"is_disabled":false,"rental_uris":{"android":"levelo://app?vid=c75b139b-6977-457c-8fab-86c172554976","ios":"levelo://app?vid=c75b139b-6977-457c-8fab-86c172554976"},"vehicle_type_id":"4","last_reported":1768385643,"current_range_meters":8800,"station_id":"","pricing_plan_id":"cebpf4jnsgd1na2vs0mg"},{"bike_id":"7aebede3-29e7-422e-9949-e6406848b636","system_id":"levelo_inurba_marseille","lat":43.25097,"lon":5.40342,"is_reserved":false,"is_disabled":false,"rental_uris":{"android":"levelo://app?vid=7aebede3-29e7-422e-9949-e6406848b636","ios":"levelo://app?vid=7aebede3-29e7-422e-9949-e6406848b636"},"vehicle_type_id":"4","last_reported":1768385643,"current_range_meters":8800,"station_id":"ce4bhlh2rcd13ifvqgig","pricing_plan_id":"cebpf4jnsgd1na2vs0mg"},{"bike_id":"5b09bda2-27b8-404f-b1ea-ff8b174b2601","system_id":"levelo_inurba_marseille","lat":43.25106,"lon":5.40324,"is_reserved":false,"is_disabled":false,"rental_uris":{"android":"levelo://app?vid=5b09bda2-27b8-404f-b1ea-ff8b174b2601","ios":"levelo://app?vid=5b09bda2-27b8-404f-b1ea-ff8b174b2601"},"vehicle_type_id":"4","last_reported":1768385643,"current_range_meters":8800,"station_id":"ce4bhlh2rcd13ifvqgig","pricing_plan_id":"cebpf4jnsgd1na2vs0mg"},{"bike_id":"2a5bc01f-8c89-4919-bd8a-e9e6b8dbad74","system_id":"levelo_inurba_marseille","lat":43.263116,"lon":5.397834,"is_reserved":false,"is_disabled":false,"rental_uris":{"android":"levelo://app?vid=2a5bc01f-8c89-4919-bd8a-e9e6b8dbad74","ios":"levelo://app?vid=2a5bc01f-8c89-4919-bd8a-e9e6b8dbad74"},"vehicle_type_id":"4","last_reported":1768385643,"current_range_meters":8800,"station_id":"","pricing_plan_id":"cebpf4jnsgd1na2vs0mg"},{"bike_id":"52dc7a23-02b1-49ea-88fe-a1d65ef8f548","system_id":"levelo_inurba_marseille","lat":43.22929,"lon":5.35386,"is_reserved":false,"is_disabled":false,"rental_uris":{"android":"levelo://app?vid=52dc7a23-02b1-49ea-88fe-a1d65ef8f548","ios":"levelo://app?vid=52dc7a23-02b1-49ea-88fe-a1d65ef8f548"},"vehicle_type_id":"4","last_reported":1768385643,"current_range_meters":8800,"station_id":"cpo3532slgdg3j2ikp40","pricing_plan_id":"cebpf4jnsgd1na2vs0mg"},{"bike_id":"f1177697-24b8-4122-96be-92006a04ddc7","system_id":"levelo_inurba_marseille","lat":43.27807,"lon":5.40718,"is_reserved":false,"is_disabled":false,"rental_uris":{"android":"levelo://app?vid=f1177697-24b8-4122-96be-92006a04ddc7","ios":"levelo://app?vid=f1177697-24b8-4122-96be-92006a04ddc7"},"vehicle_type_id":"4","last_reported":1768385643,"current_range_meters":8800,"station_id":"ce4bhnh2rcd13ifvqgtg","pricing_plan_id":"cebpf4jnsgd1na2vs0mg"},{"bike_id":"80005d5d-6f7e-40ec-a003-9995e83c7ab8","system_id":"levelo_inurba_marseille","lat":43.23959,"lon":5.36643,"is_reserved":false,"is_disabled":false,"rental_uris":{"android":"levelo://app?vid=80005d5d-6f7e-40ec-a003-9995e83c7ab8","ios":"levelo://app?vid=80005d5d-6f7e-40ec-a003-9995e83c7ab8"},"vehicle_type_id":"4","last_reported":1768385643,"current_range_meters":8800,"station_id":"ce4bhi12rcd13ifvqfp0","pricing_plan_id":"cebpf4jnsgd1na2vs0mg"},{"bike_id":"7fa2aa3b-290f-497a-8a4a-d30fc43d2d85","system_id":"levelo_inurba_marseille","lat":43.2455,"lon":5.38014,"is_reserved":false,"is_disabled":false,"rental_uris":{"android":"levelo://app?vid=7fa2aa3b-290f-497a-8a4a-d30fc43d2d85","ios":"levelo://app?vid=7fa2aa3b-290f-497a-8a4a-d30fc43d2d85"},"vehicle_type_id":"4","last_reported":1768385643,"current_range_meters":8800,"station_id":"","pricing_plan_id":"cebpf4jnsgd1na2vs0mg"},{"bike_id":"86aaef4b-aac1-4248-ac79-0d9f37b8c62f","system_id":"levelo_inurba_marseille","lat":43.27317,"lon":5.41682,"is_reserved":false,"is_disabled":false,"rental_uris":{"android":"levelo://app?vid=86aaef4b-aac1-4248-ac79-0d9f37b8c62f","ios":"levelo://app?vid=86aaef4b-aac1-4248-ac79-0d9f37b8c62f"},"vehicle_type_id":"4","last_reported":1768385643,"current_range_meters":8800,"station_id":"","pricing_plan_id":"cebpf4jnsgd1na2vs0mg"},{"bike_id":"a293b5ac-cc9d-4eaf-9c82-287a9bc7812d","system_id":"levelo_inurba_marseille","lat":43.28946,"lon":5.38844,"is_reserved":false,"is_disabled":false,"rental_uris":{"android":"levelo://app?vid=a293b5ac-cc9d-4eaf-9c82-287a9bc7812d","ios":"levelo://app?vid=a293b5ac-cc9d-4eaf-9c82-287a9bc7812d"},"vehicle_type_id":"4","last_reported":1768385643,"current_range_meters":8800,"station_id":"","pricing_plan_id":"cebpf4jnsgd1na2vs0mg"},{"bike_id":"396fbd50-99cc-4598-ada2-23bb3a56180e","system_id":"levelo_inurba_marseille","lat":43.250045,"lon":5.389159,"is_reserved":false,"is_disabled":true,"rental_uris":{"android":"levelo://app?vid=396fbd50-99cc-4598-ada2-23bb3a56180e","ios":"levelo://app?vid=396fbd50-99cc-4598-ada2-23bb3a56180e"},"vehicle_type_id":"4","last_reported":1768385643,"current_range_meters":8800,"station_id":"ce4bhgp2rcd13ifvqfd0","pricing_plan_id":"cebpf4jnsgd1na2vs0mg"},{"bike_id":"55194f29-42dd-4454-96b2-a5d4401446b6","system_id":"levelo_inurba_marseille","lat":43.29938,"lon":5.42749,"is_reserved":false,"is_disabled":false,"rental_uris":{"android":"levelo://app?vid=55194f29-42dd-4454-96b2-a5d4401446b6","ios":"levelo://app?vid=55194f29-42dd-4454-96b2-a5d4401446b6"},"vehicle_type_id":"4","last_reported":1768385643,"current_range_meters":8800,"station_id":"","pricing_plan_id":"cebpf4jnsgd1na2vs0mg"},{"bike_id":"ae1d99b1-82a1-460d-bd96-dc1d194fe893","system_id":"levelo_inurba_marseille","lat":43.29823,"lon":5.37648,"is_reserved":false,"is_disabled":false,"rental_uris":{"android":"levelo://app?vid=ae1d99b1-82a1-460d-bd96-dc1d194fe893","ios":"levelo://app?vid=ae1d99b1-82a1-460d-bd96-dc1d194fe893"},"vehicle_type_id":"4","last_reported":1768385643,"current_range_meters":8800,"station_id":"","pricing_plan_id":"cebpf4jnsgd1na2vs0mg"},{"bike_id":"c81b7509-5dd7-4492-9100-68af9d411ee1","system_id":"levelo_inurba_marseille","lat":43.29164,"lon":5.40241,"is_reserved":false,"is_disabled":false,"rental_uris":{"android":"levelo://app?vid=c81b7509-5dd7-4492-9100-68af9d411ee1","ios":"levelo://app?vid=c81b7509-5dd7-4492-9100-68af9d411ee1"},"vehicle_type_id":"4","last_reported":1768385643,"current_range_meters":8800,"station_id":"","pricing_plan_id":"cebpf4jnsgd1na2vs0mg"},{"bike_id":"4883c970-634b-4de4-9e21-df47a68eb757","system_id":"levelo_inurba_marseille","lat":43.28482,"lon":5.48394,"is_reserved":false,"is_disabled":false,"rental_uris":{"android":"levelo://app?vid=4883c970-634b-4de4-9e21-df47a68eb757","ios":"levelo://app?vid=4883c970-634b-4de4-9e21-df47a68eb757"},"vehicle_type_id":"4","last_reported":1768385643,"current_range_meters":8800,"station_id":"st_d3svhcjqgbts73a3dn0g","pricing_plan_id":"cebpf4jnsgd1na2vs0mg"},{"bike_id":"b4112837-76e8-4e23-9737-316144e3c090","system_id":"levelo_inurba_marseille","lat":43.29965,"lon":5.38501,"is_reserved":false,"is_disabled":true,"rental_uris":{"android":"levelo://app?vid=b4112837-76e8-4e23-9737-316144e3c090","ios":"levelo://app?vid=b4112837-76e8-4e23-9737-316144e3c090"},"vehicle_type_id":"4","last_reported":1768385643,"current_range_meters":8800,"station_id":"ce4bgj92rcd13ifvqbd0","pricing_plan_id":"cebpf4jnsgd1na2vs0mg"},{"bike_id":"aea31f42-7f60-48f8-9671-846ca1dee58e","system_id":"levelo_inurba_marseille","lat":43.24405,"lon":5.37037,"is_reserved":false,"is_disabled":false,"rental_uris":{"android":"levelo://app?vid=aea31f42-7f60-48f8-9671-846ca1dee58e","ios":"levelo://app?vid=aea31f42-7f60-48f8-9671-846ca1dee58e"},"vehicle_type_id":"4","last_reported":1768385643,"current_range_meters":8800,"station_id":"ce4bhhh2rcd13ifvqfk0","pricing_plan_id":"cebpf4jnsgd1na2vs0mg"},{"bike_id":"a17e8d5f-3b35-487b-a91b-1f29ad7b4c5b","system_id":"levelo_inurba_marseille","lat":43.24946,"lon":5.40503,"is_reserved":false,"is_disabled":false,"rental_uris":{"android":"levelo://app?vid=a17e8d5f-3b35-487b-a91b-1f29ad7b4c5b","ios":"levelo://app?vid=a17e8d5f-3b35-487b-a91b-1f29ad7b4c5b"},"vehicle_type_id":"4","last_reported":1768385643,"current_range_meters":8800,"station_id":"st_d2ngiaodas8pm72gd1h0","pricing_plan_id":"cebpf4jnsgd1na2vs0mg"},{"bike_id":"0225d6f9-8fa4-4312-b36f-2519c9fc71b6","system_id":"levelo_inurba_marseille","lat":43.3135,"lon":5.36726,"is_reserved":false,"is_disabled":false,"rental_uris":{"android":"levelo://app?vid=0225d6f9-8fa4-4312-b36f-2519c9fc71b6","ios":"levelo://app?vid=0225d6f9-8fa4-4312-b36f-2519c9fc71b6"},"vehicle_type_id":"4","last_reported":1768385643,"current_range_meters":8800,"station_id":"ce4bgr92rcd13ifvqc6g","pricing_plan_id":"cebpf4jnsgd1na2vs0mg"},{"bike_id":"6b5ad948-3184-49f0-819d-831c6c664a72","system_id":"levelo_inurba_marseille","lat":43.24529,"lon":5.39543,"is_reserved":false,"is_disabled":false,"rental_uris":{"android":"levelo://app?vid=6b5ad948-3184-49f0-819d-831c6c664a72","ios":"levelo://app?vid=6b5ad948-3184-49f0-819d-831c6c664a72"},"vehicle_type_id":"4","last_reported":1768385643,"current_range_meters":8800,"station_id":"ce4bhlp2rcd13ifvqgjg","pricing_plan_id":"cebpf4jnsgd1na2vs0mg"},{"bike_id":"634a5032-07c2-4ad0-b886-0e21c013fdce","system_id":"levelo_inurba_marseille","lat":43.25552,"lon":5.38274,"is_reserved":false,"is_disabled":false,"rental_uris":{"android":"levelo://app?vid=634a5032-07c2-4ad0-b886-0e21c013fdce","ios":"levelo://app?vid=634a5032-07c2-4ad0-b886-0e21c013fdce"},"vehicle_type_id":"4","last_reported":1768385643,"current_range_meters":9200,"station_id":"ce4bhih2rcd13ifvqfs0","pricing_plan_id":"cebpf4jnsgd1na2vs0mg"},{"bike_id":"1d4a4fad-6302-435f-a955-d4f4ff25438d","system_id":"levelo_inurba_marseille","lat":43.26818,"lon":5.39435,"is_reserved":false,"is_disabled":false,"rental_uris":{"android":"levelo://app?vid=1d4a4fad-6302-435f-a955-d4f4ff25438d","ios":"levelo://app?vid=1d4a4fad-6302-435f-a955-d4f4ff25438d"},"vehicle_type_id":"4","last_reported":1768385643,"current_range_meters":9200,"station_id":"ce4bhh12rcd13ifvqfg0","pricing_plan_id":"cebpf4jnsgd1na2vs0mg"},{"bike_id":"984953dd-4d3f-44ad-bb8d-cee2582bab23","system_id":"levelo_inurba_marseille","lat":43.27799,"lon":5.40746,"is_reserved":false,"is_disabled":false,"rental_uris":{"android":"levelo://app?vid=984953dd-4d3f-44ad-bb8d-cee2582bab23","ios":"levelo://app?vid=984953dd-4d3f-44ad-bb8d-cee2582bab23"},"vehicle_type_id":"4","last_reported":1768385643,"current_range_meters":9200,"station_id":"ce4bhnh2rcd13ifvqgtg","pricing_plan_id":"cebpf4jnsgd1na2vs0mg"},{"bike_id":"0018a145-5229-40b3-8721-56b2cedfd3d6","system_id":"levelo_inurba_marseille","lat":43.31359,"lon":5.39692,"is_reserved":false,"is_disabled":false,"rental_uris":{"android":"levelo://app?vid=0018a145-5229-40b3-8721-56b2cedfd3d6","ios":"levelo://app?vid=0018a145-5229-40b3-8721-56b2cedfd3d6"},"vehicle_type_id":"4","last_reported":1768385643,"current_range_meters":9200,"station_id":"ce4bgvp2rcd13ifvqcu0","pricing_plan_id":"cebpf4jnsgd1na2vs0mg"},{"bike_id":"c94218d2-35c2-4dd5-858d-b2911f9cafee","system_id":"levelo_inurba_marseille","lat":43.28912,"lon":5.42552,"is_reserved":false,"is_disabled":false,"rental_uris":{"android":"levelo://app?vid=c94218d2-35c2-4dd5-858d-b2911f9cafee","ios":"levelo://app?vid=c94218d2-35c2-4dd5-858d-b2911f9cafee"},"vehicle_type_id":"4","last_reported":1768385643,"current_range_meters":9200,"station_id":"","pricing_plan_id":"cebpf4jnsgd1na2vs0mg"},{"bike_id":"d0e40ea6-9eb6-4676-9203-e916f010a466","system_id":"levelo_inurba_marseille","lat":43.33022,"lon":5.39039,"is_reserved":false,"is_disabled":false,"rental_uris":{"android":"levelo://app?vid=d0e40ea6-9eb6-4676-9203-e916f010a466","ios":"levelo://app?vid=d0e40ea6-9eb6-4676-9203-e916f010a466"},"vehicle_type_id":"4","last_reported":1768385643,"current_range_meters":9200,"station_id":"ce4bhr92rcd13ifvqhrg","pricing_plan_id":"cebpf4jnsgd1na2vs0mg"},{"bike_id":"a0ed72f1-dc59-432b-8e70-da903904b93f","system_id":"levelo_inurba_marseille","lat":43.27066,"lon":5.423,"is_reserved":false,"is_disabled":false,"rental_uris":{"android":"levelo://app?vid=a0ed72f1-dc59-432b-8e70-da903904b93f","ios":"levelo://app?vid=a0ed72f1-dc59-432b-8e70-da903904b93f"},"vehicle_type_id":"4","last_reported":1768385643,"current_range_meters":9200,"station_id":"ce4bhk92rcd13ifvqgb0","pricing_plan_id":"cebpf4jnsgd1na2vs0mg"},{"bike_id":"aac02660-451c-4466-97cc-03bd6873da26","system_id":"levelo_inurba_marseille","lat":43.24783,"lon":5.37456,"is_reserved":false,"is_disabled":false,"rental_uris":{"android":"levelo://app?vid=aac02660-451c-4466-97cc-03bd6873da26","ios":"levelo://app?vid=aac02660-451c-4466-97cc-03bd6873da26"},"vehicle_type_id":"4","last_reported":1768385643,"current_range_meters":9200,"station_id":"ce4bhgh2rcd13ifvqfb0","pricing_plan_id":"cebpf4jnsgd1na2vs0mg"},{"bike_id":"94fda9cc-3b41-4322-91d7-bd5100cdaf9f","system_id":"levelo_inurba_marseille","lat":43.31181,"lon":5.38725,"is_reserved":false,"is_disabled":false,"rental_uris":{"android":"levelo://app?vid=94fda9cc-3b41-4322-91d7-bd5100cdaf9f","ios":"levelo://app?vid=94fda9cc-3b41-4322-91d7-bd5100cdaf9f"},"vehicle_type_id":"4","last_reported":1768385643,"current_range_meters":9200,"station_id":"ce4bgv12rcd13ifvqcp0","pricing_plan_id":"cebpf4jnsgd1na2vs0mg"},{"bike_id":"4a0910bc-2cb8-4117-a88f-aa517b88b474","system_id":"levelo_inurba_marseille","lat":43.34422,"lon":5.39984,"is_reserved":false,"is_disabled":false,"rental_uris":{"android":"levelo://app?vid=4a0910bc-2cb8-4117-a88f-aa517b88b474","ios":"levelo://app?vid=4a0910bc-2cb8-4117-a88f-aa517b88b474"},"vehicle_type_id":"4","last_reported":1768385643,"current_range_meters":9200,"station_id":"","pricing_plan_id":"cebpf4jnsgd1na2vs0mg"},{"bike_id":"32a6fb2e-0d07-41f5-98d9-49c5a72b9745","system_id":"levelo_inurba_marseille","lat":43.258321,"lon":5.394302,"is_reserved":false,"is_disabled":false,"rental_uris":{"android":"levelo://app?vid=32a6fb2e-0d07-41f5-98d9-49c5a72b9745","ios":"levelo://app?vid=32a6fb2e-0d07-41f5-98d9-49c5a72b9745"},"vehicle_type_id":"4","last_reported":1768385643,"current_range_meters":9200,"station_id":"ce4bhip2rcd13ifvqft0","pricing_plan_id":"cebpf4jnsgd1na2vs0mg"},{"bike_id":"a96f45c6-ae2a-4863-b3e8-7567bc1a9fb0","system_id":"levelo_inurba_marseille","lat":43.245439,"lon":5.39527,"is_reserved":false,"is_disabled":false,"rental_uris":{"android":"levelo://app?vid=a96f45c6-ae2a-4863-b3e8-7567bc1a9fb0","ios":"levelo://app?vid=a96f45c6-ae2a-4863-b3e8-7567bc1a9fb0"},"vehicle_type_id":"4","last_reported":1768385643,"current_range_meters":9200,"station_id":"ce4bhlp2rcd13ifvqgjg","pricing_plan_id":"cebpf4jnsgd1na2vs0mg"},{"bike_id":"3282f013-4910-4cfd-b02f-fcc3dfe1951a","system_id":"levelo_inurba_marseille","lat":43.29295,"lon":5.37447,"is_reserved":false,"is_disabled":false,"rental_uris":{"android":"levelo://app?vid=3282f013-4910-4cfd-b02f-fcc3dfe1951a","ios":"levelo://app?vid=3282f013-4910-4cfd-b02f-fcc3dfe1951a"},"vehicle_type_id":"4","last_reported":1768385643,"current_range_meters":9200,"station_id":"ce4bgi12rcd13ifvqb70","pricing_plan_id":"cebpf4jnsgd1na2vs0mg"},{"bike_id":"774ca479-5bb9-49b9-8ea6-99c5cf896279","system_id":"levelo_inurba_marseille","lat":43.24623,"lon":5.4318,"is_reserved":false,"is_disabled":false,"rental_uris":{"android":"levelo://app?vid=774ca479-5bb9-49b9-8ea6-99c5cf896279","ios":"levelo://app?vid=774ca479-5bb9-49b9-8ea6-99c5cf896279"},"vehicle_type_id":"4","last_reported":1768385643,"current_range_meters":9200,"station_id":"st_d2m6c4gdas8pm72e190g","pricing_plan_id":"cebpf4jnsgd1na2vs0mg"},{"bike_id":"c08f6702-3ab0-4bca-8f12-dcb31e6ffd5c","system_id":"levelo_inurba_marseille","lat":43.24809,"lon":5.3746,"is_reserved":false,"is_disabled":false,"rental_uris":{"android":"levelo://app?vid=c08f6702-3ab0-4bca-8f12-dcb31e6ffd5c","ios":"levelo://app?vid=c08f6702-3ab0-4bca-8f12-dcb31e6ffd5c"},"vehicle_type_id":"4","last_reported":1768385643,"current_range_meters":9200,"station_id":"ce4bhgh2rcd13ifvqfb0","pricing_plan_id":"cebpf4jnsgd1na2vs0mg"},{"bike_id":"96056386-d9a6-4636-bb5c-976733254508","system_id":"levelo_inurba_marseille","lat":43.2119,"lon":5.3508,"is_reserved":false,"is_disabled":false,"rental_uris":{"android":"levelo://app?vid=96056386-d9a6-4636-bb5c-976733254508","ios":"levelo://app?vid=96056386-d9a6-4636-bb5c-976733254508"},"vehicle_type_id":"4","last_reported":1768385643,"current_range_meters":9200,"station_id":"","pricing_plan_id":"cebpf4jnsgd1na2vs0mg"},{"bike_id":"2a044ece-cf3d-497b-a63b-6d8dfeb04393","system_id":"levelo_inurba_marseille","lat":43.299,"lon":5.4366,"is_reserved":false,"is_disabled":false,"rental_uris":{"android":"levelo://app?vid=2a044ece-cf3d-497b-a63b-6d8dfeb04393","ios":"levelo://app?vid=2a044ece-cf3d-497b-a63b-6d8dfeb04393"},"vehicle_type_id":"4","last_reported":1768385643,"current_range_meters":9200,"station_id":"ce4bhpp2rcd13ifvqhfg","pricing_plan_id":"cebpf4jnsgd1na2vs0mg"},{"bike_id":"03e9f015-73ba-4c3e-a345-a62206b593d1","system_id":"levelo_inurba_marseille","lat":43.32458,"lon":5.36588,"is_reserved":false,"is_disabled":false,"rental_uris":{"android":"levelo://app?vid=03e9f015-73ba-4c3e-a345-a62206b593d1","ios":"levelo://app?vid=03e9f015-73ba-4c3e-a345-a62206b593d1"},"vehicle_type_id":"4","last_reported":1768385643,"current_range_meters":9600,"station_id":"ce4bhs12rcd13ifvqhvg","pricing_plan_id":"cebpf4jnsgd1na2vs0mg"},{"bike_id":"79376015-3122-4808-a82b-adae5ce6e9d3","system_id":"levelo_inurba_marseille","lat":43.2619,"lon":5.37948,"is_reserved":false,"is_disabled":false,"rental_uris":{"android":"levelo://app?vid=79376015-3122-4808-a82b-adae5ce6e9d3","ios":"levelo://app?vid=79376015-3122-4808-a82b-adae5ce6e9d3"},"vehicle_type_id":"4","last_reported":1768385643,"current_range_meters":9600,"station_id":"ce4bhjp2rcd13ifvqg90","pricing_plan_id":"cebpf4jnsgd1na2vs0mg"},{"bike_id":"1f78a8d9-6bf6-4e4b-a2ec-bb9a4d25bf38","system_id":"levelo_inurba_marseille","lat":43.30128,"lon":5.37431,"is_reserved":false,"is_disabled":false,"rental_uris":{"android":"levelo://app?vid=1f78a8d9-6bf6-4e4b-a2ec-bb9a4d25bf38","ios":"levelo://app?vid=1f78a8d9-6bf6-4e4b-a2ec-bb9a4d25bf38"},"vehicle_type_id":"4","last_reported":1768385643,"current_range_meters":9600,"station_id":"ce4bgs92rcd13ifvqcc0","pricing_plan_id":"cebpf4jnsgd1na2vs0mg"},{"bike_id":"dfef29dc-2d4d-46b6-a9c1-7904609250fe","system_id":"levelo_inurba_marseille","lat":43.30394,"lon":5.38945,"is_reserved":false,"is_disabled":false,"rental_uris":{"android":"levelo://app?vid=dfef29dc-2d4d-46b6-a9c1-7904609250fe","ios":"levelo://app?vid=dfef29dc-2d4d-46b6-a9c1-7904609250fe"},"vehicle_type_id":"4","last_reported":1768385643,"current_range_meters":9600,"station_id":"","pricing_plan_id":"cebpf4jnsgd1na2vs0mg"},{"bike_id":"76971c30-a8f6-4a00-b030-b14396b1d766","system_id":"levelo_inurba_marseille","lat":43.28468,"lon":5.38431,"is_reserved":false,"is_disabled":false,"rental_uris":{"android":"levelo://app?vid=76971c30-a8f6-4a00-b030-b14396b1d766","ios":"levelo://app?vid=76971c30-a8f6-4a00-b030-b14396b1d766"},