{"last_updated":1702296818,"ttl":30,"version":"2.2","data":{"bikes":[{"bike_id":"bc58274e-d2d6-448d-ac09-facbdfbc86e7","system_id":"levelo_inurba_marseille","lat":43.31341,"lon":5.367098,"is_reserved":false,"is_disabled":false,"rental_uris":{"android":"levelo://app?vid=bc58274e-d2d6-448d-ac09-facbdfbc86e7","ios":"levelo://app?vid=bc58274e-d2d6-448d-ac09-facbdfbc86e7"},"vehicle_type_id":"4","last_reported":1702296818,"current_range_meters":18000,"station_id":"ce4bgr92rcd13ifvqc6g","pricing_plan_id":"free"},{"bike_id":"8dead90f-577d-4d9f-9331-28e8ecb446e2","system_id":"levelo_inurba_marseille","lat":43.31341,"lon":5.367098,"is_reserved":false,"is_disabled":false,"rental_uris":{"android":"levelo://app?vid=8dead90f-577d-4d9f-9331-28e8ecb446e2","ios":"levelo://app?vid=8dead90f-577d-4d9f-9331-28e8ecb446e2"},"vehicle_type_id":"4","last_reported":1702296818,"current_range_meters":18000,"station_id":"ce4bgr92rcd13ifvqc6g","pricing_plan_id":"free"},{"bike_id":"055d2ef5-9139-4356-9d69-cd322234ae4b","system_id":"levelo_inurba_marseille","lat":43.31341,"lon":5.367098,"is_reserved":false,"is_disabled":false,"rental_uris":{"android":"levelo://app?vid=055d2ef5-9139-4356-9d69-cd322234ae4b","ios":"levelo://app?vid=055d2ef5-9139-4356-9d69-cd322234ae4b"},"vehicle_type_id":"4","last_reported":1702296818,"current_range_meters":20400,"station_id":"ce4bgr92rcd13ifvqc6g","pricing_plan_id":"free"},{"bike_id":"61de2556-4f76-45ce-86f1-95e4f2b347e2","system_id":"levelo_inurba_marseille","lat":43.312239,"lon":5.368562,"is_reserved":false,"is_disabled":false,"rental_uris":{"android":"levelo://app?vid=61de2556-4f76-45ce-86f1-95e4f2b347e2","ios":"levelo://app?vid=61de2556-4f76-45ce-86f1-95e4f2b347e2"},"vehicle_type_id":"4","last_reported":1702296818,"current_range_meters":24400,"station_id":"ce4bgl92rcd13ifvqbq0","pricing_plan_id":"free"},{"bike_id":"f85a2f99-be69-42fa-bea0-5e29ce5604cf","system_id":"levelo_inurba_marseille","lat":43.309076,"lon":5.368465,"is_reserved":false,"is_disabled":false,"rental_uris":{"android":"levelo://app?vid=f85a2f99-be69-42fa-bea0-5e29ce5604cf","ios":"levelo://app?vid=f85a2f99-be69-42fa-bea0-5e29ce5604cf"},"vehicle_type_id":"4","last_reported":1702296818,"current_range_meters":4000,"station_id":"ce4bgn92rcd13ifvqbvg","pricing_plan_id":"free"},{"bike_id":"eb825043-311c-4f85-a4bc-7bd4840e7c17","system_id":"levelo_inurba_marseille","lat":43.309076,"lon":5.368465,"is_reserved":false,"is_disabled":false,"rental_uris":{"android":"levelo://app?vid=eb825043-311c-4f85-a4bc-7bd4840e7c17","ios":"levelo://app?vid=eb825043-311c-4f85-a4bc-7bd4840e7c17"},"vehicle_type_id":"4","last_reported":1702296818,"current_range_meters":4400,"station_id":"ce4bgn92rcd13ifvqbvg","pricing_plan_id":"free"},{"bike_id":"a13f13a0-8ef6-4959-906e-35503ca4494d","system_id":"levelo_inurba_marseille","lat":43.314811,"lon":5.373103,"is_reserved":false,"is_disabled":false,"rental_uris":{"android":"levelo://app?vid=a13f13a0-8ef6-4959-906e-35503ca4494d","ios":"levelo://app?vid=a13f13a0-8ef6-4959-906e-35503ca4494d"},"vehicle_type_id":"4","last_reported":1702296818,"current_range_meters":15600,"station_id":"ce4bgt12rcd13ifvqcd0","pricing_plan_id":"free"},{"bike_id":"6747745e-b119-4538-b8d5-e31795836162","system_id":"levelo_inurba_marseille","lat":43.309039,"lon":5.371797,"is_reserved":false,"is_disabled":false,"rental_uris":{"android":"levelo://app?vid=6747745e-b119-4538-b8d5-e31795836162","ios":"levelo://app?vid=6747745e-b119-4538-b8d5-e31795836162"},"vehicle_type_id":"4","last_reported":1702296818,"current_range_meters":18800,"station_id":"ce4bguh2rcd13ifvqckg","pricing_plan_id":"free"},{"bike_id":"9e4a1af1-6f22-436a-9815-cab3cf296b11","system_id":"levelo_inurba_marseille","lat":43.305714,"lon":5.365633,"is_reserved":false,"is_disabled":false,"rental_uris":{"android":"levelo://app?vid=9e4a1af1-6f22-436a-9815-cab3cf296b11","ios":"levelo://app?vid=9e4a1af1-6f22-436a-9815-cab3cf296b11"},"vehicle_type_id":"4","last_reported":1702296818,"current_range_meters":8000,"station_id":"ce4bgs12rcd13ifvqcag","pricing_plan_id":"free"},{"bike_id":"c914e381-37ba-4af5-a37d-0f5833f479f6","system_id":"levelo_inurba_marseille","lat":43.305712,"lon":5.365641,"is_reserved":false,"is_disabled":false,"rental_uris":{"android":"levelo://app?vid=c914e381-37ba-4af5-a37d-0f5833f479f6","ios":"levelo://app?vid=c914e381-37ba-4af5-a37d-0f5833f479f6"},"vehicle_type_id":"4","last_reported":1702296818,"current_range_meters":26800,"station_id":"ce4bgs12rcd13ifvqcag","pricing_plan_id":"free"},{"bike_id":"2a330d2e-b5f7-4764-9b51-13e46ef7dca6","system_id":"levelo_inurba_marseille","lat":43.305714,"lon":5.365633,"is_reserved":false,"is_disabled":false,"rental_uris":{"android":"levelo://app?vid=2a330d2e-b5f7-4764-9b51-13e46ef7dca6","ios":"levelo://app?vid=2a330d2e-b5f7-4764-9b51-13e46ef7dca6"},"vehicle_type_id":"4","last_reported":1702296818,"current_range_meters":12400,"station_id":"ce4bgs12rcd13ifvqcag","pricing_plan_id":"free"},{"bike_id":"11c1dbbc-7503-4437-a31c-65c9ac9ce2d5","system_id":"levelo_inurba_marseille","lat":43.30187,"lon":5.36625,"is_reserved":false,"is_disabled":false,"rental_uris":{"android":"levelo://app?vid=11c1dbbc-7503-4437-a31c-65c9ac9ce2d5","ios":"levelo://app?vid=11c1dbbc-7503-4437-a31c-65c9ac9ce2d5"},"vehicle_type_id":"4","last_reported":1702296818,"current_range_meters":5200,"station_id":"","pricing_plan_id":"free"},{"bike_id":"d507dc20-f3f0-485a-b520-e5ecd0effbe5","system_id":"levelo_inurba_marseille","lat":43.319935,"lon":5.381699,"is_reserved":false,"is_disabled":false,"rental_uris":{"android":"levelo://app?vid=d507dc20-f3f0-485a-b520-e5ecd0effbe5","ios":"levelo://app?vid=d507dc20-f3f0-485a-b520-e5ecd0effbe5"},"vehicle_type_id":"4","last_reported":1702296818,"current_range_meters":19200,"station_id":"ce4bhr12rcd13ifvqhpg","pricing_plan_id":"free"},{"bike_id":"2b7f7a37-391a-4eb2-b1a1-ddc45a522eff","system_id":"levelo_inurba_marseille","lat":43.319935,"lon":5.381699,"is_reserved":false,"is_disabled":false,"rental_uris":{"android":"levelo://app?vid=2b7f7a37-391a-4eb2-b1a1-ddc45a522eff","ios":"levelo://app?vid=2b7f7a37-391a-4eb2-b1a1-ddc45a522eff"},"vehicle_type_id":"4","last_reported":1702296818,"current_range_meters":27200,"station_id":"ce4bhr12rcd13ifvqhpg","pricing_plan_id":"free"},{"bike_id":"f5dc87db-1627-40f9-8d4d-6dfa629a504a","system_id":"levelo_inurba_marseille","lat":43.31356,"lon":5.38493,"is_reserved":false,"is_disabled":false,"rental_uris":{"android":"levelo://app?vid=f5dc87db-1627-40f9-8d4d-6dfa629a504a","ios":"levelo://app?vid=f5dc87db-1627-40f9-8d4d-6dfa629a504a"},"vehicle_type_id":"4","last_reported":1702296818,"current_range_meters":16400,"station_id":"ce4bgt92rcd13ifvqcf0","pricing_plan_id":"free"},{"bike_id":"bec6f2a9-4c53-42ef-b12f-b947d6b00738","system_id":"levelo_inurba_marseille","lat":43.299222,"lon":5.365554,"is_reserved":false,"is_disabled":false,"rental_uris":{"android":"levelo://app?vid=bec6f2a9-4c53-42ef-b12f-b947d6b00738","ios":"levelo://app?vid=bec6f2a9-4c53-42ef-b12f-b947d6b00738"},"vehicle_type_id":"4","last_reported":1702296818,"current_range_meters":20000,"station_id":"ce4bgm92rcd13ifvqbr0","pricing_plan_id":"free"},{"bike_id":"aafd61d3-1640-4244-8784-9792cf831160","system_id":"levelo_inurba_marseille","lat":43.299222,"lon":5.365554,"is_reserved":false,"is_disabled":false,"rental_uris":{"android":"levelo://app?vid=aafd61d3-1640-4244-8784-9792cf831160","ios":"levelo://app?vid=aafd61d3-1640-4244-8784-9792cf831160"},"vehicle_type_id":"4","last_reported":1702296818,"current_range_meters":0,"station_id":"ce4bgm92rcd13ifvqbr0","pricing_plan_id":"free"},{"bike_id":"8d1a07cb-160b-41e5-9ef6-aa20372c6a91","system_id":"levelo_inurba_marseille","lat":43.29844,"lon":5.36274,"is_reserved":false,"is_disabled":false,"rental_uris":{"android":"levelo://app?vid=8d1a07cb-160b-41e5-9ef6-aa20372c6a91","ios":"levelo://app?vid=8d1a07cb-160b-41e5-9ef6-aa20372c6a91"},"vehicle_type_id":"4","last_reported":1702296818,"current_range_meters":24800,"station_id":"ce4bgpp2rcd13ifvqc3g","pricing_plan_id":"free"},{"bike_id":"e445088b-ea85-4a39-915c-fe076c5e8f64","system_id":"levelo_inurba_marseille","lat":43.328371,"lon":5.366909,"is_reserved":false,"is_disabled":false,"rental_uris":{"android":"levelo://app?vid=e445088b-ea85-4a39-915c-fe076c5e8f64","ios":"levelo://app?vid=e445088b-ea85-4a39-915c-fe076c5e8f64"},"vehicle_type_id":"4","last_reported":1702296818,"current_range_meters":400,"station_id":"ce4bhs92rcd13ifvqi0g","pricing_plan_id":"free"},{"bike_id":"9b0409c8-952e-43cd-8929-2c98668b8e00","system_id":"levelo_inurba_marseille","lat":43.32828,"lon":5.366702,"is_reserved":false,"is_disabled":false,"rental_uris":{"android":"levelo://app?vid=9b0409c8-952e-43cd-8929-2c98668b8e00","ios":"levelo://app?vid=9b0409c8-952e-43cd-8929-2c98668b8e00"},"vehicle_type_id":"4","last_reported":1702296818,"current_range_meters":14000,"station_id":"ce4bhs92rcd13ifvqi0g","pricing_plan_id":"free"},{"bike_id":"52d8b7ba-7505-413c-b898-efb75f14c13c","system_id":"levelo_inurba_marseille","lat":43.328371,"lon":5.366909,"is_reserved":false,"is_disabled":false,"rental_uris":{"android":"levelo://app?vid=52d8b7ba-7505-413c-b898-efb75f14c13c","ios":"levelo://app?vid=52d8b7ba-7505-413c-b898-efb75f14c13c"},"vehicle_type_id":"4","last_reported":1702296818,"current_range_meters":17600,"station_id":"ce4bhs92rcd13ifvqi0g","pricing_plan_id":"free"},{"bike_id":"a5589e38-f15a-46fe-9b37-27cf16ba9de2","system_id":"levelo_inurba_marseille","lat":43.328352,"lon":5.366702,"is_reserved":false,"is_disabled":false,"rental_uris":{"android":"levelo://app?vid=a5589e38-f15a-46fe-9b37-27cf16ba9de2","ios":"levelo://app?vid=a5589e38-f15a-46fe-9b37-27cf16ba9de2"},"vehicle_type_id":"4","last_reported":1702296818,"current_range_meters":19600,"station_id":"ce4bhs92rcd13ifvqi0g","pricing_plan_id":"free"},{"bike_id":"e8982acb-a760-4b9d-b896-2e3d99911d5c","system_id":"levelo_inurba_marseille","lat":43.2968,"lon":5.37291,"is_reserved":false,"is_disabled":false,"rental_uris":{"android":"levelo://app?vid=e8982acb-a760-4b9d-b896-2e3d99911d5c","ios":"levelo://app?vid=e8982acb-a760-4b9d-b896-2e3d99911d5c"},"vehicle_type_id":"4","last_reported":1702296818,"current_range_meters":18000,"station_id":"ce4bgk12rcd13ifvqbj0","pricing_plan_id":"free"},{"bike_id":"9e9be99f-5ee8-4cc1-8fe0-0ecd0d8d7ee7","system_id":"levelo_inurba_marseille","lat":43.298046,"lon":5.380905,"is_reserved":false,"is_disabled":false,"rental_uris":{"android":"levelo://app?vid=9e9be99f-5ee8-4cc1-8fe0-0ecd0d8d7ee7","ios":"levelo://app?vid=9e9be99f-5ee8-4cc1-8fe0-0ecd0d8d7ee7"},"vehicle_type_id":"4","last_reported":1702296818,"current_range_meters":23200,"station_id":"","pricing_plan_id":"free"},{"bike_id":"a209fe1d-6a60-489e-90e8-e2e51d54c715","system_id":"levelo_inurba_marseille","lat":43.298037,"lon":5.381066,"is_reserved":false,"is_disabled":false,"rental_uris":{"android":"levelo://app?vid=a209fe1d-6a60-489e-90e8-e2e51d54c715","ios":"levelo://app?vid=a209fe1d-6a60-489e-90e8-e2e51d54c715"},"vehicle_type_id":"4","last_reported":1702296818,"current_range_meters":26800,"station_id":"ce4bgip2rcd13ifvqbb0","pricing_plan_id":"free"},{"bike_id":"03f574f9-24fc-4a85-aa74-584549673d42","system_id":"levelo_inurba_marseille","lat":43.298037,"lon":5.381066,"is_reserved":false,"is_disabled":false,"rental_uris":{"android":"levelo://app?vid=03f574f9-24fc-4a85-aa74-584549673d42","ios":"levelo://app?vid=03f574f9-24fc-4a85-aa74-584549673d42"},"vehicle_type_id":"4","last_reported":1702296818,"current_range_meters":30000,"station_id":"ce4bgip2rcd13ifvqbb0","pricing_plan_id":"free"},{"bike_id":"e2592469-b1d8-4813-ba86-96cb9d2f11dc","system_id":"levelo_inurba_marseille","lat":43.298037,"lon":5.381066,"is_reserved":false,"is_disabled":false,"rental_uris":{"android":"levelo://app?vid=e2592469-b1d8-4813-ba86-96cb9d2f11dc","ios":"levelo://app?vid=e2592469-b1d8-4813-ba86-96cb9d2f11dc"},"vehicle_type_id":"4","last_reported":1702296818,"current_range_meters":22800,"station_id":"ce4bgip2rcd13ifvqbb0","pricing_plan_id":"free"},{"bike_id":"2591f94b-6de8-48a3-bd0d-da31083ef235","system_id":"levelo_inurba_marseille","lat":43.304278,"lon":5.388868,"is_reserved":false,"is_disabled":false,"rental_uris":{"android":"levelo://app?vid=2591f94b-6de8-48a3-bd0d-da31083ef235","ios":"levelo://app?vid=2591f94b-6de8-48a3-bd0d-da31083ef235"},"vehicle_type_id":"4","last_reported":1702296818,"current_range_meters":28400,"station_id":"ce4bgk12rcd13ifvqbi0","pricing_plan_id":"free"},{"bike_id":"30a9b220-8d16-44a5-9a74-b1b8bda4f15b","system_id":"levelo_inurba_marseille","lat":43.304278,"lon":5.388868,"is_reserved":false,"is_disabled":false,"rental_uris":{"android":"levelo://app?vid=30a9b220-8d16-44a5-9a74-b1b8bda4f15b","ios":"levelo://app?vid=30a9b220-8d16-44a5-9a74-b1b8bda4f15b"},"vehicle_type_id":"4","last_reported":1702296818,"current_range_meters":27600,"station_id":"ce4bgk12rcd13ifvqbi0","pricing_plan_id":"free"},{"bike_id":"8cf3af09-a83b-4e20-8d75-023a96ab22d8","system_id":"levelo_inurba_marseille","lat":43.304278,"lon":5.388868,"is_reserved":false,"is_disabled":false,"rental_uris":{"android":"levelo://app?vid=8cf3af09-a83b-4e20-8d75-023a96ab22d8","ios":"levelo://app?vid=8cf3af09-a83b-4e20-8d75-023a96ab22d8"},"vehicle_type_id":"4","last_reported":1702296818,"current_range_meters":26800,"station_id":"ce4bgk12rcd13ifvqbi0","pricing_plan_id":"free"},{"bike_id":"4de633cf-f4dc-4c44-89da-5b9c9165c976","system_id":"levelo_inurba_marseille","lat":43.304349,"lon":5.38894,"is_reserved":false,"is_disabled":false,"rental_uris":{"android":"levelo://app?vid=4de633cf-f4dc-4c44-89da-5b9c9165c976","ios":"levelo://app?vid=4de633cf-f4dc-4c44-89da-5b9c9165c976"},"vehicle_type_id":"4","last_reported":1702296818,"current_range_meters":29600,"station_id":"","pricing_plan_id":"free"},{"bike_id":"15180dec-24c9-49c5-aff5-3b4fe6a2f269","system_id":"levelo_inurba_marseille","lat":43.304274,"lon":5.388873,"is_reserved":false,"is_disabled":false,"rental_uris":{"android":"levelo://app?vid=15180dec-24c9-49c5-aff5-3b4fe6a2f269","ios":"levelo://app?vid=15180dec-24c9-49c5-aff5-3b4fe6a2f269"},"vehicle_type_id":"4","last_reported":1702296818,"current_range_meters":6400,"station_id":"ce4bgk12rcd13ifvqbi0","pricing_plan_id":"free"},{"bike_id":"ed99b2b1-a5bb-4497-9f02-5edf6ae45235","system_id":"levelo_inurba_marseille","lat":43.304274,"lon":5.388873,"is_reserved":false,"is_disabled":false,"rental_uris":{"android":"levelo://app?vid=ed99b2b1-a5bb-4497-9f02-5edf6ae45235","ios":"levelo://app?vid=ed99b2b1-a5bb-4497-9f02-5edf6ae45235"},"vehicle_type_id":"4","last_reported":1702296818,"current_range_meters":30400,"station_id":"ce4bgk12rcd13ifvqbi0","pricing_plan_id":"free"},{"bike_id":"6c8d9f26-9b34-418f-984b-add2f3d59ff8","system_id":"levelo_inurba_marseille","lat":43.304274,"lon":5.388873,"is_reserved":false,"is_disabled":false,"rental_uris":{"android":"levelo://app?vid=6c8d9f26-9b34-418f-984b-add2f3d59ff8","ios":"levelo://app?vid=6c8d9f26-9b34-418f-984b-add2f3d59ff8"},"vehicle_type_id":"4","last_reported":1702296818,"current_range_meters":6400,"station_id":"ce4bgk12rcd13ifvqbi0","pricing_plan_id":"free"},{"bike_id":"e76d82e3-cca0-4af6-8011-9a1f2a6da967","system_id":"levelo_inurba_marseille","lat":43.304415,"lon":5.389214,"is_reserved":false,"is_disabled":false,"rental_uris":{"android":"levelo://app?vid=e76d82e3-cca0-4af6-8011-9a1f2a6da967","ios":"levelo://app?vid=e76d82e3-cca0-4af6-8011-9a1f2a6da967"},"vehicle_type_id":"4","last_reported":1702296818,"current_range_meters":24400,"station_id":"","pricing_plan_id":"free"},{"bike_id":"77a6c46d-d898-4e4f-8846-efa91689c7f0","system_id":"levelo_inurba_marseille","lat":43.295508,"lon":5.379301,"is_reserved":false,"is_disabled":false,"rental_uris":{"android":"levelo://app?vid=77a6c46d-d898-4e4f-8846-efa91689c7f0","ios":"levelo://app?vid=77a6c46d-d898-4e4f-8846-efa91689c7f0"},"vehicle_type_id":"4","last_reported":1702296818,"current_range_meters":0,"station_id":"","pricing_plan_id":"free"},{"bike_id":"e3028bbd-ef28-4e9f-bdf9-d75516f4eca7","system_id":"levelo_inurba_marseille","lat":43.293009,"lon":5.374584,"is_reserved":false,"is_disabled":false,"rental_uris":{"android":"levelo://app?vid=e3028bbd-ef28-4e9f-bdf9-d75516f4eca7","ios":"levelo://app?vid=e3028bbd-ef28-4e9f-bdf9-d75516f4eca7"},"vehicle_type_id":"4","last_reported":1702296818,"current_range_meters":22000,"station_id":"ce4bgi12rcd13ifvqb70","pricing_plan_id":"free"},{"bike_id":"c16df200-f4b2-4c5f-a93f-a0775a847619","system_id":"levelo_inurba_marseille","lat":43.305994,"lon":5.393687,"is_reserved":false,"is_disabled":false,"rental_uris":{"android":"levelo://app?vid=c16df200-f4b2-4c5f-a93f-a0775a847619","ios":"levelo://app?vid=c16df200-f4b2-4c5f-a93f-a0775a847619"},"vehicle_type_id":"4","last_reported":1702296818,"current_range_meters":16000,"station_id":"ce4bh0p2rcd13ifvqd80","pricing_plan_id":"free"},{"bike_id":"4bd181a8-c386-443f-aee1-eaaa864340be","system_id":"levelo_inurba_marseille","lat":43.305994,"lon":5.393687,"is_reserved":false,"is_disabled":false,"rental_uris":{"android":"levelo://app?vid=4bd181a8-c386-443f-aee1-eaaa864340be","ios":"levelo://app?vid=4bd181a8-c386-443f-aee1-eaaa864340be"},"vehicle_type_id":"4","last_reported":1702296818,"current_range_meters":30000,"station_id":"ce4bh0p2rcd13ifvqd80","pricing_plan_id":"free"},{"bike_id":"4126fbf5-daba-4359-b25f-3b2fc27466c7","system_id":"levelo_inurba_marseille","lat":43.305994,"lon":5.393687,"is_reserved":false,"is_disabled":false,"rental_uris":{"android":"levelo://app?vid=4126fbf5-daba-4359-b25f-3b2fc27466c7","ios":"levelo://app?vid=4126fbf5-daba-4359-b25f-3b2fc27466c7"},"vehicle_type_id":"4","last_reported":1702296818,"current_range_meters":10400,"station_id":"ce4bh0p2rcd13ifvqd80","pricing_plan_id":"free"},{"bike_id":"1f90d87c-6a5e-411c-8a67-ba71e62ca8cf","system_id":"levelo_inurba_marseille","lat":43.305994,"lon":5.393687,"is_reserved":false,"is_disabled":false,"rental_uris":{"android":"levelo://app?vid=1f90d87c-6a5e-411c-8a67-ba71e62ca8cf","ios":"levelo://app?vid=1f90d87c-6a5e-411c-8a67-ba71e62ca8cf"},"vehicle_type_id":"4","last_reported":1702296818,"current_range_meters":24400,"station_id":"ce4bh0p2rcd13ifvqd80","pricing_plan_id":"free"},{"bike_id":"4420c3e8-cdb2-47c8-b51d-063951d84b8a","system_id":"levelo_inurba_marseille","lat":43.291675,"lon":5.371583,"is_reserved":false,"is_disabled":false,"rental_uris":{"android":"levelo://app?vid=4420c3e8-cdb2-47c8-b51d-063951d84b8a","ios":"levelo://app?vid=4420c3e8-cdb2-47c8-b51d-063951d84b8a"},"vehicle_type_id":"4","last_reported":1702296818,"current_range_meters":16000,"station_id":"ce4bha92rcd13ifvqeh0","pricing_plan_id":"free"},{"bike_id":"9800fc21-a370-4d84-a00c-d841c1207842","system_id":"levelo_inurba_marseille","lat":43.309047,"lon":5.396551,"is_reserved":false,"is_disabled":false,"rental_uris":{"android":"levelo://app?vid=9800fc21-a370-4d84-a00c-d841c1207842","ios":"levelo://app?vid=9800fc21-a370-4d84-a00c-d841c1207842"},"vehicle_type_id":"4","last_reported":1702296818,"current_range_meters":6800,"station_id":"ce4bh012rcd13ifvqcv0","pricing_plan_id":"free"},{"bike_id":"1a9e2de5-5849-4165-ae21-4d1b4661e981","system_id":"levelo_inurba_marseille","lat":43.28944,"lon":5.36419,"is_reserved":false,"is_disabled":false,"rental_uris":{"android":"levelo://app?vid=1a9e2de5-5849-4165-ae21-4d1b4661e981","ios":"levelo://app?vid=1a9e2de5-5849-4165-ae21-4d1b4661e981"},"vehicle_type_id":"4","last_reported":1702296818,"current_range_meters":30000,"station_id":"ce4bhc92rcd13ifvqetg","pricing_plan_id":"free"},{"bike_id":"7de87fdc-8a8d-4507-b09b-e6c587763120","system_id":"levelo_inurba_marseille","lat":43.290103,"lon":5.356114,"is_reserved":false,"is_disabled":false,"rental_uris":{"android":"levelo://app?vid=7de87fdc-8a8d-4507-b09b-e6c587763120","ios":"levelo://app?vid=7de87fdc-8a8d-4507-b09b-e6c587763120"},"vehicle_type_id":"4","last_reported":1702296818,"current_range_meters":4800,"station_id":"ce4bhb92rcd13ifvqen0","pricing_plan_id":"free"},{"bike_id":"18a50aa9-7620-4925-8522-860ad31e8df8","system_id":"levelo_inurba_marseille","lat":43.295198,"lon":5.390312,"is_reserved":false,"is_disabled":false,"rental_uris":{"android":"levelo://app?vid=18a50aa9-7620-4925-8522-860ad31e8df8","ios":"levelo://app?vid=18a50aa9-7620-4925-8522-860ad31e8df8"},"vehicle_type_id":"4","last_reported":1702296818,"current_range_meters":0,"station_id":"ce4bh3p2rcd13ifvqdp0","pricing_plan_id":"free"},{"bike_id":"b20dd4e3-6625-409d-9edc-30291f6f13ba","system_id":"levelo_inurba_marseille","lat":43.29766,"lon":5.39336,"is_reserved":false,"is_disabled":false,"rental_uris":{"android":"levelo://app?vid=b20dd4e3-6625-409d-9edc-30291f6f13ba","ios":"levelo://app?vid=b20dd4e3-6625-409d-9edc-30291f6f13ba"},"vehicle_type_id":"4","last_reported":1702296818,"current_range_meters":2800,"station_id":"chh1huq6cuj3fo74tm60","pricing_plan_id":"free"},{"bike_id":"6568f984-7c2d-4bcc-8db7-69ff95afd0eb","system_id":"levelo_inurba_marseille","lat":43.29028,"lon":5.38141,"is_reserved":false,"is_disabled":false,"rental_uris":{"android":"levelo://app?vid=6568f984-7c2d-4bcc-8db7-69ff95afd0eb","ios":"levelo://app?vid=6568f984-7c2d-4bcc-8db7-69ff95afd0eb"},"vehicle_type_id":"4","last_reported":1702296818,"current_range_meters":0,"station_id":"ce4bh4p2rcd13ifvqe1g","pricing_plan_id":"free"},{"bike_id":"20aeab0f-e9b1-4952-8d7f-b7b386fe95f3","system_id":"levelo_inurba_marseille","lat":43.28853,"lon":5.35858,"is_reserved":false,"is_disabled":false,"rental_uris":{"android":"levelo://app?vid=20aeab0f-e9b1-4952-8d7f-b7b386fe95f3","ios":"levelo://app?vid=20aeab0f-e9b1-4952-8d7f-b7b386fe95f3"},"vehicle_type_id":"4","last_reported":1702296818,"current_range_meters":1600,"station_id":"ce4bhb12rcd13ifvqem0","pricing_plan_id":"free"},{"bike_id":"4551d0f5-45e9-4174-b5e9-2e13c4d90dce","system_id":"levelo_inurba_marseille","lat":43.3093,"lon":5.40138,"is_reserved":false,"is_disabled":false,"rental_uris":{"android":"levelo://app?vid=4551d0f5-45e9-4174-b5e9-2e13c4d90dce","ios":"levelo://app?vid=4551d0f5-45e9-4174-b5e9-2e13c4d90dce"},"vehicle_type_id":"4","last_reported":1702296818,"current_range_meters":24000,"station_id":"ce4bgvp2rcd13ifvqct0","pricing_plan_id":"free"},{"bike_id":"d68b34e3-f0ca-4134-aa15-3683da3c59a4","system_id":"levelo_inurba_marseille","lat":43.337583,"lon":5.374243,"is_reserved":false,"is_disabled":false,"rental_uris":{"android":"levelo://app?vid=d68b34e3-f0ca-4134-aa15-3683da3c59a4","ios":"levelo://app?vid=d68b34e3-f0ca-4134-aa15-3683da3c59a4"},"vehicle_type_id":"4","last_reported":1702296818,"current_range_meters":19600,"station_id":"","pricing_plan_id":"free"},{"bike_id":"644e29d7-bdfa-4a45-826c-27a6fa4b690d","system_id":"levelo_inurba_marseille","lat":43.30642,"lon":5.401031,"is_reserved":false,"is_disabled":false,"rental_uris":{"android":"levelo://app?vid=644e29d7-bdfa-4a45-826c-27a6fa4b690d","ios":"levelo://app?vid=644e29d7-bdfa-4a45-826c-27a6fa4b690d"},"vehicle_type_id":"4","last_reported":1702296818,"current_range_meters":28800,"station_id":"ce4bh112rcd13ifvqda0","pricing_plan_id":"free"},{"bike_id":"ac09ab3e-9ce5-415a-9568-c49e85c58355","system_id":"levelo_inurba_marseille","lat":43.301117,"lon":5.398795,"is_reserved":false,"is_disabled":false,"rental_uris":{"android":"levelo://app?vid=ac09ab3e-9ce5-415a-9568-c49e85c58355","ios":"levelo://app?vid=ac09ab3e-9ce5-415a-9568-c49e85c58355"},"vehicle_type_id":"4","last_reported":1702296818,"current_range_meters":24000,"station_id":"ce4bh0h2rcd13ifvqd40","pricing_plan_id":"free"},{"bike_id":"62526d3e-3ee9-4d8f-93b6-6ee7e873c86b","system_id":"levelo_inurba_marseille","lat":43.298681,"lon":5.397225,"is_reserved":false,"is_disabled":false,"rental_uris":{"android":"levelo://app?vid=62526d3e-3ee9-4d8f-93b6-6ee7e873c86b","ios":"levelo://app?vid=62526d3e-3ee9-4d8f-93b6-6ee7e873c86b"},"vehicle_type_id":"4","last_reported":1702296818,"current_range_meters":24800,"station_id":"ce4bh0h2rcd13ifvqd50","pricing_plan_id":"free"},{"bike_id":"87f32b10-3d02-4161-91d6-abdce2e3cbd0","system_id":"levelo_inurba_marseille","lat":43.298681,"lon":5.397225,"is_reserved":false,"is_disabled":false,"rental_uris":{"android":"levelo://app?vid=87f32b10-3d02-4161-91d6-abdce2e3cbd0","ios":"levelo://app?vid=87f32b10-3d02-4161-91d6-abdce2e3cbd0"},"vehicle_type_id":"4","last_reported":1702296818,"current_range_meters":18800,"station_id":"ce4bh0h2rcd13ifvqd50","pricing_plan_id":"free"},{"bike_id":"cf34a1e8-b11c-4e90-90fb-12ae54525705","system_id":"levelo_inurba_marseille","lat":43.295194,"lon":5.39397,"is_reserved":false,"is_disabled":false,"rental_uris":{"android":"levelo://app?vid=cf34a1e8-b11c-4e90-90fb-12ae54525705","ios":"levelo://app?vid=cf34a1e8-b11c-4e90-90fb-12ae54525705"},"vehicle_type_id":"4","last_reported":1702296818,"current_range_meters":0,"station_id":"ce4bh292rcd13ifvqdf0","pricing_plan_id":"free"},{"bike_id":"b11f810d-ac97-43f9-b578-2e7153e6cf8e","system_id":"levelo_inurba_marseille","lat":43.286039,"lon":5.370681,"is_reserved":false,"is_disabled":false,"rental_uris":{"android":"levelo://app?vid=b11f810d-ac97-43f9-b578-2e7153e6cf8e","ios":"levelo://app?vid=b11f810d-ac97-43f9-b578-2e7153e6cf8e"},"vehicle_type_id":"4","last_reported":1702296818,"current_range_meters":22000,"station_id":"ce4bht12rcd13ifvqi60","pricing_plan_id":"free"},{"bike_id":"19ca138f-21f0-4cdc-8ce8-4a04cd17a89e","system_id":"levelo_inurba_marseille","lat":43.287184,"lon":5.37937,"is_reserved":false,"is_disabled":false,"rental_uris":{"android":"levelo://app?vid=19ca138f-21f0-4cdc-8ce8-4a04cd17a89e","ios":"levelo://app?vid=19ca138f-21f0-4cdc-8ce8-4a04cd17a89e"},"vehicle_type_id":"4","last_reported":1702296818,"current_range_meters":18000,"station_id":"ce4bh9p2rcd13ifvqec0","pricing_plan_id":"free"},{"bike_id":"98e3c9bf-2c96-4d76-a912-b345d2c82e26","system_id":"levelo_inurba_marseille","lat":43.284538,"lon":5.358657,"is_reserved":false,"is_disabled":false,"rental_uris":{"android":"levelo://app?vid=98e3c9bf-2c96-4d76-a912-b345d2c82e26","ios":"levelo://app?vid=98e3c9bf-2c96-4d76-a912-b345d2c82e26"},"vehicle_type_id":"4","last_reported":1702296818,"current_range_meters":1200,"station_id":"ce4bhah2rcd13ifvqei0","pricing_plan_id":"free"},{"bike_id":"3ea55fc0-95d8-4383-81a8-8af45436d429","system_id":"levelo_inurba_marseille","lat":43.289184,"lon":5.366408,"is_reserved":false,"is_disabled":false,"rental_uris":{"android":"levelo://app?vid=3ea55fc0-95d8-4383-81a8-8af45436d429","ios":"levelo://app?vid=3ea55fc0-95d8-4383-81a8-8af45436d429"},"vehicle_type_id":"4","last_reported":1702296818,"current_range_meters":4400,"station_id":"ce4bhap2rcd13ifvqek0","pricing_plan_id":"free"},{"bike_id":"cafaf996-a16b-4be3-99d6-6acff99c86a0","system_id":"levelo_inurba_marseille","lat":43.319179,"lon":5.407725,"is_reserved":false,"is_disabled":false,"rental_uris":{"android":"levelo://app?vid=cafaf996-a16b-4be3-99d6-6acff99c86a0","ios":"levelo://app?vid=cafaf996-a16b-4be3-99d6-6acff99c86a0"},"vehicle_type_id":"4","last_reported":1702296818,"current_range_meters":11200,"station_id":"ce4bhq12rcd13ifvqhig","pricing_plan_id":"free"},{"bike_id":"3c39f558-59b0-4f36-b5f2-4451e12182ae","system_id":"levelo_inurba_marseille","lat":43.284793,"lon":5.384119,"is_reserved":false,"is_disabled":false,"rental_uris":{"android":"levelo://app?vid=3c39f558-59b0-4f36-b5f2-4451e12182ae","ios":"levelo://app?vid=3c39f558-59b0-4f36-b5f2-4451e12182ae"},"vehicle_type_id":"4","last_reported":1702296818,"current_range_meters":7600,"station_id":"ce4bh512rcd13ifvqe3g","pricing_plan_id":"free"},{"bike_id":"73f2544b-6347-4cd5-b12c-4481a101316a","system_id":"levelo_inurba_marseille","lat":43.284793,"lon":5.384119,"is_reserved":false,"is_disabled":false,"rental_uris":{"android":"levelo://app?vid=73f2544b-6347-4cd5-b12c-4481a101316a","ios":"levelo://app?vid=73f2544b-6347-4cd5-b12c-4481a101316a"},"vehicle_type_id":"4","last_reported":1702296818,"current_range_meters":16800,"station_id":"ce4bh512rcd13ifvqe3g","pricing_plan_id":"free"},{"bike_id":"551a3558-cf03-4958-aadd-ab576c33df58","system_id":"levelo_inurba_marseille","lat":43.284793,"lon":5.384119,"is_reserved":false,"is_disabled":false,"rental_uris":{"android":"levelo://app?vid=551a3558-cf03-4958-aadd-ab576c33df58","ios":"levelo://app?vid=551a3558-cf03-4958-aadd-ab576c33df58"},"vehicle_type_id":"4","last_reported":1702296818,"current_range_meters":26800,"station_id":"ce4bh512rcd13ifvqe3g","pricing_plan_id":"free"},{"bike_id":"83cea24f-5e61-478e-b422-348e6be7c748","system_id":"levelo_inurba_marseille","lat":43.283494,"lon":5.380945,"is_reserved":false,"is_disabled":false,"rental_uris":{"android":"levelo://app?vid=83cea24f-5e61-478e-b422-348e6be7c748","ios":"levelo://app?vid=83cea24f-5e61-478e-b422-348e6be7c748"},"vehicle_type_id":"4","last_reported":1702296818,"current_range_meters":8400,"station_id":"ce4bh412rcd13ifvqdr0","pricing_plan_id":"free"},{"bike_id":"5c29b8db-b7c8-4216-bc58-04fe1cba1f63","system_id":"levelo_inurba_marseille","lat":43.289363,"lon":5.396322,"is_reserved":false,"is_disabled":false,"rental_uris":{"android":"levelo://app?vid=5c29b8db-b7c8-4216-bc58-04fe1cba1f63","ios":"levelo://app?vid=5c29b8db-b7c8-4216-bc58-04fe1cba1f63"},"vehicle_type_id":"4","last_reported":1702296818,"current_range_meters":29200,"station_id":"ce4bh3h2rcd13ifvqdn0","pricing_plan_id":"free"},{"bike_id":"cb4324c5-57d2-44b7-bca6-ac9501589d70","system_id":"levelo_inurba_marseille","lat":43.289363,"lon":5.396322,"is_reserved":false,"is_disabled":false,"rental_uris":{"android":"levelo://app?vid=cb4324c5-57d2-44b7-bca6-ac9501589d70","ios":"levelo://app?vid=cb4324c5-57d2-44b7-bca6-ac9501589d70"},"vehicle_type_id":"4","last_reported":1702296818,"current_range_meters":22800,"station_id":"ce4bh3h2rcd13ifvqdn0","pricing_plan_id":"free"},{"bike_id":"2027d135-d0c6-4702-91a6-580c5cc45934","system_id":"levelo_inurba_marseille","lat":43.292724,"lon":5.401131,"is_reserved":false,"is_disabled":false,"rental_uris":{"android":"levelo://app?vid=2027d135-d0c6-4702-91a6-580c5cc45934","ios":"levelo://app?vid=2027d135-d0c6-4702-91a6-580c5cc45934"},"vehicle_type_id":"4","last_reported":1702296818,"current_range_meters":30800,"station_id":"ce4bh312rcd13ifvqdk0","pricing_plan_id":"free"},{"bike_id":"ed9d3160-9ba4-47fb-ab46-382647103474","system_id":"levelo_inurba_marseille","lat":43.292724,"lon":5.401131,"is_reserved":false,"is_disabled":false,"rental_uris":{"android":"levelo://app?vid=ed9d3160-9ba4-47fb-ab46-382647103474","ios":"levelo://app?vid=ed9d3160-9ba4-47fb-ab46-382647103474"},"vehicle_type_id":"4","last_reported":1702296818,"current_range_meters":16000,"station_id":"ce4bh312rcd13ifvqdk0","pricing_plan_id":"free"},{"bike_id":"bbc0c226-6d6b-4306-b722-4f1c96d3c35e","system_id":"levelo_inurba_marseille","lat":43.280382,"lon":5.369291,"is_reserved":false,"is_disabled":false,"rental_uris":{"android":"levelo://app?vid=bbc0c226-6d6b-4306-b722-4f1c96d3c35e","ios":"levelo://app?vid=bbc0c226-6d6b-4306-b722-4f1c96d3c35e"},"vehicle_type_id":"4","last_reported":1702296818,"current_range_meters":13200,"station_id":"ce4bha12rcd13ifvqef0","pricing_plan_id":"free"},{"bike_id":"a4455adb-510f-4ac9-bbfa-5b5d87727cc5","system_id":"levelo_inurba_marseille","lat":43.292569,"lon":5.409107,"is_reserved":false,"is_disabled":false,"rental_uris":{"android":"levelo://app?vid=a4455adb-510f-4ac9-bbfa-5b5d87727cc5","ios":"levelo://app?vid=a4455adb-510f-4ac9-bbfa-5b5d87727cc5"},"vehicle_type_id":"4","last_reported":1702296818,"current_range_meters":16800,"station_id":"ce4bh192rcd13ifvqdc0","pricing_plan_id":"free"},{"bike_id":"c3c9af5b-4671-4064-8067-d2cdd8271060","system_id":"levelo_inurba_marseille","lat":43.27621,"lon":5.36099,"is_reserved":false,"is_disabled":false,"rental_uris":{"android":"levelo://app?vid=c3c9af5b-4671-4064-8067-d2cdd8271060","ios":"levelo://app?vid=c3c9af5b-4671-4064-8067-d2cdd8271060"},"vehicle_type_id":"4","last_reported":1702296818,"current_range_meters":26400,"station_id":"","pricing_plan_id":"free"},{"bike_id":"8898a27e-9d1c-4657-ae49-27cf5a459525","system_id":"levelo_inurba_marseille","lat":43.280784,"lon":5.396622,"is_reserved":false,"is_disabled":false,"rental_uris":{"android":"levelo://app?vid=8898a27e-9d1c-4657-ae49-27cf5a459525","ios":"levelo://app?vid=8898a27e-9d1c-4657-ae49-27cf5a459525"},"vehicle_type_id":"4","last_reported":1702296818,"current_range_meters":14800,"station_id":"ce4bho12rcd13ifvqh2g","pricing_plan_id":"free"},{"bike_id":"2ff1f8ff-3a30-4b6b-89db-736010c07d56","system_id":"levelo_inurba_marseille","lat":43.303837,"lon":5.418724,"is_reserved":false,"is_disabled":false,"rental_uris":{"android":"levelo://app?vid=2ff1f8ff-3a30-4b6b-89db-736010c07d56","ios":"levelo://app?vid=2ff1f8ff-3a30-4b6b-89db-736010c07d56"},"vehicle_type_id":"4","last_reported":1702296818,"current_range_meters":31200,"station_id":"ce4bhop2rcd13ifvqh7g","pricing_plan_id":"free"},{"bike_id":"52677d7c-042b-49c1-87a5-006ec434e1ff","system_id":"levelo_inurba_marseille","lat":43.278401,"lon":5.392152,"is_reserved":false,"is_disabled":false,"rental_uris":{"android":"levelo://app?vid=52677d7c-042b-49c1-87a5-006ec434e1ff","ios":"levelo://app?vid=52677d7c-042b-49c1-87a5-006ec434e1ff"},"vehicle_type_id":"4","last_reported":1702296818,"current_range_meters":17600,"station_id":"ce4bhjp2rcd13ifvqga0","pricing_plan_id":"free"},{"bike_id":"d022bcbe-92bd-4d30-be65-2421ab771f38","system_id":"levelo_inurba_marseille","lat":43.273613,"lon":5.362705,"is_reserved":false,"is_disabled":false,"rental_uris":{"android":"levelo://app?vid=d022bcbe-92bd-4d30-be65-2421ab771f38","ios":"levelo://app?vid=d022bcbe-92bd-4d30-be65-2421ab771f38"},"vehicle_type_id":"4","last_reported":1702296818,"current_range_meters":22800,"station_id":"ce4bhbh2rcd13ifvqeo0","pricing_plan_id":"free"},{"bike_id":"1500bf86-9326-4d9d-85b1-9226e9f542d0","system_id":"levelo_inurba_marseille","lat":43.273609,"lon":5.362708,"is_reserved":false,"is_disabled":false,"rental_uris":{"android":"levelo://app?vid=1500bf86-9326-4d9d-85b1-9226e9f542d0","ios":"levelo://app?vid=1500bf86-9326-4d9d-85b1-9226e9f542d0"},"vehicle_type_id":"4","last_reported":1702296818,"current_range_meters":25600,"station_id":"ce4bhbh2rcd13ifvqeo0","pricing_plan_id":"free"},{"bike_id":"b2467988-6cce-4d76-b428-a40e09cd8785","system_id":"levelo_inurba_marseille","lat":43.276771,"lon":5.388799,"is_reserved":false,"is_disabled":false,"rental_uris":{"android":"levelo://app?vid=b2467988-6cce-4d76-b428-a40e09cd8785","ios":"levelo://app?vid=b2467988-6cce-4d76-b428-a40e09cd8785"},"vehicle_type_id":"4","last_reported":1702296818,"current_range_meters":1200,"station_id":"ce4bhi12rcd13ifvqfo0","pricing_plan_id":"free"},{"bike_id":"a75b1005-cdec-4eca-b584-4e1c3e976ca0","system_id":"levelo_inurba_marseille","lat":43.275625,"lon":5.384392,"is_reserved":false,"is_disabled":false,"rental_uris":{"android":"levelo://app?vid=a75b1005-cdec-4eca-b584-4e1c3e976ca0","ios":"levelo://app?vid=a75b1005-cdec-4eca-b584-4e1c3e976ca0"},"vehicle_type_id":"4","last_reported":1702296818,"current_range_meters":13600,"station_id":"ce4bhh92rcd13ifvqfi0","pricing_plan_id":"free"},{"bike_id":"095f8b4d-1716-4e32-b3fc-93669f27d5a9","system_id":"levelo_inurba_marseille","lat":43.279952,"lon":5.400085,"is_reserved":false,"is_disabled":false,"rental_uris":{"android":"levelo://app?vid=095f8b4d-1716-4e32-b3fc-93669f27d5a9","ios":"levelo://app?vid=095f8b4d-1716-4e32-b3fc-93669f27d5a9"},"vehicle_type_id":"4","last_reported":1702296818,"current_range_meters":24000,"station_id":"ce4bho92rcd13ifvqh4g","pricing_plan_id":"free"},{"bike_id":"b49195d1-5252-4b63-9ddd-c39017071e00","system_id":"levelo_inurba_marseille","lat":43.27639,"lon":5.39485,"is_reserved":false,"is_disabled":false,"rental_uris":{"android":"levelo://app?vid=b49195d1-5252-4b63-9ddd-c39017071e00","ios":"levelo://app?vid=b49195d1-5252-4b63-9ddd-c39017071e00"},"vehicle_type_id":"4","last_reported":1702296818,"current_range_meters":13600,"station_id":"","pricing_plan_id":"free"},{"bike_id":"105072d3-81bc-41cb-b6c7-cd50bb20cc23","system_id":"levelo_inurba_marseille","lat":43.31723,"lon":5.42405,"is_reserved":false,"is_disabled":false,"rental_uris":{"android":"levelo://app?vid=105072d3-81bc-41cb-b6c7-cd50bb20cc23","ios":"levelo://app?vid=105072d3-81bc-41cb-b6c7-cd50bb20cc23"},"vehicle_type_id":"4","last_reported":1702296818,"current_range_meters":9600,"station_id":"ce4bhp92rcd13ifvqhbg","pricing_plan_id":"free"},{"bike_id":"2aaa2228-397b-4795-ae59-091fa73e41a6","system_id":"levelo_inurba_marseille","lat":43.340804,"lon":5.410219,"is_reserved":false,"is_disabled":false,"rental_uris":{"android":"levelo://app?vid=2aaa2228-397b-4795-ae59-091fa73e41a6","ios":"levelo://app?vid=2aaa2228-397b-4795-ae59-091fa73e41a6"},"vehicle_type_id":"4","last_reported":1702296818,"current_range_meters":26800,"station_id":"ce4bhqh2rcd13ifvqhlg","pricing_plan_id":"free"},{"bike_id":"38523b89-59e7-4ec4-bd31-9194292860e2","system_id":"levelo_inurba_marseille","lat":43.273125,"lon":5.390731,"is_reserved":false,"is_disabled":false,"rental_uris":{"android":"levelo://app?vid=38523b89-59e7-4ec4-bd31-9194292860e2","ios":"levelo://app?vid=38523b89-59e7-4ec4-bd31-9194292860e2"},"vehicle_type_id":"4","last_reported":1702296818,"current_range_meters":0,"station_id":"ce4bhgp2rcd13ifvqfe0","pricing_plan_id":"free"},{"bike_id":"2ac21d3a-fdc5-4100-83ef-abe3408f15ce","system_id":"levelo_inurba_marseille","lat":43.273125,"lon":5.390731,"is_reserved":false,"is_disabled":false,"rental_uris":{"android":"levelo://app?vid=2ac21d3a-fdc5-4100-83ef-abe3408f15ce","ios":"levelo://app?vid=2ac21d3a-fdc5-4100-83ef-abe3408f15ce"},"vehicle_type_id":"4","last_reported":1702296818,"current_range_meters":15200,"station_id":"ce4bhgp2rcd13ifvqfe0","pricing_plan_id":"free"},{"bike_id":"e8d01571-862b-4acb-b11f-ca979b7ed28f","system_id":"levelo_inurba_marseille","lat":43.273227,"lon":5.390981,"is_reserved":false,"is_disabled":false,"rental_uris":{"android":"levelo://app?vid=e8d01571-862b-4acb-b11f-ca979b7ed28f","ios":"levelo://app?vid=e8d01571-862b-4acb-b11f-ca979b7ed28f"},"vehicle_type_id":"4","last_reported":1702296818,"current_range_meters":22800,"station_id":"ce4bhgp2rcd13ifvqfe0","pricing_plan_id":"free"},{"bike_id":"1fc6b9ca-860e-40cf-8369-5e3eaa72f1cb","system_id":"levelo_inurba_marseille","lat":43.274099,"lon":5.394019,"is_reserved":false,"is_disabled":false,"rental_uris":{"android":"levelo://app?vid=1fc6b9ca-860e-40cf-8369-5e3eaa72f1cb","ios":"levelo://app?vid=1fc6b9ca-860e-40cf-8369-5e3eaa72f1cb"},"vehicle_type_id":"4","last_reported":1702296818,"current_range_meters":12000,"station_id":"ce4bhdp2rcd13ifvqf20","pricing_plan_id":"free"},{"bike_id":"47c25ca4-7986-4c81-b15c-e6532d19a717","system_id":"levelo_inurba_marseille","lat":43.274103,"lon":5.394016,"is_reserved":false,"is_disabled":false,"rental_uris":{"android":"levelo://app?vid=47c25ca4-7986-4c81-b15c-e6532d19a717","ios":"levelo://app?vid=47c25ca4-7986-4c81-b15c-e6532d19a717"},"vehicle_type_id":"4","last_reported":1702296818,"current_range_meters":28800,"station_id":"ce4bhdp2rcd13ifvqf20","pricing_plan_id":"free"},{"bike_id":"cf96e08c-27ce-469e-9449-75a5cbbabd28","system_id":"levelo_inurba_marseille","lat":43.304126,"lon":5.425384,"is_reserved":false,"is_disabled":false,"rental_uris":{"android":"levelo://app?vid=cf96e08c-27ce-469e-9449-75a5cbbabd28","ios":"levelo://app?vid=cf96e08c-27ce-469e-9449-75a5cbbabd28"},"vehicle_type_id":"4","last_reported":1702296818,"current_range_meters":22400,"station_id":"ce4bhoh2rcd13ifvqh6g","pricing_plan_id":"free"},{"bike_id":"212f7b32-21bc-468b-9440-92c456a65a01","system_id":"levelo_inurba_marseille","lat":43.30414,"lon":5.42545,"is_reserved":false,"is_disabled":false,"rental_uris":{"android":"levelo://app?vid=212f7b32-21bc-468b-9440-92c456a65a01","ios":"levelo://app?vid=212f7b32-21bc-468b-9440-92c456a65a01"},"vehicle_type_id":"4","last_reported":1702296818,"current_range_meters":27600,"station_id":"ce4bhoh2rcd13ifvqh6g","pricing_plan_id":"free"},{"bike_id":"b9debe89-81ac-406d-91f0-22eec5d1b29a","system_id":"levelo_inurba_marseille","lat":43.272124,"lon":5.391768,"is_reserved":false,"is_disabled":false,"rental_uris":{"android":"levelo://app?vid=b9debe89-81ac-406d-91f0-22eec5d1b29a","ios":"levelo://app?vid=b9debe89-81ac-406d-91f0-22eec5d1b29a"},"vehicle_type_id":"4","last_reported":1702296818,"current_range_meters":12000,"station_id":"ce4bhhp2rcd13ifvqfm0","pricing_plan_id":"free"},{"bike_id":"e8bbb54c-64fc-4ebc-ad9c-6b21516d264a","system_id":"levelo_inurba_marseille","lat":43.269467,"lon":5.386439,"is_reserved":false,"is_disabled":false,"rental_uris":{"android":"levelo://app?vid=e8bbb54c-64fc-4ebc-ad9c-6b21516d264a","ios":"levelo://app?vid=e8bbb54c-64fc-4ebc-ad9c-6b21516d264a"},"vehicle_type_id":"4","last_reported":1702296818,"current_range_meters":20400,"station_id":"ce4bhh92rcd13ifvqfh0","pricing_plan_id":"free"},{"bike_id":"f8b4ccaa-6ae2-4583-afed-3324dddbb9b2","system_id":"levelo_inurba_marseille","lat":43.269467,"lon":5.386439,"is_reserved":false,"is_disabled":false,"rental_uris":{"android":"levelo://app?vid=f8b4ccaa-6ae2-4583-afed-3324dddbb9b2","ios":"levelo://app?vid=f8b4ccaa-6ae2-4583-afed-3324dddbb9b2"},"vehicle_type_id":"4","last_reported":1702296818,"current_range_meters":18800,"station_id":"ce4bhh92rcd13ifvqfh0","pricing_plan_id":"free"},{"bike_id":"a7349a22-18db-4848-a49f-5424194c4c34","system_id":"levelo_inurba_marseille","lat":43.269467,"lon":5.386439,"is_reserved":false,"is_disabled":false,"rental_uris":{"android":"levelo://app?vid=a7349a22-18db-4848-a49f-5424194c4c34","ios":"levelo://app?vid=a7349a22-18db-4848-a49f-5424194c4c34"},"vehicle_type_id":"4","last_reported":1702296818,"current_range_meters":12800,"station_id":"ce4bhh92rcd13ifvqfh0","pricing_plan_id":"free"},{"bike_id":"c59e5893-0521-49e1-988e-653569be1906","system_id":"levelo_inurba_marseille","lat":43.269319,"lon":5.389397,"is_reserved":false,"is_disabled":false,"rental_uris":{"android":"levelo://app?vid=c59e5893-0521-49e1-988e-653569be1906","ios":"levelo://app?vid=c59e5893-0521-49e1-988e-653569be1906"},"vehicle_type_id":"4","last_reported":1702296818,"current_range_meters":30000,"station_id":"ce4bhhh2rcd13ifvqfl0","pricing_plan_id":"free"},{"bike_id":"c639dfa5-99a2-4ae5-bf54-1b1c96687262","system_id":"levelo_inurba_marseille","lat":43.325433,"lon":5.42953,"is_reserved":false,"is_disabled":false,"rental_uris":{"android":"levelo://app?vid=c639dfa5-99a2-4ae5-bf54-1b1c96687262","ios":"levelo://app?vid=c639dfa5-99a2-4ae5-bf54-1b1c96687262"},"vehicle_type_id":"4","last_reported":1702296818,"current_range_meters":2400,"station_id":"","pricing_plan_id":"free"},{"bike_id":"6c9a7769-40d4-42dc-9b48-47769de74c91","system_id":"levelo_inurba_marseille","lat":43.2633,"lon":5.37675,"is_reserved":false,"is_disabled":false,"rental_uris":{"android":"levelo://app?vid=6c9a7769-40d4-42dc-9b48-47769de74c91","ios":"levelo://app?vid=6c9a7769-40d4-42dc-9b48-47769de74c91"},"vehicle_type_id":"4","last_reported":1702296818,"current_range_meters":13600,"station_id":"","pricing_plan_id":"free"},{"bike_id":"ea7f35e7-843a-4e0c-9e19-25d8833eb5a7","system_id":"levelo_inurba_marseille","lat":43.261782,"lon":5.374515,"is_reserved":false,"is_disabled":false,"rental_uris":{"android":"levelo://app?vid=ea7f35e7-843a-4e0c-9e19-25d8833eb5a7","ios":"levelo://app?vid=ea7f35e7-843a-4e0c-9e19-25d8833eb5a7"},"vehicle_type_id":"4","last_reported":1702296818,"current_range_meters":6000,"station_id":"ce4bhgp2rcd13ifvqfc0","pricing_plan_id":"free"},{"bike_id":"00322ffc-d031-44e0-a358-9f59f2fcb538","system_id":"levelo_inurba_marseille","lat":43.3171,"lon":5.43705,"is_reserved":false,"is_disabled":false,"rental_uris":{"android":"levelo://app?vid=00322ffc-d031-44e0-a358-9f59f2fcb538","ios":"levelo://app?vid=00322ffc-d031-44e0-a358-9f59f2fcb538"},"vehicle_type_id":"4","last_reported":1702296818,"current_range_meters":27600,"station_id":"ce4bhp92rcd13ifvqhcg","pricing_plan_id":"free"},{"bike_id":"2d9559d0-e884-4e3e-b067-368084190b29","system_id":"levelo_inurba_marseille","lat":43.261782,"lon":5.374515,"is_reserved":false,"is_disabled":false,"rental_uris":{"android":"levelo://app?vid=2d9559d0-e884-4e3e-b067-368084190b29","ios":"levelo://app?vid=2d9559d0-e884-4e3e-b067-368084190b29"},"vehicle_type_id":"4","last_reported":1702296818,"current_range_meters":26800,"station_id":"ce4bhgp2rcd13ifvqfc0","pricing_plan_id":"free"},{"bike_id":"9cefd302-4f4b-4313-abfc-693463aa7e11","system_id":"levelo_inurba_marseille","lat":43.26202,"lon":5.379299,"is_reserved":false,"is_disabled":false,"rental_uris":{"android":"levelo://app?vid=9cefd302-4f4b-4313-abfc-693463aa7e11","ios":"levelo://app?vid=9cefd302-4f4b-4313-abfc-693463aa7e11"},"vehicle_type_id":"4","last_reported":1702296818,"current_range_meters":29200,"station_id":"ce4bhjp2rcd13ifvqg90","pricing_plan_id":"free"},{"bike_id":"2c7b98ce-e063-405c-8360-76e688dbb89c","system_id":"levelo_inurba_marseille","lat":43.267959,"lon":5.402685,"is_reserved":false,"is_disabled":false,"rental_uris":{"android":"levelo://app?vid=2c7b98ce-e063-405c-8360-76e688dbb89c","ios":"levelo://app?vid=2c7b98ce-e063-405c-8360-76e688dbb89c"},"vehicle_type_id":"4","last_reported":1702296818,"current_range_meters":30000,"station_id":"ce501612rcd8frsf0b60","pricing_plan_id":"free"},{"bike_id":"7ef0e874-4d14-4db6-97d3-23537a85b219","system_id":"levelo_inurba_marseille","lat":43.298768,"lon":5.43643,"is_reserved":false,"is_disabled":false,"rental_uris":{"android":"levelo://app?vid=7ef0e874-4d14-4db6-97d3-23537a85b219","ios":"levelo://app?vid=7ef0e874-4d14-4db6-97d3-23537a85b219"},"vehicle_type_id":"4","last_reported":1702296818,"current_range_meters":26800,"station_id":"ce4bhpp2rcd13ifvqhfg","pricing_plan_id":"free"},{"bike_id":"8a1ed615-e50e-4aae-bbdc-eb67cea98b5a","system_id":"levelo_inurba_marseille","lat":43.281548,"lon":5.42643,"is_reserved":false,"is_disabled":false,"rental_uris":{"android":"levelo://app?vid=8a1ed615-e50e-4aae-bbdc-eb67cea98b5a","ios":"levelo://app?vid=8a1ed615-e50e-4aae-bbdc-eb67cea98b5a"},"vehicle_type_id":"4","last_reported":1702296818,"current_range_meters":30400,"station_id":"ce4bhnh2rcd13ifvqgug","pricing_plan_id":"free"},{"bike_id":"4005910e-7ca2-45d9-a38a-3b848a722d73","system_id":"levelo_inurba_marseille","lat":43.281548,"lon":5.42643,"is_reserved":false,"is_disabled":false,"rental_uris":{"android":"levelo://app?vid=4005910e-7ca2-45d9-a38a-3b848a722d73","ios":"levelo://app?vid=4005910e-7ca2-45d9-a38a-3b848a722d73"},"vehicle_type_id":"4","last_reported":1702296818,"current_range_meters":7600,"station_id":"ce4bhnh2rcd13ifvqgug","pricing_plan_id":"free"},{"bike_id":"c5f8ce05-fb68-4fe3-9832-e13562ae04b7","system_id":"levelo_inurba_marseille","lat":43.2607,"lon":5.393983,"is_reserved":false,"is_disabled":false,"rental_uris":{"android":"levelo://app?vid=c5f8ce05-fb68-4fe3-9832-e13562ae04b7","ios":"levelo://app?vid=c5f8ce05-fb68-4fe3-9832-e13562ae04b7"},"vehicle_type_id":"4","last_reported":1702296818,"current_range_meters":20000,"station_id":"ce4bhh92rcd13ifvqfj0","pricing_plan_id":"free"},{"bike_id":"2fa8e3b6-926b-4686-9f4e-e6187cfd85c5","system_id":"levelo_inurba_marseille","lat":43.2607,"lon":5.393983,"is_reserved":false,"is_disabled":false,"rental_uris":{"android":"levelo://app?vid=2fa8e3b6-926b-4686-9f4e-e6187cfd85c5","ios":"levelo://app?vid=2fa8e3b6-926b-4686-9f4e-e6187cfd85c5"},"vehicle_type_id":"4","last_reported":1702296818,"current_range_meters":30400,"station_id":"ce4bhh92rcd13ifvqfj0","pricing_plan_id":"free"},{"bike_id":"bbc0b2e4-acff-439b-99ea-14ce90be3513","system_id":"levelo_inurba_marseille","lat":43.2607,"lon":5.393983,"is_reserved":false,"is_disabled":false,"rental_uris":{"android":"levelo://app?vid=bbc0b2e4-acff-439b-99ea-14ce90be3513","ios":"levelo://app?vid=bbc0b2e4-acff-439b-99ea-14ce90be3513"},"vehicle_type_id":"4","last_reported":1702296818,"current_range_meters":5600,"station_id":"ce4bhh92rcd13ifvqfj0","pricing_plan_id":"free"},{"bike_id":"be1777b3-53d3-4274-aa46-aa8bdb86d47d","system_id":"levelo_inurba_marseille","lat":43.254947,"lon":5.376454,"is_reserved":false,"is_disabled":false,"rental_uris":{"android":"levelo://app?vid=be1777b3-53d3-4274-aa46-aa8bdb86d47d","ios":"levelo://app?vid=be1777b3-53d3-4274-aa46-aa8bdb86d47d"},"vehicle_type_id":"4","last_reported":1702296818,"current_range_meters":26000,"station_id":"ce4bhh12rcd13ifvqff0","pricing_plan_id":"free"},{"bike_id":"008691f6-234a-4534-ae3a-200143d2c64c","system_id":"levelo_inurba_marseille","lat":43.254947,"lon":5.376454,"is_reserved":false,"is_disabled":false,"rental_uris":{"android":"levelo://app?vid=008691f6-234a-4534-ae3a-200143d2c64c","ios":"levelo://app?vid=008691f6-234a-4534-ae3a-200143d2c64c"},"vehicle_type_id":"4","last_reported":1702296818,"current_range_meters":28400,"station_id":"ce4bhh12rcd13ifvqff0","pricing_plan_id":"free"},{"bike_id":"d30e68c4-80e5-4190-b49e-6652180bc6fd","system_id":"levelo_inurba_marseille","lat":43.259343,"lon":5.40909,"is_reserved":false,"is_disabled":false,"rental_uris":{"android":"levelo://app?vid=d30e68c4-80e5-4190-b49e-6652180bc6fd","ios":"levelo://app?vid=d30e68c4-80e5-4190-b49e-6652180bc6fd"},"vehicle_type_id":"4","last_reported":1702296818,"current_range_meters":24800,"station_id":"ce4bhm92rcd13ifvqglg","pricing_plan_id":"free"},{"bike_id":"8c7abb6e-331e-4e60-82ae-a192159b793d","system_id":"levelo_inurba_marseille","lat":43.257079,"lon":5.411051,"is_reserved":false,"is_disabled":false,"rental_uris":{"android":"levelo://app?vid=8c7abb6e-331e-4e60-82ae-a192159b793d","ios":"levelo://app?vid=8c7abb6e-331e-4e60-82ae-a192159b793d"},"vehicle_type_id":"4","last_reported":1702296818,"current_range_meters":28400,"station_id":"ce4bhkp2rcd13ifvqgd0","pricing_plan_id":"free"},{"bike_id":"074aa8e2-7db8-4adb-82e0-1401504031c0","system_id":"levelo_inurba_marseille","lat":43.24992,"lon":5.3894,"is_reserved":false,"is_disabled":false,"rental_uris":{"android":"levelo://app?vid=074aa8e2-7db8-4adb-82e0-1401504031c0","ios":"levelo://app?vid=074aa8e2-7db8-4adb-82e0-1401504031c0"},"vehicle_type_id":"4","last_reported":1702296818,"current_range_meters":19200,"station_id":"ce4bhgp2rcd13ifvqfd0","pricing_plan_id":"free"},{"bike_id":"6041fd4c-cec9-48cc-a1fe-bca19589be63","system_id":"levelo_inurba_marseille","lat":43.250966,"lon":5.395186,"is_reserved":false,"is_disabled":false,"rental_uris":{"android":"levelo://app?vid=6041fd4c-cec9-48cc-a1fe-bca19589be63","ios":"levelo://app?vid=6041fd4c-cec9-48cc-a1fe-bca19589be63"},"vehicle_type_id":"4","last_reported":1702296818,"current_range_meters":27600,"station_id":"ce4bhm12rcd13ifvqgkg","pricing_plan_id":"free"},{"bike_id":"2965457f-728c-412e-b49f-a7c72d20ff8b","system_id":"levelo_inurba_marseille","lat":43.24667,"lon":5.38166,"is_reserved":false,"is_disabled":false,"rental_uris":{"android":"levelo://app?vid=2965457f-728c-412e-b49f-a7c72d20ff8b","ios":"levelo://app?vid=2965457f-728c-412e-b49f-a7c72d20ff8b"},"vehicle_type_id":"4","last_reported":1702296818,"current_range_meters":24000,"station_id":"ce4bhih2rcd13ifvqfr0","pricing_plan_id":"free"},{"bike_id":"edb5f3b4-c067-4fc9-95cb-fd9acda2ba3c","system_id":"levelo_inurba_marseille","lat":43.24693,"lon":5.382096,"is_reserved":false,"is_disabled":false,"rental_uris":{"android":"levelo://app?vid=edb5f3b4-c067-4fc9-95cb-fd9acda2ba3c","ios":"levelo://app?vid=edb5f3b4-c067-4fc9-95cb-fd9acda2ba3c"},"vehicle_type_id":"4","last_reported":1702296818,"current_range_meters":13200,"station_id":"ce4bhih2rcd13ifvqfr0","pricing_plan_id":"free"},{"bike_id":"b3f1e24d-5ab5-41c9-b058-92e04e4a4fc9","system_id":"levelo_inurba_marseille","lat":43.24661,"lon":5.38161,"is_reserved":false,"is_disabled":false,"rental_uris":{"android":"levelo://app?vid=b3f1e24d-5ab5-41c9-b058-92e04e4a4fc9","ios":"levelo://app?vid=b3f1e24d-5ab5-41c9-b058-92e04e4a4fc9"},"vehicle_type_id":"4","last_reported":1702296818,"current_range_meters":6400,"station_id":"ce4bhih2rcd13ifvqfr0","pricing_plan_id":"free"},{"bike_id":"ecf823e3-25ab-4b49-bdad-01970cf48bf4","system_id":"levelo_inurba_marseille","lat":43.246461,"lon":5.389014,"is_reserved":false,"is_disabled":false,"rental_uris":{"android":"levelo://app?vid=ecf823e3-25ab-4b49-bdad-01970cf48bf4","ios":"levelo://app?vid=ecf823e3-25ab-4b49-bdad-01970cf48bf4"},"vehicle_type_id":"4","last_reported":1702296818,"current_range_meters":28800,"station_id":"ce4bhg12rcd13ifvqf60","pricing_plan_id":"free"},{"bike_id":"2f7352b6-a6a2-4ab8-8ad4-8dd172819e14","system_id":"levelo_inurba_marseille","lat":43.246467,"lon":5.388984,"is_reserved":false,"is_disabled":false,"rental_uris":{"android":"levelo://app?vid=2f7352b6-a6a2-4ab8-8ad4-8dd172819e14","ios":"levelo://app?vid=2f7352b6-a6a2-4ab8-8ad4-8dd172819e14"},"vehicle_type_id":"4","last_reported":1702296818,"current_range_meters":25200,"station_id":"ce4bhg12rcd13ifvqf60","pricing_plan_id":"free"},{"bike_id":"b1e5fdec-0ffa-4ae2-89b8-6046f4f09510","system_id":"levelo_inurba_marseille","lat":43.240766,"lon":5.377602,"is_reserved":false,"is_disabled":false,"rental_uris":{"android":"levelo://app?vid=b1e5fdec-0ffa-4ae2-89b8-6046f4f09510","ios":"levelo://app?vid=b1e5fdec-0ffa-4ae2-89b8-6046f4f09510"},"vehicle_type_id":"4","last_reported":1702296818,"current_range_meters":24000,"station_id":"","pricing_plan_id":"free"},{"bike_id":"aa52692c-5018-4782-8ecf-b67c5ef980bd","system_id":"levelo_inurba_marseille","lat":43.24074,"lon":5.37761,"is_reserved":false,"is_disabled":false,"rental_uris":{"android":"levelo://app?vid=aa52692c-5018-4782-8ecf-b67c5ef980bd","ios":"levelo://app?vid=aa52692c-5018-4782-8ecf-b67c5ef980bd"},"vehicle_type_id":"4","last_reported":1702296818,"current_range_meters":8800,"station_id":"ce4bhnp2rcd13ifvqgvg","pricing_plan_id":"free"},{"bike_id":"5a3733a4-a9d0-4a4d-b0f1-9f1b0004531b","system_id":"levelo_inurba_marseille","lat":43.24074,"lon":5.37764,"is_reserved":false,"is_disabled":false,"rental_uris":{"android":"levelo://app?vid=5a3733a4-a9d0-4a4d-b0f1-9f1b0004531b","ios":"levelo://app?vid=5a3733a4-a9d0-4a4d-b0f1-9f1b0004531b"},"vehicle_type_id":"4","last_reported":1702296818,"current_range_meters":19600,"station_id":"ce4bhnp2rcd13ifvqgvg","pricing_plan_id":"free"},{"bike_id":"99273208-c595-4fe4-a762-35d82c664411","system_id":"levelo_inurba_marseille","lat":43.24072,"lon":5.37765,"is_reserved":false,"is_disabled":false,"rental_uris":{"android":"levelo://app?vid=99273208-c595-4fe4-a762-35d82c664411","ios":"levelo://app?vid=99273208-c595-4fe4-a762-35d82c664411"},"vehicle_type_id":"4","last_reported":1702296818,"current_range_meters":4800,"station_id":"ce4bhnp2rcd13ifvqgvg","pricing_plan_id":"free"},{"bike_id":"019fd4e5-ec65-4613-9a18-b33e4431c62a","system_id":"levelo_inurba_marseille","lat":43.240623,"lon":5.377642,"is_reserved":false,"is_disabled":false,"rental_uris":{"android":"levelo://app?vid=019fd4e5-ec65-4613-9a18-b33e4431c62a","ios":"levelo://app?vid=019fd4e5-ec65-4613-9a18-b33e4431c62a"},"vehicle_type_id":"4","last_reported":1702296818,"current_range_meters":21600,"station_id":"ce4bhnp2rcd13ifvqgvg","pricing_plan_id":"free"},{"bike_id":"e0dd7e6f-d7c7-4557-9227-e1246441c28c","system_id":"levelo_inurba_marseille","lat":43.240623,"lon":5.377642,"is_reserved":false,"is_disabled":false,"rental_uris":{"android":"levelo://app?vid=e0dd7e6f-d7c7-4557-9227-e1246441c28c","ios":"levelo://app?vid=e0dd7e6f-d7c7-4557-9227-e1246441c28c"},"vehicle_type_id":"4","last_reported":1702296818,"current_range_meters":19600,"station_id":"ce4bhnp2rcd13ifvqgvg","pricing_plan_id":"free"},{"bike_id":"fb92617f-681b-4ae0-a8bc-cd403c645582","system_id":"levelo_inurba_marseille","lat":43.239588,"lon":5.366238,"is_reserved":false,"is_disabled":false,"rental_uris":{"android":"levelo://app?vid=fb92617f-681b-4ae0-a8bc-cd403c645582","ios":"levelo://app?vid=fb92617f-681b-4ae0-a8bc-cd403c645582"},"vehicle_type_id":"4","last_reported":1702296818,"current_range_meters":14000,"station_id":"ce4bhi12rcd13ifvqfp0","pricing_plan_id":"free"},{"bike_id":"fc2f990c-f12a-4d49-b078-90e208fbd693","system_id":"levelo_inurba_marseille","lat":43.239588,"lon":5.366238,"is_reserved":false,"is_disabled":false,"rental_uris":{"android":"levelo://app?vid=fc2f990c-f12a-4d49-b078-90e208fbd693","ios":"levelo://app?vid=fc2f990c-f12a-4d49-b078-90e208fbd693"},"vehicle_type_id":"4","last_reported":1702296818,"current_range_meters":26400,"station_id":"ce4bhi12rcd13ifvqfp0","pricing_plan_id":"free"},{"bike_id":"ff3311be-0e5d-4347-bfab-118723a2b76e","system_id":"levelo_inurba_marseille","lat":43.231919,"lon":5.355532,"is_reserved":false,"is_disabled":false,"rental_uris":{"android":"levelo://app?vid=ff3311be-0e5d-4347-bfab-118723a2b76e","ios":"levelo://app?vid=ff3311be-0e5d-4347-bfab-118723a2b76e"},"vehicle_type_id":"4","last_reported":1702296818,"current_range_meters":29600,"station_id":"ce4bhu92rcd13ifvqi70","pricing_plan_id":"free"},{"bike_id":"7ae90ed5-c1ae-45c2-a571-c3b6038bd4cb","system_id":"levelo_inurba_marseille","lat":43.231919,"lon":5.355532,"is_reserved":false,"is_disabled":false,"rental_uris":{"android":"levelo://app?vid=7ae90ed5-c1ae-45c2-a571-c3b6038bd4cb","ios":"levelo://app?vid=7ae90ed5-c1ae-45c2-a571-c3b6038bd4cb"},"vehicle_type_id":"4","last_reported":1702296818,"current_range_meters":17600,"station_id":"ce4bhu92rcd13ifvqi70","pricing_plan_id":"free"},{"bike_id":"e445b7e6-35f6-4b5c-a6cd-2957185a5f0b","system_id":"levelo_inurba_marseille","lat":43.231919,"lon":5.355532,"is_reserved":false,"is_disabled":false,"rental_uris":{"android":"levelo://app?vid=e445b7e6-35f6-4b5c-a6cd-2957185a5f0b","ios":"levelo://app?vid=e445b7e6-35f6-4b5c-a6cd-2957185a5f0b"},"vehicle_type_id":"4","last_reported":1702296818,"current_range_meters":11600,"station_id":"ce4bhu92rcd13ifvqi70","pricing_plan_id":"free"},{"bike_id":"ee81ef4e-a1bb-4d6a-b3d1-997cc1fadc87","system_id":"levelo_inurba_marseille","lat":43.231919,"lon":5.355532,"is_reserved":false,"is_disabled":false,"rental_uris":{"android":"levelo://app?vid=ee81ef4e-a1bb-4d6a-b3d1-997cc1fadc87","ios":"levelo://app?vid=ee81ef4e-a1bb-4d6a-b3d1-997cc1fadc87"},"vehicle_type_id":"4","last_reported":1702296818,"current_range_meters":6800,"station_id":"ce4bhu92rcd13ifvqi70","pricing_plan_id":"free"},{"bike_id":"8b36b446-aead-44b8-88cc-484ca2b2b684","system_id":"levelo_inurba_marseille","lat":43.2318,"lon":5.39999,"is_reserved":false,"is_disabled":false,"rental_uris":{"android":"levelo://app?vid=8b36b446-aead-44b8-88cc-484ca2b2b684","ios":"levelo://app?vid=8b36b446-aead-44b8-88cc-484ca2b2b684"},"vehicle_type_id":"4","last_reported":1702296818,"current_range_meters":16400,"station_id":"ce4bhn12rcd13ifvqgqg","pricing_plan_id":"free"},{"bike_id":"04309115-d373-402b-ba36-b1c5f3db9ad3","system_id":"levelo_inurba_marseille","lat":43.231562,"lon":5.436933,"is_reserved":false,"is_disabled":false,"rental_uris":{"android":"levelo://app?vid=04309115-d373-402b-ba36-b1c5f3db9ad3","ios":"levelo://app?vid=04309115-d373-402b-ba36-b1c5f3db9ad3"},"vehicle_type_id":"4","last_reported":1702296818,"current_range_meters":27600,"station_id":"ce4bhmp2rcd13ifvqgog","pricing_plan_id":"free"},{"bike_id":"e867c508-1925-4372-8551-8e22a3a5630e","system_id":"levelo_inurba_marseille","lat":43.231562,"lon":5.436933,"is_reserved":false,"is_disabled":false,"rental_uris":{"android":"levelo://app?vid=e867c508-1925-4372-8551-8e22a3a5630e","ios":"levelo://app?vid=e867c508-1925-4372-8551-8e22a3a5630e"},"vehicle_type_id":"4","last_reported":1702296818,"current_range_meters":6400,"station_id":"ce4bhmp2rcd13ifvqgog","pricing_plan_id":"free"},{"bike_id":"1aae6cdc-e4e2-4912-a240-f90a945937f8","system_id":"levelo_inurba_marseille","lat":43.231562,"lon":5.436933,"is_reserved":false,"is_disabled":false,"rental_uris":{"android":"levelo://app?vid=1aae6cdc-e4e2-4912-a240-f90a945937f8","ios":"levelo://app?vid=1aae6cdc-e4e2-4912-a240-f90a945937f8"},"vehicle_type_id":"4","last_reported":1702296818,"current_range_meters":31200,"station_id":"ce4bhmp2rcd13ifvqgog","pricing_plan_id":"free"}]}}