{"last_updated":1700388397,"ttl":30,"version":"2.2","data":{"bikes":[{"bike_id":"7a885d95-b87f-4a3f-8502-cc1b031c2230","system_id":"levelo_inurba_marseille","lat":43.309076,"lon":5.368465,"is_reserved":false,"is_disabled":false,"rental_uris":{"android":"levelo://app?vid=7a885d95-b87f-4a3f-8502-cc1b031c2230","ios":"levelo://app?vid=7a885d95-b87f-4a3f-8502-cc1b031c2230"},"vehicle_type_id":"4","last_reported":1700388397,"current_range_meters":27200,"station_id":"ce4bgn92rcd13ifvqbvg","pricing_plan_id":"free"},{"bike_id":"8107c2e4-c7df-4617-978e-4b3b6c674ab6","system_id":"levelo_inurba_marseille","lat":43.309076,"lon":5.368465,"is_reserved":false,"is_disabled":false,"rental_uris":{"android":"levelo://app?vid=8107c2e4-c7df-4617-978e-4b3b6c674ab6","ios":"levelo://app?vid=8107c2e4-c7df-4617-978e-4b3b6c674ab6"},"vehicle_type_id":"4","last_reported":1700388397,"current_range_meters":1200,"station_id":"ce4bgn92rcd13ifvqbvg","pricing_plan_id":"free"},{"bike_id":"c3fd171c-f068-407d-9095-edbfef4b761a","system_id":"levelo_inurba_marseille","lat":43.314811,"lon":5.373104,"is_reserved":false,"is_disabled":false,"rental_uris":{"android":"levelo://app?vid=c3fd171c-f068-407d-9095-edbfef4b761a","ios":"levelo://app?vid=c3fd171c-f068-407d-9095-edbfef4b761a"},"vehicle_type_id":"4","last_reported":1700388397,"current_range_meters":1600,"station_id":"ce4bgt12rcd13ifvqcd0","pricing_plan_id":"free"},{"bike_id":"34c4c9de-174d-4bb0-bc6c-22e2d448e355","system_id":"levelo_inurba_marseille","lat":43.314811,"lon":5.373104,"is_reserved":false,"is_disabled":false,"rental_uris":{"android":"levelo://app?vid=34c4c9de-174d-4bb0-bc6c-22e2d448e355","ios":"levelo://app?vid=34c4c9de-174d-4bb0-bc6c-22e2d448e355"},"vehicle_type_id":"4","last_reported":1700388397,"current_range_meters":16800,"station_id":"ce4bgt12rcd13ifvqcd0","pricing_plan_id":"free"},{"bike_id":"3475d204-43b6-43d9-b615-ca1d0d58200e","system_id":"levelo_inurba_marseille","lat":43.30679,"lon":5.3679,"is_reserved":false,"is_disabled":false,"rental_uris":{"android":"levelo://app?vid=3475d204-43b6-43d9-b615-ca1d0d58200e","ios":"levelo://app?vid=3475d204-43b6-43d9-b615-ca1d0d58200e"},"vehicle_type_id":"4","last_reported":1700388397,"current_range_meters":11200,"station_id":"","pricing_plan_id":"free"},{"bike_id":"607819cf-a4fa-4b55-885d-29b97af7d346","system_id":"levelo_inurba_marseille","lat":43.30553,"lon":5.36697,"is_reserved":false,"is_disabled":false,"rental_uris":{"android":"levelo://app?vid=607819cf-a4fa-4b55-885d-29b97af7d346","ios":"levelo://app?vid=607819cf-a4fa-4b55-885d-29b97af7d346"},"vehicle_type_id":"4","last_reported":1700388397,"current_range_meters":0,"station_id":"ce4bgrp2rcd13ifvqc9g","pricing_plan_id":"free"},{"bike_id":"91cd8b28-86b0-4a0b-8044-7554e33fe95b","system_id":"levelo_inurba_marseille","lat":43.305712,"lon":5.365641,"is_reserved":false,"is_disabled":false,"rental_uris":{"android":"levelo://app?vid=91cd8b28-86b0-4a0b-8044-7554e33fe95b","ios":"levelo://app?vid=91cd8b28-86b0-4a0b-8044-7554e33fe95b"},"vehicle_type_id":"4","last_reported":1700388397,"current_range_meters":31200,"station_id":"ce4bgs12rcd13ifvqcag","pricing_plan_id":"free"},{"bike_id":"66eac4f4-04e8-4ddc-bfe4-d2570a7e3c30","system_id":"levelo_inurba_marseille","lat":43.30548,"lon":5.36546,"is_reserved":false,"is_disabled":false,"rental_uris":{"android":"levelo://app?vid=66eac4f4-04e8-4ddc-bfe4-d2570a7e3c30","ios":"levelo://app?vid=66eac4f4-04e8-4ddc-bfe4-d2570a7e3c30"},"vehicle_type_id":"4","last_reported":1700388397,"current_range_meters":2400,"station_id":"ce4bgs12rcd13ifvqcag","pricing_plan_id":"free"},{"bike_id":"09ccbac6-0f01-4cfb-8bb8-da5484277d5c","system_id":"levelo_inurba_marseille","lat":43.31952,"lon":5.371,"is_reserved":false,"is_disabled":false,"rental_uris":{"android":"levelo://app?vid=09ccbac6-0f01-4cfb-8bb8-da5484277d5c","ios":"levelo://app?vid=09ccbac6-0f01-4cfb-8bb8-da5484277d5c"},"vehicle_type_id":"4","last_reported":1700388397,"current_range_meters":800,"station_id":"","pricing_plan_id":"free"},{"bike_id":"719d0f62-26e0-43a6-9b68-0589c5ea14c8","system_id":"levelo_inurba_marseille","lat":43.305706,"lon":5.365654,"is_reserved":false,"is_disabled":false,"rental_uris":{"android":"levelo://app?vid=719d0f62-26e0-43a6-9b68-0589c5ea14c8","ios":"levelo://app?vid=719d0f62-26e0-43a6-9b68-0589c5ea14c8"},"vehicle_type_id":"4","last_reported":1700388397,"current_range_meters":14800,"station_id":"ce4bgs12rcd13ifvqcag","pricing_plan_id":"free"},{"bike_id":"0e51fca5-bbad-4b4d-a551-1a765e663f8f","system_id":"levelo_inurba_marseille","lat":43.305989,"lon":5.37225,"is_reserved":false,"is_disabled":false,"rental_uris":{"android":"levelo://app?vid=0e51fca5-bbad-4b4d-a551-1a765e663f8f","ios":"levelo://app?vid=0e51fca5-bbad-4b4d-a551-1a765e663f8f"},"vehicle_type_id":"4","last_reported":1700388397,"current_range_meters":0,"station_id":"ce4bgqh2rcd13ifvqc4g","pricing_plan_id":"free"},{"bike_id":"dcbf9c93-0758-41cf-8699-4ede01d69428","system_id":"levelo_inurba_marseille","lat":43.308161,"lon":5.376518,"is_reserved":false,"is_disabled":false,"rental_uris":{"android":"levelo://app?vid=dcbf9c93-0758-41cf-8699-4ede01d69428","ios":"levelo://app?vid=dcbf9c93-0758-41cf-8699-4ede01d69428"},"vehicle_type_id":"4","last_reported":1700388397,"current_range_meters":12000,"station_id":"ce4bgv92rcd13ifvqcq0","pricing_plan_id":"free"},{"bike_id":"1e04415b-3b52-4cfa-88c9-3795153e0d28","system_id":"levelo_inurba_marseille","lat":43.307858,"lon":5.376496,"is_reserved":false,"is_disabled":false,"rental_uris":{"android":"levelo://app?vid=1e04415b-3b52-4cfa-88c9-3795153e0d28","ios":"levelo://app?vid=1e04415b-3b52-4cfa-88c9-3795153e0d28"},"vehicle_type_id":"4","last_reported":1700388397,"current_range_meters":26800,"station_id":"ce4bgv92rcd13ifvqcq0","pricing_plan_id":"free"},{"bike_id":"184737ea-30ec-475d-964a-e94f53249e42","system_id":"levelo_inurba_marseille","lat":43.307945,"lon":5.376487,"is_reserved":false,"is_disabled":false,"rental_uris":{"android":"levelo://app?vid=184737ea-30ec-475d-964a-e94f53249e42","ios":"levelo://app?vid=184737ea-30ec-475d-964a-e94f53249e42"},"vehicle_type_id":"4","last_reported":1700388397,"current_range_meters":28800,"station_id":"ce4bgv92rcd13ifvqcq0","pricing_plan_id":"free"},{"bike_id":"621c6813-1569-4a9e-8f10-4a24632f0f5f","system_id":"levelo_inurba_marseille","lat":43.307828,"lon":5.376478,"is_reserved":false,"is_disabled":false,"rental_uris":{"android":"levelo://app?vid=621c6813-1569-4a9e-8f10-4a24632f0f5f","ios":"levelo://app?vid=621c6813-1569-4a9e-8f10-4a24632f0f5f"},"vehicle_type_id":"4","last_reported":1700388397,"current_range_meters":28800,"station_id":"ce4bgv92rcd13ifvqcq0","pricing_plan_id":"free"},{"bike_id":"df411042-cecb-4418-bfea-6199d261e29e","system_id":"levelo_inurba_marseille","lat":43.304606,"lon":5.379026,"is_reserved":false,"is_disabled":false,"rental_uris":{"android":"levelo://app?vid=df411042-cecb-4418-bfea-6199d261e29e","ios":"levelo://app?vid=df411042-cecb-4418-bfea-6199d261e29e"},"vehicle_type_id":"4","last_reported":1700388397,"current_range_meters":21200,"station_id":"ce4bgup2rcd13ifvqcn0","pricing_plan_id":"free"},{"bike_id":"6b01c202-6229-4733-b3d5-d87feeb93ab2","system_id":"levelo_inurba_marseille","lat":43.304606,"lon":5.379026,"is_reserved":false,"is_disabled":false,"rental_uris":{"android":"levelo://app?vid=6b01c202-6229-4733-b3d5-d87feeb93ab2","ios":"levelo://app?vid=6b01c202-6229-4733-b3d5-d87feeb93ab2"},"vehicle_type_id":"4","last_reported":1700388397,"current_range_meters":4400,"station_id":"ce4bgup2rcd13ifvqcn0","pricing_plan_id":"free"},{"bike_id":"418ab556-efd0-45a1-b908-9d077affdc50","system_id":"levelo_inurba_marseille","lat":43.304606,"lon":5.379026,"is_reserved":false,"is_disabled":false,"rental_uris":{"android":"levelo://app?vid=418ab556-efd0-45a1-b908-9d077affdc50","ios":"levelo://app?vid=418ab556-efd0-45a1-b908-9d077affdc50"},"vehicle_type_id":"4","last_reported":1700388397,"current_range_meters":28400,"station_id":"ce4bgup2rcd13ifvqcn0","pricing_plan_id":"free"},{"bike_id":"8c6b9948-2f23-41f5-967e-cd18cc963390","system_id":"levelo_inurba_marseille","lat":43.32481,"lon":5.36559,"is_reserved":false,"is_disabled":false,"rental_uris":{"android":"levelo://app?vid=8c6b9948-2f23-41f5-967e-cd18cc963390","ios":"levelo://app?vid=8c6b9948-2f23-41f5-967e-cd18cc963390"},"vehicle_type_id":"4","last_reported":1700388397,"current_range_meters":16000,"station_id":"ce4bhs12rcd13ifvqhvg","pricing_plan_id":"free"},{"bike_id":"3a722b20-8d9a-4ed7-bed2-82edca53ad10","system_id":"levelo_inurba_marseille","lat":43.32483,"lon":5.36558,"is_reserved":false,"is_disabled":false,"rental_uris":{"android":"levelo://app?vid=3a722b20-8d9a-4ed7-bed2-82edca53ad10","ios":"levelo://app?vid=3a722b20-8d9a-4ed7-bed2-82edca53ad10"},"vehicle_type_id":"4","last_reported":1700388397,"current_range_meters":17200,"station_id":"ce4bhs12rcd13ifvqhvg","pricing_plan_id":"free"},{"bike_id":"752146dd-b916-4cde-a656-1d7537983ebe","system_id":"levelo_inurba_marseille","lat":43.302784,"lon":5.377158,"is_reserved":false,"is_disabled":false,"rental_uris":{"android":"levelo://app?vid=752146dd-b916-4cde-a656-1d7537983ebe","ios":"levelo://app?vid=752146dd-b916-4cde-a656-1d7537983ebe"},"vehicle_type_id":"4","last_reported":1700388397,"current_range_meters":28400,"station_id":"ce4bguh2rcd13ifvqcj0","pricing_plan_id":"free"},{"bike_id":"29f378ea-fca6-4049-bf25-0c81b86eb138","system_id":"levelo_inurba_marseille","lat":43.301429,"lon":5.37413,"is_reserved":false,"is_disabled":false,"rental_uris":{"android":"levelo://app?vid=29f378ea-fca6-4049-bf25-0c81b86eb138","ios":"levelo://app?vid=29f378ea-fca6-4049-bf25-0c81b86eb138"},"vehicle_type_id":"4","last_reported":1700388397,"current_range_meters":29600,"station_id":"ce4bgs92rcd13ifvqcc0","pricing_plan_id":"free"},{"bike_id":"5da9dea2-bd9f-4746-b637-56e44ea9e587","system_id":"levelo_inurba_marseille","lat":43.298489,"lon":5.362942,"is_reserved":false,"is_disabled":false,"rental_uris":{"android":"levelo://app?vid=5da9dea2-bd9f-4746-b637-56e44ea9e587","ios":"levelo://app?vid=5da9dea2-bd9f-4746-b637-56e44ea9e587"},"vehicle_type_id":"4","last_reported":1700388397,"current_range_meters":0,"station_id":"","pricing_plan_id":"free"},{"bike_id":"5e6e75b6-7e48-465e-9a25-74236abaa939","system_id":"levelo_inurba_marseille","lat":43.298433,"lon":5.362774,"is_reserved":false,"is_disabled":false,"rental_uris":{"android":"levelo://app?vid=5e6e75b6-7e48-465e-9a25-74236abaa939","ios":"levelo://app?vid=5e6e75b6-7e48-465e-9a25-74236abaa939"},"vehicle_type_id":"4","last_reported":1700388397,"current_range_meters":26400,"station_id":"ce4bgpp2rcd13ifvqc3g","pricing_plan_id":"free"},{"bike_id":"3f45edc8-a601-4903-9480-a8d2b7f6d9b4","system_id":"levelo_inurba_marseille","lat":43.305364,"lon":5.384119,"is_reserved":false,"is_disabled":false,"rental_uris":{"android":"levelo://app?vid=3f45edc8-a601-4903-9480-a8d2b7f6d9b4","ios":"levelo://app?vid=3f45edc8-a601-4903-9480-a8d2b7f6d9b4"},"vehicle_type_id":"4","last_reported":1700388397,"current_range_meters":22400,"station_id":"ce4bgg92rcd13ifvqb30","pricing_plan_id":"free"},{"bike_id":"5f835015-76f3-4c40-8496-53d498110d81","system_id":"levelo_inurba_marseille","lat":43.297794,"lon":5.370888,"is_reserved":false,"is_disabled":false,"rental_uris":{"android":"levelo://app?vid=5f835015-76f3-4c40-8496-53d498110d81","ios":"levelo://app?vid=5f835015-76f3-4c40-8496-53d498110d81"},"vehicle_type_id":"4","last_reported":1700388397,"current_range_meters":26000,"station_id":"ce4bgop2rcd13ifvqc1g","pricing_plan_id":"free"},{"bike_id":"6c5d7580-0af2-4711-aac6-b10b4ab61119","system_id":"levelo_inurba_marseille","lat":43.297847,"lon":5.372297,"is_reserved":false,"is_disabled":false,"rental_uris":{"android":"levelo://app?vid=6c5d7580-0af2-4711-aac6-b10b4ab61119","ios":"levelo://app?vid=6c5d7580-0af2-4711-aac6-b10b4ab61119"},"vehicle_type_id":"4","last_reported":1700388397,"current_range_meters":0,"station_id":"","pricing_plan_id":"free"},{"bike_id":"70e5f425-3a99-4890-9652-7802c0578c8b","system_id":"levelo_inurba_marseille","lat":43.297163,"lon":5.365866,"is_reserved":false,"is_disabled":false,"rental_uris":{"android":"levelo://app?vid=70e5f425-3a99-4890-9652-7802c0578c8b","ios":"levelo://app?vid=70e5f425-3a99-4890-9652-7802c0578c8b"},"vehicle_type_id":"4","last_reported":1700388397,"current_range_meters":21200,"station_id":"ce4bgn12rcd13ifvqbt0","pricing_plan_id":"free"},{"bike_id":"400f50f1-8856-47a5-98cc-d6af2c8bca12","system_id":"levelo_inurba_marseille","lat":43.32831,"lon":5.36687,"is_reserved":false,"is_disabled":false,"rental_uris":{"android":"levelo://app?vid=400f50f1-8856-47a5-98cc-d6af2c8bca12","ios":"levelo://app?vid=400f50f1-8856-47a5-98cc-d6af2c8bca12"},"vehicle_type_id":"4","last_reported":1700388397,"current_range_meters":10800,"station_id":"ce4bhs92rcd13ifvqi0g","pricing_plan_id":"free"},{"bike_id":"f1823e1a-4a1c-465c-a3d5-b3d8c07ce2f2","system_id":"levelo_inurba_marseille","lat":43.32835,"lon":5.36687,"is_reserved":false,"is_disabled":false,"rental_uris":{"android":"levelo://app?vid=f1823e1a-4a1c-465c-a3d5-b3d8c07ce2f2","ios":"levelo://app?vid=f1823e1a-4a1c-465c-a3d5-b3d8c07ce2f2"},"vehicle_type_id":"4","last_reported":1700388397,"current_range_meters":14800,"station_id":"ce4bhs92rcd13ifvqi0g","pricing_plan_id":"free"},{"bike_id":"60a7f6f9-6212-4e51-9320-5917a061ab53","system_id":"levelo_inurba_marseille","lat":43.296875,"lon":5.372908,"is_reserved":false,"is_disabled":false,"rental_uris":{"android":"levelo://app?vid=60a7f6f9-6212-4e51-9320-5917a061ab53","ios":"levelo://app?vid=60a7f6f9-6212-4e51-9320-5917a061ab53"},"vehicle_type_id":"4","last_reported":1700388397,"current_range_meters":3200,"station_id":"ce4bgk12rcd13ifvqbj0","pricing_plan_id":"free"},{"bike_id":"2a07802c-16d5-4104-9ab3-93ca6dd62601","system_id":"levelo_inurba_marseille","lat":43.29601,"lon":5.368027,"is_reserved":false,"is_disabled":false,"rental_uris":{"android":"levelo://app?vid=2a07802c-16d5-4104-9ab3-93ca6dd62601","ios":"levelo://app?vid=2a07802c-16d5-4104-9ab3-93ca6dd62601"},"vehicle_type_id":"4","last_reported":1700388397,"current_range_meters":27200,"station_id":"","pricing_plan_id":"free"},{"bike_id":"e7a37e8f-98cc-4c1d-b0fb-6436caf50ad3","system_id":"levelo_inurba_marseille","lat":43.296131,"lon":5.370773,"is_reserved":false,"is_disabled":false,"rental_uris":{"android":"levelo://app?vid=e7a37e8f-98cc-4c1d-b0fb-6436caf50ad3","ios":"levelo://app?vid=e7a37e8f-98cc-4c1d-b0fb-6436caf50ad3"},"vehicle_type_id":"4","last_reported":1700388397,"current_range_meters":27200,"station_id":"ce4bgnh2rcd13ifvqc0g","pricing_plan_id":"free"},{"bike_id":"d738e043-b6ff-4c2a-b463-60846861260e","system_id":"levelo_inurba_marseille","lat":43.29582,"lon":5.36748,"is_reserved":false,"is_disabled":false,"rental_uris":{"android":"levelo://app?vid=d738e043-b6ff-4c2a-b463-60846861260e","ios":"levelo://app?vid=d738e043-b6ff-4c2a-b463-60846861260e"},"vehicle_type_id":"4","last_reported":1700388397,"current_range_meters":16800,"station_id":"ce4bgph2rcd13ifvqc2g","pricing_plan_id":"free"},{"bike_id":"462a3f5c-8371-407e-86ab-abaf1708fb4d","system_id":"levelo_inurba_marseille","lat":43.299097,"lon":5.381467,"is_reserved":false,"is_disabled":false,"rental_uris":{"android":"levelo://app?vid=462a3f5c-8371-407e-86ab-abaf1708fb4d","ios":"levelo://app?vid=462a3f5c-8371-407e-86ab-abaf1708fb4d"},"vehicle_type_id":"4","last_reported":1700388397,"current_range_meters":0,"station_id":"ce4bgj12rcd13ifvqbc0","pricing_plan_id":"free"},{"bike_id":"511d020f-5511-4304-849a-a2c85d55fc5d","system_id":"levelo_inurba_marseille","lat":43.309589,"lon":5.390258,"is_reserved":false,"is_disabled":false,"rental_uris":{"android":"levelo://app?vid=511d020f-5511-4304-849a-a2c85d55fc5d","ios":"levelo://app?vid=511d020f-5511-4304-849a-a2c85d55fc5d"},"vehicle_type_id":"4","last_reported":1700388397,"current_range_meters":18000,"station_id":"ce4bgup2rcd13ifvqco0","pricing_plan_id":"free"},{"bike_id":"8edb6020-1aa1-4df4-939c-891ee0a801fb","system_id":"levelo_inurba_marseille","lat":43.309589,"lon":5.390258,"is_reserved":false,"is_disabled":false,"rental_uris":{"android":"levelo://app?vid=8edb6020-1aa1-4df4-939c-891ee0a801fb","ios":"levelo://app?vid=8edb6020-1aa1-4df4-939c-891ee0a801fb"},"vehicle_type_id":"4","last_reported":1700388397,"current_range_meters":12400,"station_id":"ce4bgup2rcd13ifvqco0","pricing_plan_id":"free"},{"bike_id":"ca02bab2-4d25-47a1-afae-96c3f766ab2b","system_id":"levelo_inurba_marseille","lat":43.309589,"lon":5.390258,"is_reserved":false,"is_disabled":false,"rental_uris":{"android":"levelo://app?vid=ca02bab2-4d25-47a1-afae-96c3f766ab2b","ios":"levelo://app?vid=ca02bab2-4d25-47a1-afae-96c3f766ab2b"},"vehicle_type_id":"4","last_reported":1700388397,"current_range_meters":22400,"station_id":"ce4bgup2rcd13ifvqco0","pricing_plan_id":"free"},{"bike_id":"3e3e92fe-39b7-4933-99ff-3747b28b5d69","system_id":"levelo_inurba_marseille","lat":43.328154,"lon":5.380034,"is_reserved":false,"is_disabled":false,"rental_uris":{"android":"levelo://app?vid=3e3e92fe-39b7-4933-99ff-3747b28b5d69","ios":"levelo://app?vid=3e3e92fe-39b7-4933-99ff-3747b28b5d69"},"vehicle_type_id":"4","last_reported":1700388397,"current_range_meters":6400,"station_id":"","pricing_plan_id":"free"},{"bike_id":"67ffd28a-0325-489b-a10f-d90500122751","system_id":"levelo_inurba_marseille","lat":43.295748,"lon":5.37522,"is_reserved":false,"is_disabled":false,"rental_uris":{"android":"levelo://app?vid=67ffd28a-0325-489b-a10f-d90500122751","ios":"levelo://app?vid=67ffd28a-0325-489b-a10f-d90500122751"},"vehicle_type_id":"4","last_reported":1700388397,"current_range_meters":30000,"station_id":"ce4bgh92rcd13ifvqb50","pricing_plan_id":"free"},{"bike_id":"12ddbd97-75f6-4d02-b686-cdccb5376845","system_id":"levelo_inurba_marseille","lat":43.295279,"lon":5.375048,"is_reserved":false,"is_disabled":false,"rental_uris":{"android":"levelo://app?vid=12ddbd97-75f6-4d02-b686-cdccb5376845","ios":"levelo://app?vid=12ddbd97-75f6-4d02-b686-cdccb5376845"},"vehicle_type_id":"4","last_reported":1700388397,"current_range_meters":26400,"station_id":"ce4bgkp2rcd13ifvqbmg","pricing_plan_id":"free"},{"bike_id":"e145a3f7-00ac-4f8f-bfe5-435bc38ccaf7","system_id":"levelo_inurba_marseille","lat":43.293801,"lon":5.363066,"is_reserved":false,"is_disabled":false,"rental_uris":{"android":"levelo://app?vid=e145a3f7-00ac-4f8f-bfe5-435bc38ccaf7","ios":"levelo://app?vid=e145a3f7-00ac-4f8f-bfe5-435bc38ccaf7"},"vehicle_type_id":"4","last_reported":1700388397,"current_range_meters":24400,"station_id":"","pricing_plan_id":"free"},{"bike_id":"0a06601c-7af3-4cc8-883a-957f89184095","system_id":"levelo_inurba_marseille","lat":43.29602,"lon":5.381084,"is_reserved":false,"is_disabled":false,"rental_uris":{"android":"levelo://app?vid=0a06601c-7af3-4cc8-883a-957f89184095","ios":"levelo://app?vid=0a06601c-7af3-4cc8-883a-957f89184095"},"vehicle_type_id":"4","last_reported":1700388397,"current_range_meters":21200,"station_id":"ce4bgl12rcd13ifvqbo0","pricing_plan_id":"free"},{"bike_id":"4eef38cc-64cf-4f4d-8d5b-99bd9d3b1b37","system_id":"levelo_inurba_marseille","lat":43.293218,"lon":5.371113,"is_reserved":false,"is_disabled":false,"rental_uris":{"android":"levelo://app?vid=4eef38cc-64cf-4f4d-8d5b-99bd9d3b1b37","ios":"levelo://app?vid=4eef38cc-64cf-4f4d-8d5b-99bd9d3b1b37"},"vehicle_type_id":"4","last_reported":1700388397,"current_range_meters":25200,"station_id":"","pricing_plan_id":"free"},{"bike_id":"0930aadf-a4a0-479c-bb7d-7b5b4bb4213e","system_id":"levelo_inurba_marseille","lat":43.293259,"lon":5.371586,"is_reserved":false,"is_disabled":false,"rental_uris":{"android":"levelo://app?vid=0930aadf-a4a0-479c-bb7d-7b5b4bb4213e","ios":"levelo://app?vid=0930aadf-a4a0-479c-bb7d-7b5b4bb4213e"},"vehicle_type_id":"4","last_reported":1700388397,"current_range_meters":30400,"station_id":"ce4bgh92rcd13ifvqb40","pricing_plan_id":"free"},{"bike_id":"06f2d6ec-475c-4e4e-b195-ba7a932bdf81","system_id":"levelo_inurba_marseille","lat":43.292789,"lon":5.368499,"is_reserved":false,"is_disabled":false,"rental_uris":{"android":"levelo://app?vid=06f2d6ec-475c-4e4e-b195-ba7a932bdf81","ios":"levelo://app?vid=06f2d6ec-475c-4e4e-b195-ba7a932bdf81"},"vehicle_type_id":"4","last_reported":1700388397,"current_range_meters":1200,"station_id":"ce4bhbp2rcd13ifvqesg","pricing_plan_id":"free"},{"bike_id":"fb08a7df-aaa8-435e-8867-4b081a7c2afd","system_id":"levelo_inurba_marseille","lat":43.293259,"lon":5.371586,"is_reserved":false,"is_disabled":false,"rental_uris":{"android":"levelo://app?vid=fb08a7df-aaa8-435e-8867-4b081a7c2afd","ios":"levelo://app?vid=fb08a7df-aaa8-435e-8867-4b081a7c2afd"},"vehicle_type_id":"4","last_reported":1700388397,"current_range_meters":29200,"station_id":"ce4bgh92rcd13ifvqb40","pricing_plan_id":"free"},{"bike_id":"00426604-0cb2-429a-b42e-64762b418d52","system_id":"levelo_inurba_marseille","lat":43.29275,"lon":5.36846,"is_reserved":false,"is_disabled":false,"rental_uris":{"android":"levelo://app?vid=00426604-0cb2-429a-b42e-64762b418d52","ios":"levelo://app?vid=00426604-0cb2-429a-b42e-64762b418d52"},"vehicle_type_id":"4","last_reported":1700388397,"current_range_meters":20000,"station_id":"ce4bhbp2rcd13ifvqesg","pricing_plan_id":"free"},{"bike_id":"6ef0e5a6-baad-4f27-96c2-f395fc87d147","system_id":"levelo_inurba_marseille","lat":43.293009,"lon":5.374584,"is_reserved":false,"is_disabled":false,"rental_uris":{"android":"levelo://app?vid=6ef0e5a6-baad-4f27-96c2-f395fc87d147","ios":"levelo://app?vid=6ef0e5a6-baad-4f27-96c2-f395fc87d147"},"vehicle_type_id":"4","last_reported":1700388397,"current_range_meters":18000,"station_id":"ce4bgi12rcd13ifvqb70","pricing_plan_id":"free"},{"bike_id":"a5c227a4-4921-4904-a3b4-0e2cd4f74376","system_id":"levelo_inurba_marseille","lat":43.305994,"lon":5.393687,"is_reserved":false,"is_disabled":false,"rental_uris":{"android":"levelo://app?vid=a5c227a4-4921-4904-a3b4-0e2cd4f74376","ios":"levelo://app?vid=a5c227a4-4921-4904-a3b4-0e2cd4f74376"},"vehicle_type_id":"4","last_reported":1700388397,"current_range_meters":26000,"station_id":"ce4bh0p2rcd13ifvqd80","pricing_plan_id":"free"},{"bike_id":"1aaf4e7b-18f5-40c2-8742-557e417c24f9","system_id":"levelo_inurba_marseille","lat":43.298764,"lon":5.388973,"is_reserved":false,"is_disabled":false,"rental_uris":{"android":"levelo://app?vid=1aaf4e7b-18f5-40c2-8742-557e417c24f9","ios":"levelo://app?vid=1aaf4e7b-18f5-40c2-8742-557e417c24f9"},"vehicle_type_id":"4","last_reported":1700388397,"current_range_meters":25600,"station_id":"ce4bh392rcd13ifvqdl0","pricing_plan_id":"free"},{"bike_id":"e89ba958-17e6-4b80-9f64-93e9b2ab3bc3","system_id":"levelo_inurba_marseille","lat":43.291994,"lon":5.357886,"is_reserved":false,"is_disabled":false,"rental_uris":{"android":"levelo://app?vid=e89ba958-17e6-4b80-9f64-93e9b2ab3bc3","ios":"levelo://app?vid=e89ba958-17e6-4b80-9f64-93e9b2ab3bc3"},"vehicle_type_id":"4","last_reported":1700388397,"current_range_meters":20000,"station_id":"ce4bhb12rcd13ifvqel0","pricing_plan_id":"free"},{"bike_id":"f678e39b-3d95-431f-a919-da857e7ed0fc","system_id":"levelo_inurba_marseille","lat":43.291994,"lon":5.357886,"is_reserved":false,"is_disabled":false,"rental_uris":{"android":"levelo://app?vid=f678e39b-3d95-431f-a919-da857e7ed0fc","ios":"levelo://app?vid=f678e39b-3d95-431f-a919-da857e7ed0fc"},"vehicle_type_id":"4","last_reported":1700388397,"current_range_meters":18400,"station_id":"ce4bhb12rcd13ifvqel0","pricing_plan_id":"free"},{"bike_id":"0de747ba-d827-4bc2-8d9f-f961b891b941","system_id":"levelo_inurba_marseille","lat":43.30879,"lon":5.3964,"is_reserved":false,"is_disabled":false,"rental_uris":{"android":"levelo://app?vid=0de747ba-d827-4bc2-8d9f-f961b891b941","ios":"levelo://app?vid=0de747ba-d827-4bc2-8d9f-f961b891b941"},"vehicle_type_id":"4","last_reported":1700388397,"current_range_meters":31200,"station_id":"ce4bh012rcd13ifvqcv0","pricing_plan_id":"free"},{"bike_id":"c39ccfeb-babd-49d1-9312-5c2511664059","system_id":"levelo_inurba_marseille","lat":43.29529,"lon":5.385581,"is_reserved":false,"is_disabled":false,"rental_uris":{"android":"levelo://app?vid=c39ccfeb-babd-49d1-9312-5c2511664059","ios":"levelo://app?vid=c39ccfeb-babd-49d1-9312-5c2511664059"},"vehicle_type_id":"4","last_reported":1700388397,"current_range_meters":27600,"station_id":"ce4bgih2rcd13ifvqba0","pricing_plan_id":"free"},{"bike_id":"d2e5fc98-6047-4a0d-8e08-ee2c402f551e","system_id":"levelo_inurba_marseille","lat":43.294153,"lon":5.386305,"is_reserved":false,"is_disabled":false,"rental_uris":{"android":"levelo://app?vid=d2e5fc98-6047-4a0d-8e08-ee2c402f551e","ios":"levelo://app?vid=d2e5fc98-6047-4a0d-8e08-ee2c402f551e"},"vehicle_type_id":"4","last_reported":1700388397,"current_range_meters":25200,"station_id":"ce4bh2h2rcd13ifvqdh0","pricing_plan_id":"free"},{"bike_id":"51943205-4a51-4fe1-b23b-67be20a166db","system_id":"levelo_inurba_marseille","lat":43.289468,"lon":5.363719,"is_reserved":false,"is_disabled":false,"rental_uris":{"android":"levelo://app?vid=51943205-4a51-4fe1-b23b-67be20a166db","ios":"levelo://app?vid=51943205-4a51-4fe1-b23b-67be20a166db"},"vehicle_type_id":"4","last_reported":1700388397,"current_range_meters":29200,"station_id":"ce4bhc92rcd13ifvqetg","pricing_plan_id":"free"},{"bike_id":"76357fd4-7919-47b6-aa05-0cb862628c63","system_id":"levelo_inurba_marseille","lat":43.2889,"lon":5.36797,"is_reserved":false,"is_disabled":false,"rental_uris":{"android":"levelo://app?vid=76357fd4-7919-47b6-aa05-0cb862628c63","ios":"levelo://app?vid=76357fd4-7919-47b6-aa05-0cb862628c63"},"vehicle_type_id":"4","last_reported":1700388397,"current_range_meters":24800,"station_id":"ce4bhch2rcd13ifvqeug","pricing_plan_id":"free"},{"bike_id":"20e5b157-481a-4676-8213-159d24f8ad6d","system_id":"levelo_inurba_marseille","lat":43.290103,"lon":5.356114,"is_reserved":false,"is_disabled":false,"rental_uris":{"android":"levelo://app?vid=20e5b157-481a-4676-8213-159d24f8ad6d","ios":"levelo://app?vid=20e5b157-481a-4676-8213-159d24f8ad6d"},"vehicle_type_id":"4","last_reported":1700388397,"current_range_meters":25200,"station_id":"ce4bhb92rcd13ifvqen0","pricing_plan_id":"free"},{"bike_id":"5eb8e214-dd5b-4347-84d9-3a3ca75f77b5","system_id":"levelo_inurba_marseille","lat":43.290104,"lon":5.356111,"is_reserved":false,"is_disabled":false,"rental_uris":{"android":"levelo://app?vid=5eb8e214-dd5b-4347-84d9-3a3ca75f77b5","ios":"levelo://app?vid=5eb8e214-dd5b-4347-84d9-3a3ca75f77b5"},"vehicle_type_id":"4","last_reported":1700388397,"current_range_meters":10000,"station_id":"ce4bhb92rcd13ifvqen0","pricing_plan_id":"free"},{"bike_id":"ef3f91e3-3736-44d9-b73b-63188646a167","system_id":"levelo_inurba_marseille","lat":43.28856,"lon":5.358371,"is_reserved":false,"is_disabled":false,"rental_uris":{"android":"levelo://app?vid=ef3f91e3-3736-44d9-b73b-63188646a167","ios":"levelo://app?vid=ef3f91e3-3736-44d9-b73b-63188646a167"},"vehicle_type_id":"4","last_reported":1700388397,"current_range_meters":16800,"station_id":"ce4bhb12rcd13ifvqem0","pricing_plan_id":"free"},{"bike_id":"07202f70-50d7-46f0-a5bd-59712659d6a0","system_id":"levelo_inurba_marseille","lat":43.31251,"lon":5.40162,"is_reserved":false,"is_disabled":false,"rental_uris":{"android":"levelo://app?vid=07202f70-50d7-46f0-a5bd-59712659d6a0","ios":"levelo://app?vid=07202f70-50d7-46f0-a5bd-59712659d6a0"},"vehicle_type_id":"4","last_reported":1700388397,"current_range_meters":11600,"station_id":"","pricing_plan_id":"free"},{"bike_id":"4b839fc0-878b-4eed-9fc2-f5225b4f213c","system_id":"levelo_inurba_marseille","lat":43.31273,"lon":5.40169,"is_reserved":false,"is_disabled":false,"rental_uris":{"android":"levelo://app?vid=4b839fc0-878b-4eed-9fc2-f5225b4f213c","ios":"levelo://app?vid=4b839fc0-878b-4eed-9fc2-f5225b4f213c"},"vehicle_type_id":"4","last_reported":1700388397,"current_range_meters":0,"station_id":"ce4bh092rcd13ifvqd30","pricing_plan_id":"free"},{"bike_id":"ce39088c-0eac-487e-a0f0-d0489df7b78e","system_id":"levelo_inurba_marseille","lat":43.309371,"lon":5.401449,"is_reserved":false,"is_disabled":false,"rental_uris":{"android":"levelo://app?vid=ce39088c-0eac-487e-a0f0-d0489df7b78e","ios":"levelo://app?vid=ce39088c-0eac-487e-a0f0-d0489df7b78e"},"vehicle_type_id":"4","last_reported":1700388397,"current_range_meters":26000,"station_id":"ce4bgvp2rcd13ifvqct0","pricing_plan_id":"free"},{"bike_id":"71d3949d-cb0a-45fc-8cf8-b0577e0ea1cc","system_id":"levelo_inurba_marseille","lat":43.3093,"lon":5.40145,"is_reserved":false,"is_disabled":false,"rental_uris":{"android":"levelo://app?vid=71d3949d-cb0a-45fc-8cf8-b0577e0ea1cc","ios":"levelo://app?vid=71d3949d-cb0a-45fc-8cf8-b0577e0ea1cc"},"vehicle_type_id":"4","last_reported":1700388397,"current_range_meters":31600,"station_id":"ce4bgvp2rcd13ifvqct0","pricing_plan_id":"free"},{"bike_id":"41b29f8b-f360-47bc-9371-a3ac9fb885ac","system_id":"levelo_inurba_marseille","lat":43.309371,"lon":5.401449,"is_reserved":false,"is_disabled":false,"rental_uris":{"android":"levelo://app?vid=41b29f8b-f360-47bc-9371-a3ac9fb885ac","ios":"levelo://app?vid=41b29f8b-f360-47bc-9371-a3ac9fb885ac"},"vehicle_type_id":"4","last_reported":1700388397,"current_range_meters":19200,"station_id":"ce4bgvp2rcd13ifvqct0","pricing_plan_id":"free"},{"bike_id":"56c50f0c-021a-486e-8da6-822bca41d01d","system_id":"levelo_inurba_marseille","lat":43.30642,"lon":5.401031,"is_reserved":false,"is_disabled":false,"rental_uris":{"android":"levelo://app?vid=56c50f0c-021a-486e-8da6-822bca41d01d","ios":"levelo://app?vid=56c50f0c-021a-486e-8da6-822bca41d01d"},"vehicle_type_id":"4","last_reported":1700388397,"current_range_meters":30000,"station_id":"ce4bh112rcd13ifvqda0","pricing_plan_id":"free"},{"bike_id":"46509513-12f0-4bae-91ab-3b5bb7ed22cf","system_id":"levelo_inurba_marseille","lat":43.337718,"lon":5.374254,"is_reserved":false,"is_disabled":false,"rental_uris":{"android":"levelo://app?vid=46509513-12f0-4bae-91ab-3b5bb7ed22cf","ios":"levelo://app?vid=46509513-12f0-4bae-91ab-3b5bb7ed22cf"},"vehicle_type_id":"4","last_reported":1700388397,"current_range_meters":19600,"station_id":"","pricing_plan_id":"free"},{"bike_id":"a15ba9a9-2bdc-4c6a-86d7-308aca28cd04","system_id":"levelo_inurba_marseille","lat":43.301117,"lon":5.398795,"is_reserved":false,"is_disabled":false,"rental_uris":{"android":"levelo://app?vid=a15ba9a9-2bdc-4c6a-86d7-308aca28cd04","ios":"levelo://app?vid=a15ba9a9-2bdc-4c6a-86d7-308aca28cd04"},"vehicle_type_id":"4","last_reported":1700388397,"current_range_meters":10400,"station_id":"ce4bh0h2rcd13ifvqd40","pricing_plan_id":"free"},{"bike_id":"a0f19f80-395d-45e6-9388-509b8a0766a1","system_id":"levelo_inurba_marseille","lat":43.301117,"lon":5.398795,"is_reserved":false,"is_disabled":false,"rental_uris":{"android":"levelo://app?vid=a0f19f80-395d-45e6-9388-509b8a0766a1","ios":"levelo://app?vid=a0f19f80-395d-45e6-9388-509b8a0766a1"},"vehicle_type_id":"4","last_reported":1700388397,"current_range_meters":21200,"station_id":"ce4bh0h2rcd13ifvqd40","pricing_plan_id":"free"},{"bike_id":"b8ee879b-b8c7-47b8-b160-5db2aa792d83","system_id":"levelo_inurba_marseille","lat":43.302759,"lon":5.400793,"is_reserved":false,"is_disabled":false,"rental_uris":{"android":"levelo://app?vid=b8ee879b-b8c7-47b8-b160-5db2aa792d83","ios":"levelo://app?vid=b8ee879b-b8c7-47b8-b160-5db2aa792d83"},"vehicle_type_id":"4","last_reported":1700388397,"current_range_meters":2000,"station_id":"ce4bgvh2rcd13ifvqcs0","pricing_plan_id":"free"},{"bike_id":"11da9b45-26cc-4b09-8151-244ce97768b3","system_id":"levelo_inurba_marseille","lat":43.28717,"lon":5.37944,"is_reserved":false,"is_disabled":false,"rental_uris":{"android":"levelo://app?vid=11da9b45-26cc-4b09-8151-244ce97768b3","ios":"levelo://app?vid=11da9b45-26cc-4b09-8151-244ce97768b3"},"vehicle_type_id":"4","last_reported":1700388397,"current_range_meters":23200,"station_id":"ce4bh9p2rcd13ifvqec0","pricing_plan_id":"free"},{"bike_id":"3fc258f8-8692-486f-88ea-27a2f635a5cc","system_id":"levelo_inurba_marseille","lat":43.28462,"lon":5.35889,"is_reserved":false,"is_disabled":false,"rental_uris":{"android":"levelo://app?vid=3fc258f8-8692-486f-88ea-27a2f635a5cc","ios":"levelo://app?vid=3fc258f8-8692-486f-88ea-27a2f635a5cc"},"vehicle_type_id":"4","last_reported":1700388397,"current_range_meters":0,"station_id":"ce4bhah2rcd13ifvqei0","pricing_plan_id":"free"},{"bike_id":"515c6715-cb8e-44c0-ad65-b9159574e494","system_id":"levelo_inurba_marseille","lat":43.284534,"lon":5.358662,"is_reserved":false,"is_disabled":false,"rental_uris":{"android":"levelo://app?vid=515c6715-cb8e-44c0-ad65-b9159574e494","ios":"levelo://app?vid=515c6715-cb8e-44c0-ad65-b9159574e494"},"vehicle_type_id":"4","last_reported":1700388397,"current_range_meters":26400,"station_id":"ce4bhah2rcd13ifvqei0","pricing_plan_id":"free"},{"bike_id":"a76041fe-70de-463d-999f-e307d543c50d","system_id":"levelo_inurba_marseille","lat":43.28619,"lon":5.35104,"is_reserved":false,"is_disabled":false,"rental_uris":{"android":"levelo://app?vid=a76041fe-70de-463d-999f-e307d543c50d","ios":"levelo://app?vid=a76041fe-70de-463d-999f-e307d543c50d"},"vehicle_type_id":"4","last_reported":1700388397,"current_range_meters":21200,"station_id":"ce4bhch2rcd13ifvqeug","pricing_plan_id":"free"},{"bike_id":"13b2355f-da23-4e06-9534-9446d115e0eb","system_id":"levelo_inurba_marseille","lat":43.28614,"lon":5.35107,"is_reserved":false,"is_disabled":false,"rental_uris":{"android":"levelo://app?vid=13b2355f-da23-4e06-9534-9446d115e0eb","ios":"levelo://app?vid=13b2355f-da23-4e06-9534-9446d115e0eb"},"vehicle_type_id":"4","last_reported":1700388397,"current_range_meters":10800,"station_id":"ce4bhch2rcd13ifvqeug","pricing_plan_id":"free"},{"bike_id":"c12c9104-6ac0-43d5-93a6-c058bc5d4779","system_id":"levelo_inurba_marseille","lat":43.286144,"lon":5.351045,"is_reserved":false,"is_disabled":false,"rental_uris":{"android":"levelo://app?vid=c12c9104-6ac0-43d5-93a6-c058bc5d4779","ios":"levelo://app?vid=c12c9104-6ac0-43d5-93a6-c058bc5d4779"},"vehicle_type_id":"4","last_reported":1700388397,"current_range_meters":14400,"station_id":"ce4bhch2rcd13ifvqeug","pricing_plan_id":"free"},{"bike_id":"ca684aae-e87c-4dc1-8cf7-fdfaf14810bd","system_id":"levelo_inurba_marseille","lat":43.295717,"lon":5.399697,"is_reserved":false,"is_disabled":false,"rental_uris":{"android":"levelo://app?vid=ca684aae-e87c-4dc1-8cf7-fdfaf14810bd","ios":"levelo://app?vid=ca684aae-e87c-4dc1-8cf7-fdfaf14810bd"},"vehicle_type_id":"4","last_reported":1700388397,"current_range_meters":10400,"station_id":"","pricing_plan_id":"free"},{"bike_id":"39d57ba8-1c9d-41ba-8ae8-ead2a13492f7","system_id":"levelo_inurba_marseille","lat":43.319179,"lon":5.407725,"is_reserved":false,"is_disabled":false,"rental_uris":{"android":"levelo://app?vid=39d57ba8-1c9d-41ba-8ae8-ead2a13492f7","ios":"levelo://app?vid=39d57ba8-1c9d-41ba-8ae8-ead2a13492f7"},"vehicle_type_id":"4","last_reported":1700388397,"current_range_meters":9600,"station_id":"ce4bhq12rcd13ifvqhig","pricing_plan_id":"free"},{"bike_id":"5974ad3b-da81-42ca-a08b-1b3632a47afa","system_id":"levelo_inurba_marseille","lat":43.33237,"lon":5.3985,"is_reserved":false,"is_disabled":false,"rental_uris":{"android":"levelo://app?vid=5974ad3b-da81-42ca-a08b-1b3632a47afa","ios":"levelo://app?vid=5974ad3b-da81-42ca-a08b-1b3632a47afa"},"vehicle_type_id":"4","last_reported":1700388397,"current_range_meters":2000,"station_id":"","pricing_plan_id":"free"},{"bike_id":"a08607c1-816a-491b-a085-3077fb7fb178","system_id":"levelo_inurba_marseille","lat":43.323464,"lon":5.406297,"is_reserved":false,"is_disabled":false,"rental_uris":{"android":"levelo://app?vid=a08607c1-816a-491b-a085-3077fb7fb178","ios":"levelo://app?vid=a08607c1-816a-491b-a085-3077fb7fb178"},"vehicle_type_id":"4","last_reported":1700388397,"current_range_meters":30000,"station_id":"ce4bhq92rcd13ifvqhjg","pricing_plan_id":"free"},{"bike_id":"d3dd3e3d-57b0-4c9e-949f-fddd56c2349c","system_id":"levelo_inurba_marseille","lat":43.32521,"lon":5.40575,"is_reserved":false,"is_disabled":false,"rental_uris":{"android":"levelo://app?vid=d3dd3e3d-57b0-4c9e-949f-fddd56c2349c","ios":"levelo://app?vid=d3dd3e3d-57b0-4c9e-949f-fddd56c2349c"},"vehicle_type_id":"4","last_reported":1700388397,"current_range_meters":0,"station_id":"","pricing_plan_id":"free"},{"bike_id":"64497788-ac72-438a-a775-cf59c4852492","system_id":"levelo_inurba_marseille","lat":43.288497,"lon":5.393089,"is_reserved":false,"is_disabled":false,"rental_uris":{"android":"levelo://app?vid=64497788-ac72-438a-a775-cf59c4852492","ios":"levelo://app?vid=64497788-ac72-438a-a775-cf59c4852492"},"vehicle_type_id":"4","last_reported":1700388397,"current_range_meters":25200,"station_id":"ce4bh2p2rcd13ifvqdi0","pricing_plan_id":"free"},{"bike_id":"1c024b91-e315-4b1f-b9f4-0da7f90497ec","system_id":"levelo_inurba_marseille","lat":43.288501,"lon":5.393087,"is_reserved":false,"is_disabled":false,"rental_uris":{"android":"levelo://app?vid=1c024b91-e315-4b1f-b9f4-0da7f90497ec","ios":"levelo://app?vid=1c024b91-e315-4b1f-b9f4-0da7f90497ec"},"vehicle_type_id":"4","last_reported":1700388397,"current_range_meters":26400,"station_id":"ce4bh2p2rcd13ifvqdi0","pricing_plan_id":"free"},{"bike_id":"2410d634-9c7f-4092-a619-a0515584c88b","system_id":"levelo_inurba_marseille","lat":43.284219,"lon":5.3497,"is_reserved":false,"is_disabled":false,"rental_uris":{"android":"levelo://app?vid=2410d634-9c7f-4092-a619-a0515584c88b","ios":"levelo://app?vid=2410d634-9c7f-4092-a619-a0515584c88b"},"vehicle_type_id":"4","last_reported":1700388397,"current_range_meters":28400,"station_id":"ce4bhbh2rcd13ifvqepg","pricing_plan_id":"free"},{"bike_id":"ac75e185-7858-43d5-8878-8a6748055454","system_id":"levelo_inurba_marseille","lat":43.284217,"lon":5.349697,"is_reserved":false,"is_disabled":false,"rental_uris":{"android":"levelo://app?vid=ac75e185-7858-43d5-8878-8a6748055454","ios":"levelo://app?vid=ac75e185-7858-43d5-8878-8a6748055454"},"vehicle_type_id":"4","last_reported":1700388397,"current_range_meters":19200,"station_id":"ce4bhbh2rcd13ifvqepg","pricing_plan_id":"free"},{"bike_id":"f1c4bd7f-15f5-4508-840c-51adf6c86080","system_id":"levelo_inurba_marseille","lat":43.28282,"lon":5.35074,"is_reserved":false,"is_disabled":false,"rental_uris":{"android":"levelo://app?vid=f1c4bd7f-15f5-4508-840c-51adf6c86080","ios":"levelo://app?vid=f1c4bd7f-15f5-4508-840c-51adf6c86080"},"vehicle_type_id":"4","last_reported":1700388397,"current_range_meters":28000,"station_id":"ce4bhbp2rcd13ifvqerg","pricing_plan_id":"free"},{"bike_id":"ab2857c3-8593-4d23-b8ce-188d569cc0cd","system_id":"levelo_inurba_marseille","lat":43.28278,"lon":5.35072,"is_reserved":false,"is_disabled":false,"rental_uris":{"android":"levelo://app?vid=ab2857c3-8593-4d23-b8ce-188d569cc0cd","ios":"levelo://app?vid=ab2857c3-8593-4d23-b8ce-188d569cc0cd"},"vehicle_type_id":"4","last_reported":1700388397,"current_range_meters":800,"station_id":"","pricing_plan_id":"free"},{"bike_id":"492c2c2d-cc0b-4a3a-94cd-dfbb728a3088","system_id":"levelo_inurba_marseille","lat":43.283502,"lon":5.386471,"is_reserved":false,"is_disabled":false,"rental_uris":{"android":"levelo://app?vid=492c2c2d-cc0b-4a3a-94cd-dfbb728a3088","ios":"levelo://app?vid=492c2c2d-cc0b-4a3a-94cd-dfbb728a3088"},"vehicle_type_id":"4","last_reported":1700388397,"current_range_meters":22000,"station_id":"ce4bh492rcd13ifvqdvg","pricing_plan_id":"free"},{"bike_id":"7a1b707c-0456-43af-a93b-6ba1c14178b9","system_id":"levelo_inurba_marseille","lat":43.282714,"lon":5.350726,"is_reserved":false,"is_disabled":false,"rental_uris":{"android":"levelo://app?vid=7a1b707c-0456-43af-a93b-6ba1c14178b9","ios":"levelo://app?vid=7a1b707c-0456-43af-a93b-6ba1c14178b9"},"vehicle_type_id":"4","last_reported":1700388397,"current_range_meters":23200,"station_id":"ce4bhbp2rcd13ifvqerg","pricing_plan_id":"free"},{"bike_id":"1dffef73-168b-42da-b7e4-03622dff7422","system_id":"levelo_inurba_marseille","lat":43.282744,"lon":5.350533,"is_reserved":false,"is_disabled":false,"rental_uris":{"android":"levelo://app?vid=1dffef73-168b-42da-b7e4-03622dff7422","ios":"levelo://app?vid=1dffef73-168b-42da-b7e4-03622dff7422"},"vehicle_type_id":"4","last_reported":1700388397,"current_range_meters":20000,"station_id":"ce4bhbp2rcd13ifvqerg","pricing_plan_id":"free"},{"bike_id":"fade1882-0308-4ab6-8fcb-cd19b8eb6984","system_id":"levelo_inurba_marseille","lat":43.282754,"lon":5.350519,"is_reserved":false,"is_disabled":false,"rental_uris":{"android":"levelo://app?vid=fade1882-0308-4ab6-8fcb-cd19b8eb6984","ios":"levelo://app?vid=fade1882-0308-4ab6-8fcb-cd19b8eb6984"},"vehicle_type_id":"4","last_reported":1700388397,"current_range_meters":17200,"station_id":"ce4bhbp2rcd13ifvqerg","pricing_plan_id":"free"},{"bike_id":"bb09d661-fe5f-4066-a7c0-bd21318501e3","system_id":"levelo_inurba_marseille","lat":43.282744,"lon":5.350533,"is_reserved":false,"is_disabled":false,"rental_uris":{"android":"levelo://app?vid=bb09d661-fe5f-4066-a7c0-bd21318501e3","ios":"levelo://app?vid=bb09d661-fe5f-4066-a7c0-bd21318501e3"},"vehicle_type_id":"4","last_reported":1700388397,"current_range_meters":24000,"station_id":"ce4bhbp2rcd13ifvqerg","pricing_plan_id":"free"},{"bike_id":"59ce318f-66fb-46f4-9992-b93a6a5cdee3","system_id":"levelo_inurba_marseille","lat":43.28103,"lon":5.37844,"is_reserved":false,"is_disabled":false,"rental_uris":{"android":"levelo://app?vid=59ce318f-66fb-46f4-9992-b93a6a5cdee3","ios":"levelo://app?vid=59ce318f-66fb-46f4-9992-b93a6a5cdee3"},"vehicle_type_id":"4","last_reported":1700388397,"current_range_meters":0,"station_id":"ce4bha12rcd13ifvqee0","pricing_plan_id":"free"},{"bike_id":"20afe71b-e308-4e10-96d1-c6ba9740cfcc","system_id":"levelo_inurba_marseille","lat":43.28045,"lon":5.35332,"is_reserved":false,"is_disabled":false,"rental_uris":{"android":"levelo://app?vid=20afe71b-e308-4e10-96d1-c6ba9740cfcc","ios":"levelo://app?vid=20afe71b-e308-4e10-96d1-c6ba9740cfcc"},"vehicle_type_id":"4","last_reported":1700388397,"current_range_meters":26800,"station_id":"","pricing_plan_id":"free"},{"bike_id":"ccf9b17e-2fb6-47d5-b5cb-73ea08fcb6e5","system_id":"levelo_inurba_marseille","lat":43.28575,"lon":5.39498,"is_reserved":false,"is_disabled":false,"rental_uris":{"android":"levelo://app?vid=ccf9b17e-2fb6-47d5-b5cb-73ea08fcb6e5","ios":"levelo://app?vid=ccf9b17e-2fb6-47d5-b5cb-73ea08fcb6e5"},"vehicle_type_id":"4","last_reported":1700388397,"current_range_meters":0,"station_id":"ce4bh292rcd13ifvqdg0","pricing_plan_id":"free"},{"bike_id":"e85470cc-66fb-41ae-9ddd-acb075ca7542","system_id":"levelo_inurba_marseille","lat":43.287795,"lon":5.398552,"is_reserved":false,"is_disabled":false,"rental_uris":{"android":"levelo://app?vid=e85470cc-66fb-41ae-9ddd-acb075ca7542","ios":"levelo://app?vid=e85470cc-66fb-41ae-9ddd-acb075ca7542"},"vehicle_type_id":"4","last_reported":1700388397,"current_range_meters":2000,"station_id":"","pricing_plan_id":"free"},{"bike_id":"e05860e3-01ce-4b1f-86c7-9f839ae165cc","system_id":"levelo_inurba_marseille","lat":43.304188,"lon":5.412904,"is_reserved":false,"is_disabled":false,"rental_uris":{"android":"levelo://app?vid=e05860e3-01ce-4b1f-86c7-9f839ae165cc","ios":"levelo://app?vid=e05860e3-01ce-4b1f-86c7-9f839ae165cc"},"vehicle_type_id":"4","last_reported":1700388397,"current_range_meters":31200,"station_id":"ce4bhop2rcd13ifvqh8g","pricing_plan_id":"free"},{"bike_id":"1a66ec51-8872-4bc4-b87a-d78c086073cf","system_id":"levelo_inurba_marseille","lat":43.292639,"lon":5.408091,"is_reserved":false,"is_disabled":false,"rental_uris":{"android":"levelo://app?vid=1a66ec51-8872-4bc4-b87a-d78c086073cf","ios":"levelo://app?vid=1a66ec51-8872-4bc4-b87a-d78c086073cf"},"vehicle_type_id":"4","last_reported":1700388397,"current_range_meters":7200,"station_id":"","pricing_plan_id":"free"},{"bike_id":"ec3d5511-e101-462c-b1f5-b72b05193400","system_id":"levelo_inurba_marseille","lat":43.299577,"lon":5.413277,"is_reserved":false,"is_disabled":false,"rental_uris":{"android":"levelo://app?vid=ec3d5511-e101-462c-b1f5-b72b05193400","ios":"levelo://app?vid=ec3d5511-e101-462c-b1f5-b72b05193400"},"vehicle_type_id":"4","last_reported":1700388397,"current_range_meters":30000,"station_id":"ce4bhp12rcd13ifvqh9g","pricing_plan_id":"free"},{"bike_id":"920101ac-8686-4ee2-8f25-e4bd699a78bc","system_id":"levelo_inurba_marseille","lat":43.292571,"lon":5.409107,"is_reserved":false,"is_disabled":false,"rental_uris":{"android":"levelo://app?vid=920101ac-8686-4ee2-8f25-e4bd699a78bc","ios":"levelo://app?vid=920101ac-8686-4ee2-8f25-e4bd699a78bc"},"vehicle_type_id":"4","last_reported":1700388397,"current_range_meters":26800,"station_id":"ce4bh192rcd13ifvqdc0","pricing_plan_id":"free"},{"bike_id":"c6788832-3bc0-41bc-81e7-c86f322cdccc","system_id":"levelo_inurba_marseille","lat":43.30356,"lon":5.4188,"is_reserved":false,"is_disabled":false,"rental_uris":{"android":"levelo://app?vid=c6788832-3bc0-41bc-81e7-c86f322cdccc","ios":"levelo://app?vid=c6788832-3bc0-41bc-81e7-c86f322cdccc"},"vehicle_type_id":"4","last_reported":1700388397,"current_range_meters":0,"station_id":"ce4bhop2rcd13ifvqh7g","pricing_plan_id":"free"},{"bike_id":"29caab89-965c-4ed0-a878-714d3fe39485","system_id":"levelo_inurba_marseille","lat":43.27381,"lon":5.362455,"is_reserved":false,"is_disabled":false,"rental_uris":{"android":"levelo://app?vid=29caab89-965c-4ed0-a878-714d3fe39485","ios":"levelo://app?vid=29caab89-965c-4ed0-a878-714d3fe39485"},"vehicle_type_id":"4","last_reported":1700388397,"current_range_meters":25600,"station_id":"ce4bhbh2rcd13ifvqeo0","pricing_plan_id":"free"},{"bike_id":"148da3c3-526a-458c-b5ca-d81b53745054","system_id":"levelo_inurba_marseille","lat":43.275625,"lon":5.384392,"is_reserved":false,"is_disabled":false,"rental_uris":{"android":"levelo://app?vid=148da3c3-526a-458c-b5ca-d81b53745054","ios":"levelo://app?vid=148da3c3-526a-458c-b5ca-d81b53745054"},"vehicle_type_id":"4","last_reported":1700388397,"current_range_meters":18400,"station_id":"ce4bhh92rcd13ifvqfi0","pricing_plan_id":"free"},{"bike_id":"88982103-b77f-4700-a5f3-d4731f62c6e2","system_id":"levelo_inurba_marseille","lat":43.273613,"lon":5.362705,"is_reserved":false,"is_disabled":false,"rental_uris":{"android":"levelo://app?vid=88982103-b77f-4700-a5f3-d4731f62c6e2","ios":"levelo://app?vid=88982103-b77f-4700-a5f3-d4731f62c6e2"},"vehicle_type_id":"4","last_reported":1700388397,"current_range_meters":18000,"station_id":"ce4bhbh2rcd13ifvqeo0","pricing_plan_id":"free"},{"bike_id":"3df5287d-7214-4f4c-bc7f-9ffbc214e1aa","system_id":"levelo_inurba_marseille","lat":43.276771,"lon":5.388799,"is_reserved":false,"is_disabled":false,"rental_uris":{"android":"levelo://app?vid=3df5287d-7214-4f4c-bc7f-9ffbc214e1aa","ios":"levelo://app?vid=3df5287d-7214-4f4c-bc7f-9ffbc214e1aa"},"vehicle_type_id":"4","last_reported":1700388397,"current_range_meters":9200,"station_id":"ce4bhi12rcd13ifvqfo0","pricing_plan_id":"free"},{"bike_id":"d69994bb-c32a-48c3-9c4a-3b835490a2ba","system_id":"levelo_inurba_marseille","lat":43.279952,"lon":5.400085,"is_reserved":false,"is_disabled":false,"rental_uris":{"android":"levelo://app?vid=d69994bb-c32a-48c3-9c4a-3b835490a2ba","ios":"levelo://app?vid=d69994bb-c32a-48c3-9c4a-3b835490a2ba"},"vehicle_type_id":"4","last_reported":1700388397,"current_range_meters":28800,"station_id":"ce4bho92rcd13ifvqh4g","pricing_plan_id":"free"},{"bike_id":"781ae6eb-3597-43d0-afe4-b37e8d7744e8","system_id":"levelo_inurba_marseille","lat":43.279952,"lon":5.400085,"is_reserved":false,"is_disabled":false,"rental_uris":{"android":"levelo://app?vid=781ae6eb-3597-43d0-afe4-b37e8d7744e8","ios":"levelo://app?vid=781ae6eb-3597-43d0-afe4-b37e8d7744e8"},"vehicle_type_id":"4","last_reported":1700388397,"current_range_meters":25200,"station_id":"ce4bho92rcd13ifvqh4g","pricing_plan_id":"free"},{"bike_id":"eafeb385-8734-4d6e-872f-817338dfdd8c","system_id":"levelo_inurba_marseille","lat":43.317121,"lon":5.423936,"is_reserved":false,"is_disabled":false,"rental_uris":{"android":"levelo://app?vid=eafeb385-8734-4d6e-872f-817338dfdd8c","ios":"levelo://app?vid=eafeb385-8734-4d6e-872f-817338dfdd8c"},"vehicle_type_id":"4","last_reported":1700388397,"current_range_meters":20800,"station_id":"ce4bhp92rcd13ifvqhbg","pricing_plan_id":"free"},{"bike_id":"2b211598-c6f8-4e22-9ff6-5fa6873b8d02","system_id":"levelo_inurba_marseille","lat":43.317121,"lon":5.423936,"is_reserved":false,"is_disabled":false,"rental_uris":{"android":"levelo://app?vid=2b211598-c6f8-4e22-9ff6-5fa6873b8d02","ios":"levelo://app?vid=2b211598-c6f8-4e22-9ff6-5fa6873b8d02"},"vehicle_type_id":"4","last_reported":1700388397,"current_range_meters":28800,"station_id":"ce4bhp92rcd13ifvqhbg","pricing_plan_id":"free"},{"bike_id":"78f714bb-7753-4b90-962b-ecf24cce775c","system_id":"levelo_inurba_marseille","lat":43.310785,"lon":5.424305,"is_reserved":false,"is_disabled":false,"rental_uris":{"android":"levelo://app?vid=78f714bb-7753-4b90-962b-ecf24cce775c","ios":"levelo://app?vid=78f714bb-7753-4b90-962b-ecf24cce775c"},"vehicle_type_id":"4","last_reported":1700388397,"current_range_meters":21200,"station_id":"ce4bhp92rcd13ifvqhag","pricing_plan_id":"free"},{"bike_id":"45f02aaa-4947-4afa-970b-0bee9da852ce","system_id":"levelo_inurba_marseille","lat":43.310785,"lon":5.424305,"is_reserved":false,"is_disabled":false,"rental_uris":{"android":"levelo://app?vid=45f02aaa-4947-4afa-970b-0bee9da852ce","ios":"levelo://app?vid=45f02aaa-4947-4afa-970b-0bee9da852ce"},"vehicle_type_id":"4","last_reported":1700388397,"current_range_meters":21600,"station_id":"ce4bhp92rcd13ifvqhag","pricing_plan_id":"free"},{"bike_id":"f1682c53-c82a-4992-b79b-bff87445594c","system_id":"levelo_inurba_marseille","lat":43.310785,"lon":5.424305,"is_reserved":false,"is_disabled":false,"rental_uris":{"android":"levelo://app?vid=f1682c53-c82a-4992-b79b-bff87445594c","ios":"levelo://app?vid=f1682c53-c82a-4992-b79b-bff87445594c"},"vehicle_type_id":"4","last_reported":1700388397,"current_range_meters":17200,"station_id":"ce4bhp92rcd13ifvqhag","pricing_plan_id":"free"},{"bike_id":"168cf9ab-4a4c-4392-a1f3-6bd96aec7123","system_id":"levelo_inurba_marseille","lat":43.310785,"lon":5.424305,"is_reserved":false,"is_disabled":false,"rental_uris":{"android":"levelo://app?vid=168cf9ab-4a4c-4392-a1f3-6bd96aec7123","ios":"levelo://app?vid=168cf9ab-4a4c-4392-a1f3-6bd96aec7123"},"vehicle_type_id":"4","last_reported":1700388397,"current_range_meters":27600,"station_id":"ce4bhp92rcd13ifvqhag","pricing_plan_id":"free"},{"bike_id":"71451a6c-a8ba-4acc-970f-5c7bd5edb629","system_id":"levelo_inurba_marseille","lat":43.274099,"lon":5.394019,"is_reserved":false,"is_disabled":false,"rental_uris":{"android":"levelo://app?vid=71451a6c-a8ba-4acc-970f-5c7bd5edb629","ios":"levelo://app?vid=71451a6c-a8ba-4acc-970f-5c7bd5edb629"},"vehicle_type_id":"4","last_reported":1700388397,"current_range_meters":27200,"station_id":"ce4bhdp2rcd13ifvqf20","pricing_plan_id":"free"},{"bike_id":"ce542890-8717-4995-89d1-bfd21ca58cd1","system_id":"levelo_inurba_marseille","lat":43.304096,"lon":5.425385,"is_reserved":false,"is_disabled":false,"rental_uris":{"android":"levelo://app?vid=ce542890-8717-4995-89d1-bfd21ca58cd1","ios":"levelo://app?vid=ce542890-8717-4995-89d1-bfd21ca58cd1"},"vehicle_type_id":"4","last_reported":1700388397,"current_range_meters":11200,"station_id":"ce4bhoh2rcd13ifvqh6g","pricing_plan_id":"free"},{"bike_id":"18789769-1155-4c3e-b43d-41dcc7813683","system_id":"levelo_inurba_marseille","lat":43.295523,"lon":5.422926,"is_reserved":false,"is_disabled":false,"rental_uris":{"android":"levelo://app?vid=18789769-1155-4c3e-b43d-41dcc7813683","ios":"levelo://app?vid=18789769-1155-4c3e-b43d-41dcc7813683"},"vehicle_type_id":"4","last_reported":1700388397,"current_range_meters":31200,"station_id":"ce4bhph2rcd13ifvqhdg","pricing_plan_id":"free"},{"bike_id":"2a7cc644-8f22-4c4c-a64e-ab107532e50a","system_id":"levelo_inurba_marseille","lat":43.295511,"lon":5.422926,"is_reserved":false,"is_disabled":false,"rental_uris":{"android":"levelo://app?vid=2a7cc644-8f22-4c4c-a64e-ab107532e50a","ios":"levelo://app?vid=2a7cc644-8f22-4c4c-a64e-ab107532e50a"},"vehicle_type_id":"4","last_reported":1700388397,"current_range_meters":17600,"station_id":"ce4bhph2rcd13ifvqhdg","pricing_plan_id":"free"},{"bike_id":"abe024ca-cbec-406a-ab12-ef1f44bbe8dc","system_id":"levelo_inurba_marseille","lat":43.295523,"lon":5.422926,"is_reserved":false,"is_disabled":false,"rental_uris":{"android":"levelo://app?vid=abe024ca-cbec-406a-ab12-ef1f44bbe8dc","ios":"levelo://app?vid=abe024ca-cbec-406a-ab12-ef1f44bbe8dc"},"vehicle_type_id":"4","last_reported":1700388397,"current_range_meters":28400,"station_id":"ce4bhph2rcd13ifvqhdg","pricing_plan_id":"free"},{"bike_id":"f8f5619a-a183-461d-b100-453fb972fcd4","system_id":"levelo_inurba_marseille","lat":43.272118,"lon":5.391758,"is_reserved":false,"is_disabled":false,"rental_uris":{"android":"levelo://app?vid=f8f5619a-a183-461d-b100-453fb972fcd4","ios":"levelo://app?vid=f8f5619a-a183-461d-b100-453fb972fcd4"},"vehicle_type_id":"4","last_reported":1700388397,"current_range_meters":21200,"station_id":"ce4bhhp2rcd13ifvqfm0","pricing_plan_id":"free"},{"bike_id":"139753b1-0b83-4c3a-80f1-5052bac15461","system_id":"levelo_inurba_marseille","lat":43.27215,"lon":5.39265,"is_reserved":false,"is_disabled":false,"rental_uris":{"android":"levelo://app?vid=139753b1-0b83-4c3a-80f1-5052bac15461","ios":"levelo://app?vid=139753b1-0b83-4c3a-80f1-5052bac15461"},"vehicle_type_id":"4","last_reported":1700388397,"current_range_meters":8400,"station_id":"","pricing_plan_id":"free"},{"bike_id":"fe139271-7817-4645-9ec4-f7eee743e805","system_id":"levelo_inurba_marseille","lat":43.271896,"lon":5.392307,"is_reserved":false,"is_disabled":false,"rental_uris":{"android":"levelo://app?vid=fe139271-7817-4645-9ec4-f7eee743e805","ios":"levelo://app?vid=fe139271-7817-4645-9ec4-f7eee743e805"},"vehicle_type_id":"4","last_reported":1700388397,"current_range_meters":0,"station_id":"","pricing_plan_id":"free"},{"bike_id":"f0ed4531-078e-42fb-a007-3ed80505eb54","system_id":"levelo_inurba_marseille","lat":43.271891,"lon":5.392412,"is_reserved":false,"is_disabled":false,"rental_uris":{"android":"levelo://app?vid=f0ed4531-078e-42fb-a007-3ed80505eb54","ios":"levelo://app?vid=f0ed4531-078e-42fb-a007-3ed80505eb54"},"vehicle_type_id":"4","last_reported":1700388397,"current_range_meters":3600,"station_id":"","pricing_plan_id":"free"},{"bike_id":"c9713e23-32ca-4d2a-8940-dff6de0de4d7","system_id":"levelo_inurba_marseille","lat":43.269467,"lon":5.386439,"is_reserved":false,"is_disabled":false,"rental_uris":{"android":"levelo://app?vid=c9713e23-32ca-4d2a-8940-dff6de0de4d7","ios":"levelo://app?vid=c9713e23-32ca-4d2a-8940-dff6de0de4d7"},"vehicle_type_id":"4","last_reported":1700388397,"current_range_meters":28400,"station_id":"ce4bhh92rcd13ifvqfh0","pricing_plan_id":"free"},{"bike_id":"c7758cb2-2a45-4f89-aa5c-0e391d845c76","system_id":"levelo_inurba_marseille","lat":43.326053,"lon":5.429943,"is_reserved":false,"is_disabled":false,"rental_uris":{"android":"levelo://app?vid=c7758cb2-2a45-4f89-aa5c-0e391d845c76","ios":"levelo://app?vid=c7758cb2-2a45-4f89-aa5c-0e391d845c76"},"vehicle_type_id":"4","last_reported":1700388397,"current_range_meters":800,"station_id":"","pricing_plan_id":"free"},{"bike_id":"42871d3b-8c03-490f-baf1-f4b57c44a331","system_id":"levelo_inurba_marseille","lat":43.326569,"lon":5.430586,"is_reserved":false,"is_disabled":false,"rental_uris":{"android":"levelo://app?vid=42871d3b-8c03-490f-baf1-f4b57c44a331","ios":"levelo://app?vid=42871d3b-8c03-490f-baf1-f4b57c44a331"},"vehicle_type_id":"4","last_reported":1700388397,"current_range_meters":16000,"station_id":"","pricing_plan_id":"free"},{"bike_id":"dcfbf680-a092-4d66-82c7-e8ea7bb5f967","system_id":"levelo_inurba_marseille","lat":43.267966,"lon":5.393976,"is_reserved":false,"is_disabled":false,"rental_uris":{"android":"levelo://app?vid=dcfbf680-a092-4d66-82c7-e8ea7bb5f967","ios":"levelo://app?vid=dcfbf680-a092-4d66-82c7-e8ea7bb5f967"},"vehicle_type_id":"4","last_reported":1700388397,"current_range_meters":31200,"station_id":"ce4bhh12rcd13ifvqfg0","pricing_plan_id":"free"},{"bike_id":"a584b2bb-3f70-4a18-af87-51f64e26e4f0","system_id":"levelo_inurba_marseille","lat":43.267966,"lon":5.393976,"is_reserved":false,"is_disabled":false,"rental_uris":{"android":"levelo://app?vid=a584b2bb-3f70-4a18-af87-51f64e26e4f0","ios":"levelo://app?vid=a584b2bb-3f70-4a18-af87-51f64e26e4f0"},"vehicle_type_id":"4","last_reported":1700388397,"current_range_meters":12800,"station_id":"ce4bhh12rcd13ifvqfg0","pricing_plan_id":"free"},{"bike_id":"15c5419a-b588-4ae6-90bd-54417c6f6978","system_id":"levelo_inurba_marseille","lat":43.308051,"lon":5.43527,"is_reserved":false,"is_disabled":false,"rental_uris":{"android":"levelo://app?vid=15c5419a-b588-4ae6-90bd-54417c6f6978","ios":"levelo://app?vid=15c5419a-b588-4ae6-90bd-54417c6f6978"},"vehicle_type_id":"4","last_reported":1700388397,"current_range_meters":22400,"station_id":"ce4bhph2rcd13ifvqheg","pricing_plan_id":"free"},{"bike_id":"c8493734-954e-4d55-82b2-5c0c406b53e5","system_id":"levelo_inurba_marseille","lat":43.26556,"lon":5.39004,"is_reserved":false,"is_disabled":false,"rental_uris":{"android":"levelo://app?vid=c8493734-954e-4d55-82b2-5c0c406b53e5","ios":"levelo://app?vid=c8493734-954e-4d55-82b2-5c0c406b53e5"},"vehicle_type_id":"4","last_reported":1700388397,"current_range_meters":28400,"station_id":"ce4bhe12rcd13ifvqf30","pricing_plan_id":"free"},{"bike_id":"1523bf02-e29b-42d5-870c-891a911a8938","system_id":"levelo_inurba_marseille","lat":43.261782,"lon":5.374515,"is_reserved":false,"is_disabled":false,"rental_uris":{"android":"levelo://app?vid=1523bf02-e29b-42d5-870c-891a911a8938","ios":"levelo://app?vid=1523bf02-e29b-42d5-870c-891a911a8938"},"vehicle_type_id":"4","last_reported":1700388397,"current_range_meters":27200,"station_id":"ce4bhgp2rcd13ifvqfc0","pricing_plan_id":"free"},{"bike_id":"4f4e7029-cbbc-411f-8a7a-1a1e0e814764","system_id":"levelo_inurba_marseille","lat":43.261782,"lon":5.374515,"is_reserved":false,"is_disabled":false,"rental_uris":{"android":"levelo://app?vid=4f4e7029-cbbc-411f-8a7a-1a1e0e814764","ios":"levelo://app?vid=4f4e7029-cbbc-411f-8a7a-1a1e0e814764"},"vehicle_type_id":"4","last_reported":1700388397,"current_range_meters":13600,"station_id":"ce4bhgp2rcd13ifvqfc0","pricing_plan_id":"free"},{"bike_id":"e9548ae4-be25-4f3e-80d1-23e62b0008b7","system_id":"levelo_inurba_marseille","lat":43.261782,"lon":5.374515,"is_reserved":false,"is_disabled":false,"rental_uris":{"android":"levelo://app?vid=e9548ae4-be25-4f3e-80d1-23e62b0008b7","ios":"levelo://app?vid=e9548ae4-be25-4f3e-80d1-23e62b0008b7"},"vehicle_type_id":"4","last_reported":1700388397,"current_range_meters":25600,"station_id":"ce4bhgp2rcd13ifvqfc0","pricing_plan_id":"free"},{"bike_id":"e16aa5be-9b2e-4680-9390-3a720a1c0bfe","system_id":"levelo_inurba_marseille","lat":43.317104,"lon":5.436818,"is_reserved":false,"is_disabled":false,"rental_uris":{"android":"levelo://app?vid=e16aa5be-9b2e-4680-9390-3a720a1c0bfe","ios":"levelo://app?vid=e16aa5be-9b2e-4680-9390-3a720a1c0bfe"},"vehicle_type_id":"4","last_reported":1700388397,"current_range_meters":26400,"station_id":"ce4bhp92rcd13ifvqhcg","pricing_plan_id":"free"},{"bike_id":"47ecfd7c-71ef-4bdf-a37d-886cb8c19a51","system_id":"levelo_inurba_marseille","lat":43.262012,"lon":5.379307,"is_reserved":false,"is_disabled":false,"rental_uris":{"android":"levelo://app?vid=47ecfd7c-71ef-4bdf-a37d-886cb8c19a51","ios":"levelo://app?vid=47ecfd7c-71ef-4bdf-a37d-886cb8c19a51"},"vehicle_type_id":"4","last_reported":1700388397,"current_range_meters":31200,"station_id":"ce4bhjp2rcd13ifvqg90","pricing_plan_id":"free"},{"bike_id":"b32e2de1-6bab-4eb8-b968-5c933e4a655b","system_id":"levelo_inurba_marseille","lat":43.262012,"lon":5.379307,"is_reserved":false,"is_disabled":false,"rental_uris":{"android":"levelo://app?vid=b32e2de1-6bab-4eb8-b968-5c933e4a655b","ios":"levelo://app?vid=b32e2de1-6bab-4eb8-b968-5c933e4a655b"},"vehicle_type_id":"4","last_reported":1700388397,"current_range_meters":31200,"station_id":"ce4bhjp2rcd13ifvqg90","pricing_plan_id":"free"},{"bike_id":"18f018e0-1c7f-4884-8612-59ad868abb57","system_id":"levelo_inurba_marseille","lat":43.262012,"lon":5.379307,"is_reserved":false,"is_disabled":false,"rental_uris":{"android":"levelo://app?vid=18f018e0-1c7f-4884-8612-59ad868abb57","ios":"levelo://app?vid=18f018e0-1c7f-4884-8612-59ad868abb57"},"vehicle_type_id":"4","last_reported":1700388397,"current_range_meters":31600,"station_id":"ce4bhjp2rcd13ifvqg90","pricing_plan_id":"free"},{"bike_id":"10cc9d15-12a4-4222-8ac4-988310eef869","system_id":"levelo_inurba_marseille","lat":43.262012,"lon":5.379307,"is_reserved":false,"is_disabled":false,"rental_uris":{"android":"levelo://app?vid=10cc9d15-12a4-4222-8ac4-988310eef869","ios":"levelo://app?vid=10cc9d15-12a4-4222-8ac4-988310eef869"},"vehicle_type_id":"4","last_reported":1700388397,"current_range_meters":31200,"station_id":"ce4bhjp2rcd13ifvqg90","pricing_plan_id":"free"},{"bike_id":"a27f2fe6-c9c1-4f41-b70b-8ecbc41e6bde","system_id":"levelo_inurba_marseille","lat":43.262012,"lon":5.379307,"is_reserved":false,"is_disabled":false,"rental_uris":{"android":"levelo://app?vid=a27f2fe6-c9c1-4f41-b70b-8ecbc41e6bde","ios":"levelo://app?vid=a27f2fe6-c9c1-4f41-b70b-8ecbc41e6bde"},"vehicle_type_id":"4","last_reported":1700388397,"current_range_meters":31200,"station_id":"ce4bhjp2rcd13ifvqg90","pricing_plan_id":"free"},{"bike_id":"05c00383-ec19-421b-b6cf-818fbc2db8ef","system_id":"levelo_inurba_marseille","lat":43.26202,"lon":5.379299,"is_reserved":false,"is_disabled":false,"rental_uris":{"android":"levelo://app?vid=05c00383-ec19-421b-b6cf-818fbc2db8ef","ios":"levelo://app?vid=05c00383-ec19-421b-b6cf-818fbc2db8ef"},"vehicle_type_id":"4","last_reported":1700388397,"current_range_meters":31600,"station_id":"ce4bhjp2rcd13ifvqg90","pricing_plan_id":"free"},{"bike_id":"1dd4dd20-2d67-44d1-b93b-d14142ab73a4","system_id":"levelo_inurba_marseille","lat":43.26202,"lon":5.379299,"is_reserved":false,"is_disabled":false,"rental_uris":{"android":"levelo://app?vid=1dd4dd20-2d67-44d1-b93b-d14142ab73a4","ios":"levelo://app?vid=1dd4dd20-2d67-44d1-b93b-d14142ab73a4"},"vehicle_type_id":"4","last_reported":1700388397,"current_range_meters":1600,"station_id":"ce4bhjp2rcd13ifvqg90","pricing_plan_id":"free"},{"bike_id":"621dbf3d-a8ce-4ff8-b7a2-b61746dd3457","system_id":"levelo_inurba_marseille","lat":43.26202,"lon":5.379299,"is_reserved":false,"is_disabled":false,"rental_uris":{"android":"levelo://app?vid=621dbf3d-a8ce-4ff8-b7a2-b61746dd3457","ios":"levelo://app?vid=621dbf3d-a8ce-4ff8-b7a2-b61746dd3457"},"vehicle_type_id":"4","last_reported":1700388397,"current_range_meters":26400,"station_id":"ce4bhjp2rcd13ifvqg90","pricing_plan_id":"free"},{"bike_id":"d06dceee-ec7a-4aad-b25e-6d0840a89e3d","system_id":"levelo_inurba_marseille","lat":43.262012,"lon":5.379307,"is_reserved":false,"is_disabled":false,"rental_uris":{"android":"levelo://app?vid=d06dceee-ec7a-4aad-b25e-6d0840a89e3d","ios":"levelo://app?vid=d06dceee-ec7a-4aad-b25e-6d0840a89e3d"},"vehicle_type_id":"4","last_reported":1700388397,"current_range_meters":31200,"station_id":"ce4bhjp2rcd13ifvqg90","pricing_plan_id":"free"},{"bike_id":"e2b30503-236b-4054-b4d9-cc6a91eafc0a","system_id":"levelo_inurba_marseille","lat":43.26202,"lon":5.379299,"is_reserved":false,"is_disabled":false,"rental_uris":{"android":"levelo://app?vid=e2b30503-236b-4054-b4d9-cc6a91eafc0a","ios":"levelo://app?vid=e2b30503-236b-4054-b4d9-cc6a91eafc0a"},"vehicle_type_id":"4","last_reported":1700388397,"current_range_meters":22000,"station_id":"ce4bhjp2rcd13ifvqg90","pricing_plan_id":"free"},{"bike_id":"22b727a9-9142-4203-873d-af829385afe6","system_id":"levelo_inurba_marseille","lat":43.26202,"lon":5.379299,"is_reserved":false,"is_disabled":false,"rental_uris":{"android":"levelo://app?vid=22b727a9-9142-4203-873d-af829385afe6","ios":"levelo://app?vid=22b727a9-9142-4203-873d-af829385afe6"},"vehicle_type_id":"4","last_reported":1700388397,"current_range_meters":31600,"station_id":"ce4bhjp2rcd13ifvqg90","pricing_plan_id":"free"},{"bike_id":"bcf0b301-e2a1-41ec-acd8-ca3c9d017f9d","system_id":"levelo_inurba_marseille","lat":43.26202,"lon":5.379299,"is_reserved":false,"is_disabled":false,"rental_uris":{"android":"levelo://app?vid=bcf0b301-e2a1-41ec-acd8-ca3c9d017f9d","ios":"levelo://app?vid=bcf0b301-e2a1-41ec-acd8-ca3c9d017f9d"},"vehicle_type_id":"4","last_reported":1700388397,"current_range_meters":18400,"station_id":"ce4bhjp2rcd13ifvqg90","pricing_plan_id":"free"},{"bike_id":"c4692fbd-b674-4f72-93b8-b45e596d5484","system_id":"levelo_inurba_marseille","lat":43.26202,"lon":5.379299,"is_reserved":false,"is_disabled":false,"rental_uris":{"android":"levelo://app?vid=c4692fbd-b674-4f72-93b8-b45e596d5484","ios":"levelo://app?vid=c4692fbd-b674-4f72-93b8-b45e596d5484"},"vehicle_type_id":"4","last_reported":1700388397,"current_range_meters":22000,"station_id":"ce4bhjp2rcd13ifvqg90","pricing_plan_id":"free"},{"bike_id":"0ad1b81a-6990-449b-b6f7-a2b1217ae316","system_id":"levelo_inurba_marseille","lat":43.26202,"lon":5.379299,"is_reserved":false,"is_disabled":false,"rental_uris":{"android":"levelo://app?vid=0ad1b81a-6990-449b-b6f7-a2b1217ae316","ios":"levelo://app?vid=0ad1b81a-6990-449b-b6f7-a2b1217ae316"},"vehicle_type_id":"4","last_reported":1700388397,"current_range_meters":30800,"station_id":"ce4bhjp2rcd13ifvqg90","pricing_plan_id":"free"},{"bike_id":"6903a251-9f6c-44af-927a-5f7d93eb6a4d","system_id":"levelo_inurba_marseille","lat":43.26202,"lon":5.379299,"is_reserved":false,"is_disabled":false,"rental_uris":{"android":"levelo://app?vid=6903a251-9f6c-44af-927a-5f7d93eb6a4d","ios":"levelo://app?vid=6903a251-9f6c-44af-927a-5f7d93eb6a4d"},"vehicle_type_id":"4","last_reported":1700388397,"current_range_meters":26400,"station_id":"ce4bhjp2rcd13ifvqg90","pricing_plan_id":"free"},{"bike_id":"23e9d2d8-8b94-4ffe-9022-3469e592590c","system_id":"levelo_inurba_marseille","lat":43.271388,"lon":5.409269,"is_reserved":false,"is_disabled":false,"rental_uris":{"android":"levelo://app?vid=23e9d2d8-8b94-4ffe-9022-3469e592590c","ios":"levelo://app?vid=23e9d2d8-8b94-4ffe-9022-3469e592590c"},"vehicle_type_id":"4","last_reported":1700388397,"current_range_meters":23200,"station_id":"ce4bhl12rcd13ifvqgf0","pricing_plan_id":"free"},{"bike_id":"74ce853b-0d8b-42c9-81c8-17a7564a4b34","system_id":"levelo_inurba_marseille","lat":43.31725,"lon":5.43786,"is_reserved":false,"is_disabled":false,"rental_uris":{"android":"levelo://app?vid=74ce853b-0d8b-42c9-81c8-17a7564a4b34","ios":"levelo://app?vid=74ce853b-0d8b-42c9-81c8-17a7564a4b34"},"vehicle_type_id":"4","last_reported":1700388397,"current_range_meters":15200,"station_id":"","pricing_plan_id":"free"},{"bike_id":"abadc828-69fe-497b-b711-e5360a68b2c4","system_id":"levelo_inurba_marseille","lat":43.29899,"lon":5.43662,"is_reserved":false,"is_disabled":false,"rental_uris":{"android":"levelo://app?vid=abadc828-69fe-497b-b711-e5360a68b2c4","ios":"levelo://app?vid=abadc828-69fe-497b-b711-e5360a68b2c4"},"vehicle_type_id":"4","last_reported":1700388397,"current_range_meters":21200,"station_id":"ce4bhpp2rcd13ifvqhfg","pricing_plan_id":"free"},{"bike_id":"60b0343a-a30a-48a7-9530-4d247ae8ffbc","system_id":"levelo_inurba_marseille","lat":43.260225,"lon":5.375455,"is_reserved":false,"is_disabled":false,"rental_uris":{"android":"levelo://app?vid=60b0343a-a30a-48a7-9530-4d247ae8ffbc","ios":"levelo://app?vid=60b0343a-a30a-48a7-9530-4d247ae8ffbc"},"vehicle_type_id":"4","last_reported":1700388397,"current_range_meters":28400,"station_id":"ce4bhgh2rcd13ifvqfa0","pricing_plan_id":"free"},{"bike_id":"eceaa0f3-52ef-4d0d-b422-04c8e585a271","system_id":"levelo_inurba_marseille","lat":43.28153,"lon":5.42643,"is_reserved":false,"is_disabled":false,"rental_uris":{"android":"levelo://app?vid=eceaa0f3-52ef-4d0d-b422-04c8e585a271","ios":"levelo://app?vid=eceaa0f3-52ef-4d0d-b422-04c8e585a271"},"vehicle_type_id":"4","last_reported":1700388397,"current_range_meters":0,"station_id":"ce4bhnh2rcd13ifvqgug","pricing_plan_id":"free"},{"bike_id":"2b24b33b-98ae-456c-a743-0a2c2d509529","system_id":"levelo_inurba_marseille","lat":43.28153,"lon":5.42646,"is_reserved":false,"is_disabled":false,"rental_uris":{"android":"levelo://app?vid=2b24b33b-98ae-456c-a743-0a2c2d509529","ios":"levelo://app?vid=2b24b33b-98ae-456c-a743-0a2c2d509529"},"vehicle_type_id":"4","last_reported":1700388397,"current_range_meters":13200,"station_id":"ce4bhnh2rcd13ifvqgug","pricing_plan_id":"free"},{"bike_id":"4b05078a-8712-4997-a6f5-f5ba1ef519e4","system_id":"levelo_inurba_marseille","lat":43.26064,"lon":5.3939,"is_reserved":false,"is_disabled":false,"rental_uris":{"android":"levelo://app?vid=4b05078a-8712-4997-a6f5-f5ba1ef519e4","ios":"levelo://app?vid=4b05078a-8712-4997-a6f5-f5ba1ef519e4"},"vehicle_type_id":"4","last_reported":1700388397,"current_range_meters":26400,"station_id":"ce4bhh92rcd13ifvqfj0","pricing_plan_id":"free"},{"bike_id":"039398bb-8f48-4a09-90e4-c695a075e1b2","system_id":"levelo_inurba_marseille","lat":43.275028,"lon":5.424534,"is_reserved":false,"is_disabled":false,"rental_uris":{"android":"levelo://app?vid=039398bb-8f48-4a09-90e4-c695a075e1b2","ios":"levelo://app?vid=039398bb-8f48-4a09-90e4-c695a075e1b2"},"vehicle_type_id":"4","last_reported":1700388397,"current_range_meters":28000,"station_id":"ce4bhn92rcd13ifvqgrg","pricing_plan_id":"free"},{"bike_id":"83adb50e-13ad-4a0a-b679-c8ddf78a1b0a","system_id":"levelo_inurba_marseille","lat":43.275028,"lon":5.424534,"is_reserved":false,"is_disabled":false,"rental_uris":{"android":"levelo://app?vid=83adb50e-13ad-4a0a-b679-c8ddf78a1b0a","ios":"levelo://app?vid=83adb50e-13ad-4a0a-b679-c8ddf78a1b0a"},"vehicle_type_id":"4","last_reported":1700388397,"current_range_meters":30400,"station_id":"ce4bhn92rcd13ifvqgrg","pricing_plan_id":"free"},{"bike_id":"91b3c4bf-7b19-45fb-b809-6f886f9aa480","system_id":"levelo_inurba_marseille","lat":43.275028,"lon":5.424534,"is_reserved":false,"is_disabled":false,"rental_uris":{"android":"levelo://app?vid=91b3c4bf-7b19-45fb-b809-6f886f9aa480","ios":"levelo://app?vid=91b3c4bf-7b19-45fb-b809-6f886f9aa480"},"vehicle_type_id":"4","last_reported":1700388397,"current_range_meters":30400,"station_id":"ce4bhn92rcd13ifvqgrg","pricing_plan_id":"free"},{"bike_id":"b15cbbda-e2a5-469d-83c7-b37d8c5ea310","system_id":"levelo_inurba_marseille","lat":43.25581,"lon":5.38233,"is_reserved":false,"is_disabled":false,"rental_uris":{"android":"levelo://app?vid=b15cbbda-e2a5-469d-83c7-b37d8c5ea310","ios":"levelo://app?vid=b15cbbda-e2a5-469d-83c7-b37d8c5ea310"},"vehicle_type_id":"4","last_reported":1700388397,"current_range_meters":31200,"station_id":"ce4bhih2rcd13ifvqfs0","pricing_plan_id":"free"},{"bike_id":"b71943ad-e427-428f-ab43-4cde744ce60b","system_id":"levelo_inurba_marseille","lat":43.25579,"lon":5.38232,"is_reserved":false,"is_disabled":false,"rental_uris":{"android":"levelo://app?vid=b71943ad-e427-428f-ab43-4cde744ce60b","ios":"levelo://app?vid=b71943ad-e427-428f-ab43-4cde744ce60b"},"vehicle_type_id":"4","last_reported":1700388397,"current_range_meters":22400,"station_id":"ce4bhih2rcd13ifvqfs0","pricing_plan_id":"free"},{"bike_id":"ce95314e-af9c-4149-b129-4f33766c2565","system_id":"levelo_inurba_marseille","lat":43.25581,"lon":5.38246,"is_reserved":false,"is_disabled":false,"rental_uris":{"android":"levelo://app?vid=ce95314e-af9c-4149-b129-4f33766c2565","ios":"levelo://app?vid=ce95314e-af9c-4149-b129-4f33766c2565"},"vehicle_type_id":"4","last_reported":1700388397,"current_range_meters":14000,"station_id":"ce4bhih2rcd13ifvqfs0","pricing_plan_id":"free"},{"bike_id":"586e02c6-7a60-4097-b5cb-5b93a3905a40","system_id":"levelo_inurba_marseille","lat":43.25575,"lon":5.38228,"is_reserved":false,"is_disabled":false,"rental_uris":{"android":"levelo://app?vid=586e02c6-7a60-4097-b5cb-5b93a3905a40","ios":"levelo://app?vid=586e02c6-7a60-4097-b5cb-5b93a3905a40"},"vehicle_type_id":"4","last_reported":1700388397,"current_range_meters":24400,"station_id":"ce4bhih2rcd13ifvqfs0","pricing_plan_id":"free"},{"bike_id":"b906de18-cfa3-4059-afc5-2144ccf50a21","system_id":"levelo_inurba_marseille","lat":43.258224,"lon":5.394369,"is_reserved":false,"is_disabled":false,"rental_uris":{"android":"levelo://app?vid=b906de18-cfa3-4059-afc5-2144ccf50a21","ios":"levelo://app?vid=b906de18-cfa3-4059-afc5-2144ccf50a21"},"vehicle_type_id":"4","last_reported":1700388397,"current_range_meters":27200,"station_id":"ce4bhip2rcd13ifvqft0","pricing_plan_id":"free"},{"bike_id":"f87e197f-2ff1-4ba1-9cf2-60170245d4ac","system_id":"levelo_inurba_marseille","lat":43.25575,"lon":5.38235,"is_reserved":false,"is_disabled":false,"rental_uris":{"android":"levelo://app?vid=f87e197f-2ff1-4ba1-9cf2-60170245d4ac","ios":"levelo://app?vid=f87e197f-2ff1-4ba1-9cf2-60170245d4ac"},"vehicle_type_id":"4","last_reported":1700388397,"current_range_meters":26000,"station_id":"ce4bhih2rcd13ifvqfs0","pricing_plan_id":"free"},{"bike_id":"7ad27884-6005-4573-b788-863e7849e691","system_id":"levelo_inurba_marseille","lat":43.25728,"lon":5.41108,"is_reserved":false,"is_disabled":false,"rental_uris":{"android":"levelo://app?vid=7ad27884-6005-4573-b788-863e7849e691","ios":"levelo://app?vid=7ad27884-6005-4573-b788-863e7849e691"},"vehicle_type_id":"4","last_reported":1700388397,"current_range_meters":0,"station_id":"ce4bhkp2rcd13ifvqgd0","pricing_plan_id":"free"},{"bike_id":"eda73509-5f55-4b2d-95fc-67f3395f85c0","system_id":"levelo_inurba_marseille","lat":43.25723,"lon":5.41108,"is_reserved":false,"is_disabled":false,"rental_uris":{"android":"levelo://app?vid=eda73509-5f55-4b2d-95fc-67f3395f85c0","ios":"levelo://app?vid=eda73509-5f55-4b2d-95fc-67f3395f85c0"},"vehicle_type_id":"4","last_reported":1700388397,"current_range_meters":0,"station_id":"ce4bhkp2rcd13ifvqgd0","pricing_plan_id":"free"},{"bike_id":"0bcdcfe7-1bf2-483b-bb5e-f40c4725cba9","system_id":"levelo_inurba_marseille","lat":43.250023,"lon":5.38919,"is_reserved":false,"is_disabled":false,"rental_uris":{"android":"levelo://app?vid=0bcdcfe7-1bf2-483b-bb5e-f40c4725cba9","ios":"levelo://app?vid=0bcdcfe7-1bf2-483b-bb5e-f40c4725cba9"},"vehicle_type_id":"4","last_reported":1700388397,"current_range_meters":19600,"station_id":"ce4bhgp2rcd13ifvqfd0","pricing_plan_id":"free"},{"bike_id":"f97a41a1-dd4e-4027-b691-8c3d62e7ba3e","system_id":"levelo_inurba_marseille","lat":43.250023,"lon":5.38919,"is_reserved":false,"is_disabled":false,"rental_uris":{"android":"levelo://app?vid=f97a41a1-dd4e-4027-b691-8c3d62e7ba3e","ios":"levelo://app?vid=f97a41a1-dd4e-4027-b691-8c3d62e7ba3e"},"vehicle_type_id":"4","last_reported":1700388397,"current_range_meters":19200,"station_id":"ce4bhgp2rcd13ifvqfd0","pricing_plan_id":"free"},{"bike_id":"5afa731d-04c3-488f-8767-c90925b4fe13","system_id":"levelo_inurba_marseille","lat":43.2479,"lon":5.374457,"is_reserved":false,"is_disabled":false,"rental_uris":{"android":"levelo://app?vid=5afa731d-04c3-488f-8767-c90925b4fe13","ios":"levelo://app?vid=5afa731d-04c3-488f-8767-c90925b4fe13"},"vehicle_type_id":"4","last_reported":1700388397,"current_range_meters":27200,"station_id":"ce4bhgh2rcd13ifvqfb0","pricing_plan_id":"free"},{"bike_id":"2c96ce01-250e-4eb0-9e74-ce91cd4dbe01","system_id":"levelo_inurba_marseille","lat":43.2479,"lon":5.374457,"is_reserved":false,"is_disabled":false,"rental_uris":{"android":"levelo://app?vid=2c96ce01-250e-4eb0-9e74-ce91cd4dbe01","ios":"levelo://app?vid=2c96ce01-250e-4eb0-9e74-ce91cd4dbe01"},"vehicle_type_id":"4","last_reported":1700388397,"current_range_meters":20400,"station_id":"ce4bhgh2rcd13ifvqfb0","pricing_plan_id":"free"},{"bike_id":"3a2a0393-9c74-42a9-b999-b4b225a24ee8","system_id":"levelo_inurba_marseille","lat":43.2479,"lon":5.374457,"is_reserved":false,"is_disabled":false,"rental_uris":{"android":"levelo://app?vid=3a2a0393-9c74-42a9-b999-b4b225a24ee8","ios":"levelo://app?vid=3a2a0393-9c74-42a9-b999-b4b225a24ee8"},"vehicle_type_id":"4","last_reported":1700388397,"current_range_meters":26000,"station_id":"ce4bhgh2rcd13ifvqfb0","pricing_plan_id":"free"},{"bike_id":"a65fbc74-1667-450f-b52b-651e0c11848a","system_id":"levelo_inurba_marseille","lat":43.2479,"lon":5.374457,"is_reserved":false,"is_disabled":false,"rental_uris":{"android":"levelo://app?vid=a65fbc74-1667-450f-b52b-651e0c11848a","ios":"levelo://app?vid=a65fbc74-1667-450f-b52b-651e0c11848a"},"vehicle_type_id":"4","last_reported":1700388397,"current_range_meters":31200,"station_id":"ce4bhgh2rcd13ifvqfb0","pricing_plan_id":"free"},{"bike_id":"070401dd-4bfd-4400-af69-076025ab3cb0","system_id":"levelo_inurba_marseille","lat":43.2479,"lon":5.374457,"is_reserved":false,"is_disabled":false,"rental_uris":{"android":"levelo://app?vid=070401dd-4bfd-4400-af69-076025ab3cb0","ios":"levelo://app?vid=070401dd-4bfd-4400-af69-076025ab3cb0"},"vehicle_type_id":"4","last_reported":1700388397,"current_range_meters":6400,"station_id":"ce4bhgh2rcd13ifvqfb0","pricing_plan_id":"free"},{"bike_id":"e2dc55d8-5755-45e0-bae7-a7f0905e4464","system_id":"levelo_inurba_marseille","lat":43.2479,"lon":5.374457,"is_reserved":false,"is_disabled":false,"rental_uris":{"android":"levelo://app?vid=e2dc55d8-5755-45e0-bae7-a7f0905e4464","ios":"levelo://app?vid=e2dc55d8-5755-45e0-bae7-a7f0905e4464"},"vehicle_type_id":"4","last_reported":1700388397,"current_range_meters":14800,"station_id":"ce4bhgh2rcd13ifvqfb0","pricing_plan_id":"free"},{"bike_id":"e87942d5-9632-44fa-8022-fc189571c723","system_id":"levelo_inurba_marseille","lat":43.2479,"lon":5.374457,"is_reserved":false,"is_disabled":false,"rental_uris":{"android":"levelo://app?vid=e87942d5-9632-44fa-8022-fc189571c723","ios":"levelo://app?vid=e87942d5-9632-44fa-8022-fc189571c723"},"vehicle_type_id":"4","last_reported":1700388397,"current_range_meters":10800,"station_id":"ce4bhgh2rcd13ifvqfb0","pricing_plan_id":"free"},{"bike_id":"636e98fb-c36f-477b-b6a3-9fb164c3e8b9","system_id":"levelo_inurba_marseille","lat":43.246707,"lon":5.381665,"is_reserved":false,"is_disabled":false,"rental_uris":{"android":"levelo://app?vid=636e98fb-c36f-477b-b6a3-9fb164c3e8b9","ios":"levelo://app?vid=636e98fb-c36f-477b-b6a3-9fb164c3e8b9"},"vehicle_type_id":"4","last_reported":1700388397,"current_range_meters":22800,"station_id":"ce4bhih2rcd13ifvqfr0","pricing_plan_id":"free"},{"bike_id":"f2bfce2a-926b-493b-9300-6a39296b6314","system_id":"levelo_inurba_marseille","lat":43.25102,"lon":5.403214,"is_reserved":false,"is_disabled":false,"rental_uris":{"android":"levelo://app?vid=f2bfce2a-926b-493b-9300-6a39296b6314","ios":"levelo://app?vid=f2bfce2a-926b-493b-9300-6a39296b6314"},"vehicle_type_id":"4","last_reported":1700388397,"current_range_meters":22000,"station_id":"ce4bhlh2rcd13ifvqgig","pricing_plan_id":"free"},{"bike_id":"5ad0e0c1-878b-4d68-9210-e8cb5fbafbf9","system_id":"levelo_inurba_marseille","lat":43.25102,"lon":5.403214,"is_reserved":false,"is_disabled":false,"rental_uris":{"android":"levelo://app?vid=5ad0e0c1-878b-4d68-9210-e8cb5fbafbf9","ios":"levelo://app?vid=5ad0e0c1-878b-4d68-9210-e8cb5fbafbf9"},"vehicle_type_id":"4","last_reported":1700388397,"current_range_meters":4800,"station_id":"ce4bhlh2rcd13ifvqgig","pricing_plan_id":"free"},{"bike_id":"3f5aabea-5cba-40d4-8651-d7780d13a28a","system_id":"levelo_inurba_marseille","lat":43.246461,"lon":5.389014,"is_reserved":false,"is_disabled":false,"rental_uris":{"android":"levelo://app?vid=3f5aabea-5cba-40d4-8651-d7780d13a28a","ios":"levelo://app?vid=3f5aabea-5cba-40d4-8651-d7780d13a28a"},"vehicle_type_id":"4","last_reported":1700388397,"current_range_meters":7600,"station_id":"ce4bhg12rcd13ifvqf60","pricing_plan_id":"free"},{"bike_id":"399b0fc9-e0c1-48a3-b8d1-977dbee35307","system_id":"levelo_inurba_marseille","lat":43.24654,"lon":5.38894,"is_reserved":false,"is_disabled":false,"rental_uris":{"android":"levelo://app?vid=399b0fc9-e0c1-48a3-b8d1-977dbee35307","ios":"levelo://app?vid=399b0fc9-e0c1-48a3-b8d1-977dbee35307"},"vehicle_type_id":"4","last_reported":1700388397,"current_range_meters":13600,"station_id":"ce4bhg12rcd13ifvqf60","pricing_plan_id":"free"},{"bike_id":"2e3af95f-ee41-421d-9973-d1eed6305545","system_id":"levelo_inurba_marseille","lat":43.243884,"lon":5.370736,"is_reserved":false,"is_disabled":false,"rental_uris":{"android":"levelo://app?vid=2e3af95f-ee41-421d-9973-d1eed6305545","ios":"levelo://app?vid=2e3af95f-ee41-421d-9973-d1eed6305545"},"vehicle_type_id":"4","last_reported":1700388397,"current_range_meters":31600,"station_id":"ce4bhhh2rcd13ifvqfk0","pricing_plan_id":"free"},{"bike_id":"6e03819b-20aa-4115-9f93-ed008282e9ee","system_id":"levelo_inurba_marseille","lat":43.243884,"lon":5.370737,"is_reserved":false,"is_disabled":false,"rental_uris":{"android":"levelo://app?vid=6e03819b-20aa-4115-9f93-ed008282e9ee","ios":"levelo://app?vid=6e03819b-20aa-4115-9f93-ed008282e9ee"},"vehicle_type_id":"4","last_reported":1700388397,"current_range_meters":31200,"station_id":"ce4bhhh2rcd13ifvqfk0","pricing_plan_id":"free"},{"bike_id":"31258c97-bd1e-42e9-8158-1d43c38d15f1","system_id":"levelo_inurba_marseille","lat":43.24384,"lon":5.37056,"is_reserved":false,"is_disabled":false,"rental_uris":{"android":"levelo://app?vid=31258c97-bd1e-42e9-8158-1d43c38d15f1","ios":"levelo://app?vid=31258c97-bd1e-42e9-8158-1d43c38d15f1"},"vehicle_type_id":"4","last_reported":1700388397,"current_range_meters":28000,"station_id":"ce4bhhh2rcd13ifvqfk0","pricing_plan_id":"free"},{"bike_id":"4cdd475f-c093-4186-b524-2019e0d5a401","system_id":"levelo_inurba_marseille","lat":43.245581,"lon":5.395069,"is_reserved":false,"is_disabled":false,"rental_uris":{"android":"levelo://app?vid=4cdd475f-c093-4186-b524-2019e0d5a401","ios":"levelo://app?vid=4cdd475f-c093-4186-b524-2019e0d5a401"},"vehicle_type_id":"4","last_reported":1700388397,"current_range_meters":29600,"station_id":"ce4bhlp2rcd13ifvqgjg","pricing_plan_id":"free"},{"bike_id":"d2bd6a47-5856-4069-9e03-3769cd0f8353","system_id":"levelo_inurba_marseille","lat":43.245581,"lon":5.395069,"is_reserved":false,"is_disabled":false,"rental_uris":{"android":"levelo://app?vid=d2bd6a47-5856-4069-9e03-3769cd0f8353","ios":"levelo://app?vid=d2bd6a47-5856-4069-9e03-3769cd0f8353"},"vehicle_type_id":"4","last_reported":1700388397,"current_range_meters":29200,"station_id":"ce4bhlp2rcd13ifvqgjg","pricing_plan_id":"free"},{"bike_id":"21f94cf4-cffc-4cf9-a999-40af5845ee26","system_id":"levelo_inurba_marseille","lat":43.245581,"lon":5.395069,"is_reserved":false,"is_disabled":false,"rental_uris":{"android":"levelo://app?vid=21f94cf4-cffc-4cf9-a999-40af5845ee26","ios":"levelo://app?vid=21f94cf4-cffc-4cf9-a999-40af5845ee26"},"vehicle_type_id":"4","last_reported":1700388397,"current_range_meters":24000,"station_id":"ce4bhlp2rcd13ifvqgjg","pricing_plan_id":"free"},{"bike_id":"dd7ae16e-8c06-49aa-8343-2560838241a2","system_id":"levelo_inurba_marseille","lat":43.239588,"lon":5.366238,"is_reserved":false,"is_disabled":false,"rental_uris":{"android":"levelo://app?vid=dd7ae16e-8c06-49aa-8343-2560838241a2","ios":"levelo://app?vid=dd7ae16e-8c06-49aa-8343-2560838241a2"},"vehicle_type_id":"4","last_reported":1700388397,"current_range_meters":21600,"station_id":"ce4bhi12rcd13ifvqfp0","pricing_plan_id":"free"},{"bike_id":"6579e416-2ce8-443d-a73a-886941cc69f8","system_id":"levelo_inurba_marseille","lat":43.241782,"lon":5.397261,"is_reserved":false,"is_disabled":false,"rental_uris":{"android":"levelo://app?vid=6579e416-2ce8-443d-a73a-886941cc69f8","ios":"levelo://app?vid=6579e416-2ce8-443d-a73a-886941cc69f8"},"vehicle_type_id":"4","last_reported":1700388397,"current_range_meters":18800,"station_id":"ce4bhn12rcd13ifvqgpg","pricing_plan_id":"free"},{"bike_id":"4370869b-0c59-4e1b-b4c7-59bf3a7bc50e","system_id":"levelo_inurba_marseille","lat":43.241782,"lon":5.397261,"is_reserved":false,"is_disabled":false,"rental_uris":{"android":"levelo://app?vid=4370869b-0c59-4e1b-b4c7-59bf3a7bc50e","ios":"levelo://app?vid=4370869b-0c59-4e1b-b4c7-59bf3a7bc50e"},"vehicle_type_id":"4","last_reported":1700388397,"current_range_meters":13600,"station_id":"ce4bhn12rcd13ifvqgpg","pricing_plan_id":"free"},{"bike_id":"d9fd4f8d-322c-45fe-b651-4a9394dd3741","system_id":"levelo_inurba_marseille","lat":43.231923,"lon":5.355545,"is_reserved":false,"is_disabled":false,"rental_uris":{"android":"levelo://app?vid=d9fd4f8d-322c-45fe-b651-4a9394dd3741","ios":"levelo://app?vid=d9fd4f8d-322c-45fe-b651-4a9394dd3741"},"vehicle_type_id":"4","last_reported":1700388397,"current_range_meters":24400,"station_id":"ce4bhu92rcd13ifvqi70","pricing_plan_id":"free"},{"bike_id":"e90e6dbe-4103-4584-a33a-a878da9cf267","system_id":"levelo_inurba_marseille","lat":43.231923,"lon":5.355545,"is_reserved":false,"is_disabled":false,"rental_uris":{"android":"levelo://app?vid=e90e6dbe-4103-4584-a33a-a878da9cf267","ios":"levelo://app?vid=e90e6dbe-4103-4584-a33a-a878da9cf267"},"vehicle_type_id":"4","last_reported":1700388397,"current_range_meters":23200,"station_id":"ce4bhu92rcd13ifvqi70","pricing_plan_id":"free"},{"bike_id":"37416442-308e-4dea-bd51-2ca12166bbc7","system_id":"levelo_inurba_marseille","lat":43.231923,"lon":5.355545,"is_reserved":false,"is_disabled":false,"rental_uris":{"android":"levelo://app?vid=37416442-308e-4dea-bd51-2ca12166bbc7","ios":"levelo://app?vid=37416442-308e-4dea-bd51-2ca12166bbc7"},"vehicle_type_id":"4","last_reported":1700388397,"current_range_meters":25200,"station_id":"ce4bhu92rcd13ifvqi70","pricing_plan_id":"free"},{"bike_id":"b3f28fa0-47fb-43fd-82e6-2a2ef1ac5db0","system_id":"levelo_inurba_marseille","lat":43.231923,"lon":5.355545,"is_reserved":false,"is_disabled":false,"rental_uris":{"android":"levelo://app?vid=b3f28fa0-47fb-43fd-82e6-2a2ef1ac5db0","ios":"levelo://app?vid=b3f28fa0-47fb-43fd-82e6-2a2ef1ac5db0"},"vehicle_type_id":"4","last_reported":1700388397,"current_range_meters":24000,"station_id":"ce4bhu92rcd13ifvqi70","pricing_plan_id":"free"},{"bike_id":"8a62ccf4-93c4-408c-8efe-bc9afcdd6a80","system_id":"levelo_inurba_marseille","lat":43.231923,"lon":5.355545,"is_reserved":false,"is_disabled":false,"rental_uris":{"android":"levelo://app?vid=8a62ccf4-93c4-408c-8efe-bc9afcdd6a80","ios":"levelo://app?vid=8a62ccf4-93c4-408c-8efe-bc9afcdd6a80"},"vehicle_type_id":"4","last_reported":1700388397,"current_range_meters":25600,"station_id":"ce4bhu92rcd13ifvqi70","pricing_plan_id":"free"},{"bike_id":"73825668-897d-4ba7-8138-a1757218e46a","system_id":"levelo_inurba_marseille","lat":43.231923,"lon":5.355545,"is_reserved":false,"is_disabled":false,"rental_uris":{"android":"levelo://app?vid=73825668-897d-4ba7-8138-a1757218e46a","ios":"levelo://app?vid=73825668-897d-4ba7-8138-a1757218e46a"},"vehicle_type_id":"4","last_reported":1700388397,"current_range_meters":21200,"station_id":"ce4bhu92rcd13ifvqi70","pricing_plan_id":"free"},{"bike_id":"d4b8beac-e21d-4a32-bc13-6a5c65e2b33e","system_id":"levelo_inurba_marseille","lat":43.231923,"lon":5.355545,"is_reserved":false,"is_disabled":false,"rental_uris":{"android":"levelo://app?vid=d4b8beac-e21d-4a32-bc13-6a5c65e2b33e","ios":"levelo://app?vid=d4b8beac-e21d-4a32-bc13-6a5c65e2b33e"},"vehicle_type_id":"4","last_reported":1700388397,"current_range_meters":13200,"station_id":"ce4bhu92rcd13ifvqi70","pricing_plan_id":"free"},{"bike_id":"d8457044-e11e-4159-85e8-e12c29610982","system_id":"levelo_inurba_marseille","lat":43.231919,"lon":5.355532,"is_reserved":false,"is_disabled":false,"rental_uris":{"android":"levelo://app?vid=d8457044-e11e-4159-85e8-e12c29610982","ios":"levelo://app?vid=d8457044-e11e-4159-85e8-e12c29610982"},"vehicle_type_id":"4","last_reported":1700388397,"current_range_meters":11200,"station_id":"ce4bhu92rcd13ifvqi70","pricing_plan_id":"free"},{"bike_id":"4fc7e59d-8508-422c-8560-7d42e117611d","system_id":"levelo_inurba_marseille","lat":43.231919,"lon":5.355532,"is_reserved":false,"is_disabled":false,"rental_uris":{"android":"levelo://app?vid=4fc7e59d-8508-422c-8560-7d42e117611d","ios":"levelo://app?vid=4fc7e59d-8508-422c-8560-7d42e117611d"},"vehicle_type_id":"4","last_reported":1700388397,"current_range_meters":24400,"station_id":"ce4bhu92rcd13ifvqi70","pricing_plan_id":"free"},{"bike_id":"8455f21a-e0e1-4873-89da-72b3d3b154e0","system_id":"levelo_inurba_marseille","lat":43.231919,"lon":5.355532,"is_reserved":false,"is_disabled":false,"rental_uris":{"android":"levelo://app?vid=8455f21a-e0e1-4873-89da-72b3d3b154e0","ios":"levelo://app?vid=8455f21a-e0e1-4873-89da-72b3d3b154e0"},"vehicle_type_id":"4","last_reported":1700388397,"current_range_meters":31200,"station_id":"ce4bhu92rcd13ifvqi70","pricing_plan_id":"free"},{"bike_id":"ffa9bbb0-2049-48dc-9860-c3476c934f4b","system_id":"levelo_inurba_marseille","lat":43.231923,"lon":5.355545,"is_reserved":false,"is_disabled":false,"rental_uris":{"android":"levelo://app?vid=ffa9bbb0-2049-48dc-9860-c3476c934f4b","ios":"levelo://app?vid=ffa9bbb0-2049-48dc-9860-c3476c934f4b"},"vehicle_type_id":"4","last_reported":1700388397,"current_range_meters":17200,"station_id":"ce4bhu92rcd13ifvqi70","pricing_plan_id":"free"},{"bike_id":"e5457ee5-4562-42f5-87e4-f39fc52d5dd8","system_id":"levelo_inurba_marseille","lat":43.231919,"lon":5.355532,"is_reserved":false,"is_disabled":false,"rental_uris":{"android":"levelo://app?vid=e5457ee5-4562-42f5-87e4-f39fc52d5dd8","ios":"levelo://app?vid=e5457ee5-4562-42f5-87e4-f39fc52d5dd8"},"vehicle_type_id":"4","last_reported":1700388397,"current_range_meters":23600,"station_id":"ce4bhu92rcd13ifvqi70","pricing_plan_id":"free"},{"bike_id":"18a2742a-f4bf-49a9-9e2a-88eea5110e55","system_id":"levelo_inurba_marseille","lat":43.231923,"lon":5.355545,"is_reserved":false,"is_disabled":false,"rental_uris":{"android":"levelo://app?vid=18a2742a-f4bf-49a9-9e2a-88eea5110e55","ios":"levelo://app?vid=18a2742a-f4bf-49a9-9e2a-88eea5110e55"},"vehicle_type_id":"4","last_reported":1700388397,"current_range_meters":4000,"station_id":"ce4bhu92rcd13ifvqi70","pricing_plan_id":"free"},{"bike_id":"662f058d-46b1-4787-b52a-d29e98a28779","system_id":"levelo_inurba_marseille","lat":43.231919,"lon":5.355532,"is_reserved":false,"is_disabled":false,"rental_uris":{"android":"levelo://app?vid=662f058d-46b1-4787-b52a-d29e98a28779","ios":"levelo://app?vid=662f058d-46b1-4787-b52a-d29e98a28779"},"vehicle_type_id":"4","last_reported":1700388397,"current_range_meters":31600,"station_id":"ce4bhu92rcd13ifvqi70","pricing_plan_id":"free"},{"bike_id":"efe9f44b-467d-42d3-8df0-08df4fdbb017","system_id":"levelo_inurba_marseille","lat":43.231923,"lon":5.355545,"is_reserved":false,"is_disabled":false,"rental_uris":{"android":"levelo://app?vid=efe9f44b-467d-42d3-8df0-08df4fdbb017","ios":"levelo://app?vid=efe9f44b-467d-42d3-8df0-08df4fdbb017"},"vehicle_type_id":"4","last_reported":1700388397,"current_range_meters":24400,"station_id":"ce4bhu92rcd13ifvqi70","pricing_plan_id":"free"},{"bike_id":"d66f08d8-b6e5-4ad9-be4a-5cd3998403dc","system_id":"levelo_inurba_marseille","lat":43.231919,"lon":5.355532,"is_reserved":false,"is_disabled":false,"rental_uris":{"android":"levelo://app?vid=d66f08d8-b6e5-4ad9-be4a-5cd3998403dc","ios":"levelo://app?vid=d66f08d8-b6e5-4ad9-be4a-5cd3998403dc"},"vehicle_type_id":"4","last_reported":1700388397,"current_range_meters":14400,"station_id":"ce4bhu92rcd13ifvqi70","pricing_plan_id":"free"},{"bike_id":"5d8316f4-9b3b-4f22-8b0a-d975b6faa1c0","system_id":"levelo_inurba_marseille","lat":43.231793,"lon":5.400044,"is_reserved":false,"is_disabled":false,"rental_uris":{"android":"levelo://app?vid=5d8316f4-9b3b-4f22-8b0a-d975b6faa1c0","ios":"levelo://app?vid=5d8316f4-9b3b-4f22-8b0a-d975b6faa1c0"},"vehicle_type_id":"4","last_reported":1700388397,"current_range_meters":15200,"station_id":"ce4bhn12rcd13ifvqgqg","pricing_plan_id":"free"},{"bike_id":"a77536b5-5a4a-4d26-b9d3-350ffe3416bd","system_id":"levelo_inurba_marseille","lat":43.231793,"lon":5.400044,"is_reserved":false,"is_disabled":false,"rental_uris":{"android":"levelo://app?vid=a77536b5-5a4a-4d26-b9d3-350ffe3416bd","ios":"levelo://app?vid=a77536b5-5a4a-4d26-b9d3-350ffe3416bd"},"vehicle_type_id":"4","last_reported":1700388397,"current_range_meters":7200,"station_id":"ce4bhn12rcd13ifvqgqg","pricing_plan_id":"free"},{"bike_id":"5a91a0b0-a2bb-4b5c-a99e-5b5c93d6631d","system_id":"levelo_inurba_marseille","lat":43.231793,"lon":5.400044,"is_reserved":false,"is_disabled":false,"rental_uris":{"android":"levelo://app?vid=5a91a0b0-a2bb-4b5c-a99e-5b5c93d6631d","ios":"levelo://app?vid=5a91a0b0-a2bb-4b5c-a99e-5b5c93d6631d"},"vehicle_type_id":"4","last_reported":1700388397,"current_range_meters":26400,"station_id":"ce4bhn12rcd13ifvqgqg","pricing_plan_id":"free"},{"bike_id":"fb647ab6-bdfe-4d43-8021-469b840e3f01","system_id":"levelo_inurba_marseille","lat":43.231794,"lon":5.400052,"is_reserved":false,"is_disabled":false,"rental_uris":{"android":"levelo://app?vid=fb647ab6-bdfe-4d43-8021-469b840e3f01","ios":"levelo://app?vid=fb647ab6-bdfe-4d43-8021-469b840e3f01"},"vehicle_type_id":"4","last_reported":1700388397,"current_range_meters":26400,"station_id":"ce4bhn12rcd13ifvqgqg","pricing_plan_id":"free"},{"bike_id":"65f86e4f-3234-4fca-beae-05f04dc8df5f","system_id":"levelo_inurba_marseille","lat":43.231794,"lon":5.400052,"is_reserved":false,"is_disabled":false,"rental_uris":{"android":"levelo://app?vid=65f86e4f-3234-4fca-beae-05f04dc8df5f","ios":"levelo://app?vid=65f86e4f-3234-4fca-beae-05f04dc8df5f"},"vehicle_type_id":"4","last_reported":1700388397,"current_range_meters":30800,"station_id":"ce4bhn12rcd13ifvqgqg","pricing_plan_id":"free"},{"bike_id":"67b0dae3-3730-48b7-8c1b-0817011fbdd2","system_id":"levelo_inurba_marseille","lat":43.231794,"lon":5.400052,"is_reserved":false,"is_disabled":false,"rental_uris":{"android":"levelo://app?vid=67b0dae3-3730-48b7-8c1b-0817011fbdd2","ios":"levelo://app?vid=67b0dae3-3730-48b7-8c1b-0817011fbdd2"},"vehicle_type_id":"4","last_reported":1700388397,"current_range_meters":30800,"station_id":"ce4bhn12rcd13ifvqgqg","pricing_plan_id":"free"},{"bike_id":"486fecf0-765d-4eee-9a85-898f8aa27175","system_id":"levelo_inurba_marseille","lat":43.231793,"lon":5.400044,"is_reserved":false,"is_disabled":false,"rental_uris":{"android":"levelo://app?vid=486fecf0-765d-4eee-9a85-898f8aa27175","ios":"levelo://app?vid=486fecf0-765d-4eee-9a85-898f8aa27175"},"vehicle_type_id":"4","last_reported":1700388397,"current_range_meters":28400,"station_id":"ce4bhn12rcd13ifvqgqg","pricing_plan_id":"free"},{"bike_id":"adac1971-5e73-41e6-9ade-b5ded0f026e7","system_id":"levelo_inurba_marseille","lat":43.231793,"lon":5.400044,"is_reserved":false,"is_disabled":false,"rental_uris":{"android":"levelo://app?vid=adac1971-5e73-41e6-9ade-b5ded0f026e7","ios":"levelo://app?vid=adac1971-5e73-41e6-9ade-b5ded0f026e7"},"vehicle_type_id":"4","last_reported":1700388397,"current_range_meters":30800,"station_id":"ce4bhn12rcd13ifvqgqg","pricing_plan_id":"free"},{"bike_id":"ad9d26be-fd61-4954-b04a-614ee9d33f7d","system_id":"levelo_inurba_marseille","lat":43.231794,"lon":5.400052,"is_reserved":false,"is_disabled":false,"rental_uris":{"android":"levelo://app?vid=ad9d26be-fd61-4954-b04a-614ee9d33f7d","ios":"levelo://app?vid=ad9d26be-fd61-4954-b04a-614ee9d33f7d"},"vehicle_type_id":"4","last_reported":1700388397,"current_range_meters":31600,"station_id":"ce4bhn12rcd13ifvqgqg","pricing_plan_id":"free"},{"bike_id":"ac02e1b8-1ca4-4a01-b902-4c09866a83e6","system_id":"levelo_inurba_marseille","lat":43.231794,"lon":5.400052,"is_reserved":false,"is_disabled":false,"rental_uris":{"android":"levelo://app?vid=ac02e1b8-1ca4-4a01-b902-4c09866a83e6","ios":"levelo://app?vid=ac02e1b8-1ca4-4a01-b902-4c09866a83e6"},"vehicle_type_id":"4","last_reported":1700388397,"current_range_meters":16400,"station_id":"ce4bhn12rcd13ifvqgqg","pricing_plan_id":"free"},{"bike_id":"efc139d5-8bb1-4a6b-b437-01d31830d455","system_id":"levelo_inurba_marseille","lat":43.231794,"lon":5.400052,"is_reserved":false,"is_disabled":false,"rental_uris":{"android":"levelo://app?vid=efc139d5-8bb1-4a6b-b437-01d31830d455","ios":"levelo://app?vid=efc139d5-8bb1-4a6b-b437-01d31830d455"},"vehicle_type_id":"4","last_reported":1700388397,"current_range_meters":31600,"station_id":"ce4bhn12rcd13ifvqgqg","pricing_plan_id":"free"},{"bike_id":"7bc95a0e-72f8-4232-b877-46fe8e7f9e0c","system_id":"levelo_inurba_marseille","lat":43.231794,"lon":5.400052,"is_reserved":false,"is_disabled":false,"rental_uris":{"android":"levelo://app?vid=7bc95a0e-72f8-4232-b877-46fe8e7f9e0c","ios":"levelo://app?vid=7bc95a0e-72f8-4232-b877-46fe8e7f9e0c"},"vehicle_type_id":"4","last_reported":1700388397,"current_range_meters":30400,"station_id":"ce4bhn12rcd13ifvqgqg","pricing_plan_id":"free"},{"bike_id":"f585efc8-e6e5-452d-8953-287cc55833b3","system_id":"levelo_inurba_marseille","lat":43.231794,"lon":5.400052,"is_reserved":false,"is_disabled":false,"rental_uris":{"android":"levelo://app?vid=f585efc8-e6e5-452d-8953-287cc55833b3","ios":"levelo://app?vid=f585efc8-e6e5-452d-8953-287cc55833b3"},"vehicle_type_id":"4","last_reported":1700388397,"current_range_meters":14000,"station_id":"ce4bhn12rcd13ifvqgqg","pricing_plan_id":"free"},{"bike_id":"78c7b8b3-4492-4225-8359-c557b6989c3d","system_id":"levelo_inurba_marseille","lat":43.23155,"lon":5.43698,"is_reserved":false,"is_disabled":false,"rental_uris":{"android":"levelo://app?vid=78c7b8b3-4492-4225-8359-c557b6989c3d","ios":"levelo://app?vid=78c7b8b3-4492-4225-8359-c557b6989c3d"},"vehicle_type_id":"4","last_reported":1700388397,"current_range_meters":9200,"station_id":"ce4bhmp2rcd13ifvqgog","pricing_plan_id":"free"},{"bike_id":"49f546c6-5a89-4d62-b0e6-0167a3bea35f","system_id":"levelo_inurba_marseille","lat":43.231562,"lon":5.436933,"is_reserved":false,"is_disabled":false,"rental_uris":{"android":"levelo://app?vid=49f546c6-5a89-4d62-b0e6-0167a3bea35f","ios":"levelo://app?vid=49f546c6-5a89-4d62-b0e6-0167a3bea35f"},"vehicle_type_id":"4","last_reported":1700388397,"current_range_meters":25200,"station_id":"ce4bhmp2rcd13ifvqgog","pricing_plan_id":"free"},{"bike_id":"172b1adb-2ae3-4c1b-b5fe-96e44bf1344e","system_id":"levelo_inurba_marseille","lat":43.231562,"lon":5.436933,"is_reserved":false,"is_disabled":false,"rental_uris":{"android":"levelo://app?vid=172b1adb-2ae3-4c1b-b5fe-96e44bf1344e","ios":"levelo://app?vid=172b1adb-2ae3-4c1b-b5fe-96e44bf1344e"},"vehicle_type_id":"4","last_reported":1700388397,"current_range_meters":30400,"station_id":"ce4bhmp2rcd13ifvqgog","pricing_plan_id":"free"},{"bike_id":"79f0fe2a-828d-4adb-8c21-6c90ec54f44a","system_id":"levelo_inurba_marseille","lat":43.231562,"lon":5.436933,"is_reserved":false,"is_disabled":false,"rental_uris":{"android":"levelo://app?vid=79f0fe2a-828d-4adb-8c21-6c90ec54f44a","ios":"levelo://app?vid=79f0fe2a-828d-4adb-8c21-6c90ec54f44a"},"vehicle_type_id":"4","last_reported":1700388397,"current_range_meters":28000,"station_id":"ce4bhmp2rcd13ifvqgog","pricing_plan_id":"free"},{"bike_id":"ac753338-7ae7-484b-b345-d535336dbb1b","system_id":"levelo_inurba_marseille","lat":43.231562,"lon":5.436933,"is_reserved":false,"is_disabled":false,"rental_uris":{"android":"levelo://app?vid=ac753338-7ae7-484b-b345-d535336dbb1b","ios":"levelo://app?vid=ac753338-7ae7-484b-b345-d535336dbb1b"},"vehicle_type_id":"4","last_reported":1700388397,"current_range_meters":31200,"station_id":"ce4bhmp2rcd13ifvqgog","pricing_plan_id":"free"},{"bike_id":"04a6c4f8-53df-4ad5-9de2-341e812f9ec8","system_id":"levelo_inurba_marseille","lat":43.231562,"lon":5.436933,"is_reserved":false,"is_disabled":false,"rental_uris":{"android":"levelo://app?vid=04a6c4f8-53df-4ad5-9de2-341e812f9ec8","ios":"levelo://app?vid=04a6c4f8-53df-4ad5-9de2-341e812f9ec8"},"vehicle_type_id":"4","last_reported":1700388397,"current_range_meters":10800,"station_id":"ce4bhmp2rcd13ifvqgog","pricing_plan_id":"free"},{"bike_id":"96c9b960-69c2-43ef-8595-a0d32e3cd3b8","system_id":"levelo_inurba_marseille","lat":43.23152,"lon":5.43719,"is_reserved":false,"is_disabled":false,"rental_uris":{"android":"levelo://app?vid=96c9b960-69c2-43ef-8595-a0d32e3cd3b8","ios":"levelo://app?vid=96c9b960-69c2-43ef-8595-a0d32e3cd3b8"},"vehicle_type_id":"4","last_reported":1700388397,"current_range_meters":11600,"station_id":"ce4bhmp2rcd13ifvqgog","pricing_plan_id":"free"},{"bike_id":"294afbf6-f0ed-494a-8304-978c284b9e51","system_id":"levelo_inurba_marseille","lat":43.231511,"lon":5.437602,"is_reserved":false,"is_disabled":false,"rental_uris":{"android":"levelo://app?vid=294afbf6-f0ed-494a-8304-978c284b9e51","ios":"levelo://app?vid=294afbf6-f0ed-494a-8304-978c284b9e51"},"vehicle_type_id":"4","last_reported":1700388397,"current_range_meters":15600,"station_id":"ce4bhmp2rcd13ifvqgog","pricing_plan_id":"free"}]}}