{"last_updated":1736183292,"ttl":60,"version":"2.2","data":{"bikes":[{"bike_id":"1f8e464b-810b-4d0d-88d1-dd40437892bd","system_id":"levelo_inurba_marseille","lat":43.29521,"lon":5.39398,"is_reserved":false,"is_disabled":false,"rental_uris":{"android":"levelo://app?vid=1f8e464b-810b-4d0d-88d1-dd40437892bd","ios":"levelo://app?vid=1f8e464b-810b-4d0d-88d1-dd40437892bd"},"vehicle_type_id":"4","last_reported":1736183292,"current_range_meters":37600,"station_id":"ce4bh292rcd13ifvqdf0","pricing_plan_id":"cebpf4jnsgd1na2vs0mg"},{"bike_id":"6468ca15-1b81-4ca0-9d51-e5a545b05c54","system_id":"levelo_inurba_marseille","lat":43.27809,"lon":5.40712,"is_reserved":false,"is_disabled":true,"rental_uris":{"android":"levelo://app?vid=6468ca15-1b81-4ca0-9d51-e5a545b05c54","ios":"levelo://app?vid=6468ca15-1b81-4ca0-9d51-e5a545b05c54"},"vehicle_type_id":"4","last_reported":1736183292,"current_range_meters":28400,"station_id":"ce4bhnh2rcd13ifvqgtg","pricing_plan_id":"cebpf4jnsgd1na2vs0mg"},{"bike_id":"eab8fa68-5664-4786-8ae7-c43d42aa8d90","system_id":"levelo_inurba_marseille","lat":43.27998,"lon":5.36947,"is_reserved":false,"is_disabled":false,"rental_uris":{"android":"levelo://app?vid=eab8fa68-5664-4786-8ae7-c43d42aa8d90","ios":"levelo://app?vid=eab8fa68-5664-4786-8ae7-c43d42aa8d90"},"vehicle_type_id":"4","last_reported":1736183292,"current_range_meters":32000,"station_id":"ce4bha12rcd13ifvqef0","pricing_plan_id":"cebpf4jnsgd1na2vs0mg"},{"bike_id":"b570cc0e-254b-46f8-bac7-42f2486d6d4d","system_id":"levelo_inurba_marseille","lat":43.24657,"lon":5.38888,"is_reserved":false,"is_disabled":false,"rental_uris":{"android":"levelo://app?vid=b570cc0e-254b-46f8-bac7-42f2486d6d4d","ios":"levelo://app?vid=b570cc0e-254b-46f8-bac7-42f2486d6d4d"},"vehicle_type_id":"4","last_reported":1736183292,"current_range_meters":39200,"station_id":"ce4bhg12rcd13ifvqf60","pricing_plan_id":"cebpf4jnsgd1na2vs0mg"},{"bike_id":"cca9a3a2-8552-4fc0-bb9e-677506511714","system_id":"levelo_inurba_marseille","lat":43.31361,"lon":5.38497,"is_reserved":false,"is_disabled":false,"rental_uris":{"android":"levelo://app?vid=cca9a3a2-8552-4fc0-bb9e-677506511714","ios":"levelo://app?vid=cca9a3a2-8552-4fc0-bb9e-677506511714"},"vehicle_type_id":"4","last_reported":1736183292,"current_range_meters":32800,"station_id":"ce4bgt92rcd13ifvqcf0","pricing_plan_id":"cebpf4jnsgd1na2vs0mg"},{"bike_id":"75397313-d2f3-43d1-95c6-cca2420d0a1c","system_id":"levelo_inurba_marseille","lat":43.27997,"lon":5.40007,"is_reserved":false,"is_disabled":false,"rental_uris":{"android":"levelo://app?vid=75397313-d2f3-43d1-95c6-cca2420d0a1c","ios":"levelo://app?vid=75397313-d2f3-43d1-95c6-cca2420d0a1c"},"vehicle_type_id":"4","last_reported":1736183292,"current_range_meters":20400,"station_id":"ce4bho92rcd13ifvqh4g","pricing_plan_id":"cebpf4jnsgd1na2vs0mg"},{"bike_id":"0153ae28-9422-4039-87f8-952c80b8c9cc","system_id":"levelo_inurba_marseille","lat":43.27326,"lon":5.39096,"is_reserved":false,"is_disabled":true,"rental_uris":{"android":"levelo://app?vid=0153ae28-9422-4039-87f8-952c80b8c9cc","ios":"levelo://app?vid=0153ae28-9422-4039-87f8-952c80b8c9cc"},"vehicle_type_id":"4","last_reported":1736183292,"current_range_meters":36000,"station_id":"ce4bhgp2rcd13ifvqfe0","pricing_plan_id":"cebpf4jnsgd1na2vs0mg"},{"bike_id":"4d557de7-c82d-4422-a616-878f1c1fa4a9","system_id":"levelo_inurba_marseille","lat":43.31759,"lon":5.390157,"is_reserved":false,"is_disabled":false,"rental_uris":{"android":"levelo://app?vid=4d557de7-c82d-4422-a616-878f1c1fa4a9","ios":"levelo://app?vid=4d557de7-c82d-4422-a616-878f1c1fa4a9"},"vehicle_type_id":"4","last_reported":1736183292,"current_range_meters":26000,"station_id":"ce4bhqp2rcd13ifvqhng","pricing_plan_id":"cebpf4jnsgd1na2vs0mg"},{"bike_id":"cbfbfb68-a0d8-4f32-af83-f15b15303472","system_id":"levelo_inurba_marseille","lat":43.29417,"lon":5.38611,"is_reserved":false,"is_disabled":false,"rental_uris":{"android":"levelo://app?vid=cbfbfb68-a0d8-4f32-af83-f15b15303472","ios":"levelo://app?vid=cbfbfb68-a0d8-4f32-af83-f15b15303472"},"vehicle_type_id":"4","last_reported":1736183292,"current_range_meters":16400,"station_id":"ce4bh2h2rcd13ifvqdh0","pricing_plan_id":"cebpf4jnsgd1na2vs0mg"},{"bike_id":"e8f7458c-cf19-43d7-a972-43547ad9fe30","system_id":"levelo_inurba_marseille","lat":43.27171,"lon":5.41003,"is_reserved":false,"is_disabled":false,"rental_uris":{"android":"levelo://app?vid=e8f7458c-cf19-43d7-a972-43547ad9fe30","ios":"levelo://app?vid=e8f7458c-cf19-43d7-a972-43547ad9fe30"},"vehicle_type_id":"4","last_reported":1736183292,"current_range_meters":6800,"station_id":"ce4bhl12rcd13ifvqgf0","pricing_plan_id":"cebpf4jnsgd1na2vs0mg"},{"bike_id":"795f0bf4-6cb2-4181-a990-1a76c6d73ea0","system_id":"levelo_inurba_marseille","lat":43.27953,"lon":5.41047,"is_reserved":false,"is_disabled":true,"rental_uris":{"android":"levelo://app?vid=795f0bf4-6cb2-4181-a990-1a76c6d73ea0","ios":"levelo://app?vid=795f0bf4-6cb2-4181-a990-1a76c6d73ea0"},"vehicle_type_id":"4","last_reported":1736183292,"current_range_meters":38800,"station_id":"ce4bhnp2rcd13ifvqh0g","pricing_plan_id":"cebpf4jnsgd1na2vs0mg"},{"bike_id":"f9c24d68-b89f-45de-995e-0128065ded3d","system_id":"levelo_inurba_marseille","lat":43.27824,"lon":5.39206,"is_reserved":false,"is_disabled":false,"rental_uris":{"android":"levelo://app?vid=f9c24d68-b89f-45de-995e-0128065ded3d","ios":"levelo://app?vid=f9c24d68-b89f-45de-995e-0128065ded3d"},"vehicle_type_id":"4","last_reported":1736183292,"current_range_meters":39200,"station_id":"ce4bhjp2rcd13ifvqga0","pricing_plan_id":"cebpf4jnsgd1na2vs0mg"},{"bike_id":"a7daa7e8-1c32-4c5e-8957-1f51d47bc446","system_id":"levelo_inurba_marseille","lat":43.27915,"lon":5.39578,"is_reserved":false,"is_disabled":false,"rental_uris":{"android":"levelo://app?vid=a7daa7e8-1c32-4c5e-8957-1f51d47bc446","ios":"levelo://app?vid=a7daa7e8-1c32-4c5e-8957-1f51d47bc446"},"vehicle_type_id":"4","last_reported":1736183292,"current_range_meters":29600,"station_id":"ce4bhf92rcd13ifvqf40","pricing_plan_id":"cebpf4jnsgd1na2vs0mg"},{"bike_id":"2e3020fc-739e-484f-aff1-968aa18f2ac1","system_id":"levelo_inurba_marseille","lat":43.28003,"lon":5.41648,"is_reserved":false,"is_disabled":true,"rental_uris":{"android":"levelo://app?vid=2e3020fc-739e-484f-aff1-968aa18f2ac1","ios":"levelo://app?vid=2e3020fc-739e-484f-aff1-968aa18f2ac1"},"vehicle_type_id":"4","last_reported":1736183292,"current_range_meters":38800,"station_id":"ce4bho12rcd13ifvqh1g","pricing_plan_id":"cebpf4jnsgd1na2vs0mg"},{"bike_id":"b8aa2da1-21c4-47d7-8a54-056beefd563c","system_id":"levelo_inurba_marseille","lat":43.23177,"lon":5.39986,"is_reserved":false,"is_disabled":false,"rental_uris":{"android":"levelo://app?vid=b8aa2da1-21c4-47d7-8a54-056beefd563c","ios":"levelo://app?vid=b8aa2da1-21c4-47d7-8a54-056beefd563c"},"vehicle_type_id":"4","last_reported":1736183292,"current_range_meters":9600,"station_id":"ce4bhn12rcd13ifvqgqg","pricing_plan_id":"cebpf4jnsgd1na2vs0mg"},{"bike_id":"c6462501-85fc-48e5-83ac-3bf58ccfa49e","system_id":"levelo_inurba_marseille","lat":43.25085,"lon":5.39506,"is_reserved":false,"is_disabled":false,"rental_uris":{"android":"levelo://app?vid=c6462501-85fc-48e5-83ac-3bf58ccfa49e","ios":"levelo://app?vid=c6462501-85fc-48e5-83ac-3bf58ccfa49e"},"vehicle_type_id":"4","last_reported":1736183292,"current_range_meters":29600,"station_id":"ce4bhm12rcd13ifvqgkg","pricing_plan_id":"cebpf4jnsgd1na2vs0mg"},{"bike_id":"c6c5246a-6c57-426f-a7e1-dc372ef756c9","system_id":"levelo_inurba_marseille","lat":43.28461,"lon":5.35884,"is_reserved":false,"is_disabled":false,"rental_uris":{"android":"levelo://app?vid=c6c5246a-6c57-426f-a7e1-dc372ef756c9","ios":"levelo://app?vid=c6c5246a-6c57-426f-a7e1-dc372ef756c9"},"vehicle_type_id":"4","last_reported":1736183292,"current_range_meters":12400,"station_id":"ce4bhah2rcd13ifvqei0","pricing_plan_id":"cebpf4jnsgd1na2vs0mg"},{"bike_id":"4eeaeffa-480f-4a94-8286-42f1bcb601fc","system_id":"levelo_inurba_marseille","lat":43.292737,"lon":5.401153,"is_reserved":false,"is_disabled":true,"rental_uris":{"android":"levelo://app?vid=4eeaeffa-480f-4a94-8286-42f1bcb601fc","ios":"levelo://app?vid=4eeaeffa-480f-4a94-8286-42f1bcb601fc"},"vehicle_type_id":"4","last_reported":1736183292,"current_range_meters":22400,"station_id":"ce4bh312rcd13ifvqdk0","pricing_plan_id":"cebpf4jnsgd1na2vs0mg"},{"bike_id":"7785ab47-fc21-464f-82e3-4fad2439c0ee","system_id":"levelo_inurba_marseille","lat":43.29825,"lon":5.43701,"is_reserved":false,"is_disabled":false,"rental_uris":{"android":"levelo://app?vid=7785ab47-fc21-464f-82e3-4fad2439c0ee","ios":"levelo://app?vid=7785ab47-fc21-464f-82e3-4fad2439c0ee"},"vehicle_type_id":"4","last_reported":1736183292,"current_range_meters":19600,"station_id":"","pricing_plan_id":"cebpf4jnsgd1na2vs0mg"},{"bike_id":"31294234-8e0c-4d4e-b18f-84b6512e63f9","system_id":"levelo_inurba_marseille","lat":43.29597,"lon":5.38089,"is_reserved":false,"is_disabled":false,"rental_uris":{"android":"levelo://app?vid=31294234-8e0c-4d4e-b18f-84b6512e63f9","ios":"levelo://app?vid=31294234-8e0c-4d4e-b18f-84b6512e63f9"},"vehicle_type_id":"4","last_reported":1736183292,"current_range_meters":39200,"station_id":"ce4bgl12rcd13ifvqbo0","pricing_plan_id":"cebpf4jnsgd1na2vs0mg"},{"bike_id":"910918f2-7702-42b6-a113-5cf6097ed7d7","system_id":"levelo_inurba_marseille","lat":43.2845,"lon":5.35893,"is_reserved":false,"is_disabled":false,"rental_uris":{"android":"levelo://app?vid=910918f2-7702-42b6-a113-5cf6097ed7d7","ios":"levelo://app?vid=910918f2-7702-42b6-a113-5cf6097ed7d7"},"vehicle_type_id":"4","last_reported":1736183292,"current_range_meters":24800,"station_id":"ce4bhah2rcd13ifvqei0","pricing_plan_id":"cebpf4jnsgd1na2vs0mg"},{"bike_id":"24d64fd3-add1-4c66-b7ea-c30ceb39d138","system_id":"levelo_inurba_marseille","lat":43.29527,"lon":5.38541,"is_reserved":false,"is_disabled":false,"rental_uris":{"android":"levelo://app?vid=24d64fd3-add1-4c66-b7ea-c30ceb39d138","ios":"levelo://app?vid=24d64fd3-add1-4c66-b7ea-c30ceb39d138"},"vehicle_type_id":"4","last_reported":1736183292,"current_range_meters":32400,"station_id":"ce4bgih2rcd13ifvqba0","pricing_plan_id":"cebpf4jnsgd1na2vs0mg"},{"bike_id":"7fe782bb-b75b-4b33-91e1-923579542f2f","system_id":"levelo_inurba_marseille","lat":43.27835,"lon":5.39202,"is_reserved":false,"is_disabled":false,"rental_uris":{"android":"levelo://app?vid=7fe782bb-b75b-4b33-91e1-923579542f2f","ios":"levelo://app?vid=7fe782bb-b75b-4b33-91e1-923579542f2f"},"vehicle_type_id":"4","last_reported":1736183292,"current_range_meters":3200,"station_id":"ce4bhjp2rcd13ifvqga0","pricing_plan_id":"cebpf4jnsgd1na2vs0mg"},{"bike_id":"04b8b23e-493d-4a1b-a5a9-3e9be1f61dbe","system_id":"levelo_inurba_marseille","lat":43.31716,"lon":5.42415,"is_reserved":false,"is_disabled":false,"rental_uris":{"android":"levelo://app?vid=04b8b23e-493d-4a1b-a5a9-3e9be1f61dbe","ios":"levelo://app?vid=04b8b23e-493d-4a1b-a5a9-3e9be1f61dbe"},"vehicle_type_id":"4","last_reported":1736183292,"current_range_meters":38000,"station_id":"ce4bhp92rcd13ifvqhbg","pricing_plan_id":"cebpf4jnsgd1na2vs0mg"},{"bike_id":"c023aed8-c4af-47de-bf55-7ec6cfb1c879","system_id":"levelo_inurba_marseille","lat":43.26196,"lon":5.37431,"is_reserved":false,"is_disabled":true,"rental_uris":{"android":"levelo://app?vid=c023aed8-c4af-47de-bf55-7ec6cfb1c879","ios":"levelo://app?vid=c023aed8-c4af-47de-bf55-7ec6cfb1c879"},"vehicle_type_id":"4","last_reported":1736183292,"current_range_meters":30800,"station_id":"ce4bhgp2rcd13ifvqfc0","pricing_plan_id":"cebpf4jnsgd1na2vs0mg"},{"bike_id":"abb73762-9b4d-4d88-954c-9c0415dc3b68","system_id":"levelo_inurba_marseille","lat":43.257324,"lon":5.383202,"is_reserved":false,"is_disabled":false,"rental_uris":{"android":"levelo://app?vid=abb73762-9b4d-4d88-954c-9c0415dc3b68","ios":"levelo://app?vid=abb73762-9b4d-4d88-954c-9c0415dc3b68"},"vehicle_type_id":"4","last_reported":1736183292,"current_range_meters":30800,"station_id":"ce4bhih2rcd13ifvqfs0","pricing_plan_id":"cebpf4jnsgd1na2vs0mg"},{"bike_id":"ebf65e80-1869-4c83-a4e9-e1600f07fee4","system_id":"levelo_inurba_marseille","lat":43.23164,"lon":5.39991,"is_reserved":false,"is_disabled":false,"rental_uris":{"android":"levelo://app?vid=ebf65e80-1869-4c83-a4e9-e1600f07fee4","ios":"levelo://app?vid=ebf65e80-1869-4c83-a4e9-e1600f07fee4"},"vehicle_type_id":"4","last_reported":1736183292,"current_range_meters":38800,"station_id":"ce4bhn12rcd13ifvqgqg","pricing_plan_id":"cebpf4jnsgd1na2vs0mg"},{"bike_id":"ad036647-e9f4-4246-953d-37ee6601db50","system_id":"levelo_inurba_marseille","lat":43.24659,"lon":5.38169,"is_reserved":false,"is_disabled":false,"rental_uris":{"android":"levelo://app?vid=ad036647-e9f4-4246-953d-37ee6601db50","ios":"levelo://app?vid=ad036647-e9f4-4246-953d-37ee6601db50"},"vehicle_type_id":"4","last_reported":1736183292,"current_range_meters":21600,"station_id":"ce4bhih2rcd13ifvqfr0","pricing_plan_id":"cebpf4jnsgd1na2vs0mg"},{"bike_id":"312875e5-fb92-477b-96a0-55a49c25c82a","system_id":"levelo_inurba_marseille","lat":43.272,"lon":5.39184,"is_reserved":false,"is_disabled":true,"rental_uris":{"android":"levelo://app?vid=312875e5-fb92-477b-96a0-55a49c25c82a","ios":"levelo://app?vid=312875e5-fb92-477b-96a0-55a49c25c82a"},"vehicle_type_id":"4","last_reported":1736183292,"current_range_meters":2000,"station_id":"ce4bhhp2rcd13ifvqfm0","pricing_plan_id":"cebpf4jnsgd1na2vs0mg"},{"bike_id":"eaab282d-9439-41f7-8e37-33fad7a18ff2","system_id":"levelo_inurba_marseille","lat":43.30533,"lon":5.3654,"is_reserved":false,"is_disabled":false,"rental_uris":{"android":"levelo://app?vid=eaab282d-9439-41f7-8e37-33fad7a18ff2","ios":"levelo://app?vid=eaab282d-9439-41f7-8e37-33fad7a18ff2"},"vehicle_type_id":"4","last_reported":1736183292,"current_range_meters":38400,"station_id":"ce4bgs12rcd13ifvqcag","pricing_plan_id":"cebpf4jnsgd1na2vs0mg"},{"bike_id":"8d1d45c2-4f7f-463d-b590-b188e899fb32","system_id":"levelo_inurba_marseille","lat":43.28416,"lon":5.3499,"is_reserved":false,"is_disabled":false,"rental_uris":{"android":"levelo://app?vid=8d1d45c2-4f7f-463d-b590-b188e899fb32","ios":"levelo://app?vid=8d1d45c2-4f7f-463d-b590-b188e899fb32"},"vehicle_type_id":"4","last_reported":1736183292,"current_range_meters":22000,"station_id":"ce4bhbh2rcd13ifvqepg","pricing_plan_id":"cebpf4jnsgd1na2vs0mg"},{"bike_id":"75d3e57a-b9bf-4f80-9f61-2812f05e5b86","system_id":"levelo_inurba_marseille","lat":43.28158,"lon":5.42628,"is_reserved":false,"is_disabled":false,"rental_uris":{"android":"levelo://app?vid=75d3e57a-b9bf-4f80-9f61-2812f05e5b86","ios":"levelo://app?vid=75d3e57a-b9bf-4f80-9f61-2812f05e5b86"},"vehicle_type_id":"4","last_reported":1736183292,"current_range_meters":14800,"station_id":"ce4bhnh2rcd13ifvqgug","pricing_plan_id":"cebpf4jnsgd1na2vs0mg"},{"bike_id":"f950f68e-763d-458f-8358-255933d8bbd3","system_id":"levelo_inurba_marseille","lat":43.27908,"lon":5.38006,"is_reserved":false,"is_disabled":false,"rental_uris":{"android":"levelo://app?vid=f950f68e-763d-458f-8358-255933d8bbd3","ios":"levelo://app?vid=f950f68e-763d-458f-8358-255933d8bbd3"},"vehicle_type_id":"4","last_reported":1736183292,"current_range_meters":38800,"station_id":"ce4bhf92rcd13ifvqf50","pricing_plan_id":"cebpf4jnsgd1na2vs0mg"},{"bike_id":"fe789b40-1539-4eb0-80c4-71c15a23688b","system_id":"levelo_inurba_marseille","lat":43.30089,"lon":5.39068,"is_reserved":false,"is_disabled":false,"rental_uris":{"android":"levelo://app?vid=fe789b40-1539-4eb0-80c4-71c15a23688b","ios":"levelo://app?vid=fe789b40-1539-4eb0-80c4-71c15a23688b"},"vehicle_type_id":"4","last_reported":1736183292,"current_range_meters":17600,"station_id":"ce4bh512rcd13ifvqe2g","pricing_plan_id":"cebpf4jnsgd1na2vs0mg"},{"bike_id":"9ee617c7-9b76-440e-9281-5fef63933f9f","system_id":"levelo_inurba_marseille","lat":43.29779,"lon":5.39337,"is_reserved":false,"is_disabled":false,"rental_uris":{"android":"levelo://app?vid=9ee617c7-9b76-440e-9281-5fef63933f9f","ios":"levelo://app?vid=9ee617c7-9b76-440e-9281-5fef63933f9f"},"vehicle_type_id":"4","last_reported":1736183292,"current_range_meters":28800,"station_id":"chh1huq6cuj3fo74tm60","pricing_plan_id":"cebpf4jnsgd1na2vs0mg"},{"bike_id":"acc1ab7e-0fac-4d85-98c1-a4f278fd4c17","system_id":"levelo_inurba_marseille","lat":43.24545,"lon":5.39514,"is_reserved":false,"is_disabled":false,"rental_uris":{"android":"levelo://app?vid=acc1ab7e-0fac-4d85-98c1-a4f278fd4c17","ios":"levelo://app?vid=acc1ab7e-0fac-4d85-98c1-a4f278fd4c17"},"vehicle_type_id":"4","last_reported":1736183292,"current_range_meters":24400,"station_id":"ce4bhlp2rcd13ifvqgjg","pricing_plan_id":"cebpf4jnsgd1na2vs0mg"},{"bike_id":"8a6c05d0-a1bf-40b6-bceb-133adb8ca423","system_id":"levelo_inurba_marseille","lat":43.28568,"lon":5.395,"is_reserved":false,"is_disabled":false,"rental_uris":{"android":"levelo://app?vid=8a6c05d0-a1bf-40b6-bceb-133adb8ca423","ios":"levelo://app?vid=8a6c05d0-a1bf-40b6-bceb-133adb8ca423"},"vehicle_type_id":"4","last_reported":1736183292,"current_range_meters":38400,"station_id":"ce4bh292rcd13ifvqdg0","pricing_plan_id":"cebpf4jnsgd1na2vs0mg"},{"bike_id":"0d869571-702b-474e-9734-e51fa36b8db2","system_id":"levelo_inurba_marseille","lat":43.29198,"lon":5.39312,"is_reserved":false,"is_disabled":true,"rental_uris":{"android":"levelo://app?vid=0d869571-702b-474e-9734-e51fa36b8db2","ios":"levelo://app?vid=0d869571-702b-474e-9734-e51fa36b8db2"},"vehicle_type_id":"4","last_reported":1736183292,"current_range_meters":9600,"station_id":"ce4bh192rcd13ifvqdd0","pricing_plan_id":"cebpf4jnsgd1na2vs0mg"},{"bike_id":"65cb6249-d674-423f-a287-f9df78d1bcc3","system_id":"levelo_inurba_marseille","lat":43.29186,"lon":5.39317,"is_reserved":false,"is_disabled":true,"rental_uris":{"android":"levelo://app?vid=65cb6249-d674-423f-a287-f9df78d1bcc3","ios":"levelo://app?vid=65cb6249-d674-423f-a287-f9df78d1bcc3"},"vehicle_type_id":"4","last_reported":1736183292,"current_range_meters":1600,"station_id":"ce4bh192rcd13ifvqdd0","pricing_plan_id":"cebpf4jnsgd1na2vs0mg"},{"bike_id":"1c8566e1-e9e5-47b1-84c3-686a41788fcd","system_id":"levelo_inurba_marseille","lat":43.2551,"lon":5.37635,"is_reserved":false,"is_disabled":false,"rental_uris":{"android":"levelo://app?vid=1c8566e1-e9e5-47b1-84c3-686a41788fcd","ios":"levelo://app?vid=1c8566e1-e9e5-47b1-84c3-686a41788fcd"},"vehicle_type_id":"4","last_reported":1736183292,"current_range_meters":38800,"station_id":"ce4bhh12rcd13ifvqff0","pricing_plan_id":"cebpf4jnsgd1na2vs0mg"},{"bike_id":"f3dc5950-3eb5-4ed6-b434-c60e1c8ca53c","system_id":"levelo_inurba_marseille","lat":43.3093,"lon":5.40148,"is_reserved":false,"is_disabled":false,"rental_uris":{"android":"levelo://app?vid=f3dc5950-3eb5-4ed6-b434-c60e1c8ca53c","ios":"levelo://app?vid=f3dc5950-3eb5-4ed6-b434-c60e1c8ca53c"},"vehicle_type_id":"4","last_reported":1736183292,"current_range_meters":28000,"station_id":"ce4bgvp2rcd13ifvqct0","pricing_plan_id":"cebpf4jnsgd1na2vs0mg"},{"bike_id":"77699333-a4b0-4eb5-b194-3931067d6303","system_id":"levelo_inurba_marseille","lat":43.31753,"lon":5.39011,"is_reserved":false,"is_disabled":true,"rental_uris":{"android":"levelo://app?vid=77699333-a4b0-4eb5-b194-3931067d6303","ios":"levelo://app?vid=77699333-a4b0-4eb5-b194-3931067d6303"},"vehicle_type_id":"4","last_reported":1736183292,"current_range_meters":0,"station_id":"ce4bhqp2rcd13ifvqhng","pricing_plan_id":"cebpf4jnsgd1na2vs0mg"},{"bike_id":"a23e7dd5-84cc-4eca-9236-90b42c7ed41b","system_id":"levelo_inurba_marseille","lat":43.32371,"lon":5.40604,"is_reserved":false,"is_disabled":true,"rental_uris":{"android":"levelo://app?vid=a23e7dd5-84cc-4eca-9236-90b42c7ed41b","ios":"levelo://app?vid=a23e7dd5-84cc-4eca-9236-90b42c7ed41b"},"vehicle_type_id":"4","last_reported":1736183292,"current_range_meters":17600,"station_id":"ce4bhq92rcd13ifvqhjg","pricing_plan_id":"cebpf4jnsgd1na2vs0mg"},{"bike_id":"9669dc8c-1791-487a-9408-15fb0241bc54","system_id":"levelo_inurba_marseille","lat":43.31345,"lon":5.39679,"is_reserved":false,"is_disabled":false,"rental_uris":{"android":"levelo://app?vid=9669dc8c-1791-487a-9408-15fb0241bc54","ios":"levelo://app?vid=9669dc8c-1791-487a-9408-15fb0241bc54"},"vehicle_type_id":"4","last_reported":1736183292,"current_range_meters":31200,"station_id":"ce4bgvp2rcd13ifvqcu0","pricing_plan_id":"cebpf4jnsgd1na2vs0mg"},{"bike_id":"db973fb0-a7a7-419f-905d-9711a91dd280","system_id":"levelo_inurba_marseille","lat":43.25705,"lon":5.41116,"is_reserved":false,"is_disabled":true,"rental_uris":{"android":"levelo://app?vid=db973fb0-a7a7-419f-905d-9711a91dd280","ios":"levelo://app?vid=db973fb0-a7a7-419f-905d-9711a91dd280"},"vehicle_type_id":"4","last_reported":1736183292,"current_range_meters":38800,"station_id":"ce4bhkp2rcd13ifvqgd0","pricing_plan_id":"cebpf4jnsgd1na2vs0mg"},{"bike_id":"dbef11d5-dda6-4aa4-a588-fb01a26de98a","system_id":"levelo_inurba_marseille","lat":43.28433,"lon":5.34983,"is_reserved":false,"is_disabled":false,"rental_uris":{"android":"levelo://app?vid=dbef11d5-dda6-4aa4-a588-fb01a26de98a","ios":"levelo://app?vid=dbef11d5-dda6-4aa4-a588-fb01a26de98a"},"vehicle_type_id":"4","last_reported":1736183292,"current_range_meters":23200,"station_id":"ce4bhbh2rcd13ifvqepg","pricing_plan_id":"cebpf4jnsgd1na2vs0mg"},{"bike_id":"9b8cfac3-c795-4e09-8208-dfdcc2c9db0a","system_id":"levelo_inurba_marseille","lat":43.29014,"lon":5.40001,"is_reserved":false,"is_disabled":true,"rental_uris":{"android":"levelo://app?vid=9b8cfac3-c795-4e09-8208-dfdcc2c9db0a","ios":"levelo://app?vid=9b8cfac3-c795-4e09-8208-dfdcc2c9db0a"},"vehicle_type_id":"4","last_reported":1736183292,"current_range_meters":38800,"station_id":"ce4bh392rcd13ifvqdm0","pricing_plan_id":"cebpf4jnsgd1na2vs0mg"},{"bike_id":"f8142e8a-f886-4c5e-b399-88d8fa1c1d32","system_id":"levelo_inurba_marseille","lat":43.24685,"lon":5.38154,"is_reserved":false,"is_disabled":false,"rental_uris":{"android":"levelo://app?vid=f8142e8a-f886-4c5e-b399-88d8fa1c1d32","ios":"levelo://app?vid=f8142e8a-f886-4c5e-b399-88d8fa1c1d32"},"vehicle_type_id":"4","last_reported":1736183292,"current_range_meters":22000,"station_id":"ce4bhih2rcd13ifvqfr0","pricing_plan_id":"cebpf4jnsgd1na2vs0mg"},{"bike_id":"04284143-2834-49a9-97bf-7ff57a2fbe0d","system_id":"levelo_inurba_marseille","lat":43.31324,"lon":5.39692,"is_reserved":false,"is_disabled":false,"rental_uris":{"android":"levelo://app?vid=04284143-2834-49a9-97bf-7ff57a2fbe0d","ios":"levelo://app?vid=04284143-2834-49a9-97bf-7ff57a2fbe0d"},"vehicle_type_id":"4","last_reported":1736183292,"current_range_meters":30800,"station_id":"ce4bgvp2rcd13ifvqcu0","pricing_plan_id":"cebpf4jnsgd1na2vs0mg"},{"bike_id":"3339d050-09a6-4aa9-9ed5-b1e4247a1a00","system_id":"levelo_inurba_marseille","lat":43.23953,"lon":5.36649,"is_reserved":false,"is_disabled":false,"rental_uris":{"android":"levelo://app?vid=3339d050-09a6-4aa9-9ed5-b1e4247a1a00","ios":"levelo://app?vid=3339d050-09a6-4aa9-9ed5-b1e4247a1a00"},"vehicle_type_id":"4","last_reported":1736183292,"current_range_meters":38800,"station_id":"ce4bhi12rcd13ifvqfp0","pricing_plan_id":"cebpf4jnsgd1na2vs0mg"},{"bike_id":"0a9c3f6d-1ee4-4242-ab1b-2fc933875b46","system_id":"levelo_inurba_marseille","lat":43.28452,"lon":5.35879,"is_reserved":false,"is_disabled":false,"rental_uris":{"android":"levelo://app?vid=0a9c3f6d-1ee4-4242-ab1b-2fc933875b46","ios":"levelo://app?vid=0a9c3f6d-1ee4-4242-ab1b-2fc933875b46"},"vehicle_type_id":"4","last_reported":1736183292,"current_range_meters":35200,"station_id":"ce4bhah2rcd13ifvqei0","pricing_plan_id":"cebpf4jnsgd1na2vs0mg"},{"bike_id":"555f5bb6-1a41-4662-92c1-ef73605abfac","system_id":"levelo_inurba_marseille","lat":43.32283,"lon":5.38269,"is_reserved":false,"is_disabled":false,"rental_uris":{"android":"levelo://app?vid=555f5bb6-1a41-4662-92c1-ef73605abfac","ios":"levelo://app?vid=555f5bb6-1a41-4662-92c1-ef73605abfac"},"vehicle_type_id":"4","last_reported":1736183292,"current_range_meters":38800,"station_id":"ce4bhr12rcd13ifvqhqg","pricing_plan_id":"cebpf4jnsgd1na2vs0mg"},{"bike_id":"5a231d4e-1469-4389-a9bc-0d65fec09d5f","system_id":"levelo_inurba_marseille","lat":43.28308,"lon":5.43315,"is_reserved":false,"is_disabled":false,"rental_uris":{"android":"levelo://app?vid=5a231d4e-1469-4389-a9bc-0d65fec09d5f","ios":"levelo://app?vid=5a231d4e-1469-4389-a9bc-0d65fec09d5f"},"vehicle_type_id":"4","last_reported":1736183292,"current_range_meters":8800,"station_id":"","pricing_plan_id":"cebpf4jnsgd1na2vs0mg"},{"bike_id":"0aa10dfe-cc5f-4fc7-90b8-fc6a5ef6e9bf","system_id":"levelo_inurba_marseille","lat":43.25577,"lon":5.38231,"is_reserved":false,"is_disabled":false,"rental_uris":{"android":"levelo://app?vid=0aa10dfe-cc5f-4fc7-90b8-fc6a5ef6e9bf","ios":"levelo://app?vid=0aa10dfe-cc5f-4fc7-90b8-fc6a5ef6e9bf"},"vehicle_type_id":"4","last_reported":1736183292,"current_range_meters":20400,"station_id":"ce4bhih2rcd13ifvqfs0","pricing_plan_id":"cebpf4jnsgd1na2vs0mg"},{"bike_id":"bc9bb4d7-2fdc-4d34-b0a0-ed77a3035abd","system_id":"levelo_inurba_marseille","lat":43.31711,"lon":5.3778,"is_reserved":false,"is_disabled":false,"rental_uris":{"android":"levelo://app?vid=bc9bb4d7-2fdc-4d34-b0a0-ed77a3035abd","ios":"levelo://app?vid=bc9bb4d7-2fdc-4d34-b0a0-ed77a3035abd"},"vehicle_type_id":"4","last_reported":1736183292,"current_range_meters":30800,"station_id":"ce4bgth2rcd13ifvqch0","pricing_plan_id":"cebpf4jnsgd1na2vs0mg"},{"bike_id":"e034b126-8132-4ebd-9a52-7eb3e2b7cdd0","system_id":"levelo_inurba_marseille","lat":43.29597,"lon":5.38103,"is_reserved":false,"is_disabled":false,"rental_uris":{"android":"levelo://app?vid=e034b126-8132-4ebd-9a52-7eb3e2b7cdd0","ios":"levelo://app?vid=e034b126-8132-4ebd-9a52-7eb3e2b7cdd0"},"vehicle_type_id":"4","last_reported":1736183292,"current_range_meters":36400,"station_id":"ce4bgl12rcd13ifvqbo0","pricing_plan_id":"cebpf4jnsgd1na2vs0mg"},{"bike_id":"32b1e481-08ff-4686-8010-e6cff020cbb0","system_id":"levelo_inurba_marseille","lat":43.28555,"lon":5.39508,"is_reserved":false,"is_disabled":false,"rental_uris":{"android":"levelo://app?vid=32b1e481-08ff-4686-8010-e6cff020cbb0","ios":"levelo://app?vid=32b1e481-08ff-4686-8010-e6cff020cbb0"},"vehicle_type_id":"4","last_reported":1736183292,"current_range_meters":8800,"station_id":"ce4bh292rcd13ifvqdg0","pricing_plan_id":"cebpf4jnsgd1na2vs0mg"},{"bike_id":"7b78d5e2-5142-402d-a4f8-0f3037a6c533","system_id":"levelo_inurba_marseille","lat":43.26951,"lon":5.38621,"is_reserved":false,"is_disabled":true,"rental_uris":{"android":"levelo://app?vid=7b78d5e2-5142-402d-a4f8-0f3037a6c533","ios":"levelo://app?vid=7b78d5e2-5142-402d-a4f8-0f3037a6c533"},"vehicle_type_id":"4","last_reported":1736183292,"current_range_meters":36400,"station_id":"ce4bhh92rcd13ifvqfh0","pricing_plan_id":"cebpf4jnsgd1na2vs0mg"},{"bike_id":"b7a40363-e24a-40d4-9093-03abd7f45948","system_id":"levelo_inurba_marseille","lat":43.30612,"lon":5.37252,"is_reserved":false,"is_disabled":false,"rental_uris":{"android":"levelo://app?vid=b7a40363-e24a-40d4-9093-03abd7f45948","ios":"levelo://app?vid=b7a40363-e24a-40d4-9093-03abd7f45948"},"vehicle_type_id":"4","last_reported":1736183292,"current_range_meters":2800,"station_id":"ce4bgqh2rcd13ifvqc4g","pricing_plan_id":"cebpf4jnsgd1na2vs0mg"},{"bike_id":"d0d21930-fe1d-478b-8251-bcf89564599d","system_id":"levelo_inurba_marseille","lat":43.29546,"lon":5.4227,"is_reserved":false,"is_disabled":false,"rental_uris":{"android":"levelo://app?vid=d0d21930-fe1d-478b-8251-bcf89564599d","ios":"levelo://app?vid=d0d21930-fe1d-478b-8251-bcf89564599d"},"vehicle_type_id":"4","last_reported":1736183292,"current_range_meters":24000,"station_id":"ce4bhph2rcd13ifvqhdg","pricing_plan_id":"cebpf4jnsgd1na2vs0mg"},{"bike_id":"f6898cd8-d82d-4b7f-ad59-669d9e614c97","system_id":"levelo_inurba_marseille","lat":43.27813,"lon":5.40698,"is_reserved":false,"is_disabled":false,"rental_uris":{"android":"levelo://app?vid=f6898cd8-d82d-4b7f-ad59-669d9e614c97","ios":"levelo://app?vid=f6898cd8-d82d-4b7f-ad59-669d9e614c97"},"vehicle_type_id":"4","last_reported":1736183292,"current_range_meters":36800,"station_id":"ce4bhnh2rcd13ifvqgtg","pricing_plan_id":"cebpf4jnsgd1na2vs0mg"},{"bike_id":"e0d04be2-f40b-40da-a8e2-fffa3a80cdf5","system_id":"levelo_inurba_marseille","lat":43.30551,"lon":5.3654,"is_reserved":false,"is_disabled":false,"rental_uris":{"android":"levelo://app?vid=e0d04be2-f40b-40da-a8e2-fffa3a80cdf5","ios":"levelo://app?vid=e0d04be2-f40b-40da-a8e2-fffa3a80cdf5"},"vehicle_type_id":"4","last_reported":1736183292,"current_range_meters":25200,"station_id":"ce4bgs12rcd13ifvqcag","pricing_plan_id":"cebpf4jnsgd1na2vs0mg"},{"bike_id":"d4f37a43-a43d-43e5-a796-e299812d411c","system_id":"levelo_inurba_marseille","lat":43.28441,"lon":5.37538,"is_reserved":false,"is_disabled":false,"rental_uris":{"android":"levelo://app?vid=d4f37a43-a43d-43e5-a796-e299812d411c","ios":"levelo://app?vid=d4f37a43-a43d-43e5-a796-e299812d411c"},"vehicle_type_id":"4","last_reported":1736183292,"current_range_meters":38800,"station_id":"","pricing_plan_id":"cebpf4jnsgd1na2vs0mg"},{"bike_id":"fa937a05-2d56-45f8-8ede-8052fd1765e6","system_id":"levelo_inurba_marseille","lat":43.29171,"lon":5.37168,"is_reserved":false,"is_disabled":false,"rental_uris":{"android":"levelo://app?vid=fa937a05-2d56-45f8-8ede-8052fd1765e6","ios":"levelo://app?vid=fa937a05-2d56-45f8-8ede-8052fd1765e6"},"vehicle_type_id":"4","last_reported":1736183292,"current_range_meters":23200,"station_id":"ce4bha92rcd13ifvqeh0","pricing_plan_id":"cebpf4jnsgd1na2vs0mg"},{"bike_id":"2169b741-6201-4232-bf22-58db51858636","system_id":"levelo_inurba_marseille","lat":43.25119,"lon":5.40312,"is_reserved":false,"is_disabled":false,"rental_uris":{"android":"levelo://app?vid=2169b741-6201-4232-bf22-58db51858636","ios":"levelo://app?vid=2169b741-6201-4232-bf22-58db51858636"},"vehicle_type_id":"4","last_reported":1736183292,"current_range_meters":36400,"station_id":"ce4bhlh2rcd13ifvqgig","pricing_plan_id":"cebpf4jnsgd1na2vs0mg"},{"bike_id":"05a8e4b8-84c9-4654-afac-821ce5035ea8","system_id":"levelo_inurba_marseille","lat":43.23151,"lon":5.43709,"is_reserved":false,"is_disabled":false,"rental_uris":{"android":"levelo://app?vid=05a8e4b8-84c9-4654-afac-821ce5035ea8","ios":"levelo://app?vid=05a8e4b8-84c9-4654-afac-821ce5035ea8"},"vehicle_type_id":"4","last_reported":1736183292,"current_range_meters":24000,"station_id":"ce4bhmp2rcd13ifvqgog","pricing_plan_id":"cebpf4jnsgd1na2vs0mg"},{"bike_id":"5cad4397-d7fe-427d-9b9c-8acb185fe024","system_id":"levelo_inurba_marseille","lat":43.25077,"lon":5.39513,"is_reserved":false,"is_disabled":false,"rental_uris":{"android":"levelo://app?vid=5cad4397-d7fe-427d-9b9c-8acb185fe024","ios":"levelo://app?vid=5cad4397-d7fe-427d-9b9c-8acb185fe024"},"vehicle_type_id":"4","last_reported":1736183292,"current_range_meters":38800,"station_id":"ce4bhm12rcd13ifvqgkg","pricing_plan_id":"cebpf4jnsgd1na2vs0mg"},{"bike_id":"1c481475-c11b-4ecc-bc54-1fc518f12b1f","system_id":"levelo_inurba_marseille","lat":43.31711,"lon":5.37754,"is_reserved":false,"is_disabled":false,"rental_uris":{"android":"levelo://app?vid=1c481475-c11b-4ecc-bc54-1fc518f12b1f","ios":"levelo://app?vid=1c481475-c11b-4ecc-bc54-1fc518f12b1f"},"vehicle_type_id":"4","last_reported":1736183292,"current_range_meters":38800,"station_id":"ce4bgth2rcd13ifvqch0","pricing_plan_id":"cebpf4jnsgd1na2vs0mg"},{"bike_id":"a5484267-8df2-433f-b0b4-6d17ece69370","system_id":"levelo_inurba_marseille","lat":43.302458,"lon":5.400625,"is_reserved":false,"is_disabled":false,"rental_uris":{"android":"levelo://app?vid=a5484267-8df2-433f-b0b4-6d17ece69370","ios":"levelo://app?vid=a5484267-8df2-433f-b0b4-6d17ece69370"},"vehicle_type_id":"4","last_reported":1736183292,"current_range_meters":7200,"station_id":"ce4bgvh2rcd13ifvqcs0","pricing_plan_id":"cebpf4jnsgd1na2vs0mg"},{"bike_id":"a09eb38f-bb31-4692-b07c-f093c0750063","system_id":"levelo_inurba_marseille","lat":43.3171,"lon":5.3774,"is_reserved":false,"is_disabled":false,"rental_uris":{"android":"levelo://app?vid=a09eb38f-bb31-4692-b07c-f093c0750063","ios":"levelo://app?vid=a09eb38f-bb31-4692-b07c-f093c0750063"},"vehicle_type_id":"4","last_reported":1736183292,"current_range_meters":38000,"station_id":"ce4bgth2rcd13ifvqch0","pricing_plan_id":"cebpf4jnsgd1na2vs0mg"},{"bike_id":"9adf4bb9-8545-4f4e-9aac-6c65518c77d5","system_id":"levelo_inurba_marseille","lat":43.2962,"lon":5.37152,"is_reserved":false,"is_disabled":false,"rental_uris":{"android":"levelo://app?vid=9adf4bb9-8545-4f4e-9aac-6c65518c77d5","ios":"levelo://app?vid=9adf4bb9-8545-4f4e-9aac-6c65518c77d5"},"vehicle_type_id":"4","last_reported":1736183292,"current_range_meters":38400,"station_id":"ce4bgnh2rcd13ifvqc0g","pricing_plan_id":"cebpf4jnsgd1na2vs0mg"},{"bike_id":"7a507fc1-c207-4db3-bc4e-334f818d69fd","system_id":"levelo_inurba_marseille","lat":43.30439,"lon":5.38894,"is_reserved":false,"is_disabled":false,"rental_uris":{"android":"levelo://app?vid=7a507fc1-c207-4db3-bc4e-334f818d69fd","ios":"levelo://app?vid=7a507fc1-c207-4db3-bc4e-334f818d69fd"},"vehicle_type_id":"4","last_reported":1736183292,"current_range_meters":29600,"station_id":"ce4bgk12rcd13ifvqbi0","pricing_plan_id":"cebpf4jnsgd1na2vs0mg"},{"bike_id":"54a7bf05-093a-4c5b-bb81-4de0199213f9","system_id":"levelo_inurba_marseille","lat":43.30423,"lon":5.4127,"is_reserved":false,"is_disabled":false,"rental_uris":{"android":"levelo://app?vid=54a7bf05-093a-4c5b-bb81-4de0199213f9","ios":"levelo://app?vid=54a7bf05-093a-4c5b-bb81-4de0199213f9"},"vehicle_type_id":"4","last_reported":1736183292,"current_range_meters":25600,"station_id":"ce4bhop2rcd13ifvqh8g","pricing_plan_id":"cebpf4jnsgd1na2vs0mg"},{"bike_id":"b64d19b5-9694-403b-9230-b67089674d19","system_id":"levelo_inurba_marseille","lat":43.27916,"lon":5.39582,"is_reserved":false,"is_disabled":false,"rental_uris":{"android":"levelo://app?vid=b64d19b5-9694-403b-9230-b67089674d19","ios":"levelo://app?vid=b64d19b5-9694-403b-9230-b67089674d19"},"vehicle_type_id":"4","last_reported":1736183292,"current_range_meters":4000,"station_id":"ce4bhf92rcd13ifvqf40","pricing_plan_id":"cebpf4jnsgd1na2vs0mg"},{"bike_id":"ab8e6289-e51b-4fb2-bc15-28b673029b14","system_id":"levelo_inurba_marseille","lat":43.30321,"lon":5.40442,"is_reserved":false,"is_disabled":false,"rental_uris":{"android":"levelo://app?vid=ab8e6289-e51b-4fb2-bc15-28b673029b14","ios":"levelo://app?vid=ab8e6289-e51b-4fb2-bc15-28b673029b14"},"vehicle_type_id":"4","last_reported":1736183292,"current_range_meters":33600,"station_id":"ce4bh012rcd13ifvqd10","pricing_plan_id":"cebpf4jnsgd1na2vs0mg"},{"bike_id":"a2fad600-bcdc-4fe2-b5cf-418b8c47104e","system_id":"levelo_inurba_marseille","lat":43.24665,"lon":5.38899,"is_reserved":false,"is_disabled":false,"rental_uris":{"android":"levelo://app?vid=a2fad600-bcdc-4fe2-b5cf-418b8c47104e","ios":"levelo://app?vid=a2fad600-bcdc-4fe2-b5cf-418b8c47104e"},"vehicle_type_id":"4","last_reported":1736183292,"current_range_meters":28000,"station_id":"ce4bhg12rcd13ifvqf60","pricing_plan_id":"cebpf4jnsgd1na2vs0mg"},{"bike_id":"3e51f001-674f-4402-81fd-5ff3f2138e63","system_id":"levelo_inurba_marseille","lat":43.297025,"lon":5.36609,"is_reserved":false,"is_disabled":false,"rental_uris":{"android":"levelo://app?vid=3e51f001-674f-4402-81fd-5ff3f2138e63","ios":"levelo://app?vid=3e51f001-674f-4402-81fd-5ff3f2138e63"},"vehicle_type_id":"4","last_reported":1736183292,"current_range_meters":38400,"station_id":"ce4bgn12rcd13ifvqbt0","pricing_plan_id":"cebpf4jnsgd1na2vs0mg"},{"bike_id":"03e103e3-5075-4dd0-88ff-21ad5a89a520","system_id":"levelo_inurba_marseille","lat":43.25492,"lon":5.37652,"is_reserved":false,"is_disabled":false,"rental_uris":{"android":"levelo://app?vid=03e103e3-5075-4dd0-88ff-21ad5a89a520","ios":"levelo://app?vid=03e103e3-5075-4dd0-88ff-21ad5a89a520"},"vehicle_type_id":"4","last_reported":1736183292,"current_range_meters":36800,"station_id":"ce4bhh12rcd13ifvqff0","pricing_plan_id":"cebpf4jnsgd1na2vs0mg"},{"bike_id":"ef8b07f4-ee76-4b88-b7ec-0f67491fe1ff","system_id":"levelo_inurba_marseille","lat":43.25101,"lon":5.39524,"is_reserved":false,"is_disabled":false,"rental_uris":{"android":"levelo://app?vid=ef8b07f4-ee76-4b88-b7ec-0f67491fe1ff","ios":"levelo://app?vid=ef8b07f4-ee76-4b88-b7ec-0f67491fe1ff"},"vehicle_type_id":"4","last_reported":1736183292,"current_range_meters":38800,"station_id":"ce4bhm12rcd13ifvqgkg","pricing_plan_id":"cebpf4jnsgd1na2vs0mg"},{"bike_id":"2d4069a8-2e1f-4c49-a2ca-a013dccec575","system_id":"levelo_inurba_marseille","lat":43.32337,"lon":5.40617,"is_reserved":false,"is_disabled":false,"rental_uris":{"android":"levelo://app?vid=2d4069a8-2e1f-4c49-a2ca-a013dccec575","ios":"levelo://app?vid=2d4069a8-2e1f-4c49-a2ca-a013dccec575"},"vehicle_type_id":"4","last_reported":1736183292,"current_range_meters":36400,"station_id":"ce4bhq92rcd13ifvqhjg","pricing_plan_id":"cebpf4jnsgd1na2vs0mg"},{"bike_id":"319fc3f9-cef1-4d55-ba8a-4e0c26341be4","system_id":"levelo_inurba_marseille","lat":43.28614,"lon":5.35104,"is_reserved":false,"is_disabled":false,"rental_uris":{"android":"levelo://app?vid=319fc3f9-cef1-4d55-ba8a-4e0c26341be4","ios":"levelo://app?vid=319fc3f9-cef1-4d55-ba8a-4e0c26341be4"},"vehicle_type_id":"4","last_reported":1736183292,"current_range_meters":22000,"station_id":"ce4bhch2rcd13ifvqeug","pricing_plan_id":"cebpf4jnsgd1na2vs0mg"},{"bike_id":"6a595de3-0911-46a9-bdbf-4cca5437105e","system_id":"levelo_inurba_marseille","lat":43.23196,"lon":5.35544,"is_reserved":false,"is_disabled":false,"rental_uris":{"android":"levelo://app?vid=6a595de3-0911-46a9-bdbf-4cca5437105e","ios":"levelo://app?vid=6a595de3-0911-46a9-bdbf-4cca5437105e"},"vehicle_type_id":"4","last_reported":1736183292,"current_range_meters":20800,"station_id":"ce4bhu92rcd13ifvqi70","pricing_plan_id":"cebpf4jnsgd1na2vs0mg"},{"bike_id":"641d8acc-50b2-4173-ab23-c70f2a11d28e","system_id":"levelo_inurba_marseille","lat":43.281627,"lon":5.426363,"is_reserved":false,"is_disabled":true,"rental_uris":{"android":"levelo://app?vid=641d8acc-50b2-4173-ab23-c70f2a11d28e","ios":"levelo://app?vid=641d8acc-50b2-4173-ab23-c70f2a11d28e"},"vehicle_type_id":"4","last_reported":1736183292,"current_range_meters":27200,"station_id":"ce4bhnh2rcd13ifvqgug","pricing_plan_id":"cebpf4jnsgd1na2vs0mg"},{"bike_id":"15e503f5-1d52-42d6-a98f-33a61fd8b554","system_id":"levelo_inurba_marseille","lat":43.28461,"lon":5.35886,"is_reserved":false,"is_disabled":true,"rental_uris":{"android":"levelo://app?vid=15e503f5-1d52-42d6-a98f-33a61fd8b554","ios":"levelo://app?vid=15e503f5-1d52-42d6-a98f-33a61fd8b554"},"vehicle_type_id":"4","last_reported":1736183292,"current_range_meters":21600,"station_id":"ce4bhah2rcd13ifvqei0","pricing_plan_id":"cebpf4jnsgd1na2vs0mg"},{"bike_id":"d7c7cd56-05c5-4445-8601-bada0db0d896","system_id":"levelo_inurba_marseille","lat":43.28438,"lon":5.39208,"is_reserved":false,"is_disabled":false,"rental_uris":{"android":"levelo://app?vid=d7c7cd56-05c5-4445-8601-bada0db0d896","ios":"levelo://app?vid=d7c7cd56-05c5-4445-8601-bada0db0d896"},"vehicle_type_id":"4","last_reported":1736183292,"current_range_meters":3600,"station_id":"ce4bhoh2rcd13ifvqh5g","pricing_plan_id":"cebpf4jnsgd1na2vs0mg"},{"bike_id":"3b8e61bb-e4eb-4f10-a7a9-d84b1a239d65","system_id":"levelo_inurba_marseille","lat":43.27395,"lon":5.39417,"is_reserved":false,"is_disabled":false,"rental_uris":{"android":"levelo://app?vid=3b8e61bb-e4eb-4f10-a7a9-d84b1a239d65","ios":"levelo://app?vid=3b8e61bb-e4eb-4f10-a7a9-d84b1a239d65"},"vehicle_type_id":"4","last_reported":1736183292,"current_range_meters":28800,"station_id":"ce4bhdp2rcd13ifvqf20","pricing_plan_id":"cebpf4jnsgd1na2vs0mg"},{"bike_id":"88fbd2f9-edba-4674-927d-ce8a9c56a0e7","system_id":"levelo_inurba_marseille","lat":43.28151,"lon":5.42651,"is_reserved":false,"is_disabled":false,"rental_uris":{"android":"levelo://app?vid=88fbd2f9-edba-4674-927d-ce8a9c56a0e7","ios":"levelo://app?vid=88fbd2f9-edba-4674-927d-ce8a9c56a0e7"},"vehicle_type_id":"4","last_reported":1736183292,"current_range_meters":27200,"station_id":"ce4bhnh2rcd13ifvqgug","pricing_plan_id":"cebpf4jnsgd1na2vs0mg"},{"bike_id":"61a0e366-59dc-4344-9007-3379e8066fbb","system_id":"levelo_inurba_marseille","lat":43.30416,"lon":5.4128,"is_reserved":false,"is_disabled":false,"rental_uris":{"android":"levelo://app?vid=61a0e366-59dc-4344-9007-3379e8066fbb","ios":"levelo://app?vid=61a0e366-59dc-4344-9007-3379e8066fbb"},"vehicle_type_id":"4","last_reported":1736183292,"current_range_meters":38800,"station_id":"ce4bhop2rcd13ifvqh8g","pricing_plan_id":"cebpf4jnsgd1na2vs0mg"},{"bike_id":"c91420cb-3b23-4a0f-ac7b-178ddee4dd94","system_id":"levelo_inurba_marseille","lat":43.30597,"lon":5.37203,"is_reserved":false,"is_disabled":false,"rental_uris":{"android":"levelo://app?vid=c91420cb-3b23-4a0f-ac7b-178ddee4dd94","ios":"levelo://app?vid=c91420cb-3b23-4a0f-ac7b-178ddee4dd94"},"vehicle_type_id":"4","last_reported":1736183292,"current_range_meters":16800,"station_id":"ce4bgqh2rcd13ifvqc4g","pricing_plan_id":"cebpf4jnsgd1na2vs0mg"},{"bike_id":"f1eddc63-56db-4bfe-947c-d0cf39bf8e29","system_id":"levelo_inurba_marseille","lat":43.24799,"lon":5.37452,"is_reserved":false,"is_disabled":false,"rental_uris":{"android":"levelo://app?vid=f1eddc63-56db-4bfe-947c-d0cf39bf8e29","ios":"levelo://app?vid=f1eddc63-56db-4bfe-947c-d0cf39bf8e29"},"vehicle_type_id":"4","last_reported":1736183292,"current_range_meters":10000,"station_id":"ce4bhgh2rcd13ifvqfb0","pricing_plan_id":"cebpf4jnsgd1na2vs0mg"},{"bike_id":"237eb7a7-7331-4631-9377-6cdbdc6e4e98","system_id":"levelo_inurba_marseille","lat":43.265597,"lon":5.390115,"is_reserved":false,"is_disabled":true,"rental_uris":{"android":"levelo://app?vid=237eb7a7-7331-4631-9377-6cdbdc6e4e98","ios":"levelo://app?vid=237eb7a7-7331-4631-9377-6cdbdc6e4e98"},"vehicle_type_id":"4","last_reported":1736183292,"current_range_meters":35200,"station_id":"ce4bhe12rcd13ifvqf30","pricing_plan_id":"cebpf4jnsgd1na2vs0mg"},{"bike_id":"e5f98af8-0571-4a66-8fbd-fea359ab31f7","system_id":"levelo_inurba_marseille","lat":43.27048,"lon":5.40285,"is_reserved":false,"is_disabled":true,"rental_uris":{"android":"levelo://app?vid=e5f98af8-0571-4a66-8fbd-fea359ab31f7","ios":"levelo://app?vid=e5f98af8-0571-4a66-8fbd-fea359ab31f7"},"vehicle_type_id":"4","last_reported":1736183292,"current_range_meters":800,"station_id":"ce4bhk92rcd13ifvqgc0","pricing_plan_id":"cebpf4jnsgd1na2vs0mg"},{"bike_id":"ad530e24-5ded-44eb-84fc-9badf36abc57","system_id":"levelo_inurba_marseille","lat":43.300877,"lon":5.39069,"is_reserved":false,"is_disabled":false,"rental_uris":{"android":"levelo://app?vid=ad530e24-5ded-44eb-84fc-9badf36abc57","ios":"levelo://app?vid=ad530e24-5ded-44eb-84fc-9badf36abc57"},"vehicle_type_id":"4","last_reported":1736183292,"current_range_meters":38000,"station_id":"ce4bh192rcd13ifvqdb0","pricing_plan_id":"cebpf4jnsgd1na2vs0mg"},{"bike_id":"c0c56421-0402-4e02-af1a-f54a53bef677","system_id":"levelo_inurba_marseille","lat":43.30595,"lon":5.39345,"is_reserved":false,"is_disabled":true,"rental_uris":{"android":"levelo://app?vid=c0c56421-0402-4e02-af1a-f54a53bef677","ios":"levelo://app?vid=c0c56421-0402-4e02-af1a-f54a53bef677"},"vehicle_type_id":"4","last_reported":1736183292,"current_range_meters":38000,"station_id":"ce4bh0p2rcd13ifvqd80","pricing_plan_id":"cebpf4jnsgd1na2vs0mg"},{"bike_id":"983a939f-0c90-4b41-8e07-1ba37a328643","system_id":"levelo_inurba_marseille","lat":43.241681,"lon":5.364091,"is_reserved":false,"is_disabled":false,"rental_uris":{"android":"levelo://app?vid=983a939f-0c90-4b41-8e07-1ba37a328643","ios":"levelo://app?vid=983a939f-0c90-4b41-8e07-1ba37a328643"},"vehicle_type_id":"4","last_reported":1736183292,"current_range_meters":15200,"station_id":"cpo36qri1sfpv3e86is0","pricing_plan_id":"cebpf4jnsgd1na2vs0mg"},{"bike_id":"4a09bd14-45e7-41bd-8427-9b80e161d298","system_id":"levelo_inurba_marseille","lat":43.2925,"lon":5.40901,"is_reserved":false,"is_disabled":false,"rental_uris":{"android":"levelo://app?vid=4a09bd14-45e7-41bd-8427-9b80e161d298","ios":"levelo://app?vid=4a09bd14-45e7-41bd-8427-9b80e161d298"},"vehicle_type_id":"4","last_reported":1736183292,"current_range_meters":24800,"station_id":"ce4bh192rcd13ifvqdc0","pricing_plan_id":"cebpf4jnsgd1na2vs0mg"},{"bike_id":"3ea8ca26-cbff-44d4-97e2-96a5408a8da3","system_id":"levelo_inurba_marseille","lat":43.28615,"lon":5.37167,"is_reserved":false,"is_disabled":false,"rental_uris":{"android":"levelo://app?vid=3ea8ca26-cbff-44d4-97e2-96a5408a8da3","ios":"levelo://app?vid=3ea8ca26-cbff-44d4-97e2-96a5408a8da3"},"vehicle_type_id":"4","last_reported":1736183292,"current_range_meters":6400,"station_id":"ce4bht12rcd13ifvqi60","pricing_plan_id":"cebpf4jnsgd1na2vs0mg"},{"bike_id":"66598c6d-17b8-4c5c-8a32-40fe324e52f3","system_id":"levelo_inurba_marseille","lat":43.3112,"lon":5.37771,"is_reserved":false,"is_disabled":true,"rental_uris":{"android":"levelo://app?vid=66598c6d-17b8-4c5c-8a32-40fe324e52f3","ios":"levelo://app?vid=66598c6d-17b8-4c5c-8a32-40fe324e52f3"},"vehicle_type_id":"4","last_reported":1736183292,"current_range_meters":32000,"station_id":"ce4bgt92rcd13ifvqcg0","pricing_plan_id":"cebpf4jnsgd1na2vs0mg"},{"bike_id":"649c71d5-1bc7-476b-849b-0ee459c25078","system_id":"levelo_inurba_marseille","lat":43.28457,"lon":5.35889,"is_reserved":false,"is_disabled":false,"rental_uris":{"android":"levelo://app?vid=649c71d5-1bc7-476b-849b-0ee459c25078","ios":"levelo://app?vid=649c71d5-1bc7-476b-849b-0ee459c25078"},"vehicle_type_id":"4","last_reported":1736183292,"current_range_meters":38800,"station_id":"ce4bhah2rcd13ifvqei0","pricing_plan_id":"cebpf4jnsgd1na2vs0mg"},{"bike_id":"dc80a52a-f2fa-4e2a-9e2a-b913aee07db6","system_id":"levelo_inurba_marseille","lat":43.31329,"lon":5.39693,"is_reserved":false,"is_disabled":false,"rental_uris":{"android":"levelo://app?vid=dc80a52a-f2fa-4e2a-9e2a-b913aee07db6","ios":"levelo://app?vid=dc80a52a-f2fa-4e2a-9e2a-b913aee07db6"},"vehicle_type_id":"4","last_reported":1736183292,"current_range_meters":39200,"station_id":"ce4bgvp2rcd13ifvqcu0","pricing_plan_id":"cebpf4jnsgd1na2vs0mg"},{"bike_id":"7162857b-97e9-48bf-beff-37d11268f5e3","system_id":"levelo_inurba_marseille","lat":43.28842,"lon":5.35846,"is_reserved":false,"is_disabled":false,"rental_uris":{"android":"levelo://app?vid=7162857b-97e9-48bf-beff-37d11268f5e3","ios":"levelo://app?vid=7162857b-97e9-48bf-beff-37d11268f5e3"},"vehicle_type_id":"4","last_reported":1736183292,"current_range_meters":30000,"station_id":"ce4bhb12rcd13ifvqem0","pricing_plan_id":"cebpf4jnsgd1na2vs0mg"},{"bike_id":"1bb28c03-a2da-4530-b4b9-75fdcfee2172","system_id":"levelo_inurba_marseille","lat":43.29525,"lon":5.39402,"is_reserved":false,"is_disabled":false,"rental_uris":{"android":"levelo://app?vid=1bb28c03-a2da-4530-b4b9-75fdcfee2172","ios":"levelo://app?vid=1bb28c03-a2da-4530-b4b9-75fdcfee2172"},"vehicle_type_id":"4","last_reported":1736183292,"current_range_meters":39200,"station_id":"ce4bh292rcd13ifvqdf0","pricing_plan_id":"cebpf4jnsgd1na2vs0mg"},{"bike_id":"cca2f7c7-45e7-4f8a-80d9-cffca2b70c93","system_id":"levelo_inurba_marseille","lat":43.2668,"lon":5.38277,"is_reserved":false,"is_disabled":true,"rental_uris":{"android":"levelo://app?vid=cca2f7c7-45e7-4f8a-80d9-cffca2b70c93","ios":"levelo://app?vid=cca2f7c7-45e7-4f8a-80d9-cffca2b70c93"},"vehicle_type_id":"4","last_reported":1736183292,"current_range_meters":36000,"station_id":"ce4bhg92rcd13ifvqf90","pricing_plan_id":"cebpf4jnsgd1na2vs0mg"},{"bike_id":"8788ad0b-5fbe-42aa-9647-16ddfbec9d31","system_id":"levelo_inurba_marseille","lat":43.28454,"lon":5.35894,"is_reserved":false,"is_disabled":false,"rental_uris":{"android":"levelo://app?vid=8788ad0b-5fbe-42aa-9647-16ddfbec9d31","ios":"levelo://app?vid=8788ad0b-5fbe-42aa-9647-16ddfbec9d31"},"vehicle_type_id":"4","last_reported":1736183292,"current_range_meters":38800,"station_id":"ce4bhah2rcd13ifvqei0","pricing_plan_id":"cebpf4jnsgd1na2vs0mg"},{"bike_id":"c5ef9a8b-a97a-4d80-bcb7-11b04ed28682","system_id":"levelo_inurba_marseille","lat":43.30948,"lon":5.39029,"is_reserved":false,"is_disabled":false,"rental_uris":{"android":"levelo://app?vid=c5ef9a8b-a97a-4d80-bcb7-11b04ed28682","ios":"levelo://app?vid=c5ef9a8b-a97a-4d80-bcb7-11b04ed28682"},"vehicle_type_id":"4","last_reported":1736183292,"current_range_meters":22400,"station_id":"ce4bgup2rcd13ifvqco0","pricing_plan_id":"cebpf4jnsgd1na2vs0mg"},{"bike_id":"10aaa063-1c87-45e7-8ea1-13f83539ec39","system_id":"levelo_inurba_marseille","lat":43.2509,"lon":5.39507,"is_reserved":false,"is_disabled":false,"rental_uris":{"android":"levelo://app?vid=10aaa063-1c87-45e7-8ea1-13f83539ec39","ios":"levelo://app?vid=10aaa063-1c87-45e7-8ea1-13f83539ec39"},"vehicle_type_id":"4","last_reported":1736183292,"current_range_meters":32400,"station_id":"ce4bhm12rcd13ifvqgkg","pricing_plan_id":"cebpf4jnsgd1na2vs0mg"},{"bike_id":"0621a34a-6a84-4666-ac01-8b6735a5dea3","system_id":"levelo_inurba_marseille","lat":43.27915,"lon":5.39581,"is_reserved":false,"is_disabled":false,"rental_uris":{"android":"levelo://app?vid=0621a34a-6a84-4666-ac01-8b6735a5dea3","ios":"levelo://app?vid=0621a34a-6a84-4666-ac01-8b6735a5dea3"},"vehicle_type_id":"4","last_reported":1736183292,"current_range_meters":9200,"station_id":"ce4bhf92rcd13ifvqf40","pricing_plan_id":"cebpf4jnsgd1na2vs0mg"},{"bike_id":"0a967f6d-fd0e-4773-80c2-1aa9d073824b","system_id":"levelo_inurba_marseille","lat":43.25084,"lon":5.39525,"is_reserved":false,"is_disabled":false,"rental_uris":{"android":"levelo://app?vid=0a967f6d-fd0e-4773-80c2-1aa9d073824b","ios":"levelo://app?vid=0a967f6d-fd0e-4773-80c2-1aa9d073824b"},"vehicle_type_id":"4","last_reported":1736183292,"current_range_meters":32800,"station_id":"ce4bhm12rcd13ifvqgkg","pricing_plan_id":"cebpf4jnsgd1na2vs0mg"},{"bike_id":"182c8827-ad8b-4aa6-9862-5b2da55309dc","system_id":"levelo_inurba_marseille","lat":43.29212,"lon":5.36024,"is_reserved":false,"is_disabled":false,"rental_uris":{"android":"levelo://app?vid=182c8827-ad8b-4aa6-9862-5b2da55309dc","ios":"levelo://app?vid=182c8827-ad8b-4aa6-9862-5b2da55309dc"},"vehicle_type_id":"4","last_reported":1736183292,"current_range_meters":35600,"station_id":"ce4bhbh2rcd13ifvqeqg","pricing_plan_id":"cebpf4jnsgd1na2vs0mg"},{"bike_id":"d8e16b8b-9547-4c53-9844-25224557fed1","system_id":"levelo_inurba_marseille","lat":43.29775,"lon":5.37096,"is_reserved":false,"is_disabled":false,"rental_uris":{"android":"levelo://app?vid=d8e16b8b-9547-4c53-9844-25224557fed1","ios":"levelo://app?vid=d8e16b8b-9547-4c53-9844-25224557fed1"},"vehicle_type_id":"4","last_reported":1736183292,"current_range_meters":19200,"station_id":"ce4bgop2rcd13ifvqc1g","pricing_plan_id":"cebpf4jnsgd1na2vs0mg"},{"bike_id":"ac9cdb59-2de3-4b64-9b64-8618560e7eea","system_id":"levelo_inurba_marseille","lat":43.27994,"lon":5.40005,"is_reserved":false,"is_disabled":false,"rental_uris":{"android":"levelo://app?vid=ac9cdb59-2de3-4b64-9b64-8618560e7eea","ios":"levelo://app?vid=ac9cdb59-2de3-4b64-9b64-8618560e7eea"},"vehicle_type_id":"4","last_reported":1736183292,"current_range_meters":31200,"station_id":"ce4bho92rcd13ifvqh4g","pricing_plan_id":"cebpf4jnsgd1na2vs0mg"},{"bike_id":"865a75ae-d1fe-49dc-a6a2-eeaee7d48b3c","system_id":"levelo_inurba_marseille","lat":43.31187,"lon":5.38709,"is_reserved":false,"is_disabled":false,"rental_uris":{"android":"levelo://app?vid=865a75ae-d1fe-49dc-a6a2-eeaee7d48b3c","ios":"levelo://app?vid=865a75ae-d1fe-49dc-a6a2-eeaee7d48b3c"},"vehicle_type_id":"4","last_reported":1736183292,"current_range_meters":38800,"station_id":"ce4bgv12rcd13ifvqcp0","pricing_plan_id":"cebpf4jnsgd1na2vs0mg"},{"bike_id":"8e703174-0022-4861-93c4-6df26de669d8","system_id":"levelo_inurba_marseille","lat":43.24638,"lon":5.38911,"is_reserved":false,"is_disabled":false,"rental_uris":{"android":"levelo://app?vid=8e703174-0022-4861-93c4-6df26de669d8","ios":"levelo://app?vid=8e703174-0022-4861-93c4-6df26de669d8"},"vehicle_type_id":"4","last_reported":1736183292,"current_range_meters":38800,"station_id":"ce4bhg12rcd13ifvqf60","pricing_plan_id":"cebpf4jnsgd1na2vs0mg"},{"bike_id":"763086e4-39f0-4cd7-967e-3c7cbbfb54af","system_id":"levelo_inurba_marseille","lat":43.27172,"lon":5.40987,"is_reserved":false,"is_disabled":false,"rental_uris":{"android":"levelo://app?vid=763086e4-39f0-4cd7-967e-3c7cbbfb54af","ios":"levelo://app?vid=763086e4-39f0-4cd7-967e-3c7cbbfb54af"},"vehicle_type_id":"4","last_reported":1736183292,"current_range_meters":10800,"station_id":"ce4bhl12rcd13ifvqgf0","pricing_plan_id":"cebpf4jnsgd1na2vs0mg"},{"bike_id":"a654bcd9-87ff-4423-9dec-90165872ac51","system_id":"levelo_inurba_marseille","lat":43.25503,"lon":5.37649,"is_reserved":false,"is_disabled":false,"rental_uris":{"android":"levelo://app?vid=a654bcd9-87ff-4423-9dec-90165872ac51","ios":"levelo://app?vid=a654bcd9-87ff-4423-9dec-90165872ac51"},"vehicle_type_id":"4","last_reported":1736183292,"current_range_meters":38800,"station_id":"ce4bhh12rcd13ifvqff0","pricing_plan_id":"cebpf4jnsgd1na2vs0mg"},{"bike_id":"69b556b4-bc3d-4ef4-bb4b-65a2e6427433","system_id":"levelo_inurba_marseille","lat":43.284557,"lon":5.358852,"is_reserved":false,"is_disabled":false,"rental_uris":{"android":"levelo://app?vid=69b556b4-bc3d-4ef4-bb4b-65a2e6427433","ios":"levelo://app?vid=69b556b4-bc3d-4ef4-bb4b-65a2e6427433"},"vehicle_type_id":"4","last_reported":1736183292,"current_range_meters":37600,"station_id":"ce4bhah2rcd13ifvqei0","pricing_plan_id":"cebpf4jnsgd1na2vs0mg"},{"bike_id":"dbb26a95-3689-48f9-9b21-cbe3daa7b430","system_id":"levelo_inurba_marseille","lat":43.29702,"lon":5.36599,"is_reserved":false,"is_disabled":false,"rental_uris":{"android":"levelo://app?vid=dbb26a95-3689-48f9-9b21-cbe3daa7b430","ios":"levelo://app?vid=dbb26a95-3689-48f9-9b21-cbe3daa7b430"},"vehicle_type_id":"4","last_reported":1736183292,"current_range_meters":23200,"station_id":"ce4bgn12rcd13ifvqbt0","pricing_plan_id":"cebpf4jnsgd1na2vs0mg"},{"bike_id":"24bccac7-1e4b-45e8-bc23-0feeff5509f0","system_id":"levelo_inurba_marseille","lat":43.26493,"lon":5.39472,"is_reserved":false,"is_disabled":true,"rental_uris":{"android":"levelo://app?vid=24bccac7-1e4b-45e8-bc23-0feeff5509f0","ios":"levelo://app?vid=24bccac7-1e4b-45e8-bc23-0feeff5509f0"},"vehicle_type_id":"4","last_reported":1736183292,"current_range_meters":0,"station_id":"","pricing_plan_id":"cebpf4jnsgd1na2vs0mg"},{"bike_id":"7082a147-72ba-427b-b7d0-01f4c79523c2","system_id":"levelo_inurba_marseille","lat":43.332544,"lon":5.358908,"is_reserved":false,"is_disabled":false,"rental_uris":{"android":"levelo://app?vid=7082a147-72ba-427b-b7d0-01f4c79523c2","ios":"levelo://app?vid=7082a147-72ba-427b-b7d0-01f4c79523c2"},"vehicle_type_id":"4","last_reported":1736183292,"current_range_meters":20000,"station_id":"","pricing_plan_id":"cebpf4jnsgd1na2vs0mg"},{"bike_id":"ab62ff0d-1a7a-45cf-9d99-99d7da9e0b58","system_id":"levelo_inurba_marseille","lat":43.295,"lon":5.36155,"is_reserved":false,"is_disabled":false,"rental_uris":{"android":"levelo://app?vid=ab62ff0d-1a7a-45cf-9d99-99d7da9e0b58","ios":"levelo://app?vid=ab62ff0d-1a7a-45cf-9d99-99d7da9e0b58"},"vehicle_type_id":"4","last_reported":1736183292,"current_range_meters":24000,"station_id":"","pricing_plan_id":"cebpf4jnsgd1na2vs0mg"},{"bike_id":"2eb1e507-1b16-497a-96e2-b250b74c7f62","system_id":"levelo_inurba_marseille","lat":43.25119,"lon":5.403,"is_reserved":false,"is_disabled":false,"rental_uris":{"android":"levelo://app?vid=2eb1e507-1b16-497a-96e2-b250b74c7f62","ios":"levelo://app?vid=2eb1e507-1b16-497a-96e2-b250b74c7f62"},"vehicle_type_id":"4","last_reported":1736183292,"current_range_meters":11200,"station_id":"ce4bhlh2rcd13ifvqgig","pricing_plan_id":"cebpf4jnsgd1na2vs0mg"},{"bike_id":"354a28af-1268-4a23-8140-b3400ef06aaf","system_id":"levelo_inurba_marseille","lat":43.29777,"lon":5.39342,"is_reserved":false,"is_disabled":false,"rental_uris":{"android":"levelo://app?vid=354a28af-1268-4a23-8140-b3400ef06aaf","ios":"levelo://app?vid=354a28af-1268-4a23-8140-b3400ef06aaf"},"vehicle_type_id":"4","last_reported":1736183292,"current_range_meters":11200,"station_id":"chh1huq6cuj3fo74tm60","pricing_plan_id":"cebpf4jnsgd1na2vs0mg"},{"bike_id":"d45d0089-5e8c-41ac-a04c-9866c8dc94cc","system_id":"levelo_inurba_marseille","lat":43.23203,"lon":5.35543,"is_reserved":false,"is_disabled":false,"rental_uris":{"android":"levelo://app?vid=d45d0089-5e8c-41ac-a04c-9866c8dc94cc","ios":"levelo://app?vid=d45d0089-5e8c-41ac-a04c-9866c8dc94cc"},"vehicle_type_id":"4","last_reported":1736183292,"current_range_meters":7200,"station_id":"ce4bhu92rcd13ifvqi70","pricing_plan_id":"cebpf4jnsgd1na2vs0mg"},{"bike_id":"bbca0622-2b7d-453b-bde4-93aa221da88f","system_id":"levelo_inurba_marseille","lat":43.28416,"lon":5.37518,"is_reserved":false,"is_disabled":false,"rental_uris":{"android":"levelo://app?vid=bbca0622-2b7d-453b-bde4-93aa221da88f","ios":"levelo://app?vid=bbca0622-2b7d-453b-bde4-93aa221da88f"},"vehicle_type_id":"4","last_reported":1736183292,"current_range_meters":38800,"station_id":"ce4bh412rcd13ifvqds0","pricing_plan_id":"cebpf4jnsgd1na2vs0mg"},{"bike_id":"b5de95e0-8f34-41aa-a5fc-c4e76e03a994","system_id":"levelo_inurba_marseille","lat":43.28083,"lon":5.39662,"is_reserved":false,"is_disabled":true,"rental_uris":{"android":"levelo://app?vid=b5de95e0-8f34-41aa-a5fc-c4e76e03a994","ios":"levelo://app?vid=b5de95e0-8f34-41aa-a5fc-c4e76e03a994"},"vehicle_type_id":"4","last_reported":1736183292,"current_range_meters":27200,"station_id":"ce4bho12rcd13ifvqh2g","pricing_plan_id":"cebpf4jnsgd1na2vs0mg"},{"bike_id":"aa33a53e-f806-43a8-ad7e-8e2bd9644426","system_id":"levelo_inurba_marseille","lat":43.32345,"lon":5.40629,"is_reserved":false,"is_disabled":true,"rental_uris":{"android":"levelo://app?vid=aa33a53e-f806-43a8-ad7e-8e2bd9644426","ios":"levelo://app?vid=aa33a53e-f806-43a8-ad7e-8e2bd9644426"},"vehicle_type_id":"4","last_reported":1736183292,"current_range_meters":0,"station_id":"ce4bhq92rcd13ifvqhjg","pricing_plan_id":"cebpf4jnsgd1na2vs0mg"},{"bike_id":"f109df4f-4b42-4684-88f4-4141ade46ea0","system_id":"levelo_inurba_marseille","lat":43.29775,"lon":5.39335,"is_reserved":false,"is_disabled":false,"rental_uris":{"android":"levelo://app?vid=f109df4f-4b42-4684-88f4-4141ade46ea0","ios":"levelo://app?vid=f109df4f-4b42-4684-88f4-4141ade46ea0"},"vehicle_type_id":"4","last_reported":1736183292,"current_range_meters":9200,"station_id":"chh1huq6cuj3fo74tm60","pricing_plan_id":"cebpf4jnsgd1na2vs0mg"},{"bike_id":"c41d0ba6-c785-4773-bdce-9417d0b449d4","system_id":"levelo_inurba_marseille","lat":43.27898,"lon":5.3798,"is_reserved":false,"is_disabled":false,"rental_uris":{"android":"levelo://app?vid=c41d0ba6-c785-4773-bdce-9417d0b449d4","ios":"levelo://app?vid=c41d0ba6-c785-4773-bdce-9417d0b449d4"},"vehicle_type_id":"4","last_reported":1736183292,"current_range_meters":39200,"station_id":"ce4bhf92rcd13ifvqf50","pricing_plan_id":"cebpf4jnsgd1na2vs0mg"},{"bike_id":"abf11d73-98ad-45b6-870f-4f3a02683caa","system_id":"levelo_inurba_marseille","lat":43.28438,"lon":5.39182,"is_reserved":false,"is_disabled":false,"rental_uris":{"android":"levelo://app?vid=abf11d73-98ad-45b6-870f-4f3a02683caa","ios":"levelo://app?vid=abf11d73-98ad-45b6-870f-4f3a02683caa"},"vehicle_type_id":"4","last_reported":1736183292,"current_range_meters":38000,"station_id":"ce4bhoh2rcd13ifvqh5g","pricing_plan_id":"cebpf4jnsgd1na2vs0mg"},{"bike_id":"72aa27b6-580e-44c5-9bd2-168553fdc64a","system_id":"levelo_inurba_marseille","lat":43.29025,"lon":5.37586,"is_reserved":false,"is_disabled":true,"rental_uris":{"android":"levelo://app?vid=72aa27b6-580e-44c5-9bd2-168553fdc64a","ios":"levelo://app?vid=72aa27b6-580e-44c5-9bd2-168553fdc64a"},"vehicle_type_id":"4","last_reported":1736183292,"current_range_meters":3600,"station_id":"ce4bh692rcd13ifvqe90","pricing_plan_id":"cebpf4jnsgd1na2vs0mg"},{"bike_id":"4c8a1257-f267-4615-8803-0cb4dc52f5b9","system_id":"levelo_inurba_marseille","lat":43.30206,"lon":5.39466,"is_reserved":false,"is_disabled":true,"rental_uris":{"android":"levelo://app?vid=4c8a1257-f267-4615-8803-0cb4dc52f5b9","ios":"levelo://app?vid=4c8a1257-f267-4615-8803-0cb4dc52f5b9"},"vehicle_type_id":"4","last_reported":1736183292,"current_range_meters":0,"station_id":"ce4bh0p2rcd13ifvqd70","pricing_plan_id":"cebpf4jnsgd1na2vs0mg"},{"bike_id":"a38b5223-6379-4cf3-bfa2-6106403e3200","system_id":"levelo_inurba_marseille","lat":43.29181,"lon":5.393156,"is_reserved":false,"is_disabled":false,"rental_uris":{"android":"levelo://app?vid=a38b5223-6379-4cf3-bfa2-6106403e3200","ios":"levelo://app?vid=a38b5223-6379-4cf3-bfa2-6106403e3200"},"vehicle_type_id":"4","last_reported":1736183292,"current_range_meters":38800,"station_id":"ce4bh192rcd13ifvqdd0","pricing_plan_id":"cebpf4jnsgd1na2vs0mg"},{"bike_id":"d0541b38-8e7e-4e1e-8666-5868b43eb4cc","system_id":"levelo_inurba_marseille","lat":43.25106,"lon":5.40319,"is_reserved":false,"is_disabled":false,"rental_uris":{"android":"levelo://app?vid=d0541b38-8e7e-4e1e-8666-5868b43eb4cc","ios":"levelo://app?vid=d0541b38-8e7e-4e1e-8666-5868b43eb4cc"},"vehicle_type_id":"4","last_reported":1736183292,"current_range_meters":38000,"station_id":"ce4bhlh2rcd13ifvqgig","pricing_plan_id":"cebpf4jnsgd1na2vs0mg"},{"bike_id":"ec1d3085-9ec8-4ac2-a235-c8f35d70ec9d","system_id":"levelo_inurba_marseille","lat":43.2582,"lon":5.39438,"is_reserved":false,"is_disabled":true,"rental_uris":{"android":"levelo://app?vid=ec1d3085-9ec8-4ac2-a235-c8f35d70ec9d","ios":"levelo://app?vid=ec1d3085-9ec8-4ac2-a235-c8f35d70ec9d"},"vehicle_type_id":"4","last_reported":1736183292,"current_range_meters":0,"station_id":"ce4bhip2rcd13ifvqft0","pricing_plan_id":"cebpf4jnsgd1na2vs0mg"},{"bike_id":"57b35baa-e5fb-49b1-aa12-267dabf92c65","system_id":"levelo_inurba_marseille","lat":43.29636,"lon":5.37164,"is_reserved":false,"is_disabled":false,"rental_uris":{"android":"levelo://app?vid=57b35baa-e5fb-49b1-aa12-267dabf92c65","ios":"levelo://app?vid=57b35baa-e5fb-49b1-aa12-267dabf92c65"},"vehicle_type_id":"4","last_reported":1736183292,"current_range_meters":28000,"station_id":"ce4bgnh2rcd13ifvqc0g","pricing_plan_id":"cebpf4jnsgd1na2vs0mg"},{"bike_id":"1f2a36a2-3528-4aeb-8044-9997d45a0ed3","system_id":"levelo_inurba_marseille","lat":43.27915,"lon":5.39584,"is_reserved":false,"is_disabled":false,"rental_uris":{"android":"levelo://app?vid=1f2a36a2-3528-4aeb-8044-9997d45a0ed3","ios":"levelo://app?vid=1f2a36a2-3528-4aeb-8044-9997d45a0ed3"},"vehicle_type_id":"4","last_reported":1736183292,"current_range_meters":33600,"station_id":"ce4bhf92rcd13ifvqf40","pricing_plan_id":"cebpf4jnsgd1na2vs0mg"},{"bike_id":"8a474426-cd46-4cf8-9edc-ef843a0ca02e","system_id":"levelo_inurba_marseille","lat":43.26531,"lon":5.39065,"is_reserved":false,"is_disabled":true,"rental_uris":{"android":"levelo://app?vid=8a474426-cd46-4cf8-9edc-ef843a0ca02e","ios":"levelo://app?vid=8a474426-cd46-4cf8-9edc-ef843a0ca02e"},"vehicle_type_id":"4","last_reported":1736183292,"current_range_meters":33200,"station_id":"","pricing_plan_id":"cebpf4jnsgd1na2vs0mg"},{"bike_id":"b8e8befc-076e-4a84-a746-24b09895b81b","system_id":"levelo_inurba_marseille","lat":43.25586,"lon":5.38212,"is_reserved":false,"is_disabled":false,"rental_uris":{"android":"levelo://app?vid=b8e8befc-076e-4a84-a746-24b09895b81b","ios":"levelo://app?vid=b8e8befc-076e-4a84-a746-24b09895b81b"},"vehicle_type_id":"4","last_reported":1736183292,"current_range_meters":36800,"station_id":"ce4bhih2rcd13ifvqfs0","pricing_plan_id":"cebpf4jnsgd1na2vs0mg"},{"bike_id":"bbf998ea-d252-4590-8711-16d78ff4b07c","system_id":"levelo_inurba_marseille","lat":43.24645,"lon":5.38897,"is_reserved":false,"is_disabled":false,"rental_uris":{"android":"levelo://app?vid=bbf998ea-d252-4590-8711-16d78ff4b07c","ios":"levelo://app?vid=bbf998ea-d252-4590-8711-16d78ff4b07c"},"vehicle_type_id":"4","last_reported":1736183292,"current_range_meters":29600,"station_id":"ce4bhg12rcd13ifvqf60","pricing_plan_id":"cebpf4jnsgd1na2vs0mg"},{"bike_id":"63db60a5-5192-40b0-b5a5-ed218c719e62","system_id":"levelo_inurba_marseille","lat":43.28565,"lon":5.39487,"is_reserved":false,"is_disabled":false,"rental_uris":{"android":"levelo://app?vid=63db60a5-5192-40b0-b5a5-ed218c719e62","ios":"levelo://app?vid=63db60a5-5192-40b0-b5a5-ed218c719e62"},"vehicle_type_id":"4","last_reported":1736183292,"current_range_meters":29600,"station_id":"ce4bh292rcd13ifvqdg0","pricing_plan_id":"cebpf4jnsgd1na2vs0mg"},{"bike_id":"f5a4a49b-f269-4ec2-b80a-e579bf67a966","system_id":"levelo_inurba_marseille","lat":43.29515,"lon":5.36149,"is_reserved":false,"is_disabled":true,"rental_uris":{"android":"levelo://app?vid=f5a4a49b-f269-4ec2-b80a-e579bf67a966","ios":"levelo://app?vid=f5a4a49b-f269-4ec2-b80a-e579bf67a966"},"vehicle_type_id":"4","last_reported":1736183292,"current_range_meters":18000,"station_id":"","pricing_plan_id":"cebpf4jnsgd1na2vs0mg"},{"bike_id":"664044e6-e824-440a-a874-8e818a3a1b1b","system_id":"levelo_inurba_marseille","lat":43.28567,"lon":5.39485,"is_reserved":false,"is_disabled":true,"rental_uris":{"android":"levelo://app?vid=664044e6-e824-440a-a874-8e818a3a1b1b","ios":"levelo://app?vid=664044e6-e824-440a-a874-8e818a3a1b1b"},"vehicle_type_id":"4","last_reported":1736183292,"current_range_meters":37600,"station_id":"ce4bh292rcd13ifvqdg0","pricing_plan_id":"cebpf4jnsgd1na2vs0mg"},{"bike_id":"767ce94b-1449-463a-bd69-44f39fb06da5","system_id":"levelo_inurba_marseille","lat":43.29774,"lon":5.37109,"is_reserved":false,"is_disabled":false,"rental_uris":{"android":"levelo://app?vid=767ce94b-1449-463a-bd69-44f39fb06da5","ios":"levelo://app?vid=767ce94b-1449-463a-bd69-44f39fb06da5"},"vehicle_type_id":"4","last_reported":1736183292,"current_range_meters":32400,"station_id":"ce4bgop2rcd13ifvqc1g","pricing_plan_id":"cebpf4jnsgd1na2vs0mg"},{"bike_id":"0bcfea18-61ca-412d-bded-b63f59943884","system_id":"levelo_inurba_marseille","lat":43.28616,"lon":5.35097,"is_reserved":false,"is_disabled":true,"rental_uris":{"android":"levelo://app?vid=0bcfea18-61ca-412d-bded-b63f59943884","ios":"levelo://app?vid=0bcfea18-61ca-412d-bded-b63f59943884"},"vehicle_type_id":"4","last_reported":1736183292,"current_range_meters":32400,"station_id":"ce4bhch2rcd13ifvqeug","pricing_plan_id":"cebpf4jnsgd1na2vs0mg"},{"bike_id":"01844f2c-8e2d-4e7b-84eb-c284d12438cb","system_id":"levelo_inurba_marseille","lat":43.28079,"lon":5.39648,"is_reserved":false,"is_disabled":false,"rental_uris":{"android":"levelo://app?vid=01844f2c-8e2d-4e7b-84eb-c284d12438cb","ios":"levelo://app?vid=01844f2c-8e2d-4e7b-84eb-c284d12438cb"},"vehicle_type_id":"4","last_reported":1736183292,"current_range_meters":39200,"station_id":"ce4bho12rcd13ifvqh2g","pricing_plan_id":"cebpf4jnsgd1na2vs0mg"},{"bike_id":"6abef6a9-caf5-451a-afc9-43df477f8261","system_id":"levelo_inurba_marseille","lat":43.28662,"lon":5.36352,"is_reserved":false,"is_disabled":false,"rental_uris":{"android":"levelo://app?vid=6abef6a9-caf5-451a-afc9-43df477f8261","ios":"levelo://app?vid=6abef6a9-caf5-451a-afc9-43df477f8261"},"vehicle_type_id":"4","last_reported":1736183292,"current_range_meters":38400,"station_id":"ce4bhah2rcd13ifvqej0","pricing_plan_id":"cebpf4jnsgd1na2vs0mg"},{"bike_id":"03630410-cff2-41ca-8ab4-df6ebc45a627","system_id":"levelo_inurba_marseille","lat":43.30152,"lon":5.38099,"is_reserved":false,"is_disabled":true,"rental_uris":{"android":"levelo://app?vid=03630410-cff2-41ca-8ab4-df6ebc45a627","ios":"levelo://app?vid=03630410-cff2-41ca-8ab4-df6ebc45a627"},"vehicle_type_id":"4","last_reported":1736183292,"current_range_meters":36800,"station_id":"ce4bgjp2rcd13ifvqbh0","pricing_plan_id":"cebpf4jnsgd1na2vs0mg"},{"bike_id":"52200668-cd8f-4dc4-8199-1244ab61819a","system_id":"levelo_inurba_marseille","lat":43.24808,"lon":5.3745,"is_reserved":false,"is_disabled":false,"rental_uris":{"android":"levelo://app?vid=52200668-cd8f-4dc4-8199-1244ab61819a","ios":"levelo://app?vid=52200668-cd8f-4dc4-8199-1244ab61819a"},"vehicle_type_id":"4","last_reported":1736183292,"current_range_meters":38800,"station_id":"ce4bhgh2rcd13ifvqfb0","pricing_plan_id":"cebpf4jnsgd1na2vs0mg"},{"bike_id":"bc5b5855-1cf6-4cdc-af1a-e3906d45046d","system_id":"levelo_inurba_marseille","lat":43.25005,"lon":5.38927,"is_reserved":false,"is_disabled":false,"rental_uris":{"android":"levelo://app?vid=bc5b5855-1cf6-4cdc-af1a-e3906d45046d","ios":"levelo://app?vid=bc5b5855-1cf6-4cdc-af1a-e3906d45046d"},"vehicle_type_id":"4","last_reported":1736183292,"current_range_meters":27200,"station_id":"ce4bhgp2rcd13ifvqfd0","pricing_plan_id":"cebpf4jnsgd1na2vs0mg"},{"bike_id":"b174120d-6c0e-448a-9af0-af9dcc29822e","system_id":"levelo_inurba_marseille","lat":43.28026,"lon":5.36951,"is_reserved":false,"is_disabled":false,"rental_uris":{"android":"levelo://app?vid=b174120d-6c0e-448a-9af0-af9dcc29822e","ios":"levelo://app?vid=b174120d-6c0e-448a-9af0-af9dcc29822e"},"vehicle_type_id":"4","last_reported":1736183292,"current_range_meters":14000,"station_id":"ce4bha12rcd13ifvqef0","pricing_plan_id":"cebpf4jnsgd1na2vs0mg"},{"bike_id":"9206d9db-6a1d-4495-9bc2-7d4e1ef0f397","system_id":"levelo_inurba_marseille","lat":43.28922,"lon":5.38393,"is_reserved":false,"is_disabled":true,"rental_uris":{"android":"levelo://app?vid=9206d9db-6a1d-4495-9bc2-7d4e1ef0f397","ios":"levelo://app?vid=9206d9db-6a1d-4495-9bc2-7d4e1ef0f397"},"vehicle_type_id":"4","last_reported":1736183292,"current_range_meters":38000,"station_id":"ce4bh612rcd13ifvqe6g","pricing_plan_id":"cebpf4jnsgd1na2vs0mg"},{"bike_id":"2937c8f0-6f06-4c7f-8240-41ad44bc55fa","system_id":"levelo_inurba_marseille","lat":43.23186,"lon":5.39994,"is_reserved":false,"is_disabled":false,"rental_uris":{"android":"levelo://app?vid=2937c8f0-6f06-4c7f-8240-41ad44bc55fa","ios":"levelo://app?vid=2937c8f0-6f06-4c7f-8240-41ad44bc55fa"},"vehicle_type_id":"4","last_reported":1736183292,"current_range_meters":15200,"station_id":"ce4bhn12rcd13ifvqgqg","pricing_plan_id":"cebpf4jnsgd1na2vs0mg"},{"bike_id":"d9040d80-09a8-4ef4-b1ee-cb48116ce68a","system_id":"levelo_inurba_marseille","lat":43.30648,"lon":5.40075,"is_reserved":false,"is_disabled":false,"rental_uris":{"android":"levelo://app?vid=d9040d80-09a8-4ef4-b1ee-cb48116ce68a","ios":"levelo://app?vid=d9040d80-09a8-4ef4-b1ee-cb48116ce68a"},"vehicle_type_id":"4","last_reported":1736183292,"current_range_meters":37600,"station_id":"ce4bh112rcd13ifvqda0","pricing_plan_id":"cebpf4jnsgd1na2vs0mg"},{"bike_id":"efaac073-0042-47ef-98ca-9e2ef1fc5fd4","system_id":"levelo_inurba_marseille","lat":43.32336,"lon":5.40606,"is_reserved":false,"is_disabled":false,"rental_uris":{"android":"levelo://app?vid=efaac073-0042-47ef-98ca-9e2ef1fc5fd4","ios":"levelo://app?vid=efaac073-0042-47ef-98ca-9e2ef1fc5fd4"},"vehicle_type_id":"4","last_reported":1736183292,"current_range_meters":27600,"station_id":"ce4bhq92rcd13ifvqhjg","pricing_plan_id":"cebpf4jnsgd1na2vs0mg"},{"bike_id":"d173a9d2-44d7-45f3-8006-cb0c086d8702","system_id":"levelo_inurba_marseille","lat":43.29608,"lon":5.38104,"is_reserved":false,"is_disabled":false,"rental_uris":{"android":"levelo://app?vid=d173a9d2-44d7-45f3-8006-cb0c086d8702","ios":"levelo://app?vid=d173a9d2-44d7-45f3-8006-cb0c086d8702"},"vehicle_type_id":"4","last_reported":1736183292,"current_range_meters":34000,"station_id":"ce4bgl12rcd13ifvqbo0","pricing_plan_id":"cebpf4jnsgd1na2vs0mg"},{"bike_id":"f49298c6-b208-404d-bb0c-160ccbda2eed","system_id":"levelo_inurba_marseille","lat":43.27989,"lon":5.40013,"is_reserved":false,"is_disabled":true,"rental_uris":{"android":"levelo://app?vid=f49298c6-b208-404d-bb0c-160ccbda2eed","ios":"levelo://app?vid=f49298c6-b208-404d-bb0c-160ccbda2eed"},"vehicle_type_id":"4","last_reported":1736183292,"current_range_meters":35200,"station_id":"ce4bho92rcd13ifvqh4g","pricing_plan_id":"cebpf4jnsgd1na2vs0mg"},{"bike_id":"d014f699-d84d-436b-b3bf-8c059d18ea89","system_id":"levelo_inurba_marseille","lat":43.22935,"lon":5.35366,"is_reserved":false,"is_disabled":false,"rental_uris":{"android":"levelo://app?vid=d014f699-d84d-436b-b3bf-8c059d18ea89","ios":"levelo://app?vid=d014f699-d84d-436b-b3bf-8c059d18ea89"},"vehicle_type_id":"4","last_reported":1736183292,"current_range_meters":10800,"station_id":"cpo3532slgdg3j2ikp40","pricing_plan_id":"cebpf4jnsgd1na2vs0mg"},{"bike_id":"9af3ac98-b25c-4e16-8ae1-a503b0567905","system_id":"levelo_inurba_marseille","lat":43.28922,"lon":5.38394,"is_reserved":false,"is_disabled":false,"rental_uris":{"android":"levelo://app?vid=9af3ac98-b25c-4e16-8ae1-a503b0567905","ios":"levelo://app?vid=9af3ac98-b25c-4e16-8ae1-a503b0567905"},"vehicle_type_id":"4","last_reported":1736183292,"current_range_meters":38800,"station_id":"ce4bh612rcd13ifvqe6g","pricing_plan_id":"cebpf4jnsgd1na2vs0mg"},{"bike_id":"fc6818e2-9c10-4020-916c-666f3cfcff4c","system_id":"levelo_inurba_marseille","lat":43.27322,"lon":5.39108,"is_reserved":false,"is_disabled":false,"rental_uris":{"android":"levelo://app?vid=fc6818e2-9c10-4020-916c-666f3cfcff4c","ios":"levelo://app?vid=fc6818e2-9c10-4020-916c-666f3cfcff4c"},"vehicle_type_id":"4","last_reported":1736183292,"current_range_meters":35200,"station_id":"ce4bhgp2rcd13ifvqfe0","pricing_plan_id":"cebpf4jnsgd1na2vs0mg"},{"bike_id":"955387a8-4a47-4691-946f-78754c88504b","system_id":"levelo_inurba_marseille","lat":43.23167,"lon":5.3556,"is_reserved":false,"is_disabled":false,"rental_uris":{"android":"levelo://app?vid=955387a8-4a47-4691-946f-78754c88504b","ios":"levelo://app?vid=955387a8-4a47-4691-946f-78754c88504b"},"vehicle_type_id":"4","last_reported":1736183292,"current_range_meters":38800,"station_id":"ce4bhu92rcd13ifvqi70","pricing_plan_id":"cebpf4jnsgd1na2vs0mg"},{"bike_id":"ef72cdb4-465d-4178-b952-49906f159c48","system_id":"levelo_inurba_marseille","lat":43.28149,"lon":5.42634,"is_reserved":false,"is_disabled":false,"rental_uris":{"android":"levelo://app?vid=ef72cdb4-465d-4178-b952-49906f159c48","ios":"levelo://app?vid=ef72cdb4-465d-4178-b952-49906f159c48"},"vehicle_type_id":"4","last_reported":1736183292,"current_range_meters":38800,"station_id":"ce4bhnh2rcd13ifvqgug","pricing_plan_id":"cebpf4jnsgd1na2vs0mg"},{"bike_id":"f949af9a-2683-4ec9-b4bf-168b31b3bcb2","system_id":"levelo_inurba_marseille","lat":43.24666,"lon":5.38875,"is_reserved":false,"is_disabled":false,"rental_uris":{"android":"levelo://app?vid=f949af9a-2683-4ec9-b4bf-168b31b3bcb2","ios":"levelo://app?vid=f949af9a-2683-4ec9-b4bf-168b31b3bcb2"},"vehicle_type_id":"4","last_reported":1736183292,"current_range_meters":22800,"station_id":"ce4bhg12rcd13ifvqf60","pricing_plan_id":"cebpf4jnsgd1na2vs0mg"},{"bike_id":"5716fd4e-02bd-4a7d-b0ae-b602c555354f","system_id":"levelo_inurba_marseille","lat":43.29117,"lon":5.38117,"is_reserved":false,"is_disabled":true,"rental_uris":{"android":"levelo://app?vid=5716fd4e-02bd-4a7d-b0ae-b602c555354f","ios":"levelo://app?vid=5716fd4e-02bd-4a7d-b0ae-b602c555354f"},"vehicle_type_id":"4","last_reported":1736183292,"current_range_meters":0,"station_id":"ce4bh512rcd13ifvqe2g","pricing_plan_id":"cebpf4jnsgd1na2vs0mg"},{"bike_id":"382b510f-27b8-49b2-99fe-adf4e9f198fb","system_id":"levelo_inurba_marseille","lat":43.29976,"lon":5.37174,"is_reserved":false,"is_disabled":false,"rental_uris":{"android":"levelo://app?vid=382b510f-27b8-49b2-99fe-adf4e9f198fb","ios":"levelo://app?vid=382b510f-27b8-49b2-99fe-adf4e9f198fb"},"vehicle_type_id":"4","last_reported":1736183292,"current_range_meters":36800,"station_id":"ce4bgr92rcd13ifvqc7g","pricing_plan_id":"cebpf4jnsgd1na2vs0mg"},{"bike_id":"c50c0f26-6a0b-4632-a500-6c805a8b91e0","system_id":"levelo_inurba_marseille","lat":43.30784,"lon":5.37654,"is_reserved":false,"is_disabled":false,"rental_uris":{"android":"levelo://app?vid=c50c0f26-6a0b-4632-a500-6c805a8b91e0","ios":"levelo://app?vid=c50c0f26-6a0b-4632-a500-6c805a8b91e0"},"vehicle_type_id":"4","last_reported":1736183292,"current_range_meters":38000,"station_id":"ce4bgv92rcd13ifvqcq0","pricing_plan_id":"cebpf4jnsgd1na2vs0mg"},{"bike_id":"57b66293-4f20-4f05-8917-ea32e8823749","system_id":"levelo_inurba_marseille","lat":43.3171,"lon":5.43709,"is_reserved":false,"is_disabled":false,"rental_uris":{"android":"levelo://app?vid=57b66293-4f20-4f05-8917-ea32e8823749","ios":"levelo://app?vid=57b66293-4f20-4f05-8917-ea32e8823749"},"vehicle_type_id":"4","last_reported":1736183292,"current_range_meters":10000,"station_id":"ce4bhp92rcd13ifvqhcg","pricing_plan_id":"cebpf4jnsgd1na2vs0mg"},{"bike_id":"1307f9da-ff9b-48a7-93be-7ab8cbbfc9be","system_id":"levelo_inurba_marseille","lat":43.25081,"lon":5.39517,"is_reserved":false,"is_disabled":false,"rental_uris":{"android":"levelo://app?vid=1307f9da-ff9b-48a7-93be-7ab8cbbfc9be","ios":"levelo://app?vid=1307f9da-ff9b-48a7-93be-7ab8cbbfc9be"},"vehicle_type_id":"4","last_reported":1736183292,"current_range_meters":38800,"station_id":"ce4bhm12rcd13ifvqgkg","pricing_plan_id":"cebpf4jnsgd1na2vs0mg"},{"bike_id":"210e5010-017d-4dcd-8c68-ff6eac065495","system_id":"levelo_inurba_marseille","lat":43.28457,"lon":5.35878,"is_reserved":false,"is_disabled":false,"rental_uris":{"android":"levelo://app?vid=210e5010-017d-4dcd-8c68-ff6eac065495","ios":"levelo://app?vid=210e5010-017d-4dcd-8c68-ff6eac065495"},"vehicle_type_id":"4","last_reported":1736183292,"current_range_meters":25600,"station_id":"ce4bhah2rcd13ifvqei0","pricing_plan_id":"cebpf4jnsgd1na2vs0mg"},{"bike_id":"e4fb0db6-c070-4f7c-b34e-a54f29d45562","system_id":"levelo_inurba_marseille","lat":43.27986,"lon":5.41654,"is_reserved":false,"is_disabled":false,"rental_uris":{"android":"levelo://app?vid=e4fb0db6-c070-4f7c-b34e-a54f29d45562","ios":"levelo://app?vid=e4fb0db6-c070-4f7c-b34e-a54f29d45562"},"vehicle_type_id":"4","last_reported":1736183292,"current_range_meters":9200,"station_id":"ce4bho12rcd13ifvqh1g","pricing_plan_id":"cebpf4jnsgd1na2vs0mg"},{"bike_id":"9b303b64-b53c-4753-badb-2ee7406a3a39","system_id":"levelo_inurba_marseille","lat":43.31479,"lon":5.37313,"is_reserved":false,"is_disabled":false,"rental_uris":{"android":"levelo://app?vid=9b303b64-b53c-4753-badb-2ee7406a3a39","ios":"levelo://app?vid=9b303b64-b53c-4753-badb-2ee7406a3a39"},"vehicle_type_id":"4","last_reported":1736183292,"current_range_meters":16400,"station_id":"ce4bgt12rcd13ifvqcd0","pricing_plan_id":"cebpf4jnsgd1na2vs0mg"},{"bike_id":"379758ba-4dbd-4519-a8f8-184359ee1f30","system_id":"levelo_inurba_marseille","lat":43.29256,"lon":5.38442,"is_reserved":false,"is_disabled":false,"rental_uris":{"android":"levelo://app?vid=379758ba-4dbd-4519-a8f8-184359ee1f30","ios":"levelo://app?vid=379758ba-4dbd-4519-a8f8-184359ee1f30"},"vehicle_type_id":"4","last_reported":1736183292,"current_range_meters":33200,"station_id":"ce4bh692rcd13ifvqea0","pricing_plan_id":"cebpf4jnsgd1na2vs0mg"},{"bike_id":"ea7bebe3-4aff-4a01-b28d-c9b866182ae3","system_id":"levelo_inurba_marseille","lat":43.30797,"lon":5.39206,"is_reserved":false,"is_disabled":true,"rental_uris":{"android":"levelo://app?vid=ea7bebe3-4aff-4a01-b28d-c9b866182ae3","ios":"levelo://app?vid=ea7bebe3-4aff-4a01-b28d-c9b866182ae3"},"vehicle_type_id":"4","last_reported":1736183292,"current_range_meters":32000,"station_id":"","pricing_plan_id":"cebpf4jnsgd1na2vs0mg"},{"bike_id":"18196840-d85e-4dfe-a756-5d099531b67e","system_id":"levelo_inurba_marseille","lat":43.2907,"lon":5.3716,"is_reserved":false,"is_disabled":false,"rental_uris":{"android":"levelo://app?vid=18196840-d85e-4dfe-a756-5d099531b67e","ios":"levelo://app?vid=18196840-d85e-4dfe-a756-5d099531b67e"},"vehicle_type_id":"4","last_reported":1736183292,"current_range_meters":29600,"station_id":"ce4bh5p2rcd13ifvqe4g","pricing_plan_id":"cebpf4jnsgd1na2vs0mg"},{"bike_id":"9c93c896-60d0-40d4-9f1c-f54c1e1e6eed","system_id":"levelo_inurba_marseille","lat":43.27947,"lon":5.39938,"is_reserved":false,"is_disabled":false,"rental_uris":{"android":"levelo://app?vid=9c93c896-60d0-40d4-9f1c-f54c1e1e6eed","ios":"levelo://app?vid=9c93c896-60d0-40d4-9f1c-f54c1e1e6eed"},"vehicle_type_id":"4","last_reported":1736183292,"current_range_meters":4000,"station_id":"ce4bho92rcd13ifvqh4g","pricing_plan_id":"cebpf4jnsgd1na2vs0mg"},{"bike_id":"62721337-9465-42ad-95b6-6e3a507e5727","system_id":"levelo_inurba_marseille","lat":43.24799,"lon":5.37454,"is_reserved":false,"is_disabled":false,"rental_uris":{"android":"levelo://app?vid=62721337-9465-42ad-95b6-6e3a507e5727","ios":"levelo://app?vid=62721337-9465-42ad-95b6-6e3a507e5727"},"vehicle_type_id":"4","last_reported":1736183292,"current_range_meters":16800,"station_id":"ce4bhgh2rcd13ifvqfb0","pricing_plan_id":"cebpf4jnsgd1na2vs0mg"},{"bike_id":"4123aba5-06eb-42a4-9196-c0536401746a","system_id":"levelo_inurba_marseille","lat":43.28918,"lon":5.38399,"is_reserved":false,"is_disabled":false,"rental_uris":{"android":"levelo://app?vid=4123aba5-06eb-42a4-9196-c0536401746a","ios":"levelo://app?vid=4123aba5-06eb-42a4-9196-c0536401746a"},"vehicle_type_id":"4","last_reported":1736183292,"current_range_meters":38800,"station_id":"ce4bh612rcd13ifvqe6g","pricing_plan_id":"cebpf4jnsgd1na2vs0mg"},{"bike_id":"68718a12-ff84-4ece-9441-164a64035f89","system_id":"levelo_inurba_marseille","lat":43.24822,"lon":5.37445,"is_reserved":false,"is_disabled":false,"rental_uris":{"android":"levelo://app?vid=68718a12-ff84-4ece-9441-164a64035f89","ios":"levelo://app?vid=68718a12-ff84-4ece-9441-164a64035f89"},"vehicle_type_id":"4","last_reported":1736183292,"current_range_meters":17600,"station_id":"ce4bhgh2rcd13ifvqfb0","pricing_plan_id":"cebpf4jnsgd1na2vs0mg"},{"bike_id":"aad4a535-b699-4598-8dc1-ecd244317ca1","system_id":"levelo_inurba_marseille","lat":43.23219,"lon":5.39955,"is_reserved":false,"is_disabled":false,"rental_uris":{"android":"levelo://app?vid=aad4a535-b699-4598-8dc1-ecd244317ca1","ios":"levelo://app?vid=aad4a535-b699-4598-8dc1-ecd244317ca1"},"vehicle_type_id":"4","last_reported":1736183292,"current_range_meters":14400,"station_id":"","pricing_plan_id":"cebpf4jnsgd1na2vs0mg"},{"bike_id":"988356bb-dcd9-4a46-bc0a-6db1e0780b58","system_id":"levelo_inurba_marseille","lat":43.31218,"lon":5.36869,"is_reserved":false,"is_disabled":false,"rental_uris":{"android":"levelo://app?vid=988356bb-dcd9-4a46-bc0a-6db1e0780b58","ios":"levelo://app?vid=988356bb-dcd9-4a46-bc0a-6db1e0780b58"},"vehicle_type_id":"4","last_reported":1736183292,"current_range_meters":9200,"station_id":"ce4bgl92rcd13ifvqbq0","pricing_plan_id":"cebpf4jnsgd1na2vs0mg"},{"bike_id":"ee91cc56-7bab-49db-ad3e-d024f9b5b91d","system_id":"levelo_inurba_marseille","lat":43.28941,"lon":5.36392,"is_reserved":false,"is_disabled":false,"rental_uris":{"android":"levelo://app?vid=ee91cc56-7bab-49db-ad3e-d024f9b5b91d","ios":"levelo://app?vid=ee91cc56-7bab-49db-ad3e-d024f9b5b91d"},"vehicle_type_id":"4","last_reported":1736183292,"current_range_meters":32000,"station_id":"ce4bhc92rcd13ifvqetg","pricing_plan_id":"cebpf4jnsgd1na2vs0mg"},{"bike_id":"d8b6ad16-2edf-48ee-aba4-9801c618dedc","system_id":"levelo_inurba_marseille","lat":43.24058,"lon":5.37742,"is_reserved":false,"is_disabled":true,"rental_uris":{"android":"levelo://app?vid=d8b6ad16-2edf-48ee-aba4-9801c618dedc","ios":"levelo://app?vid=d8b6ad16-2edf-48ee-aba4-9801c618dedc"},"vehicle_type_id":"4","last_reported":1736183292,"current_range_meters":37600,"station_id":"ce4bhnp2rcd13ifvqgvg","pricing_plan_id":"cebpf4jnsgd1na2vs0mg"},{"bike_id":"ad6a3624-3479-4903-b62b-8609c0dd2c65","system_id":"levelo_inurba_marseille","lat":43.29948,"lon":5.39757,"is_reserved":false,"is_disabled":false,"rental_uris":{"android":"levelo://app?vid=ad6a3624-3479-4903-b62b-8609c0dd2c65","ios":"levelo://app?vid=ad6a3624-3479-4903-b62b-8609c0dd2c65"},"vehicle_type_id":"4","last_reported":1736183292,"current_range_meters":36400,"station_id":"","pricing_plan_id":"cebpf4jnsgd1na2vs0mg"},{"bike_id":"407c485d-b8c8-466f-aea1-9a32d81855d0","system_id":"levelo_inurba_marseille","lat":43.28409,"lon":5.3751,"is_reserved":false,"is_disabled":false,"rental_uris":{"android":"levelo://app?vid=407c485d-b8c8-466f-aea1-9a32d81855d0","ios":"levelo://app?vid=407c485d-b8c8-466f-aea1-9a32d81855d0"},"vehicle_type_id":"4","last_reported":1736183292,"current_range_meters":38800,"station_id":"ce4bh412rcd13ifvqds0","pricing_plan_id":"cebpf4jnsgd1na2vs0mg"},{"bike_id":"f494d2eb-3819-41a0-aa35-18f2c28f9da1","system_id":"levelo_inurba_marseille","lat":43.24665,"lon":5.38175,"is_reserved":false,"is_disabled":false,"rental_uris":{"android":"levelo://app?vid=f494d2eb-3819-41a0-aa35-18f2c28f9da1","ios":"levelo://app?vid=f494d2eb-3819-41a0-aa35-18f2c28f9da1"},"vehicle_type_id":"4","last_reported":1736183292,"current_range_meters":36800,"station_id":"ce4bhih2rcd13ifvqfr0","pricing_plan_id":"cebpf4jnsgd1na2vs0mg"},{"bike_id":"ea7db1c7-a90b-415c-a265-91f4b751ba54","system_id":"levelo_inurba_marseille","lat":43.24077,"lon":5.37744,"is_reserved":false,"is_disabled":true,"rental_uris":{"android":"levelo://app?vid=ea7db1c7-a90b-415c-a265-91f4b751ba54","ios":"levelo://app?vid=ea7db1c7-a90b-415c-a265-91f4b751ba54"},"vehicle_type_id":"4","last_reported":1736183292,"current_range_meters":38800,"station_id":"ce4bhnp2rcd13ifvqgvg","pricing_plan_id":"cebpf4jnsgd1na2vs0mg"},{"bike_id":"99790035-9bf5-4bf2-a057-a65ccdc6484e","system_id":"levelo_inurba_marseille","lat":43.31319,"lon":5.39712,"is_reserved":false,"is_disabled":false,"rental_uris":{"android":"levelo://app?vid=99790035-9bf5-4bf2-a057-a65ccdc6484e","ios":"levelo://app?vid=99790035-9bf5-4bf2-a057-a65ccdc6484e"},"vehicle_type_id":"4","last_reported":1736183292,"current_range_meters":39200,"station_id":"ce4bgvp2rcd13ifvqcu0","pricing_plan_id":"cebpf4jnsgd1na2vs0mg"},{"bike_id":"19f5792e-4a1a-44a2-b885-a803e0dca270","system_id":"levelo_inurba_marseille","lat":43.28077,"lon":5.39659,"is_reserved":false,"is_disabled":false,"rental_uris":{"android":"levelo://app?vid=19f5792e-4a1a-44a2-b885-a803e0dca270","ios":"levelo://app?vid=19f5792e-4a1a-44a2-b885-a803e0dca270"},"vehicle_type_id":"4","last_reported":1736183292,"current_range_meters":18000,"station_id":"ce4bho12rcd13ifvqh2g","pricing_plan_id":"cebpf4jnsgd1na2vs0mg"},{"bike_id":"4c0388d2-1cee-4ea7-8f2c-0d17a892ea74","system_id":"levelo_inurba_marseille","lat":43.30117,"lon":5.39851,"is_reserved":false,"is_disabled":false,"rental_uris":{"android":"levelo://app?vid=4c0388d2-1cee-4ea7-8f2c-0d17a892ea74","ios":"levelo://app?vid=4c0388d2-1cee-4ea7-8f2c-0d17a892ea74"},"vehicle_type_id":"4","last_reported":1736183292,"current_range_meters":38400,"station_id":"ce4bh0h2rcd13ifvqd40","pricing_plan_id":"cebpf4jnsgd1na2vs0mg"},{"bike_id":"8bfcb226-d2b4-46f2-bd7a-e77e2a4515c1","system_id":"levelo_inurba_marseille","lat":43.2439,"lon":5.37054,"is_reserved":false,"is_disabled":false,"rental_uris":{"android":"levelo://app?vid=8bfcb226-d2b4-46f2-bd7a-e77e2a4515c1","ios":"levelo://app?vid=8bfcb226-d2b4-46f2-bd7a-e77e2a4515c1"},"vehicle_type_id":"4","last_reported":1736183292,"current_range_meters":38800,"station_id":"ce4bhhh2rcd13ifvqfk0","pricing_plan_id":"cebpf4jnsgd1na2vs0mg"},{"bike_id":"97a064ee-2668-4692-88e6-91bc25808f0e","system_id":"levelo_inurba_marseille","lat":43.28275,"lon":5.35069,"is_reserved":false,"is_disabled":true,"rental_uris":{"android":"levelo://app?vid=97a064ee-2668-4692-88e6-91bc25808f0e","ios":"levelo://app?vid=97a064ee-2668-4692-88e6-91bc25808f0e"},"vehicle_type_id":"4","last_reported":1736183292,"current_range_meters":7200,"station_id":"ce4bhbp2rcd13ifvqerg","pricing_plan_id":"cebpf4jnsgd1na2vs0mg"},{"bike_id":"b9516351-6483-4df6-a78a-d2015a4619f1","system_id":"levelo_inurba_marseille","lat":43.27991,"lon":5.40004,"is_reserved":false,"is_disabled":true,"rental_uris":{"android":"levelo://app?vid=b9516351-6483-4df6-a78a-d2015a4619f1","ios":"levelo://app?vid=b9516351-6483-4df6-a78a-d2015a4619f1"},"vehicle_type_id":"4","last_reported":1736183292,"current_range_meters":0,"station_id":"ce4bho92rcd13ifvqh4g","pricing_plan_id":"cebpf4jnsgd1na2vs0mg"},{"bike_id":"051f9690-fb23-4188-83b5-271017d0a46e","system_id":"levelo_inurba_marseille","lat":43.32288,"lon":5.38265,"is_reserved":false,"is_disabled":false,"rental_uris":{"android":"levelo://app?vid=051f9690-fb23-4188-83b5-271017d0a46e","ios":"levelo://app?vid=051f9690-fb23-4188-83b5-271017d0a46e"},"vehicle_type_id":"4","last_reported":1736183292,"current_range_meters":9600,"station_id":"ce4bhr12rcd13ifvqhqg","pricing_plan_id":"cebpf4jnsgd1na2vs0mg"},{"bike_id":"059133c4-4b49-440d-874e-5a725616ab5e","system_id":"levelo_inurba_marseille","lat":43.29777,"lon":5.3709,"is_reserved":false,"is_disabled":false,"rental_uris":{"android":"levelo://app?vid=059133c4-4b49-440d-874e-5a725616ab5e","ios":"levelo://app?vid=059133c4-4b49-440d-874e-5a725616ab5e"},"vehicle_type_id":"4","last_reported":1736183292,"current_range_meters":38000,"station_id":"ce4bgop2rcd13ifvqc1g","pricing_plan_id":"cebpf4jnsgd1na2vs0mg"},{"bike_id":"87fe5a13-8d69-4e20-884d-fe4fab851d04","system_id":"levelo_inurba_marseille","lat":43.28702,"lon":5.37384,"is_reserved":false,"is_disabled":false,"rental_uris":{"android":"levelo://app?vid=87fe5a13-8d69-4e20-884d-fe4fab851d04","ios":"levelo://app?vid=87fe5a13-8d69-4e20-884d-fe4fab851d04"},"vehicle_type_id":"4","last_reported":1736183292,"current_range_meters":26000,"station_id":"ce4bh3p2rcd13ifvqdq0","pricing_plan_id":"cebpf4jnsgd1na2vs0mg"},{"bike_id":"a869818b-9185-433a-bb58-a6e3e3063d43","system_id":"levelo_inurba_marseille","lat":43.27204,"lon":5.40987,"is_reserved":false,"is_disabled":true,"rental_uris":{"android":"levelo://app?vid=a869818b-9185-433a-bb58-a6e3e3063d43","ios":"levelo://app?vid=a869818b-9185-433a-bb58-a6e3e3063d43"},"vehicle_type_id":"4","last_reported":1736183292,"current_range_meters":400,"station_id":"ce4bhl12rcd13ifvqgf0","pricing_plan_id":"cebpf4jnsgd1na2vs0mg"},{"bike_id":"599bc4ae-d93e-4424-b80f-69e8fa14dc4d","system_id":"levelo_inurba_marseille","lat":43.32943,"lon":5.39076,"is_reserved":false,"is_disabled":false,"rental_uris":{"android":"levelo://app?vid=599bc4ae-d93e-4424-b80f-69e8fa14dc4d","ios":"levelo://app?vid=599bc4ae-d93e-4424-b80f-69e8fa14dc4d"},"vehicle_type_id":"4","last_reported":1736183292,"current_range_meters":39200,"station_id":"ce4bhr92rcd13ifvqhrg","pricing_plan_id":"cebpf4jnsgd1na2vs0mg"},{"bike_id":"fbb39bea-6ef0-40aa-b7d0-ee0a7a02b049","system_id":"levelo_inurba_marseille","lat":43.2842,"lon":5.37503,"is_reserved":false,"is_disabled":false,"rental_uris":{"android":"levelo://app?vid=fbb39bea-6ef0-40aa-b7d0-ee0a7a02b049","ios":"levelo://app?vid=fbb39bea-6ef0-40aa-b7d0-ee0a7a02b049"},"vehicle_type_id":"4","last_reported":1736183292,"current_range_meters":35200,"station_id":"ce4bh412rcd13ifvqds0","pricing_plan_id":"cebpf4jnsgd1na2vs0mg"},{"bike_id":"2430b28e-ed6f-49f4-bcc4-6ebf37b708d9","system_id":"levelo_inurba_marseille","lat":43.28402,"lon":5.37518,"is_reserved":false,"is_disabled":false,"rental_uris":{"android":"levelo://app?vid=2430b28e-ed6f-49f4-bcc4-6ebf37b708d9","ios":"levelo://app?vid=2430b28e-ed6f-49f4-bcc4-6ebf37b708d9"},"vehicle_type_id":"4","last_reported":1736183292,"current_range_meters":24400,"station_id":"ce4bh412rcd13ifvqds0","pricing_plan_id":"cebpf4jnsgd1na2vs0mg"},{"bike_id":"b84a5bea-4c90-4804-a061-c8a75e780e6c","system_id":"levelo_inurba_marseille","lat":43.29869,"lon":5.39737,"is_reserved":false,"is_disabled":false,"rental_uris":{"android":"levelo://app?vid=b84a5bea-4c90-4804-a061-c8a75e780e6c","ios":"levelo://app?vid=b84a5bea-4c90-4804-a061-c8a75e780e6c"},"vehicle_type_id":"4","last_reported":1736183292,"current_range_meters":27200,"station_id":"ce4bh0h2rcd13ifvqd50","pricing_plan_id":"cebpf4jnsgd1na2vs0mg"},{"bike_id":"b6523eb3-724c-4f88-ada9-0d5bc31e6598","system_id":"levelo_inurba_marseille","lat":43.27691,"lon":5.38875,"is_reserved":false,"is_disabled":false,"rental_uris":{"android":"levelo://app?vid=b6523eb3-724c-4f88-ada9-0d5bc31e6598","ios":"levelo://app?vid=b6523eb3-724c-4f88-ada9-0d5bc31e6598"},"vehicle_type_id":"4","last_reported":1736183292,"current_range_meters":38000,"station_id":"ce4bhi12rcd13ifvqfo0","pricing_plan_id":"cebpf4jnsgd1na2vs0mg"},{"bike_id":"0dd1a0e4-b435-461e-9b4a-efeb32097d64","system_id":"levelo_inurba_marseille","lat":43.251499,"lon":5.39476,"is_reserved":false,"is_disabled":false,"rental_uris":{"android":"levelo://app?vid=0dd1a0e4-b435-461e-9b4a-efeb32097d64","ios":"levelo://app?vid=0dd1a0e4-b435-461e-9b4a-efeb32097d64"},"vehicle_type_id":"4","last_reported":1736183292,"current_range_meters":33600,"station_id":"ce4bhm12rcd13ifvqgkg","pricing_plan_id":"cebpf4jnsgd1na2vs0mg"},{"bike_id":"4b57253b-1638-41ff-a3a9-bf903839c43f","system_id":"levelo_inurba_marseille","lat":43.29905,"lon":5.38143,"is_reserved":false,"is_disabled":false,"rental_uris":{"android":"levelo://app?vid=4b57253b-1638-41ff-a3a9-bf903839c43f","ios":"levelo://app?vid=4b57253b-1638-41ff-a3a9-bf903839c43f"},"vehicle_type_id":"4","last_reported":1736183292,"current_range_meters":38800,"station_id":"ce4bgj12rcd13ifvqbc0","pricing_plan_id":"cebpf4jnsgd1na2vs0mg"},{"bike_id":"8f7d3f25-ecb9-4383-8caf-f2200ebe3dd0","system_id":"levelo_inurba_marseille","lat":43.2784,"lon":5.39209,"is_reserved":false,"is_disabled":false,"rental_uris":{"android":"levelo://app?vid=8f7d3f25-ecb9-4383-8caf-f2200ebe3dd0","ios":"levelo://app?vid=8f7d3f25-ecb9-4383-8caf-f2200ebe3dd0"},"vehicle_type_id":"4","last_reported":1736183292,"current_range_meters":34800,"station_id":"ce4bhjp2rcd13ifvqga0","pricing_plan_id":"cebpf4jnsgd1na2vs0mg"},{"bike_id":"a40f5b66-f08f-4ebe-8a65-6ca694947f43","system_id":"levelo_inurba_marseille","lat":43.2841,"lon":5.37533,"is_reserved":false,"is_disabled":false,"rental_uris":{"android":"levelo://app?vid=a40f5b66-f08f-4ebe-8a65-6ca694947f43","ios":"levelo://app?vid=a40f5b66-f08f-4ebe-8a65-6ca694947f43"},"vehicle_type_id":"4","last_reported":1736183292,"current_range_meters":3200,"station_id":"ce4bh412rcd13ifvqds0","pricing_plan_id":"cebpf4jnsgd1na2vs0mg"},{"bike_id":"7aaf005a-e24f-4eb7-a3ba-de4d7580b1f9","system_id":"levelo_inurba_marseille","lat":43.28414,"lon":5.37512,"is_reserved":false,"is_disabled":false,"rental_uris":{"android":"levelo://app?vid=7aaf005a-e24f-4eb7-a3ba-de4d7580b1f9","ios":"levelo://app?vid=7aaf005a-e24f-4eb7-a3ba-de4d7580b1f9"},"vehicle_type_id":"4","last_reported":1736183292,"current_range_meters":21600,"station_id":"ce4bh412rcd13ifvqds0","pricing_plan_id":"cebpf4jnsgd1na2vs0mg"},{"bike_id":"2308ef38-ddb3-4afb-90d3-164f983d94f0","system_id":"levelo_inurba_marseille","lat":43.286764,"lon":5.386692,"is_reserved":false,"is_disabled":false,"rental_uris":{"android":"levelo://app?vid=2308ef38-ddb3-4afb-90d3-164f983d94f0","ios":"levelo://app?vid=2308ef38-ddb3-4afb-90d3-164f983d94f0"},"vehicle_type_id":"4","last_reported":1736183292,"current_range_meters":38800,"station_id":"ce4bh492rcd13ifvqdug","pricing_plan_id":"cebpf4jnsgd1na2vs0mg"},{"bike_id":"e4ab2afb-33d3-47d1-b2c7-cdb7a2762dc3","system_id":"levelo_inurba_marseille","lat":43.27199,"lon":5.39197,"is_reserved":false,"is_disabled":true,"rental_uris":{"android":"levelo://app?vid=e4ab2afb-33d3-47d1-b2c7-cdb7a2762dc3","ios":"levelo://app?vid=e4ab2afb-33d3-47d1-b2c7-cdb7a2762dc3"},"vehicle_type_id":"4","last_reported":1736183292,"current_range_meters":16000,"station_id":"ce4bhhp2rcd13ifvqfm0","pricing_plan_id":"cebpf4jnsgd1na2vs0mg"},{"bike_id":"5318e8f2-83b0-49a3-8e76-93c11002be4f","system_id":"levelo_inurba_marseille","lat":43.2925,"lon":5.40139,"is_reserved":false,"is_disabled":true,"rental_uris":{"android":"levelo://app?vid=5318e8f2-83b0-49a3-8e76-93c11002be4f","ios":"levelo://app?vid=5318e8f2-83b0-49a3-8e76-93c11002be4f"},"vehicle_type_id":"4","last_reported":1736183292,"current_range_meters":35200,"station_id":"ce4bh312rcd13ifvqdk0","pricing_plan_id":"cebpf4jnsgd1na2vs0mg"},{"bike_id":"72b9f203-8a23-4a07-9bbb-889580077cb0","system_id":"levelo_inurba_marseille","lat":43.3041,"lon":5.41302,"is_reserved":false,"is_disabled":false,"rental_uris":{"android":"levelo://app?vid=72b9f203-8a23-4a07-9bbb-889580077cb0","ios":"levelo://app?vid=72b9f203-8a23-4a07-9bbb-889580077cb0"},"vehicle_type_id":"4","last_reported":1736183292,"current_range_meters":30000,"station_id":"ce4bhop2rcd13ifvqh8g","pricing_plan_id":"cebpf4jnsgd1na2vs0mg"},{"bike_id":"06b0504c-136e-4830-b8db-536ae0c7afb9","system_id":"levelo_inurba_marseille","lat":43.26796,"lon":5.40266,"is_reserved":false,"is_disabled":false,"rental_uris":{"android":"levelo://app?vid=06b0504c-136e-4830-b8db-536ae0c7afb9","ios":"levelo://app?vid=06b0504c-136e-4830-b8db-536ae0c7afb9"},"vehicle_type_id":"4","last_reported":1736183292,"current_range_meters":27200,"station_id":"ce501612rcd8frsf0b60","pricing_plan_id":"cebpf4jnsgd1na2vs0mg"},{"bike_id":"7a28f629-7bf7-4b03-ac33-44bc75e5d22b","system_id":"levelo_inurba_marseille","lat":43.29192,"lon":5.35814,"is_reserved":false,"is_disabled":true,"rental_uris":{"android":"levelo://app?vid=7a28f629-7bf7-4b03-ac33-44bc75e5d22b","ios":"levelo://app?vid=7a28f629-7bf7-4b03-ac33-44bc75e5d22b"},"vehicle_type_id":"4","last_reported":1736183292,"current_range_meters":2000,"station_id":"ce4bhb12rcd13ifvqel0","pricing_plan_id":"cebpf4jnsgd1na2vs0mg"},{"bike_id":"120c6c66-43eb-45fd-a849-ea07ea1802f0","system_id":"levelo_inurba_marseille","lat":43.28456,"lon":5.35876,"is_reserved":false,"is_disabled":false,"rental_uris":{"android":"levelo://app?vid=120c6c66-43eb-45fd-a849-ea07ea1802f0","ios":"levelo://app?vid=120c6c66-43eb-45fd-a849-ea07ea1802f0"},"vehicle_type_id":"4","last_reported":1736183292,"current_range_meters":26800,"station_id":"ce4bhah2rcd13ifvqei0","pricing_plan_id":"cebpf4jnsgd1na2vs0mg"},{"bike_id":"293c7aed-0c8c-4dc5-8f77-364062528708","system_id":"levelo_inurba_marseille","lat":43.297,"lon":5.36615,"is_reserved":false,"is_disabled":false,"rental_uris":{"android":"levelo://app?vid=293c7aed-0c8c-4dc5-8f77-364062528708","ios":"levelo://app?vid=293c7aed-0c8c-4dc5-8f77-364062528708"},"vehicle_type_id":"4","last_reported":1736183292,"current_range_meters":12800,"station_id":"ce4bgn12rcd13ifvqbt0","pricing_plan_id":"cebpf4jnsgd1na2vs0mg"},{"bike_id":"994caf7b-5fea-495c-853a-2531c34ebbc1","system_id":"levelo_inurba_marseille","lat":43.29034,"lon":5.35917,"is_reserved":false,"is_disabled":false,"rental_uris":{"android":"levelo://app?vid=994caf7b-5fea-495c-853a-2531c34ebbc1","ios":"levelo://app?vid=994caf7b-5fea-495c-853a-2531c34ebbc1"},"vehicle_type_id":"4","last_reported":1736183292,"current_range_meters":36400,"station_id":"ce4bha92rcd13ifvqeg0","pricing_plan_id":"cebpf4jnsgd1na2vs0mg"},{"bike_id":"1e6659bc-7d8a-4e31-9da6-58b0cc114e78","system_id":"levelo_inurba_marseille","lat":43.24811,"lon":5.37467,"is_reserved":false,"is_disabled":false,"rental_uris":{"android":"levelo://app?vid=1e6659bc-7d8a-4e31-9da6-58b0cc114e78","ios":"levelo://app?vid=1e6659bc-7d8a-4e31-9da6-58b0cc114e78"},"vehicle_type_id":"4","last_reported":1736183292,"current_range_meters":38800,"station_id":"ce4bhgh2rcd13ifvqfb0","pricing_plan_id":"cebpf4jnsgd1na2vs0mg"},{"bike_id":"dbf9f4e1-079c-4036-95ab-719c7b4a093e","system_id":"levelo_inurba_marseille","lat":43.29779,"lon":5.37088,"is_reserved":false,"is_disabled":false,"rental_uris":{"android":"levelo://app?vid=dbf9f4e1-079c-4036-95ab-719c7b4a093e","ios":"levelo://app?vid=dbf9f4e1-079c-4036-95ab-719c7b4a093e"},"vehicle_type_id":"4","last_reported":1736183292,"current_range_meters":6400,"station_id":"ce4bgop2rcd13ifvqc1g","pricing_plan_id":"cebpf4jnsgd1na2vs0mg"},{"bike_id":"2b930f00-7be5-4200-a00e-358b5e3643c9","system_id":"levelo_inurba_marseille","lat":43.28156,"lon":5.42652,"is_reserved":false,"is_disabled":false,"rental_uris":{"android":"levelo://app?vid=2b930f00-7be5-4200-a00e-358b5e3643c9","ios":"levelo://app?vid=2b930f00-7be5-4200-a00e-358b5e3643c9"},"vehicle_type_id":"4","last_reported":1736183292,"current_range_meters":8400,"station_id":"ce4bhnh2rcd13ifvqgug","pricing_plan_id":"cebpf4jnsgd1na2vs0mg"},{"bike_id":"f6d5186b-2ab8-4f17-8623-c79c7fd2a0c5","system_id":"levelo_inurba_marseille","lat":43.23055,"lon":5.35496,"is_reserved":false,"is_disabled":true,"rental_uris":{"android":"levelo://app?vid=f6d5186b-2ab8-4f17-8623-c79c7fd2a0c5","ios":"levelo://app?vid=f6d5186b-2ab8-4f17-8623-c79c7fd2a0c5"},"vehicle_type_id":"4","last_reported":1736183292,"current_range_meters":28400,"station_id":"cpo3342slgdg3j2ifvpg","pricing_plan_id":"cebpf4jnsgd1na2vs0mg"},{"bike_id":"55830c4d-2d1b-447c-b80e-6540bfed64ce","system_id":"levelo_inurba_marseille","lat":43.30795,"lon":5.38154,"is_reserved":false,"is_disabled":false,"rental_uris":{"android":"levelo://app?vid=55830c4d-2d1b-447c-b80e-6540bfed64ce","ios":"levelo://app?vid=55830c4d-2d1b-447c-b80e-6540bfed64ce"},"vehicle_type_id":"4","last_reported":1736183292,"current_range_meters":6400,"station_id":"ce4bgt12rcd13ifvqce0","pricing_plan_id":"cebpf4jnsgd1na2vs0mg"},