{"last_updated":1774696716,"ttl":60,"version":"2.2","data":{"bikes":[{"bike_id":"7b439088-0cbe-430e-951d-3211fccfb127","system_id":"levelo_inurba_marseille","lat":43.26047,"lon":5.37546,"is_reserved":false,"is_disabled":false,"rental_uris":{"android":"levelo://app?vid=7b439088-0cbe-430e-951d-3211fccfb127","ios":"levelo://app?vid=7b439088-0cbe-430e-951d-3211fccfb127"},"vehicle_type_id":"4","last_reported":1774696717,"current_range_meters":2800,"station_id":"ce4bhgh2rcd13ifvqfa0","pricing_plan_id":"cebpf4jnsgd1na2vs0mg"},{"bike_id":"ed9b8903-fd7a-4bcd-a2f1-b692211d5c75","system_id":"levelo_inurba_marseille","lat":43.29804,"lon":5.44075,"is_reserved":false,"is_disabled":false,"rental_uris":{"android":"levelo://app?vid=ed9b8903-fd7a-4bcd-a2f1-b692211d5c75","ios":"levelo://app?vid=ed9b8903-fd7a-4bcd-a2f1-b692211d5c75"},"vehicle_type_id":"4","last_reported":1774696717,"current_range_meters":2800,"station_id":"st_d3jp68qikq2c7381ktn0","pricing_plan_id":"cebpf4jnsgd1na2vs0mg"},{"bike_id":"ae9855a0-74e4-4276-85d0-be90bb00144b","system_id":"levelo_inurba_marseille","lat":43.337444,"lon":5.374475,"is_reserved":false,"is_disabled":false,"rental_uris":{"android":"levelo://app?vid=ae9855a0-74e4-4276-85d0-be90bb00144b","ios":"levelo://app?vid=ae9855a0-74e4-4276-85d0-be90bb00144b"},"vehicle_type_id":"4","last_reported":1774696717,"current_range_meters":2800,"station_id":"","pricing_plan_id":"cebpf4jnsgd1na2vs0mg"},{"bike_id":"687f743b-96ab-4b3e-8fbd-b7a59036f888","system_id":"levelo_inurba_marseille","lat":43.28706,"lon":5.467,"is_reserved":false,"is_disabled":false,"rental_uris":{"android":"levelo://app?vid=687f743b-96ab-4b3e-8fbd-b7a59036f888","ios":"levelo://app?vid=687f743b-96ab-4b3e-8fbd-b7a59036f888"},"vehicle_type_id":"4","last_reported":1774696717,"current_range_meters":3200,"station_id":"st_d6tc3vkotcvc738tfjhg","pricing_plan_id":"cebpf4jnsgd1na2vs0mg"},{"bike_id":"e1425a33-7c98-4de9-97e8-e6c200565452","system_id":"levelo_inurba_marseille","lat":43.28262,"lon":5.35071,"is_reserved":false,"is_disabled":false,"rental_uris":{"android":"levelo://app?vid=e1425a33-7c98-4de9-97e8-e6c200565452","ios":"levelo://app?vid=e1425a33-7c98-4de9-97e8-e6c200565452"},"vehicle_type_id":"4","last_reported":1774696717,"current_range_meters":3200,"station_id":"ce4bhbp2rcd13ifvqerg","pricing_plan_id":"cebpf4jnsgd1na2vs0mg"},{"bike_id":"4125cc9c-acc4-4f82-94dc-47fe3ed0bd40","system_id":"levelo_inurba_marseille","lat":43.29628,"lon":5.37173,"is_reserved":false,"is_disabled":true,"rental_uris":{"android":"levelo://app?vid=4125cc9c-acc4-4f82-94dc-47fe3ed0bd40","ios":"levelo://app?vid=4125cc9c-acc4-4f82-94dc-47fe3ed0bd40"},"vehicle_type_id":"4","last_reported":1774696717,"current_range_meters":3200,"station_id":"","pricing_plan_id":"cebpf4jnsgd1na2vs0mg"},{"bike_id":"5d4a26b1-1943-49a3-80c7-3057b3d264ec","system_id":"levelo_inurba_marseille","lat":43.27327,"lon":5.39125,"is_reserved":false,"is_disabled":false,"rental_uris":{"android":"levelo://app?vid=5d4a26b1-1943-49a3-80c7-3057b3d264ec","ios":"levelo://app?vid=5d4a26b1-1943-49a3-80c7-3057b3d264ec"},"vehicle_type_id":"4","last_reported":1774696717,"current_range_meters":3200,"station_id":"ce4bhgp2rcd13ifvqfe0","pricing_plan_id":"cebpf4jnsgd1na2vs0mg"},{"bike_id":"41215aec-5f35-41c4-8875-01313ebb4475","system_id":"levelo_inurba_marseille","lat":43.28884,"lon":5.43769,"is_reserved":false,"is_disabled":false,"rental_uris":{"android":"levelo://app?vid=41215aec-5f35-41c4-8875-01313ebb4475","ios":"levelo://app?vid=41215aec-5f35-41c4-8875-01313ebb4475"},"vehicle_type_id":"4","last_reported":1774696717,"current_range_meters":3200,"station_id":"","pricing_plan_id":"cebpf4jnsgd1na2vs0mg"},{"bike_id":"e3944426-73d6-4e9e-80a5-e250ed1a3346","system_id":"levelo_inurba_marseille","lat":43.28614,"lon":5.35108,"is_reserved":false,"is_disabled":false,"rental_uris":{"android":"levelo://app?vid=e3944426-73d6-4e9e-80a5-e250ed1a3346","ios":"levelo://app?vid=e3944426-73d6-4e9e-80a5-e250ed1a3346"},"vehicle_type_id":"4","last_reported":1774696717,"current_range_meters":3200,"station_id":"ce4bhch2rcd13ifvqeug","pricing_plan_id":"cebpf4jnsgd1na2vs0mg"},{"bike_id":"30e1192d-b302-451a-9739-8c7eaf850fdf","system_id":"levelo_inurba_marseille","lat":43.28411,"lon":5.34984,"is_reserved":false,"is_disabled":false,"rental_uris":{"android":"levelo://app?vid=30e1192d-b302-451a-9739-8c7eaf850fdf","ios":"levelo://app?vid=30e1192d-b302-451a-9739-8c7eaf850fdf"},"vehicle_type_id":"4","last_reported":1774696717,"current_range_meters":3200,"station_id":"ce4bhbh2rcd13ifvqepg","pricing_plan_id":"cebpf4jnsgd1na2vs0mg"},{"bike_id":"9bc0b937-b0d9-43c5-9555-6ff47bb13b73","system_id":"levelo_inurba_marseille","lat":43.3315,"lon":5.37688,"is_reserved":false,"is_disabled":false,"rental_uris":{"android":"levelo://app?vid=9bc0b937-b0d9-43c5-9555-6ff47bb13b73","ios":"levelo://app?vid=9bc0b937-b0d9-43c5-9555-6ff47bb13b73"},"vehicle_type_id":"4","last_reported":1774696717,"current_range_meters":3200,"station_id":"st_d46cu089ee8s73dldbu0","pricing_plan_id":"cebpf4jnsgd1na2vs0mg"},{"bike_id":"964cffd4-8602-4913-a4cd-3d8df24f0bbf","system_id":"levelo_inurba_marseille","lat":43.28442,"lon":5.3499,"is_reserved":false,"is_disabled":false,"rental_uris":{"android":"levelo://app?vid=964cffd4-8602-4913-a4cd-3d8df24f0bbf","ios":"levelo://app?vid=964cffd4-8602-4913-a4cd-3d8df24f0bbf"},"vehicle_type_id":"4","last_reported":1774696717,"current_range_meters":3200,"station_id":"ce4bhbh2rcd13ifvqepg","pricing_plan_id":"cebpf4jnsgd1na2vs0mg"},{"bike_id":"5edde4fe-efb7-4a4b-8664-0c49e782eb05","system_id":"levelo_inurba_marseille","lat":43.29575,"lon":5.37526,"is_reserved":false,"is_disabled":false,"rental_uris":{"android":"levelo://app?vid=5edde4fe-efb7-4a4b-8664-0c49e782eb05","ios":"levelo://app?vid=5edde4fe-efb7-4a4b-8664-0c49e782eb05"},"vehicle_type_id":"4","last_reported":1774696717,"current_range_meters":3600,"station_id":"ce4bgh92rcd13ifvqb50","pricing_plan_id":"cebpf4jnsgd1na2vs0mg"},{"bike_id":"d6d88029-64b8-4411-919c-483ad9a8dd34","system_id":"levelo_inurba_marseille","lat":43.21233,"lon":5.35052,"is_reserved":false,"is_disabled":false,"rental_uris":{"android":"levelo://app?vid=d6d88029-64b8-4411-919c-483ad9a8dd34","ios":"levelo://app?vid=d6d88029-64b8-4411-919c-483ad9a8dd34"},"vehicle_type_id":"4","last_reported":1774696717,"current_range_meters":3600,"station_id":"","pricing_plan_id":"cebpf4jnsgd1na2vs0mg"},{"bike_id":"0f3b0805-f377-4afb-8281-2c1a2716d1ba","system_id":"levelo_inurba_marseille","lat":43.26545,"lon":5.3729,"is_reserved":false,"is_disabled":false,"rental_uris":{"android":"levelo://app?vid=0f3b0805-f377-4afb-8281-2c1a2716d1ba","ios":"levelo://app?vid=0f3b0805-f377-4afb-8281-2c1a2716d1ba"},"vehicle_type_id":"4","last_reported":1774696717,"current_range_meters":3600,"station_id":"ce4bhg12rcd13ifvqf70","pricing_plan_id":"cebpf4jnsgd1na2vs0mg"},{"bike_id":"ae758492-79f2-476f-b0b6-5b6613e02dd5","system_id":"levelo_inurba_marseille","lat":43.21192,"lon":5.35073,"is_reserved":false,"is_disabled":false,"rental_uris":{"android":"levelo://app?vid=ae758492-79f2-476f-b0b6-5b6613e02dd5","ios":"levelo://app?vid=ae758492-79f2-476f-b0b6-5b6613e02dd5"},"vehicle_type_id":"4","last_reported":1774696717,"current_range_meters":3600,"station_id":"st_cvj6sg6p6f1abm77japg","pricing_plan_id":"cebpf4jnsgd1na2vs0mg"},{"bike_id":"458e1c48-7d3d-4d80-92bd-ab71f6e61068","system_id":"levelo_inurba_marseille","lat":43.2666,"lon":5.3827,"is_reserved":false,"is_disabled":false,"rental_uris":{"android":"levelo://app?vid=458e1c48-7d3d-4d80-92bd-ab71f6e61068","ios":"levelo://app?vid=458e1c48-7d3d-4d80-92bd-ab71f6e61068"},"vehicle_type_id":"4","last_reported":1774696717,"current_range_meters":3600,"station_id":"ce4bhg92rcd13ifvqf90","pricing_plan_id":"cebpf4jnsgd1na2vs0mg"},{"bike_id":"653c1697-ecc4-4927-882c-de4e9516a458","system_id":"levelo_inurba_marseille","lat":43.2606,"lon":5.39382,"is_reserved":false,"is_disabled":false,"rental_uris":{"android":"levelo://app?vid=653c1697-ecc4-4927-882c-de4e9516a458","ios":"levelo://app?vid=653c1697-ecc4-4927-882c-de4e9516a458"},"vehicle_type_id":"4","last_reported":1774696717,"current_range_meters":3600,"station_id":"ce4bhh92rcd13ifvqfj0","pricing_plan_id":"cebpf4jnsgd1na2vs0mg"},{"bike_id":"80db360c-7472-4e5e-a72d-ff0ab9900c5d","system_id":"levelo_inurba_marseille","lat":43.29201,"lon":5.42611,"is_reserved":false,"is_disabled":false,"rental_uris":{"android":"levelo://app?vid=80db360c-7472-4e5e-a72d-ff0ab9900c5d","ios":"levelo://app?vid=80db360c-7472-4e5e-a72d-ff0ab9900c5d"},"vehicle_type_id":"4","last_reported":1774696717,"current_range_meters":3600,"station_id":"","pricing_plan_id":"cebpf4jnsgd1na2vs0mg"},{"bike_id":"4d2c428a-06db-49bc-a222-2cbc52db76c0","system_id":"levelo_inurba_marseille","lat":43.24196,"lon":5.39715,"is_reserved":false,"is_disabled":false,"rental_uris":{"android":"levelo://app?vid=4d2c428a-06db-49bc-a222-2cbc52db76c0","ios":"levelo://app?vid=4d2c428a-06db-49bc-a222-2cbc52db76c0"},"vehicle_type_id":"4","last_reported":1774696717,"current_range_meters":4000,"station_id":"ce4bhn12rcd13ifvqgpg","pricing_plan_id":"cebpf4jnsgd1na2vs0mg"},{"bike_id":"bd934b71-fc54-44f1-90d5-67d1e4783891","system_id":"levelo_inurba_marseille","lat":43.24154,"lon":5.364,"is_reserved":false,"is_disabled":false,"rental_uris":{"android":"levelo://app?vid=bd934b71-fc54-44f1-90d5-67d1e4783891","ios":"levelo://app?vid=bd934b71-fc54-44f1-90d5-67d1e4783891"},"vehicle_type_id":"4","last_reported":1774696717,"current_range_meters":4000,"station_id":"cpo36qri1sfpv3e86is0","pricing_plan_id":"cebpf4jnsgd1na2vs0mg"},{"bike_id":"4bf5ee1a-db28-4d49-a9e5-e023cbb5efa9","system_id":"levelo_inurba_marseille","lat":43.26499,"lon":5.37961,"is_reserved":false,"is_disabled":false,"rental_uris":{"android":"levelo://app?vid=4bf5ee1a-db28-4d49-a9e5-e023cbb5efa9","ios":"levelo://app?vid=4bf5ee1a-db28-4d49-a9e5-e023cbb5efa9"},"vehicle_type_id":"4","last_reported":1774696717,"current_range_meters":4000,"station_id":"","pricing_plan_id":"cebpf4jnsgd1na2vs0mg"},{"bike_id":"e9dc9846-a1fb-4f3a-a8d5-dbd68cc5808d","system_id":"levelo_inurba_marseille","lat":43.30826,"lon":5.39952,"is_reserved":false,"is_disabled":false,"rental_uris":{"android":"levelo://app?vid=e9dc9846-a1fb-4f3a-a8d5-dbd68cc5808d","ios":"levelo://app?vid=e9dc9846-a1fb-4f3a-a8d5-dbd68cc5808d"},"vehicle_type_id":"4","last_reported":1774696717,"current_range_meters":4000,"station_id":"","pricing_plan_id":"cebpf4jnsgd1na2vs0mg"},{"bike_id":"27f65587-f91a-41b1-aacf-8da5e702b79e","system_id":"levelo_inurba_marseille","lat":43.29756,"lon":5.42767,"is_reserved":false,"is_disabled":false,"rental_uris":{"android":"levelo://app?vid=27f65587-f91a-41b1-aacf-8da5e702b79e","ios":"levelo://app?vid=27f65587-f91a-41b1-aacf-8da5e702b79e"},"vehicle_type_id":"4","last_reported":1774696717,"current_range_meters":4000,"station_id":"st_d3md5207bmas73dh9klg","pricing_plan_id":"cebpf4jnsgd1na2vs0mg"},{"bike_id":"7577d704-4358-4b6d-bf28-c0c3843fa2c6","system_id":"levelo_inurba_marseille","lat":43.2468,"lon":5.38126,"is_reserved":false,"is_disabled":false,"rental_uris":{"android":"levelo://app?vid=7577d704-4358-4b6d-bf28-c0c3843fa2c6","ios":"levelo://app?vid=7577d704-4358-4b6d-bf28-c0c3843fa2c6"},"vehicle_type_id":"4","last_reported":1774696717,"current_range_meters":4000,"station_id":"ce4bhih2rcd13ifvqfr0","pricing_plan_id":"cebpf4jnsgd1na2vs0mg"},{"bike_id":"29b8f791-7789-4e9b-8e39-c750aefccf04","system_id":"levelo_inurba_marseille","lat":43.23799,"lon":5.3664,"is_reserved":false,"is_disabled":false,"rental_uris":{"android":"levelo://app?vid=29b8f791-7789-4e9b-8e39-c750aefccf04","ios":"levelo://app?vid=29b8f791-7789-4e9b-8e39-c750aefccf04"},"vehicle_type_id":"4","last_reported":1774696717,"current_range_meters":4000,"station_id":"st_d3nk18o9ro0c73en2l3g","pricing_plan_id":"cebpf4jnsgd1na2vs0mg"},{"bike_id":"79f96330-9f16-48ac-9cd0-0abb79e4c6ad","system_id":"levelo_inurba_marseille","lat":43.30444,"lon":5.38881,"is_reserved":false,"is_disabled":false,"rental_uris":{"android":"levelo://app?vid=79f96330-9f16-48ac-9cd0-0abb79e4c6ad","ios":"levelo://app?vid=79f96330-9f16-48ac-9cd0-0abb79e4c6ad"},"vehicle_type_id":"4","last_reported":1774696717,"current_range_meters":4000,"station_id":"ce4bgk12rcd13ifvqbi0","pricing_plan_id":"cebpf4jnsgd1na2vs0mg"},{"bike_id":"16a65088-9cde-44d5-aa5a-ec9990314d70","system_id":"levelo_inurba_marseille","lat":43.30387,"lon":5.42469,"is_reserved":false,"is_disabled":false,"rental_uris":{"android":"levelo://app?vid=16a65088-9cde-44d5-aa5a-ec9990314d70","ios":"levelo://app?vid=16a65088-9cde-44d5-aa5a-ec9990314d70"},"vehicle_type_id":"4","last_reported":1774696717,"current_range_meters":4400,"station_id":"ce4bhoh2rcd13ifvqh6g","pricing_plan_id":"cebpf4jnsgd1na2vs0mg"},{"bike_id":"69e27c7c-05d6-4969-a22c-fe27130751a8","system_id":"levelo_inurba_marseille","lat":43.21181,"lon":5.35078,"is_reserved":false,"is_disabled":false,"rental_uris":{"android":"levelo://app?vid=69e27c7c-05d6-4969-a22c-fe27130751a8","ios":"levelo://app?vid=69e27c7c-05d6-4969-a22c-fe27130751a8"},"vehicle_type_id":"4","last_reported":1774696717,"current_range_meters":4400,"station_id":"st_cvj6sg6p6f1abm77japg","pricing_plan_id":"cebpf4jnsgd1na2vs0mg"},{"bike_id":"e79f06bb-85ab-4816-a914-e220a3b060ce","system_id":"levelo_inurba_marseille","lat":43.31484,"lon":5.37314,"is_reserved":false,"is_disabled":false,"rental_uris":{"android":"levelo://app?vid=e79f06bb-85ab-4816-a914-e220a3b060ce","ios":"levelo://app?vid=e79f06bb-85ab-4816-a914-e220a3b060ce"},"vehicle_type_id":"4","last_reported":1774696717,"current_range_meters":4400,"station_id":"ce4bgt12rcd13ifvqcd0","pricing_plan_id":"cebpf4jnsgd1na2vs0mg"},{"bike_id":"18a91529-06e5-4b51-b178-940cb96e7217","system_id":"levelo_inurba_marseille","lat":43.2379,"lon":5.36623,"is_reserved":false,"is_disabled":false,"rental_uris":{"android":"levelo://app?vid=18a91529-06e5-4b51-b178-940cb96e7217","ios":"levelo://app?vid=18a91529-06e5-4b51-b178-940cb96e7217"},"vehicle_type_id":"4","last_reported":1774696717,"current_range_meters":4400,"station_id":"st_d3nk18o9ro0c73en2l3g","pricing_plan_id":"cebpf4jnsgd1na2vs0mg"},{"bike_id":"42554fe7-f398-40d9-a38e-99e3120b949f","system_id":"levelo_inurba_marseille","lat":43.27208,"lon":5.39192,"is_reserved":false,"is_disabled":false,"rental_uris":{"android":"levelo://app?vid=42554fe7-f398-40d9-a38e-99e3120b949f","ios":"levelo://app?vid=42554fe7-f398-40d9-a38e-99e3120b949f"},"vehicle_type_id":"4","last_reported":1774696717,"current_range_meters":4400,"station_id":"ce4bhhp2rcd13ifvqfm0","pricing_plan_id":"cebpf4jnsgd1na2vs0mg"},{"bike_id":"5699f8f2-1d2f-4b5d-b905-3df595536881","system_id":"levelo_inurba_marseille","lat":43.3079,"lon":5.37644,"is_reserved":false,"is_disabled":false,"rental_uris":{"android":"levelo://app?vid=5699f8f2-1d2f-4b5d-b905-3df595536881","ios":"levelo://app?vid=5699f8f2-1d2f-4b5d-b905-3df595536881"},"vehicle_type_id":"4","last_reported":1774696717,"current_range_meters":4400,"station_id":"ce4bgv92rcd13ifvqcq0","pricing_plan_id":"cebpf4jnsgd1na2vs0mg"},{"bike_id":"e4b97950-5826-475e-8558-d2e5bcc219f8","system_id":"levelo_inurba_marseille","lat":43.29799,"lon":5.36536,"is_reserved":false,"is_disabled":false,"rental_uris":{"android":"levelo://app?vid=e4b97950-5826-475e-8558-d2e5bcc219f8","ios":"levelo://app?vid=e4b97950-5826-475e-8558-d2e5bcc219f8"},"vehicle_type_id":"4","last_reported":1774696717,"current_range_meters":4400,"station_id":"","pricing_plan_id":"cebpf4jnsgd1na2vs0mg"},{"bike_id":"8a927669-3c1a-4573-98bd-585f9b534d2d","system_id":"levelo_inurba_marseille","lat":43.24465,"lon":5.42522,"is_reserved":false,"is_disabled":false,"rental_uris":{"android":"levelo://app?vid=8a927669-3c1a-4573-98bd-585f9b534d2d","ios":"levelo://app?vid=8a927669-3c1a-4573-98bd-585f9b534d2d"},"vehicle_type_id":"4","last_reported":1774696717,"current_range_meters":4400,"station_id":"st_d4a3vfp97mjs738cd8kg","pricing_plan_id":"cebpf4jnsgd1na2vs0mg"},{"bike_id":"92218fad-c6ea-4061-9c87-d7a2bb61d0b5","system_id":"levelo_inurba_marseille","lat":43.23769,"lon":5.36622,"is_reserved":false,"is_disabled":false,"rental_uris":{"android":"levelo://app?vid=92218fad-c6ea-4061-9c87-d7a2bb61d0b5","ios":"levelo://app?vid=92218fad-c6ea-4061-9c87-d7a2bb61d0b5"},"vehicle_type_id":"4","last_reported":1774696717,"current_range_meters":4400,"station_id":"st_d3nk18o9ro0c73en2l3g","pricing_plan_id":"cebpf4jnsgd1na2vs0mg"},{"bike_id":"b2b299e2-955d-4e90-9a30-3c19d8f7a219","system_id":"levelo_inurba_marseille","lat":43.21748,"lon":5.3461,"is_reserved":false,"is_disabled":false,"rental_uris":{"android":"levelo://app?vid=b2b299e2-955d-4e90-9a30-3c19d8f7a219","ios":"levelo://app?vid=b2b299e2-955d-4e90-9a30-3c19d8f7a219"},"vehicle_type_id":"4","last_reported":1774696717,"current_range_meters":4400,"station_id":"st_cvj6r9ubvosntc0bgbag","pricing_plan_id":"cebpf4jnsgd1na2vs0mg"},{"bike_id":"299c1db8-8b1c-4e76-8016-cf4f1472636c","system_id":"levelo_inurba_marseille","lat":43.30935,"lon":5.39983,"is_reserved":false,"is_disabled":false,"rental_uris":{"android":"levelo://app?vid=299c1db8-8b1c-4e76-8016-cf4f1472636c","ios":"levelo://app?vid=299c1db8-8b1c-4e76-8016-cf4f1472636c"},"vehicle_type_id":"4","last_reported":1774696717,"current_range_meters":4400,"station_id":"","pricing_plan_id":"cebpf4jnsgd1na2vs0mg"},{"bike_id":"c7f023b9-459e-4461-94be-cf06307e205a","system_id":"levelo_inurba_marseille","lat":43.29018,"lon":5.38642,"is_reserved":false,"is_disabled":false,"rental_uris":{"android":"levelo://app?vid=c7f023b9-459e-4461-94be-cf06307e205a","ios":"levelo://app?vid=c7f023b9-459e-4461-94be-cf06307e205a"},"vehicle_type_id":"4","last_reported":1774696717,"current_range_meters":4400,"station_id":"ce4bh4p2rcd13ifvqe0g","pricing_plan_id":"cebpf4jnsgd1na2vs0mg"},{"bike_id":"53349f23-1850-48cf-8057-6c978f190eed","system_id":"levelo_inurba_marseille","lat":43.24651,"lon":5.38912,"is_reserved":false,"is_disabled":false,"rental_uris":{"android":"levelo://app?vid=53349f23-1850-48cf-8057-6c978f190eed","ios":"levelo://app?vid=53349f23-1850-48cf-8057-6c978f190eed"},"vehicle_type_id":"4","last_reported":1774696717,"current_range_meters":4400,"station_id":"ce4bhg12rcd13ifvqf60","pricing_plan_id":"cebpf4jnsgd1na2vs0mg"},{"bike_id":"b6ab38aa-1f18-4505-8cc3-51a7a375c8b6","system_id":"levelo_inurba_marseille","lat":43.24684,"lon":5.38132,"is_reserved":false,"is_disabled":false,"rental_uris":{"android":"levelo://app?vid=b6ab38aa-1f18-4505-8cc3-51a7a375c8b6","ios":"levelo://app?vid=b6ab38aa-1f18-4505-8cc3-51a7a375c8b6"},"vehicle_type_id":"4","last_reported":1774696717,"current_range_meters":4400,"station_id":"ce4bhih2rcd13ifvqfr0","pricing_plan_id":"cebpf4jnsgd1na2vs0mg"},{"bike_id":"7003631f-ecee-4cf3-b0d8-d222deb81f3f","system_id":"levelo_inurba_marseille","lat":43.25079,"lon":5.3952,"is_reserved":false,"is_disabled":false,"rental_uris":{"android":"levelo://app?vid=7003631f-ecee-4cf3-b0d8-d222deb81f3f","ios":"levelo://app?vid=7003631f-ecee-4cf3-b0d8-d222deb81f3f"},"vehicle_type_id":"4","last_reported":1774696717,"current_range_meters":4400,"station_id":"ce4bhm12rcd13ifvqgkg","pricing_plan_id":"cebpf4jnsgd1na2vs0mg"},{"bike_id":"1d7503c3-20ca-4fb6-92d0-5b5a5f6d18ec","system_id":"levelo_inurba_marseille","lat":43.22944,"lon":5.35359,"is_reserved":false,"is_disabled":false,"rental_uris":{"android":"levelo://app?vid=1d7503c3-20ca-4fb6-92d0-5b5a5f6d18ec","ios":"levelo://app?vid=1d7503c3-20ca-4fb6-92d0-5b5a5f6d18ec"},"vehicle_type_id":"4","last_reported":1774696717,"current_range_meters":4800,"station_id":"cpo3532slgdg3j2ikp40","pricing_plan_id":"cebpf4jnsgd1na2vs0mg"},{"bike_id":"6a7fd2aa-a90b-461a-8118-a8f8d903c462","system_id":"levelo_inurba_marseille","lat":43.28476,"lon":5.4842,"is_reserved":false,"is_disabled":false,"rental_uris":{"android":"levelo://app?vid=6a7fd2aa-a90b-461a-8118-a8f8d903c462","ios":"levelo://app?vid=6a7fd2aa-a90b-461a-8118-a8f8d903c462"},"vehicle_type_id":"4","last_reported":1774696717,"current_range_meters":4800,"station_id":"","pricing_plan_id":"cebpf4jnsgd1na2vs0mg"},{"bike_id":"7d38c45a-0011-4d05-9bbf-54b7323ff394","system_id":"levelo_inurba_marseille","lat":43.2638,"lon":5.41051,"is_reserved":false,"is_disabled":false,"rental_uris":{"android":"levelo://app?vid=7d38c45a-0011-4d05-9bbf-54b7323ff394","ios":"levelo://app?vid=7d38c45a-0011-4d05-9bbf-54b7323ff394"},"vehicle_type_id":"4","last_reported":1774696717,"current_range_meters":4800,"station_id":"st_d4e5ca6na9uc73bfl5fg","pricing_plan_id":"cebpf4jnsgd1na2vs0mg"},{"bike_id":"ace30790-d9f4-4362-b049-53b5308efc6b","system_id":"levelo_inurba_marseille","lat":43.31989,"lon":5.38131,"is_reserved":false,"is_disabled":false,"rental_uris":{"android":"levelo://app?vid=ace30790-d9f4-4362-b049-53b5308efc6b","ios":"levelo://app?vid=ace30790-d9f4-4362-b049-53b5308efc6b"},"vehicle_type_id":"4","last_reported":1774696717,"current_range_meters":4800,"station_id":"ce4bhr12rcd13ifvqhpg","pricing_plan_id":"cebpf4jnsgd1na2vs0mg"},{"bike_id":"ca552bfa-968d-4d0a-af12-bab225eab893","system_id":"levelo_inurba_marseille","lat":43.28268,"lon":5.35063,"is_reserved":false,"is_disabled":false,"rental_uris":{"android":"levelo://app?vid=ca552bfa-968d-4d0a-af12-bab225eab893","ios":"levelo://app?vid=ca552bfa-968d-4d0a-af12-bab225eab893"},"vehicle_type_id":"4","last_reported":1774696717,"current_range_meters":4800,"station_id":"ce4bhbp2rcd13ifvqerg","pricing_plan_id":"cebpf4jnsgd1na2vs0mg"},{"bike_id":"fde7c990-ea71-4125-9b7f-4cda0f7e1677","system_id":"levelo_inurba_marseille","lat":43.23782,"lon":5.36642,"is_reserved":false,"is_disabled":false,"rental_uris":{"android":"levelo://app?vid=fde7c990-ea71-4125-9b7f-4cda0f7e1677","ios":"levelo://app?vid=fde7c990-ea71-4125-9b7f-4cda0f7e1677"},"vehicle_type_id":"4","last_reported":1774696717,"current_range_meters":4800,"station_id":"st_d3nk18o9ro0c73en2l3g","pricing_plan_id":"cebpf4jnsgd1na2vs0mg"},{"bike_id":"248e7202-bf14-41af-ab35-7275ee6c4d6f","system_id":"levelo_inurba_marseille","lat":43.23385,"lon":5.41197,"is_reserved":false,"is_disabled":false,"rental_uris":{"android":"levelo://app?vid=248e7202-bf14-41af-ab35-7275ee6c4d6f","ios":"levelo://app?vid=248e7202-bf14-41af-ab35-7275ee6c4d6f"},"vehicle_type_id":"4","last_reported":1774696717,"current_range_meters":4800,"station_id":"","pricing_plan_id":"cebpf4jnsgd1na2vs0mg"},{"bike_id":"6671c61a-045c-4d83-b5a9-69cb797098b8","system_id":"levelo_inurba_marseille","lat":43.34357,"lon":5.35942,"is_reserved":false,"is_disabled":false,"rental_uris":{"android":"levelo://app?vid=6671c61a-045c-4d83-b5a9-69cb797098b8","ios":"levelo://app?vid=6671c61a-045c-4d83-b5a9-69cb797098b8"},"vehicle_type_id":"4","last_reported":1774696717,"current_range_meters":4800,"station_id":"","pricing_plan_id":"cebpf4jnsgd1na2vs0mg"},{"bike_id":"6e768583-a42a-4c11-962a-ea6d409389f8","system_id":"levelo_inurba_marseille","lat":43.309495,"lon":5.390381,"is_reserved":false,"is_disabled":false,"rental_uris":{"android":"levelo://app?vid=6e768583-a42a-4c11-962a-ea6d409389f8","ios":"levelo://app?vid=6e768583-a42a-4c11-962a-ea6d409389f8"},"vehicle_type_id":"4","last_reported":1774696717,"current_range_meters":4800,"station_id":"ce4bgup2rcd13ifvqco0","pricing_plan_id":"cebpf4jnsgd1na2vs0mg"},{"bike_id":"2873a201-01ad-44f0-a3f4-1c2939d32934","system_id":"levelo_inurba_marseille","lat":43.31544,"lon":5.38011,"is_reserved":false,"is_disabled":false,"rental_uris":{"android":"levelo://app?vid=2873a201-01ad-44f0-a3f4-1c2939d32934","ios":"levelo://app?vid=2873a201-01ad-44f0-a3f4-1c2939d32934"},"vehicle_type_id":"4","last_reported":1774696717,"current_range_meters":5600,"station_id":"ce4bhsp2rcd13ifvqi50","pricing_plan_id":"cebpf4jnsgd1na2vs0mg"},{"bike_id":"d97252d0-3958-45e2-926c-26e2d5f2ad61","system_id":"levelo_inurba_marseille","lat":43.24803,"lon":5.37456,"is_reserved":false,"is_disabled":false,"rental_uris":{"android":"levelo://app?vid=d97252d0-3958-45e2-926c-26e2d5f2ad61","ios":"levelo://app?vid=d97252d0-3958-45e2-926c-26e2d5f2ad61"},"vehicle_type_id":"4","last_reported":1774696717,"current_range_meters":5600,"station_id":"ce4bhgh2rcd13ifvqfb0","pricing_plan_id":"cebpf4jnsgd1na2vs0mg"},{"bike_id":"723c82aa-8db8-4c2b-b552-b5db079fd16a","system_id":"levelo_inurba_marseille","lat":43.29275,"lon":5.37613,"is_reserved":false,"is_disabled":false,"rental_uris":{"android":"levelo://app?vid=723c82aa-8db8-4c2b-b552-b5db079fd16a","ios":"levelo://app?vid=723c82aa-8db8-4c2b-b552-b5db079fd16a"},"vehicle_type_id":"4","last_reported":1774696717,"current_range_meters":5600,"station_id":"ce4bgi12rcd13ifvqb80","pricing_plan_id":"cebpf4jnsgd1na2vs0mg"},{"bike_id":"287a12e3-f8fc-4b7a-96a4-177c53e81cbd","system_id":"levelo_inurba_marseille","lat":43.3096,"lon":5.39022,"is_reserved":false,"is_disabled":false,"rental_uris":{"android":"levelo://app?vid=287a12e3-f8fc-4b7a-96a4-177c53e81cbd","ios":"levelo://app?vid=287a12e3-f8fc-4b7a-96a4-177c53e81cbd"},"vehicle_type_id":"4","last_reported":1774696717,"current_range_meters":5600,"station_id":"ce4bgup2rcd13ifvqco0","pricing_plan_id":"cebpf4jnsgd1na2vs0mg"},{"bike_id":"f967aac8-bff7-4d61-9c8d-307b8d7b6ffd","system_id":"levelo_inurba_marseille","lat":43.25338,"lon":5.42178,"is_reserved":false,"is_disabled":false,"rental_uris":{"android":"levelo://app?vid=f967aac8-bff7-4d61-9c8d-307b8d7b6ffd","ios":"levelo://app?vid=f967aac8-bff7-4d61-9c8d-307b8d7b6ffd"},"vehicle_type_id":"4","last_reported":1774696717,"current_range_meters":6000,"station_id":"st_d2m65c5bi1j21697t3ng","pricing_plan_id":"cebpf4jnsgd1na2vs0mg"},{"bike_id":"d90a3854-1d07-4a6a-91ba-1adecae8695d","system_id":"levelo_inurba_marseille","lat":43.30174,"lon":5.38084,"is_reserved":false,"is_disabled":false,"rental_uris":{"android":"levelo://app?vid=d90a3854-1d07-4a6a-91ba-1adecae8695d","ios":"levelo://app?vid=d90a3854-1d07-4a6a-91ba-1adecae8695d"},"vehicle_type_id":"4","last_reported":1774696717,"current_range_meters":6000,"station_id":"ce4bgjp2rcd13ifvqbh0","pricing_plan_id":"cebpf4jnsgd1na2vs0mg"},{"bike_id":"f8be488e-f724-42ee-95f0-72d9443caec7","system_id":"levelo_inurba_marseille","lat":43.24659,"lon":5.38885,"is_reserved":false,"is_disabled":false,"rental_uris":{"android":"levelo://app?vid=f8be488e-f724-42ee-95f0-72d9443caec7","ios":"levelo://app?vid=f8be488e-f724-42ee-95f0-72d9443caec7"},"vehicle_type_id":"4","last_reported":1774696717,"current_range_meters":6000,"station_id":"ce4bhg12rcd13ifvqf60","pricing_plan_id":"cebpf4jnsgd1na2vs0mg"},{"bike_id":"c9a327ca-3cad-4564-8758-287935ac9a8c","system_id":"levelo_inurba_marseille","lat":43.278376,"lon":5.392086,"is_reserved":false,"is_disabled":false,"rental_uris":{"android":"levelo://app?vid=c9a327ca-3cad-4564-8758-287935ac9a8c","ios":"levelo://app?vid=c9a327ca-3cad-4564-8758-287935ac9a8c"},"vehicle_type_id":"4","last_reported":1774696717,"current_range_meters":6000,"station_id":"ce4bhjp2rcd13ifvqga0","pricing_plan_id":"cebpf4jnsgd1na2vs0mg"},{"bike_id":"271ed5de-512b-41f3-b773-1c3e3bed0b3f","system_id":"levelo_inurba_marseille","lat":43.29548,"lon":5.37502,"is_reserved":false,"is_disabled":false,"rental_uris":{"android":"levelo://app?vid=271ed5de-512b-41f3-b773-1c3e3bed0b3f","ios":"levelo://app?vid=271ed5de-512b-41f3-b773-1c3e3bed0b3f"},"vehicle_type_id":"4","last_reported":1774696717,"current_range_meters":6000,"station_id":"ce4bgkp2rcd13ifvqbmg","pricing_plan_id":"cebpf4jnsgd1na2vs0mg"},{"bike_id":"05ccd438-26e7-4a38-9276-2d0d86dc7956","system_id":"levelo_inurba_marseille","lat":43.24433,"lon":5.37002,"is_reserved":false,"is_disabled":false,"rental_uris":{"android":"levelo://app?vid=05ccd438-26e7-4a38-9276-2d0d86dc7956","ios":"levelo://app?vid=05ccd438-26e7-4a38-9276-2d0d86dc7956"},"vehicle_type_id":"4","last_reported":1774696717,"current_range_meters":6000,"station_id":"","pricing_plan_id":"cebpf4jnsgd1na2vs0mg"},{"bike_id":"75d31b80-4e21-477c-9e82-c4a19e384887","system_id":"levelo_inurba_marseille","lat":43.30605,"lon":5.37224,"is_reserved":false,"is_disabled":true,"rental_uris":{"android":"levelo://app?vid=75d31b80-4e21-477c-9e82-c4a19e384887","ios":"levelo://app?vid=75d31b80-4e21-477c-9e82-c4a19e384887"},"vehicle_type_id":"4","last_reported":1774696717,"current_range_meters":6000,"station_id":"ce4bgqh2rcd13ifvqc4g","pricing_plan_id":"cebpf4jnsgd1na2vs0mg"},{"bike_id":"a48900c5-dcb6-4e31-bcca-4eb461e90243","system_id":"levelo_inurba_marseille","lat":43.28407,"lon":5.35002,"is_reserved":false,"is_disabled":false,"rental_uris":{"android":"levelo://app?vid=a48900c5-dcb6-4e31-bcca-4eb461e90243","ios":"levelo://app?vid=a48900c5-dcb6-4e31-bcca-4eb461e90243"},"vehicle_type_id":"4","last_reported":1774696717,"current_range_meters":6000,"station_id":"ce4bhbh2rcd13ifvqepg","pricing_plan_id":"cebpf4jnsgd1na2vs0mg"},{"bike_id":"ad16e0e9-316b-4e1d-9236-ce2fc9d48f7d","system_id":"levelo_inurba_marseille","lat":43.27839,"lon":5.39205,"is_reserved":false,"is_disabled":false,"rental_uris":{"android":"levelo://app?vid=ad16e0e9-316b-4e1d-9236-ce2fc9d48f7d","ios":"levelo://app?vid=ad16e0e9-316b-4e1d-9236-ce2fc9d48f7d"},"vehicle_type_id":"4","last_reported":1774696717,"current_range_meters":6000,"station_id":"ce4bhjp2rcd13ifvqga0","pricing_plan_id":"cebpf4jnsgd1na2vs0mg"},{"bike_id":"9507e9e8-04c8-4131-8734-9ade96968d8d","system_id":"levelo_inurba_marseille","lat":43.27319,"lon":5.391,"is_reserved":false,"is_disabled":false,"rental_uris":{"android":"levelo://app?vid=9507e9e8-04c8-4131-8734-9ade96968d8d","ios":"levelo://app?vid=9507e9e8-04c8-4131-8734-9ade96968d8d"},"vehicle_type_id":"4","last_reported":1774696717,"current_range_meters":6000,"station_id":"ce4bhgp2rcd13ifvqfe0","pricing_plan_id":"cebpf4jnsgd1na2vs0mg"},{"bike_id":"b51d43d0-b538-4b30-b0d5-e5c1be881443","system_id":"levelo_inurba_marseille","lat":43.28698,"lon":5.4668,"is_reserved":false,"is_disabled":false,"rental_uris":{"android":"levelo://app?vid=b51d43d0-b538-4b30-b0d5-e5c1be881443","ios":"levelo://app?vid=b51d43d0-b538-4b30-b0d5-e5c1be881443"},"vehicle_type_id":"4","last_reported":1774696717,"current_range_meters":6000,"station_id":"st_d6tc3vkotcvc738tfjhg","pricing_plan_id":"cebpf4jnsgd1na2vs0mg"},{"bike_id":"fd3af659-51ba-4401-ae20-05e784454a09","system_id":"levelo_inurba_marseille","lat":43.29802,"lon":5.39341,"is_reserved":false,"is_disabled":false,"rental_uris":{"android":"levelo://app?vid=fd3af659-51ba-4401-ae20-05e784454a09","ios":"levelo://app?vid=fd3af659-51ba-4401-ae20-05e784454a09"},"vehicle_type_id":"4","last_reported":1774696717,"current_range_meters":6400,"station_id":"chh1huq6cuj3fo74tm60","pricing_plan_id":"cebpf4jnsgd1na2vs0mg"},{"bike_id":"296b697a-2efa-4947-b44d-39f64a06b020","system_id":"levelo_inurba_marseille","lat":43.29941,"lon":5.36538,"is_reserved":false,"is_disabled":false,"rental_uris":{"android":"levelo://app?vid=296b697a-2efa-4947-b44d-39f64a06b020","ios":"levelo://app?vid=296b697a-2efa-4947-b44d-39f64a06b020"},"vehicle_type_id":"4","last_reported":1774696717,"current_range_meters":6400,"station_id":"ce4bgm92rcd13ifvqbr0","pricing_plan_id":"cebpf4jnsgd1na2vs0mg"},{"bike_id":"5969c3f9-bb5c-48df-9b54-f62d28d08c6a","system_id":"levelo_inurba_marseille","lat":43.26058,"lon":5.39398,"is_reserved":false,"is_disabled":false,"rental_uris":{"android":"levelo://app?vid=5969c3f9-bb5c-48df-9b54-f62d28d08c6a","ios":"levelo://app?vid=5969c3f9-bb5c-48df-9b54-f62d28d08c6a"},"vehicle_type_id":"4","last_reported":1774696717,"current_range_meters":6400,"station_id":"ce4bhh92rcd13ifvqfj0","pricing_plan_id":"cebpf4jnsgd1na2vs0mg"},{"bike_id":"d7defc4a-7cc8-41aa-8016-5755bc2fcc6a","system_id":"levelo_inurba_marseille","lat":43.311244,"lon":5.396279,"is_reserved":false,"is_disabled":false,"rental_uris":{"android":"levelo://app?vid=d7defc4a-7cc8-41aa-8016-5755bc2fcc6a","ios":"levelo://app?vid=d7defc4a-7cc8-41aa-8016-5755bc2fcc6a"},"vehicle_type_id":"4","last_reported":1774696717,"current_range_meters":6400,"station_id":"ce4bgvp2rcd13ifvqcu0","pricing_plan_id":"cebpf4jnsgd1na2vs0mg"},{"bike_id":"0eac7103-fa91-4cc3-9de1-b4f74d7ff4a0","system_id":"levelo_inurba_marseille","lat":43.2319,"lon":5.39945,"is_reserved":false,"is_disabled":false,"rental_uris":{"android":"levelo://app?vid=0eac7103-fa91-4cc3-9de1-b4f74d7ff4a0","ios":"levelo://app?vid=0eac7103-fa91-4cc3-9de1-b4f74d7ff4a0"},"vehicle_type_id":"4","last_reported":1774696717,"current_range_meters":6400,"station_id":"ce4bhn12rcd13ifvqgqg","pricing_plan_id":"cebpf4jnsgd1na2vs0mg"},{"bike_id":"420f3ba6-d83d-4fa8-8204-e84f8c862df2","system_id":"levelo_inurba_marseille","lat":43.30873,"lon":5.39642,"is_reserved":false,"is_disabled":false,"rental_uris":{"android":"levelo://app?vid=420f3ba6-d83d-4fa8-8204-e84f8c862df2","ios":"levelo://app?vid=420f3ba6-d83d-4fa8-8204-e84f8c862df2"},"vehicle_type_id":"4","last_reported":1774696717,"current_range_meters":6400,"station_id":"ce4bh012rcd13ifvqcv0","pricing_plan_id":"cebpf4jnsgd1na2vs0mg"},{"bike_id":"fedc4f8c-e03d-4ab6-81f2-10b807c9d754","system_id":"levelo_inurba_marseille","lat":43.26203,"lon":5.3746,"is_reserved":false,"is_disabled":false,"rental_uris":{"android":"levelo://app?vid=fedc4f8c-e03d-4ab6-81f2-10b807c9d754","ios":"levelo://app?vid=fedc4f8c-e03d-4ab6-81f2-10b807c9d754"},"vehicle_type_id":"4","last_reported":1774696717,"current_range_meters":6400,"station_id":"ce4bhgp2rcd13ifvqfc0","pricing_plan_id":"cebpf4jnsgd1na2vs0mg"},{"bike_id":"9c448445-1c60-4520-a1cb-98a7a7992b90","system_id":"levelo_inurba_marseille","lat":43.28497,"lon":5.48381,"is_reserved":false,"is_disabled":false,"rental_uris":{"android":"levelo://app?vid=9c448445-1c60-4520-a1cb-98a7a7992b90","ios":"levelo://app?vid=9c448445-1c60-4520-a1cb-98a7a7992b90"},"vehicle_type_id":"4","last_reported":1774696717,"current_range_meters":6400,"station_id":"","pricing_plan_id":"cebpf4jnsgd1na2vs0mg"},{"bike_id":"38a0e605-e352-4916-9b77-35865357e619","system_id":"levelo_inurba_marseille","lat":43.24173,"lon":5.39732,"is_reserved":false,"is_disabled":false,"rental_uris":{"android":"levelo://app?vid=38a0e605-e352-4916-9b77-35865357e619","ios":"levelo://app?vid=38a0e605-e352-4916-9b77-35865357e619"},"vehicle_type_id":"4","last_reported":1774696717,"current_range_meters":6400,"station_id":"ce4bhn12rcd13ifvqgpg","pricing_plan_id":"cebpf4jnsgd1na2vs0mg"},{"bike_id":"c7be885f-618e-433c-a9a5-ad0dc5623f07","system_id":"levelo_inurba_marseille","lat":43.3053,"lon":5.38424,"is_reserved":false,"is_disabled":false,"rental_uris":{"android":"levelo://app?vid=c7be885f-618e-433c-a9a5-ad0dc5623f07","ios":"levelo://app?vid=c7be885f-618e-433c-a9a5-ad0dc5623f07"},"vehicle_type_id":"4","last_reported":1774696717,"current_range_meters":6400,"station_id":"ce4bgg92rcd13ifvqb30","pricing_plan_id":"cebpf4jnsgd1na2vs0mg"},{"bike_id":"2f019591-3087-43f0-affb-e2eede13213e","system_id":"levelo_inurba_marseille","lat":43.24211,"lon":5.36636,"is_reserved":false,"is_disabled":false,"rental_uris":{"android":"levelo://app?vid=2f019591-3087-43f0-affb-e2eede13213e","ios":"levelo://app?vid=2f019591-3087-43f0-affb-e2eede13213e"},"vehicle_type_id":"4","last_reported":1774696717,"current_range_meters":6800,"station_id":"","pricing_plan_id":"cebpf4jnsgd1na2vs0mg"},{"bike_id":"6d1dd35d-1ce3-4297-9706-721b82716928","system_id":"levelo_inurba_marseille","lat":43.23794,"lon":5.36627,"is_reserved":false,"is_disabled":false,"rental_uris":{"android":"levelo://app?vid=6d1dd35d-1ce3-4297-9706-721b82716928","ios":"levelo://app?vid=6d1dd35d-1ce3-4297-9706-721b82716928"},"vehicle_type_id":"4","last_reported":1774696717,"current_range_meters":6800,"station_id":"st_d3nk18o9ro0c73en2l3g","pricing_plan_id":"cebpf4jnsgd1na2vs0mg"},{"bike_id":"4efec0da-f1be-4147-8937-c5fc1bfeb5fb","system_id":"levelo_inurba_marseille","lat":43.30151,"lon":5.38082,"is_reserved":false,"is_disabled":false,"rental_uris":{"android":"levelo://app?vid=4efec0da-f1be-4147-8937-c5fc1bfeb5fb","ios":"levelo://app?vid=4efec0da-f1be-4147-8937-c5fc1bfeb5fb"},"vehicle_type_id":"4","last_reported":1774696717,"current_range_meters":6800,"station_id":"ce4bgjp2rcd13ifvqbh0","pricing_plan_id":"cebpf4jnsgd1na2vs0mg"},{"bike_id":"2cb0ae82-1cb6-4c7f-add6-a204988a4fab","system_id":"levelo_inurba_marseille","lat":43.27973,"lon":5.41641,"is_reserved":false,"is_disabled":false,"rental_uris":{"android":"levelo://app?vid=2cb0ae82-1cb6-4c7f-add6-a204988a4fab","ios":"levelo://app?vid=2cb0ae82-1cb6-4c7f-add6-a204988a4fab"},"vehicle_type_id":"4","last_reported":1774696717,"current_range_meters":6800,"station_id":"ce4bho12rcd13ifvqh1g","pricing_plan_id":"cebpf4jnsgd1na2vs0mg"},{"bike_id":"a5c99d1e-2fca-4c14-bfd2-40e81dbd36ec","system_id":"levelo_inurba_marseille","lat":43.29902,"lon":5.39736,"is_reserved":false,"is_disabled":false,"rental_uris":{"android":"levelo://app?vid=a5c99d1e-2fca-4c14-bfd2-40e81dbd36ec","ios":"levelo://app?vid=a5c99d1e-2fca-4c14-bfd2-40e81dbd36ec"},"vehicle_type_id":"4","last_reported":1774696717,"current_range_meters":6800,"station_id":"ce4bh0h2rcd13ifvqd50","pricing_plan_id":"cebpf4jnsgd1na2vs0mg"},{"bike_id":"f3d47af6-5b42-4057-b9f6-c501bdc25d75","system_id":"levelo_inurba_marseille","lat":43.23377,"lon":5.41256,"is_reserved":false,"is_disabled":false,"rental_uris":{"android":"levelo://app?vid=f3d47af6-5b42-4057-b9f6-c501bdc25d75","ios":"levelo://app?vid=f3d47af6-5b42-4057-b9f6-c501bdc25d75"},"vehicle_type_id":"4","last_reported":1774696717,"current_range_meters":6800,"station_id":"","pricing_plan_id":"cebpf4jnsgd1na2vs0mg"},{"bike_id":"7f5f4a35-fda4-4a33-b7ae-332aa08e4387","system_id":"levelo_inurba_marseille","lat":43.29758,"lon":5.42779,"is_reserved":false,"is_disabled":false,"rental_uris":{"android":"levelo://app?vid=7f5f4a35-fda4-4a33-b7ae-332aa08e4387","ios":"levelo://app?vid=7f5f4a35-fda4-4a33-b7ae-332aa08e4387"},"vehicle_type_id":"4","last_reported":1774696717,"current_range_meters":6800,"station_id":"st_d3md5207bmas73dh9klg","pricing_plan_id":"cebpf4jnsgd1na2vs0mg"},{"bike_id":"29f25cad-4776-4701-95bd-594d7a82b24d","system_id":"levelo_inurba_marseille","lat":43.24805,"lon":5.37463,"is_reserved":false,"is_disabled":false,"rental_uris":{"android":"levelo://app?vid=29f25cad-4776-4701-95bd-594d7a82b24d","ios":"levelo://app?vid=29f25cad-4776-4701-95bd-594d7a82b24d"},"vehicle_type_id":"4","last_reported":1774696717,"current_range_meters":6800,"station_id":"ce4bhgh2rcd13ifvqfb0","pricing_plan_id":"cebpf4jnsgd1na2vs0mg"},{"bike_id":"fbd013e2-8567-4cc4-a7c6-24dd8fd5e924","system_id":"levelo_inurba_marseille","lat":43.29022,"lon":5.3564,"is_reserved":false,"is_disabled":false,"rental_uris":{"android":"levelo://app?vid=fbd013e2-8567-4cc4-a7c6-24dd8fd5e924","ios":"levelo://app?vid=fbd013e2-8567-4cc4-a7c6-24dd8fd5e924"},"vehicle_type_id":"4","last_reported":1774696717,"current_range_meters":6800,"station_id":"ce4bhb92rcd13ifvqen0","pricing_plan_id":"cebpf4jnsgd1na2vs0mg"},{"bike_id":"10da809c-12be-45da-8e9e-104e5b96a48d","system_id":"levelo_inurba_marseille","lat":43.23788,"lon":5.36635,"is_reserved":false,"is_disabled":false,"rental_uris":{"android":"levelo://app?vid=10da809c-12be-45da-8e9e-104e5b96a48d","ios":"levelo://app?vid=10da809c-12be-45da-8e9e-104e5b96a48d"},"vehicle_type_id":"4","last_reported":1774696717,"current_range_meters":6800,"station_id":"st_d3nk18o9ro0c73en2l3g","pricing_plan_id":"cebpf4jnsgd1na2vs0mg"},{"bike_id":"87d30727-3768-4d8e-bf58-70fc68c0feee","system_id":"levelo_inurba_marseille","lat":43.2605,"lon":5.37539,"is_reserved":false,"is_disabled":false,"rental_uris":{"android":"levelo://app?vid=87d30727-3768-4d8e-bf58-70fc68c0feee","ios":"levelo://app?vid=87d30727-3768-4d8e-bf58-70fc68c0feee"},"vehicle_type_id":"4","last_reported":1774696717,"current_range_meters":6800,"station_id":"ce4bhgh2rcd13ifvqfa0","pricing_plan_id":"cebpf4jnsgd1na2vs0mg"},{"bike_id":"ac1a9d6c-17a0-4e01-9607-d886e691e83d","system_id":"levelo_inurba_marseille","lat":43.2439,"lon":5.37068,"is_reserved":false,"is_disabled":false,"rental_uris":{"android":"levelo://app?vid=ac1a9d6c-17a0-4e01-9607-d886e691e83d","ios":"levelo://app?vid=ac1a9d6c-17a0-4e01-9607-d886e691e83d"},"vehicle_type_id":"4","last_reported":1774696717,"current_range_meters":7200,"station_id":"ce4bhhh2rcd13ifvqfk0","pricing_plan_id":"cebpf4jnsgd1na2vs0mg"},{"bike_id":"6d55693b-f207-45a6-8bc4-a39ad3c9ba7a","system_id":"levelo_inurba_marseille","lat":43.26792,"lon":5.3902,"is_reserved":false,"is_disabled":false,"rental_uris":{"android":"levelo://app?vid=6d55693b-f207-45a6-8bc4-a39ad3c9ba7a","ios":"levelo://app?vid=6d55693b-f207-45a6-8bc4-a39ad3c9ba7a"},"vehicle_type_id":"4","last_reported":1774696717,"current_range_meters":7200,"station_id":"","pricing_plan_id":"cebpf4jnsgd1na2vs0mg"},{"bike_id":"2457fc1b-679d-4a71-90e9-ad408ab6ed9d","system_id":"levelo_inurba_marseille","lat":43.33361,"lon":5.37991,"is_reserved":false,"is_disabled":false,"rental_uris":{"android":"levelo://app?vid=2457fc1b-679d-4a71-90e9-ad408ab6ed9d","ios":"levelo://app?vid=2457fc1b-679d-4a71-90e9-ad408ab6ed9d"},"vehicle_type_id":"4","last_reported":1774696717,"current_range_meters":7200,"station_id":"","pricing_plan_id":"cebpf4jnsgd1na2vs0mg"},{"bike_id":"b74978cb-5b51-4041-8c1c-97c8f4ca71d2","system_id":"levelo_inurba_marseille","lat":43.3118,"lon":5.4063,"is_reserved":false,"is_disabled":false,"rental_uris":{"android":"levelo://app?vid=b74978cb-5b51-4041-8c1c-97c8f4ca71d2","ios":"levelo://app?vid=b74978cb-5b51-4041-8c1c-97c8f4ca71d2"},"vehicle_type_id":"4","last_reported":1774696717,"current_range_meters":7200,"station_id":"","pricing_plan_id":"cebpf4jnsgd1na2vs0mg"},{"bike_id":"07c710b3-9945-4c6c-91f1-50f45999e885","system_id":"levelo_inurba_marseille","lat":43.27225,"lon":5.39152,"is_reserved":false,"is_disabled":false,"rental_uris":{"android":"levelo://app?vid=07c710b3-9945-4c6c-91f1-50f45999e885","ios":"levelo://app?vid=07c710b3-9945-4c6c-91f1-50f45999e885"},"vehicle_type_id":"4","last_reported":1774696717,"current_range_meters":7200,"station_id":"ce4bhhp2rcd13ifvqfm0","pricing_plan_id":"cebpf4jnsgd1na2vs0mg"},{"bike_id":"b32abf92-34d2-44a0-8754-9ed7ce20c3c3","system_id":"levelo_inurba_marseille","lat":43.29729,"lon":5.3769,"is_reserved":false,"is_disabled":false,"rental_uris":{"android":"levelo://app?vid=b32abf92-34d2-44a0-8754-9ed7ce20c3c3","ios":"levelo://app?vid=b32abf92-34d2-44a0-8754-9ed7ce20c3c3"},"vehicle_type_id":"4","last_reported":1774696717,"current_range_meters":7200,"station_id":"ce4bgkh2rcd13ifvqbl0","pricing_plan_id":"cebpf4jnsgd1na2vs0mg"},{"bike_id":"3cf37742-558c-4f25-9c21-256b80b90180","system_id":"levelo_inurba_marseille","lat":43.29214,"lon":5.36058,"is_reserved":false,"is_disabled":false,"rental_uris":{"android":"levelo://app?vid=3cf37742-558c-4f25-9c21-256b80b90180","ios":"levelo://app?vid=3cf37742-558c-4f25-9c21-256b80b90180"},"vehicle_type_id":"4","last_reported":1774696717,"current_range_meters":7200,"station_id":"ce4bhbh2rcd13ifvqeqg","pricing_plan_id":"cebpf4jnsgd1na2vs0mg"},{"bike_id":"e7d5f1be-7476-4f24-bd62-a1e0855f1771","system_id":"levelo_inurba_marseille","lat":43.21745,"lon":5.34604,"is_reserved":false,"is_disabled":false,"rental_uris":{"android":"levelo://app?vid=e7d5f1be-7476-4f24-bd62-a1e0855f1771","ios":"levelo://app?vid=e7d5f1be-7476-4f24-bd62-a1e0855f1771"},"vehicle_type_id":"4","last_reported":1774696717,"current_range_meters":7200,"station_id":"st_cvj6r9ubvosntc0bgbag","pricing_plan_id":"cebpf4jnsgd1na2vs0mg"},{"bike_id":"73a54e71-370e-4d19-a1bc-177bfc225d49","system_id":"levelo_inurba_marseille","lat":43.22939,"lon":5.35372,"is_reserved":false,"is_disabled":false,"rental_uris":{"android":"levelo://app?vid=73a54e71-370e-4d19-a1bc-177bfc225d49","ios":"levelo://app?vid=73a54e71-370e-4d19-a1bc-177bfc225d49"},"vehicle_type_id":"4","last_reported":1774696717,"current_range_meters":7200,"station_id":"cpo3532slgdg3j2ikp40","pricing_plan_id":"cebpf4jnsgd1na2vs0mg"},{"bike_id":"13491282-c3f0-44c1-8b91-a3d0d0292c89","system_id":"levelo_inurba_marseille","lat":43.27317,"lon":5.39135,"is_reserved":false,"is_disabled":false,"rental_uris":{"android":"levelo://app?vid=13491282-c3f0-44c1-8b91-a3d0d0292c89","ios":"levelo://app?vid=13491282-c3f0-44c1-8b91-a3d0d0292c89"},"vehicle_type_id":"4","last_reported":1774696717,"current_range_meters":7200,"station_id":"","pricing_plan_id":"cebpf4jnsgd1na2vs0mg"},{"bike_id":"a0e1fe6f-1b0c-4b69-b699-3f3295a2fce0","system_id":"levelo_inurba_marseille","lat":43.28419,"lon":5.35005,"is_reserved":false,"is_disabled":false,"rental_uris":{"android":"levelo://app?vid=a0e1fe6f-1b0c-4b69-b699-3f3295a2fce0","ios":"levelo://app?vid=a0e1fe6f-1b0c-4b69-b699-3f3295a2fce0"},"vehicle_type_id":"4","last_reported":1774696717,"current_range_meters":8000,"station_id":"ce4bhbh2rcd13ifvqepg","pricing_plan_id":"cebpf4jnsgd1na2vs0mg"},{"bike_id":"edac6523-df16-47dc-adeb-975cdf805ce1","system_id":"levelo_inurba_marseille","lat":43.26628,"lon":5.39059,"is_reserved":false,"is_disabled":false,"rental_uris":{"android":"levelo://app?vid=edac6523-df16-47dc-adeb-975cdf805ce1","ios":"levelo://app?vid=edac6523-df16-47dc-adeb-975cdf805ce1"},"vehicle_type_id":"4","last_reported":1774696717,"current_range_meters":8000,"station_id":"","pricing_plan_id":"cebpf4jnsgd1na2vs0mg"},{"bike_id":"7447f951-bc69-4c64-9c71-28a692e539e2","system_id":"levelo_inurba_marseille","lat":43.28487,"lon":5.38553,"is_reserved":false,"is_disabled":false,"rental_uris":{"android":"levelo://app?vid=7447f951-bc69-4c64-9c71-28a692e539e2","ios":"levelo://app?vid=7447f951-bc69-4c64-9c71-28a692e539e2"},"vehicle_type_id":"4","last_reported":1774696717,"current_range_meters":8000,"station_id":"ce4bh8p2rcd13ifvqeb0","pricing_plan_id":"cebpf4jnsgd1na2vs0mg"},{"bike_id":"ccae95a5-965a-472f-8138-32ecadf6ef35","system_id":"levelo_inurba_marseille","lat":43.25336,"lon":5.42173,"is_reserved":false,"is_disabled":false,"rental_uris":{"android":"levelo://app?vid=ccae95a5-965a-472f-8138-32ecadf6ef35","ios":"levelo://app?vid=ccae95a5-965a-472f-8138-32ecadf6ef35"},"vehicle_type_id":"4","last_reported":1774696717,"current_range_meters":8000,"station_id":"st_d2m65c5bi1j21697t3ng","pricing_plan_id":"cebpf4jnsgd1na2vs0mg"},{"bike_id":"28483bf5-dea0-476c-af06-fd95f4e48f8f","system_id":"levelo_inurba_marseille","lat":43.33469,"lon":5.36368,"is_reserved":false,"is_disabled":false,"rental_uris":{"android":"levelo://app?vid=28483bf5-dea0-476c-af06-fd95f4e48f8f","ios":"levelo://app?vid=28483bf5-dea0-476c-af06-fd95f4e48f8f"},"vehicle_type_id":"4","last_reported":1774696717,"current_range_meters":8000,"station_id":"","pricing_plan_id":"cebpf4jnsgd1na2vs0mg"},{"bike_id":"2d5262be-582c-4d87-a7a2-b4c3f4ed4d38","system_id":"levelo_inurba_marseille","lat":43.22561,"lon":5.41628,"is_reserved":false,"is_disabled":false,"rental_uris":{"android":"levelo://app?vid=2d5262be-582c-4d87-a7a2-b4c3f4ed4d38","ios":"levelo://app?vid=2d5262be-582c-4d87-a7a2-b4c3f4ed4d38"},"vehicle_type_id":"4","last_reported":1774696717,"current_range_meters":8000,"station_id":"st_d2o4gvlbi1j2169b742g","pricing_plan_id":"cebpf4jnsgd1na2vs0mg"},{"bike_id":"e9b8ad5b-1d5b-4488-b88b-9400678d2ccf","system_id":"levelo_inurba_marseille","lat":43.27562,"lon":5.3843,"is_reserved":false,"is_disabled":false,"rental_uris":{"android":"levelo://app?vid=e9b8ad5b-1d5b-4488-b88b-9400678d2ccf","ios":"levelo://app?vid=e9b8ad5b-1d5b-4488-b88b-9400678d2ccf"},"vehicle_type_id":"4","last_reported":1774696717,"current_range_meters":8000,"station_id":"ce4bhh92rcd13ifvqfi0","pricing_plan_id":"cebpf4jnsgd1na2vs0mg"},{"bike_id":"3e80a70b-d902-4f38-bb78-001cfd129e63","system_id":"levelo_inurba_marseille","lat":43.28403,"lon":5.3499,"is_reserved":false,"is_disabled":false,"rental_uris":{"android":"levelo://app?vid=3e80a70b-d902-4f38-bb78-001cfd129e63","ios":"levelo://app?vid=3e80a70b-d902-4f38-bb78-001cfd129e63"},"vehicle_type_id":"4","last_reported":1774696717,"current_range_meters":8000,"station_id":"ce4bhbh2rcd13ifvqepg","pricing_plan_id":"cebpf4jnsgd1na2vs0mg"},{"bike_id":"c7af05b3-4ddb-499c-ae8b-c6fd8683ba94","system_id":"levelo_inurba_marseille","lat":43.29555,"lon":5.3835,"is_reserved":false,"is_disabled":false,"rental_uris":{"android":"levelo://app?vid=c7af05b3-4ddb-499c-ae8b-c6fd8683ba94","ios":"levelo://app?vid=c7af05b3-4ddb-499c-ae8b-c6fd8683ba94"},"vehicle_type_id":"4","last_reported":1774696717,"current_range_meters":8000,"station_id":"","pricing_plan_id":"cebpf4jnsgd1na2vs0mg"},{"bike_id":"cdf98d64-aa0d-48b2-8b11-7a5a0bf09ab0","system_id":"levelo_inurba_marseille","lat":43.26205,"lon":5.3744,"is_reserved":false,"is_disabled":false,"rental_uris":{"android":"levelo://app?vid=cdf98d64-aa0d-48b2-8b11-7a5a0bf09ab0","ios":"levelo://app?vid=cdf98d64-aa0d-48b2-8b11-7a5a0bf09ab0"},"vehicle_type_id":"4","last_reported":1774696717,"current_range_meters":8000,"station_id":"ce4bhgp2rcd13ifvqfc0","pricing_plan_id":"cebpf4jnsgd1na2vs0mg"},{"bike_id":"e8df83cf-6381-4e7e-9379-074a8e881801","system_id":"levelo_inurba_marseille","lat":43.31889,"lon":5.36804,"is_reserved":false,"is_disabled":false,"rental_uris":{"android":"levelo://app?vid=e8df83cf-6381-4e7e-9379-074a8e881801","ios":"levelo://app?vid=e8df83cf-6381-4e7e-9379-074a8e881801"},"vehicle_type_id":"4","last_reported":1774696717,"current_range_meters":8000,"station_id":"st_d6o2h0d0559c73evc1b0","pricing_plan_id":"cebpf4jnsgd1na2vs0mg"},{"bike_id":"13735fc1-0a7f-42b2-b845-63ef8bf27e2a","system_id":"levelo_inurba_marseille","lat":43.24666,"lon":5.38143,"is_reserved":false,"is_disabled":false,"rental_uris":{"android":"levelo://app?vid=13735fc1-0a7f-42b2-b845-63ef8bf27e2a","ios":"levelo://app?vid=13735fc1-0a7f-42b2-b845-63ef8bf27e2a"},"vehicle_type_id":"4","last_reported":1774696717,"current_range_meters":8000,"station_id":"ce4bhih2rcd13ifvqfr0","pricing_plan_id":"cebpf4jnsgd1na2vs0mg"},{"bike_id":"5ab03ea5-7905-417c-b6b3-119dce3370ce","system_id":"levelo_inurba_marseille","lat":43.24801,"lon":5.3746,"is_reserved":false,"is_disabled":false,"rental_uris":{"android":"levelo://app?vid=5ab03ea5-7905-417c-b6b3-119dce3370ce","ios":"levelo://app?vid=5ab03ea5-7905-417c-b6b3-119dce3370ce"},"vehicle_type_id":"4","last_reported":1774696717,"current_range_meters":8000,"station_id":"","pricing_plan_id":"cebpf4jnsgd1na2vs0mg"},{"bike_id":"7107189a-048a-4ade-b825-1480fdfeac35","system_id":"levelo_inurba_marseille","lat":43.28487,"lon":5.38397,"is_reserved":false,"is_disabled":false,"rental_uris":{"android":"levelo://app?vid=7107189a-048a-4ade-b825-1480fdfeac35","ios":"levelo://app?vid=7107189a-048a-4ade-b825-1480fdfeac35"},"vehicle_type_id":"4","last_reported":1774696717,"current_range_meters":8400,"station_id":"ce4bh512rcd13ifvqe3g","pricing_plan_id":"cebpf4jnsgd1na2vs0mg"},{"bike_id":"ee81152f-f51d-4023-8048-331cef0cd43a","system_id":"levelo_inurba_marseille","lat":43.28828,"lon":5.35833,"is_reserved":false,"is_disabled":false,"rental_uris":{"android":"levelo://app?vid=ee81152f-f51d-4023-8048-331cef0cd43a","ios":"levelo://app?vid=ee81152f-f51d-4023-8048-331cef0cd43a"},"vehicle_type_id":"4","last_reported":1774696717,"current_range_meters":8400,"station_id":"ce4bhb12rcd13ifvqem0","pricing_plan_id":"cebpf4jnsgd1na2vs0mg"},{"bike_id":"899c9f36-9b83-4ce9-bd7d-0f95dd541b6a","system_id":"levelo_inurba_marseille","lat":43.32347,"lon":5.36743,"is_reserved":false,"is_disabled":false,"rental_uris":{"android":"levelo://app?vid=899c9f36-9b83-4ce9-bd7d-0f95dd541b6a","ios":"levelo://app?vid=899c9f36-9b83-4ce9-bd7d-0f95dd541b6a"},"vehicle_type_id":"4","last_reported":1774696717,"current_range_meters":8400,"station_id":"ce4bhsh2rcd13ifvqi2g","pricing_plan_id":"cebpf4jnsgd1na2vs0mg"},{"bike_id":"c420f719-a4cc-4702-b6da-68e6d0f37e6c","system_id":"levelo_inurba_marseille","lat":43.28516,"lon":5.44104,"is_reserved":false,"is_disabled":false,"rental_uris":{"android":"levelo://app?vid=c420f719-a4cc-4702-b6da-68e6d0f37e6c","ios":"levelo://app?vid=c420f719-a4cc-4702-b6da-68e6d0f37e6c"},"vehicle_type_id":"4","last_reported":1774696717,"current_range_meters":8400,"station_id":"st_d3j3df2ikq2c7380ej80","pricing_plan_id":"cebpf4jnsgd1na2vs0mg"},{"bike_id":"5afc8403-6d30-4cf0-9969-def159c6d031","system_id":"levelo_inurba_marseille","lat":43.2438,"lon":5.37054,"is_reserved":false,"is_disabled":false,"rental_uris":{"android":"levelo://app?vid=5afc8403-6d30-4cf0-9969-def159c6d031","ios":"levelo://app?vid=5afc8403-6d30-4cf0-9969-def159c6d031"},"vehicle_type_id":"4","last_reported":1774696717,"current_range_meters":8400,"station_id":"ce4bhhh2rcd13ifvqfk0","pricing_plan_id":"cebpf4jnsgd1na2vs0mg"},{"bike_id":"5e64853c-8604-4bf3-8ba7-e6a44f5c4468","system_id":"levelo_inurba_marseille","lat":43.27997,"lon":5.40011,"is_reserved":false,"is_disabled":false,"rental_uris":{"android":"levelo://app?vid=5e64853c-8604-4bf3-8ba7-e6a44f5c4468","ios":"levelo://app?vid=5e64853c-8604-4bf3-8ba7-e6a44f5c4468"},"vehicle_type_id":"4","last_reported":1774696717,"current_range_meters":8400,"station_id":"ce4bho92rcd13ifvqh4g","pricing_plan_id":"cebpf4jnsgd1na2vs0mg"},{"bike_id":"0c2c994c-f14a-4957-8502-3656740281f4","system_id":"levelo_inurba_marseille","lat":43.24685,"lon":5.38119,"is_reserved":false,"is_disabled":false,"rental_uris":{"android":"levelo://app?vid=0c2c994c-f14a-4957-8502-3656740281f4","ios":"levelo://app?vid=0c2c994c-f14a-4957-8502-3656740281f4"},"vehicle_type_id":"4","last_reported":1774696717,"current_range_meters":8400,"station_id":"ce4bhih2rcd13ifvqfr0","pricing_plan_id":"cebpf4jnsgd1na2vs0mg"},{"bike_id":"204b948f-70fe-4193-81e9-e85160b5b49d","system_id":"levelo_inurba_marseille","lat":43.32488,"lon":5.3827,"is_reserved":false,"is_disabled":false,"rental_uris":{"android":"levelo://app?vid=204b948f-70fe-4193-81e9-e85160b5b49d","ios":"levelo://app?vid=204b948f-70fe-4193-81e9-e85160b5b49d"},"vehicle_type_id":"4","last_reported":1774696717,"current_range_meters":8400,"station_id":"st_d4asgbiv49dc73anf9m0","pricing_plan_id":"cebpf4jnsgd1na2vs0mg"},{"bike_id":"90c15f16-09d2-4a6e-8250-7d3e92650f9b","system_id":"levelo_inurba_marseille","lat":43.26207,"lon":5.37445,"is_reserved":false,"is_disabled":false,"rental_uris":{"android":"levelo://app?vid=90c15f16-09d2-4a6e-8250-7d3e92650f9b","ios":"levelo://app?vid=90c15f16-09d2-4a6e-8250-7d3e92650f9b"},"vehicle_type_id":"4","last_reported":1774696717,"current_range_meters":8400,"station_id":"ce4bhgp2rcd13ifvqfc0","pricing_plan_id":"cebpf4jnsgd1na2vs0mg"},{"bike_id":"915ccf51-81c4-4a81-94b6-b9522edf5a8e","system_id":"levelo_inurba_marseille","lat":43.32649,"lon":5.40973,"is_reserved":false,"is_disabled":false,"rental_uris":{"android":"levelo://app?vid=915ccf51-81c4-4a81-94b6-b9522edf5a8e","ios":"levelo://app?vid=915ccf51-81c4-4a81-94b6-b9522edf5a8e"},"vehicle_type_id":"4","last_reported":1774696717,"current_range_meters":8400,"station_id":"ce4bhpp2rcd13ifvqhgg","pricing_plan_id":"cebpf4jnsgd1na2vs0mg"},{"bike_id":"caf9ab72-72af-4e33-973e-e9759d110d7a","system_id":"levelo_inurba_marseille","lat":43.28464,"lon":5.35875,"is_reserved":false,"is_disabled":false,"rental_uris":{"android":"levelo://app?vid=caf9ab72-72af-4e33-973e-e9759d110d7a","ios":"levelo://app?vid=caf9ab72-72af-4e33-973e-e9759d110d7a"},"vehicle_type_id":"4","last_reported":1774696717,"current_range_meters":8400,"station_id":"ce4bhah2rcd13ifvqei0","pricing_plan_id":"cebpf4jnsgd1na2vs0mg"},{"bike_id":"ffcc8c3f-36dc-4229-8354-ca58a927c0fa","system_id":"levelo_inurba_marseille","lat":43.25489,"lon":5.37653,"is_reserved":false,"is_disabled":false,"rental_uris":{"android":"levelo://app?vid=ffcc8c3f-36dc-4229-8354-ca58a927c0fa","ios":"levelo://app?vid=ffcc8c3f-36dc-4229-8354-ca58a927c0fa"},"vehicle_type_id":"4","last_reported":1774696717,"current_range_meters":8400,"station_id":"ce4bhh12rcd13ifvqff0","pricing_plan_id":"cebpf4jnsgd1na2vs0mg"},{"bike_id":"ef3d2908-5f04-46b3-8950-985b7bd33bee","system_id":"levelo_inurba_marseille","lat":43.28618,"lon":5.35089,"is_reserved":false,"is_disabled":false,"rental_uris":{"android":"levelo://app?vid=ef3d2908-5f04-46b3-8950-985b7bd33bee","ios":"levelo://app?vid=ef3d2908-5f04-46b3-8950-985b7bd33bee"},"vehicle_type_id":"4","last_reported":1774696717,"current_range_meters":8400,"station_id":"ce4bhch2rcd13ifvqeug","pricing_plan_id":"cebpf4jnsgd1na2vs0mg"},{"bike_id":"520303ea-3d98-4cf2-b3e4-219d6bfc14f1","system_id":"levelo_inurba_marseille","lat":43.2481,"lon":5.37444,"is_reserved":false,"is_disabled":false,"rental_uris":{"android":"levelo://app?vid=520303ea-3d98-4cf2-b3e4-219d6bfc14f1","ios":"levelo://app?vid=520303ea-3d98-4cf2-b3e4-219d6bfc14f1"},"vehicle_type_id":"4","last_reported":1774696717,"current_range_meters":8400,"station_id":"ce4bhgh2rcd13ifvqfb0","pricing_plan_id":"cebpf4jnsgd1na2vs0mg"},{"bike_id":"7df60a87-2a7d-4361-b0c6-9e03028d7a7f","system_id":"levelo_inurba_marseille","lat":43.29873,"lon":5.36301,"is_reserved":false,"is_disabled":false,"rental_uris":{"android":"levelo://app?vid=7df60a87-2a7d-4361-b0c6-9e03028d7a7f","ios":"levelo://app?vid=7df60a87-2a7d-4361-b0c6-9e03028d7a7f"},"vehicle_type_id":"4","last_reported":1774696717,"current_range_meters":8400,"station_id":"ce4bgpp2rcd13ifvqc3g","pricing_plan_id":"cebpf4jnsgd1na2vs0mg"},{"bike_id":"ccd64e49-79f3-4219-a96e-d5e4330d2c2d","system_id":"levelo_inurba_marseille","lat":43.24391,"lon":5.37065,"is_reserved":false,"is_disabled":false,"rental_uris":{"android":"levelo://app?vid=ccd64e49-79f3-4219-a96e-d5e4330d2c2d","ios":"levelo://app?vid=ccd64e49-79f3-4219-a96e-d5e4330d2c2d"},"vehicle_type_id":"4","last_reported":1774696717,"current_range_meters":8400,"station_id":"ce4bhhh2rcd13ifvqfk0","pricing_plan_id":"cebpf4jnsgd1na2vs0mg"},{"bike_id":"4f5cf7ef-ddb5-4d25-9c0b-bec33f5f4447","system_id":"levelo_inurba_marseille","lat":43.30882,"lon":5.3684,"is_reserved":false,"is_disabled":false,"rental_uris":{"android":"levelo://app?vid=4f5cf7ef-ddb5-4d25-9c0b-bec33f5f4447","ios":"levelo://app?vid=4f5cf7ef-ddb5-4d25-9c0b-bec33f5f4447"},"vehicle_type_id":"4","last_reported":1774696717,"current_range_meters":8400,"station_id":"ce4bgn92rcd13ifvqbvg","pricing_plan_id":"cebpf4jnsgd1na2vs0mg"},{"bike_id":"c5ffcb6e-94c8-46bc-bcbe-82a7f99bb502","system_id":"levelo_inurba_marseille","lat":43.27791,"lon":5.39241,"is_reserved":false,"is_disabled":true,"rental_uris":{"android":"levelo://app?vid=c5ffcb6e-94c8-46bc-bcbe-82a7f99bb502","ios":"levelo://app?vid=c5ffcb6e-94c8-46bc-bcbe-82a7f99bb502"},"vehicle_type_id":"4","last_reported":1774696717,"current_range_meters":8800,"station_id":"ce4bhjp2rcd13ifvqga0","pricing_plan_id":"cebpf4jnsgd1na2vs0mg"},{"bike_id":"c82691aa-ba67-49e2-8ab8-9f87a1546b96","system_id":"levelo_inurba_marseille","lat":43.23191,"lon":5.35564,"is_reserved":false,"is_disabled":false,"rental_uris":{"android":"levelo://app?vid=c82691aa-ba67-49e2-8ab8-9f87a1546b96","ios":"levelo://app?vid=c82691aa-ba67-49e2-8ab8-9f87a1546b96"},"vehicle_type_id":"4","last_reported":1774696717,"current_range_meters":8800,"station_id":"ce4bhu92rcd13ifvqi70","pricing_plan_id":"cebpf4jnsgd1na2vs0mg"},{"bike_id":"44b061ea-ac90-4ccb-8d43-7cab8ff1f0e0","system_id":"levelo_inurba_marseille","lat":43.26057,"lon":5.39397,"is_reserved":false,"is_disabled":false,"rental_uris":{"android":"levelo://app?vid=44b061ea-ac90-4ccb-8d43-7cab8ff1f0e0","ios":"levelo://app?vid=44b061ea-ac90-4ccb-8d43-7cab8ff1f0e0"},"vehicle_type_id":"4","last_reported":1774696717,"current_range_meters":8800,"station_id":"ce4bhh92rcd13ifvqfj0","pricing_plan_id":"cebpf4jnsgd1na2vs0mg"},{"bike_id":"92cb4986-12bc-44d4-ad49-496427bf2b45","system_id":"levelo_inurba_marseille","lat":43.28531,"lon":5.44101,"is_reserved":false,"is_disabled":false,"rental_uris":{"android":"levelo://app?vid=92cb4986-12bc-44d4-ad49-496427bf2b45","ios":"levelo://app?vid=92cb4986-12bc-44d4-ad49-496427bf2b45"},"vehicle_type_id":"4","last_reported":1774696717,"current_range_meters":8800,"station_id":"st_d3j3df2ikq2c7380ej80","pricing_plan_id":"cebpf4jnsgd1na2vs0mg"},{"bike_id":"9dade67d-7cf5-4997-8f38-0c3a161095aa","system_id":"levelo_inurba_marseille","lat":43.29621,"lon":5.37736,"is_reserved":false,"is_disabled":false,"rental_uris":{"android":"levelo://app?vid=9dade67d-7cf5-4997-8f38-0c3a161095aa","ios":"levelo://app?vid=9dade67d-7cf5-4997-8f38-0c3a161095aa"},"vehicle_type_id":"4","last_reported":1774696717,"current_range_meters":8800,"station_id":"ce4bgi92rcd13ifvqb90","pricing_plan_id":"cebpf4jnsgd1na2vs0mg"},{"bike_id":"6627d87e-d8cc-4315-9870-c98a872f12b5","system_id":"levelo_inurba_marseille","lat":43.2467,"lon":5.38173,"is_reserved":false,"is_disabled":false,"rental_uris":{"android":"levelo://app?vid=6627d87e-d8cc-4315-9870-c98a872f12b5","ios":"levelo://app?vid=6627d87e-d8cc-4315-9870-c98a872f12b5"},"vehicle_type_id":"4","last_reported":1774696717,"current_range_meters":8800,"station_id":"ce4bhih2rcd13ifvqfr0","pricing_plan_id":"cebpf4jnsgd1na2vs0mg"},{"bike_id":"1fce7f1d-4e59-45d5-ad05-440b881821b7","system_id":"levelo_inurba_marseille","lat":43.23787,"lon":5.36634,"is_reserved":false,"is_disabled":false,"rental_uris":{"android":"levelo://app?vid=1fce7f1d-4e59-45d5-ad05-440b881821b7","ios":"levelo://app?vid=1fce7f1d-4e59-45d5-ad05-440b881821b7"},"vehicle_type_id":"4","last_reported":1774696717,"current_range_meters":8800,"station_id":"st_d3nk18o9ro0c73en2l3g","pricing_plan_id":"cebpf4jnsgd1na2vs0mg"},{"bike_id":"ceafad9d-a500-41ad-9e31-0938466572d1","system_id":"levelo_inurba_marseille","lat":43.32359,"lon":5.38886,"is_reserved":false,"is_disabled":false,"rental_uris":{"android":"levelo://app?vid=ceafad9d-a500-41ad-9e31-0938466572d1","ios":"levelo://app?vid=ceafad9d-a500-41ad-9e31-0938466572d1"},"vehicle_type_id":"4","last_reported":1774696717,"current_range_meters":8800,"station_id":"ce4bhqp2rcd13ifvqhog","pricing_plan_id":"cebpf4jnsgd1na2vs0mg"},{"bike_id":"7694298c-2292-44dc-9958-896e83a49e9b","system_id":"levelo_inurba_marseille","lat":43.24164,"lon":5.39042,"is_reserved":false,"is_disabled":false,"rental_uris":{"android":"levelo://app?vid=7694298c-2292-44dc-9958-896e83a49e9b","ios":"levelo://app?vid=7694298c-2292-44dc-9958-896e83a49e9b"},"vehicle_type_id":"4","last_reported":1774696717,"current_range_meters":8800,"station_id":"","pricing_plan_id":"cebpf4jnsgd1na2vs0mg"},{"bike_id":"12488bcd-f657-4fc9-87f8-f43882934515","system_id":"levelo_inurba_marseille","lat":43.28465,"lon":5.35868,"is_reserved":false,"is_disabled":false,"rental_uris":{"android":"levelo://app?vid=12488bcd-f657-4fc9-87f8-f43882934515","ios":"levelo://app?vid=12488bcd-f657-4fc9-87f8-f43882934515"},"vehicle_type_id":"4","last_reported":1774696717,"current_range_meters":8800,"station_id":"ce4bhah2rcd13ifvqei0","pricing_plan_id":"cebpf4jnsgd1na2vs0mg"},{"bike_id":"b3a6093d-605c-45bd-8ebd-6de41730fefa","system_id":"levelo_inurba_marseille","lat":43.29029,"lon":5.38647,"is_reserved":false,"is_disabled":false,"rental_uris":{"android":"levelo://app?vid=b3a6093d-605c-45bd-8ebd-6de41730fefa","ios":"levelo://app?vid=b3a6093d-605c-45bd-8ebd-6de41730fefa"},"vehicle_type_id":"4","last_reported":1774696717,"current_range_meters":8800,"station_id":"ce4bh4p2rcd13ifvqe0g","pricing_plan_id":"cebpf4jnsgd1na2vs0mg"},{"bike_id":"a6629853-4401-41ed-b4ef-0984124fa193","system_id":"levelo_inurba_marseille","lat":43.30137,"lon":5.38119,"is_reserved":false,"is_disabled":false,"rental_uris":{"android":"levelo://app?vid=a6629853-4401-41ed-b4ef-0984124fa193","ios":"levelo://app?vid=a6629853-4401-41ed-b4ef-0984124fa193"},"vehicle_type_id":"4","last_reported":1774696717,"current_range_meters":8800,"station_id":"ce4bgjp2rcd13ifvqbh0","pricing_plan_id":"cebpf4jnsgd1na2vs0mg"},{"bike_id":"0e2631b5-70cd-4e46-8aed-f2daa2733079","system_id":"levelo_inurba_marseille","lat":43.24391,"lon":5.37074,"is_reserved":false,"is_disabled":false,"rental_uris":{"android":"levelo://app?vid=0e2631b5-70cd-4e46-8aed-f2daa2733079","ios":"levelo://app?vid=0e2631b5-70cd-4e46-8aed-f2daa2733079"},"vehicle_type_id":"4","last_reported":1774696717,"current_range_meters":8800,"station_id":"ce4bhhh2rcd13ifvqfk0","pricing_plan_id":"cebpf4jnsgd1na2vs0mg"},{"bike_id":"cee8348c-7240-47b5-8572-10991075abde","system_id":"levelo_inurba_marseille","lat":43.31265,"lon":5.40183,"is_reserved":false,"is_disabled":false,"rental_uris":{"android":"levelo://app?vid=cee8348c-7240-47b5-8572-10991075abde","ios":"levelo://app?vid=cee8348c-7240-47b5-8572-10991075abde"},"vehicle_type_id":"4","last_reported":1774696717,"current_range_meters":8800,"station_id":"ce4bh092rcd13ifvqd30","pricing_plan_id":"cebpf4jnsgd1na2vs0mg"},{"bike_id":"67c1c6e6-4211-4250-be02-a52880e1c23a","system_id":"levelo_inurba_marseille","lat":43.26512,"lon":5.40709,"is_reserved":false,"is_disabled":false,"rental_uris":{"android":"levelo://app?vid=67c1c6e6-4211-4250-be02-a52880e1c23a","ios":"levelo://app?vid=67c1c6e6-4211-4250-be02-a52880e1c23a"},"vehicle_type_id":"4","last_reported":1774696717,"current_range_meters":8800,"station_id":"","pricing_plan_id":"cebpf4jnsgd1na2vs0mg"},{"bike_id":"677493f3-7303-4fc2-9fec-01d593422872","system_id":"levelo_inurba_marseille","lat":43.28687,"lon":5.38653,"is_reserved":false,"is_disabled":false,"rental_uris":{"android":"levelo://app?vid=677493f3-7303-4fc2-9fec-01d593422872","ios":"levelo://app?vid=677493f3-7303-4fc2-9fec-01d593422872"},"vehicle_type_id":"4","last_reported":1774696717,"current_range_meters":8800,"station_id":"ce4bh492rcd13ifvqdug","pricing_plan_id":"cebpf4jnsgd1na2vs0mg"},{"bike_id":"38a4770b-aa61-4e1e-82ea-9b5ee50912c9","system_id":"levelo_inurba_marseille","lat":43.26218,"lon":5.37438,"is_reserved":false,"is_disabled":false,"rental_uris":{"android":"levelo://app?vid=38a4770b-aa61-4e1e-82ea-9b5ee50912c9","ios":"levelo://app?vid=38a4770b-aa61-4e1e-82ea-9b5ee50912c9"},"vehicle_type_id":"4","last_reported":1774696717,"current_range_meters":9200,"station_id":"ce4bhgp2rcd13ifvqfc0","pricing_plan_id":"cebpf4jnsgd1na2vs0mg"},{"bike_id":"36141db5-b3a5-4009-8266-2dd4f38320ae","system_id":"levelo_inurba_marseille","lat":43.23767,"lon":5.36621,"is_reserved":false,"is_disabled":false,"rental_uris":{"android":"levelo://app?vid=36141db5-b3a5-4009-8266-2dd4f38320ae","ios":"levelo://app?vid=36141db5-b3a5-4009-8266-2dd4f38320ae"},"vehicle_type_id":"4","last_reported":1774696717,"current_range_meters":9200,"station_id":"st_d3nk18o9ro0c73en2l3g","pricing_plan_id":"cebpf4jnsgd1na2vs0mg"},{"bike_id":"b1e731c5-a019-40fb-b94c-b458e0eddb64","system_id":"levelo_inurba_marseille","lat":43.23805,"lon":5.38602,"is_reserved":false,"is_disabled":false,"rental_uris":{"android":"levelo://app?vid=b1e731c5-a019-40fb-b94c-b458e0eddb64","ios":"levelo://app?vid=b1e731c5-a019-40fb-b94c-b458e0eddb64"},"vehicle_type_id":"4","last_reported":1774696717,"current_range_meters":9200,"station_id":"","pricing_plan_id":"cebpf4jnsgd1na2vs0mg"},{"bike_id":"1ee7715b-73b9-4e2e-aa2b-b18556ee2189","system_id":"levelo_inurba_marseille","lat":43.24395,"lon":5.37051,"is_reserved":false,"is_disabled":false,"rental_uris":{"android":"levelo://app?vid=1ee7715b-73b9-4e2e-aa2b-b18556ee2189","ios":"levelo://app?vid=1ee7715b-73b9-4e2e-aa2b-b18556ee2189"},"vehicle_type_id":"4","last_reported":1774696717,"current_range_meters":9200,"station_id":"ce4bhhh2rcd13ifvqfk0","pricing_plan_id":"cebpf4jnsgd1na2vs0mg"},{"bike_id":"883dc76f-ea39-4856-ad3f-83646c0ba349","system_id":"levelo_inurba_marseille","lat":43.30316,"lon":5.3781,"is_reserved":false,"is_disabled":false,"rental_uris":{"android":"levelo://app?vid=883dc76f-ea39-4856-ad3f-83646c0ba349","ios":"levelo://app?vid=883dc76f-ea39-4856-ad3f-83646c0ba349"},"vehicle_type_id":"4","last_reported":1774696717,"current_range_meters":9200,"station_id":"","pricing_plan_id":"cebpf4jnsgd1na2vs0mg"},{"bike_id":"c09263af-5f3c-4487-9b20-dca4afc4c1ed","system_id":"levelo_inurba_marseille","lat":43.28591,"lon":5.35141,"is_reserved":false,"is_disabled":false,"rental_uris":{"android":"levelo://app?vid=c09263af-5f3c-4487-9b20-dca4afc4c1ed","ios":"levelo://app?vid=c09263af-5f3c-4487-9b20-dca4afc4c1ed"},"vehicle_type_id":"4","last_reported":1774696717,"current_range_meters":9200,"station_id":"ce4bhch2rcd13ifvqeug","pricing_plan_id":"cebpf4jnsgd1na2vs0mg"},{"bike_id":"fee1fa78-99e1-418b-a173-a71cf30704c4","system_id":"levelo_inurba_marseille","lat":43.32363,"lon":5.38886,"is_reserved":false,"is_disabled":false,"rental_uris":{"android":"levelo://app?vid=fee1fa78-99e1-418b-a173-a71cf30704c4","ios":"levelo://app?vid=fee1fa78-99e1-418b-a173-a71cf30704c4"},"vehicle_type_id":"4","last_reported":1774696717,"current_range_meters":9200,"station_id":"ce4bhqp2rcd13ifvqhog","pricing_plan_id":"cebpf4jnsgd1na2vs0mg"},{"bike_id":"64ef55fa-4852-4429-b76f-f1a5b1ebde40","system_id":"levelo_inurba_marseille","lat":43.27199,"lon":5.39184,"is_reserved":false,"is_disabled":false,"rental_uris":{"android":"levelo://app?vid=64ef55fa-4852-4429-b76f-f1a5b1ebde40","ios":"levelo://app?vid=64ef55fa-4852-4429-b76f-f1a5b1ebde40"},"vehicle_type_id":"4","last_reported":1774696717,"current_range_meters":9200,"station_id":"ce4bhhp2rcd13ifvqfm0","pricing_plan_id":"cebpf4jnsgd1na2vs0mg"},{"bike_id":"a9e1baa6-b19c-4b6b-a195-18078ed91f56","system_id":"levelo_inurba_marseille","lat":43.31057,"lon":5.37165,"is_reserved":false,"is_disabled":false,"rental_uris":{"android":"levelo://app?vid=a9e1baa6-b19c-4b6b-a195-18078ed91f56","ios":"levelo://app?vid=a9e1baa6-b19c-4b6b-a195-18078ed91f56"},"vehicle_type_id":"4","last_reported":1774696717,"current_range_meters":9200,"station_id":"st_d4kl2rp97mjs73e7tdfg","pricing_plan_id":"cebpf4jnsgd1na2vs0mg"},{"bike_id":"1bca506e-2c43-43d5-9cab-3f814da8f5fe","system_id":"levelo_inurba_marseille","lat":43.22562,"lon":5.41604,"is_reserved":false,"is_disabled":false,"rental_uris":{"android":"levelo://app?vid=1bca506e-2c43-43d5-9cab-3f814da8f5fe","ios":"levelo://app?vid=1bca506e-2c43-43d5-9cab-3f814da8f5fe"},"vehicle_type_id":"4","last_reported":1774696717,"current_range_meters":9200,"station_id":"st_d2o4gvlbi1j2169b742g","pricing_plan_id":"cebpf4jnsgd1na2vs0mg"},{"bike_id":"e8bd8254-2909-4d6d-a6a9-c5d493a3c617","system_id":"levelo_inurba_marseille","lat":43.2694,"lon":5.40252,"is_reserved":false,"is_disabled":false,"rental_uris":{"android":"levelo://app?vid=e8bd8254-2909-4d6d-a6a9-c5d493a3c617","ios":"levelo://app?vid=e8bd8254-2909-4d6d-a6a9-c5d493a3c617"},"vehicle_type_id":"4","last_reported":1774696717,"current_range_meters":9200,"station_id":"cjm6bp8fraef2m0cb0m0","pricing_plan_id":"cebpf4jnsgd1na2vs0mg"},{"bike_id":"5ecab434-8e19-46ce-9cce-324a319f3a65","system_id":"levelo_inurba_marseille","lat":43.27318,"lon":5.39101,"is_reserved":false,"is_disabled":false,"rental_uris":{"android":"levelo://app?vid=5ecab434-8e19-46ce-9cce-324a319f3a65","ios":"levelo://app?vid=5ecab434-8e19-46ce-9cce-324a319f3a65"},"vehicle_type_id":"4","last_reported":1774696717,"current_range_meters":9200,"station_id":"ce4bhgp2rcd13ifvqfe0","pricing_plan_id":"cebpf4jnsgd1na2vs0mg"},{"bike_id":"a8b28ce7-6f4a-4359-976c-acf515a056f8","system_id":"levelo_inurba_marseille","lat":43.28444,"lon":5.39217,"is_reserved":false,"is_disabled":false,"rental_uris":{"android":"levelo://app?vid=a8b28ce7-6f4a-4359-976c-acf515a056f8","ios":"levelo://app?vid=a8b28ce7-6f4a-4359-976c-acf515a056f8"},"vehicle_type_id":"4","last_reported":1774696717,"current_range_meters":9200,"station_id":"ce4bhoh2rcd13ifvqh5g","pricing_plan_id":"cebpf4jnsgd1na2vs0mg"},{"bike_id":"659ccfdf-569f-4f01-84dd-6c9bbfa33ac4","system_id":"levelo_inurba_marseille","lat":43.23779,"lon":5.36632,"is_reserved":false,"is_disabled":false,"rental_uris":{"android":"levelo://app?vid=659ccfdf-569f-4f01-84dd-6c9bbfa33ac4","ios":"levelo://app?vid=659ccfdf-569f-4f01-84dd-6c9bbfa33ac4"},"vehicle_type_id":"4","last_reported":1774696717,"current_range_meters":9200,"station_id":"st_d3nk18o9ro0c73en2l3g","pricing_plan_id":"cebpf4jnsgd1na2vs0mg"},{"bike_id":"a9176eb7-c188-4ff4-912f-d4e94b60be86","system_id":"levelo_inurba_marseille","lat":43.23795,"lon":5.3662,"is_reserved":false,"is_disabled":false,"rental_uris":{"android":"levelo://app?vid=a9176eb7-c188-4ff4-912f-d4e94b60be86","ios":"levelo://app?vid=a9176eb7-c188-4ff4-912f-d4e94b60be86"},"vehicle_type_id":"4","last_reported":1774696717,"current_range_meters":9600,"station_id":"st_d3nk18o9ro0c73en2l3g","pricing_plan_id":"cebpf4jnsgd1na2vs0mg"},{"bike_id":"3137e3ea-7797-4cae-a237-2a996dd9ad4a","system_id":"levelo_inurba_marseille","lat":43.2848,"lon":5.48393,"is_reserved":false,"is_disabled":false,"rental_uris":{"android":"levelo://app?vid=3137e3ea-7797-4cae-a237-2a996dd9ad4a","ios":"levelo://app?vid=3137e3ea-7797-4cae-a237-2a996dd9ad4a"},"vehicle_type_id":"4","last_reported":1774696717,"current_range_meters":9600,"station_id":"","pricing_plan_id":"cebpf4jnsgd1na2vs0mg"},{"bike_id":"2f1d0d81-33b7-48c4-b331-7cdbf3cbb8ce","system_id":"levelo_inurba_marseille","lat":43.29429,"lon":5.37825,"is_reserved":false,"is_disabled":false,"rental_uris":{"android":"levelo://app?vid=2f1d0d81-33b7-48c4-b331-7cdbf3cbb8ce","ios":"levelo://app?vid=2f1d0d81-33b7-48c4-b331-7cdbf3cbb8ce"},"vehicle_type_id":"4","last_reported":1774696717,"current_range_meters":9600,"station_id":"","pricing_plan_id":"cebpf4jnsgd1na2vs0mg"},{"bike_id":"2c76498e-1409-4d1d-aa11-912dd68ff926","system_id":"levelo_inurba_marseille","lat":43.28545,"lon":5.44083,"is_reserved":false,"is_disabled":false,"rental_uris":{"android":"levelo://app?vid=2c76498e-1409-4d1d-aa11-912dd68ff926","ios":"levelo://app?vid=2c76498e-1409-4d1d-aa11-912dd68ff926"},"vehicle_type_id":"4","last_reported":1774696717,"current_range_meters":9600,"station_id":"st_d3j3df2ikq2c7380ej80","pricing_plan_id":"cebpf4jnsgd1na2vs0mg"},{"bike_id":"54ea3d34-d79a-4ab1-886f-1335ba6b438a","system_id":"levelo_inurba_marseille","lat":43.30167,"lon":5.38078,"is_reserved":false,"is_disabled":true,"rental_uris":{"android":"levelo://app?vid=54ea3d34-d79a-4ab1-886f-1335ba6b438a","ios":"levelo://app?vid=54ea3d34-d79a-4ab1-886f-1335ba6b438a"},"vehicle_type_id":"4","last_reported":1774696717,"current_range_meters":9600,"station_id":"ce4bgjp2rcd13ifvqbh0","pricing_plan_id":"cebpf4jnsgd1na2vs0mg"},{"bike_id":"3e138756-aff6-47d8-836d-fb1e49de29e4","system_id":"levelo_inurba_marseille","lat":43.28009,"lon":5.39324,"is_reserved":false,"is_disabled":false,"rental_uris":{"android":"levelo://app?vid=3e138756-aff6-47d8-836d-fb1e49de29e4","ios":"levelo://app?vid=3e138756-aff6-47d8-836d-fb1e49de29e4"},"vehicle_type_id":"4","last_reported":1774696717,"current_range_meters":9600,"station_id":"","pricing_plan_id":"cebpf4jnsgd1na2vs0mg"},{"bike_id":"951ccfa0-2bbb-441f-98aa-0e6f6567daed","system_id":"levelo_inurba_marseille","lat":43.28689,"lon":5.37324,"is_reserved":false,"is_disabled":false,"rental_uris":{"android":"levelo://app?vid=951ccfa0-2bbb-441f-98aa-0e6f6567daed","ios":"levelo://app?vid=951ccfa0-2bbb-441f-98aa-0e6f6567daed"},"vehicle_type_id":"4","last_reported":1774696717,"current_range_meters":9600,"station_id":"ce4bh3p2rcd13ifvqdq0","pricing_plan_id":"cebpf4jnsgd1na2vs0mg"},{"bike_id":"d9275995-6199-47cd-9641-416f87712e15","system_id":"levelo_inurba_marseille","lat":43.23775,"lon":5.36641,"is_reserved":false,"is_disabled":false,"rental_uris":{"android":"levelo://app?vid=d9275995-6199-47cd-9641-416f87712e15","ios":"levelo://app?vid=d9275995-6199-47cd-9641-416f87712e15"},"vehicle_type_id":"4","last_reported":1774696717,"current_range_meters":9600,"station_id":"st_d3nk18o9ro0c73en2l3g","pricing_plan_id":"cebpf4jnsgd1na2vs0mg"},{"bike_id":"59d87d96-b71d-4331-8ff0-128777265713","system_id":"levelo_inurba_marseille","lat":43.31091,"lon":5.37159,"is_reserved":false,"is_disabled":false,"rental_uris":{"android":"levelo://app?vid=59d87d96-b71d-4331-8ff0-128777265713","ios":"levelo://app?vid=59d87d96-b71d-4331-8ff0-128777265713"},"vehicle_type_id":"4","last_reported":1774696717,"current_range_meters":9600,"station_id":"st_d4kl2rp97mjs73e7tdfg","pricing_plan_id":"cebpf4jnsgd1na2vs0mg"},{"bike_id":"76201515-ae70-408c-82ba-b2d7c39b0327","system_id":"levelo_inurba_marseille","lat":43.2509,"lon":5.40348,"is_reserved":false,"is_disabled":false,"rental_uris":{"android":"levelo://app?vid=76201515-ae70-408c-82ba-b2d7c39b0327","ios":"levelo://app?vid=76201515-ae70-408c-82ba-b2d7c39b0327"},"vehicle_type_id":"4","last_reported":1774696717,"current_range_meters":9600,"station_id":"ce4bhlh2rcd13ifvqgig","pricing_plan_id":"cebpf4jnsgd1na2vs0mg"},{"bike_id":"a1b998b8-5487-40cf-bd73-19ba368cfb4a","system_id":"levelo_inurba_marseille","lat":43.21192,"lon":5.35078,"is_reserved":false,"is_disabled":false,"rental_uris":{"android":"levelo://app?vid=a1b998b8-5487-40cf-bd73-19ba368cfb4a","ios":"levelo://app?vid=a1b998b8-5487-40cf-bd73-19ba368cfb4a"},"vehicle_type_id":"4","last_reported":1774696717,"current_range_meters":9600,"station_id":"st_cvj6sg6p6f1abm77japg","pricing_plan_id":"cebpf4jnsgd1na2vs0mg"},{"bike_id":"42bd0df1-4b9e-40bd-871f-4459e6c6e841","system_id":"levelo_inurba_marseille","lat":43.30415,"lon":5.41288,"is_reserved":false,"is_disabled":false,"rental_uris":{"android":"levelo://app?vid=42bd0df1-4b9e-40bd-871f-4459e6c6e841","ios":"levelo://app?vid=42bd0df1-4b9e-40bd-871f-4459e6c6e841"},"vehicle_type_id":"4","last_reported":1774696717,"current_range_meters":9600,"station_id":"ce4bhop2rcd13ifvqh8g","pricing_plan_id":"cebpf4jnsgd1na2vs0mg"},{"bike_id":"d30ad44b-fb54-45fd-9de4-98c8a10e2ad2","system_id":"levelo_inurba_marseille","lat":43.25116,"lon":5.40319,"is_reserved":false,"is_disabled":false,"rental_uris":{"android":"levelo://app?vid=d30ad44b-fb54-45fd-9de4-98c8a10e2ad2","ios":"levelo://app?vid=d30ad44b-fb54-45fd-9de4-98c8a10e2ad2"},"vehicle_type_id":"4","last_reported":1774696717,"current_range_meters":9600,"station_id":"ce4bhlh2rcd13ifvqgig","pricing_plan_id":"cebpf4jnsgd1na2vs0mg"},{"bike_id":"756aac0a-50b4-421f-8fcb-5d7076a18920","system_id":"levelo_inurba_marseille","lat":43.28257,"lon":5.3508,"is_reserved":false,"is_disabled":false,"rental_uris":{"android":"levelo://app?vid=756aac0a-50b4-421f-8fcb-5d7076a18920","ios":"levelo://app?vid=756aac0a-50b4-421f-8fcb-5d7076a18920"},"vehicle_type_id":"4","last_reported":1774696717,"current_range_meters":9600,"station_id":"ce4bhbp2rcd13ifvqerg","pricing_plan_id":"cebpf4jnsgd1na2vs0mg"},{"bike_id":"569432a5-5cde-4b94-8e33-2024cc91be78","system_id":"levelo_inurba_marseille","lat":43.2669,"lon":5.38262,"is_reserved":false,"is_disabled":false,"rental_uris":{"android":"levelo://app?vid=569432a5-5cde-4b94-8e33-2024cc91be78","ios":"levelo://app?vid=569432a5-5cde-4b94-8e33-2024cc91be78"},"vehicle_type_id":"4","last_reported":1774696717,"current_range_meters":9600,"station_id":"ce4bhg92rcd13ifvqf90","pricing_plan_id":"cebpf4jnsgd1na2vs0mg"},{"bike_id":"56603236-0b6d-44e6-924a-3489e7c8fead","system_id":"levelo_inurba_marseille","lat":43.25741,"lon":5.38721,"is_reserved":false,"is_disabled":false,"rental_uris":{"android":"levelo://app?vid=56603236-0b6d-44e6-924a-3489e7c8fead","ios":"levelo://app?vid=56603236-0b6d-44e6-924a-3489e7c8fead"},"vehicle_type_id":"4","last_reported":1774696717,"current_range_meters":9600,"station_id":"","pricing_plan_id":"cebpf4jnsgd1na2vs0mg"},{"bike_id":"eef47190-7a48-44f1-88aa-79133e4cd39d","system_id":"levelo_inurba_marseille","lat":43.27944,"lon":5.38702,"is_reserved":false,"is_disabled":false,"rental_uris":{"android":"levelo://app?vid=eef47190-7a48-44f1-88aa-79133e4cd39d","ios":"levelo://app?vid=eef47190-7a48-44f1-88aa-79133e4cd39d"},"vehicle_type_id":"4","last_reported":1774696717,"current_range_meters":9600,"station_id":"ce4bhg12rcd13ifvqf80","pricing_plan_id":"cebpf4jnsgd1na2vs0mg"},{"bike_id":"4c9a3293-f2c3-4e99-b5e1-94195ca699a4","system_id":"levelo_inurba_marseille","lat":43.28553,"lon":5.44091,"is_reserved":false,"is_disabled":false,"rental_uris":{"android":"levelo://app?vid=4c9a3293-f2c3-4e99-b5e1-94195ca699a4","ios":"levelo://app?vid=4c9a3293-f2c3-4e99-b5e1-94195ca699a4"},"vehicle_type_id":"4","last_reported":1774696717,"current_range_meters":9600,"station_id":"st_d3j3df2ikq2c7380ej80","pricing_plan_id":"cebpf4jnsgd1na2vs0mg"},{"bike_id":"bbd3f559-746b-40c2-866e-faf4351c115d","system_id":"levelo_inurba_marseille","lat":43.24397,"lon":5.37068,"is_reserved":false,"is_disabled":false,"rental_uris":{"android":"levelo://app?vid=bbd3f559-746b-40c2-866e-faf4351c115d","ios":"levelo://app?vid=bbd3f559-746b-40c2-866e-faf4351c115d"},"vehicle_type_id":"4","last_reported":1774696717,"current_range_meters":9600,"station_id":"ce4bhhh2rcd13ifvqfk0","pricing_plan_id":"cebpf4jnsgd1na2vs0mg"},{"bike_id":"0ed2d725-673b-43dd-a6ea-74f591570983","system_id":"levelo_inurba_marseille","lat":43.29238,"lon":5.3605,"is_reserved":false,"is_disabled":false,"rental_uris":{"android":"levelo://app?vid=0ed2d725-673b-43dd-a6ea-74f591570983","ios":"levelo://app?vid=0ed2d725-673b-43dd-a6ea-74f591570983"},"vehicle_type_id":"4","last_reported":1774696717,"current_range_meters":9600,"station_id":"ce4bhbh2rcd13ifvqeqg","pricing_plan_id":"cebpf4jnsgd1na2vs0mg"},{"bike_id":"8371d95a-edda-4199-96fb-5106a5c4d423","system_id":"levelo_inurba_marseille","lat":43.28264,"lon":5.35073,"is_reserved":false,"is_disabled":false,"rental_uris":{"android":"levelo://app?vid=8371d95a-edda-4199-96fb-5106a5c4d423","ios":"levelo://app?vid=8371d95a-edda-4199-96fb-5106a5c4d423"},"vehicle_type_id":"4","last_reported":1774696717,"current_range_meters":9600,"station_id":"ce4bhbp2rcd13ifvqerg","pricing_plan_id":"cebpf4jnsgd1na2vs0mg"},{"bike_id":"970c0018-efd3-4265-ba0d-669fd24b3e90","system_id":"levelo_inurba_marseille","lat":43.30959,"lon":5.3903,"is_reserved":false,"is_disabled":true,"rental_uris":{"android":"levelo://app?vid=970c0018-efd3-4265-ba0d-669fd24b3e90","ios":"levelo://app?vid=970c0018-efd3-4265-ba0d-669fd24b3e90"},"vehicle_type_id":"4","last_reported":1774696717,"current_range_meters":10000,"station_id":"ce4bgup2rcd13ifvqco0","pricing_plan_id":"cebpf4jnsgd1na2vs0mg"},{"bike_id":"d180bdb5-ac5e-40ce-8b39-1c97b7b69eea","system_id":"levelo_inurba_marseille","lat":43.31707,"lon":5.37749,"is_reserved":false,"is_disabled":false,"rental_uris":{"android":"levelo://app?vid=d180bdb5-ac5e-40ce-8b39-1c97b7b69eea","ios":"levelo://app?vid=d180bdb5-ac5e-40ce-8b39-1c97b7b69eea"},"vehicle_type_id":"4","last_reported":1774696717,"current_range_meters":10000,"station_id":"ce4bgth2rcd13ifvqch0","pricing_plan_id":"cebpf4jnsgd1na2vs0mg"},{"bike_id":"90e3b8ef-ae5b-4703-8e17-1bf3ba126212","system_id":"levelo_inurba_marseille","lat":43.3057,"lon":5.36686,"is_reserved":false,"is_disabled":true,"rental_uris":{"android":"levelo://app?vid=90e3b8ef-ae5b-4703-8e17-1bf3ba126212","ios":"levelo://app?vid=90e3b8ef-ae5b-4703-8e17-1bf3ba126212"},"vehicle_type_id":"4","last_reported":1774696717,"current_range_meters":10000,"station_id":"","pricing_plan_id":"cebpf4jnsgd1na2vs0mg"},{"bike_id":"a9650d43-fa8b-4d31-8e5d-7bd903af55bb","system_id":"levelo_inurba_marseille","lat":43.31372,"lon":5.38499,"is_reserved":false,"is_disabled":false,"rental_uris":{"android":"levelo://app?vid=a9650d43-fa8b-4d31-8e5d-7bd903af55bb","ios":"levelo://app?vid=a9650d43-fa8b-4d31-8e5d-7bd903af55bb"},"vehicle_type_id":"4","last_reported":1774696717,"current_range_meters":10000,"station_id":"ce4bgt92rcd13ifvqcf0","pricing_plan_id":"cebpf4jnsgd1na2vs0mg"},{"bike_id":"4247c776-2951-4741-b1a8-85d5eef00372","system_id":"levelo_inurba_marseille","lat":43.27383,"lon":5.36257,"is_reserved":false,"is_disabled":false,"rental_uris":{"android":"levelo://app?vid=4247c776-2951-4741-b1a8-85d5eef00372","ios":"levelo://app?vid=4247c776-2951-4741-b1a8-85d5eef00372"},"vehicle_type_id":"4","last_reported":1774696717,"current_range_meters":10000,"station_id":"ce4bhbh2rcd13ifvqeo0","pricing_plan_id":"cebpf4jnsgd1na2vs0mg"},{"bike_id":"0f430097-8d5e-4a5a-9147-4fc5e40a362e","system_id":"levelo_inurba_marseille","lat":43.33537,"lon":5.37436,"is_reserved":false,"is_disabled":false,"rental_uris":{"android":"levelo://app?vid=0f430097-8d5e-4a5a-9147-4fc5e40a362e","ios":"levelo://app?vid=0f430097-8d5e-4a5a-9147-4fc5e40a362e"},"vehicle_type_id":"4","last_reported":1774696717,"current_range_meters":10000,"station_id":"st_d46tts09ee8s73dlu43g","pricing_plan_id":"cebpf4jnsgd1na2vs0mg"},{"bike_id":"f09e609e-75e6-4f5e-80b5-321c56203fc0","system_id":"levelo_inurba_marseille","lat":43.29571,"lon":5.3653,"is_reserved":false,"is_disabled":false,"rental_uris":{"android":"levelo://app?vid=f09e609e-75e6-4f5e-80b5-321c56203fc0","ios":"levelo://app?vid=f09e609e-75e6-4f5e-80b5-321c56203fc0"},"vehicle_type_id":"4","last_reported":1774696717,"current_range_meters":10000,"station_id":"","pricing_plan_id":"cebpf4jnsgd1na2vs0mg"},{"bike_id":"41656483-df96-47ca-96af-c9af8fb23124","system_id":"levelo_inurba_marseille","lat":43.2954,"lon":5.39041,"is_reserved":false,"is_disabled":false,"rental_uris":{"android":"levelo://app?vid=41656483-df96-47ca-96af-c9af8fb23124","ios":"levelo://app?vid=41656483-df96-47ca-96af-c9af8fb23124"},"vehicle_type_id":"4","last_reported":1774696717,"current_range_meters":10000,"station_id":"ce4bh3p2rcd13ifvqdp0","pricing_plan_id":"cebpf4jnsgd1na2vs0mg"},{"bike_id":"e9ad15fd-23e1-48a2-9f2b-efc8620846b3","system_id":"levelo_inurba_marseille","lat":43.29095,"lon":5.37141,"is_reserved":false,"is_disabled":false,"rental_uris":{"android":"levelo://app?vid=e9ad15fd-23e1-48a2-9f2b-efc8620846b3","ios":"levelo://app?vid=e9ad15fd-23e1-48a2-9f2b-efc8620846b3"},"vehicle_type_id":"4","last_reported":1774696717,"current_range_meters":10000,"station_id":"ce4bh5p2rcd13ifvqe4g","pricing_plan_id":"cebpf4jnsgd1na2vs0mg"},{"bike_id":"2d0fdc3d-338a-4727-826c-caea44a0cbfa","system_id":"levelo_inurba_marseille","lat":43.29824,"lon":5.44061,"is_reserved":false,"is_disabled":false,"rental_uris":{"android":"levelo://app?vid=2d0fdc3d-338a-4727-826c-caea44a0cbfa","ios":"levelo://app?vid=2d0fdc3d-338a-4727-826c-caea44a0cbfa"},"vehicle_type_id":"4","last_reported":1774696717,"current_range_meters":10000,"station_id":"st_d3jp68qikq2c7381ktn0","pricing_plan_id":"cebpf4jnsgd1na2vs0mg"},{"bike_id":"eafa20c2-7226-49ab-bb69-ffecd53c4490","system_id":"levelo_inurba_marseille","lat":43.30876,"lon":5.37426,"is_reserved":false,"is_disabled":false,"rental_uris":{"android":"levelo://app?vid=eafa20c2-7226-49ab-bb69-ffecd53c4490","ios":"levelo://app?vid=eafa20c2-7226-49ab-bb69-ffecd53c4490"},"vehicle_type_id":"4","last_reported":1774696717,"current_range_meters":10000,"station_id":"","pricing_plan_id":"cebpf4jnsgd1na2vs0mg"},{"bike_id":"65da41e5-f5f3-4cdf-8705-3deade869c53","system_id":"levelo_inurba_marseille","lat":43.2623,"lon":5.37433,"is_reserved":false,"is_disabled":false,"rental_uris":{"android":"levelo://app?vid=65da41e5-f5f3-4cdf-8705-3deade869c53","ios":"levelo://app?vid=65da41e5-f5f3-4cdf-8705-3deade869c53"},"vehicle_type_id":"4","last_reported":1774696717,"current_range_meters":10000,"station_id":"ce4bhgp2rcd13ifvqfc0","pricing_plan_id":"cebpf4jnsgd1na2vs0mg"},{"bike_id":"0ddf8cb2-f516-4788-a477-c293a5940678","system_id":"levelo_inurba_marseille","lat":43.29532,"lon":5.39035,"is_reserved":false,"is_disabled":false,"rental_uris":{"android":"levelo://app?vid=0ddf8cb2-f516-4788-a477-c293a5940678","ios":"levelo://app?vid=0ddf8cb2-f516-4788-a477-c293a5940678"},"vehicle_type_id":"4","last_reported":1774696717,"current_range_meters":10000,"station_id":"ce4bh3p2rcd13ifvqdp0","pricing_plan_id":"cebpf4jnsgd1na2vs0mg"},{"bike_id":"5dc7a0c1-467a-4151-97ef-a8a655c4f7a5","system_id":"levelo_inurba_marseille","lat":43.28479,"lon":5.48384,"is_reserved":false,"is_disabled":false,"rental_uris":{"android":"levelo://app?vid=5dc7a0c1-467a-4151-97ef-a8a655c4f7a5","ios":"levelo://app?vid=5dc7a0c1-467a-4151-97ef-a8a655c4f7a5"},"vehicle_type_id":"4","last_reported":1774696717,"current_range_meters":10000,"station_id":"","pricing_plan_id":"cebpf4jnsgd1na2vs0mg"},{"bike_id":"12b89935-6041-4a1d-b18f-bfff09ef9077","system_id":"levelo_inurba_marseille","lat":43.24807,"lon":5.37459,"is_reserved":false,"is_disabled":false,"rental_uris":{"android":"levelo://app?vid=12b89935-6041-4a1d-b18f-bfff09ef9077","ios":"levelo://app?vid=12b89935-6041-4a1d-b18f-bfff09ef9077"},"vehicle_type_id":"4","last_reported":1774696717,"current_range_meters":10000,"station_id":"ce4bhgh2rcd13ifvqfb0","pricing_plan_id":"cebpf4jnsgd1na2vs0mg"},{"bike_id":"752abf57-2523-4a36-ab7b-c328452703b1","system_id":"levelo_inurba_marseille","lat":43.24815,"lon":5.37463,"is_reserved":false,"is_disabled":false,"rental_uris":{"android":"levelo://app?vid=752abf57-2523-4a36-ab7b-c328452703b1","ios":"levelo://app?vid=752abf57-2523-4a36-ab7b-c328452703b1"},"vehicle_type_id":"4","last_reported":1774696717,"current_range_meters":10000,"station_id":"ce4bhgh2rcd13ifvqfb0","pricing_plan_id":"cebpf4jnsgd1na2vs0mg"},{"bike_id":"37818bc8-1e8a-49f9-aeaf-a5e60ad1db88","system_id":"levelo_inurba_marseille","lat":43.231325,"lon":5.437015,"is_reserved":false,"is_disabled":false,"rental_uris":{"android":"levelo://app?vid=37818bc8-1e8a-49f9-aeaf-a5e60ad1db88","ios":"levelo://app?vid=37818bc8-1e8a-49f9-aeaf-a5e60ad1db88"},"vehicle_type_id":"4","last_reported":1774696717,"current_range_meters":10000,"station_id":"ce4bhmp2rcd13ifvqgog","pricing_plan_id":"cebpf4jnsgd1na2vs0mg"},{"bike_id":"6cd08817-61b4-4fc1-aeda-8267dd2c4320","system_id":"levelo_inurba_marseille","lat":43.28534,"lon":5.44101,"is_reserved":false,"is_disabled":false,"rental_uris":{"android":"levelo://app?vid=6cd08817-61b4-4fc1-aeda-8267dd2c4320","ios":"levelo://app?vid=6cd08817-61b4-4fc1-aeda-8267dd2c4320"},"vehicle_type_id":"4","last_reported":1774696717,"current_range_meters":10000,"station_id":"st_d3j3df2ikq2c7380ej80","pricing_plan_id":"cebpf4jnsgd1na2vs0mg"},{"bike_id":"2d41bd03-bdc4-454a-8b0e-22922831e6cd","system_id":"levelo_inurba_marseille","lat":43.25118,"lon":5.40323,"is_reserved":false,"is_disabled":false,"rental_uris":{"android":"levelo://app?vid=2d41bd03-bdc4-454a-8b0e-22922831e6cd","ios":"levelo://app?vid=2d41bd03-bdc4-454a-8b0e-22922831e6cd"},"vehicle_type_id":"4","last_reported":1774696717,"current_range_meters":10000,"station_id":"ce4bhlh2rcd13ifvqgig","pricing_plan_id":"cebpf4jnsgd1na2vs0mg"},{"bike_id":"8a1a3f71-6533-4cb8-a525-850bc74bc08d","system_id":"levelo_inurba_marseille","lat":43.29603,"lon":5.37512,"is_reserved":false,"is_disabled":false,"rental_uris":{"android":"levelo://app?vid=8a1a3f71-6533-4cb8-a525-850bc74bc08d","ios":"levelo://app?vid=8a1a3f71-6533-4cb8-a525-850bc74bc08d"},"vehicle_type_id":"4","last_reported":1774696717,"current_range_meters":10000,"station_id":"ce4bgh92rcd13ifvqb50","pricing_plan_id":"cebpf4jnsgd1na2vs0mg"},{"bike_id":"e45f7e6b-41f9-4a8a-b54b-f571152c9fa4","system_id":"levelo_inurba_marseille","lat":43.23891,"lon":5.37456,"is_reserved":false,"is_disabled":false,"rental_uris":{"android":"levelo://app?vid=e45f7e6b-41f9-4a8a-b54b-f571152c9fa4","ios":"levelo://app?vid=e45f7e6b-41f9-4a8a-b54b-f571152c9fa4"},"vehicle_type_id":"4","last_reported":1774696717,"current_range_meters":10000,"station_id":"st_d6sm7csbq4hs73f8fpjg","pricing_plan_id":"cebpf4jnsgd1na2vs0mg"},{"bike_id":"3d10a6dc-5b60-415d-a695-11f58537a955","system_id":"levelo_inurba_marseille","lat":43.24547,"lon":5.39516,"is_reserved":false,"is_disabled":false,"rental_uris":{"android":"levelo://app?vid=3d10a6dc-5b60-415d-a695-11f58537a955","ios":"levelo://app?vid=3d10a6dc-5b60-415d-a695-11f58537a955"},"vehicle_type_id":"4","last_reported":1774696717,"current_range_meters":10000,"station_id":"ce4bhlp2rcd13ifvqgjg","pricing_plan_id":"cebpf4jnsgd1na2vs0mg"},{"bike_id":"dcddd6f4-f750-4f90-ae83-25c178716cb7","system_id":"levelo_inurba_marseille","lat":43.28853,"lon":5.42517,"is_reserved":false,"is_disabled":false,"rental_uris":{"android":"levelo://app?vid=dcddd6f4-f750-4f90-ae83-25c178716cb7","ios":"levelo://app?vid=dcddd6f4-f750-4f90-ae83-25c178716cb7"},"vehicle_type_id":"4","last_reported":1774696717,"current_range_meters":10000,"station_id":"st_d3b462108ojc7389ooeg","pricing_plan_id":"cebpf4jnsgd1na2vs0mg"},{"bike_id":"831afe97-5b46-40a3-b3a8-9267430cd93d","system_id":"levelo_inurba_marseille","lat":43.2294,"lon":5.35373,"is_reserved":false,"is_disabled":false,"rental_uris":{"android":"levelo://app?vid=831afe97-5b46-40a3-b3a8-9267430cd93d","ios":"levelo://app?vid=831afe97-5b46-40a3-b3a8-9267430cd93d"},"vehicle_type_id":"4","last_reported":1774696717,"current_range_meters":10000,"station_id":"cpo3532slgdg3j2ikp40","pricing_plan_id":"cebpf4jnsgd1na2vs0mg"},{"bike_id":"38741d93-7c4f-4172-acd8-d2da2e299788","system_id":"levelo_inurba_marseille","lat":43.25502,"lon":5.37654,"is_reserved":false,"is_disabled":false,"rental_uris":{"android":"levelo://app?vid=38741d93-7c4f-4172-acd8-d2da2e299788","ios":"levelo://app?vid=38741d93-7c4f-4172-acd8-d2da2e299788"},"vehicle_type_id":"4","last_reported":1774696717,"current_range_meters":10000,"station_id":"ce4bhh12rcd13ifvqff0","pricing_plan_id":"cebpf4jnsgd1na2vs0mg"},{"bike_id":"a08064b0-a78c-4cdd-9372-43edbf696f68","system_id":"levelo_inurba_marseille","lat":43.24393,"lon":5.37066,"is_reserved":false,"is_disabled":false,"rental_uris":{"android":"levelo://app?vid=a08064b0-a78c-4cdd-9372-43edbf696f68","ios":"levelo://app?vid=a08064b0-a78c-4cdd-9372-43edbf696f68"},"vehicle_type_id":"4","last_reported":1774696717,"current_range_meters":10000,"station_id":"ce4bhhh2rcd13ifvqfk0","pricing_plan_id":"cebpf4jnsgd1na2vs0mg"},{"bike_id":"ad2a7325-f4cd-4376-af91-acc9a9d762fc","system_id":"levelo_inurba_marseille","lat":43.2256,"lon":5.41632,"is_reserved":false,"is_disabled":false,"rental_uris":{"android":"levelo://app?vid=ad2a7325-f4cd-4376-af91-acc9a9d762fc","ios":"levelo://app?vid=ad2a7325-f4cd-4376-af91-acc9a9d762fc"},"vehicle_type_id":"4","last_reported":1774696717,"current_range_meters":10800,"station_id":"st_d2o4gvlbi1j2169b742g","pricing_plan_id":"cebpf4jnsgd1na2vs0mg"},{"bike_id":"2d66df27-f724-47e0-8997-7c4b2d275045","system_id":"levelo_inurba_marseille","lat":43.25093,"lon":5.39521,"is_reserved":false,"is_disabled":false,"rental_uris":{"android":"levelo://app?vid=2d66df27-f724-47e0-8997-7c4b2d275045","ios":"levelo://app?vid=2d66df27-f724-47e0-8997-7c4b2d275045"},"vehicle_type_id":"4","last_reported":1774696717,"current_range_meters":10800,"station_id":"ce4bhm12rcd13ifvqgkg","pricing_plan_id":"cebpf4jnsgd1na2vs0mg"},{"bike_id":"2934d88c-6221-44dd-bee3-989a0775ea80","system_id":"levelo_inurba_marseille","lat":43.31035,"lon":5.37169,"is_reserved":false,"is_disabled":false,"rental_uris":{"android":"levelo://app?vid=2934d88c-6221-44dd-bee3-989a0775ea80","ios":"levelo://app?vid=2934d88c-6221-44dd-bee3-989a0775ea80"},"vehicle_type_id":"4","last_reported":1774696717,"current_range_meters":10800,"station_id":"st_d4kl2rp97mjs73e7tdfg","pricing_plan_id":"cebpf4jnsgd1na2vs0mg"},{"bike_id":"8f2036f2-3cbb-4125-b20c-f04e5c7ad65b","system_id":"levelo_inurba_marseille","lat":43.30157,"lon":5.38081,"is_reserved":false,"is_disabled":false,"rental_uris":{"android":"levelo://app?vid=8f2036f2-3cbb-4125-b20c-f04e5c7ad65b","ios":"levelo://app?vid=8f2036f2-3cbb-4125-b20c-f04e5c7ad65b"},"vehicle_type_id":"4","last_reported":1774696717,"current_range_meters":10800,"station_id":"ce4bgjp2rcd13ifvqbh0","pricing_plan_id":"cebpf4jnsgd1na2vs0mg"},{"bike_id":"253bfbd1-c3f6-4b72-a716-55890f3b4db7","system_id":"levelo_inurba_marseille","lat":43.28479,"lon":5.48389,"is_reserved":false,"is_disabled":false,"rental_uris":{"android":"levelo://app?vid=253bfbd1-c3f6-4b72-a716-55890f3b4db7","ios":"levelo://app?vid=253bfbd1-c3f6-4b72-a716-55890f3b4db7"},"vehicle_type_id":"4","last_reported":1774696717,"current_range_meters":10800,"station_id":"","pricing_plan_id":"cebpf4jnsgd1na2vs0mg"},{"bike_id":"e999a6a6-d09b-4968-8512-64c2383e1a59","system_id":"levelo_inurba_marseille","lat":43.28506,"lon":5.38391,"is_reserved":false,"is_disabled":false,"rental_uris":{"android":"levelo://app?vid=e999a6a6-d09b-4968-8512-64c2383e1a59","ios":"levelo://app?vid=e999a6a6-d09b-4968-8512-64c2383e1a59"},"vehicle_type_id":"4","last_reported":1774696717,"current_range_meters":10800,"station_id":"ce4bh512rcd13ifvqe3g","pricing_plan_id":"cebpf4jnsgd1na2vs0mg"},{"bike_id":"aeca9453-ce08-40c1-8c68-c50a96f12fa4","system_id":"levelo_inurba_marseille","lat":43.28612,"lon":5.35114,"is_reserved":false,"is_disabled":false,"rental_uris":{"android":"levelo://app?vid=aeca9453-ce08-40c1-8c68-c50a96f12fa4","ios":"levelo://app?vid=aeca9453-ce08-40c1-8c68-c50a96f12fa4"},"vehicle_type_id":"4","last_reported":1774696717,"current_range_meters":10800,"station_id":"ce4bhch2rcd13ifvqeug","pricing_plan_id":"cebpf4jnsgd1na2vs0mg"},{"bike_id":"9ac5ac09-4dcd-43d1-ac91-8b63c353f5d3","system_id":"levelo_inurba_marseille","lat":43.27947,"lon":5.4104,"is_reserved":false,"is_disabled":false,"rental_uris":{"android":"levelo://app?vid=9ac5ac09-4dcd-43d1-ac91-8b63c353f5d3","ios":"levelo://app?vid=9ac5ac09-4dcd-43d1-ac91-8b63c353f5d3"},"vehicle_type_id":"4","last_reported":1774696717,"current_range_meters":10800,"station_id":"ce4bhnp2rcd13ifvqh0g","pricing_plan_id":"cebpf4jnsgd1na2vs0mg"},{"bike_id":"520636f1-9254-48fe-93cc-9a8d202240e5","system_id":"levelo_inurba_marseille","lat":43.26916,"lon":5.40256,"is_reserved":false,"is_disabled":false,"rental_uris":{"android":"levelo://app?vid=520636f1-9254-48fe-93cc-9a8d202240e5","ios":"levelo://app?vid=520636f1-9254-48fe-93cc-9a8d202240e5"},"vehicle_type_id":"4","last_reported":1774696717,"current_range_meters":10800,"station_id":"cjm6bp8fraef2m0cb0m0","pricing_plan_id":"cebpf4jnsgd1na2vs0mg"},{"bike_id":"35747b8b-fdfa-4f37-8571-bb4eabaeb8d1","system_id":"levelo_inurba_marseille","lat":43.26204,"lon":5.37458,"is_reserved":false,"is_disabled":false,"rental_uris":{"android":"levelo://app?vid=35747b8b-fdfa-4f37-8571-bb4eabaeb8d1","ios":"levelo://app?vid=35747b8b-fdfa-4f37-8571-bb4eabaeb8d1"},"vehicle_type_id":"4","last_reported":1774696717,"current_range_meters":10800,"station_id":"ce4bhgp2rcd13ifvqfc0","pricing_plan_id":"cebpf4jnsgd1na2vs0mg"},{"bike_id":"3f076314-d584-4da1-8e95-05ec1d207b2e","system_id":"levelo_inurba_marseille","lat":43.30428,"lon":5.38891,"is_reserved":false,"is_disabled":false,"rental_uris":{"android":"levelo://app?vid=3f076314-d584-4da1-8e95-05ec1d207b2e","ios":"levelo://app?vid=3f076314-d584-4da1-8e95-05ec1d207b2e"},"vehicle_type_id":"4","last_reported":1774696717,"current_range_meters":10800,"station_id":"ce4bgk12rcd13ifvqbi0","pricing_plan_id":"cebpf4jnsgd1na2vs0mg"},{"bike_id":"25a215c0-6185-4988-a946-459e463e94c2","system_id":"levelo_inurba_marseille","lat":43.28611,"lon":5.35114,"is_reserved":false,"is_disabled":false,"rental_uris":{"android":"levelo://app?vid=25a215c0-6185-4988-a946-459e463e94c2","ios":"levelo://app?vid=25a215c0-6185-4988-a946-459e463e94c2"},"vehicle_type_id":"4","last_reported":1774696717,"current_range_meters":10800,"station_id":"ce4bhch2rcd13ifvqeug","pricing_plan_id":"cebpf4jnsgd1na2vs0mg"},{"bike_id":"58acc0d2-0554-4fcd-87a6-086f9414e8d7","system_id":"levelo_inurba_marseille","lat":43.27989,"lon":5.41659,"is_reserved":false,"is_disabled":false,"rental_uris":{"android":"levelo://app?vid=58acc0d2-0554-4fcd-87a6-086f9414e8d7","ios":"levelo://app?vid=58acc0d2-0554-4fcd-87a6-086f9414e8d7"},"vehicle_type_id":"4","last_reported":1774696717,"current_range_meters":10800,"station_id":"ce4bho12rcd13ifvqh1g","pricing_plan_id":"cebpf4jnsgd1na2vs0mg"},{"bike_id":"ef6e80df-df45-4557-a5ab-581f08e275bf","system_id":"levelo_inurba_marseille","lat":43.31281,"lon":5.40162,"is_reserved":false,"is_disabled":false,"rental_uris":{"android":"levelo://app?vid=ef6e80df-df45-4557-a5ab-581f08e275bf","ios":"levelo://app?vid=ef6e80df-df45-4557-a5ab-581f08e275bf"},"vehicle_type_id":"4","last_reported":1774696717,"current_range_meters":10800,"station_id":"ce4bh092rcd13ifvqd30","pricing_plan_id":"cebpf4jnsgd1na2vs0mg"},{"bike_id":"0453f84b-202d-4949-a2eb-2b1bfe293782","system_id":"levelo_inurba_marseille","lat":43.28477,"lon":5.38574,"is_reserved":false,"is_disabled":false,"rental_uris":{"android":"levelo://app?vid=0453f84b-202d-4949-a2eb-2b1bfe293782","ios":"levelo://app?vid=0453f84b-202d-4949-a2eb-2b1bfe293782"},"vehicle_type_id":"4","last_reported":1774696717,"current_range_meters":10800,"station_id":"ce4bh8p2rcd13ifvqeb0","pricing_plan_id":"cebpf4jnsgd1na2vs0mg"},{"bike_id":"fc16f43c-cec5-468e-9b08-d26e110789e4","system_id":"levelo_inurba_marseille","lat":43.30085,"lon":5.40325,"is_reserved":false,"is_disabled":false,"rental_uris":{"android":"levelo://app?vid=fc16f43c-cec5-468e-9b08-d26e110789e4","ios":"levelo://app?vid=fc16f43c-cec5-468e-9b08-d26e110789e4"},"vehicle_type_id":"4","last_reported":1774696717,"current_range_meters":10800,"station_id":"","pricing_plan_id":"cebpf4jnsgd1na2vs0mg"},