{"last_updated":1748420085,"ttl":60,"version":"2.2","data":{"bikes":[{"bike_id":"984631f3-af7d-4fe4-9cf2-a5d66e6e230a","system_id":"levelo_inurba_marseille","lat":43.27487,"lon":5.42465,"is_reserved":false,"is_disabled":false,"rental_uris":{"android":"levelo://app?vid=984631f3-af7d-4fe4-9cf2-a5d66e6e230a","ios":"levelo://app?vid=984631f3-af7d-4fe4-9cf2-a5d66e6e230a"},"vehicle_type_id":"4","last_reported":1748420085,"current_range_meters":2800,"station_id":"ce4bhn92rcd13ifvqgrg","pricing_plan_id":"cebpf4jnsgd1na2vs0mg"},{"bike_id":"fd908bdf-5d81-4122-b313-442572d15912","system_id":"levelo_inurba_marseille","lat":43.29513,"lon":5.39406,"is_reserved":false,"is_disabled":true,"rental_uris":{"android":"levelo://app?vid=fd908bdf-5d81-4122-b313-442572d15912","ios":"levelo://app?vid=fd908bdf-5d81-4122-b313-442572d15912"},"vehicle_type_id":"4","last_reported":1748420085,"current_range_meters":2800,"station_id":"","pricing_plan_id":"cebpf4jnsgd1na2vs0mg"},{"bike_id":"15793c7f-4bb8-4270-96ae-3d1876c39454","system_id":"levelo_inurba_marseille","lat":43.30368,"lon":5.37368,"is_reserved":false,"is_disabled":false,"rental_uris":{"android":"levelo://app?vid=15793c7f-4bb8-4270-96ae-3d1876c39454","ios":"levelo://app?vid=15793c7f-4bb8-4270-96ae-3d1876c39454"},"vehicle_type_id":"4","last_reported":1748420085,"current_range_meters":2800,"station_id":"","pricing_plan_id":"cebpf4jnsgd1na2vs0mg"},{"bike_id":"5f12688d-730f-4bf2-acdb-0c47a5d6e38b","system_id":"levelo_inurba_marseille","lat":43.29187,"lon":5.35804,"is_reserved":false,"is_disabled":true,"rental_uris":{"android":"levelo://app?vid=5f12688d-730f-4bf2-acdb-0c47a5d6e38b","ios":"levelo://app?vid=5f12688d-730f-4bf2-acdb-0c47a5d6e38b"},"vehicle_type_id":"4","last_reported":1748420085,"current_range_meters":2800,"station_id":"ce4bhb12rcd13ifvqel0","pricing_plan_id":"cebpf4jnsgd1na2vs0mg"},{"bike_id":"2f50dc5b-dd1a-4fd7-b3a4-bca2ea8883de","system_id":"levelo_inurba_marseille","lat":43.319602,"lon":5.381526,"is_reserved":false,"is_disabled":false,"rental_uris":{"android":"levelo://app?vid=2f50dc5b-dd1a-4fd7-b3a4-bca2ea8883de","ios":"levelo://app?vid=2f50dc5b-dd1a-4fd7-b3a4-bca2ea8883de"},"vehicle_type_id":"4","last_reported":1748420085,"current_range_meters":2800,"station_id":"ce4bhr12rcd13ifvqhpg","pricing_plan_id":"cebpf4jnsgd1na2vs0mg"},{"bike_id":"8e1e3d14-39e1-40c6-a572-79984978bd7d","system_id":"levelo_inurba_marseille","lat":43.225,"lon":5.34765,"is_reserved":false,"is_disabled":false,"rental_uris":{"android":"levelo://app?vid=8e1e3d14-39e1-40c6-a572-79984978bd7d","ios":"levelo://app?vid=8e1e3d14-39e1-40c6-a572-79984978bd7d"},"vehicle_type_id":"4","last_reported":1748420085,"current_range_meters":3200,"station_id":"","pricing_plan_id":"cebpf4jnsgd1na2vs0mg"},{"bike_id":"7a78ce2a-b3f3-4b99-a04e-41156739a7e6","system_id":"levelo_inurba_marseille","lat":43.26685,"lon":5.38272,"is_reserved":false,"is_disabled":false,"rental_uris":{"android":"levelo://app?vid=7a78ce2a-b3f3-4b99-a04e-41156739a7e6","ios":"levelo://app?vid=7a78ce2a-b3f3-4b99-a04e-41156739a7e6"},"vehicle_type_id":"4","last_reported":1748420085,"current_range_meters":3200,"station_id":"ce4bhg92rcd13ifvqf90","pricing_plan_id":"cebpf4jnsgd1na2vs0mg"},{"bike_id":"85d1e926-bbfb-4ea4-8add-c3b75abcf11e","system_id":"levelo_inurba_marseille","lat":43.31356,"lon":5.36721,"is_reserved":false,"is_disabled":false,"rental_uris":{"android":"levelo://app?vid=85d1e926-bbfb-4ea4-8add-c3b75abcf11e","ios":"levelo://app?vid=85d1e926-bbfb-4ea4-8add-c3b75abcf11e"},"vehicle_type_id":"4","last_reported":1748420085,"current_range_meters":3600,"station_id":"ce4bgr92rcd13ifvqc6g","pricing_plan_id":"cebpf4jnsgd1na2vs0mg"},{"bike_id":"db4939ac-e966-4d45-8db0-75445184ada6","system_id":"levelo_inurba_marseille","lat":43.29573,"lon":5.37521,"is_reserved":false,"is_disabled":false,"rental_uris":{"android":"levelo://app?vid=db4939ac-e966-4d45-8db0-75445184ada6","ios":"levelo://app?vid=db4939ac-e966-4d45-8db0-75445184ada6"},"vehicle_type_id":"4","last_reported":1748420085,"current_range_meters":3200,"station_id":"ce4bgh92rcd13ifvqb50","pricing_plan_id":"cebpf4jnsgd1na2vs0mg"},{"bike_id":"5cfe8527-58b1-4f69-b893-13b42152f2a4","system_id":"levelo_inurba_marseille","lat":43.31224,"lon":5.36858,"is_reserved":false,"is_disabled":false,"rental_uris":{"android":"levelo://app?vid=5cfe8527-58b1-4f69-b893-13b42152f2a4","ios":"levelo://app?vid=5cfe8527-58b1-4f69-b893-13b42152f2a4"},"vehicle_type_id":"4","last_reported":1748420085,"current_range_meters":3200,"station_id":"ce4bgl92rcd13ifvqbq0","pricing_plan_id":"cebpf4jnsgd1na2vs0mg"},{"bike_id":"eb684bf4-a04e-4969-85a7-6bc9df0d61b0","system_id":"levelo_inurba_marseille","lat":43.31403,"lon":5.367,"is_reserved":false,"is_disabled":false,"rental_uris":{"android":"levelo://app?vid=eb684bf4-a04e-4969-85a7-6bc9df0d61b0","ios":"levelo://app?vid=eb684bf4-a04e-4969-85a7-6bc9df0d61b0"},"vehicle_type_id":"4","last_reported":1748420085,"current_range_meters":3600,"station_id":"","pricing_plan_id":"cebpf4jnsgd1na2vs0mg"},{"bike_id":"acf2da3f-d35c-4d69-bfb3-50ce79c070c9","system_id":"levelo_inurba_marseille","lat":43.29574,"lon":5.39989,"is_reserved":false,"is_disabled":false,"rental_uris":{"android":"levelo://app?vid=acf2da3f-d35c-4d69-bfb3-50ce79c070c9","ios":"levelo://app?vid=acf2da3f-d35c-4d69-bfb3-50ce79c070c9"},"vehicle_type_id":"4","last_reported":1748420085,"current_range_meters":4000,"station_id":"ce4bh312rcd13ifvqdj0","pricing_plan_id":"cebpf4jnsgd1na2vs0mg"},{"bike_id":"2dd60c84-4a09-4628-b902-58bf35f92376","system_id":"levelo_inurba_marseille","lat":43.23149,"lon":5.43722,"is_reserved":false,"is_disabled":false,"rental_uris":{"android":"levelo://app?vid=2dd60c84-4a09-4628-b902-58bf35f92376","ios":"levelo://app?vid=2dd60c84-4a09-4628-b902-58bf35f92376"},"vehicle_type_id":"4","last_reported":1748420085,"current_range_meters":4000,"station_id":"ce4bhmp2rcd13ifvqgog","pricing_plan_id":"cebpf4jnsgd1na2vs0mg"},{"bike_id":"f4476ec0-68be-46aa-b4cd-0fbf2be2af07","system_id":"levelo_inurba_marseille","lat":43.30943,"lon":5.39023,"is_reserved":false,"is_disabled":false,"rental_uris":{"android":"levelo://app?vid=f4476ec0-68be-46aa-b4cd-0fbf2be2af07","ios":"levelo://app?vid=f4476ec0-68be-46aa-b4cd-0fbf2be2af07"},"vehicle_type_id":"4","last_reported":1748420085,"current_range_meters":4400,"station_id":"ce4bgup2rcd13ifvqco0","pricing_plan_id":"cebpf4jnsgd1na2vs0mg"},{"bike_id":"3f1e173e-5538-4798-8bce-4d559b01ef1e","system_id":"levelo_inurba_marseille","lat":43.259467,"lon":5.408913,"is_reserved":false,"is_disabled":false,"rental_uris":{"android":"levelo://app?vid=3f1e173e-5538-4798-8bce-4d559b01ef1e","ios":"levelo://app?vid=3f1e173e-5538-4798-8bce-4d559b01ef1e"},"vehicle_type_id":"4","last_reported":1748420085,"current_range_meters":4400,"station_id":"ce4bhm92rcd13ifvqglg","pricing_plan_id":"cebpf4jnsgd1na2vs0mg"},{"bike_id":"e9822bf6-601d-4e3b-a97c-5d51f2fe51a3","system_id":"levelo_inurba_marseille","lat":43.279746,"lon":5.387354,"is_reserved":false,"is_disabled":false,"rental_uris":{"android":"levelo://app?vid=e9822bf6-601d-4e3b-a97c-5d51f2fe51a3","ios":"levelo://app?vid=e9822bf6-601d-4e3b-a97c-5d51f2fe51a3"},"vehicle_type_id":"4","last_reported":1748420085,"current_range_meters":4400,"station_id":"","pricing_plan_id":"cebpf4jnsgd1na2vs0mg"},{"bike_id":"c2b0a191-bf31-4e89-8dc5-11d646e535b1","system_id":"levelo_inurba_marseille","lat":43.254969,"lon":5.37649,"is_reserved":false,"is_disabled":false,"rental_uris":{"android":"levelo://app?vid=c2b0a191-bf31-4e89-8dc5-11d646e535b1","ios":"levelo://app?vid=c2b0a191-bf31-4e89-8dc5-11d646e535b1"},"vehicle_type_id":"4","last_reported":1748420085,"current_range_meters":4400,"station_id":"","pricing_plan_id":"cebpf4jnsgd1na2vs0mg"},{"bike_id":"db2ac856-f79c-426b-96e3-52526435259b","system_id":"levelo_inurba_marseille","lat":43.25926,"lon":5.40897,"is_reserved":false,"is_disabled":false,"rental_uris":{"android":"levelo://app?vid=db2ac856-f79c-426b-96e3-52526435259b","ios":"levelo://app?vid=db2ac856-f79c-426b-96e3-52526435259b"},"vehicle_type_id":"4","last_reported":1748420085,"current_range_meters":4400,"station_id":"ce4bhm92rcd13ifvqglg","pricing_plan_id":"cebpf4jnsgd1na2vs0mg"},{"bike_id":"43243807-885e-406c-abfe-b3eb7125a494","system_id":"levelo_inurba_marseille","lat":43.33724,"lon":5.39197,"is_reserved":false,"is_disabled":false,"rental_uris":{"android":"levelo://app?vid=43243807-885e-406c-abfe-b3eb7125a494","ios":"levelo://app?vid=43243807-885e-406c-abfe-b3eb7125a494"},"vehicle_type_id":"4","last_reported":1748420085,"current_range_meters":4800,"station_id":"ce4bhr92rcd13ifvqhsg","pricing_plan_id":"cebpf4jnsgd1na2vs0mg"},{"bike_id":"d2693940-da65-42c6-a325-1a7edb7b8cd7","system_id":"levelo_inurba_marseille","lat":43.30461,"lon":5.37906,"is_reserved":false,"is_disabled":false,"rental_uris":{"android":"levelo://app?vid=d2693940-da65-42c6-a325-1a7edb7b8cd7","ios":"levelo://app?vid=d2693940-da65-42c6-a325-1a7edb7b8cd7"},"vehicle_type_id":"4","last_reported":1748420085,"current_range_meters":4800,"station_id":"ce4bgup2rcd13ifvqcn0","pricing_plan_id":"cebpf4jnsgd1na2vs0mg"},{"bike_id":"3b452a51-b8d0-4f8d-861c-e53d81707fef","system_id":"levelo_inurba_marseille","lat":43.2318,"lon":5.39986,"is_reserved":false,"is_disabled":false,"rental_uris":{"android":"levelo://app?vid=3b452a51-b8d0-4f8d-861c-e53d81707fef","ios":"levelo://app?vid=3b452a51-b8d0-4f8d-861c-e53d81707fef"},"vehicle_type_id":"4","last_reported":1748420085,"current_range_meters":4800,"station_id":"ce4bhn12rcd13ifvqgqg","pricing_plan_id":"cebpf4jnsgd1na2vs0mg"},{"bike_id":"ae6e6868-2635-4f49-b7c1-b03759c58ec7","system_id":"levelo_inurba_marseille","lat":43.27283,"lon":5.41581,"is_reserved":false,"is_disabled":false,"rental_uris":{"android":"levelo://app?vid=ae6e6868-2635-4f49-b7c1-b03759c58ec7","ios":"levelo://app?vid=ae6e6868-2635-4f49-b7c1-b03759c58ec7"},"vehicle_type_id":"4","last_reported":1748420085,"current_range_meters":4800,"station_id":"","pricing_plan_id":"cebpf4jnsgd1na2vs0mg"},{"bike_id":"f0a3c6d4-20e2-47a1-882e-7a3d7d4faefc","system_id":"levelo_inurba_marseille","lat":43.254963,"lon":5.376508,"is_reserved":false,"is_disabled":true,"rental_uris":{"android":"levelo://app?vid=f0a3c6d4-20e2-47a1-882e-7a3d7d4faefc","ios":"levelo://app?vid=f0a3c6d4-20e2-47a1-882e-7a3d7d4faefc"},"vehicle_type_id":"4","last_reported":1748420085,"current_range_meters":4800,"station_id":"","pricing_plan_id":"cebpf4jnsgd1na2vs0mg"},{"bike_id":"c4b6480c-6e23-4456-96a5-c35c6d3202d2","system_id":"levelo_inurba_marseille","lat":43.30146,"lon":5.37427,"is_reserved":false,"is_disabled":false,"rental_uris":{"android":"levelo://app?vid=c4b6480c-6e23-4456-96a5-c35c6d3202d2","ios":"levelo://app?vid=c4b6480c-6e23-4456-96a5-c35c6d3202d2"},"vehicle_type_id":"4","last_reported":1748420085,"current_range_meters":4800,"station_id":"ce4bgs92rcd13ifvqcc0","pricing_plan_id":"cebpf4jnsgd1na2vs0mg"},{"bike_id":"c0ace1fb-ccc0-4ab4-b182-6d36f964f7dc","system_id":"levelo_inurba_marseille","lat":43.305385,"lon":5.367252,"is_reserved":false,"is_disabled":false,"rental_uris":{"android":"levelo://app?vid=c0ace1fb-ccc0-4ab4-b182-6d36f964f7dc","ios":"levelo://app?vid=c0ace1fb-ccc0-4ab4-b182-6d36f964f7dc"},"vehicle_type_id":"4","last_reported":1748420085,"current_range_meters":4800,"station_id":"ce4bgrp2rcd13ifvqc9g","pricing_plan_id":"cebpf4jnsgd1na2vs0mg"},{"bike_id":"70b8d7b3-a5d3-4b96-bc08-d4df14e64b2c","system_id":"levelo_inurba_marseille","lat":43.23153,"lon":5.43706,"is_reserved":false,"is_disabled":false,"rental_uris":{"android":"levelo://app?vid=70b8d7b3-a5d3-4b96-bc08-d4df14e64b2c","ios":"levelo://app?vid=70b8d7b3-a5d3-4b96-bc08-d4df14e64b2c"},"vehicle_type_id":"4","last_reported":1748420085,"current_range_meters":5600,"station_id":"ce4bhmp2rcd13ifvqgog","pricing_plan_id":"cebpf4jnsgd1na2vs0mg"},{"bike_id":"26b809fe-7001-460d-9993-fc5bf733b25b","system_id":"levelo_inurba_marseille","lat":43.26782,"lon":5.39417,"is_reserved":false,"is_disabled":false,"rental_uris":{"android":"levelo://app?vid=26b809fe-7001-460d-9993-fc5bf733b25b","ios":"levelo://app?vid=26b809fe-7001-460d-9993-fc5bf733b25b"},"vehicle_type_id":"4","last_reported":1748420085,"current_range_meters":6000,"station_id":"ce4bhh12rcd13ifvqfg0","pricing_plan_id":"cebpf4jnsgd1na2vs0mg"},{"bike_id":"0a0d3781-2f01-4226-bd26-9af790b36eed","system_id":"levelo_inurba_marseille","lat":43.24081,"lon":5.37753,"is_reserved":false,"is_disabled":false,"rental_uris":{"android":"levelo://app?vid=0a0d3781-2f01-4226-bd26-9af790b36eed","ios":"levelo://app?vid=0a0d3781-2f01-4226-bd26-9af790b36eed"},"vehicle_type_id":"4","last_reported":1748420085,"current_range_meters":5600,"station_id":"ce4bhnp2rcd13ifvqgvg","pricing_plan_id":"cebpf4jnsgd1na2vs0mg"},{"bike_id":"aa14e650-aaf4-4bbf-afca-c5e0de4100d2","system_id":"levelo_inurba_marseille","lat":43.280024,"lon":5.40008,"is_reserved":false,"is_disabled":false,"rental_uris":{"android":"levelo://app?vid=aa14e650-aaf4-4bbf-afca-c5e0de4100d2","ios":"levelo://app?vid=aa14e650-aaf4-4bbf-afca-c5e0de4100d2"},"vehicle_type_id":"4","last_reported":1748420085,"current_range_meters":9600,"station_id":"ce4bho92rcd13ifvqh4g","pricing_plan_id":"cebpf4jnsgd1na2vs0mg"},{"bike_id":"8ac2acc6-b767-4c1c-bcde-982458034c88","system_id":"levelo_inurba_marseille","lat":43.31208,"lon":5.41616,"is_reserved":false,"is_disabled":false,"rental_uris":{"android":"levelo://app?vid=8ac2acc6-b767-4c1c-bcde-982458034c88","ios":"levelo://app?vid=8ac2acc6-b767-4c1c-bcde-982458034c88"},"vehicle_type_id":"4","last_reported":1748420085,"current_range_meters":6000,"station_id":"","pricing_plan_id":"cebpf4jnsgd1na2vs0mg"},{"bike_id":"2a6840db-82a6-48d5-a9c3-77cf7dbd2249","system_id":"levelo_inurba_marseille","lat":43.25861,"lon":5.39896,"is_reserved":false,"is_disabled":false,"rental_uris":{"android":"levelo://app?vid=2a6840db-82a6-48d5-a9c3-77cf7dbd2249","ios":"levelo://app?vid=2a6840db-82a6-48d5-a9c3-77cf7dbd2249"},"vehicle_type_id":"4","last_reported":1748420085,"current_range_meters":6000,"station_id":"ce4bhl92rcd13ifvqghg","pricing_plan_id":"cebpf4jnsgd1na2vs0mg"},{"bike_id":"2d37ac83-e37c-4be8-985f-7d5ca12b5c1e","system_id":"levelo_inurba_marseille","lat":43.29302,"lon":5.37469,"is_reserved":false,"is_disabled":false,"rental_uris":{"android":"levelo://app?vid=2d37ac83-e37c-4be8-985f-7d5ca12b5c1e","ios":"levelo://app?vid=2d37ac83-e37c-4be8-985f-7d5ca12b5c1e"},"vehicle_type_id":"4","last_reported":1748420085,"current_range_meters":6000,"station_id":"ce4bgi12rcd13ifvqb70","pricing_plan_id":"cebpf4jnsgd1na2vs0mg"},{"bike_id":"ceb81090-b40e-47dd-bc35-8598d269ef58","system_id":"levelo_inurba_marseille","lat":43.26653,"lon":5.3843,"is_reserved":false,"is_disabled":false,"rental_uris":{"android":"levelo://app?vid=ceb81090-b40e-47dd-bc35-8598d269ef58","ios":"levelo://app?vid=ceb81090-b40e-47dd-bc35-8598d269ef58"},"vehicle_type_id":"4","last_reported":1748420085,"current_range_meters":6400,"station_id":"","pricing_plan_id":"cebpf4jnsgd1na2vs0mg"},{"bike_id":"f2c30cbd-ae7b-4568-a297-6260345aa9ba","system_id":"levelo_inurba_marseille","lat":43.31191,"lon":5.3689,"is_reserved":false,"is_disabled":false,"rental_uris":{"android":"levelo://app?vid=f2c30cbd-ae7b-4568-a297-6260345aa9ba","ios":"levelo://app?vid=f2c30cbd-ae7b-4568-a297-6260345aa9ba"},"vehicle_type_id":"4","last_reported":1748420085,"current_range_meters":6400,"station_id":"ce4bgl92rcd13ifvqbq0","pricing_plan_id":"cebpf4jnsgd1na2vs0mg"},{"bike_id":"eb561b10-1476-4dd2-b0e1-2757341128d2","system_id":"levelo_inurba_marseille","lat":43.32334,"lon":5.40621,"is_reserved":false,"is_disabled":false,"rental_uris":{"android":"levelo://app?vid=eb561b10-1476-4dd2-b0e1-2757341128d2","ios":"levelo://app?vid=eb561b10-1476-4dd2-b0e1-2757341128d2"},"vehicle_type_id":"4","last_reported":1748420085,"current_range_meters":6400,"station_id":"ce4bhq92rcd13ifvqhjg","pricing_plan_id":"cebpf4jnsgd1na2vs0mg"},{"bike_id":"c2f75e22-6fed-4646-a5c2-8cb463b122f4","system_id":"levelo_inurba_marseille","lat":43.32265,"lon":5.37632,"is_reserved":false,"is_disabled":false,"rental_uris":{"android":"levelo://app?vid=c2f75e22-6fed-4646-a5c2-8cb463b122f4","ios":"levelo://app?vid=c2f75e22-6fed-4646-a5c2-8cb463b122f4"},"vehicle_type_id":"4","last_reported":1748420085,"current_range_meters":6400,"station_id":"","pricing_plan_id":"cebpf4jnsgd1na2vs0mg"},{"bike_id":"91844fe0-3357-4825-9bf4-60dc4895331f","system_id":"levelo_inurba_marseille","lat":43.25938,"lon":5.40905,"is_reserved":false,"is_disabled":false,"rental_uris":{"android":"levelo://app?vid=91844fe0-3357-4825-9bf4-60dc4895331f","ios":"levelo://app?vid=91844fe0-3357-4825-9bf4-60dc4895331f"},"vehicle_type_id":"4","last_reported":1748420085,"current_range_meters":6800,"station_id":"ce4bhm92rcd13ifvqglg","pricing_plan_id":"cebpf4jnsgd1na2vs0mg"},{"bike_id":"760bcd8b-a4e0-4b4e-bedb-6462d7843576","system_id":"levelo_inurba_marseille","lat":43.29282,"lon":5.3684,"is_reserved":false,"is_disabled":false,"rental_uris":{"android":"levelo://app?vid=760bcd8b-a4e0-4b4e-bedb-6462d7843576","ios":"levelo://app?vid=760bcd8b-a4e0-4b4e-bedb-6462d7843576"},"vehicle_type_id":"4","last_reported":1748420085,"current_range_meters":6800,"station_id":"ce4bhbp2rcd13ifvqesg","pricing_plan_id":"cebpf4jnsgd1na2vs0mg"},{"bike_id":"6901aa21-7c98-4526-95e5-d4a67822cbfd","system_id":"levelo_inurba_marseille","lat":43.270572,"lon":5.402556,"is_reserved":false,"is_disabled":false,"rental_uris":{"android":"levelo://app?vid=6901aa21-7c98-4526-95e5-d4a67822cbfd","ios":"levelo://app?vid=6901aa21-7c98-4526-95e5-d4a67822cbfd"},"vehicle_type_id":"4","last_reported":1748420085,"current_range_meters":6800,"station_id":"ce4bhk92rcd13ifvqgc0","pricing_plan_id":"cebpf4jnsgd1na2vs0mg"},{"bike_id":"96c7438f-01e1-41e8-a9a4-c50c54a22ee3","system_id":"levelo_inurba_marseille","lat":43.25925,"lon":5.40894,"is_reserved":false,"is_disabled":false,"rental_uris":{"android":"levelo://app?vid=96c7438f-01e1-41e8-a9a4-c50c54a22ee3","ios":"levelo://app?vid=96c7438f-01e1-41e8-a9a4-c50c54a22ee3"},"vehicle_type_id":"4","last_reported":1748420085,"current_range_meters":7200,"station_id":"ce4bhm92rcd13ifvqglg","pricing_plan_id":"cebpf4jnsgd1na2vs0mg"},{"bike_id":"e739c7ef-8e2d-4fa9-a980-e1a32a8c86dd","system_id":"levelo_inurba_marseille","lat":43.26931,"lon":5.38921,"is_reserved":false,"is_disabled":false,"rental_uris":{"android":"levelo://app?vid=e739c7ef-8e2d-4fa9-a980-e1a32a8c86dd","ios":"levelo://app?vid=e739c7ef-8e2d-4fa9-a980-e1a32a8c86dd"},"vehicle_type_id":"4","last_reported":1748420085,"current_range_meters":7200,"station_id":"ce4bhhh2rcd13ifvqfl0","pricing_plan_id":"cebpf4jnsgd1na2vs0mg"},{"bike_id":"f4dd589b-5b58-470a-a2c9-9de3a4398e71","system_id":"levelo_inurba_marseille","lat":43.22926,"lon":5.35384,"is_reserved":false,"is_disabled":false,"rental_uris":{"android":"levelo://app?vid=f4dd589b-5b58-470a-a2c9-9de3a4398e71","ios":"levelo://app?vid=f4dd589b-5b58-470a-a2c9-9de3a4398e71"},"vehicle_type_id":"4","last_reported":1748420085,"current_range_meters":7200,"station_id":"cpo3532slgdg3j2ikp40","pricing_plan_id":"cebpf4jnsgd1na2vs0mg"},{"bike_id":"8a8da44b-f0bc-49bf-a97a-1dee19c6a572","system_id":"levelo_inurba_marseille","lat":43.231957,"lon":5.355465,"is_reserved":false,"is_disabled":false,"rental_uris":{"android":"levelo://app?vid=8a8da44b-f0bc-49bf-a97a-1dee19c6a572","ios":"levelo://app?vid=8a8da44b-f0bc-49bf-a97a-1dee19c6a572"},"vehicle_type_id":"4","last_reported":1748420085,"current_range_meters":7200,"station_id":"ce4bhu92rcd13ifvqi70","pricing_plan_id":"cebpf4jnsgd1na2vs0mg"},{"bike_id":"abc174b4-763a-4826-a8a6-3ce384e8f858","system_id":"levelo_inurba_marseille","lat":43.24064,"lon":5.37761,"is_reserved":false,"is_disabled":false,"rental_uris":{"android":"levelo://app?vid=abc174b4-763a-4826-a8a6-3ce384e8f858","ios":"levelo://app?vid=abc174b4-763a-4826-a8a6-3ce384e8f858"},"vehicle_type_id":"4","last_reported":1748420085,"current_range_meters":7200,"station_id":"ce4bhnp2rcd13ifvqgvg","pricing_plan_id":"cebpf4jnsgd1na2vs0mg"},{"bike_id":"47c28cc5-aa5e-409a-b951-060c049f003e","system_id":"levelo_inurba_marseille","lat":43.26561,"lon":5.39011,"is_reserved":false,"is_disabled":false,"rental_uris":{"android":"levelo://app?vid=47c28cc5-aa5e-409a-b951-060c049f003e","ios":"levelo://app?vid=47c28cc5-aa5e-409a-b951-060c049f003e"},"vehicle_type_id":"4","last_reported":1748420085,"current_range_meters":7200,"station_id":"ce4bhe12rcd13ifvqf30","pricing_plan_id":"cebpf4jnsgd1na2vs0mg"},{"bike_id":"26b8985f-13c2-48a3-a063-6799853d6989","system_id":"levelo_inurba_marseille","lat":43.30909,"lon":5.3685,"is_reserved":false,"is_disabled":false,"rental_uris":{"android":"levelo://app?vid=26b8985f-13c2-48a3-a063-6799853d6989","ios":"levelo://app?vid=26b8985f-13c2-48a3-a063-6799853d6989"},"vehicle_type_id":"4","last_reported":1748420085,"current_range_meters":8000,"station_id":"ce4bgn92rcd13ifvqbvg","pricing_plan_id":"cebpf4jnsgd1na2vs0mg"},{"bike_id":"cab3602a-0bc3-479b-a557-ecf35411506f","system_id":"levelo_inurba_marseille","lat":43.3095,"lon":5.39051,"is_reserved":false,"is_disabled":false,"rental_uris":{"android":"levelo://app?vid=cab3602a-0bc3-479b-a557-ecf35411506f","ios":"levelo://app?vid=cab3602a-0bc3-479b-a557-ecf35411506f"},"vehicle_type_id":"4","last_reported":1748420085,"current_range_meters":8000,"station_id":"ce4bgup2rcd13ifvqco0","pricing_plan_id":"cebpf4jnsgd1na2vs0mg"},{"bike_id":"f1fc7d9d-c4b9-4792-a6dd-176994d380f7","system_id":"levelo_inurba_marseille","lat":43.33053,"lon":5.39041,"is_reserved":false,"is_disabled":false,"rental_uris":{"android":"levelo://app?vid=f1fc7d9d-c4b9-4792-a6dd-176994d380f7","ios":"levelo://app?vid=f1fc7d9d-c4b9-4792-a6dd-176994d380f7"},"vehicle_type_id":"4","last_reported":1748420085,"current_range_meters":8000,"station_id":"ce4bhr92rcd13ifvqhrg","pricing_plan_id":"cebpf4jnsgd1na2vs0mg"},{"bike_id":"1c4d626c-93ab-41b9-815e-96048904b577","system_id":"levelo_inurba_marseille","lat":43.24068,"lon":5.37758,"is_reserved":false,"is_disabled":false,"rental_uris":{"android":"levelo://app?vid=1c4d626c-93ab-41b9-815e-96048904b577","ios":"levelo://app?vid=1c4d626c-93ab-41b9-815e-96048904b577"},"vehicle_type_id":"4","last_reported":1748420085,"current_range_meters":8000,"station_id":"ce4bhnp2rcd13ifvqgvg","pricing_plan_id":"cebpf4jnsgd1na2vs0mg"},{"bike_id":"1299cbc6-d4d8-46ad-9df9-f42fe3791396","system_id":"levelo_inurba_marseille","lat":43.25904,"lon":5.40885,"is_reserved":false,"is_disabled":false,"rental_uris":{"android":"levelo://app?vid=1299cbc6-d4d8-46ad-9df9-f42fe3791396","ios":"levelo://app?vid=1299cbc6-d4d8-46ad-9df9-f42fe3791396"},"vehicle_type_id":"4","last_reported":1748420085,"current_range_meters":8000,"station_id":"ce4bhm92rcd13ifvqglg","pricing_plan_id":"cebpf4jnsgd1na2vs0mg"},{"bike_id":"1f46cb97-d7ed-4f86-9342-b2c6bea37a62","system_id":"levelo_inurba_marseille","lat":43.26229,"lon":5.40452,"is_reserved":false,"is_disabled":false,"rental_uris":{"android":"levelo://app?vid=1f46cb97-d7ed-4f86-9342-b2c6bea37a62","ios":"levelo://app?vid=1f46cb97-d7ed-4f86-9342-b2c6bea37a62"},"vehicle_type_id":"4","last_reported":1748420085,"current_range_meters":8000,"station_id":"ce4bhmh2rcd13ifvqgmg","pricing_plan_id":"cebpf4jnsgd1na2vs0mg"},{"bike_id":"86314b06-bdd9-4402-b0b9-d3e9d895f913","system_id":"levelo_inurba_marseille","lat":43.289186,"lon":5.363113,"is_reserved":false,"is_disabled":false,"rental_uris":{"android":"levelo://app?vid=86314b06-bdd9-4402-b0b9-d3e9d895f913","ios":"levelo://app?vid=86314b06-bdd9-4402-b0b9-d3e9d895f913"},"vehicle_type_id":"4","last_reported":1748420085,"current_range_meters":6800,"station_id":"ce4bhc92rcd13ifvqetg","pricing_plan_id":"cebpf4jnsgd1na2vs0mg"},{"bike_id":"31eb1c1c-c5a5-4f60-aaa0-7dd8c371696a","system_id":"levelo_inurba_marseille","lat":43.27958,"lon":5.41048,"is_reserved":false,"is_disabled":true,"rental_uris":{"android":"levelo://app?vid=31eb1c1c-c5a5-4f60-aaa0-7dd8c371696a","ios":"levelo://app?vid=31eb1c1c-c5a5-4f60-aaa0-7dd8c371696a"},"vehicle_type_id":"4","last_reported":1748420085,"current_range_meters":8400,"station_id":"ce4bhnp2rcd13ifvqh0g","pricing_plan_id":"cebpf4jnsgd1na2vs0mg"},{"bike_id":"50bf940f-deac-4a07-9325-7d7c9c2a5f73","system_id":"levelo_inurba_marseille","lat":43.25895,"lon":5.40889,"is_reserved":false,"is_disabled":false,"rental_uris":{"android":"levelo://app?vid=50bf940f-deac-4a07-9325-7d7c9c2a5f73","ios":"levelo://app?vid=50bf940f-deac-4a07-9325-7d7c9c2a5f73"},"vehicle_type_id":"4","last_reported":1748420085,"current_range_meters":8400,"station_id":"ce4bhm92rcd13ifvqglg","pricing_plan_id":"cebpf4jnsgd1na2vs0mg"},{"bike_id":"dcc40cff-6ee1-45dd-982d-275e877ba331","system_id":"levelo_inurba_marseille","lat":43.30594,"lon":5.37221,"is_reserved":false,"is_disabled":false,"rental_uris":{"android":"levelo://app?vid=dcc40cff-6ee1-45dd-982d-275e877ba331","ios":"levelo://app?vid=dcc40cff-6ee1-45dd-982d-275e877ba331"},"vehicle_type_id":"4","last_reported":1748420085,"current_range_meters":8400,"station_id":"ce4bgqh2rcd13ifvqc4g","pricing_plan_id":"cebpf4jnsgd1na2vs0mg"},{"bike_id":"436d70fa-07c2-41b1-9b01-3bed2b522ce2","system_id":"levelo_inurba_marseille","lat":43.30376,"lon":5.42475,"is_reserved":false,"is_disabled":false,"rental_uris":{"android":"levelo://app?vid=436d70fa-07c2-41b1-9b01-3bed2b522ce2","ios":"levelo://app?vid=436d70fa-07c2-41b1-9b01-3bed2b522ce2"},"vehicle_type_id":"4","last_reported":1748420085,"current_range_meters":8400,"station_id":"ce4bhoh2rcd13ifvqh6g","pricing_plan_id":"cebpf4jnsgd1na2vs0mg"},{"bike_id":"630e3090-df9f-4e61-a2d8-b2bbefd032a0","system_id":"levelo_inurba_marseille","lat":43.24613,"lon":5.39294,"is_reserved":false,"is_disabled":false,"rental_uris":{"android":"levelo://app?vid=630e3090-df9f-4e61-a2d8-b2bbefd032a0","ios":"levelo://app?vid=630e3090-df9f-4e61-a2d8-b2bbefd032a0"},"vehicle_type_id":"4","last_reported":1748420085,"current_range_meters":8400,"station_id":"","pricing_plan_id":"cebpf4jnsgd1na2vs0mg"},{"bike_id":"1796e2a2-3afb-4149-81e0-2c9a7010b4ce","system_id":"levelo_inurba_marseille","lat":43.29499,"lon":5.37431,"is_reserved":false,"is_disabled":false,"rental_uris":{"android":"levelo://app?vid=1796e2a2-3afb-4149-81e0-2c9a7010b4ce","ios":"levelo://app?vid=1796e2a2-3afb-4149-81e0-2c9a7010b4ce"},"vehicle_type_id":"4","last_reported":1748420085,"current_range_meters":8400,"station_id":"","pricing_plan_id":"cebpf4jnsgd1na2vs0mg"},{"bike_id":"10d3b10c-92de-4dcc-bd26-49019c4f970e","system_id":"levelo_inurba_marseille","lat":43.309535,"lon":5.390215,"is_reserved":false,"is_disabled":false,"rental_uris":{"android":"levelo://app?vid=10d3b10c-92de-4dcc-bd26-49019c4f970e","ios":"levelo://app?vid=10d3b10c-92de-4dcc-bd26-49019c4f970e"},"vehicle_type_id":"4","last_reported":1748420085,"current_range_meters":8400,"station_id":"ce4bgup2rcd13ifvqco0","pricing_plan_id":"cebpf4jnsgd1na2vs0mg"},{"bike_id":"5e3e594f-fda7-4525-be05-18d398e0ae6c","system_id":"levelo_inurba_marseille","lat":43.29849,"lon":5.36286,"is_reserved":false,"is_disabled":false,"rental_uris":{"android":"levelo://app?vid=5e3e594f-fda7-4525-be05-18d398e0ae6c","ios":"levelo://app?vid=5e3e594f-fda7-4525-be05-18d398e0ae6c"},"vehicle_type_id":"4","last_reported":1748420085,"current_range_meters":8400,"station_id":"ce4bgpp2rcd13ifvqc3g","pricing_plan_id":"cebpf4jnsgd1na2vs0mg"},{"bike_id":"ce243f79-97e1-4d08-8264-3b8fc271bfb9","system_id":"levelo_inurba_marseille","lat":43.31371,"lon":5.3669,"is_reserved":false,"is_disabled":false,"rental_uris":{"android":"levelo://app?vid=ce243f79-97e1-4d08-8264-3b8fc271bfb9","ios":"levelo://app?vid=ce243f79-97e1-4d08-8264-3b8fc271bfb9"},"vehicle_type_id":"4","last_reported":1748420085,"current_range_meters":8400,"station_id":"ce4bgr92rcd13ifvqc6g","pricing_plan_id":"cebpf4jnsgd1na2vs0mg"},{"bike_id":"a3ac0e4d-492d-457a-8b5d-3ba549ed986d","system_id":"levelo_inurba_marseille","lat":43.29423,"lon":5.39779,"is_reserved":false,"is_disabled":true,"rental_uris":{"android":"levelo://app?vid=a3ac0e4d-492d-457a-8b5d-3ba549ed986d","ios":"levelo://app?vid=a3ac0e4d-492d-457a-8b5d-3ba549ed986d"},"vehicle_type_id":"4","last_reported":1748420085,"current_range_meters":8800,"station_id":"ce4bh3h2rcd13ifvqdo0","pricing_plan_id":"cebpf4jnsgd1na2vs0mg"},{"bike_id":"7a65e3be-209f-451a-8d0f-734d6f59b819","system_id":"levelo_inurba_marseille","lat":43.29557,"lon":5.39468,"is_reserved":false,"is_disabled":false,"rental_uris":{"android":"levelo://app?vid=7a65e3be-209f-451a-8d0f-734d6f59b819","ios":"levelo://app?vid=7a65e3be-209f-451a-8d0f-734d6f59b819"},"vehicle_type_id":"4","last_reported":1748420085,"current_range_meters":8800,"station_id":"","pricing_plan_id":"cebpf4jnsgd1na2vs0mg"},{"bike_id":"5e0c2f21-5487-40f6-b008-7fc65c5d9a91","system_id":"levelo_inurba_marseille","lat":43.25582,"lon":5.38228,"is_reserved":false,"is_disabled":false,"rental_uris":{"android":"levelo://app?vid=5e0c2f21-5487-40f6-b008-7fc65c5d9a91","ios":"levelo://app?vid=5e0c2f21-5487-40f6-b008-7fc65c5d9a91"},"vehicle_type_id":"4","last_reported":1748420085,"current_range_meters":14000,"station_id":"ce4bhih2rcd13ifvqfs0","pricing_plan_id":"cebpf4jnsgd1na2vs0mg"},{"bike_id":"a3a1e2f8-c082-4657-9cf8-ceb282e14a71","system_id":"levelo_inurba_marseille","lat":43.23181,"lon":5.3999,"is_reserved":false,"is_disabled":false,"rental_uris":{"android":"levelo://app?vid=a3a1e2f8-c082-4657-9cf8-ceb282e14a71","ios":"levelo://app?vid=a3a1e2f8-c082-4657-9cf8-ceb282e14a71"},"vehicle_type_id":"4","last_reported":1748420085,"current_range_meters":8800,"station_id":"ce4bhn12rcd13ifvqgqg","pricing_plan_id":"cebpf4jnsgd1na2vs0mg"},{"bike_id":"2a046dee-b3af-48c9-9659-b7d30ba20af5","system_id":"levelo_inurba_marseille","lat":43.24331,"lon":5.37991,"is_reserved":false,"is_disabled":false,"rental_uris":{"android":"levelo://app?vid=2a046dee-b3af-48c9-9659-b7d30ba20af5","ios":"levelo://app?vid=2a046dee-b3af-48c9-9659-b7d30ba20af5"},"vehicle_type_id":"4","last_reported":1748420085,"current_range_meters":8800,"station_id":"","pricing_plan_id":"cebpf4jnsgd1na2vs0mg"},{"bike_id":"05df85d0-db73-419c-ae37-3810f0cddc7c","system_id":"levelo_inurba_marseille","lat":43.330261,"lon":5.39028,"is_reserved":false,"is_disabled":false,"rental_uris":{"android":"levelo://app?vid=05df85d0-db73-419c-ae37-3810f0cddc7c","ios":"levelo://app?vid=05df85d0-db73-419c-ae37-3810f0cddc7c"},"vehicle_type_id":"4","last_reported":1748420085,"current_range_meters":8800,"station_id":"ce4bhr92rcd13ifvqhrg","pricing_plan_id":"cebpf4jnsgd1na2vs0mg"},{"bike_id":"6bc28bcb-3ffe-4132-b315-af37096e3793","system_id":"levelo_inurba_marseille","lat":43.245392,"lon":5.395242,"is_reserved":false,"is_disabled":false,"rental_uris":{"android":"levelo://app?vid=6bc28bcb-3ffe-4132-b315-af37096e3793","ios":"levelo://app?vid=6bc28bcb-3ffe-4132-b315-af37096e3793"},"vehicle_type_id":"4","last_reported":1748420085,"current_range_meters":9200,"station_id":"ce4bhlp2rcd13ifvqgjg","pricing_plan_id":"cebpf4jnsgd1na2vs0mg"},{"bike_id":"ffd5f286-d9dc-43b3-806b-0c714552f36a","system_id":"levelo_inurba_marseille","lat":43.2926,"lon":5.38426,"is_reserved":false,"is_disabled":false,"rental_uris":{"android":"levelo://app?vid=ffd5f286-d9dc-43b3-806b-0c714552f36a","ios":"levelo://app?vid=ffd5f286-d9dc-43b3-806b-0c714552f36a"},"vehicle_type_id":"4","last_reported":1748420085,"current_range_meters":9200,"station_id":"ce4bh692rcd13ifvqea0","pricing_plan_id":"cebpf4jnsgd1na2vs0mg"},{"bike_id":"c19f4746-a3bf-4cf9-8c31-62dd0e7752ba","system_id":"levelo_inurba_marseille","lat":43.274913,"lon":5.42454,"is_reserved":false,"is_disabled":false,"rental_uris":{"android":"levelo://app?vid=c19f4746-a3bf-4cf9-8c31-62dd0e7752ba","ios":"levelo://app?vid=c19f4746-a3bf-4cf9-8c31-62dd0e7752ba"},"vehicle_type_id":"4","last_reported":1748420085,"current_range_meters":9200,"station_id":"ce4bhn92rcd13ifvqgrg","pricing_plan_id":"cebpf4jnsgd1na2vs0mg"},{"bike_id":"d815a58a-5752-4044-937d-b6b9005cea01","system_id":"levelo_inurba_marseille","lat":43.28725,"lon":5.37941,"is_reserved":false,"is_disabled":false,"rental_uris":{"android":"levelo://app?vid=d815a58a-5752-4044-937d-b6b9005cea01","ios":"levelo://app?vid=d815a58a-5752-4044-937d-b6b9005cea01"},"vehicle_type_id":"4","last_reported":1748420085,"current_range_meters":8000,"station_id":"ce4bh9p2rcd13ifvqec0","pricing_plan_id":"cebpf4jnsgd1na2vs0mg"},{"bike_id":"054314d5-9d7c-4873-9494-4f42b2677fed","system_id":"levelo_inurba_marseille","lat":43.31689,"lon":5.40469,"is_reserved":false,"is_disabled":false,"rental_uris":{"android":"levelo://app?vid=054314d5-9d7c-4873-9494-4f42b2677fed","ios":"levelo://app?vid=054314d5-9d7c-4873-9494-4f42b2677fed"},"vehicle_type_id":"4","last_reported":1748420085,"current_range_meters":9600,"station_id":"ce4bh012rcd13ifvqd00","pricing_plan_id":"cebpf4jnsgd1na2vs0mg"},{"bike_id":"81fd252e-9aec-4d99-91d4-42e1c514a805","system_id":"levelo_inurba_marseille","lat":43.27496,"lon":5.42458,"is_reserved":false,"is_disabled":false,"rental_uris":{"android":"levelo://app?vid=81fd252e-9aec-4d99-91d4-42e1c514a805","ios":"levelo://app?vid=81fd252e-9aec-4d99-91d4-42e1c514a805"},"vehicle_type_id":"4","last_reported":1748420085,"current_range_meters":9600,"station_id":"ce4bhn92rcd13ifvqgrg","pricing_plan_id":"cebpf4jnsgd1na2vs0mg"},{"bike_id":"bf14e1fe-82a1-400f-bc30-6a2708d91c30","system_id":"levelo_inurba_marseille","lat":43.30454,"lon":5.37908,"is_reserved":false,"is_disabled":false,"rental_uris":{"android":"levelo://app?vid=bf14e1fe-82a1-400f-bc30-6a2708d91c30","ios":"levelo://app?vid=bf14e1fe-82a1-400f-bc30-6a2708d91c30"},"vehicle_type_id":"4","last_reported":1748420085,"current_range_meters":10000,"station_id":"ce4bgup2rcd13ifvqcn0","pricing_plan_id":"cebpf4jnsgd1na2vs0mg"},{"bike_id":"37255b40-15b6-40bc-b3ab-45ac6fc8ab2c","system_id":"levelo_inurba_marseille","lat":43.29569,"lon":5.37506,"is_reserved":false,"is_disabled":false,"rental_uris":{"android":"levelo://app?vid=37255b40-15b6-40bc-b3ab-45ac6fc8ab2c","ios":"levelo://app?vid=37255b40-15b6-40bc-b3ab-45ac6fc8ab2c"},"vehicle_type_id":"4","last_reported":1748420085,"current_range_meters":10000,"station_id":"ce4bgh92rcd13ifvqb50","pricing_plan_id":"cebpf4jnsgd1na2vs0mg"},{"bike_id":"12a09175-03bd-4689-9626-a2bf629ae6b2","system_id":"levelo_inurba_marseille","lat":43.25862,"lon":5.39902,"is_reserved":false,"is_disabled":false,"rental_uris":{"android":"levelo://app?vid=12a09175-03bd-4689-9626-a2bf629ae6b2","ios":"levelo://app?vid=12a09175-03bd-4689-9626-a2bf629ae6b2"},"vehicle_type_id":"4","last_reported":1748420085,"current_range_meters":10000,"station_id":"ce4bhl92rcd13ifvqghg","pricing_plan_id":"cebpf4jnsgd1na2vs0mg"},{"bike_id":"8df45a8d-3714-43c4-86ff-683eedca0b91","system_id":"levelo_inurba_marseille","lat":43.33604,"lon":5.41031,"is_reserved":false,"is_disabled":false,"rental_uris":{"android":"levelo://app?vid=8df45a8d-3714-43c4-86ff-683eedca0b91","ios":"levelo://app?vid=8df45a8d-3714-43c4-86ff-683eedca0b91"},"vehicle_type_id":"4","last_reported":1748420085,"current_range_meters":10000,"station_id":"ce4bhqh2rcd13ifvqhmg","pricing_plan_id":"cebpf4jnsgd1na2vs0mg"},{"bike_id":"8f6dd6d3-e0f8-4650-980d-96a59985b2f8","system_id":"levelo_inurba_marseille","lat":43.30905,"lon":5.36852,"is_reserved":false,"is_disabled":false,"rental_uris":{"android":"levelo://app?vid=8f6dd6d3-e0f8-4650-980d-96a59985b2f8","ios":"levelo://app?vid=8f6dd6d3-e0f8-4650-980d-96a59985b2f8"},"vehicle_type_id":"4","last_reported":1748420085,"current_range_meters":10000,"station_id":"ce4bgn92rcd13ifvqbvg","pricing_plan_id":"cebpf4jnsgd1na2vs0mg"},{"bike_id":"1e9cfdb7-6b8a-4441-9f46-98e85a4be5d9","system_id":"levelo_inurba_marseille","lat":43.23169,"lon":5.43734,"is_reserved":false,"is_disabled":false,"rental_uris":{"android":"levelo://app?vid=1e9cfdb7-6b8a-4441-9f46-98e85a4be5d9","ios":"levelo://app?vid=1e9cfdb7-6b8a-4441-9f46-98e85a4be5d9"},"vehicle_type_id":"4","last_reported":1748420085,"current_range_meters":10000,"station_id":"ce4bhmp2rcd13ifvqgog","pricing_plan_id":"cebpf4jnsgd1na2vs0mg"},{"bike_id":"27aec23d-88b9-41f3-bf65-af7b1bcfc15f","system_id":"levelo_inurba_marseille","lat":43.24169,"lon":5.36397,"is_reserved":false,"is_disabled":false,"rental_uris":{"android":"levelo://app?vid=27aec23d-88b9-41f3-bf65-af7b1bcfc15f","ios":"levelo://app?vid=27aec23d-88b9-41f3-bf65-af7b1bcfc15f"},"vehicle_type_id":"4","last_reported":1748420085,"current_range_meters":10000,"station_id":"cpo36qri1sfpv3e86is0","pricing_plan_id":"cebpf4jnsgd1na2vs0mg"},{"bike_id":"efdc43ca-8c35-445b-901f-591823dbc6df","system_id":"levelo_inurba_marseille","lat":43.29978,"lon":5.37189,"is_reserved":false,"is_disabled":false,"rental_uris":{"android":"levelo://app?vid=efdc43ca-8c35-445b-901f-591823dbc6df","ios":"levelo://app?vid=efdc43ca-8c35-445b-901f-591823dbc6df"},"vehicle_type_id":"4","last_reported":1748420085,"current_range_meters":10000,"station_id":"ce4bgr92rcd13ifvqc7g","pricing_plan_id":"cebpf4jnsgd1na2vs0mg"},{"bike_id":"d64481ab-cd92-4789-b3c3-100830d34711","system_id":"levelo_inurba_marseille","lat":43.30536,"lon":5.3653,"is_reserved":false,"is_disabled":false,"rental_uris":{"android":"levelo://app?vid=d64481ab-cd92-4789-b3c3-100830d34711","ios":"levelo://app?vid=d64481ab-cd92-4789-b3c3-100830d34711"},"vehicle_type_id":"4","last_reported":1748420085,"current_range_meters":10000,"station_id":"ce4bgs12rcd13ifvqcag","pricing_plan_id":"cebpf4jnsgd1na2vs0mg"},{"bike_id":"96de0850-86a7-4563-b7ee-14dc640d193e","system_id":"levelo_inurba_marseille","lat":43.31329,"lon":5.36716,"is_reserved":false,"is_disabled":false,"rental_uris":{"android":"levelo://app?vid=96de0850-86a7-4563-b7ee-14dc640d193e","ios":"levelo://app?vid=96de0850-86a7-4563-b7ee-14dc640d193e"},"vehicle_type_id":"4","last_reported":1748420085,"current_range_meters":10000,"station_id":"ce4bgr92rcd13ifvqc6g","pricing_plan_id":"cebpf4jnsgd1na2vs0mg"},{"bike_id":"aa0a01e3-a099-410e-b81f-0b32d55ec13a","system_id":"levelo_inurba_marseille","lat":43.27966,"lon":5.387261,"is_reserved":false,"is_disabled":false,"rental_uris":{"android":"levelo://app?vid=aa0a01e3-a099-410e-b81f-0b32d55ec13a","ios":"levelo://app?vid=aa0a01e3-a099-410e-b81f-0b32d55ec13a"},"vehicle_type_id":"4","last_reported":1748420085,"current_range_meters":10000,"station_id":"ce4bhg12rcd13ifvqf80","pricing_plan_id":"cebpf4jnsgd1na2vs0mg"},{"bike_id":"f0ecbad3-5c56-4efa-84f0-9f2a84b7774d","system_id":"levelo_inurba_marseille","lat":43.32226,"lon":5.3841,"is_reserved":false,"is_disabled":false,"rental_uris":{"android":"levelo://app?vid=f0ecbad3-5c56-4efa-84f0-9f2a84b7774d","ios":"levelo://app?vid=f0ecbad3-5c56-4efa-84f0-9f2a84b7774d"},"vehicle_type_id":"4","last_reported":1748420085,"current_range_meters":10000,"station_id":"","pricing_plan_id":"cebpf4jnsgd1na2vs0mg"},{"bike_id":"eb2bfe96-4ed7-4e0f-85ed-bc9369f0c749","system_id":"levelo_inurba_marseille","lat":43.24382,"lon":5.37058,"is_reserved":false,"is_disabled":false,"rental_uris":{"android":"levelo://app?vid=eb2bfe96-4ed7-4e0f-85ed-bc9369f0c749","ios":"levelo://app?vid=eb2bfe96-4ed7-4e0f-85ed-bc9369f0c749"},"vehicle_type_id":"4","last_reported":1748420085,"current_range_meters":10800,"station_id":"ce4bhhh2rcd13ifvqfk0","pricing_plan_id":"cebpf4jnsgd1na2vs0mg"},{"bike_id":"3c56dcd8-9cf2-4351-9731-c84d974aac12","system_id":"levelo_inurba_marseille","lat":43.31236,"lon":5.3688,"is_reserved":false,"is_disabled":false,"rental_uris":{"android":"levelo://app?vid=3c56dcd8-9cf2-4351-9731-c84d974aac12","ios":"levelo://app?vid=3c56dcd8-9cf2-4351-9731-c84d974aac12"},"vehicle_type_id":"4","last_reported":1748420085,"current_range_meters":10800,"station_id":"ce4bgl92rcd13ifvqbq0","pricing_plan_id":"cebpf4jnsgd1na2vs0mg"},{"bike_id":"817d2aef-09ff-4af1-abbf-7e0c48650725","system_id":"levelo_inurba_marseille","lat":43.29844,"lon":5.36273,"is_reserved":false,"is_disabled":false,"rental_uris":{"android":"levelo://app?vid=817d2aef-09ff-4af1-abbf-7e0c48650725","ios":"levelo://app?vid=817d2aef-09ff-4af1-abbf-7e0c48650725"},"vehicle_type_id":"4","last_reported":1748420085,"current_range_meters":10800,"station_id":"ce4bgpp2rcd13ifvqc3g","pricing_plan_id":"cebpf4jnsgd1na2vs0mg"},{"bike_id":"22319486-9011-4941-b419-d6f809461a09","system_id":"levelo_inurba_marseille","lat":43.31372,"lon":5.38503,"is_reserved":false,"is_disabled":false,"rental_uris":{"android":"levelo://app?vid=22319486-9011-4941-b419-d6f809461a09","ios":"levelo://app?vid=22319486-9011-4941-b419-d6f809461a09"},"vehicle_type_id":"4","last_reported":1748420085,"current_range_meters":10800,"station_id":"ce4bgt92rcd13ifvqcf0","pricing_plan_id":"cebpf4jnsgd1na2vs0mg"},{"bike_id":"6ca3fe2f-1e73-486d-8308-93a639e51aac","system_id":"levelo_inurba_marseille","lat":43.24188,"lon":5.39722,"is_reserved":false,"is_disabled":false,"rental_uris":{"android":"levelo://app?vid=6ca3fe2f-1e73-486d-8308-93a639e51aac","ios":"levelo://app?vid=6ca3fe2f-1e73-486d-8308-93a639e51aac"},"vehicle_type_id":"4","last_reported":1748420085,"current_range_meters":10800,"station_id":"ce4bhn12rcd13ifvqgpg","pricing_plan_id":"cebpf4jnsgd1na2vs0mg"},{"bike_id":"39ff11f2-3c00-4ea5-a1d1-0d83a90bf121","system_id":"levelo_inurba_marseille","lat":43.284438,"lon":5.392078,"is_reserved":false,"is_disabled":false,"rental_uris":{"android":"levelo://app?vid=39ff11f2-3c00-4ea5-a1d1-0d83a90bf121","ios":"levelo://app?vid=39ff11f2-3c00-4ea5-a1d1-0d83a90bf121"},"vehicle_type_id":"4","last_reported":1748420085,"current_range_meters":10800,"station_id":"ce4bhoh2rcd13ifvqh5g","pricing_plan_id":"cebpf4jnsgd1na2vs0mg"},{"bike_id":"e98c7edf-e4f8-47c1-9506-8a1424e75d3d","system_id":"levelo_inurba_marseille","lat":43.29791,"lon":5.38158,"is_reserved":false,"is_disabled":false,"rental_uris":{"android":"levelo://app?vid=e98c7edf-e4f8-47c1-9506-8a1424e75d3d","ios":"levelo://app?vid=e98c7edf-e4f8-47c1-9506-8a1424e75d3d"},"vehicle_type_id":"4","last_reported":1748420085,"current_range_meters":10800,"station_id":"ce4bgip2rcd13ifvqbb0","pricing_plan_id":"cebpf4jnsgd1na2vs0mg"},{"bike_id":"b4e9975b-fd86-47f1-bbf3-03483b14154a","system_id":"levelo_inurba_marseille","lat":43.22931,"lon":5.3538,"is_reserved":false,"is_disabled":false,"rental_uris":{"android":"levelo://app?vid=b4e9975b-fd86-47f1-bbf3-03483b14154a","ios":"levelo://app?vid=b4e9975b-fd86-47f1-bbf3-03483b14154a"},"vehicle_type_id":"4","last_reported":1748420085,"current_range_meters":10800,"station_id":"cpo3532slgdg3j2ikp40","pricing_plan_id":"cebpf4jnsgd1na2vs0mg"},{"bike_id":"9ed94f34-a328-46fc-b201-bade39dda6d1","system_id":"levelo_inurba_marseille","lat":43.24996,"lon":5.38931,"is_reserved":false,"is_disabled":false,"rental_uris":{"android":"levelo://app?vid=9ed94f34-a328-46fc-b201-bade39dda6d1","ios":"levelo://app?vid=9ed94f34-a328-46fc-b201-bade39dda6d1"},"vehicle_type_id":"4","last_reported":1748420085,"current_range_meters":11200,"station_id":"ce4bhgp2rcd13ifvqfd0","pricing_plan_id":"cebpf4jnsgd1na2vs0mg"},{"bike_id":"dd92dbbf-2f51-42b5-bf8d-cc2fe1edd6b4","system_id":"levelo_inurba_marseille","lat":43.30964,"lon":5.39035,"is_reserved":false,"is_disabled":true,"rental_uris":{"android":"levelo://app?vid=dd92dbbf-2f51-42b5-bf8d-cc2fe1edd6b4","ios":"levelo://app?vid=dd92dbbf-2f51-42b5-bf8d-cc2fe1edd6b4"},"vehicle_type_id":"4","last_reported":1748420085,"current_range_meters":11200,"station_id":"ce4bgup2rcd13ifvqco0","pricing_plan_id":"cebpf4jnsgd1na2vs0mg"},{"bike_id":"fd3b8926-9732-4665-beec-b59272be973b","system_id":"levelo_inurba_marseille","lat":43.311925,"lon":5.401921,"is_reserved":false,"is_disabled":false,"rental_uris":{"android":"levelo://app?vid=fd3b8926-9732-4665-beec-b59272be973b","ios":"levelo://app?vid=fd3b8926-9732-4665-beec-b59272be973b"},"vehicle_type_id":"4","last_reported":1748420085,"current_range_meters":11200,"station_id":"","pricing_plan_id":"cebpf4jnsgd1na2vs0mg"},{"bike_id":"46f1e1a2-421d-4288-9b19-22918bc7cc7f","system_id":"levelo_inurba_marseille","lat":43.23186,"lon":5.35569,"is_reserved":false,"is_disabled":false,"rental_uris":{"android":"levelo://app?vid=46f1e1a2-421d-4288-9b19-22918bc7cc7f","ios":"levelo://app?vid=46f1e1a2-421d-4288-9b19-22918bc7cc7f"},"vehicle_type_id":"4","last_reported":1748420085,"current_range_meters":11200,"station_id":"ce4bhu92rcd13ifvqi70","pricing_plan_id":"cebpf4jnsgd1na2vs0mg"},{"bike_id":"ff2e7846-d058-4f27-a097-2a3f45e7b4df","system_id":"levelo_inurba_marseille","lat":43.312235,"lon":5.368573,"is_reserved":false,"is_disabled":false,"rental_uris":{"android":"levelo://app?vid=ff2e7846-d058-4f27-a097-2a3f45e7b4df","ios":"levelo://app?vid=ff2e7846-d058-4f27-a097-2a3f45e7b4df"},"vehicle_type_id":"4","last_reported":1748420085,"current_range_meters":11200,"station_id":"ce4bgl92rcd13ifvqbq0","pricing_plan_id":"cebpf4jnsgd1na2vs0mg"},{"bike_id":"831a1e08-2f2d-4593-b9ab-a476b8afdcf5","system_id":"levelo_inurba_marseille","lat":43.27015,"lon":5.40253,"is_reserved":false,"is_disabled":false,"rental_uris":{"android":"levelo://app?vid=831a1e08-2f2d-4593-b9ab-a476b8afdcf5","ios":"levelo://app?vid=831a1e08-2f2d-4593-b9ab-a476b8afdcf5"},"vehicle_type_id":"4","last_reported":1748420085,"current_range_meters":11200,"station_id":"ce4bhk92rcd13ifvqgc0","pricing_plan_id":"cebpf4jnsgd1na2vs0mg"},{"bike_id":"ab67ca32-c385-417d-a3d3-0d8fb35f00ed","system_id":"levelo_inurba_marseille","lat":43.30952,"lon":5.39033,"is_reserved":false,"is_disabled":false,"rental_uris":{"android":"levelo://app?vid=ab67ca32-c385-417d-a3d3-0d8fb35f00ed","ios":"levelo://app?vid=ab67ca32-c385-417d-a3d3-0d8fb35f00ed"},"vehicle_type_id":"4","last_reported":1748420085,"current_range_meters":11600,"station_id":"ce4bgup2rcd13ifvqco0","pricing_plan_id":"cebpf4jnsgd1na2vs0mg"},{"bike_id":"8ee6d50a-8cd9-4875-8432-1e16bab96b63","system_id":"levelo_inurba_marseille","lat":43.28729,"lon":5.37942,"is_reserved":false,"is_disabled":false,"rental_uris":{"android":"levelo://app?vid=8ee6d50a-8cd9-4875-8432-1e16bab96b63","ios":"levelo://app?vid=8ee6d50a-8cd9-4875-8432-1e16bab96b63"},"vehicle_type_id":"4","last_reported":1748420085,"current_range_meters":11600,"station_id":"ce4bh9p2rcd13ifvqec0","pricing_plan_id":"cebpf4jnsgd1na2vs0mg"},{"bike_id":"e40b21c9-91d9-46b2-95d4-6c86433e9bd7","system_id":"levelo_inurba_marseille","lat":43.27049,"lon":5.40255,"is_reserved":false,"is_disabled":false,"rental_uris":{"android":"levelo://app?vid=e40b21c9-91d9-46b2-95d4-6c86433e9bd7","ios":"levelo://app?vid=e40b21c9-91d9-46b2-95d4-6c86433e9bd7"},"vehicle_type_id":"4","last_reported":1748420085,"current_range_meters":11600,"station_id":"ce4bhk92rcd13ifvqgc0","pricing_plan_id":"cebpf4jnsgd1na2vs0mg"},{"bike_id":"f0d287d3-fb89-4470-83c2-7892b27ec2a4","system_id":"levelo_inurba_marseille","lat":43.28992,"lon":5.35598,"is_reserved":false,"is_disabled":false,"rental_uris":{"android":"levelo://app?vid=f0d287d3-fb89-4470-83c2-7892b27ec2a4","ios":"levelo://app?vid=f0d287d3-fb89-4470-83c2-7892b27ec2a4"},"vehicle_type_id":"4","last_reported":1748420085,"current_range_meters":11600,"station_id":"ce4bhb92rcd13ifvqen0","pricing_plan_id":"cebpf4jnsgd1na2vs0mg"},{"bike_id":"27b8534b-fc69-43fc-8e01-2d506e2a70e1","system_id":"levelo_inurba_marseille","lat":43.30556,"lon":5.36533,"is_reserved":false,"is_disabled":false,"rental_uris":{"android":"levelo://app?vid=27b8534b-fc69-43fc-8e01-2d506e2a70e1","ios":"levelo://app?vid=27b8534b-fc69-43fc-8e01-2d506e2a70e1"},"vehicle_type_id":"4","last_reported":1748420085,"current_range_meters":11600,"station_id":"ce4bgs12rcd13ifvqcag","pricing_plan_id":"cebpf4jnsgd1na2vs0mg"},{"bike_id":"c76cd349-671c-4dc1-96c0-276d7125f822","system_id":"levelo_inurba_marseille","lat":43.27996,"lon":5.40009,"is_reserved":false,"is_disabled":false,"rental_uris":{"android":"levelo://app?vid=c76cd349-671c-4dc1-96c0-276d7125f822","ios":"levelo://app?vid=c76cd349-671c-4dc1-96c0-276d7125f822"},"vehicle_type_id":"4","last_reported":1748420085,"current_range_meters":12000,"station_id":"ce4bho92rcd13ifvqh4g","pricing_plan_id":"cebpf4jnsgd1na2vs0mg"},{"bike_id":"5c1ec119-2384-46d6-856b-c17ee3b075f7","system_id":"levelo_inurba_marseille","lat":43.2593,"lon":5.40898,"is_reserved":false,"is_disabled":false,"rental_uris":{"android":"levelo://app?vid=5c1ec119-2384-46d6-856b-c17ee3b075f7","ios":"levelo://app?vid=5c1ec119-2384-46d6-856b-c17ee3b075f7"},"vehicle_type_id":"4","last_reported":1748420085,"current_range_meters":12000,"station_id":"ce4bhm92rcd13ifvqglg","pricing_plan_id":"cebpf4jnsgd1na2vs0mg"},{"bike_id":"04d43363-ff81-403c-bbca-b94708fa9e7f","system_id":"levelo_inurba_marseille","lat":43.25905,"lon":5.4091,"is_reserved":false,"is_disabled":false,"rental_uris":{"android":"levelo://app?vid=04d43363-ff81-403c-bbca-b94708fa9e7f","ios":"levelo://app?vid=04d43363-ff81-403c-bbca-b94708fa9e7f"},"vehicle_type_id":"4","last_reported":1748420085,"current_range_meters":12000,"station_id":"ce4bhm92rcd13ifvqglg","pricing_plan_id":"cebpf4jnsgd1na2vs0mg"},{"bike_id":"98377c28-6b3b-4163-9d34-1241df84d81a","system_id":"levelo_inurba_marseille","lat":43.30314,"lon":5.36911,"is_reserved":false,"is_disabled":false,"rental_uris":{"android":"levelo://app?vid=98377c28-6b3b-4163-9d34-1241df84d81a","ios":"levelo://app?vid=98377c28-6b3b-4163-9d34-1241df84d81a"},"vehicle_type_id":"4","last_reported":1748420085,"current_range_meters":12000,"station_id":"ce4bgqh2rcd13ifvqc5g","pricing_plan_id":"cebpf4jnsgd1na2vs0mg"},{"bike_id":"a9d7cedb-1bfb-477b-b70e-b0dbd3b1473e","system_id":"levelo_inurba_marseille","lat":43.24174,"lon":5.39721,"is_reserved":false,"is_disabled":false,"rental_uris":{"android":"levelo://app?vid=a9d7cedb-1bfb-477b-b70e-b0dbd3b1473e","ios":"levelo://app?vid=a9d7cedb-1bfb-477b-b70e-b0dbd3b1473e"},"vehicle_type_id":"4","last_reported":1748420085,"current_range_meters":12400,"station_id":"ce4bhn12rcd13ifvqgpg","pricing_plan_id":"cebpf4jnsgd1na2vs0mg"},{"bike_id":"25fe1924-4408-4709-a1de-804f3412a784","system_id":"levelo_inurba_marseille","lat":43.31357,"lon":5.36735,"is_reserved":false,"is_disabled":false,"rental_uris":{"android":"levelo://app?vid=25fe1924-4408-4709-a1de-804f3412a784","ios":"levelo://app?vid=25fe1924-4408-4709-a1de-804f3412a784"},"vehicle_type_id":"4","last_reported":1748420085,"current_range_meters":12400,"station_id":"ce4bgr92rcd13ifvqc6g","pricing_plan_id":"cebpf4jnsgd1na2vs0mg"},{"bike_id":"7d4b7938-5f20-4135-b4eb-d9b46121d7f0","system_id":"levelo_inurba_marseille","lat":43.25716,"lon":5.41113,"is_reserved":false,"is_disabled":false,"rental_uris":{"android":"levelo://app?vid=7d4b7938-5f20-4135-b4eb-d9b46121d7f0","ios":"levelo://app?vid=7d4b7938-5f20-4135-b4eb-d9b46121d7f0"},"vehicle_type_id":"4","last_reported":1748420085,"current_range_meters":12400,"station_id":"ce4bhkp2rcd13ifvqgd0","pricing_plan_id":"cebpf4jnsgd1na2vs0mg"},{"bike_id":"4038822b-b7b7-4578-8931-5a007f3945bd","system_id":"levelo_inurba_marseille","lat":43.309547,"lon":5.39023,"is_reserved":false,"is_disabled":true,"rental_uris":{"android":"levelo://app?vid=4038822b-b7b7-4578-8931-5a007f3945bd","ios":"levelo://app?vid=4038822b-b7b7-4578-8931-5a007f3945bd"},"vehicle_type_id":"4","last_reported":1748420085,"current_range_meters":12400,"station_id":"ce4bgup2rcd13ifvqco0","pricing_plan_id":"cebpf4jnsgd1na2vs0mg"},{"bike_id":"f8737cb1-bca0-41d6-aa53-9d44f7aca6c8","system_id":"levelo_inurba_marseille","lat":43.3095,"lon":5.39026,"is_reserved":false,"is_disabled":false,"rental_uris":{"android":"levelo://app?vid=f8737cb1-bca0-41d6-aa53-9d44f7aca6c8","ios":"levelo://app?vid=f8737cb1-bca0-41d6-aa53-9d44f7aca6c8"},"vehicle_type_id":"4","last_reported":1748420085,"current_range_meters":12400,"station_id":"ce4bgup2rcd13ifvqco0","pricing_plan_id":"cebpf4jnsgd1na2vs0mg"},{"bike_id":"d6cddff4-df58-4a72-b485-e4ae983a8230","system_id":"levelo_inurba_marseille","lat":43.3302,"lon":5.3905,"is_reserved":false,"is_disabled":false,"rental_uris":{"android":"levelo://app?vid=d6cddff4-df58-4a72-b485-e4ae983a8230","ios":"levelo://app?vid=d6cddff4-df58-4a72-b485-e4ae983a8230"},"vehicle_type_id":"4","last_reported":1748420085,"current_range_meters":12400,"station_id":"ce4bhr92rcd13ifvqhrg","pricing_plan_id":"cebpf4jnsgd1na2vs0mg"},{"bike_id":"66ce27fa-93cf-4af2-b68b-f853af9cec83","system_id":"levelo_inurba_marseille","lat":43.295066,"lon":5.374448,"is_reserved":false,"is_disabled":false,"rental_uris":{"android":"levelo://app?vid=66ce27fa-93cf-4af2-b68b-f853af9cec83","ios":"levelo://app?vid=66ce27fa-93cf-4af2-b68b-f853af9cec83"},"vehicle_type_id":"4","last_reported":1748420085,"current_range_meters":12800,"station_id":"ce4bgh92rcd13ifvqb50","pricing_plan_id":"cebpf4jnsgd1na2vs0mg"},{"bike_id":"c05d129d-02ec-475b-8cd0-1a45a4e9edbd","system_id":"levelo_inurba_marseille","lat":43.31342,"lon":5.36728,"is_reserved":false,"is_disabled":false,"rental_uris":{"android":"levelo://app?vid=c05d129d-02ec-475b-8cd0-1a45a4e9edbd","ios":"levelo://app?vid=c05d129d-02ec-475b-8cd0-1a45a4e9edbd"},"vehicle_type_id":"4","last_reported":1748420085,"current_range_meters":12800,"station_id":"ce4bgr92rcd13ifvqc6g","pricing_plan_id":"cebpf4jnsgd1na2vs0mg"},{"bike_id":"0bdc5070-5f26-4ca1-ac3d-7b77b08a6314","system_id":"levelo_inurba_marseille","lat":43.23148,"lon":5.43723,"is_reserved":false,"is_disabled":false,"rental_uris":{"android":"levelo://app?vid=0bdc5070-5f26-4ca1-ac3d-7b77b08a6314","ios":"levelo://app?vid=0bdc5070-5f26-4ca1-ac3d-7b77b08a6314"},"vehicle_type_id":"4","last_reported":1748420085,"current_range_meters":12800,"station_id":"ce4bhmp2rcd13ifvqgog","pricing_plan_id":"cebpf4jnsgd1na2vs0mg"},{"bike_id":"9fd82076-5eba-40cc-9d0a-1f64ba8069ae","system_id":"levelo_inurba_marseille","lat":43.29777,"lon":5.37108,"is_reserved":false,"is_disabled":false,"rental_uris":{"android":"levelo://app?vid=9fd82076-5eba-40cc-9d0a-1f64ba8069ae","ios":"levelo://app?vid=9fd82076-5eba-40cc-9d0a-1f64ba8069ae"},"vehicle_type_id":"4","last_reported":1748420085,"current_range_meters":12800,"station_id":"ce4bgop2rcd13ifvqc1g","pricing_plan_id":"cebpf4jnsgd1na2vs0mg"},{"bike_id":"1eaa6970-87e6-44cf-a0f8-48f9464afcf5","system_id":"levelo_inurba_marseille","lat":43.30462,"lon":5.3791,"is_reserved":false,"is_disabled":false,"rental_uris":{"android":"levelo://app?vid=1eaa6970-87e6-44cf-a0f8-48f9464afcf5","ios":"levelo://app?vid=1eaa6970-87e6-44cf-a0f8-48f9464afcf5"},"vehicle_type_id":"4","last_reported":1748420085,"current_range_meters":12800,"station_id":"ce4bgup2rcd13ifvqcn0","pricing_plan_id":"cebpf4jnsgd1na2vs0mg"},{"bike_id":"2583d94f-b947-4a62-a8a9-fc1347564375","system_id":"levelo_inurba_marseille","lat":43.25569,"lon":5.38226,"is_reserved":false,"is_disabled":false,"rental_uris":{"android":"levelo://app?vid=2583d94f-b947-4a62-a8a9-fc1347564375","ios":"levelo://app?vid=2583d94f-b947-4a62-a8a9-fc1347564375"},"vehicle_type_id":"4","last_reported":1748420085,"current_range_meters":13600,"station_id":"ce4bhih2rcd13ifvqfs0","pricing_plan_id":"cebpf4jnsgd1na2vs0mg"},{"bike_id":"52ed9851-e7f0-40da-ab8a-aac1a0e986eb","system_id":"levelo_inurba_marseille","lat":43.29095,"lon":5.38136,"is_reserved":false,"is_disabled":false,"rental_uris":{"android":"levelo://app?vid=52ed9851-e7f0-40da-ab8a-aac1a0e986eb","ios":"levelo://app?vid=52ed9851-e7f0-40da-ab8a-aac1a0e986eb"},"vehicle_type_id":"4","last_reported":1748420085,"current_range_meters":11600,"station_id":"ce4bh512rcd13ifvqe2g","pricing_plan_id":"cebpf4jnsgd1na2vs0mg"},{"bike_id":"b4a2d5be-4d43-4f55-b125-9ba1cac0f56d","system_id":"levelo_inurba_marseille","lat":43.28855,"lon":5.35862,"is_reserved":false,"is_disabled":false,"rental_uris":{"android":"levelo://app?vid=b4a2d5be-4d43-4f55-b125-9ba1cac0f56d","ios":"levelo://app?vid=b4a2d5be-4d43-4f55-b125-9ba1cac0f56d"},"vehicle_type_id":"4","last_reported":1748420085,"current_range_meters":15200,"station_id":"ce4bhb12rcd13ifvqem0","pricing_plan_id":"cebpf4jnsgd1na2vs0mg"},{"bike_id":"e119dd17-c349-495c-ae07-4f88db41994b","system_id":"levelo_inurba_marseille","lat":43.32362,"lon":5.36767,"is_reserved":false,"is_disabled":false,"rental_uris":{"android":"levelo://app?vid=e119dd17-c349-495c-ae07-4f88db41994b","ios":"levelo://app?vid=e119dd17-c349-495c-ae07-4f88db41994b"},"vehicle_type_id":"4","last_reported":1748420085,"current_range_meters":13600,"station_id":"ce4bhsh2rcd13ifvqi2g","pricing_plan_id":"cebpf4jnsgd1na2vs0mg"},{"bike_id":"6e5e19a9-e40c-4fb1-bff4-825f885ffa82","system_id":"levelo_inurba_marseille","lat":43.27372,"lon":5.36255,"is_reserved":false,"is_disabled":false,"rental_uris":{"android":"levelo://app?vid=6e5e19a9-e40c-4fb1-bff4-825f885ffa82","ios":"levelo://app?vid=6e5e19a9-e40c-4fb1-bff4-825f885ffa82"},"vehicle_type_id":"4","last_reported":1748420085,"current_range_meters":13600,"station_id":"ce4bhbh2rcd13ifvqeo0","pricing_plan_id":"cebpf4jnsgd1na2vs0mg"},{"bike_id":"62a306c3-00ef-4d93-80c5-3d8743d57e71","system_id":"levelo_inurba_marseille","lat":43.25928,"lon":5.40902,"is_reserved":false,"is_disabled":false,"rental_uris":{"android":"levelo://app?vid=62a306c3-00ef-4d93-80c5-3d8743d57e71","ios":"levelo://app?vid=62a306c3-00ef-4d93-80c5-3d8743d57e71"},"vehicle_type_id":"4","last_reported":1748420085,"current_range_meters":13600,"station_id":"ce4bhm92rcd13ifvqglg","pricing_plan_id":"cebpf4jnsgd1na2vs0mg"},{"bike_id":"e736686f-625a-4d9a-a7d4-f55f37278fdb","system_id":"levelo_inurba_marseille","lat":43.294211,"lon":5.386045,"is_reserved":false,"is_disabled":true,"rental_uris":{"android":"levelo://app?vid=e736686f-625a-4d9a-a7d4-f55f37278fdb","ios":"levelo://app?vid=e736686f-625a-4d9a-a7d4-f55f37278fdb"},"vehicle_type_id":"4","last_reported":1748420085,"current_range_meters":13600,"station_id":"ce4bh2h2rcd13ifvqdh0","pricing_plan_id":"cebpf4jnsgd1na2vs0mg"},{"bike_id":"041ac944-c333-4899-a965-7e9ac9b2e253","system_id":"levelo_inurba_marseille","lat":43.25927,"lon":5.40903,"is_reserved":false,"is_disabled":false,"rental_uris":{"android":"levelo://app?vid=041ac944-c333-4899-a965-7e9ac9b2e253","ios":"levelo://app?vid=041ac944-c333-4899-a965-7e9ac9b2e253"},"vehicle_type_id":"4","last_reported":1748420085,"current_range_meters":14000,"station_id":"ce4bhm92rcd13ifvqglg","pricing_plan_id":"cebpf4jnsgd1na2vs0mg"},{"bike_id":"54635bce-faa1-4993-90e6-78c7ecd6050a","system_id":"levelo_inurba_marseille","lat":43.302,"lon":5.36602,"is_reserved":false,"is_disabled":false,"rental_uris":{"android":"levelo://app?vid=54635bce-faa1-4993-90e6-78c7ecd6050a","ios":"levelo://app?vid=54635bce-faa1-4993-90e6-78c7ecd6050a"},"vehicle_type_id":"4","last_reported":1748420085,"current_range_meters":14000,"station_id":"ce4bgrh2rcd13ifvqc8g","pricing_plan_id":"cebpf4jnsgd1na2vs0mg"},{"bike_id":"2a2d60d9-cbab-44ce-9bc1-0a0d3824b842","system_id":"levelo_inurba_marseille","lat":43.33721,"lon":5.39194,"is_reserved":false,"is_disabled":false,"rental_uris":{"android":"levelo://app?vid=2a2d60d9-cbab-44ce-9bc1-0a0d3824b842","ios":"levelo://app?vid=2a2d60d9-cbab-44ce-9bc1-0a0d3824b842"},"vehicle_type_id":"4","last_reported":1748420085,"current_range_meters":13600,"station_id":"ce4bhr92rcd13ifvqhsg","pricing_plan_id":"cebpf4jnsgd1na2vs0mg"},{"bike_id":"3d92673e-b07f-4863-ac8c-647b10f22765","system_id":"levelo_inurba_marseille","lat":43.29306,"lon":5.37469,"is_reserved":false,"is_disabled":false,"rental_uris":{"android":"levelo://app?vid=3d92673e-b07f-4863-ac8c-647b10f22765","ios":"levelo://app?vid=3d92673e-b07f-4863-ac8c-647b10f22765"},"vehicle_type_id":"4","last_reported":1748420085,"current_range_meters":14000,"station_id":"ce4bgi12rcd13ifvqb70","pricing_plan_id":"cebpf4jnsgd1na2vs0mg"},{"bike_id":"44cfeecb-04c8-4253-880d-422c255383ef","system_id":"levelo_inurba_marseille","lat":43.30552,"lon":5.36549,"is_reserved":false,"is_disabled":false,"rental_uris":{"android":"levelo://app?vid=44cfeecb-04c8-4253-880d-422c255383ef","ios":"levelo://app?vid=44cfeecb-04c8-4253-880d-422c255383ef"},"vehicle_type_id":"4","last_reported":1748420085,"current_range_meters":14000,"station_id":"ce4bgs12rcd13ifvqcag","pricing_plan_id":"cebpf4jnsgd1na2vs0mg"},{"bike_id":"630d277c-082b-421f-b4b3-52c72b0c06ad","system_id":"levelo_inurba_marseille","lat":43.30954,"lon":5.390294,"is_reserved":false,"is_disabled":false,"rental_uris":{"android":"levelo://app?vid=630d277c-082b-421f-b4b3-52c72b0c06ad","ios":"levelo://app?vid=630d277c-082b-421f-b4b3-52c72b0c06ad"},"vehicle_type_id":"4","last_reported":1748420085,"current_range_meters":14000,"station_id":"ce4bgup2rcd13ifvqco0","pricing_plan_id":"cebpf4jnsgd1na2vs0mg"},{"bike_id":"b92b65c0-4c90-4e64-b226-c94243501329","system_id":"levelo_inurba_marseille","lat":43.30456,"lon":5.37907,"is_reserved":false,"is_disabled":false,"rental_uris":{"android":"levelo://app?vid=b92b65c0-4c90-4e64-b226-c94243501329","ios":"levelo://app?vid=b92b65c0-4c90-4e64-b226-c94243501329"},"vehicle_type_id":"4","last_reported":1748420085,"current_range_meters":14400,"station_id":"ce4bgup2rcd13ifvqcn0","pricing_plan_id":"cebpf4jnsgd1na2vs0mg"},{"bike_id":"5b71d762-ff7f-46b3-a906-4507d388dbfe","system_id":"levelo_inurba_marseille","lat":43.29853,"lon":5.39728,"is_reserved":false,"is_disabled":true,"rental_uris":{"android":"levelo://app?vid=5b71d762-ff7f-46b3-a906-4507d388dbfe","ios":"levelo://app?vid=5b71d762-ff7f-46b3-a906-4507d388dbfe"},"vehicle_type_id":"4","last_reported":1748420085,"current_range_meters":14400,"station_id":"ce4bh0h2rcd13ifvqd50","pricing_plan_id":"cebpf4jnsgd1na2vs0mg"},{"bike_id":"1fed5cf7-13b7-4dc4-814e-e55c1b74556e","system_id":"levelo_inurba_marseille","lat":43.29233,"lon":5.40142,"is_reserved":false,"is_disabled":true,"rental_uris":{"android":"levelo://app?vid=1fed5cf7-13b7-4dc4-814e-e55c1b74556e","ios":"levelo://app?vid=1fed5cf7-13b7-4dc4-814e-e55c1b74556e"},"vehicle_type_id":"4","last_reported":1748420085,"current_range_meters":14400,"station_id":"ce4bh312rcd13ifvqdk0","pricing_plan_id":"cebpf4jnsgd1na2vs0mg"},{"bike_id":"f6e72a74-34ba-4df3-9674-cb1c895c6e13","system_id":"levelo_inurba_marseille","lat":43.29583,"lon":5.36737,"is_reserved":false,"is_disabled":true,"rental_uris":{"android":"levelo://app?vid=f6e72a74-34ba-4df3-9674-cb1c895c6e13","ios":"levelo://app?vid=f6e72a74-34ba-4df3-9674-cb1c895c6e13"},"vehicle_type_id":"4","last_reported":1748420085,"current_range_meters":14400,"station_id":"ce4bgph2rcd13ifvqc2g","pricing_plan_id":"cebpf4jnsgd1na2vs0mg"},{"bike_id":"f60fe965-3d4b-4583-bf69-4087ccd60ef3","system_id":"levelo_inurba_marseille","lat":43.25917,"lon":5.40909,"is_reserved":false,"is_disabled":false,"rental_uris":{"android":"levelo://app?vid=f60fe965-3d4b-4583-bf69-4087ccd60ef3","ios":"levelo://app?vid=f60fe965-3d4b-4583-bf69-4087ccd60ef3"},"vehicle_type_id":"4","last_reported":1748420085,"current_range_meters":14400,"station_id":"ce4bhm92rcd13ifvqglg","pricing_plan_id":"cebpf4jnsgd1na2vs0mg"},{"bike_id":"011d772a-ff57-491a-9e10-787b3eb41862","system_id":"levelo_inurba_marseille","lat":43.29371,"lon":5.37832,"is_reserved":false,"is_disabled":false,"rental_uris":{"android":"levelo://app?vid=011d772a-ff57-491a-9e10-787b3eb41862","ios":"levelo://app?vid=011d772a-ff57-491a-9e10-787b3eb41862"},"vehicle_type_id":"4","last_reported":1748420085,"current_range_meters":14400,"station_id":"ce4bgjh2rcd13ifvqbf0","pricing_plan_id":"cebpf4jnsgd1na2vs0mg"},{"bike_id":"84d8a137-fdd8-4ae9-b34d-011349510585","system_id":"levelo_inurba_marseille","lat":43.27673,"lon":5.38867,"is_reserved":false,"is_disabled":false,"rental_uris":{"android":"levelo://app?vid=84d8a137-fdd8-4ae9-b34d-011349510585","ios":"levelo://app?vid=84d8a137-fdd8-4ae9-b34d-011349510585"},"vehicle_type_id":"4","last_reported":1748420085,"current_range_meters":11200,"station_id":"ce4bhi12rcd13ifvqfo0","pricing_plan_id":"cebpf4jnsgd1na2vs0mg"},{"bike_id":"4dadd5ac-92f7-4cdd-8889-88fd89670188","system_id":"levelo_inurba_marseille","lat":43.30138,"lon":5.37421,"is_reserved":false,"is_disabled":false,"rental_uris":{"android":"levelo://app?vid=4dadd5ac-92f7-4cdd-8889-88fd89670188","ios":"levelo://app?vid=4dadd5ac-92f7-4cdd-8889-88fd89670188"},"vehicle_type_id":"4","last_reported":1748420085,"current_range_meters":14400,"station_id":"ce4bgs92rcd13ifvqcc0","pricing_plan_id":"cebpf4jnsgd1na2vs0mg"},{"bike_id":"7747b843-d8bb-4e22-aad8-abfae33c4aae","system_id":"levelo_inurba_marseille","lat":43.31542,"lon":5.38624,"is_reserved":false,"is_disabled":false,"rental_uris":{"android":"levelo://app?vid=7747b843-d8bb-4e22-aad8-abfae33c4aae","ios":"levelo://app?vid=7747b843-d8bb-4e22-aad8-abfae33c4aae"},"vehicle_type_id":"4","last_reported":1748420085,"current_range_meters":14400,"station_id":"","pricing_plan_id":"cebpf4jnsgd1na2vs0mg"},{"bike_id":"2482037b-00d9-4113-90a4-3a14dd9d4855","system_id":"levelo_inurba_marseille","lat":43.262393,"lon":5.387767,"is_reserved":false,"is_disabled":false,"rental_uris":{"android":"levelo://app?vid=2482037b-00d9-4113-90a4-3a14dd9d4855","ios":"levelo://app?vid=2482037b-00d9-4113-90a4-3a14dd9d4855"},"vehicle_type_id":"4","last_reported":1748420085,"current_range_meters":14800,"station_id":"","pricing_plan_id":"cebpf4jnsgd1na2vs0mg"},{"bike_id":"fb882205-3206-46d8-93ad-8e668d86d590","system_id":"levelo_inurba_marseille","lat":43.24663,"lon":5.38136,"is_reserved":false,"is_disabled":false,"rental_uris":{"android":"levelo://app?vid=fb882205-3206-46d8-93ad-8e668d86d590","ios":"levelo://app?vid=fb882205-3206-46d8-93ad-8e668d86d590"},"vehicle_type_id":"4","last_reported":1748420085,"current_range_meters":14800,"station_id":"ce4bhih2rcd13ifvqfr0","pricing_plan_id":"cebpf4jnsgd1na2vs0mg"},{"bike_id":"8a8e761a-ee9d-4452-b949-ed6336e62ee9","system_id":"levelo_inurba_marseille","lat":43.31364,"lon":5.36753,"is_reserved":false,"is_disabled":false,"rental_uris":{"android":"levelo://app?vid=8a8e761a-ee9d-4452-b949-ed6336e62ee9","ios":"levelo://app?vid=8a8e761a-ee9d-4452-b949-ed6336e62ee9"},"vehicle_type_id":"4","last_reported":1748420085,"current_range_meters":14800,"station_id":"ce4bgr92rcd13ifvqc6g","pricing_plan_id":"cebpf4jnsgd1na2vs0mg"},{"bike_id":"6ebb6dd7-e028-471a-a254-2363923c0cd9","system_id":"levelo_inurba_marseille","lat":43.32111,"lon":5.36774,"is_reserved":false,"is_disabled":false,"rental_uris":{"android":"levelo://app?vid=6ebb6dd7-e028-471a-a254-2363923c0cd9","ios":"levelo://app?vid=6ebb6dd7-e028-471a-a254-2363923c0cd9"},"vehicle_type_id":"4","last_reported":1748420085,"current_range_meters":14800,"station_id":"ce4bhrh2rcd13ifvqhug","pricing_plan_id":"cebpf4jnsgd1na2vs0mg"},{"bike_id":"72ac736a-1c4c-4b47-9c48-634dbae1fb52","system_id":"levelo_inurba_marseille","lat":43.2622,"lon":5.40453,"is_reserved":false,"is_disabled":false,"rental_uris":{"android":"levelo://app?vid=72ac736a-1c4c-4b47-9c48-634dbae1fb52","ios":"levelo://app?vid=72ac736a-1c4c-4b47-9c48-634dbae1fb52"},"vehicle_type_id":"4","last_reported":1748420085,"current_range_meters":14800,"station_id":"ce4bhmh2rcd13ifvqgmg","pricing_plan_id":"cebpf4jnsgd1na2vs0mg"},{"bike_id":"4920cc9b-3024-4aaf-80ec-6e71f192aff9","system_id":"levelo_inurba_marseille","lat":43.3052,"lon":5.36704,"is_reserved":false,"is_disabled":false,"rental_uris":{"android":"levelo://app?vid=4920cc9b-3024-4aaf-80ec-6e71f192aff9","ios":"levelo://app?vid=4920cc9b-3024-4aaf-80ec-6e71f192aff9"},"vehicle_type_id":"4","last_reported":1748420085,"current_range_meters":14800,"station_id":"ce4bgrp2rcd13ifvqc9g","pricing_plan_id":"cebpf4jnsgd1na2vs0mg"},{"bike_id":"5f9dec74-5d2c-4c3a-ad56-25a725116414","system_id":"levelo_inurba_marseille","lat":43.29265,"lon":5.37635,"is_reserved":false,"is_disabled":false,"rental_uris":{"android":"levelo://app?vid=5f9dec74-5d2c-4c3a-ad56-25a725116414","ios":"levelo://app?vid=5f9dec74-5d2c-4c3a-ad56-25a725116414"},"vehicle_type_id":"4","last_reported":1748420085,"current_range_meters":14800,"station_id":"ce4bgi12rcd13ifvqb80","pricing_plan_id":"cebpf4jnsgd1na2vs0mg"},{"bike_id":"6c40f433-166f-4242-9b0e-e74b82e41af3","system_id":"levelo_inurba_marseille","lat":43.31102,"lon":5.377607,"is_reserved":false,"is_disabled":true,"rental_uris":{"android":"levelo://app?vid=6c40f433-166f-4242-9b0e-e74b82e41af3","ios":"levelo://app?vid=6c40f433-166f-4242-9b0e-e74b82e41af3"},"vehicle_type_id":"4","last_reported":1748420085,"current_range_meters":14800,"station_id":"ce4bgih2rcd13ifvqba0","pricing_plan_id":"cebpf4jnsgd1na2vs0mg"},{"bike_id":"569f5c38-7fc1-4ed5-ac4c-20e43c610d58","system_id":"levelo_inurba_marseille","lat":43.31314,"lon":5.36759,"is_reserved":false,"is_disabled":false,"rental_uris":{"android":"levelo://app?vid=569f5c38-7fc1-4ed5-ac4c-20e43c610d58","ios":"levelo://app?vid=569f5c38-7fc1-4ed5-ac4c-20e43c610d58"},"vehicle_type_id":"4","last_reported":1748420085,"current_range_meters":15200,"station_id":"ce4bgr92rcd13ifvqc6g","pricing_plan_id":"cebpf4jnsgd1na2vs0mg"},{"bike_id":"349e7297-179d-46aa-af73-d0772f15795a","system_id":"levelo_inurba_marseille","lat":43.29993,"lon":5.38396,"is_reserved":false,"is_disabled":false,"rental_uris":{"android":"levelo://app?vid=349e7297-179d-46aa-af73-d0772f15795a","ios":"levelo://app?vid=349e7297-179d-46aa-af73-d0772f15795a"},"vehicle_type_id":"4","last_reported":1748420085,"current_range_meters":15200,"station_id":"","pricing_plan_id":"cebpf4jnsgd1na2vs0mg"},{"bike_id":"3b07f020-3d8e-47eb-b723-de46e817e2a3","system_id":"levelo_inurba_marseille","lat":43.29805,"lon":5.38314,"is_reserved":false,"is_disabled":false,"rental_uris":{"android":"levelo://app?vid=3b07f020-3d8e-47eb-b723-de46e817e2a3","ios":"levelo://app?vid=3b07f020-3d8e-47eb-b723-de46e817e2a3"},"vehicle_type_id":"4","last_reported":1748420085,"current_range_meters":15200,"station_id":"","pricing_plan_id":"cebpf4jnsgd1na2vs0mg"},{"bike_id":"3865b0a2-6909-4ea2-b648-0ed5dd91b7a2","system_id":"levelo_inurba_marseille","lat":43.22531,"lon":5.34773,"is_reserved":false,"is_disabled":false,"rental_uris":{"android":"levelo://app?vid=3865b0a2-6909-4ea2-b648-0ed5dd91b7a2","ios":"levelo://app?vid=3865b0a2-6909-4ea2-b648-0ed5dd91b7a2"},"vehicle_type_id":"4","last_reported":1748420085,"current_range_meters":15200,"station_id":"","pricing_plan_id":"cebpf4jnsgd1na2vs0mg"},{"bike_id":"97eaf7a2-d741-4824-801a-69cbce9a5694","system_id":"levelo_inurba_marseille","lat":43.27212,"lon":5.39182,"is_reserved":false,"is_disabled":false,"rental_uris":{"android":"levelo://app?vid=97eaf7a2-d741-4824-801a-69cbce9a5694","ios":"levelo://app?vid=97eaf7a2-d741-4824-801a-69cbce9a5694"},"vehicle_type_id":"4","last_reported":1748420085,"current_range_meters":15200,"station_id":"ce4bhhp2rcd13ifvqfm0","pricing_plan_id":"cebpf4jnsgd1na2vs0mg"},{"bike_id":"798b4dd9-09fd-4939-a396-5d8278d045a8","system_id":"levelo_inurba_marseille","lat":43.28206,"lon":5.390574,"is_reserved":false,"is_disabled":false,"rental_uris":{"android":"levelo://app?vid=798b4dd9-09fd-4939-a396-5d8278d045a8","ios":"levelo://app?vid=798b4dd9-09fd-4939-a396-5d8278d045a8"},"vehicle_type_id":"4","last_reported":1748420085,"current_range_meters":16000,"station_id":"","pricing_plan_id":"cebpf4jnsgd1na2vs0mg"},{"bike_id":"88f0b25b-9fcb-4934-ae2a-80fd3f534b8a","system_id":"levelo_inurba_marseille","lat":43.30321,"lon":5.36486,"is_reserved":false,"is_disabled":false,"rental_uris":{"android":"levelo://app?vid=88f0b25b-9fcb-4934-ae2a-80fd3f534b8a","ios":"levelo://app?vid=88f0b25b-9fcb-4934-ae2a-80fd3f534b8a"},"vehicle_type_id":"4","last_reported":1748420085,"current_range_meters":16000,"station_id":"","pricing_plan_id":"cebpf4jnsgd1na2vs0mg"},{"bike_id":"052bd2f1-6848-4fc6-9829-fd88b39d5681","system_id":"levelo_inurba_marseille","lat":43.294333,"lon":5.39759,"is_reserved":false,"is_disabled":true,"rental_uris":{"android":"levelo://app?vid=052bd2f1-6848-4fc6-9829-fd88b39d5681","ios":"levelo://app?vid=052bd2f1-6848-4fc6-9829-fd88b39d5681"},"vehicle_type_id":"4","last_reported":1748420085,"current_range_meters":16000,"station_id":"ce4bh3h2rcd13ifvqdo0","pricing_plan_id":"cebpf4jnsgd1na2vs0mg"},{"bike_id":"ef77543b-22de-44af-930a-38e7dfe2d4e6","system_id":"levelo_inurba_marseille","lat":43.23187,"lon":5.39991,"is_reserved":false,"is_disabled":false,"rental_uris":{"android":"levelo://app?vid=ef77543b-22de-44af-930a-38e7dfe2d4e6","ios":"levelo://app?vid=ef77543b-22de-44af-930a-38e7dfe2d4e6"},"vehicle_type_id":"4","last_reported":1748420085,"current_range_meters":16000,"station_id":"ce4bhn12rcd13ifvqgqg","pricing_plan_id":"cebpf4jnsgd1na2vs0mg"},{"bike_id":"7bcc4850-ca56-463f-9ae8-600fbc04c16a","system_id":"levelo_inurba_marseille","lat":43.32482,"lon":5.36564,"is_reserved":false,"is_disabled":false,"rental_uris":{"android":"levelo://app?vid=7bcc4850-ca56-463f-9ae8-600fbc04c16a","ios":"levelo://app?vid=7bcc4850-ca56-463f-9ae8-600fbc04c16a"},"vehicle_type_id":"4","last_reported":1748420085,"current_range_meters":16000,"station_id":"ce4bhs12rcd13ifvqhvg","pricing_plan_id":"cebpf4jnsgd1na2vs0mg"},{"bike_id":"263c68ab-7044-46f6-a1d1-4c34e5f45b5a","system_id":"levelo_inurba_marseille","lat":43.23145,"lon":5.43706,"is_reserved":false,"is_disabled":false,"rental_uris":{"android":"levelo://app?vid=263c68ab-7044-46f6-a1d1-4c34e5f45b5a","ios":"levelo://app?vid=263c68ab-7044-46f6-a1d1-4c34e5f45b5a"},"vehicle_type_id":"4","last_reported":1748420085,"current_range_meters":16000,"station_id":"ce4bhmp2rcd13ifvqgog","pricing_plan_id":"cebpf4jnsgd1na2vs0mg"},{"bike_id":"dcbb63a0-385a-4147-ad7f-633840e99f02","system_id":"levelo_inurba_marseille","lat":43.28933,"lon":5.364,"is_reserved":false,"is_disabled":false,"rental_uris":{"android":"levelo://app?vid=dcbb63a0-385a-4147-ad7f-633840e99f02","ios":"levelo://app?vid=dcbb63a0-385a-4147-ad7f-633840e99f02"},"vehicle_type_id":"4","last_reported":1748420085,"current_range_meters":16000,"station_id":"ce4bhc92rcd13ifvqetg","pricing_plan_id":"cebpf4jnsgd1na2vs0mg"},{"bike_id":"67dca72d-f4d6-44f4-ac6c-048dd79434d3","system_id":"levelo_inurba_marseille","lat":43.29626,"lon":5.40595,"is_reserved":false,"is_disabled":false,"rental_uris":{"android":"levelo://app?vid=67dca72d-f4d6-44f4-ac6c-048dd79434d3","ios":"levelo://app?vid=67dca72d-f4d6-44f4-ac6c-048dd79434d3"},"vehicle_type_id":"4","last_reported":1748420085,"current_range_meters":16000,"station_id":"ce4bh0h2rcd13ifvqd60","pricing_plan_id":"cebpf4jnsgd1na2vs0mg"},{"bike_id":"7adbd369-f684-4c09-90a5-6bbf2f150346","system_id":"levelo_inurba_marseille","lat":43.3208,"lon":5.36731,"is_reserved":false,"is_disabled":false,"rental_uris":{"android":"levelo://app?vid=7adbd369-f684-4c09-90a5-6bbf2f150346","ios":"levelo://app?vid=7adbd369-f684-4c09-90a5-6bbf2f150346"},"vehicle_type_id":"4","last_reported":1748420085,"current_range_meters":16000,"station_id":"ce4bhrh2rcd13ifvqhug","pricing_plan_id":"cebpf4jnsgd1na2vs0mg"},{"bike_id":"eec255ab-7881-41de-a248-bdcd941fadb7","system_id":"levelo_inurba_marseille","lat":43.24541,"lon":5.395432,"is_reserved":false,"is_disabled":false,"rental_uris":{"android":"levelo://app?vid=eec255ab-7881-41de-a248-bdcd941fadb7","ios":"levelo://app?vid=eec255ab-7881-41de-a248-bdcd941fadb7"},"vehicle_type_id":"4","last_reported":1748420085,"current_range_meters":16000,"station_id":"ce4bhlp2rcd13ifvqgjg","pricing_plan_id":"cebpf4jnsgd1na2vs0mg"},{"bike_id":"33f48f82-876a-41ef-8a95-13953b48bc73","system_id":"levelo_inurba_marseille","lat":43.309515,"lon":5.390347,"is_reserved":false,"is_disabled":false,"rental_uris":{"android":"levelo://app?vid=33f48f82-876a-41ef-8a95-13953b48bc73","ios":"levelo://app?vid=33f48f82-876a-41ef-8a95-13953b48bc73"},"vehicle_type_id":"4","last_reported":1748420085,"current_range_meters":16400,"station_id":"ce4bgup2rcd13ifvqco0","pricing_plan_id":"cebpf4jnsgd1na2vs0mg"},{"bike_id":"0ad1909c-3e31-4339-93b1-e8cdec2e689f","system_id":"levelo_inurba_marseille","lat":43.33608,"lon":5.41023,"is_reserved":false,"is_disabled":false,"rental_uris":{"android":"levelo://app?vid=0ad1909c-3e31-4339-93b1-e8cdec2e689f","ios":"levelo://app?vid=0ad1909c-3e31-4339-93b1-e8cdec2e689f"},"vehicle_type_id":"4","last_reported":1748420085,"current_range_meters":16400,"station_id":"ce4bhqh2rcd13ifvqhmg","pricing_plan_id":"cebpf4jnsgd1na2vs0mg"},{"bike_id":"de257a1c-421c-4f6d-85d2-66f2b786d5ad","system_id":"levelo_inurba_marseille","lat":43.312393,"lon":5.36841,"is_reserved":false,"is_disabled":false,"rental_uris":{"android":"levelo://app?vid=de257a1c-421c-4f6d-85d2-66f2b786d5ad","ios":"levelo://app?vid=de257a1c-421c-4f6d-85d2-66f2b786d5ad"},"vehicle_type_id":"4","last_reported":1748420085,"current_range_meters":16400,"station_id":"ce4bgl92rcd13ifvqbq0","pricing_plan_id":"cebpf4jnsgd1na2vs0mg"},{"bike_id":"57316597-9a7e-4ecc-9b19-7bc22bad6c89","system_id":"levelo_inurba_marseille","lat":43.24542,"lon":5.395295,"is_reserved":false,"is_disabled":false,"rental_uris":{"android":"levelo://app?vid=57316597-9a7e-4ecc-9b19-7bc22bad6c89","ios":"levelo://app?vid=57316597-9a7e-4ecc-9b19-7bc22bad6c89"},"vehicle_type_id":"4","last_reported":1748420085,"current_range_meters":16400,"station_id":"ce4bhlp2rcd13ifvqgjg","pricing_plan_id":"cebpf4jnsgd1na2vs0mg"},{"bike_id":"024bcfee-7541-4f48-b0df-8ee4bea930b8","system_id":"levelo_inurba_marseille","lat":43.29283,"lon":5.36855,"is_reserved":false,"is_disabled":false,"rental_uris":{"android":"levelo://app?vid=024bcfee-7541-4f48-b0df-8ee4bea930b8","ios":"levelo://app?vid=024bcfee-7541-4f48-b0df-8ee4bea930b8"},"vehicle_type_id":"4","last_reported":1748420085,"current_range_meters":16400,"station_id":"ce4bhbp2rcd13ifvqesg","pricing_plan_id":"cebpf4jnsgd1na2vs0mg"},{"bike_id":"311697f9-a087-4fb2-8ad7-11c912a1c2e4","system_id":"levelo_inurba_marseille","lat":43.33716,"lon":5.3918,"is_reserved":false,"is_disabled":false,"rental_uris":{"android":"levelo://app?vid=311697f9-a087-4fb2-8ad7-11c912a1c2e4","ios":"levelo://app?vid=311697f9-a087-4fb2-8ad7-11c912a1c2e4"},"vehicle_type_id":"4","last_reported":1748420085,"current_range_meters":16400,"station_id":"ce4bhr92rcd13ifvqhsg","pricing_plan_id":"cebpf4jnsgd1na2vs0mg"},{"bike_id":"01b822e6-d36d-4ef1-a1dd-37657c54904c","system_id":"levelo_inurba_marseille","lat":43.24173,"lon":5.39732,"is_reserved":false,"is_disabled":false,"rental_uris":{"android":"levelo://app?vid=01b822e6-d36d-4ef1-a1dd-37657c54904c","ios":"levelo://app?vid=01b822e6-d36d-4ef1-a1dd-37657c54904c"},"vehicle_type_id":"4","last_reported":1748420085,"current_range_meters":16400,"station_id":"ce4bhn12rcd13ifvqgpg","pricing_plan_id":"cebpf4jnsgd1na2vs0mg"},{"bike_id":"f0f976ea-0a5e-4412-852f-b15746da6d43","system_id":"levelo_inurba_marseille","lat":43.30312,"lon":5.36904,"is_reserved":false,"is_disabled":false,"rental_uris":{"android":"levelo://app?vid=f0f976ea-0a5e-4412-852f-b15746da6d43","ios":"levelo://app?vid=f0f976ea-0a5e-4412-852f-b15746da6d43"},"vehicle_type_id":"4","last_reported":1748420085,"current_range_meters":16400,"station_id":"ce4bgqh2rcd13ifvqc5g","pricing_plan_id":"cebpf4jnsgd1na2vs0mg"},{"bike_id":"1756e5a7-407e-4b52-b5a3-78b9121cf2ab","system_id":"levelo_inurba_marseille","lat":43.24176,"lon":5.39727,"is_reserved":false,"is_disabled":false,"rental_uris":{"android":"levelo://app?vid=1756e5a7-407e-4b52-b5a3-78b9121cf2ab","ios":"levelo://app?vid=1756e5a7-407e-4b52-b5a3-78b9121cf2ab"},"vehicle_type_id":"4","last_reported":1748420085,"current_range_meters":16400,"station_id":"ce4bhn12rcd13ifvqgpg","pricing_plan_id":"cebpf4jnsgd1na2vs0mg"},{"bike_id":"6e99e2da-bd9a-4c98-afa6-df850dcbb8a7","system_id":"levelo_inurba_marseille","lat":43.33602,"lon":5.41029,"is_reserved":false,"is_disabled":false,"rental_uris":{"android":"levelo://app?vid=6e99e2da-bd9a-4c98-afa6-df850dcbb8a7","ios":"levelo://app?vid=6e99e2da-bd9a-4c98-afa6-df850dcbb8a7"},"vehicle_type_id":"4","last_reported":1748420085,"current_range_meters":16800,"station_id":"ce4bhqh2rcd13ifvqhmg","pricing_plan_id":"cebpf4jnsgd1na2vs0mg"},{"bike_id":"b414e547-f204-4437-af11-325026a934f5","system_id":"levelo_inurba_marseille","lat":43.27048,"lon":5.40258,"is_reserved":false,"is_disabled":false,"rental_uris":{"android":"levelo://app?vid=b414e547-f204-4437-af11-325026a934f5","ios":"levelo://app?vid=b414e547-f204-4437-af11-325026a934f5"},"vehicle_type_id":"4","last_reported":1748420085,"current_range_meters":16800,"station_id":"ce4bhk92rcd13ifvqgc0","pricing_plan_id":"cebpf4jnsgd1na2vs0mg"},{"bike_id":"75eb12b1-db20-4885-b322-03c42bda2db2","system_id":"levelo_inurba_marseille","lat":43.27053,"lon":5.40254,"is_reserved":false,"is_disabled":false,"rental_uris":{"android":"levelo://app?vid=75eb12b1-db20-4885-b322-03c42bda2db2","ios":"levelo://app?vid=75eb12b1-db20-4885-b322-03c42bda2db2"},"vehicle_type_id":"4","last_reported":1748420085,"current_range_meters":16800,"station_id":"ce4bhk92rcd13ifvqgc0","pricing_plan_id":"cebpf4jnsgd1na2vs0mg"},{"bike_id":"b2e483d1-8417-49fc-b5d5-da2183f79552","system_id":"levelo_inurba_marseille","lat":43.21793,"lon":5.3461,"is_reserved":false,"is_disabled":false,"rental_uris":{"android":"levelo://app?vid=b2e483d1-8417-49fc-b5d5-da2183f79552","ios":"levelo://app?vid=b2e483d1-8417-49fc-b5d5-da2183f79552"},"vehicle_type_id":"4","last_reported":1748420085,"current_range_meters":16800,"station_id":"","pricing_plan_id":"cebpf4jnsgd1na2vs0mg"},{"bike_id":"db0c8ab0-b70e-4a0e-a90b-773b708de0de","system_id":"levelo_inurba_marseille","lat":43.2954,"lon":5.37593,"is_reserved":false,"is_disabled":true,"rental_uris":{"android":"levelo://app?vid=db0c8ab0-b70e-4a0e-a90b-773b708de0de","ios":"levelo://app?vid=db0c8ab0-b70e-4a0e-a90b-773b708de0de"},"vehicle_type_id":"4","last_reported":1748420085,"current_range_meters":16800,"station_id":"ce4bgh92rcd13ifvqb50","pricing_plan_id":"cebpf4jnsgd1na2vs0mg"},{"bike_id":"9f4589ea-c237-479e-893a-22a38813f6b1","system_id":"levelo_inurba_marseille","lat":43.33022,"lon":5.39044,"is_reserved":false,"is_disabled":false,"rental_uris":{"android":"levelo://app?vid=9f4589ea-c237-479e-893a-22a38813f6b1","ios":"levelo://app?vid=9f4589ea-c237-479e-893a-22a38813f6b1"},"vehicle_type_id":"4","last_reported":1748420085,"current_range_meters":17200,"station_id":"ce4bhr92rcd13ifvqhrg","pricing_plan_id":"cebpf4jnsgd1na2vs0mg"},{"bike_id":"dec03ddb-3234-4872-9fd6-f1e7e0e4885d","system_id":"levelo_inurba_marseille","lat":43.30187,"lon":5.36617,"is_reserved":false,"is_disabled":false,"rental_uris":{"android":"levelo://app?vid=dec03ddb-3234-4872-9fd6-f1e7e0e4885d","ios":"levelo://app?vid=dec03ddb-3234-4872-9fd6-f1e7e0e4885d"},"vehicle_type_id":"4","last_reported":1748420085,"current_range_meters":17200,"station_id":"ce4bgrh2rcd13ifvqc8g","pricing_plan_id":"cebpf4jnsgd1na2vs0mg"},{"bike_id":"388ce987-ccd3-41b7-9687-dd54005450cb","system_id":"levelo_inurba_marseille","lat":43.25496,"lon":5.37652,"is_reserved":false,"is_disabled":false,"rental_uris":{"android":"levelo://app?vid=388ce987-ccd3-41b7-9687-dd54005450cb","ios":"levelo://app?vid=388ce987-ccd3-41b7-9687-dd54005450cb"},"vehicle_type_id":"4","last_reported":1748420085,"current_range_meters":17200,"station_id":"ce4bhh12rcd13ifvqff0","pricing_plan_id":"cebpf4jnsgd1na2vs0mg"},{"bike_id":"9f96c977-918e-4d59-937c-78e2d60493ee","system_id":"levelo_inurba_marseille","lat":43.27298,"lon":5.41061,"is_reserved":false,"is_disabled":false,"rental_uris":{"android":"levelo://app?vid=9f96c977-918e-4d59-937c-78e2d60493ee","ios":"levelo://app?vid=9f96c977-918e-4d59-937c-78e2d60493ee"},"vehicle_type_id":"4","last_reported":1748420085,"current_range_meters":17200,"station_id":"","pricing_plan_id":"cebpf4jnsgd1na2vs0mg"},{"bike_id":"5209eeb7-f00f-4b3f-ba2f-c1fd7db1d768","system_id":"levelo_inurba_marseille","lat":43.26782,"lon":5.39448,"is_reserved":false,"is_disabled":false,"rental_uris":{"android":"levelo://app?vid=5209eeb7-f00f-4b3f-ba2f-c1fd7db1d768","ios":"levelo://app?vid=5209eeb7-f00f-4b3f-ba2f-c1fd7db1d768"},"vehicle_type_id":"4","last_reported":1748420085,"current_range_meters":17200,"station_id":"ce4bhh12rcd13ifvqfg0","pricing_plan_id":"cebpf4jnsgd1na2vs0mg"},{"bike_id":"d1d03c3f-db17-49fd-b78c-5edf495f9a11","system_id":"levelo_inurba_marseille","lat":43.24179,"lon":5.39722,"is_reserved":false,"is_disabled":false,"rental_uris":{"android":"levelo://app?vid=d1d03c3f-db17-49fd-b78c-5edf495f9a11","ios":"levelo://app?vid=d1d03c3f-db17-49fd-b78c-5edf495f9a11"},"vehicle_type_id":"4","last_reported":1748420085,"current_range_meters":17200,"station_id":"ce4bhn12rcd13ifvqgpg","pricing_plan_id":"cebpf4jnsgd1na2vs0mg"},{"bike_id":"7c446326-f0fc-4f7e-8acf-bacf39509c17","system_id":"levelo_inurba_marseille","lat":43.292597,"lon":5.376125,"is_reserved":false,"is_disabled":false,"rental_uris":{"android":"levelo://app?vid=7c446326-f0fc-4f7e-8acf-bacf39509c17","ios":"levelo://app?vid=7c446326-f0fc-4f7e-8acf-bacf39509c17"},"vehicle_type_id":"4","last_reported":1748420085,"current_range_meters":17200,"station_id":"ce4bgi12rcd13ifvqb80","pricing_plan_id":"cebpf4jnsgd1na2vs0mg"},{"bike_id":"2157df63-42db-428a-a9e7-9deee0524650","system_id":"levelo_inurba_marseille","lat":43.2959,"lon":5.38091,"is_reserved":false,"is_disabled":false,"rental_uris":{"android":"levelo://app?vid=2157df63-42db-428a-a9e7-9deee0524650","ios":"levelo://app?vid=2157df63-42db-428a-a9e7-9deee0524650"},"vehicle_type_id":"4","last_reported":1748420085,"current_range_meters":17200,"station_id":"ce4bgl12rcd13ifvqbo0","pricing_plan_id":"cebpf4jnsgd1na2vs0mg"},{"bike_id":"e4a59270-9b01-400e-a0e7-b117b6d0416b","system_id":"levelo_inurba_marseille","lat":43.2904,"lon":5.37567,"is_reserved":false,"is_disabled":false,"rental_uris":{"android":"levelo://app?vid=e4a59270-9b01-400e-a0e7-b117b6d0416b","ios":"levelo://app?vid=e4a59270-9b01-400e-a0e7-b117b6d0416b"},"vehicle_type_id":"4","last_reported":1748420085,"current_range_meters":16800,"station_id":"ce4bh692rcd13ifvqe90","pricing_plan_id":"cebpf4jnsgd1na2vs0mg"},{"bike_id":"253a54c2-528e-4a2d-8b2b-c9de6760e94f","system_id":"levelo_inurba_marseille","lat":43.27967,"lon":5.38739,"is_reserved":false,"is_disabled":false,"rental_uris":{"android":"levelo://app?vid=253a54c2-528e-4a2d-8b2b-c9de6760e94f","ios":"levelo://app?vid=253a54c2-528e-4a2d-8b2b-c9de6760e94f"},"vehicle_type_id":"4","last_reported":1748420085,"current_range_meters":18000,"station_id":"ce4bhg12rcd13ifvqf80","pricing_plan_id":"cebpf4jnsgd1na2vs0mg"},{"bike_id":"5575dfde-2c45-4a53-b989-21c54cc4aae5","system_id":"levelo_inurba_marseille","lat":43.25921,"lon":5.40889,"is_reserved":false,"is_disabled":false,"rental_uris":{"android":"levelo://app?vid=5575dfde-2c45-4a53-b989-21c54cc4aae5","ios":"levelo://app?vid=5575dfde-2c45-4a53-b989-21c54cc4aae5"},"vehicle_type_id":"4","last_reported":1748420085,"current_range_meters":17600,"station_id":"ce4bhm92rcd13ifvqglg","pricing_plan_id":"cebpf4jnsgd1na2vs0mg"},{"bike_id":"adf8d08c-1d43-4f68-86f5-b38ccdc9a3d7","system_id":"levelo_inurba_marseille","lat":43.27494,"lon":5.42452,"is_reserved":false,"is_disabled":false,"rental_uris":{"android":"levelo://app?vid=adf8d08c-1d43-4f68-86f5-b38ccdc9a3d7","ios":"levelo://app?vid=adf8d08c-1d43-4f68-86f5-b38ccdc9a3d7"},"vehicle_type_id":"4","last_reported":1748420085,"current_range_meters":17600,"station_id":"ce4bhn92rcd13ifvqgrg","pricing_plan_id":"cebpf4jnsgd1na2vs0mg"},{"bike_id":"693a4751-c6bb-4ca7-ac5b-2b5a6905dd96","system_id":"levelo_inurba_marseille","lat":43.24328,"lon":5.37991,"is_reserved":false,"is_disabled":false,"rental_uris":{"android":"levelo://app?vid=693a4751-c6bb-4ca7-ac5b-2b5a6905dd96","ios":"levelo://app?vid=693a4751-c6bb-4ca7-ac5b-2b5a6905dd96"},"vehicle_type_id":"4","last_reported":1748420085,"current_range_meters":17600,"station_id":"","pricing_plan_id":"cebpf4jnsgd1na2vs0mg"},{"bike_id":"a6f4aa26-901e-4ea0-8a63-67d0f2f9245f","system_id":"levelo_inurba_marseille","lat":43.32461,"lon":5.36556,"is_reserved":false,"is_disabled":false,"rental_uris":{"android":"levelo://app?vid=a6f4aa26-901e-4ea0-8a63-67d0f2f9245f","ios":"levelo://app?vid=a6f4aa26-901e-4ea0-8a63-67d0f2f9245f"},"vehicle_type_id":"4","last_reported":1748420085,"current_range_meters":17600,"station_id":"ce4bhs12rcd13ifvqhvg","pricing_plan_id":"cebpf4jnsgd1na2vs0mg"},{"bike_id":"b61fb568-ee40-4ff3-bdfc-6ccca9f4d7ec","system_id":"levelo_inurba_marseille","lat":43.29839,"lon":5.36275,"is_reserved":false,"is_disabled":false,"rental_uris":{"android":"levelo://app?vid=b61fb568-ee40-4ff3-bdfc-6ccca9f4d7ec","ios":"levelo://app?vid=b61fb568-ee40-4ff3-bdfc-6ccca9f4d7ec"},"vehicle_type_id":"4","last_reported":1748420085,"current_range_meters":17600,"station_id":"ce4bgpp2rcd13ifvqc3g","pricing_plan_id":"cebpf4jnsgd1na2vs0mg"},{"bike_id":"6e95f720-6033-4ad9-9e9c-373c8532701c","system_id":"levelo_inurba_marseille","lat":43.28259,"lon":5.37905,"is_reserved":false,"is_disabled":false,"rental_uris":{"android":"levelo://app?vid=6e95f720-6033-4ad9-9e9c-373c8532701c","ios":"levelo://app?vid=6e95f720-6033-4ad9-9e9c-373c8532701c"},"vehicle_type_id":"4","last_reported":1748420085,"current_range_meters":16800,"station_id":"ce4bh4p2rcd13ifvqe1g","pricing_plan_id":"cebpf4jnsgd1na2vs0mg"},{"bike_id":"fdabacba-03d4-4143-8295-cf115e9b0c02","system_id":"levelo_inurba_marseille","lat":43.31653,"lon":5.38941,"is_reserved":false,"is_disabled":false,"rental_uris":{"android":"levelo://app?vid=fdabacba-03d4-4143-8295-cf115e9b0c02","ios":"levelo://app?vid=fdabacba-03d4-4143-8295-cf115e9b0c02"},"vehicle_type_id":"4","last_reported":1748420085,"current_range_meters":17600,"station_id":"","pricing_plan_id":"cebpf4jnsgd1na2vs0mg"},{"bike_id":"9eacf30b-aeb3-408e-83dd-ae10555615c1","system_id":"levelo_inurba_marseille","lat":43.29281,"lon":5.36854,"is_reserved":false,"is_disabled":false,"rental_uris":{"android":"levelo://app?vid=9eacf30b-aeb3-408e-83dd-ae10555615c1","ios":"levelo://app?vid=9eacf30b-aeb3-408e-83dd-ae10555615c1"},"vehicle_type_id":"4","last_reported":1748420085,"current_range_meters":17600,"station_id":"ce4bhbp2rcd13ifvqesg","pricing_plan_id":"cebpf4jnsgd1na2vs0mg"},{"bike_id":"41ecb8f8-a11f-4cf6-805d-c469794d74d8","system_id":"levelo_inurba_marseille","lat":43.31328,"lon":5.36735,"is_reserved":false,"is_disabled":false,"rental_uris":{"android":"levelo://app?vid=41ecb8f8-a11f-4cf6-805d-c469794d74d8","ios":"levelo://app?vid=41ecb8f8-a11f-4cf6-805d-c469794d74d8"},"vehicle_type_id":"4","last_reported":1748420085,"current_range_meters":17600,"station_id":"ce4bgr92rcd13ifvqc6g","pricing_plan_id":"cebpf4jnsgd1na2vs0mg"},{"bike_id":"18918d56-0ab0-4bca-b739-0945ea367e66","system_id":"levelo_inurba_marseille","lat":43.25909,"lon":5.40904,"is_reserved":false,"is_disabled":false,"rental_uris":{"android":"levelo://app?vid=18918d56-0ab0-4bca-b739-0945ea367e66","ios":"levelo://app?vid=18918d56-0ab0-4bca-b739-0945ea367e66"},"vehicle_type_id":"4","last_reported":1748420085,"current_range_meters":17600,"station_id":"ce4bhm92rcd13ifvqglg","pricing_plan_id":"cebpf4jnsgd1na2vs0mg"},{"bike_id":"ca260ded-c7c2-47f8-8e09-8a74dcde0f9c","system_id":"levelo_inurba_marseille","lat":43.32327,"lon":5.3829,"is_reserved":false,"is_disabled":false,"rental_uris":{"android":"levelo://app?vid=ca260ded-c7c2-47f8-8e09-8a74dcde0f9c","ios":"levelo://app?vid=ca260ded-c7c2-47f8-8e09-8a74dcde0f9c"},"vehicle_type_id":"4","last_reported":1748420085,"current_range_meters":17600,"station_id":"ce4bhr12rcd13ifvqhqg","pricing_plan_id":"cebpf4jnsgd1na2vs0mg"},{"bike_id":"79b90bfd-967a-4279-a02a-691b84307985","system_id":"levelo_inurba_marseille","lat":43.302993,"lon":5.368917,"is_reserved":false,"is_disabled":false,"rental_uris":{"android":"levelo://app?vid=79b90bfd-967a-4279-a02a-691b84307985","ios":"levelo://app?vid=79b90bfd-967a-4279-a02a-691b84307985"},"vehicle_type_id":"4","last_reported":1748420085,"current_range_meters":18000,"station_id":"ce4bgqh2rcd13ifvqc5g","pricing_plan_id":"cebpf4jnsgd1na2vs0mg"},{"bike_id":"925a20b4-eb21-4d69-a321-03637183500d","system_id":"levelo_inurba_marseille","lat":43.27049,"lon":5.40256,"is_reserved":false,"is_disabled":false,"rental_uris":{"android":"levelo://app?vid=925a20b4-eb21-4d69-a321-03637183500d","ios":"levelo://app?vid=925a20b4-eb21-4d69-a321-03637183500d"},"vehicle_type_id":"4","last_reported":1748420085,"current_range_meters":18000,"station_id":"ce4bhk92rcd13ifvqgc0","pricing_plan_id":"cebpf4jnsgd1na2vs0mg"},{"bike_id":"ad923e54-fbbf-4d1b-966f-b43f50785f21","system_id":"levelo_inurba_marseille","lat":43.287018,"lon":5.399866,"is_reserved":false,"is_disabled":false,"rental_uris":{"android":"levelo://app?vid=ad923e54-fbbf-4d1b-966f-b43f50785f21","ios":"levelo://app?vid=ad923e54-fbbf-4d1b-966f-b43f50785f21"},"vehicle_type_id":"4","last_reported":1748420085,"current_range_meters":18000,"station_id":"ce4bho92rcd13ifvqh3g","pricing_plan_id":"cebpf4jnsgd1na2vs0mg"},{"bike_id":"435d1a1f-35a7-45ad-ad6b-fa7767471b2e","system_id":"levelo_inurba_marseille","lat":43.330422,"lon":5.390401,"is_reserved":false,"is_disabled":false,"rental_uris":{"android":"levelo://app?vid=435d1a1f-35a7-45ad-ad6b-fa7767471b2e","ios":"levelo://app?vid=435d1a1f-35a7-45ad-ad6b-fa7767471b2e"},"vehicle_type_id":"4","last_reported":1748420085,"current_range_meters":18000,"station_id":"ce4bhr92rcd13ifvqhrg","pricing_plan_id":"cebpf4jnsgd1na2vs0mg"},{"bike_id":"5d360dd9-99ae-46bb-b36c-42b66c7c0d9c","system_id":"levelo_inurba_marseille","lat":43.292933,"lon":5.374653,"is_reserved":false,"is_disabled":false,"rental_uris":{"android":"levelo://app?vid=5d360dd9-99ae-46bb-b36c-42b66c7c0d9c","ios":"levelo://app?vid=5d360dd9-99ae-46bb-b36c-42b66c7c0d9c"},"vehicle_type_id":"4","last_reported":1748420085,"current_range_meters":18000,"station_id":"ce4bgi12rcd13ifvqb70","pricing_plan_id":"cebpf4jnsgd1na2vs0mg"},{"bike_id":"0f51ba3c-a66a-429f-a775-35d6606b6435","system_id":"levelo_inurba_marseille","lat":43.29367,"lon":5.37848,"is_reserved":false,"is_disabled":false,"rental_uris":{"android":"levelo://app?vid=0f51ba3c-a66a-429f-a775-35d6606b6435","ios":"levelo://app?vid=0f51ba3c-a66a-429f-a775-35d6606b6435"},"vehicle_type_id":"4","last_reported":1748420085,"current_range_meters":17600,"station_id":"ce4bgjh2rcd13ifvqbf0","pricing_plan_id":"cebpf4jnsgd1na2vs0mg"},{"bike_id":"1430871a-f5fa-4e72-b74f-054a54e1913f","system_id":"levelo_inurba_marseille","lat":43.27512,"lon":5.42459,"is_reserved":false,"is_disabled":false,"rental_uris":{"android":"levelo://app?vid=1430871a-f5fa-4e72-b74f-054a54e1913f","ios":"levelo://app?vid=1430871a-f5fa-4e72-b74f-054a54e1913f"},"vehicle_type_id":"4","last_reported":1748420085,"current_range_meters":18800,"station_id":"ce4bhn92rcd13ifvqgrg","pricing_plan_id":"cebpf4jnsgd1na2vs0mg"},{"bike_id":"587dd792-1730-491c-9347-3a32efc8569c","system_id":"levelo_inurba_marseille","lat":43.255796,"lon":5.382262,"is_reserved":false,"is_disabled":false,"rental_uris":{"android":"levelo://app?vid=587dd792-1730-491c-9347-3a32efc8569c","ios":"levelo://app?vid=587dd792-1730-491c-9347-3a32efc8569c"},"vehicle_type_id":"4","last_reported":1748420085,"current_range_meters":18800,"station_id":"ce501612rcd8frsf0b60","pricing_plan_id":"cebpf4jnsgd1na2vs0mg"},{"bike_id":"5a50c122-a09f-4d45-8531-19b5b784ca17","system_id":"levelo_inurba_marseille","lat":43.29308,"lon":5.37175,"is_reserved":false,"is_disabled":false,"rental_uris":{"android":"levelo://app?vid=5a50c122-a09f-4d45-8531-19b5b784ca17","ios":"levelo://app?vid=5a50c122-a09f-4d45-8531-19b5b784ca17"},"vehicle_type_id":"4","last_reported":1748420085,"current_range_meters":18800,"station_id":"ce4bgh92rcd13ifvqb40","pricing_plan_id":"cebpf4jnsgd1na2vs0mg"},{"bike_id":"d808b072-05d5-4290-808a-ef172b8d6ece","system_id":"levelo_inurba_marseille","lat":43.21774,"lon":5.34576,"is_reserved":false,"is_disabled":true,"rental_uris":{"android":"levelo://app?vid=d808b072-05d5-4290-808a-ef172b8d6ece","ios":"levelo://app?vid=d808b072-05d5-4290-808a-ef172b8d6ece"},"vehicle_type_id":"4","last_reported":1748420085,"current_range_meters":18800,"station_id":"st_cvj6r9ubvosntc0bgbag","pricing_plan_id":"cebpf4jnsgd1na2vs0mg"},{"bike_id":"0439e2a2-60c2-445f-87fa-4fa26765026e","system_id":"levelo_inurba_marseille","lat":43.30538,"lon":5.36706,"is_reserved":false,"is_disabled":false,"rental_uris":{"android":"levelo://app?vid=0439e2a2-60c2-445f-87fa-4fa26765026e","ios":"levelo://app?vid=0439e2a2-60c2-445f-87fa-4fa26765026e"},"vehicle_type_id":"4","last_reported":1748420085,"current_range_meters":18800,"station_id":"ce4bgrp2rcd13ifvqc9g","pricing_plan_id":"cebpf4jnsgd1na2vs0mg"},{"bike_id":"fedafb8d-be46-4c04-8644-5a3f13b6b1e2","system_id":"levelo_inurba_marseille","lat":43.25924,"lon":5.40889,"is_reserved":false,"is_disabled":false,"rental_uris":{"android":"levelo://app?vid=fedafb8d-be46-4c04-8644-5a3f13b6b1e2","ios":"levelo://app?vid=fedafb8d-be46-4c04-8644-5a3f13b6b1e2"},"vehicle_type_id":"4","last_reported":1748420085,"current_range_meters":18800,"station_id":"ce4bhm92rcd13ifvqglg","pricing_plan_id":"cebpf4jnsgd1na2vs0mg"},{"bike_id":"7a673704-af81-480b-8221-ddcb9769e87b","system_id":"levelo_inurba_marseille","lat":43.2594,"lon":5.40896,"is_reserved":false,"is_disabled":false,"rental_uris":{"android":"levelo://app?vid=7a673704-af81-480b-8221-ddcb9769e87b","ios":"levelo://app?vid=7a673704-af81-480b-8221-ddcb9769e87b"},"vehicle_type_id":"4","last_reported":1748420085,"current_range_meters":18800,"station_id":"ce4bhm92rcd13ifvqglg","pricing_plan_id":"cebpf4jnsgd1na2vs0mg"},{"bike_id":"d0cf0322-df40-44eb-9e28-18a74ff8e476","system_id":"levelo_inurba_marseille","lat":43.28491,"lon":5.38425,"is_reserved":false,"is_disabled":false,"rental_uris":{"android":"levelo://app?vid=d0cf0322-df40-44eb-9e28-18a74ff8e476","ios":"levelo://app?vid=d0cf0322-df40-44eb-9e28-18a74ff8e476"},"vehicle_type_id":"4","last_reported":1748420085,"current_range_meters":18800,"station_id":"ce4bh512rcd13ifvqe3g","pricing_plan_id":"cebpf4jnsgd1na2vs0mg"},{"bike_id":"69950d4e-65c6-4160-96f1-d7d9fe69a216","system_id":"levelo_inurba_marseille","lat":43.27666,"lon":5.3887,"is_reserved":false,"is_disabled":false,"rental_uris":{"android":"levelo://app?vid=69950d4e-65c6-4160-96f1-d7d9fe69a216","ios":"levelo://app?vid=69950d4e-65c6-4160-96f1-d7d9fe69a216"},"vehicle_type_id":"4","last_reported":1748420085,"current_range_meters":18800,"station_id":"ce4bhi12rcd13ifvqfo0","pricing_plan_id":"cebpf4jnsgd1na2vs0mg"},{"bike_id":"21827349-778e-424c-96e1-d482ffc593a4","system_id":"levelo_inurba_marseille","lat":43.326508,"lon":5.414509,"is_reserved":false,"is_disabled":false,"rental_uris":{"android":"levelo://app?vid=21827349-778e-424c-96e1-d482ffc593a4","ios":"levelo://app?vid=21827349-778e-424c-96e1-d482ffc593a4"},"vehicle_type_id":"4","last_reported":1748420085,"current_range_meters":19200,"station_id":"ce4bhq12rcd13ifvqhhg","pricing_plan_id":"cebpf4jnsgd1na2vs0mg"},{"bike_id":"c3aabf74-7776-48fb-8df4-53de7bc597a2","system_id":"levelo_inurba_marseille","lat":43.274968,"lon":5.424488,"is_reserved":false,"is_disabled":false,"rental_uris":{"android":"levelo://app?vid=c3aabf74-7776-48fb-8df4-53de7bc597a2","ios":"levelo://app?vid=c3aabf74-7776-48fb-8df4-53de7bc597a2"},"vehicle_type_id":"4","last_reported":1748420085,"current_range_meters":19200,"station_id":"ce4bhn92rcd13ifvqgrg","pricing_plan_id":"cebpf4jnsgd1na2vs0mg"},{"bike_id":"6bc6be4a-bdf0-414b-87cb-512800499ce8","system_id":"levelo_inurba_marseille","lat":43.25923,"lon":5.40894,"is_reserved":false,"is_disabled":false,"rental_uris":{"android":"levelo://app?vid=6bc6be4a-bdf0-414b-87cb-512800499ce8","ios":"levelo://app?vid=6bc6be4a-bdf0-414b-87cb-512800499ce8"},"vehicle_type_id":"4","last_reported":1748420085,"current_range_meters":19200,"station_id":"ce4bhm92rcd13ifvqglg","pricing_plan_id":"cebpf4jnsgd1na2vs0mg"},{"bike_id":"88f6e72a-ea3f-4d49-8af8-99191a8bcac8","system_id":"levelo_inurba_marseille","lat":43.31511,"lon":5.37241,"is_reserved":false,"is_disabled":false,"rental_uris":{"android":"levelo://app?vid=88f6e72a-ea3f-4d49-8af8-99191a8bcac8","ios":"levelo://app?vid=88f6e72a-ea3f-4d49-8af8-99191a8bcac8"},"vehicle_type_id":"4","last_reported":1748420085,"current_range_meters":19200,"station_id":"ce4bgt12rcd13ifvqcd0","pricing_plan_id":"cebpf4jnsgd1na2vs0mg"},{"bike_id":"96e2ce74-84ab-4e56-93b7-cb5162a229fd","system_id":"levelo_inurba_marseille","lat":43.29577,"lon":5.38108,"is_reserved":false,"is_disabled":false,"rental_uris":{"android":"levelo://app?vid=96e2ce74-84ab-4e56-93b7-cb5162a229fd","ios":"levelo://app?vid=96e2ce74-84ab-4e56-93b7-cb5162a229fd"},"vehicle_type_id":"4","last_reported":1748420085,"current_range_meters":18800,"station_id":"ce4bgl12rcd13ifvqbo0","pricing_plan_id":"cebpf4jnsgd1na2vs0mg"},{"bike_id":"73a58cca-81d1-4657-9ac0-535389d16cdd","system_id":"levelo_inurba_marseille","lat":43.31998,"lon":5.38151,"is_reserved":false,"is_disabled":false,"rental_uris":{"android":"levelo://app?vid=73a58cca-81d1-4657-9ac0-535389d16cdd","ios":"levelo://app?vid=73a58cca-81d1-4657-9ac0-535389d16cdd"},"vehicle_type_id":"4","last_reported":1748420085,"current_range_meters":19200,"station_id":"ce4bhr12rcd13ifvqhpg","pricing_plan_id":"cebpf4jnsgd1na2vs0mg"},