{"last_updated":1730574435,"ttl":60,"version":"2.2","data":{"bikes":[{"bike_id":"daa5500f-6039-4d77-bf02-00710b3acec6","system_id":"levelo_inurba_marseille","lat":43.25932,"lon":5.40912,"is_reserved":false,"is_disabled":false,"rental_uris":{"android":"levelo://app?vid=daa5500f-6039-4d77-bf02-00710b3acec6","ios":"levelo://app?vid=daa5500f-6039-4d77-bf02-00710b3acec6"},"vehicle_type_id":"4","last_reported":1730574435,"current_range_meters":8400,"station_id":"ce4bhm92rcd13ifvqglg","pricing_plan_id":"cebpf4jnsgd1na2vs0mg"},{"bike_id":"f89379a0-28dd-4eed-b3f7-b740028a9710","system_id":"levelo_inurba_marseille","lat":43.27814,"lon":5.40728,"is_reserved":false,"is_disabled":false,"rental_uris":{"android":"levelo://app?vid=f89379a0-28dd-4eed-b3f7-b740028a9710","ios":"levelo://app?vid=f89379a0-28dd-4eed-b3f7-b740028a9710"},"vehicle_type_id":"4","last_reported":1730574435,"current_range_meters":8800,"station_id":"ce4bhnh2rcd13ifvqgtg","pricing_plan_id":"cebpf4jnsgd1na2vs0mg"},{"bike_id":"bbedcf01-8d16-416e-bedd-d7dbe6c10a70","system_id":"levelo_inurba_marseille","lat":43.29023,"lon":5.3814,"is_reserved":false,"is_disabled":false,"rental_uris":{"android":"levelo://app?vid=bbedcf01-8d16-416e-bedd-d7dbe6c10a70","ios":"levelo://app?vid=bbedcf01-8d16-416e-bedd-d7dbe6c10a70"},"vehicle_type_id":"4","last_reported":1730574435,"current_range_meters":9200,"station_id":"ce4bh4p2rcd13ifvqe1g","pricing_plan_id":"cebpf4jnsgd1na2vs0mg"},{"bike_id":"5662c3ec-16ac-4646-ad92-7b800105b64d","system_id":"levelo_inurba_marseille","lat":43.25106,"lon":5.40323,"is_reserved":false,"is_disabled":false,"rental_uris":{"android":"levelo://app?vid=5662c3ec-16ac-4646-ad92-7b800105b64d","ios":"levelo://app?vid=5662c3ec-16ac-4646-ad92-7b800105b64d"},"vehicle_type_id":"4","last_reported":1730574435,"current_range_meters":9600,"station_id":"ce4bhlh2rcd13ifvqgig","pricing_plan_id":"cebpf4jnsgd1na2vs0mg"},{"bike_id":"b3291122-c7a5-4136-9d27-54c339264b6a","system_id":"levelo_inurba_marseille","lat":43.316791,"lon":5.404746,"is_reserved":false,"is_disabled":false,"rental_uris":{"android":"levelo://app?vid=b3291122-c7a5-4136-9d27-54c339264b6a","ios":"levelo://app?vid=b3291122-c7a5-4136-9d27-54c339264b6a"},"vehicle_type_id":"4","last_reported":1730574435,"current_range_meters":7200,"station_id":"ce4bh012rcd13ifvqd00","pricing_plan_id":"cebpf4jnsgd1na2vs0mg"},{"bike_id":"4f63a1a0-74bc-4095-92d6-edf4cb2d7393","system_id":"levelo_inurba_marseille","lat":43.28932,"lon":5.38401,"is_reserved":false,"is_disabled":false,"rental_uris":{"android":"levelo://app?vid=4f63a1a0-74bc-4095-92d6-edf4cb2d7393","ios":"levelo://app?vid=4f63a1a0-74bc-4095-92d6-edf4cb2d7393"},"vehicle_type_id":"4","last_reported":1730574435,"current_range_meters":27200,"station_id":"ce4bh612rcd13ifvqe6g","pricing_plan_id":"cebpf4jnsgd1na2vs0mg"},{"bike_id":"463a5fa2-247f-46f7-a9ca-b55d6029c4c8","system_id":"levelo_inurba_marseille","lat":43.27501,"lon":5.42454,"is_reserved":false,"is_disabled":false,"rental_uris":{"android":"levelo://app?vid=463a5fa2-247f-46f7-a9ca-b55d6029c4c8","ios":"levelo://app?vid=463a5fa2-247f-46f7-a9ca-b55d6029c4c8"},"vehicle_type_id":"4","last_reported":1730574435,"current_range_meters":39200,"station_id":"ce4bhn92rcd13ifvqgrg","pricing_plan_id":"cebpf4jnsgd1na2vs0mg"},{"bike_id":"58a97ccd-c78e-42ea-bbe5-395d87745a47","system_id":"levelo_inurba_marseille","lat":43.29595,"lon":5.381,"is_reserved":false,"is_disabled":false,"rental_uris":{"android":"levelo://app?vid=58a97ccd-c78e-42ea-bbe5-395d87745a47","ios":"levelo://app?vid=58a97ccd-c78e-42ea-bbe5-395d87745a47"},"vehicle_type_id":"4","last_reported":1730574435,"current_range_meters":6800,"station_id":"ce4bgl12rcd13ifvqbo0","pricing_plan_id":"cebpf4jnsgd1na2vs0mg"},{"bike_id":"4cb016a0-0adc-4b3f-8780-d073928d65d3","system_id":"levelo_inurba_marseille","lat":43.31224,"lon":5.36855,"is_reserved":false,"is_disabled":false,"rental_uris":{"android":"levelo://app?vid=4cb016a0-0adc-4b3f-8780-d073928d65d3","ios":"levelo://app?vid=4cb016a0-0adc-4b3f-8780-d073928d65d3"},"vehicle_type_id":"4","last_reported":1730574435,"current_range_meters":38000,"station_id":"ce4bgl92rcd13ifvqbq0","pricing_plan_id":"cebpf4jnsgd1na2vs0mg"},{"bike_id":"16869cb2-a83c-40e2-9d7b-80e1114c2015","system_id":"levelo_inurba_marseille","lat":43.229237,"lon":5.353482,"is_reserved":false,"is_disabled":false,"rental_uris":{"android":"levelo://app?vid=16869cb2-a83c-40e2-9d7b-80e1114c2015","ios":"levelo://app?vid=16869cb2-a83c-40e2-9d7b-80e1114c2015"},"vehicle_type_id":"4","last_reported":1730574435,"current_range_meters":39200,"station_id":"cpo3532slgdg3j2ikp40","pricing_plan_id":"cebpf4jnsgd1na2vs0mg"},{"bike_id":"5818a6ac-2d40-4bf0-a920-aefa2e8a89fa","system_id":"levelo_inurba_marseille","lat":43.26491,"lon":5.3955,"is_reserved":false,"is_disabled":false,"rental_uris":{"android":"levelo://app?vid=5818a6ac-2d40-4bf0-a920-aefa2e8a89fa","ios":"levelo://app?vid=5818a6ac-2d40-4bf0-a920-aefa2e8a89fa"},"vehicle_type_id":"4","last_reported":1730574435,"current_range_meters":27600,"station_id":"ce4bhi12rcd13ifvqfq0","pricing_plan_id":"cebpf4jnsgd1na2vs0mg"},{"bike_id":"39e48f94-e636-4fd8-a174-0a1f227ded4f","system_id":"levelo_inurba_marseille","lat":43.29262,"lon":5.38441,"is_reserved":false,"is_disabled":false,"rental_uris":{"android":"levelo://app?vid=39e48f94-e636-4fd8-a174-0a1f227ded4f","ios":"levelo://app?vid=39e48f94-e636-4fd8-a174-0a1f227ded4f"},"vehicle_type_id":"4","last_reported":1730574435,"current_range_meters":17600,"station_id":"ce4bh692rcd13ifvqea0","pricing_plan_id":"cebpf4jnsgd1na2vs0mg"},{"bike_id":"d6352dc3-c157-4416-9743-a8439519c15e","system_id":"levelo_inurba_marseille","lat":43.29556,"lon":5.42284,"is_reserved":false,"is_disabled":false,"rental_uris":{"android":"levelo://app?vid=d6352dc3-c157-4416-9743-a8439519c15e","ios":"levelo://app?vid=d6352dc3-c157-4416-9743-a8439519c15e"},"vehicle_type_id":"4","last_reported":1730574435,"current_range_meters":19200,"station_id":"ce4bhph2rcd13ifvqhdg","pricing_plan_id":"cebpf4jnsgd1na2vs0mg"},{"bike_id":"3aae935e-f19b-4b82-860a-9e86c4796487","system_id":"levelo_inurba_marseille","lat":43.25867,"lon":5.39903,"is_reserved":false,"is_disabled":false,"rental_uris":{"android":"levelo://app?vid=3aae935e-f19b-4b82-860a-9e86c4796487","ios":"levelo://app?vid=3aae935e-f19b-4b82-860a-9e86c4796487"},"vehicle_type_id":"4","last_reported":1730574435,"current_range_meters":8000,"station_id":"ce4bhl92rcd13ifvqghg","pricing_plan_id":"cebpf4jnsgd1na2vs0mg"},{"bike_id":"6aee0ce1-c7a0-45e8-a515-069ca31b3763","system_id":"levelo_inurba_marseille","lat":43.25729,"lon":5.41117,"is_reserved":false,"is_disabled":false,"rental_uris":{"android":"levelo://app?vid=6aee0ce1-c7a0-45e8-a515-069ca31b3763","ios":"levelo://app?vid=6aee0ce1-c7a0-45e8-a515-069ca31b3763"},"vehicle_type_id":"4","last_reported":1730574435,"current_range_meters":37600,"station_id":"ce4bhkp2rcd13ifvqgd0","pricing_plan_id":"cebpf4jnsgd1na2vs0mg"},{"bike_id":"cecfe0cd-745f-48d6-88c2-20872f9b12fa","system_id":"levelo_inurba_marseille","lat":43.25868,"lon":5.399,"is_reserved":false,"is_disabled":false,"rental_uris":{"android":"levelo://app?vid=cecfe0cd-745f-48d6-88c2-20872f9b12fa","ios":"levelo://app?vid=cecfe0cd-745f-48d6-88c2-20872f9b12fa"},"vehicle_type_id":"4","last_reported":1730574435,"current_range_meters":22000,"station_id":"ce4bhl92rcd13ifvqghg","pricing_plan_id":"cebpf4jnsgd1na2vs0mg"},{"bike_id":"de11b8f7-6d15-484a-821b-fa6044d2145a","system_id":"levelo_inurba_marseille","lat":43.29033,"lon":5.38636,"is_reserved":false,"is_disabled":false,"rental_uris":{"android":"levelo://app?vid=de11b8f7-6d15-484a-821b-fa6044d2145a","ios":"levelo://app?vid=de11b8f7-6d15-484a-821b-fa6044d2145a"},"vehicle_type_id":"4","last_reported":1730574435,"current_range_meters":14000,"station_id":"ce4bh4p2rcd13ifvqe0g","pricing_plan_id":"cebpf4jnsgd1na2vs0mg"},{"bike_id":"41e69a9b-66f4-4c88-9e8e-24877c19a722","system_id":"levelo_inurba_marseille","lat":43.26548,"lon":5.37288,"is_reserved":false,"is_disabled":false,"rental_uris":{"android":"levelo://app?vid=41e69a9b-66f4-4c88-9e8e-24877c19a722","ios":"levelo://app?vid=41e69a9b-66f4-4c88-9e8e-24877c19a722"},"vehicle_type_id":"4","last_reported":1730574435,"current_range_meters":38800,"station_id":"ce4bhg12rcd13ifvqf70","pricing_plan_id":"cebpf4jnsgd1na2vs0mg"},{"bike_id":"f3644f25-acbb-49ac-ab9c-e91b11f01fa4","system_id":"levelo_inurba_marseille","lat":43.25871,"lon":5.39903,"is_reserved":false,"is_disabled":false,"rental_uris":{"android":"levelo://app?vid=f3644f25-acbb-49ac-ab9c-e91b11f01fa4","ios":"levelo://app?vid=f3644f25-acbb-49ac-ab9c-e91b11f01fa4"},"vehicle_type_id":"4","last_reported":1730574435,"current_range_meters":28800,"station_id":"ce4bhl92rcd13ifvqghg","pricing_plan_id":"cebpf4jnsgd1na2vs0mg"},{"bike_id":"4b91db03-6c35-413f-a0ce-54147022697d","system_id":"levelo_inurba_marseille","lat":43.30428,"lon":5.38893,"is_reserved":false,"is_disabled":false,"rental_uris":{"android":"levelo://app?vid=4b91db03-6c35-413f-a0ce-54147022697d","ios":"levelo://app?vid=4b91db03-6c35-413f-a0ce-54147022697d"},"vehicle_type_id":"4","last_reported":1730574435,"current_range_meters":38800,"station_id":"ce4bgk12rcd13ifvqbi0","pricing_plan_id":"cebpf4jnsgd1na2vs0mg"},{"bike_id":"8d884619-c041-4782-bf96-597c339fd288","system_id":"levelo_inurba_marseille","lat":43.24804,"lon":5.3746,"is_reserved":false,"is_disabled":false,"rental_uris":{"android":"levelo://app?vid=8d884619-c041-4782-bf96-597c339fd288","ios":"levelo://app?vid=8d884619-c041-4782-bf96-597c339fd288"},"vehicle_type_id":"4","last_reported":1730574435,"current_range_meters":8000,"station_id":"ce4bhgh2rcd13ifvqfb0","pricing_plan_id":"cebpf4jnsgd1na2vs0mg"},{"bike_id":"a9fcc1c7-7810-4515-98b8-5a9fb35c72be","system_id":"levelo_inurba_marseille","lat":43.28347,"lon":5.38106,"is_reserved":false,"is_disabled":false,"rental_uris":{"android":"levelo://app?vid=a9fcc1c7-7810-4515-98b8-5a9fb35c72be","ios":"levelo://app?vid=a9fcc1c7-7810-4515-98b8-5a9fb35c72be"},"vehicle_type_id":"4","last_reported":1730574435,"current_range_meters":37600,"station_id":"ce4bh412rcd13ifvqdr0","pricing_plan_id":"cebpf4jnsgd1na2vs0mg"},{"bike_id":"a8973268-a639-425d-a77f-dbb234d69b4e","system_id":"levelo_inurba_marseille","lat":43.2925,"lon":5.38443,"is_reserved":false,"is_disabled":false,"rental_uris":{"android":"levelo://app?vid=a8973268-a639-425d-a77f-dbb234d69b4e","ios":"levelo://app?vid=a8973268-a639-425d-a77f-dbb234d69b4e"},"vehicle_type_id":"4","last_reported":1730574435,"current_range_meters":11600,"station_id":"ce4bh692rcd13ifvqea0","pricing_plan_id":"cebpf4jnsgd1na2vs0mg"},{"bike_id":"07163792-a324-42aa-94c7-dc1785924896","system_id":"levelo_inurba_marseille","lat":43.30538,"lon":5.38431,"is_reserved":false,"is_disabled":false,"rental_uris":{"android":"levelo://app?vid=07163792-a324-42aa-94c7-dc1785924896","ios":"levelo://app?vid=07163792-a324-42aa-94c7-dc1785924896"},"vehicle_type_id":"4","last_reported":1730574435,"current_range_meters":38400,"station_id":"ce4bgg92rcd13ifvqb30","pricing_plan_id":"cebpf4jnsgd1na2vs0mg"},{"bike_id":"6e2c93b7-ebb4-422a-b427-e48707211c9b","system_id":"levelo_inurba_marseille","lat":43.30424,"lon":5.41289,"is_reserved":false,"is_disabled":false,"rental_uris":{"android":"levelo://app?vid=6e2c93b7-ebb4-422a-b427-e48707211c9b","ios":"levelo://app?vid=6e2c93b7-ebb4-422a-b427-e48707211c9b"},"vehicle_type_id":"4","last_reported":1730574435,"current_range_meters":7200,"station_id":"ce4bhop2rcd13ifvqh8g","pricing_plan_id":"cebpf4jnsgd1na2vs0mg"},{"bike_id":"7f39b1a9-937f-4de6-9cb9-6fb824b11a9d","system_id":"levelo_inurba_marseille","lat":43.29261,"lon":5.36842,"is_reserved":false,"is_disabled":false,"rental_uris":{"android":"levelo://app?vid=7f39b1a9-937f-4de6-9cb9-6fb824b11a9d","ios":"levelo://app?vid=7f39b1a9-937f-4de6-9cb9-6fb824b11a9d"},"vehicle_type_id":"4","last_reported":1730574435,"current_range_meters":29600,"station_id":"ce4bhbp2rcd13ifvqesg","pricing_plan_id":"cebpf4jnsgd1na2vs0mg"},{"bike_id":"600c2d8d-089c-4a44-989f-9dff04562a3d","system_id":"levelo_inurba_marseille","lat":43.292786,"lon":5.368504,"is_reserved":false,"is_disabled":false,"rental_uris":{"android":"levelo://app?vid=600c2d8d-089c-4a44-989f-9dff04562a3d","ios":"levelo://app?vid=600c2d8d-089c-4a44-989f-9dff04562a3d"},"vehicle_type_id":"4","last_reported":1730574435,"current_range_meters":20400,"station_id":"ce4bhbp2rcd13ifvqesg","pricing_plan_id":"cebpf4jnsgd1na2vs0mg"},{"bike_id":"cf9258d5-1c1b-454d-bfd4-5227cd15612a","system_id":"levelo_inurba_marseille","lat":43.26204,"lon":5.37931,"is_reserved":false,"is_disabled":false,"rental_uris":{"android":"levelo://app?vid=cf9258d5-1c1b-454d-bfd4-5227cd15612a","ios":"levelo://app?vid=cf9258d5-1c1b-454d-bfd4-5227cd15612a"},"vehicle_type_id":"4","last_reported":1730574435,"current_range_meters":26000,"station_id":"ce4bhjp2rcd13ifvqg90","pricing_plan_id":"cebpf4jnsgd1na2vs0mg"},{"bike_id":"b4b20972-6556-4e2a-9760-4b3b69c102f7","system_id":"levelo_inurba_marseille","lat":43.28717,"lon":5.37932,"is_reserved":false,"is_disabled":false,"rental_uris":{"android":"levelo://app?vid=b4b20972-6556-4e2a-9760-4b3b69c102f7","ios":"levelo://app?vid=b4b20972-6556-4e2a-9760-4b3b69c102f7"},"vehicle_type_id":"4","last_reported":1730574435,"current_range_meters":19600,"station_id":"ce4bh9p2rcd13ifvqec0","pricing_plan_id":"cebpf4jnsgd1na2vs0mg"},{"bike_id":"8a7b4d87-1ae4-45b1-a475-1dcce0c24120","system_id":"levelo_inurba_marseille","lat":43.29444,"lon":5.39749,"is_reserved":false,"is_disabled":false,"rental_uris":{"android":"levelo://app?vid=8a7b4d87-1ae4-45b1-a475-1dcce0c24120","ios":"levelo://app?vid=8a7b4d87-1ae4-45b1-a475-1dcce0c24120"},"vehicle_type_id":"4","last_reported":1730574435,"current_range_meters":6400,"station_id":"ce4bh3h2rcd13ifvqdo0","pricing_plan_id":"cebpf4jnsgd1na2vs0mg"},{"bike_id":"9214ab54-3758-4eab-a1e4-9b2d618824d5","system_id":"levelo_inurba_marseille","lat":43.28729,"lon":5.36096,"is_reserved":false,"is_disabled":false,"rental_uris":{"android":"levelo://app?vid=9214ab54-3758-4eab-a1e4-9b2d618824d5","ios":"levelo://app?vid=9214ab54-3758-4eab-a1e4-9b2d618824d5"},"vehicle_type_id":"4","last_reported":1730574435,"current_range_meters":38800,"station_id":"cki0cbj6b192h4jlfktg","pricing_plan_id":"cebpf4jnsgd1na2vs0mg"},{"bike_id":"15c52a6c-d60a-43cb-838c-ca43903292d7","system_id":"levelo_inurba_marseille","lat":43.293,"lon":5.37461,"is_reserved":false,"is_disabled":false,"rental_uris":{"android":"levelo://app?vid=15c52a6c-d60a-43cb-838c-ca43903292d7","ios":"levelo://app?vid=15c52a6c-d60a-43cb-838c-ca43903292d7"},"vehicle_type_id":"4","last_reported":1730574435,"current_range_meters":17600,"station_id":"ce4bgi12rcd13ifvqb70","pricing_plan_id":"cebpf4jnsgd1na2vs0mg"},{"bike_id":"99d7c7dc-2e91-4267-811b-4302f16a1504","system_id":"levelo_inurba_marseille","lat":43.25111,"lon":5.40322,"is_reserved":false,"is_disabled":false,"rental_uris":{"android":"levelo://app?vid=99d7c7dc-2e91-4267-811b-4302f16a1504","ios":"levelo://app?vid=99d7c7dc-2e91-4267-811b-4302f16a1504"},"vehicle_type_id":"4","last_reported":1730574435,"current_range_meters":6400,"station_id":"ce4bhlh2rcd13ifvqgig","pricing_plan_id":"cebpf4jnsgd1na2vs0mg"},{"bike_id":"2fecd123-2276-416f-a249-18b8dca5a399","system_id":"levelo_inurba_marseille","lat":43.32366,"lon":5.388901,"is_reserved":false,"is_disabled":false,"rental_uris":{"android":"levelo://app?vid=2fecd123-2276-416f-a249-18b8dca5a399","ios":"levelo://app?vid=2fecd123-2276-416f-a249-18b8dca5a399"},"vehicle_type_id":"4","last_reported":1730574435,"current_range_meters":16800,"station_id":"ce4bhqp2rcd13ifvqhog","pricing_plan_id":"cebpf4jnsgd1na2vs0mg"},{"bike_id":"338b87c0-f6d3-4414-82ad-83f251840820","system_id":"levelo_inurba_marseille","lat":43.29197,"lon":5.39328,"is_reserved":false,"is_disabled":false,"rental_uris":{"android":"levelo://app?vid=338b87c0-f6d3-4414-82ad-83f251840820","ios":"levelo://app?vid=338b87c0-f6d3-4414-82ad-83f251840820"},"vehicle_type_id":"4","last_reported":1730574435,"current_range_meters":27200,"station_id":"ce4bh192rcd13ifvqdd0","pricing_plan_id":"cebpf4jnsgd1na2vs0mg"},{"bike_id":"de77c2b5-da72-4876-8627-94d6e7fc04db","system_id":"levelo_inurba_marseille","lat":43.299805,"lon":5.384915,"is_reserved":false,"is_disabled":false,"rental_uris":{"android":"levelo://app?vid=de77c2b5-da72-4876-8627-94d6e7fc04db","ios":"levelo://app?vid=de77c2b5-da72-4876-8627-94d6e7fc04db"},"vehicle_type_id":"4","last_reported":1730574435,"current_range_meters":38800,"station_id":"ce4bgj92rcd13ifvqbd0","pricing_plan_id":"cebpf4jnsgd1na2vs0mg"},{"bike_id":"2f2d493e-7a15-4bfb-a779-eebf87e4f33f","system_id":"levelo_inurba_marseille","lat":43.27812,"lon":5.40713,"is_reserved":false,"is_disabled":false,"rental_uris":{"android":"levelo://app?vid=2f2d493e-7a15-4bfb-a779-eebf87e4f33f","ios":"levelo://app?vid=2f2d493e-7a15-4bfb-a779-eebf87e4f33f"},"vehicle_type_id":"4","last_reported":1730574435,"current_range_meters":38400,"station_id":"ce4bhnh2rcd13ifvqgtg","pricing_plan_id":"cebpf4jnsgd1na2vs0mg"},{"bike_id":"082aac60-5689-48db-9609-5cc754422d4e","system_id":"levelo_inurba_marseille","lat":43.29294,"lon":5.37453,"is_reserved":false,"is_disabled":false,"rental_uris":{"android":"levelo://app?vid=082aac60-5689-48db-9609-5cc754422d4e","ios":"levelo://app?vid=082aac60-5689-48db-9609-5cc754422d4e"},"vehicle_type_id":"4","last_reported":1730574435,"current_range_meters":36800,"station_id":"ce4bgi12rcd13ifvqb70","pricing_plan_id":"cebpf4jnsgd1na2vs0mg"},{"bike_id":"60ed099f-3f6a-411e-a5a0-e97af086b24d","system_id":"levelo_inurba_marseille","lat":43.32541,"lon":5.41427,"is_reserved":false,"is_disabled":false,"rental_uris":{"android":"levelo://app?vid=60ed099f-3f6a-411e-a5a0-e97af086b24d","ios":"levelo://app?vid=60ed099f-3f6a-411e-a5a0-e97af086b24d"},"vehicle_type_id":"4","last_reported":1730574435,"current_range_meters":20400,"station_id":"ce4bhq12rcd13ifvqhhg","pricing_plan_id":"cebpf4jnsgd1na2vs0mg"},{"bike_id":"c8893d8e-f81f-4744-85fb-448d69741653","system_id":"levelo_inurba_marseille","lat":43.27619,"lon":5.36112,"is_reserved":false,"is_disabled":false,"rental_uris":{"android":"levelo://app?vid=c8893d8e-f81f-4744-85fb-448d69741653","ios":"levelo://app?vid=c8893d8e-f81f-4744-85fb-448d69741653"},"vehicle_type_id":"4","last_reported":1730574435,"current_range_meters":10000,"station_id":"ce4bgj92rcd13ifvqbe0","pricing_plan_id":"cebpf4jnsgd1na2vs0mg"},{"bike_id":"79799d26-31a6-4d94-bd46-90c1d292d30a","system_id":"levelo_inurba_marseille","lat":43.2872,"lon":5.37912,"is_reserved":false,"is_disabled":false,"rental_uris":{"android":"levelo://app?vid=79799d26-31a6-4d94-bd46-90c1d292d30a","ios":"levelo://app?vid=79799d26-31a6-4d94-bd46-90c1d292d30a"},"vehicle_type_id":"4","last_reported":1730574435,"current_range_meters":9200,"station_id":"ce4bh9p2rcd13ifvqec0","pricing_plan_id":"cebpf4jnsgd1na2vs0mg"},{"bike_id":"d16e8938-a714-4d74-8e5d-e3cb2d3696ae","system_id":"levelo_inurba_marseille","lat":43.28003,"lon":5.400135,"is_reserved":false,"is_disabled":false,"rental_uris":{"android":"levelo://app?vid=d16e8938-a714-4d74-8e5d-e3cb2d3696ae","ios":"levelo://app?vid=d16e8938-a714-4d74-8e5d-e3cb2d3696ae"},"vehicle_type_id":"4","last_reported":1730574435,"current_range_meters":10000,"station_id":"ce4bho92rcd13ifvqh4g","pricing_plan_id":"cebpf4jnsgd1na2vs0mg"},{"bike_id":"1170a160-6035-4fdc-8fcf-a83e9738240a","system_id":"levelo_inurba_marseille","lat":43.2941,"lon":5.38627,"is_reserved":false,"is_disabled":false,"rental_uris":{"android":"levelo://app?vid=1170a160-6035-4fdc-8fcf-a83e9738240a","ios":"levelo://app?vid=1170a160-6035-4fdc-8fcf-a83e9738240a"},"vehicle_type_id":"4","last_reported":1730574435,"current_range_meters":37600,"station_id":"ce4bh2h2rcd13ifvqdh0","pricing_plan_id":"cebpf4jnsgd1na2vs0mg"},{"bike_id":"ca0d0b59-9754-4f5c-83e3-f18b62a0abc6","system_id":"levelo_inurba_marseille","lat":43.29846,"lon":5.36276,"is_reserved":false,"is_disabled":false,"rental_uris":{"android":"levelo://app?vid=ca0d0b59-9754-4f5c-83e3-f18b62a0abc6","ios":"levelo://app?vid=ca0d0b59-9754-4f5c-83e3-f18b62a0abc6"},"vehicle_type_id":"4","last_reported":1730574435,"current_range_meters":10000,"station_id":"ce4bgpp2rcd13ifvqc3g","pricing_plan_id":"cebpf4jnsgd1na2vs0mg"},{"bike_id":"23165fa6-a2fa-4033-aeda-16e5232b0817","system_id":"levelo_inurba_marseille","lat":43.29532,"lon":5.38541,"is_reserved":false,"is_disabled":false,"rental_uris":{"android":"levelo://app?vid=23165fa6-a2fa-4033-aeda-16e5232b0817","ios":"levelo://app?vid=23165fa6-a2fa-4033-aeda-16e5232b0817"},"vehicle_type_id":"4","last_reported":1730574435,"current_range_meters":30800,"station_id":"ce4bgih2rcd13ifvqba0","pricing_plan_id":"cebpf4jnsgd1na2vs0mg"},{"bike_id":"5528818b-77bf-48bb-a249-c5355ed72c79","system_id":"levelo_inurba_marseille","lat":43.28615,"lon":5.37063,"is_reserved":false,"is_disabled":false,"rental_uris":{"android":"levelo://app?vid=5528818b-77bf-48bb-a249-c5355ed72c79","ios":"levelo://app?vid=5528818b-77bf-48bb-a249-c5355ed72c79"},"vehicle_type_id":"4","last_reported":1730574435,"current_range_meters":9200,"station_id":"ce4bht12rcd13ifvqi60","pricing_plan_id":"cebpf4jnsgd1na2vs0mg"},{"bike_id":"d08ac7b6-f534-4f71-b387-56434fa04cea","system_id":"levelo_inurba_marseille","lat":43.29871,"lon":5.39729,"is_reserved":false,"is_disabled":false,"rental_uris":{"android":"levelo://app?vid=d08ac7b6-f534-4f71-b387-56434fa04cea","ios":"levelo://app?vid=d08ac7b6-f534-4f71-b387-56434fa04cea"},"vehicle_type_id":"4","last_reported":1730574435,"current_range_meters":24000,"station_id":"ce4bh0h2rcd13ifvqd50","pricing_plan_id":"cebpf4jnsgd1na2vs0mg"},{"bike_id":"3ebe4db5-ff1b-4d00-b12c-43d6af99a5bd","system_id":"levelo_inurba_marseille","lat":43.31157,"lon":5.38694,"is_reserved":false,"is_disabled":false,"rental_uris":{"android":"levelo://app?vid=3ebe4db5-ff1b-4d00-b12c-43d6af99a5bd","ios":"levelo://app?vid=3ebe4db5-ff1b-4d00-b12c-43d6af99a5bd"},"vehicle_type_id":"4","last_reported":1730574435,"current_range_meters":33600,"station_id":"ce4bgv12rcd13ifvqcp0","pricing_plan_id":"cebpf4jnsgd1na2vs0mg"},{"bike_id":"8900d2c1-8c9e-4edd-8034-9eaac2a9a5ff","system_id":"levelo_inurba_marseille","lat":43.265991,"lon":5.394698,"is_reserved":false,"is_disabled":false,"rental_uris":{"android":"levelo://app?vid=8900d2c1-8c9e-4edd-8034-9eaac2a9a5ff","ios":"levelo://app?vid=8900d2c1-8c9e-4edd-8034-9eaac2a9a5ff"},"vehicle_type_id":"4","last_reported":1730574435,"current_range_meters":4000,"station_id":"ce4bhip2rcd13ifvqft0","pricing_plan_id":"cebpf4jnsgd1na2vs0mg"},{"bike_id":"7a27ec2a-8c7a-4243-9633-a9eff185aa34","system_id":"levelo_inurba_marseille","lat":43.2407,"lon":5.37768,"is_reserved":false,"is_disabled":false,"rental_uris":{"android":"levelo://app?vid=7a27ec2a-8c7a-4243-9633-a9eff185aa34","ios":"levelo://app?vid=7a27ec2a-8c7a-4243-9633-a9eff185aa34"},"vehicle_type_id":"4","last_reported":1730574435,"current_range_meters":16400,"station_id":"ce4bhnp2rcd13ifvqgvg","pricing_plan_id":"cebpf4jnsgd1na2vs0mg"},{"bike_id":"d69eef29-33f1-400b-9dbd-e583b4f600d8","system_id":"levelo_inurba_marseille","lat":43.24659,"lon":5.38909,"is_reserved":false,"is_disabled":false,"rental_uris":{"android":"levelo://app?vid=d69eef29-33f1-400b-9dbd-e583b4f600d8","ios":"levelo://app?vid=d69eef29-33f1-400b-9dbd-e583b4f600d8"},"vehicle_type_id":"4","last_reported":1730574435,"current_range_meters":38800,"station_id":"ce4bhg12rcd13ifvqf60","pricing_plan_id":"cebpf4jnsgd1na2vs0mg"},{"bike_id":"6342d8fc-804f-48c1-bab0-bb5d1f758592","system_id":"levelo_inurba_marseille","lat":43.29794,"lon":5.38097,"is_reserved":false,"is_disabled":false,"rental_uris":{"android":"levelo://app?vid=6342d8fc-804f-48c1-bab0-bb5d1f758592","ios":"levelo://app?vid=6342d8fc-804f-48c1-bab0-bb5d1f758592"},"vehicle_type_id":"4","last_reported":1730574435,"current_range_meters":6400,"station_id":"ce4bgip2rcd13ifvqbb0","pricing_plan_id":"cebpf4jnsgd1na2vs0mg"},{"bike_id":"65b11352-1086-49e4-ab3d-061235e1af7f","system_id":"levelo_inurba_marseille","lat":43.29896,"lon":5.39741,"is_reserved":false,"is_disabled":false,"rental_uris":{"android":"levelo://app?vid=65b11352-1086-49e4-ab3d-061235e1af7f","ios":"levelo://app?vid=65b11352-1086-49e4-ab3d-061235e1af7f"},"vehicle_type_id":"4","last_reported":1730574435,"current_range_meters":37600,"station_id":"ce4bh0h2rcd13ifvqd50","pricing_plan_id":"cebpf4jnsgd1na2vs0mg"},{"bike_id":"8967c6fa-eb63-4d4e-a298-dff4d99863d6","system_id":"levelo_inurba_marseille","lat":43.30144,"lon":5.38774,"is_reserved":false,"is_disabled":false,"rental_uris":{"android":"levelo://app?vid=8967c6fa-eb63-4d4e-a298-dff4d99863d6","ios":"levelo://app?vid=8967c6fa-eb63-4d4e-a298-dff4d99863d6"},"vehicle_type_id":"4","last_reported":1730574435,"current_range_meters":7200,"station_id":"ce4bghh2rcd13ifvqb60","pricing_plan_id":"cebpf4jnsgd1na2vs0mg"},{"bike_id":"07ed26ca-4461-444f-a37e-6900b4476044","system_id":"levelo_inurba_marseille","lat":43.2902,"lon":5.38644,"is_reserved":false,"is_disabled":false,"rental_uris":{"android":"levelo://app?vid=07ed26ca-4461-444f-a37e-6900b4476044","ios":"levelo://app?vid=07ed26ca-4461-444f-a37e-6900b4476044"},"vehicle_type_id":"4","last_reported":1730574435,"current_range_meters":10800,"station_id":"ce4bh4p2rcd13ifvqe0g","pricing_plan_id":"cebpf4jnsgd1na2vs0mg"},{"bike_id":"d4986541-9a9b-4a5b-bb55-b01d5cb4582e","system_id":"levelo_inurba_marseille","lat":43.29262,"lon":5.3845,"is_reserved":false,"is_disabled":false,"rental_uris":{"android":"levelo://app?vid=d4986541-9a9b-4a5b-bb55-b01d5cb4582e","ios":"levelo://app?vid=d4986541-9a9b-4a5b-bb55-b01d5cb4582e"},"vehicle_type_id":"4","last_reported":1730574435,"current_range_meters":7200,"station_id":"ce4bh692rcd13ifvqea0","pricing_plan_id":"cebpf4jnsgd1na2vs0mg"},{"bike_id":"a2575e9a-deb3-4ec8-bc88-3a47bf2b627e","system_id":"levelo_inurba_marseille","lat":43.29245,"lon":5.38439,"is_reserved":false,"is_disabled":false,"rental_uris":{"android":"levelo://app?vid=a2575e9a-deb3-4ec8-bc88-3a47bf2b627e","ios":"levelo://app?vid=a2575e9a-deb3-4ec8-bc88-3a47bf2b627e"},"vehicle_type_id":"4","last_reported":1730574435,"current_range_meters":34800,"station_id":"ce4bh692rcd13ifvqea0","pricing_plan_id":"cebpf4jnsgd1na2vs0mg"},{"bike_id":"3a97265e-8f2d-49f6-85df-83b63390a51d","system_id":"levelo_inurba_marseille","lat":43.30787,"lon":5.37646,"is_reserved":false,"is_disabled":false,"rental_uris":{"android":"levelo://app?vid=3a97265e-8f2d-49f6-85df-83b63390a51d","ios":"levelo://app?vid=3a97265e-8f2d-49f6-85df-83b63390a51d"},"vehicle_type_id":"4","last_reported":1730574435,"current_range_meters":19200,"station_id":"ce4bgv92rcd13ifvqcq0","pricing_plan_id":"cebpf4jnsgd1na2vs0mg"},{"bike_id":"8365c946-beae-47ce-87c4-1094a86c3535","system_id":"levelo_inurba_marseille","lat":43.25118,"lon":5.40324,"is_reserved":false,"is_disabled":false,"rental_uris":{"android":"levelo://app?vid=8365c946-beae-47ce-87c4-1094a86c3535","ios":"levelo://app?vid=8365c946-beae-47ce-87c4-1094a86c3535"},"vehicle_type_id":"4","last_reported":1730574435,"current_range_meters":17200,"station_id":"ce4bhlh2rcd13ifvqgig","pricing_plan_id":"cebpf4jnsgd1na2vs0mg"},{"bike_id":"3a1998b7-341c-432b-9e28-a33591608d35","system_id":"levelo_inurba_marseille","lat":43.29302,"lon":5.37452,"is_reserved":false,"is_disabled":false,"rental_uris":{"android":"levelo://app?vid=3a1998b7-341c-432b-9e28-a33591608d35","ios":"levelo://app?vid=3a1998b7-341c-432b-9e28-a33591608d35"},"vehicle_type_id":"4","last_reported":1730574435,"current_range_meters":23200,"station_id":"ce4bgi12rcd13ifvqb70","pricing_plan_id":"cebpf4jnsgd1na2vs0mg"},{"bike_id":"7c846da0-afdd-4cfb-8a4c-6aeeeb828b3d","system_id":"levelo_inurba_marseille","lat":43.26491,"lon":5.39553,"is_reserved":false,"is_disabled":false,"rental_uris":{"android":"levelo://app?vid=7c846da0-afdd-4cfb-8a4c-6aeeeb828b3d","ios":"levelo://app?vid=7c846da0-afdd-4cfb-8a4c-6aeeeb828b3d"},"vehicle_type_id":"4","last_reported":1730574435,"current_range_meters":20000,"station_id":"ce4bhi12rcd13ifvqfq0","pricing_plan_id":"cebpf4jnsgd1na2vs0mg"},{"bike_id":"1b760ddd-e34d-491f-9c82-3266310982c8","system_id":"levelo_inurba_marseille","lat":43.26559,"lon":5.37285,"is_reserved":false,"is_disabled":false,"rental_uris":{"android":"levelo://app?vid=1b760ddd-e34d-491f-9c82-3266310982c8","ios":"levelo://app?vid=1b760ddd-e34d-491f-9c82-3266310982c8"},"vehicle_type_id":"4","last_reported":1730574435,"current_range_meters":7200,"station_id":"ce4bhg12rcd13ifvqf70","pricing_plan_id":"cebpf4jnsgd1na2vs0mg"},{"bike_id":"e6ef9258-6ea2-4790-87bf-3269cda7a272","system_id":"levelo_inurba_marseille","lat":43.300652,"lon":5.380737,"is_reserved":false,"is_disabled":false,"rental_uris":{"android":"levelo://app?vid=e6ef9258-6ea2-4790-87bf-3269cda7a272","ios":"levelo://app?vid=e6ef9258-6ea2-4790-87bf-3269cda7a272"},"vehicle_type_id":"4","last_reported":1730574435,"current_range_meters":8400,"station_id":"ce4bguh2rcd13ifvqckg","pricing_plan_id":"cebpf4jnsgd1na2vs0mg"},{"bike_id":"0e7dc9ac-472a-4a66-8349-cd60c3504f74","system_id":"levelo_inurba_marseille","lat":43.32102,"lon":5.38112,"is_reserved":false,"is_disabled":false,"rental_uris":{"android":"levelo://app?vid=0e7dc9ac-472a-4a66-8349-cd60c3504f74","ios":"levelo://app?vid=0e7dc9ac-472a-4a66-8349-cd60c3504f74"},"vehicle_type_id":"4","last_reported":1730574435,"current_range_meters":38800,"station_id":"","pricing_plan_id":"cebpf4jnsgd1na2vs0mg"},{"bike_id":"efd6547c-2a7a-4be7-b330-6d41c8be6fca","system_id":"levelo_inurba_marseille","lat":43.30139,"lon":5.38786,"is_reserved":false,"is_disabled":false,"rental_uris":{"android":"levelo://app?vid=efd6547c-2a7a-4be7-b330-6d41c8be6fca","ios":"levelo://app?vid=efd6547c-2a7a-4be7-b330-6d41c8be6fca"},"vehicle_type_id":"4","last_reported":1730574435,"current_range_meters":39200,"station_id":"ce4bghh2rcd13ifvqb60","pricing_plan_id":"cebpf4jnsgd1na2vs0mg"},{"bike_id":"6f6fe434-97ed-4e72-bcab-2c39867bbe73","system_id":"levelo_inurba_marseille","lat":43.23219,"lon":5.40467,"is_reserved":false,"is_disabled":false,"rental_uris":{"android":"levelo://app?vid=6f6fe434-97ed-4e72-bcab-2c39867bbe73","ios":"levelo://app?vid=6f6fe434-97ed-4e72-bcab-2c39867bbe73"},"vehicle_type_id":"4","last_reported":1730574435,"current_range_meters":20800,"station_id":"","pricing_plan_id":"cebpf4jnsgd1na2vs0mg"},{"bike_id":"61497ec0-6b91-4085-893e-2dc4cbab5392","system_id":"levelo_inurba_marseille","lat":43.32364,"lon":5.38893,"is_reserved":false,"is_disabled":false,"rental_uris":{"android":"levelo://app?vid=61497ec0-6b91-4085-893e-2dc4cbab5392","ios":"levelo://app?vid=61497ec0-6b91-4085-893e-2dc4cbab5392"},"vehicle_type_id":"4","last_reported":1730574435,"current_range_meters":26800,"station_id":"ce4bhqp2rcd13ifvqhog","pricing_plan_id":"cebpf4jnsgd1na2vs0mg"},{"bike_id":"cd516843-d837-47c8-b8ff-3339974f4217","system_id":"levelo_inurba_marseille","lat":43.29298,"lon":5.37449,"is_reserved":false,"is_disabled":false,"rental_uris":{"android":"levelo://app?vid=cd516843-d837-47c8-b8ff-3339974f4217","ios":"levelo://app?vid=cd516843-d837-47c8-b8ff-3339974f4217"},"vehicle_type_id":"4","last_reported":1730574435,"current_range_meters":34000,"station_id":"ce4bgi12rcd13ifvqb70","pricing_plan_id":"cebpf4jnsgd1na2vs0mg"},{"bike_id":"6b7a3137-f431-40ec-9caf-addf256082a5","system_id":"levelo_inurba_marseille","lat":43.29256,"lon":5.38436,"is_reserved":false,"is_disabled":false,"rental_uris":{"android":"levelo://app?vid=6b7a3137-f431-40ec-9caf-addf256082a5","ios":"levelo://app?vid=6b7a3137-f431-40ec-9caf-addf256082a5"},"vehicle_type_id":"4","last_reported":1730574435,"current_range_meters":10800,"station_id":"ce4bh692rcd13ifvqea0","pricing_plan_id":"cebpf4jnsgd1na2vs0mg"},{"bike_id":"e55d8d6f-7394-4584-af8a-c65aaa7989ef","system_id":"levelo_inurba_marseille","lat":43.26064,"lon":5.39392,"is_reserved":false,"is_disabled":false,"rental_uris":{"android":"levelo://app?vid=e55d8d6f-7394-4584-af8a-c65aaa7989ef","ios":"levelo://app?vid=e55d8d6f-7394-4584-af8a-c65aaa7989ef"},"vehicle_type_id":"4","last_reported":1730574435,"current_range_meters":8400,"station_id":"ce4bhh92rcd13ifvqfj0","pricing_plan_id":"cebpf4jnsgd1na2vs0mg"},{"bike_id":"86765dd3-db2d-47cf-8041-0c1ffb5961dc","system_id":"levelo_inurba_marseille","lat":43.28163,"lon":5.42641,"is_reserved":false,"is_disabled":false,"rental_uris":{"android":"levelo://app?vid=86765dd3-db2d-47cf-8041-0c1ffb5961dc","ios":"levelo://app?vid=86765dd3-db2d-47cf-8041-0c1ffb5961dc"},"vehicle_type_id":"4","last_reported":1730574435,"current_range_meters":19600,"station_id":"ce4bhnh2rcd13ifvqgug","pricing_plan_id":"cebpf4jnsgd1na2vs0mg"},{"bike_id":"d3f56f17-ac1a-464c-b9d7-9bc3311153ab","system_id":"levelo_inurba_marseille","lat":43.24661,"lon":5.38158,"is_reserved":false,"is_disabled":false,"rental_uris":{"android":"levelo://app?vid=d3f56f17-ac1a-464c-b9d7-9bc3311153ab","ios":"levelo://app?vid=d3f56f17-ac1a-464c-b9d7-9bc3311153ab"},"vehicle_type_id":"4","last_reported":1730574435,"current_range_meters":8400,"station_id":"ce4bhih2rcd13ifvqfr0","pricing_plan_id":"cebpf4jnsgd1na2vs0mg"},{"bike_id":"c9836de4-dae6-4bfc-aef6-8b7c0c537e63","system_id":"levelo_inurba_marseille","lat":43.25874,"lon":5.39901,"is_reserved":false,"is_disabled":false,"rental_uris":{"android":"levelo://app?vid=c9836de4-dae6-4bfc-aef6-8b7c0c537e63","ios":"levelo://app?vid=c9836de4-dae6-4bfc-aef6-8b7c0c537e63"},"vehicle_type_id":"4","last_reported":1730574435,"current_range_meters":10800,"station_id":"ce4bhl92rcd13ifvqghg","pricing_plan_id":"cebpf4jnsgd1na2vs0mg"},{"bike_id":"689574c2-49e2-4015-8332-d8dfe6eda125","system_id":"levelo_inurba_marseille","lat":43.28403,"lon":5.37515,"is_reserved":false,"is_disabled":false,"rental_uris":{"android":"levelo://app?vid=689574c2-49e2-4015-8332-d8dfe6eda125","ios":"levelo://app?vid=689574c2-49e2-4015-8332-d8dfe6eda125"},"vehicle_type_id":"4","last_reported":1730574435,"current_range_meters":16000,"station_id":"ce4bh412rcd13ifvqds0","pricing_plan_id":"cebpf4jnsgd1na2vs0mg"},{"bike_id":"6338020e-474a-4c99-b365-eea26fe54739","system_id":"levelo_inurba_marseille","lat":43.32291,"lon":5.38273,"is_reserved":false,"is_disabled":false,"rental_uris":{"android":"levelo://app?vid=6338020e-474a-4c99-b365-eea26fe54739","ios":"levelo://app?vid=6338020e-474a-4c99-b365-eea26fe54739"},"vehicle_type_id":"4","last_reported":1730574435,"current_range_meters":30400,"station_id":"ce4bhr12rcd13ifvqhqg","pricing_plan_id":"cebpf4jnsgd1na2vs0mg"},{"bike_id":"3cc80ee9-2790-4698-ba87-e0a476c104f2","system_id":"levelo_inurba_marseille","lat":43.29264,"lon":5.384471,"is_reserved":false,"is_disabled":false,"rental_uris":{"android":"levelo://app?vid=3cc80ee9-2790-4698-ba87-e0a476c104f2","ios":"levelo://app?vid=3cc80ee9-2790-4698-ba87-e0a476c104f2"},"vehicle_type_id":"4","last_reported":1730574435,"current_range_meters":28000,"station_id":"ce4bh692rcd13ifvqea0","pricing_plan_id":"cebpf4jnsgd1na2vs0mg"},{"bike_id":"da98f810-cac1-47e0-b81c-84d70eb81162","system_id":"levelo_inurba_marseille","lat":43.29247,"lon":5.38444,"is_reserved":false,"is_disabled":false,"rental_uris":{"android":"levelo://app?vid=da98f810-cac1-47e0-b81c-84d70eb81162","ios":"levelo://app?vid=da98f810-cac1-47e0-b81c-84d70eb81162"},"vehicle_type_id":"4","last_reported":1730574435,"current_range_meters":30400,"station_id":"ce4bh692rcd13ifvqea0","pricing_plan_id":"cebpf4jnsgd1na2vs0mg"},{"bike_id":"5deee2f8-848a-457a-92b7-a45d8fa16e3c","system_id":"levelo_inurba_marseille","lat":43.28578,"lon":5.39487,"is_reserved":false,"is_disabled":false,"rental_uris":{"android":"levelo://app?vid=5deee2f8-848a-457a-92b7-a45d8fa16e3c","ios":"levelo://app?vid=5deee2f8-848a-457a-92b7-a45d8fa16e3c"},"vehicle_type_id":"4","last_reported":1730574435,"current_range_meters":38800,"station_id":"ce4bh292rcd13ifvqdg0","pricing_plan_id":"cebpf4jnsgd1na2vs0mg"},{"bike_id":"8f922168-b037-46cf-be30-61234101a76d","system_id":"levelo_inurba_marseille","lat":43.29039,"lon":5.39972,"is_reserved":false,"is_disabled":false,"rental_uris":{"android":"levelo://app?vid=8f922168-b037-46cf-be30-61234101a76d","ios":"levelo://app?vid=8f922168-b037-46cf-be30-61234101a76d"},"vehicle_type_id":"4","last_reported":1730574435,"current_range_meters":2000,"station_id":"ce4bh392rcd13ifvqdm0","pricing_plan_id":"cebpf4jnsgd1na2vs0mg"},{"bike_id":"c4ac9a60-77d0-42fb-87f7-05e4d3c5affe","system_id":"levelo_inurba_marseille","lat":43.29096,"lon":5.38134,"is_reserved":false,"is_disabled":false,"rental_uris":{"android":"levelo://app?vid=c4ac9a60-77d0-42fb-87f7-05e4d3c5affe","ios":"levelo://app?vid=c4ac9a60-77d0-42fb-87f7-05e4d3c5affe"},"vehicle_type_id":"4","last_reported":1730574435,"current_range_meters":37600,"station_id":"ce4bh512rcd13ifvqe2g","pricing_plan_id":"cebpf4jnsgd1na2vs0mg"},{"bike_id":"d38fe97d-56fb-4e9f-a1d5-fd18161f4b1f","system_id":"levelo_inurba_marseille","lat":43.31219,"lon":5.36853,"is_reserved":false,"is_disabled":false,"rental_uris":{"android":"levelo://app?vid=d38fe97d-56fb-4e9f-a1d5-fd18161f4b1f","ios":"levelo://app?vid=d38fe97d-56fb-4e9f-a1d5-fd18161f4b1f"},"vehicle_type_id":"4","last_reported":1730574435,"current_range_meters":4800,"station_id":"ce4bgl92rcd13ifvqbq0","pricing_plan_id":"cebpf4jnsgd1na2vs0mg"},{"bike_id":"a16dcfef-7760-4f38-a160-a4b692aaf64b","system_id":"levelo_inurba_marseille","lat":43.29518,"lon":5.39042,"is_reserved":false,"is_disabled":false,"rental_uris":{"android":"levelo://app?vid=a16dcfef-7760-4f38-a160-a4b692aaf64b","ios":"levelo://app?vid=a16dcfef-7760-4f38-a160-a4b692aaf64b"},"vehicle_type_id":"4","last_reported":1730574435,"current_range_meters":19200,"station_id":"ce4bh3p2rcd13ifvqdp0","pricing_plan_id":"cebpf4jnsgd1na2vs0mg"},{"bike_id":"10baeb8d-6037-4049-8d95-d6633cd6055b","system_id":"levelo_inurba_marseille","lat":43.24998,"lon":5.38931,"is_reserved":false,"is_disabled":false,"rental_uris":{"android":"levelo://app?vid=10baeb8d-6037-4049-8d95-d6633cd6055b","ios":"levelo://app?vid=10baeb8d-6037-4049-8d95-d6633cd6055b"},"vehicle_type_id":"4","last_reported":1730574435,"current_range_meters":29600,"station_id":"ce4bhgp2rcd13ifvqfd0","pricing_plan_id":"cebpf4jnsgd1na2vs0mg"},{"bike_id":"3e08d59a-decf-4e52-b8ae-947dd230d094","system_id":"levelo_inurba_marseille","lat":43.29877,"lon":5.39738,"is_reserved":false,"is_disabled":false,"rental_uris":{"android":"levelo://app?vid=3e08d59a-decf-4e52-b8ae-947dd230d094","ios":"levelo://app?vid=3e08d59a-decf-4e52-b8ae-947dd230d094"},"vehicle_type_id":"4","last_reported":1730574435,"current_range_meters":19200,"station_id":"ce4bh0h2rcd13ifvqd50","pricing_plan_id":"cebpf4jnsgd1na2vs0mg"},{"bike_id":"1d57e301-748a-4be8-9e49-3899435f6898","system_id":"levelo_inurba_marseille","lat":43.24547,"lon":5.39524,"is_reserved":false,"is_disabled":false,"rental_uris":{"android":"levelo://app?vid=1d57e301-748a-4be8-9e49-3899435f6898","ios":"levelo://app?vid=1d57e301-748a-4be8-9e49-3899435f6898"},"vehicle_type_id":"4","last_reported":1730574435,"current_range_meters":28400,"station_id":"ce4bhlp2rcd13ifvqgjg","pricing_plan_id":"cebpf4jnsgd1na2vs0mg"},{"bike_id":"6eaf1a78-ffc1-46b2-9c91-aab62e252925","system_id":"levelo_inurba_marseille","lat":43.31565,"lon":5.380087,"is_reserved":false,"is_disabled":false,"rental_uris":{"android":"levelo://app?vid=6eaf1a78-ffc1-46b2-9c91-aab62e252925","ios":"levelo://app?vid=6eaf1a78-ffc1-46b2-9c91-aab62e252925"},"vehicle_type_id":"4","last_reported":1730574435,"current_range_meters":8800,"station_id":"ce4bgth2rcd13ifvqch0","pricing_plan_id":"cebpf4jnsgd1na2vs0mg"},{"bike_id":"c642f24a-bea5-4105-9b9c-7c939eb3e2c9","system_id":"levelo_inurba_marseille","lat":43.28158,"lon":5.42641,"is_reserved":false,"is_disabled":false,"rental_uris":{"android":"levelo://app?vid=c642f24a-bea5-4105-9b9c-7c939eb3e2c9","ios":"levelo://app?vid=c642f24a-bea5-4105-9b9c-7c939eb3e2c9"},"vehicle_type_id":"4","last_reported":1730574435,"current_range_meters":38800,"station_id":"ce4bhnh2rcd13ifvqgug","pricing_plan_id":"cebpf4jnsgd1na2vs0mg"},{"bike_id":"71aa25ca-f6dd-4965-9e11-d9e649d2ebd1","system_id":"levelo_inurba_marseille","lat":43.30136,"lon":5.38779,"is_reserved":false,"is_disabled":false,"rental_uris":{"android":"levelo://app?vid=71aa25ca-f6dd-4965-9e11-d9e649d2ebd1","ios":"levelo://app?vid=71aa25ca-f6dd-4965-9e11-d9e649d2ebd1"},"vehicle_type_id":"4","last_reported":1730574435,"current_range_meters":9600,"station_id":"ce4bghh2rcd13ifvqb60","pricing_plan_id":"cebpf4jnsgd1na2vs0mg"},{"bike_id":"824346c2-1b30-4539-b378-7dc8410a2b36","system_id":"levelo_inurba_marseille","lat":43.29969,"lon":5.38495,"is_reserved":false,"is_disabled":false,"rental_uris":{"android":"levelo://app?vid=824346c2-1b30-4539-b378-7dc8410a2b36","ios":"levelo://app?vid=824346c2-1b30-4539-b378-7dc8410a2b36"},"vehicle_type_id":"4","last_reported":1730574435,"current_range_meters":39200,"station_id":"ce4bgj92rcd13ifvqbd0","pricing_plan_id":"cebpf4jnsgd1na2vs0mg"},{"bike_id":"18402065-9e87-476b-95ad-30853de181a0","system_id":"levelo_inurba_marseille","lat":43.32466,"lon":5.45549,"is_reserved":false,"is_disabled":false,"rental_uris":{"android":"levelo://app?vid=18402065-9e87-476b-95ad-30853de181a0","ios":"levelo://app?vid=18402065-9e87-476b-95ad-30853de181a0"},"vehicle_type_id":"4","last_reported":1730574435,"current_range_meters":6800,"station_id":"","pricing_plan_id":"cebpf4jnsgd1na2vs0mg"},{"bike_id":"d3b48aeb-c1cf-4bf7-8ef2-9301aeaa930d","system_id":"levelo_inurba_marseille","lat":43.295349,"lon":5.38549,"is_reserved":false,"is_disabled":false,"rental_uris":{"android":"levelo://app?vid=d3b48aeb-c1cf-4bf7-8ef2-9301aeaa930d","ios":"levelo://app?vid=d3b48aeb-c1cf-4bf7-8ef2-9301aeaa930d"},"vehicle_type_id":"4","last_reported":1730574435,"current_range_meters":39200,"station_id":"ce4bgih2rcd13ifvqba0","pricing_plan_id":"cebpf4jnsgd1na2vs0mg"},{"bike_id":"ce3c28b1-0701-48d9-b0e3-500b3e456f35","system_id":"levelo_inurba_marseille","lat":43.23968,"lon":5.36632,"is_reserved":false,"is_disabled":false,"rental_uris":{"android":"levelo://app?vid=ce3c28b1-0701-48d9-b0e3-500b3e456f35","ios":"levelo://app?vid=ce3c28b1-0701-48d9-b0e3-500b3e456f35"},"vehicle_type_id":"4","last_reported":1730574435,"current_range_meters":32000,"station_id":"ce4bhi12rcd13ifvqfp0","pricing_plan_id":"cebpf4jnsgd1na2vs0mg"},{"bike_id":"4eb01b0d-49fc-48ee-b782-54d621657f1b","system_id":"levelo_inurba_marseille","lat":43.31889,"lon":5.40746,"is_reserved":false,"is_disabled":false,"rental_uris":{"android":"levelo://app?vid=4eb01b0d-49fc-48ee-b782-54d621657f1b","ios":"levelo://app?vid=4eb01b0d-49fc-48ee-b782-54d621657f1b"},"vehicle_type_id":"4","last_reported":1730574435,"current_range_meters":35600,"station_id":"ce4bhq12rcd13ifvqhig","pricing_plan_id":"cebpf4jnsgd1na2vs0mg"},{"bike_id":"ff759631-9747-4e89-8485-4a4b07c62c2b","system_id":"levelo_inurba_marseille","lat":43.29422,"lon":5.38622,"is_reserved":false,"is_disabled":false,"rental_uris":{"android":"levelo://app?vid=ff759631-9747-4e89-8485-4a4b07c62c2b","ios":"levelo://app?vid=ff759631-9747-4e89-8485-4a4b07c62c2b"},"vehicle_type_id":"4","last_reported":1730574435,"current_range_meters":38800,"station_id":"ce4bh2h2rcd13ifvqdh0","pricing_plan_id":"cebpf4jnsgd1na2vs0mg"},{"bike_id":"6eaa468a-c383-4961-b791-57488a2bd7bc","system_id":"levelo_inurba_marseille","lat":43.29619,"lon":5.37701,"is_reserved":false,"is_disabled":false,"rental_uris":{"android":"levelo://app?vid=6eaa468a-c383-4961-b791-57488a2bd7bc","ios":"levelo://app?vid=6eaa468a-c383-4961-b791-57488a2bd7bc"},"vehicle_type_id":"4","last_reported":1730574435,"current_range_meters":27600,"station_id":"ce4bgi92rcd13ifvqb90","pricing_plan_id":"cebpf4jnsgd1na2vs0mg"},{"bike_id":"9f3178e5-569d-4c41-89b0-b8d0ab45dbf4","system_id":"levelo_inurba_marseille","lat":43.31884,"lon":5.4073,"is_reserved":false,"is_disabled":false,"rental_uris":{"android":"levelo://app?vid=9f3178e5-569d-4c41-89b0-b8d0ab45dbf4","ios":"levelo://app?vid=9f3178e5-569d-4c41-89b0-b8d0ab45dbf4"},"vehicle_type_id":"4","last_reported":1730574435,"current_range_meters":30800,"station_id":"ce4bhq12rcd13ifvqhig","pricing_plan_id":"cebpf4jnsgd1na2vs0mg"},{"bike_id":"c7a6a60a-ebc3-43dc-847c-5817f23f3b49","system_id":"levelo_inurba_marseille","lat":43.25723,"lon":5.41102,"is_reserved":false,"is_disabled":false,"rental_uris":{"android":"levelo://app?vid=c7a6a60a-ebc3-43dc-847c-5817f23f3b49","ios":"levelo://app?vid=c7a6a60a-ebc3-43dc-847c-5817f23f3b49"},"vehicle_type_id":"4","last_reported":1730574435,"current_range_meters":9600,"station_id":"ce4bhkp2rcd13ifvqgd0","pricing_plan_id":"cebpf4jnsgd1na2vs0mg"},{"bike_id":"783383f5-2d80-471f-91f9-f76f30194918","system_id":"levelo_inurba_marseille","lat":43.29592,"lon":5.38104,"is_reserved":false,"is_disabled":false,"rental_uris":{"android":"levelo://app?vid=783383f5-2d80-471f-91f9-f76f30194918","ios":"levelo://app?vid=783383f5-2d80-471f-91f9-f76f30194918"},"vehicle_type_id":"4","last_reported":1730574435,"current_range_meters":4400,"station_id":"ce4bgl12rcd13ifvqbo0","pricing_plan_id":"cebpf4jnsgd1na2vs0mg"},{"bike_id":"3ac5103f-7e50-4b7f-b1a2-6b3c36aec6b7","system_id":"levelo_inurba_marseille","lat":43.231948,"lon":5.355518,"is_reserved":false,"is_disabled":false,"rental_uris":{"android":"levelo://app?vid=3ac5103f-7e50-4b7f-b1a2-6b3c36aec6b7","ios":"levelo://app?vid=3ac5103f-7e50-4b7f-b1a2-6b3c36aec6b7"},"vehicle_type_id":"4","last_reported":1730574435,"current_range_meters":38800,"station_id":"ce4bhu92rcd13ifvqi70","pricing_plan_id":"cebpf4jnsgd1na2vs0mg"},{"bike_id":"850c91ae-1f4d-4484-a5f9-e32dfca724ff","system_id":"levelo_inurba_marseille","lat":43.2926,"lon":5.38424,"is_reserved":false,"is_disabled":false,"rental_uris":{"android":"levelo://app?vid=850c91ae-1f4d-4484-a5f9-e32dfca724ff","ios":"levelo://app?vid=850c91ae-1f4d-4484-a5f9-e32dfca724ff"},"vehicle_type_id":"4","last_reported":1730574435,"current_range_meters":32800,"station_id":"ce4bh692rcd13ifvqea0","pricing_plan_id":"cebpf4jnsgd1na2vs0mg"},{"bike_id":"bd97ade4-2d03-43ee-9345-d418c0e74543","system_id":"levelo_inurba_marseille","lat":43.28366,"lon":5.38626,"is_reserved":false,"is_disabled":false,"rental_uris":{"android":"levelo://app?vid=bd97ade4-2d03-43ee-9345-d418c0e74543","ios":"levelo://app?vid=bd97ade4-2d03-43ee-9345-d418c0e74543"},"vehicle_type_id":"4","last_reported":1730574435,"current_range_meters":23200,"station_id":"ce4bh492rcd13ifvqdvg","pricing_plan_id":"cebpf4jnsgd1na2vs0mg"},{"bike_id":"350dcabe-106f-4825-b4a5-0ffc79cd93f8","system_id":"levelo_inurba_marseille","lat":43.29281,"lon":5.36853,"is_reserved":false,"is_disabled":false,"rental_uris":{"android":"levelo://app?vid=350dcabe-106f-4825-b4a5-0ffc79cd93f8","ios":"levelo://app?vid=350dcabe-106f-4825-b4a5-0ffc79cd93f8"},"vehicle_type_id":"4","last_reported":1730574435,"current_range_meters":20800,"station_id":"ce4bhbp2rcd13ifvqesg","pricing_plan_id":"cebpf4jnsgd1na2vs0mg"},{"bike_id":"221c870d-c100-46ac-90b1-be57e7d6172b","system_id":"levelo_inurba_marseille","lat":43.31486,"lon":5.37305,"is_reserved":false,"is_disabled":false,"rental_uris":{"android":"levelo://app?vid=221c870d-c100-46ac-90b1-be57e7d6172b","ios":"levelo://app?vid=221c870d-c100-46ac-90b1-be57e7d6172b"},"vehicle_type_id":"4","last_reported":1730574435,"current_range_meters":17600,"station_id":"ce4bgt12rcd13ifvqcd0","pricing_plan_id":"cebpf4jnsgd1na2vs0mg"},{"bike_id":"bbc1ab0c-14e8-472b-a808-76c7685f939b","system_id":"levelo_inurba_marseille","lat":43.29892,"lon":5.37487,"is_reserved":false,"is_disabled":false,"rental_uris":{"android":"levelo://app?vid=bbc1ab0c-14e8-472b-a808-76c7685f939b","ios":"levelo://app?vid=bbc1ab0c-14e8-472b-a808-76c7685f939b"},"vehicle_type_id":"4","last_reported":1730574435,"current_range_meters":28800,"station_id":"ce4bgjh2rcd13ifvqbg0","pricing_plan_id":"cebpf4jnsgd1na2vs0mg"},{"bike_id":"d0352bbc-dd11-4d9b-bd20-6e90764e5c6e","system_id":"levelo_inurba_marseille","lat":43.2903,"lon":5.38651,"is_reserved":false,"is_disabled":false,"rental_uris":{"android":"levelo://app?vid=d0352bbc-dd11-4d9b-bd20-6e90764e5c6e","ios":"levelo://app?vid=d0352bbc-dd11-4d9b-bd20-6e90764e5c6e"},"vehicle_type_id":"4","last_reported":1730574435,"current_range_meters":26800,"station_id":"ce4bh4p2rcd13ifvqe0g","pricing_plan_id":"cebpf4jnsgd1na2vs0mg"},{"bike_id":"4c07beea-17b2-4f8d-9518-f502d5f2a41a","system_id":"levelo_inurba_marseille","lat":43.25004,"lon":5.38928,"is_reserved":false,"is_disabled":false,"rental_uris":{"android":"levelo://app?vid=4c07beea-17b2-4f8d-9518-f502d5f2a41a","ios":"levelo://app?vid=4c07beea-17b2-4f8d-9518-f502d5f2a41a"},"vehicle_type_id":"4","last_reported":1730574435,"current_range_meters":22800,"station_id":"ce4bhgp2rcd13ifvqfd0","pricing_plan_id":"cebpf4jnsgd1na2vs0mg"},{"bike_id":"e4076913-25a7-4304-83b4-9b1933c6ed9b","system_id":"levelo_inurba_marseille","lat":43.27999,"lon":5.40014,"is_reserved":false,"is_disabled":false,"rental_uris":{"android":"levelo://app?vid=e4076913-25a7-4304-83b4-9b1933c6ed9b","ios":"levelo://app?vid=e4076913-25a7-4304-83b4-9b1933c6ed9b"},"vehicle_type_id":"4","last_reported":1730574435,"current_range_meters":38800,"station_id":"ce4bho92rcd13ifvqh4g","pricing_plan_id":"cebpf4jnsgd1na2vs0mg"},{"bike_id":"410db8ae-ae23-44af-9a18-6ab475466e9f","system_id":"levelo_inurba_marseille","lat":43.24669,"lon":5.38159,"is_reserved":false,"is_disabled":false,"rental_uris":{"android":"levelo://app?vid=410db8ae-ae23-44af-9a18-6ab475466e9f","ios":"levelo://app?vid=410db8ae-ae23-44af-9a18-6ab475466e9f"},"vehicle_type_id":"4","last_reported":1730574435,"current_range_meters":37600,"station_id":"ce4bhih2rcd13ifvqfr0","pricing_plan_id":"cebpf4jnsgd1na2vs0mg"},{"bike_id":"e666ea59-1173-4a80-b010-891676d6d25c","system_id":"levelo_inurba_marseille","lat":43.29616,"lon":5.3773,"is_reserved":false,"is_disabled":false,"rental_uris":{"android":"levelo://app?vid=e666ea59-1173-4a80-b010-891676d6d25c","ios":"levelo://app?vid=e666ea59-1173-4a80-b010-891676d6d25c"},"vehicle_type_id":"4","last_reported":1730574435,"current_range_meters":7200,"station_id":"ce4bh3h2rcd13ifvqdo0","pricing_plan_id":"cebpf4jnsgd1na2vs0mg"},{"bike_id":"3e83e42e-84a1-4fa6-80cb-e77919db3747","system_id":"levelo_inurba_marseille","lat":43.277222,"lon":5.388293,"is_reserved":false,"is_disabled":false,"rental_uris":{"android":"levelo://app?vid=3e83e42e-84a1-4fa6-80cb-e77919db3747","ios":"levelo://app?vid=3e83e42e-84a1-4fa6-80cb-e77919db3747"},"vehicle_type_id":"4","last_reported":1730574435,"current_range_meters":36000,"station_id":"ce4bhlh2rcd13ifvqgig","pricing_plan_id":"cebpf4jnsgd1na2vs0mg"},{"bike_id":"6e6c1416-464f-4f03-9742-bebcc8a06f1e","system_id":"levelo_inurba_marseille","lat":43.31759,"lon":5.39022,"is_reserved":false,"is_disabled":false,"rental_uris":{"android":"levelo://app?vid=6e6c1416-464f-4f03-9742-bebcc8a06f1e","ios":"levelo://app?vid=6e6c1416-464f-4f03-9742-bebcc8a06f1e"},"vehicle_type_id":"4","last_reported":1730574435,"current_range_meters":9200,"station_id":"ce4bhqp2rcd13ifvqhng","pricing_plan_id":"cebpf4jnsgd1na2vs0mg"},{"bike_id":"490deca7-61b2-4d03-9300-758117743ab5","system_id":"levelo_inurba_marseille","lat":43.269414,"lon":5.4025,"is_reserved":false,"is_disabled":false,"rental_uris":{"android":"levelo://app?vid=490deca7-61b2-4d03-9300-758117743ab5","ios":"levelo://app?vid=490deca7-61b2-4d03-9300-758117743ab5"},"vehicle_type_id":"4","last_reported":1730574435,"current_range_meters":36800,"station_id":"ce4bhip2rcd13ifvqft0","pricing_plan_id":"cebpf4jnsgd1na2vs0mg"},{"bike_id":"01401264-e55f-4ab9-8d92-972bb9bb49f6","system_id":"levelo_inurba_marseille","lat":43.30244,"lon":5.40069,"is_reserved":false,"is_disabled":false,"rental_uris":{"android":"levelo://app?vid=01401264-e55f-4ab9-8d92-972bb9bb49f6","ios":"levelo://app?vid=01401264-e55f-4ab9-8d92-972bb9bb49f6"},"vehicle_type_id":"4","last_reported":1730574435,"current_range_meters":35200,"station_id":"ce4bgvh2rcd13ifvqcs0","pricing_plan_id":"cebpf4jnsgd1na2vs0mg"},{"bike_id":"e74f712e-8cad-4a9d-9601-4cfc15e43810","system_id":"levelo_inurba_marseille","lat":43.271768,"lon":5.410013,"is_reserved":false,"is_disabled":false,"rental_uris":{"android":"levelo://app?vid=e74f712e-8cad-4a9d-9601-4cfc15e43810","ios":"levelo://app?vid=e74f712e-8cad-4a9d-9601-4cfc15e43810"},"vehicle_type_id":"4","last_reported":1730574435,"current_range_meters":8000,"station_id":"ce4bhl12rcd13ifvqgf0","pricing_plan_id":"cebpf4jnsgd1na2vs0mg"},{"bike_id":"5bed4c60-b912-42f6-b099-933c6ebb8aca","system_id":"levelo_inurba_marseille","lat":43.25824,"lon":5.39429,"is_reserved":false,"is_disabled":false,"rental_uris":{"android":"levelo://app?vid=5bed4c60-b912-42f6-b099-933c6ebb8aca","ios":"levelo://app?vid=5bed4c60-b912-42f6-b099-933c6ebb8aca"},"vehicle_type_id":"4","last_reported":1730574435,"current_range_meters":38400,"station_id":"ce4bhip2rcd13ifvqft0","pricing_plan_id":"cebpf4jnsgd1na2vs0mg"},{"bike_id":"9ce667e2-8e27-4ca7-abe0-003bee27eccd","system_id":"levelo_inurba_marseille","lat":43.30137,"lon":5.39861,"is_reserved":false,"is_disabled":false,"rental_uris":{"android":"levelo://app?vid=9ce667e2-8e27-4ca7-abe0-003bee27eccd","ios":"levelo://app?vid=9ce667e2-8e27-4ca7-abe0-003bee27eccd"},"vehicle_type_id":"4","last_reported":1730574435,"current_range_meters":38000,"station_id":"ce4bh0h2rcd13ifvqd40","pricing_plan_id":"cebpf4jnsgd1na2vs0mg"},{"bike_id":"b9c605ab-d847-4d81-a947-5a3aa7b39be1","system_id":"levelo_inurba_marseille","lat":43.298837,"lon":5.389057,"is_reserved":false,"is_disabled":false,"rental_uris":{"android":"levelo://app?vid=b9c605ab-d847-4d81-a947-5a3aa7b39be1","ios":"levelo://app?vid=b9c605ab-d847-4d81-a947-5a3aa7b39be1"},"vehicle_type_id":"4","last_reported":1730574435,"current_range_meters":32400,"station_id":"ce4bh392rcd13ifvqdl0","pricing_plan_id":"cebpf4jnsgd1na2vs0mg"},{"bike_id":"c5f9c570-a1e4-4145-8987-1d6234a2f475","system_id":"levelo_inurba_marseille","lat":43.29274,"lon":5.36843,"is_reserved":false,"is_disabled":false,"rental_uris":{"android":"levelo://app?vid=c5f9c570-a1e4-4145-8987-1d6234a2f475","ios":"levelo://app?vid=c5f9c570-a1e4-4145-8987-1d6234a2f475"},"vehicle_type_id":"4","last_reported":1730574435,"current_range_meters":4400,"station_id":"ce4bhbp2rcd13ifvqesg","pricing_plan_id":"cebpf4jnsgd1na2vs0mg"},{"bike_id":"631b7075-137a-4ae3-a6c3-e104f00b6db4","system_id":"levelo_inurba_marseille","lat":43.28041,"lon":5.36949,"is_reserved":false,"is_disabled":false,"rental_uris":{"android":"levelo://app?vid=631b7075-137a-4ae3-a6c3-e104f00b6db4","ios":"levelo://app?vid=631b7075-137a-4ae3-a6c3-e104f00b6db4"},"vehicle_type_id":"4","last_reported":1730574435,"current_range_meters":24000,"station_id":"ce4bha12rcd13ifvqef0","pricing_plan_id":"cebpf4jnsgd1na2vs0mg"},{"bike_id":"d9cbb281-ffd8-4354-9a7c-6649602c0ca9","system_id":"levelo_inurba_marseille","lat":43.3091,"lon":5.37181,"is_reserved":false,"is_disabled":false,"rental_uris":{"android":"levelo://app?vid=d9cbb281-ffd8-4354-9a7c-6649602c0ca9","ios":"levelo://app?vid=d9cbb281-ffd8-4354-9a7c-6649602c0ca9"},"vehicle_type_id":"4","last_reported":1730574435,"current_range_meters":34000,"station_id":"ce4bguh2rcd13ifvqckg","pricing_plan_id":"cebpf4jnsgd1na2vs0mg"},{"bike_id":"952d3fd6-750a-4d5c-9d66-8d27c0fe2b84","system_id":"levelo_inurba_marseille","lat":43.31482,"lon":5.37307,"is_reserved":false,"is_disabled":false,"rental_uris":{"android":"levelo://app?vid=952d3fd6-750a-4d5c-9d66-8d27c0fe2b84","ios":"levelo://app?vid=952d3fd6-750a-4d5c-9d66-8d27c0fe2b84"},"vehicle_type_id":"4","last_reported":1730574435,"current_range_meters":16000,"station_id":"ce4bgt12rcd13ifvqcd0","pricing_plan_id":"cebpf4jnsgd1na2vs0mg"},{"bike_id":"8c67d340-801d-46e5-b910-2f8aff3ff078","system_id":"levelo_inurba_marseille","lat":43.33334,"lon":5.37064,"is_reserved":false,"is_disabled":false,"rental_uris":{"android":"levelo://app?vid=8c67d340-801d-46e5-b910-2f8aff3ff078","ios":"levelo://app?vid=8c67d340-801d-46e5-b910-2f8aff3ff078"},"vehicle_type_id":"4","last_reported":1730574435,"current_range_meters":9200,"station_id":"","pricing_plan_id":"cebpf4jnsgd1na2vs0mg"},{"bike_id":"54cc4ec6-c46d-4e95-9bf2-2a04f02a40ab","system_id":"levelo_inurba_marseille","lat":43.28423,"lon":5.37519,"is_reserved":false,"is_disabled":false,"rental_uris":{"android":"levelo://app?vid=54cc4ec6-c46d-4e95-9bf2-2a04f02a40ab","ios":"levelo://app?vid=54cc4ec6-c46d-4e95-9bf2-2a04f02a40ab"},"vehicle_type_id":"4","last_reported":1730574435,"current_range_meters":30800,"station_id":"ce4bh412rcd13ifvqds0","pricing_plan_id":"cebpf4jnsgd1na2vs0mg"},{"bike_id":"481ceb50-3bb5-46d3-937f-6af1106fbe35","system_id":"levelo_inurba_marseille","lat":43.24662,"lon":5.38165,"is_reserved":false,"is_disabled":false,"rental_uris":{"android":"levelo://app?vid=481ceb50-3bb5-46d3-937f-6af1106fbe35","ios":"levelo://app?vid=481ceb50-3bb5-46d3-937f-6af1106fbe35"},"vehicle_type_id":"4","last_reported":1730574435,"current_range_meters":38800,"station_id":"ce4bhih2rcd13ifvqfr0","pricing_plan_id":"cebpf4jnsgd1na2vs0mg"},{"bike_id":"d37a4624-d732-49bd-927c-00bba035c419","system_id":"levelo_inurba_marseille","lat":43.29291,"lon":5.3746,"is_reserved":false,"is_disabled":false,"rental_uris":{"android":"levelo://app?vid=d37a4624-d732-49bd-927c-00bba035c419","ios":"levelo://app?vid=d37a4624-d732-49bd-927c-00bba035c419"},"vehicle_type_id":"4","last_reported":1730574435,"current_range_meters":21600,"station_id":"ce4bgi12rcd13ifvqb70","pricing_plan_id":"cebpf4jnsgd1na2vs0mg"},{"bike_id":"72706760-8a50-49b2-887a-871013052a00","system_id":"levelo_inurba_marseille","lat":43.30141,"lon":5.39862,"is_reserved":false,"is_disabled":false,"rental_uris":{"android":"levelo://app?vid=72706760-8a50-49b2-887a-871013052a00","ios":"levelo://app?vid=72706760-8a50-49b2-887a-871013052a00"},"vehicle_type_id":"4","last_reported":1730574435,"current_range_meters":36400,"station_id":"ce4bh0h2rcd13ifvqd40","pricing_plan_id":"cebpf4jnsgd1na2vs0mg"},{"bike_id":"3cecfd6d-bd24-4212-b339-944e6377506e","system_id":"levelo_inurba_marseille","lat":43.31677,"lon":5.40459,"is_reserved":false,"is_disabled":false,"rental_uris":{"android":"levelo://app?vid=3cecfd6d-bd24-4212-b339-944e6377506e","ios":"levelo://app?vid=3cecfd6d-bd24-4212-b339-944e6377506e"},"vehicle_type_id":"4","last_reported":1730574435,"current_range_meters":16000,"station_id":"ce4bh012rcd13ifvqd00","pricing_plan_id":"cebpf4jnsgd1na2vs0mg"},{"bike_id":"3c90fc8f-ed1d-4e88-8797-d27a0c30fd70","system_id":"levelo_inurba_marseille","lat":43.25723,"lon":5.41115,"is_reserved":false,"is_disabled":false,"rental_uris":{"android":"levelo://app?vid=3c90fc8f-ed1d-4e88-8797-d27a0c30fd70","ios":"levelo://app?vid=3c90fc8f-ed1d-4e88-8797-d27a0c30fd70"},"vehicle_type_id":"4","last_reported":1730574435,"current_range_meters":24400,"station_id":"ce4bhkp2rcd13ifvqgd0","pricing_plan_id":"cebpf4jnsgd1na2vs0mg"},{"bike_id":"a4297194-1266-4a1f-9f51-dc9850ceeb77","system_id":"levelo_inurba_marseille","lat":43.29254,"lon":5.3844,"is_reserved":false,"is_disabled":false,"rental_uris":{"android":"levelo://app?vid=a4297194-1266-4a1f-9f51-dc9850ceeb77","ios":"levelo://app?vid=a4297194-1266-4a1f-9f51-dc9850ceeb77"},"vehicle_type_id":"4","last_reported":1730574435,"current_range_meters":36400,"station_id":"ce4bh692rcd13ifvqea0","pricing_plan_id":"cebpf4jnsgd1na2vs0mg"},{"bike_id":"4fbb0311-17e1-464c-9761-d7966d92204d","system_id":"levelo_inurba_marseille","lat":43.28475,"lon":5.3842,"is_reserved":false,"is_disabled":false,"rental_uris":{"android":"levelo://app?vid=4fbb0311-17e1-464c-9761-d7966d92204d","ios":"levelo://app?vid=4fbb0311-17e1-464c-9761-d7966d92204d"},"vehicle_type_id":"4","last_reported":1730574435,"current_range_meters":34000,"station_id":"ce4bh512rcd13ifvqe3g","pricing_plan_id":"cebpf4jnsgd1na2vs0mg"},{"bike_id":"a93c236a-7c64-4cfc-8060-bc9296e0086e","system_id":"levelo_inurba_marseille","lat":43.29423,"lon":5.38621,"is_reserved":false,"is_disabled":false,"rental_uris":{"android":"levelo://app?vid=a93c236a-7c64-4cfc-8060-bc9296e0086e","ios":"levelo://app?vid=a93c236a-7c64-4cfc-8060-bc9296e0086e"},"vehicle_type_id":"4","last_reported":1730574435,"current_range_meters":24800,"station_id":"ce4bh2h2rcd13ifvqdh0","pricing_plan_id":"cebpf4jnsgd1na2vs0mg"},{"bike_id":"b9a65869-48f3-4ce2-892e-67d43f0247f3","system_id":"levelo_inurba_marseille","lat":43.29256,"lon":5.38438,"is_reserved":false,"is_disabled":false,"rental_uris":{"android":"levelo://app?vid=b9a65869-48f3-4ce2-892e-67d43f0247f3","ios":"levelo://app?vid=b9a65869-48f3-4ce2-892e-67d43f0247f3"},"vehicle_type_id":"4","last_reported":1730574435,"current_range_meters":4000,"station_id":"ce4bh692rcd13ifvqea0","pricing_plan_id":"cebpf4jnsgd1na2vs0mg"},{"bike_id":"41166d56-5bfd-46f2-885f-e535581cf396","system_id":"levelo_inurba_marseille","lat":43.31493,"lon":5.37301,"is_reserved":false,"is_disabled":false,"rental_uris":{"android":"levelo://app?vid=41166d56-5bfd-46f2-885f-e535581cf396","ios":"levelo://app?vid=41166d56-5bfd-46f2-885f-e535581cf396"},"vehicle_type_id":"4","last_reported":1730574435,"current_range_meters":18800,"station_id":"ce4bgt12rcd13ifvqcd0","pricing_plan_id":"cebpf4jnsgd1na2vs0mg"},{"bike_id":"6a626b8a-4b45-4251-bc0d-e47f71cc1606","system_id":"levelo_inurba_marseille","lat":43.27843,"lon":5.39211,"is_reserved":false,"is_disabled":false,"rental_uris":{"android":"levelo://app?vid=6a626b8a-4b45-4251-bc0d-e47f71cc1606","ios":"levelo://app?vid=6a626b8a-4b45-4251-bc0d-e47f71cc1606"},"vehicle_type_id":"4","last_reported":1730574435,"current_range_meters":22000,"station_id":"ce4bhjp2rcd13ifvqga0","pricing_plan_id":"cebpf4jnsgd1na2vs0mg"},{"bike_id":"a4f3ad02-3bc0-48b1-8331-dadf6f45d9e4","system_id":"levelo_inurba_marseille","lat":43.28677,"lon":5.38668,"is_reserved":false,"is_disabled":false,"rental_uris":{"android":"levelo://app?vid=a4f3ad02-3bc0-48b1-8331-dadf6f45d9e4","ios":"levelo://app?vid=a4f3ad02-3bc0-48b1-8331-dadf6f45d9e4"},"vehicle_type_id":"4","last_reported":1730574435,"current_range_meters":39200,"station_id":"ce4bh492rcd13ifvqdug","pricing_plan_id":"cebpf4jnsgd1na2vs0mg"},{"bike_id":"7cdaaf93-26a0-4c99-b709-878759eb8ada","system_id":"levelo_inurba_marseille","lat":43.30307,"lon":5.39221,"is_reserved":false,"is_disabled":false,"rental_uris":{"android":"levelo://app?vid=7cdaaf93-26a0-4c99-b709-878759eb8ada","ios":"levelo://app?vid=7cdaaf93-26a0-4c99-b709-878759eb8ada"},"vehicle_type_id":"4","last_reported":1730574435,"current_range_meters":38000,"station_id":"ce4bgkh2rcd13ifvqbk0","pricing_plan_id":"cebpf4jnsgd1na2vs0mg"},{"bike_id":"8a723e02-6d39-4f9c-ac81-6ee68117404b","system_id":"levelo_inurba_marseille","lat":43.29976,"lon":5.3849,"is_reserved":false,"is_disabled":false,"rental_uris":{"android":"levelo://app?vid=8a723e02-6d39-4f9c-ac81-6ee68117404b","ios":"levelo://app?vid=8a723e02-6d39-4f9c-ac81-6ee68117404b"},"vehicle_type_id":"4","last_reported":1730574435,"current_range_meters":6000,"station_id":"ce4bgj92rcd13ifvqbd0","pricing_plan_id":"cebpf4jnsgd1na2vs0mg"},{"bike_id":"9f176231-d37b-4c06-9ab3-4b630d7ab80a","system_id":"levelo_inurba_marseille","lat":43.29029,"lon":5.38647,"is_reserved":false,"is_disabled":false,"rental_uris":{"android":"levelo://app?vid=9f176231-d37b-4c06-9ab3-4b630d7ab80a","ios":"levelo://app?vid=9f176231-d37b-4c06-9ab3-4b630d7ab80a"},"vehicle_type_id":"4","last_reported":1730574435,"current_range_meters":38800,"station_id":"ce4bh4p2rcd13ifvqe0g","pricing_plan_id":"cebpf4jnsgd1na2vs0mg"},{"bike_id":"688c6c23-cf1d-4bae-ba1a-4ac4ec5308d7","system_id":"levelo_inurba_marseille","lat":43.28853,"lon":5.38792,"is_reserved":false,"is_disabled":false,"rental_uris":{"android":"levelo://app?vid=688c6c23-cf1d-4bae-ba1a-4ac4ec5308d7","ios":"levelo://app?vid=688c6c23-cf1d-4bae-ba1a-4ac4ec5308d7"},"vehicle_type_id":"4","last_reported":1730574435,"current_range_meters":14000,"station_id":"ce4bhl12rcd13ifvqgf0","pricing_plan_id":"cebpf4jnsgd1na2vs0mg"},{"bike_id":"5e6872e8-36b7-42d5-946f-113bccaad415","system_id":"levelo_inurba_marseille","lat":43.26916,"lon":5.4028,"is_reserved":false,"is_disabled":false,"rental_uris":{"android":"levelo://app?vid=5e6872e8-36b7-42d5-946f-113bccaad415","ios":"levelo://app?vid=5e6872e8-36b7-42d5-946f-113bccaad415"},"vehicle_type_id":"4","last_reported":1730574435,"current_range_meters":34000,"station_id":"ce4bhkp2rcd13ifvqgd0","pricing_plan_id":"cebpf4jnsgd1na2vs0mg"},{"bike_id":"f7433f79-d8b6-4068-99d2-096c7b29e49c","system_id":"levelo_inurba_marseille","lat":43.28483,"lon":5.38559,"is_reserved":false,"is_disabled":false,"rental_uris":{"android":"levelo://app?vid=f7433f79-d8b6-4068-99d2-096c7b29e49c","ios":"levelo://app?vid=f7433f79-d8b6-4068-99d2-096c7b29e49c"},"vehicle_type_id":"4","last_reported":1730574435,"current_range_meters":8000,"station_id":"ce4bh8p2rcd13ifvqeb0","pricing_plan_id":"cebpf4jnsgd1na2vs0mg"},{"bike_id":"bced097d-5c21-493a-8928-de61a680c76c","system_id":"levelo_inurba_marseille","lat":43.29732,"lon":5.37154,"is_reserved":false,"is_disabled":false,"rental_uris":{"android":"levelo://app?vid=bced097d-5c21-493a-8928-de61a680c76c","ios":"levelo://app?vid=bced097d-5c21-493a-8928-de61a680c76c"},"vehicle_type_id":"4","last_reported":1730574435,"current_range_meters":8800,"station_id":"","pricing_plan_id":"cebpf4jnsgd1na2vs0mg"},{"bike_id":"0f2f9c27-9c47-4db3-ac55-4fc0f06a8d32","system_id":"levelo_inurba_marseille","lat":43.29023,"lon":5.37579,"is_reserved":false,"is_disabled":false,"rental_uris":{"android":"levelo://app?vid=0f2f9c27-9c47-4db3-ac55-4fc0f06a8d32","ios":"levelo://app?vid=0f2f9c27-9c47-4db3-ac55-4fc0f06a8d32"},"vehicle_type_id":"4","last_reported":1730574435,"current_range_meters":11600,"station_id":"ce4bh692rcd13ifvqe90","pricing_plan_id":"cebpf4jnsgd1na2vs0mg"},{"bike_id":"c45bf95e-28b1-42f0-bd82-40d8a1a09e86","system_id":"levelo_inurba_marseille","lat":43.29415,"lon":5.38631,"is_reserved":false,"is_disabled":false,"rental_uris":{"android":"levelo://app?vid=c45bf95e-28b1-42f0-bd82-40d8a1a09e86","ios":"levelo://app?vid=c45bf95e-28b1-42f0-bd82-40d8a1a09e86"},"vehicle_type_id":"4","last_reported":1730574435,"current_range_meters":27200,"station_id":"ce4bh2h2rcd13ifvqdh0","pricing_plan_id":"cebpf4jnsgd1na2vs0mg"},{"bike_id":"310a21d9-ac24-4492-996f-4b27103b053b","system_id":"levelo_inurba_marseille","lat":43.31176,"lon":5.38733,"is_reserved":false,"is_disabled":false,"rental_uris":{"android":"levelo://app?vid=310a21d9-ac24-4492-996f-4b27103b053b","ios":"levelo://app?vid=310a21d9-ac24-4492-996f-4b27103b053b"},"vehicle_type_id":"4","last_reported":1730574435,"current_range_meters":22000,"station_id":"ce4bgv12rcd13ifvqcp0","pricing_plan_id":"cebpf4jnsgd1na2vs0mg"},{"bike_id":"8814381d-4e53-4772-aad3-6ac22c0cb217","system_id":"levelo_inurba_marseille","lat":43.262,"lon":5.37934,"is_reserved":false,"is_disabled":false,"rental_uris":{"android":"levelo://app?vid=8814381d-4e53-4772-aad3-6ac22c0cb217","ios":"levelo://app?vid=8814381d-4e53-4772-aad3-6ac22c0cb217"},"vehicle_type_id":"4","last_reported":1730574435,"current_range_meters":24400,"station_id":"ce4bhjp2rcd13ifvqg90","pricing_plan_id":"cebpf4jnsgd1na2vs0mg"},{"bike_id":"709e6e8d-5cda-4806-add4-408e003300b8","system_id":"levelo_inurba_marseille","lat":43.28977,"lon":5.37828,"is_reserved":false,"is_disabled":false,"rental_uris":{"android":"levelo://app?vid=709e6e8d-5cda-4806-add4-408e003300b8","ios":"levelo://app?vid=709e6e8d-5cda-4806-add4-408e003300b8"},"vehicle_type_id":"4","last_reported":1730574435,"current_range_meters":38800,"station_id":"ce4bh9p2rcd13ifvqed0","pricing_plan_id":"cebpf4jnsgd1na2vs0mg"},{"bike_id":"fac07fca-53b2-43df-92dd-ea955a9c8337","system_id":"levelo_inurba_marseille","lat":43.29991,"lon":5.38506,"is_reserved":false,"is_disabled":false,"rental_uris":{"android":"levelo://app?vid=fac07fca-53b2-43df-92dd-ea955a9c8337","ios":"levelo://app?vid=fac07fca-53b2-43df-92dd-ea955a9c8337"},"vehicle_type_id":"4","last_reported":1730574435,"current_range_meters":38800,"station_id":"ce4bgj92rcd13ifvqbd0","pricing_plan_id":"cebpf4jnsgd1na2vs0mg"},{"bike_id":"aea6877e-7988-4006-87d7-08a72f9d3a89","system_id":"levelo_inurba_marseille","lat":43.29537,"lon":5.38537,"is_reserved":false,"is_disabled":false,"rental_uris":{"android":"levelo://app?vid=aea6877e-7988-4006-87d7-08a72f9d3a89","ios":"levelo://app?vid=aea6877e-7988-4006-87d7-08a72f9d3a89"},"vehicle_type_id":"4","last_reported":1730574435,"current_range_meters":30400,"station_id":"ce4bgih2rcd13ifvqba0","pricing_plan_id":"cebpf4jnsgd1na2vs0mg"},{"bike_id":"7f80be21-8ddc-49c4-9b0c-a5e9902d1d25","system_id":"levelo_inurba_marseille","lat":43.26682,"lon":5.38269,"is_reserved":false,"is_disabled":false,"rental_uris":{"android":"levelo://app?vid=7f80be21-8ddc-49c4-9b0c-a5e9902d1d25","ios":"levelo://app?vid=7f80be21-8ddc-49c4-9b0c-a5e9902d1d25"},"vehicle_type_id":"4","last_reported":1730574435,"current_range_meters":37600,"station_id":"ce4bhg92rcd13ifvqf90","pricing_plan_id":"cebpf4jnsgd1na2vs0mg"},{"bike_id":"0377cd1f-1518-4404-adb5-21adee704d63","system_id":"levelo_inurba_marseille","lat":43.29268,"lon":5.36848,"is_reserved":false,"is_disabled":false,"rental_uris":{"android":"levelo://app?vid=0377cd1f-1518-4404-adb5-21adee704d63","ios":"levelo://app?vid=0377cd1f-1518-4404-adb5-21adee704d63"},"vehicle_type_id":"4","last_reported":1730574435,"current_range_meters":38800,"station_id":"ce4bhbp2rcd13ifvqesg","pricing_plan_id":"cebpf4jnsgd1na2vs0mg"},{"bike_id":"33f25173-78f4-49cf-90a2-3209bc99d44c","system_id":"levelo_inurba_marseille","lat":43.31484,"lon":5.37307,"is_reserved":false,"is_disabled":false,"rental_uris":{"android":"levelo://app?vid=33f25173-78f4-49cf-90a2-3209bc99d44c","ios":"levelo://app?vid=33f25173-78f4-49cf-90a2-3209bc99d44c"},"vehicle_type_id":"4","last_reported":1730574435,"current_range_meters":36800,"station_id":"ce4bgt12rcd13ifvqcd0","pricing_plan_id":"cebpf4jnsgd1na2vs0mg"},{"bike_id":"139d20f6-29a4-492f-bfd2-189d6c177e8d","system_id":"levelo_inurba_marseille","lat":43.31682,"lon":5.40469,"is_reserved":false,"is_disabled":false,"rental_uris":{"android":"levelo://app?vid=139d20f6-29a4-492f-bfd2-189d6c177e8d","ios":"levelo://app?vid=139d20f6-29a4-492f-bfd2-189d6c177e8d"},"vehicle_type_id":"4","last_reported":1730574435,"current_range_meters":35200,"station_id":"ce4bh012rcd13ifvqd00","pricing_plan_id":"cebpf4jnsgd1na2vs0mg"},{"bike_id":"b27b6b18-d801-4b0b-a4e3-bc55bc4a9aed","system_id":"levelo_inurba_marseille","lat":43.25721,"lon":5.41115,"is_reserved":false,"is_disabled":false,"rental_uris":{"android":"levelo://app?vid=b27b6b18-d801-4b0b-a4e3-bc55bc4a9aed","ios":"levelo://app?vid=b27b6b18-d801-4b0b-a4e3-bc55bc4a9aed"},"vehicle_type_id":"4","last_reported":1730574435,"current_range_meters":36800,"station_id":"ce4bhkp2rcd13ifvqgd0","pricing_plan_id":"cebpf4jnsgd1na2vs0mg"},{"bike_id":"bf4fc4b0-da91-4001-b8c3-8696ff4892a9","system_id":"levelo_inurba_marseille","lat":43.29881,"lon":5.38911,"is_reserved":false,"is_disabled":false,"rental_uris":{"android":"levelo://app?vid=bf4fc4b0-da91-4001-b8c3-8696ff4892a9","ios":"levelo://app?vid=bf4fc4b0-da91-4001-b8c3-8696ff4892a9"},"vehicle_type_id":"4","last_reported":1730574435,"current_range_meters":35600,"station_id":"ce4bh392rcd13ifvqdl0","pricing_plan_id":"cebpf4jnsgd1na2vs0mg"},{"bike_id":"4b33fae7-45a5-4084-ae3a-fccb7135347b","system_id":"levelo_inurba_marseille","lat":43.30437,"lon":5.38889,"is_reserved":false,"is_disabled":false,"rental_uris":{"android":"levelo://app?vid=4b33fae7-45a5-4084-ae3a-fccb7135347b","ios":"levelo://app?vid=4b33fae7-45a5-4084-ae3a-fccb7135347b"},"vehicle_type_id":"4","last_reported":1730574435,"current_range_meters":37600,"station_id":"ce4bgk12rcd13ifvqbi0","pricing_plan_id":"cebpf4jnsgd1na2vs0mg"},{"bike_id":"f58456e3-7a9e-4429-90f3-eefd70581764","system_id":"levelo_inurba_marseille","lat":43.29533,"lon":5.38542,"is_reserved":false,"is_disabled":false,"rental_uris":{"android":"levelo://app?vid=f58456e3-7a9e-4429-90f3-eefd70581764","ios":"levelo://app?vid=f58456e3-7a9e-4429-90f3-eefd70581764"},"vehicle_type_id":"4","last_reported":1730574435,"current_range_meters":6800,"station_id":"ce4bgih2rcd13ifvqba0","pricing_plan_id":"cebpf4jnsgd1na2vs0mg"},{"bike_id":"1a303e70-d1b0-4563-b13a-3d40fa7c1ccd","system_id":"levelo_inurba_marseille","lat":43.323,"lon":5.38253,"is_reserved":false,"is_disabled":false,"rental_uris":{"android":"levelo://app?vid=1a303e70-d1b0-4563-b13a-3d40fa7c1ccd","ios":"levelo://app?vid=1a303e70-d1b0-4563-b13a-3d40fa7c1ccd"},"vehicle_type_id":"4","last_reported":1730574435,"current_range_meters":19600,"station_id":"ce4bhr12rcd13ifvqhqg","pricing_plan_id":"cebpf4jnsgd1na2vs0mg"},{"bike_id":"52aa259c-685b-441b-9c94-7771d294d476","system_id":"levelo_inurba_marseille","lat":43.291412,"lon":5.355764,"is_reserved":false,"is_disabled":false,"rental_uris":{"android":"levelo://app?vid=52aa259c-685b-441b-9c94-7771d294d476","ios":"levelo://app?vid=52aa259c-685b-441b-9c94-7771d294d476"},"vehicle_type_id":"4","last_reported":1730574435,"current_range_meters":25200,"station_id":"","pricing_plan_id":"cebpf4jnsgd1na2vs0mg"},{"bike_id":"3392ced6-c439-4b12-afb8-5665ace49ebd","system_id":"levelo_inurba_marseille","lat":43.29876,"lon":5.38914,"is_reserved":false,"is_disabled":false,"rental_uris":{"android":"levelo://app?vid=3392ced6-c439-4b12-afb8-5665ace49ebd","ios":"levelo://app?vid=3392ced6-c439-4b12-afb8-5665ace49ebd"},"vehicle_type_id":"4","last_reported":1730574435,"current_range_meters":23200,"station_id":"ce4bh392rcd13ifvqdl0","pricing_plan_id":"cebpf4jnsgd1na2vs0mg"},{"bike_id":"a13a6f27-c8b2-42b7-996f-8e1c0665131f","system_id":"levelo_inurba_marseille","lat":43.25111,"lon":5.40323,"is_reserved":false,"is_disabled":false,"rental_uris":{"android":"levelo://app?vid=a13a6f27-c8b2-42b7-996f-8e1c0665131f","ios":"levelo://app?vid=a13a6f27-c8b2-42b7-996f-8e1c0665131f"},"vehicle_type_id":"4","last_reported":1730574435,"current_range_meters":27600,"station_id":"ce4bhlh2rcd13ifvqgig","pricing_plan_id":"cebpf4jnsgd1na2vs0mg"},{"bike_id":"87d02c11-da85-418b-bd83-e38accdc20fd","system_id":"levelo_inurba_marseille","lat":43.31265,"lon":5.40169,"is_reserved":false,"is_disabled":false,"rental_uris":{"android":"levelo://app?vid=87d02c11-da85-418b-bd83-e38accdc20fd","ios":"levelo://app?vid=87d02c11-da85-418b-bd83-e38accdc20fd"},"vehicle_type_id":"4","last_reported":1730574435,"current_range_meters":7200,"station_id":"ce4bh092rcd13ifvqd30","pricing_plan_id":"cebpf4jnsgd1na2vs0mg"},{"bike_id":"2694f1c1-b8a7-40be-b226-559e47ba0f89","system_id":"levelo_inurba_marseille","lat":43.22935,"lon":5.35371,"is_reserved":false,"is_disabled":false,"rental_uris":{"android":"levelo://app?vid=2694f1c1-b8a7-40be-b226-559e47ba0f89","ios":"levelo://app?vid=2694f1c1-b8a7-40be-b226-559e47ba0f89"},"vehicle_type_id":"4","last_reported":1730574435,"current_range_meters":38800,"station_id":"cpo3532slgdg3j2ikp40","pricing_plan_id":"cebpf4jnsgd1na2vs0mg"},{"bike_id":"7c8e2182-8d5d-442a-9864-1cd9e1711753","system_id":"levelo_inurba_marseille","lat":43.31267,"lon":5.40173,"is_reserved":false,"is_disabled":false,"rental_uris":{"android":"levelo://app?vid=7c8e2182-8d5d-442a-9864-1cd9e1711753","ios":"levelo://app?vid=7c8e2182-8d5d-442a-9864-1cd9e1711753"},"vehicle_type_id":"4","last_reported":1730574435,"current_range_meters":22800,"station_id":"ce4bh092rcd13ifvqd30","pricing_plan_id":"cebpf4jnsgd1na2vs0mg"},{"bike_id":"e37dc032-51e5-458e-af07-871188816454","system_id":"levelo_inurba_marseille","lat":43.29973,"lon":5.38491,"is_reserved":false,"is_disabled":false,"rental_uris":{"android":"levelo://app?vid=e37dc032-51e5-458e-af07-871188816454","ios":"levelo://app?vid=e37dc032-51e5-458e-af07-871188816454"},"vehicle_type_id":"4","last_reported":1730574435,"current_range_meters":30800,"station_id":"ce4bgj92rcd13ifvqbd0","pricing_plan_id":"cebpf4jnsgd1na2vs0mg"},{"bike_id":"b0d7221c-96c0-407c-9d53-96a45465d6f4","system_id":"levelo_inurba_marseille","lat":43.29033,"lon":5.38648,"is_reserved":false,"is_disabled":false,"rental_uris":{"android":"levelo://app?vid=b0d7221c-96c0-407c-9d53-96a45465d6f4","ios":"levelo://app?vid=b0d7221c-96c0-407c-9d53-96a45465d6f4"},"vehicle_type_id":"4","last_reported":1730574435,"current_range_meters":38800,"station_id":"ce4bh4p2rcd13ifvqe0g","pricing_plan_id":"cebpf4jnsgd1na2vs0mg"},{"bike_id":"a59a0526-a09b-4e1f-b799-4240ee0b7745","system_id":"levelo_inurba_marseille","lat":43.2902,"lon":5.38144,"is_reserved":false,"is_disabled":false,"rental_uris":{"android":"levelo://app?vid=a59a0526-a09b-4e1f-b799-4240ee0b7745","ios":"levelo://app?vid=a59a0526-a09b-4e1f-b799-4240ee0b7745"},"vehicle_type_id":"4","last_reported":1730574435,"current_range_meters":38800,"station_id":"ce4bh4p2rcd13ifvqe1g","pricing_plan_id":"cebpf4jnsgd1na2vs0mg"},{"bike_id":"ac6e4d7c-4cf4-4233-aca4-0f9953ecb824","system_id":"levelo_inurba_marseille","lat":43.31991,"lon":5.38145,"is_reserved":false,"is_disabled":false,"rental_uris":{"android":"levelo://app?vid=ac6e4d7c-4cf4-4233-aca4-0f9953ecb824","ios":"levelo://app?vid=ac6e4d7c-4cf4-4233-aca4-0f9953ecb824"},"vehicle_type_id":"4","last_reported":1730574435,"current_range_meters":30800,"station_id":"ce4bhr12rcd13ifvqhpg","pricing_plan_id":"cebpf4jnsgd1na2vs0mg"},{"bike_id":"51dd4af8-871e-4605-acc3-76deb31c641e","system_id":"levelo_inurba_marseille","lat":43.26496,"lon":5.39537,"is_reserved":false,"is_disabled":false,"rental_uris":{"android":"levelo://app?vid=51dd4af8-871e-4605-acc3-76deb31c641e","ios":"levelo://app?vid=51dd4af8-871e-4605-acc3-76deb31c641e"},"vehicle_type_id":"4","last_reported":1730574435,"current_range_meters":6800,"station_id":"ce4bhi12rcd13ifvqfq0","pricing_plan_id":"cebpf4jnsgd1na2vs0mg"},{"bike_id":"7ca2f35e-1181-407c-899c-421a8b13e25c","system_id":"levelo_inurba_marseille","lat":43.29037,"lon":5.38634,"is_reserved":false,"is_disabled":false,"rental_uris":{"android":"levelo://app?vid=7ca2f35e-1181-407c-899c-421a8b13e25c","ios":"levelo://app?vid=7ca2f35e-1181-407c-899c-421a8b13e25c"},"vehicle_type_id":"4","last_reported":1730574435,"current_range_meters":6800,"station_id":"ce4bh4p2rcd13ifvqe0g","pricing_plan_id":"cebpf4jnsgd1na2vs0mg"},{"bike_id":"b8b5f7e2-f80a-4b08-87ae-2845aa87323f","system_id":"levelo_inurba_marseille","lat":43.29421,"lon":5.38627,"is_reserved":false,"is_disabled":false,"rental_uris":{"android":"levelo://app?vid=b8b5f7e2-f80a-4b08-87ae-2845aa87323f","ios":"levelo://app?vid=b8b5f7e2-f80a-4b08-87ae-2845aa87323f"},"vehicle_type_id":"4","last_reported":1730574435,"current_range_meters":6400,"station_id":"ce4bh2h2rcd13ifvqdh0","pricing_plan_id":"cebpf4jnsgd1na2vs0mg"},{"bike_id":"02bf43f1-2ce4-4fae-b237-bdfecedc0a96","system_id":"levelo_inurba_marseille","lat":43.29603,"lon":5.38105,"is_reserved":false,"is_disabled":false,"rental_uris":{"android":"levelo://app?vid=02bf43f1-2ce4-4fae-b237-bdfecedc0a96","ios":"levelo://app?vid=02bf43f1-2ce4-4fae-b237-bdfecedc0a96"},"vehicle_type_id":"4","last_reported":1730574435,"current_range_meters":23200,"station_id":"ce4bgl12rcd13ifvqbo0","pricing_plan_id":"cebpf4jnsgd1na2vs0mg"},{"bike_id":"4d2a4771-1e44-46b1-95e8-fa7ff96176e6","system_id":"levelo_inurba_marseille","lat":43.27679,"lon":5.3887,"is_reserved":false,"is_disabled":false,"rental_uris":{"android":"levelo://app?vid=4d2a4771-1e44-46b1-95e8-fa7ff96176e6","ios":"levelo://app?vid=4d2a4771-1e44-46b1-95e8-fa7ff96176e6"},"vehicle_type_id":"4","last_reported":1730574435,"current_range_meters":18800,"station_id":"ce4bhi12rcd13ifvqfo0","pricing_plan_id":"cebpf4jnsgd1na2vs0mg"},{"bike_id":"7aa10f3e-2e7e-48b7-b835-a034c41eccdc","system_id":"levelo_inurba_marseille","lat":43.30146,"lon":5.3878,"is_reserved":false,"is_disabled":false,"rental_uris":{"android":"levelo://app?vid=7aa10f3e-2e7e-48b7-b835-a034c41eccdc","ios":"levelo://app?vid=7aa10f3e-2e7e-48b7-b835-a034c41eccdc"},"vehicle_type_id":"4","last_reported":1730574435,"current_range_meters":24400,"station_id":"ce4bghh2rcd13ifvqb60","pricing_plan_id":"cebpf4jnsgd1na2vs0mg"},{"bike_id":"c0e53d0f-ce86-4bf7-a654-702d761d1d74","system_id":"levelo_inurba_marseille","lat":43.30557,"lon":5.39912,"is_reserved":false,"is_disabled":false,"rental_uris":{"android":"levelo://app?vid=c0e53d0f-ce86-4bf7-a654-702d761d1d74","ios":"levelo://app?vid=c0e53d0f-ce86-4bf7-a654-702d761d1d74"},"vehicle_type_id":"4","last_reported":1730574435,"current_range_meters":32400,"station_id":"","pricing_plan_id":"cebpf4jnsgd1na2vs0mg"},{"bike_id":"9aca62b1-4fce-45c0-a939-1c87758eecab","system_id":"levelo_inurba_marseille","lat":43.28105,"lon":5.37835,"is_reserved":false,"is_disabled":false,"rental_uris":{"android":"levelo://app?vid=9aca62b1-4fce-45c0-a939-1c87758eecab","ios":"levelo://app?vid=9aca62b1-4fce-45c0-a939-1c87758eecab"},"vehicle_type_id":"4","last_reported":1730574435,"current_range_meters":28000,"station_id":"ce4bha12rcd13ifvqee0","pricing_plan_id":"cebpf4jnsgd1na2vs0mg"},{"bike_id":"17ebbbcb-2cf9-4746-aa3c-b67cb03f093d","system_id":"levelo_inurba_marseille","lat":43.34145,"lon":5.40903,"is_reserved":false,"is_disabled":false,"rental_uris":{"android":"levelo://app?vid=17ebbbcb-2cf9-4746-aa3c-b67cb03f093d","ios":"levelo://app?vid=17ebbbcb-2cf9-4746-aa3c-b67cb03f093d"},"vehicle_type_id":"4","last_reported":1730574435,"current_range_meters":25200,"station_id":"ce4bhqh2rcd13ifvqhlg","pricing_plan_id":"cebpf4jnsgd1na2vs0mg"},{"bike_id":"b66ece50-bc4f-4a5d-b2a3-ef5f9aba4661","system_id":"levelo_inurba_marseille","lat":43.29273,"lon":5.36846,"is_reserved":false,"is_disabled":false,"rental_uris":{"android":"levelo://app?vid=b66ece50-bc4f-4a5d-b2a3-ef5f9aba4661","ios":"levelo://app?vid=b66ece50-bc4f-4a5d-b2a3-ef5f9aba4661"},"vehicle_type_id":"4","last_reported":1730574435,"current_range_meters":38800,"station_id":"ce4bhbp2rcd13ifvqesg","pricing_plan_id":"cebpf4jnsgd1na2vs0mg"},{"bike_id":"54baa588-4308-4b18-898f-cbda25596cd9","system_id":"levelo_inurba_marseille","lat":43.302515,"lon":5.40078,"is_reserved":false,"is_disabled":false,"rental_uris":{"android":"levelo://app?vid=54baa588-4308-4b18-898f-cbda25596cd9","ios":"levelo://app?vid=54baa588-4308-4b18-898f-cbda25596cd9"},"vehicle_type_id":"4","last_reported":1730574435,"current_range_meters":37600,"station_id":"ce4bgvh2rcd13ifvqcs0","pricing_plan_id":"cebpf4jnsgd1na2vs0mg"},{"bike_id":"d859cdb4-2f9b-4050-b34b-686d7bfd090b","system_id":"levelo_inurba_marseille","lat":43.29254,"lon":5.38439,"is_reserved":false,"is_disabled":false,"rental_uris":{"android":"levelo://app?vid=d859cdb4-2f9b-4050-b34b-686d7bfd090b","ios":"levelo://app?vid=d859cdb4-2f9b-4050-b34b-686d7bfd090b"},"vehicle_type_id":"4","last_reported":1730574435,"current_range_meters":19200,"station_id":"ce4bh692rcd13ifvqea0","pricing_plan_id":"cebpf4jnsgd1na2vs0mg"},{"bike_id":"11efced5-16c5-42c9-a072-62fd0d02b83a","system_id":"levelo_inurba_marseille","lat":43.28414,"lon":5.37501,"is_reserved":false,"is_disabled":false,"rental_uris":{"android":"levelo://app?vid=11efced5-16c5-42c9-a072-62fd0d02b83a","ios":"levelo://app?vid=11efced5-16c5-42c9-a072-62fd0d02b83a"},"vehicle_type_id":"4","last_reported":1730574435,"current_range_meters":20000,"station_id":"ce4bh412rcd13ifvqds0","pricing_plan_id":"cebpf4jnsgd1na2vs0mg"},{"bike_id":"ae0ec25d-ae9c-4c47-ad7e-38dbbc05236f","system_id":"levelo_inurba_marseille","lat":43.295228,"lon":5.375111,"is_reserved":false,"is_disabled":false,"rental_uris":{"android":"levelo://app?vid=ae0ec25d-ae9c-4c47-ad7e-38dbbc05236f","ios":"levelo://app?vid=ae0ec25d-ae9c-4c47-ad7e-38dbbc05236f"},"vehicle_type_id":"4","last_reported":1730574435,"current_range_meters":36800,"station_id":"ce4bgkp2rcd13ifvqbmg","pricing_plan_id":"cebpf4jnsgd1na2vs0mg"},{"bike_id":"8297bbbe-fe3e-442e-991a-ff05a61818d0","system_id":"levelo_inurba_marseille","lat":43.29422,"lon":5.3863,"is_reserved":false,"is_disabled":false,"rental_uris":{"android":"levelo://app?vid=8297bbbe-fe3e-442e-991a-ff05a61818d0","ios":"levelo://app?vid=8297bbbe-fe3e-442e-991a-ff05a61818d0"},"vehicle_type_id":"4","last_reported":1730574435,"current_range_meters":22800,"station_id":"ce4bh2h2rcd13ifvqdh0","pricing_plan_id":"cebpf4jnsgd1na2vs0mg"},{"bike_id":"95c76385-ae06-4d85-8fb0-3dfdb3d7470c","system_id":"levelo_inurba_marseille","lat":43.31694,"lon":5.40466,"is_reserved":false,"is_disabled":false,"rental_uris":{"android":"levelo://app?vid=95c76385-ae06-4d85-8fb0-3dfdb3d7470c","ios":"levelo://app?vid=95c76385-ae06-4d85-8fb0-3dfdb3d7470c"},"vehicle_type_id":"4","last_reported":1730574435,"current_range_meters":17200,"station_id":"ce4bh012rcd13ifvqd00","pricing_plan_id":"cebpf4jnsgd1na2vs0mg"},{"bike_id":"f4af9b65-ead8-42b6-9aff-96dcb65810b8","system_id":"levelo_inurba_marseille","lat":43.26941,"lon":5.40251,"is_reserved":false,"is_disabled":false,"rental_uris":{"android":"levelo://app?vid=f4af9b65-ead8-42b6-9aff-96dcb65810b8","ios":"levelo://app?vid=f4af9b65-ead8-42b6-9aff-96dcb65810b8"},"vehicle_type_id":"4","last_reported":1730574435,"current_range_meters":29600,"station_id":"cjm6bp8fraef2m0cb0m0","pricing_plan_id":"cebpf4jnsgd1na2vs0mg"},{"bike_id":"a7661224-a10e-48a0-a41b-007710435ab4","system_id":"levelo_inurba_marseille","lat":43.23054,"lon":5.35498,"is_reserved":false,"is_disabled":false,"rental_uris":{"android":"levelo://app?vid=a7661224-a10e-48a0-a41b-007710435ab4","ios":"levelo://app?vid=a7661224-a10e-48a0-a41b-007710435ab4"},"vehicle_type_id":"4","last_reported":1730574435,"current_range_meters":10000,"station_id":"cpo3342slgdg3j2ifvpg","pricing_plan_id":"cebpf4jnsgd1na2vs0mg"},{"bike_id":"b579c690-85f6-4c63-b155-2f76cc230255","system_id":"levelo_inurba_marseille","lat":43.28706,"lon":5.37378,"is_reserved":false,"is_disabled":false,"rental_uris":{"android":"levelo://app?vid=b579c690-85f6-4c63-b155-2f76cc230255","ios":"levelo://app?vid=b579c690-85f6-4c63-b155-2f76cc230255"},"vehicle_type_id":"4","last_reported":1730574435,"current_range_meters":23200,"station_id":"ce4bh3p2rcd13ifvqdq0","pricing_plan_id":"cebpf4jnsgd1na2vs0mg"},{"bike_id":"ed7e88b0-5cfa-4b64-b10c-d95850d222b3","system_id":"levelo_inurba_marseille","lat":43.29098,"lon":5.38149,"is_reserved":false,"is_disabled":false,"rental_uris":{"android":"levelo://app?vid=ed7e88b0-5cfa-4b64-b10c-d95850d222b3","ios":"levelo://app?vid=ed7e88b0-5cfa-4b64-b10c-d95850d222b3"},"vehicle_type_id":"4","last_reported":1730574435,"current_range_meters":38800,"station_id":"ce4bh512rcd13ifvqe2g","pricing_plan_id":"cebpf4jnsgd1na2vs0mg"},{"bike_id":"f74df92c-a0ed-4b11-9a3c-ba9c645703ac","system_id":"levelo_inurba_marseille","lat":43.31265,"lon":5.4016,"is_reserved":false,"is_disabled":false,"rental_uris":{"android":"levelo://app?vid=f74df92c-a0ed-4b11-9a3c-ba9c645703ac","ios":"levelo://app?vid=f74df92c-a0ed-4b11-9a3c-ba9c645703ac"},"vehicle_type_id":"4","last_reported":1730574435,"current_range_meters":38800,"station_id":"ce4bh092rcd13ifvqd30","pricing_plan_id":"cebpf4jnsgd1na2vs0mg"},{"bike_id":"e5b26eda-a7ab-42d9-b22e-2f737f1d5dfa","system_id":"levelo_inurba_marseille","lat":43.26572,"lon":5.39012,"is_reserved":false,"is_disabled":false,"rental_uris":{"android":"levelo://app?vid=e5b26eda-a7ab-42d9-b22e-2f737f1d5dfa","ios":"levelo://app?vid=e5b26eda-a7ab-42d9-b22e-2f737f1d5dfa"},"vehicle_type_id":"4","last_reported":1730574435,"current_range_meters":8800,"station_id":"ce4bhe12rcd13ifvqf30","pricing_plan_id":"cebpf4jnsgd1na2vs0mg"},{"bike_id":"83475374-5578-4581-8e8e-848d506d6eda","system_id":"levelo_inurba_marseille","lat":43.2827,"lon":5.35066,"is_reserved":false,"is_disabled":false,"rental_uris":{"android":"levelo://app?vid=83475374-5578-4581-8e8e-848d506d6eda","ios":"levelo://app?vid=83475374-5578-4581-8e8e-848d506d6eda"},"vehicle_type_id":"4","last_reported":1730574435,"current_range_meters":16000,"station_id":"ce4bhbp2rcd13ifvqerg","pricing_plan_id":"cebpf4jnsgd1na2vs0mg"},{"bike_id":"e327d7f6-9c96-426e-8a39-fa6673049d2c","system_id":"levelo_inurba_marseille","lat":43.32302,"lon":5.38279,"is_reserved":false,"is_disabled":false,"rental_uris":{"android":"levelo://app?vid=e327d7f6-9c96-426e-8a39-fa6673049d2c","ios":"levelo://app?vid=e327d7f6-9c96-426e-8a39-fa6673049d2c"},"vehicle_type_id":"4","last_reported":1730574435,"current_range_meters":38000,"station_id":"ce4bhr12rcd13ifvqhqg","pricing_plan_id":"cebpf4jnsgd1na2vs0mg"},{"bike_id":"c07332d5-f871-4d7c-9894-5a99fdbe9ec1","system_id":"levelo_inurba_marseille","lat":43.2508,"lon":5.39516,"is_reserved":false,"is_disabled":false,"rental_uris":{"android":"levelo://app?vid=c07332d5-f871-4d7c-9894-5a99fdbe9ec1","ios":"levelo://app?vid=c07332d5-f871-4d7c-9894-5a99fdbe9ec1"},"vehicle_type_id":"4","last_reported":1730574435,"current_range_meters":33200,"station_id":"ce4bhm12rcd13ifvqgkg","pricing_plan_id":"cebpf4jnsgd1na2vs0mg"},{"bike_id":"71d13a2b-dd61-4b9e-bd4b-bcaaa1f09a15","system_id":"levelo_inurba_marseille","lat":43.29256,"lon":5.38435,"is_reserved":false,"is_disabled":false,"rental_uris":{"android":"levelo://app?vid=71d13a2b-dd61-4b9e-bd4b-bcaaa1f09a15","ios":"levelo://app?vid=71d13a2b-dd61-4b9e-bd4b-bcaaa1f09a15"},"vehicle_type_id":"4","last_reported":1730574435,"current_range_meters":24800,"station_id":"ce4bgrp2rcd13ifvqc9g","pricing_plan_id":"cebpf4jnsgd1na2vs0mg"},{"bike_id":"06ccf8df-b7e6-492c-9f30-bedc6941b0d4","system_id":"levelo_inurba_marseille","lat":43.29274,"lon":5.36841,"is_reserved":false,"is_disabled":false,"rental_uris":{"android":"levelo://app?vid=06ccf8df-b7e6-492c-9f30-bedc6941b0d4","ios":"levelo://app?vid=06ccf8df-b7e6-492c-9f30-bedc6941b0d4"},"vehicle_type_id":"4","last_reported":1730574435,"current_range_meters":20400,"station_id":"ce4bhbp2rcd13ifvqesg","pricing_plan_id":"cebpf4jnsgd1na2vs0mg"},{"bike_id":"3ec7b80e-947b-4c08-9bd2-8e8dbc833d96","system_id":"levelo_inurba_marseille","lat":43.28703,"lon":5.39983,"is_reserved":false,"is_disabled":false,"rental_uris":{"android":"levelo://app?vid=3ec7b80e-947b-4c08-9bd2-8e8dbc833d96","ios":"levelo://app?vid=3ec7b80e-947b-4c08-9bd2-8e8dbc833d96"},"vehicle_type_id":"4","last_reported":1730574435,"current_range_meters":8000,"station_id":"ce4bho92rcd13ifvqh3g","pricing_plan_id":"cebpf4jnsgd1na2vs0mg"},{"bike_id":"48c21651-046b-4b4f-b840-ebed0084e31b","system_id":"levelo_inurba_marseille","lat":43.29023,"lon":5.38143,"is_reserved":false,"is_disabled":false,"rental_uris":{"android":"levelo://app?vid=48c21651-046b-4b4f-b840-ebed0084e31b","ios":"levelo://app?vid=48c21651-046b-4b4f-b840-ebed0084e31b"},"vehicle_type_id":"4","last_reported":1730574435,"current_range_meters":27600,"station_id":"ce4bh4p2rcd13ifvqe1g","pricing_plan_id":"cebpf4jnsgd1na2vs0mg"},{"bike_id":"dc5cb50b-5a19-4afa-a560-cd182bc09b12","system_id":"levelo_inurba_marseille","lat":43.28467,"lon":5.38421,"is_reserved":false,"is_disabled":false,"rental_uris":{"android":"levelo://app?vid=dc5cb50b-5a19-4afa-a560-cd182bc09b12","ios":"levelo://app?vid=dc5cb50b-5a19-4afa-a560-cd182bc09b12"},"vehicle_type_id":"4","last_reported":1730574435,"current_range_meters":26000,"station_id":"ce4bh512rcd13ifvqe3g","pricing_plan_id":"cebpf4jnsgd1na2vs0mg"},{"bike_id":"c936989b-125d-4194-a57d-bd8b4df46468","system_id":"levelo_inurba_marseille","lat":43.29418,"lon":5.38623,"is_reserved":false,"is_disabled":false,"rental_uris":{"android":"levelo://app?vid=c936989b-125d-4194-a57d-bd8b4df46468","ios":"levelo://app?vid=c936989b-125d-4194-a57d-bd8b4df46468"},"vehicle_type_id":"4","last_reported":1730574435,"current_range_meters":24000,"station_id":"ce4bh2h2rcd13ifvqdh0","pricing_plan_id":"cebpf4jnsgd1na2vs0mg"},{"bike_id":"a241e345-9f8c-49e6-a1e2-e7d1f28d67c0","system_id":"levelo_inurba_marseille","lat":43.31691,"lon":5.40483,"is_reserved":false,"is_disabled":false,"rental_uris":{"android":"levelo://app?vid=a241e345-9f8c-49e6-a1e2-e7d1f28d67c0","ios":"levelo://app?vid=a241e345-9f8c-49e6-a1e2-e7d1f28d67c0"},"vehicle_type_id":"4","last_reported":1730574435,"current_range_meters":17600,"station_id":"ce4bh012rcd13ifvqd00","pricing_plan_id":"cebpf4jnsgd1na2vs0mg"},{"bike_id":"236d66b0-5992-4d1e-9558-16b23e33e7ea","system_id":"levelo_inurba_marseille","lat":43.29166,"lon":5.37158,"is_reserved":false,"is_disabled":false,"rental_uris":{"android":"levelo://app?vid=236d66b0-5992-4d1e-9558-16b23e33e7ea","ios":"levelo://app?vid=236d66b0-5992-4d1e-9558-16b23e33e7ea"},"vehicle_type_id":"4","last_reported":1730574435,"current_range_meters":22400,"station_id":"ce4bha92rcd13ifvqeh0","pricing_plan_id":"cebpf4jnsgd1na2vs0mg"},{"bike_id":"c105ce8b-c809-4cb4-9920-9cba3dd83f51","system_id":"levelo_inurba_marseille","lat":43.29967,"lon":5.38499,"is_reserved":false,"is_disabled":false,"rental_uris":{"android":"levelo://app?vid=c105ce8b-c809-4cb4-9920-9cba3dd83f51","ios":"levelo://app?vid=c105ce8b-c809-4cb4-9920-9cba3dd83f51"},"vehicle_type_id":"4","last_reported":1730574435,"current_range_meters":19600,"station_id":"ce4bgj92rcd13ifvqbd0","pricing_plan_id":"cebpf4jnsgd1na2vs0mg"},{"bike_id":"37cfc298-15eb-4937-9e7c-6628e1ddd231","system_id":"levelo_inurba_marseille","lat":43.29795,"lon":5.39355,"is_reserved":false,"is_disabled":false,"rental_uris":{"android":"levelo://app?vid=37cfc298-15eb-4937-9e7c-6628e1ddd231","ios":"levelo://app?vid=37cfc298-15eb-4937-9e7c-6628e1ddd231"},"vehicle_type_id":"4","last_reported":1730574435,"current_range_meters":36800,"station_id":"chh1huq6cuj3fo74tm60","pricing_plan_id":"cebpf4jnsgd1na2vs0mg"},{"bike_id":"3bad8700-ffaa-41e1-8055-2b1b6e08c61d","system_id":"levelo_inurba_marseille","lat":43.28155,"lon":5.42647,"is_reserved":false,"is_disabled":false,"rental_uris":{"android":"levelo://app?vid=3bad8700-ffaa-41e1-8055-2b1b6e08c61d","ios":"levelo://app?vid=3bad8700-ffaa-41e1-8055-2b1b6e08c61d"},"vehicle_type_id":"4","last_reported":1730574435,"current_range_meters":32000,"station_id":"ce4bhnh2rcd13ifvqgug","pricing_plan_id":"cebpf4jnsgd1na2vs0mg"},{"bike_id":"ad2210de-ffb3-4fdd-b0aa-65417ae7c8fa","system_id":"levelo_inurba_marseille","lat":43.29966,"lon":5.38501,"is_reserved":false,"is_disabled":false,"rental_uris":{"android":"levelo://app?vid=ad2210de-ffb3-4fdd-b0aa-65417ae7c8fa","ios":"levelo://app?vid=ad2210de-ffb3-4fdd-b0aa-65417ae7c8fa"},"vehicle_type_id":"4","last_reported":1730574435,"current_range_meters":3200,"station_id":"ce4bgj92rcd13ifvqbd0","pricing_plan_id":"cebpf4jnsgd1na2vs0mg"},{"bike_id":"8c0659df-72f8-4988-b6f2-4fe70517a6ce","system_id":"levelo_inurba_marseille","lat":43.29255,"lon":5.38437,"is_reserved":false,"is_disabled":false,"rental_uris":{"android":"levelo://app?vid=8c0659df-72f8-4988-b6f2-4fe70517a6ce","ios":"levelo://app?vid=8c0659df-72f8-4988-b6f2-4fe70517a6ce"},"vehicle_type_id":"4","last_reported":1730574435,"current_range_meters":36400,"station_id":"ce4bh692rcd13ifvqea0","pricing_plan_id":"cebpf4jnsgd1na2vs0mg"},{"bike_id":"514b7cb3-2ad0-49b9-8d88-3a4ee5868124","system_id":"levelo_inurba_marseille","lat":43.30146,"lon":5.39872,"is_reserved":false,"is_disabled":false,"rental_uris":{"android":"levelo://app?vid=514b7cb3-2ad0-49b9-8d88-3a4ee5868124","ios":"levelo://app?vid=514b7cb3-2ad0-49b9-8d88-3a4ee5868124"},"vehicle_type_id":"4","last_reported":1730574435,"current_range_meters":38800,"station_id":"ce4bh0h2rcd13ifvqd40","pricing_plan_id":"cebpf4jnsgd1na2vs0mg"},{"bike_id":"0f5f4a5e-d5e5-4f9f-a634-2f9428e83c2c","system_id":"levelo_inurba_marseille","lat":43.27815,"lon":5.40719,"is_reserved":false,"is_disabled":false,"rental_uris":{"android":"levelo://app?vid=0f5f4a5e-d5e5-4f9f-a634-2f9428e83c2c","ios":"levelo://app?vid=0f5f4a5e-d5e5-4f9f-a634-2f9428e83c2c"},"vehicle_type_id":"4","last_reported":1730574435,"current_range_meters":36800,"station_id":"ce4bhnh2rcd13ifvqgtg","pricing_plan_id":"cebpf4jnsgd1na2vs0mg"},{"bike_id":"0e423162-8e9a-4a11-b3b8-206ffdb80f9a","system_id":"levelo_inurba_marseille","lat":43.29294,"lon":5.37451,"is_reserved":false,"is_disabled":false,"rental_uris":{"android":"levelo://app?vid=0e423162-8e9a-4a11-b3b8-206ffdb80f9a","ios":"levelo://app?vid=0e423162-8e9a-4a11-b3b8-206ffdb80f9a"},"vehicle_type_id":"4","last_reported":1730574435,"current_range_meters":32800,"station_id":"ce4bgi12rcd13ifvqb70","pricing_plan_id":"cebpf4jnsgd1na2vs0mg"},{"bike_id":"4bea4540-3067-4d85-b258-77b1bf2197c8","system_id":"levelo_inurba_marseille","lat":43.29882,"lon":5.38916,"is_reserved":false,"is_disabled":false,"rental_uris":{"android":"levelo://app?vid=4bea4540-3067-4d85-b258-77b1bf2197c8","ios":"levelo://app?vid=4bea4540-3067-4d85-b258-77b1bf2197c8"},"vehicle_type_id":"4","last_reported":1730574435,"current_range_meters":37600,"station_id":"ce4bh392rcd13ifvqdl0","pricing_plan_id":"cebpf4jnsgd1na2vs0mg"},{"bike_id":"b3648e79-f47d-4048-9db0-6e8de5d4cc8d","system_id":"levelo_inurba_marseille","lat":43.31516,"lon":5.37289,"is_reserved":false,"is_disabled":false,"rental_uris":{"android":"levelo://app?vid=b3648e79-f47d-4048-9db0-6e8de5d4cc8d","ios":"levelo://app?vid=b3648e79-f47d-4048-9db0-6e8de5d4cc8d"},"vehicle_type_id":"4","last_reported":1730574435,"current_range_meters":39200,"station_id":"ce4bgt12rcd13ifvqcd0","pricing_plan_id":"cebpf4jnsgd1na2vs0mg"},{"bike_id":"a736eb14-322a-4db6-8378-3b19b72258b0","system_id":"levelo_inurba_marseille","lat":43.29454,"lon":5.38305,"is_reserved":false,"is_disabled":false,"rental_uris":{"android":"levelo://app?vid=a736eb14-322a-4db6-8378-3b19b72258b0","ios":"levelo://app?vid=a736eb14-322a-4db6-8378-3b19b72258b0"},"vehicle_type_id":"4","last_reported":1730574435,"current_range_meters":28400,"station_id":"","pricing_plan_id":"cebpf4jnsgd1na2vs0mg"},{"bike_id":"85234168-a3af-4356-9ca6-962e8b9132fe","system_id":"levelo_inurba_marseille","lat":43.2979,"lon":5.3935,"is_reserved":false,"is_disabled":false,"rental_uris":{"android":"levelo://app?vid=85234168-a3af-4356-9ca6-962e8b9132fe","ios":"levelo://app?vid=85234168-a3af-4356-9ca6-962e8b9132fe"},"vehicle_type_id":"4","last_reported":1730574435,"current_range_meters":9200,"station_id":"chh1huq6cuj3fo74tm60","pricing_plan_id":"cebpf4jnsgd1na2vs0mg"},{"bike_id":"7eda0b05-b406-4343-b769-792ede40bb1e","system_id":"levelo_inurba_marseille","lat":43.29531,"lon":5.385423,"is_reserved":false,"is_disabled":false,"rental_uris":{"android":"levelo://app?vid=7eda0b05-b406-4343-b769-792ede40bb1e","ios":"levelo://app?vid=7eda0b05-b406-4343-b769-792ede40bb1e"},"vehicle_type_id":"4","last_reported":1730574435,"current_range_meters":28800,"station_id":"ce4bgih2rcd13ifvqba0","pricing_plan_id":"cebpf4jnsgd1na2vs0mg"},{"bike_id":"39619002-67ac-40b3-afab-cd1631b93626","system_id":"levelo_inurba_marseille","lat":43.29264,"lon":5.36847,"is_reserved":false,"is_disabled":false,"rental_uris":{"android":"levelo://app?vid=39619002-67ac-40b3-afab-cd1631b93626","ios":"levelo://app?vid=39619002-67ac-40b3-afab-cd1631b93626"},"vehicle_type_id":"4","last_reported":1730574435,"current_range_meters":37600,"station_id":"ce4bhbp2rcd13ifvqesg","pricing_plan_id":"cebpf4jnsgd1na2vs0mg"},{"bike_id":"df2309df-837d-404a-8070-362d8c50f2e3","system_id":"levelo_inurba_marseille","lat":43.25583,"lon":5.38236,"is_reserved":false,"is_disabled":false,"rental_uris":{"android":"levelo://app?vid=df2309df-837d-404a-8070-362d8c50f2e3","ios":"levelo://app?vid=df2309df-837d-404a-8070-362d8c50f2e3"},"vehicle_type_id":"4","last_reported":1730574435,"current_range_meters":38800,"station_id":"ce4bhih2rcd13ifvqfs0","pricing_plan_id":"cebpf4jnsgd1na2vs0mg"},{"bike_id":"df64aa0c-71fa-4735-921b-f62056e67454","system_id":"levelo_inurba_marseille","lat":43.29533,"lon":5.38546,"is_reserved":false,"is_disabled":false,"rental_uris":{"android":"levelo://app?vid=df64aa0c-71fa-4735-921b-f62056e67454","ios":"levelo://app?vid=df64aa0c-71fa-4735-921b-f62056e67454"},"vehicle_type_id":"4","last_reported":1730574435,"current_range_meters":30800,"station_id":"ce4bgih2rcd13ifvqba0","pricing_plan_id":"cebpf4jnsgd1na2vs0mg"},{"bike_id":"bf87a494-d8a2-45c3-947c-b683b282c8d8","system_id":"levelo_inurba_marseille","lat":43.29414,"lon":5.38622,"is_reserved":false,"is_disabled":false,"rental_uris":{"android":"levelo://app?vid=bf87a494-d8a2-45c3-947c-b683b282c8d8","ios":"levelo://app?vid=bf87a494-d8a2-45c3-947c-b683b282c8d8"},"vehicle_type_id":"4","last_reported":1730574435,"current_range_meters":38800,"station_id":"ce4bh2h2rcd13ifvqdh0","pricing_plan_id":"cebpf4jnsgd1na2vs0mg"},{"bike_id":"15b41069-80af-4ad0-a5de-334c3e695737","system_id":"levelo_inurba_marseille","lat":43.28271,"lon":5.35071,"is_reserved":false,"is_disabled":false,"rental_uris":{"android":"levelo://app?vid=15b41069-80af-4ad0-a5de-334c3e695737","ios":"levelo://app?vid=15b41069-80af-4ad0-a5de-334c3e695737"},"vehicle_type_id":"4","last_reported":1730574435,"current_range_meters":30000,"station_id":"ce4bhbp2rcd13ifvqerg","pricing_plan_id":"cebpf4jnsgd1na2vs0mg"},