{"last_updated":1743437538,"ttl":60,"version":"2.2","data":{"bikes":[{"bike_id":"3965e20a-e1ab-4e11-9007-9f894e781538","system_id":"levelo_inurba_marseille","lat":43.31256,"lon":5.36983,"is_reserved":false,"is_disabled":true,"rental_uris":{"android":"levelo://app?vid=3965e20a-e1ab-4e11-9007-9f894e781538","ios":"levelo://app?vid=3965e20a-e1ab-4e11-9007-9f894e781538"},"vehicle_type_id":"4","last_reported":1743437538,"current_range_meters":0,"station_id":"","pricing_plan_id":"cebpf4jnsgd1na2vs0mg"},{"bike_id":"f28a2132-9d11-411c-a599-c4352a550e43","system_id":"levelo_inurba_marseille","lat":43.24898,"lon":5.39397,"is_reserved":false,"is_disabled":true,"rental_uris":{"android":"levelo://app?vid=f28a2132-9d11-411c-a599-c4352a550e43","ios":"levelo://app?vid=f28a2132-9d11-411c-a599-c4352a550e43"},"vehicle_type_id":"4","last_reported":1743437538,"current_range_meters":0,"station_id":"","pricing_plan_id":"cebpf4jnsgd1na2vs0mg"},{"bike_id":"524c0a99-e50a-4944-b98a-364c85fd198c","system_id":"levelo_inurba_marseille","lat":43.28639,"lon":5.44357,"is_reserved":false,"is_disabled":true,"rental_uris":{"android":"levelo://app?vid=524c0a99-e50a-4944-b98a-364c85fd198c","ios":"levelo://app?vid=524c0a99-e50a-4944-b98a-364c85fd198c"},"vehicle_type_id":"4","last_reported":1743437538,"current_range_meters":0,"station_id":"","pricing_plan_id":"cebpf4jnsgd1na2vs0mg"},{"bike_id":"ef3ab7e4-47aa-4e48-a63f-a437355606eb","system_id":"levelo_inurba_marseille","lat":43.28081,"lon":5.42187,"is_reserved":false,"is_disabled":true,"rental_uris":{"android":"levelo://app?vid=ef3ab7e4-47aa-4e48-a63f-a437355606eb","ios":"levelo://app?vid=ef3ab7e4-47aa-4e48-a63f-a437355606eb"},"vehicle_type_id":"4","last_reported":1743437538,"current_range_meters":0,"station_id":"","pricing_plan_id":"cebpf4jnsgd1na2vs0mg"},{"bike_id":"646b4b6f-1ba9-4554-b1a7-e4dc009abba1","system_id":"levelo_inurba_marseille","lat":43.29094,"lon":5.42783,"is_reserved":false,"is_disabled":true,"rental_uris":{"android":"levelo://app?vid=646b4b6f-1ba9-4554-b1a7-e4dc009abba1","ios":"levelo://app?vid=646b4b6f-1ba9-4554-b1a7-e4dc009abba1"},"vehicle_type_id":"4","last_reported":1743437538,"current_range_meters":0,"station_id":"","pricing_plan_id":"cebpf4jnsgd1na2vs0mg"},{"bike_id":"be6725c0-5c09-4663-99b8-0b7371d27e21","system_id":"levelo_inurba_marseille","lat":43.25493,"lon":5.375,"is_reserved":false,"is_disabled":true,"rental_uris":{"android":"levelo://app?vid=be6725c0-5c09-4663-99b8-0b7371d27e21","ios":"levelo://app?vid=be6725c0-5c09-4663-99b8-0b7371d27e21"},"vehicle_type_id":"4","last_reported":1743437538,"current_range_meters":0,"station_id":"","pricing_plan_id":"cebpf4jnsgd1na2vs0mg"},{"bike_id":"b5526355-9c5e-43a6-9c02-c66889a7d947","system_id":"levelo_inurba_marseille","lat":43.30679,"lon":5.36814,"is_reserved":false,"is_disabled":true,"rental_uris":{"android":"levelo://app?vid=b5526355-9c5e-43a6-9c02-c66889a7d947","ios":"levelo://app?vid=b5526355-9c5e-43a6-9c02-c66889a7d947"},"vehicle_type_id":"4","last_reported":1743437538,"current_range_meters":0,"station_id":"","pricing_plan_id":"cebpf4jnsgd1na2vs0mg"},{"bike_id":"579b8b66-6a37-4f4c-ad3b-0acee14f6d2d","system_id":"levelo_inurba_marseille","lat":43.29526,"lon":5.44277,"is_reserved":false,"is_disabled":true,"rental_uris":{"android":"levelo://app?vid=579b8b66-6a37-4f4c-ad3b-0acee14f6d2d","ios":"levelo://app?vid=579b8b66-6a37-4f4c-ad3b-0acee14f6d2d"},"vehicle_type_id":"4","last_reported":1743437538,"current_range_meters":0,"station_id":"","pricing_plan_id":"cebpf4jnsgd1na2vs0mg"},{"bike_id":"e4023b76-3b3e-4e0a-83d8-f1f2c86a9a1a","system_id":"levelo_inurba_marseille","lat":43.26058,"lon":5.38619,"is_reserved":false,"is_disabled":true,"rental_uris":{"android":"levelo://app?vid=e4023b76-3b3e-4e0a-83d8-f1f2c86a9a1a","ios":"levelo://app?vid=e4023b76-3b3e-4e0a-83d8-f1f2c86a9a1a"},"vehicle_type_id":"4","last_reported":1743437538,"current_range_meters":0,"station_id":"","pricing_plan_id":"cebpf4jnsgd1na2vs0mg"},{"bike_id":"addfee32-b434-4d1a-a720-7460ebc95d3d","system_id":"levelo_inurba_marseille","lat":43.265915,"lon":5.393424,"is_reserved":false,"is_disabled":true,"rental_uris":{"android":"levelo://app?vid=addfee32-b434-4d1a-a720-7460ebc95d3d","ios":"levelo://app?vid=addfee32-b434-4d1a-a720-7460ebc95d3d"},"vehicle_type_id":"4","last_reported":1743437538,"current_range_meters":0,"station_id":"","pricing_plan_id":"cebpf4jnsgd1na2vs0mg"},{"bike_id":"04d84667-80d2-430a-a2ab-b0adb0b8c9ad","system_id":"levelo_inurba_marseille","lat":43.337444,"lon":5.374475,"is_reserved":false,"is_disabled":true,"rental_uris":{"android":"levelo://app?vid=04d84667-80d2-430a-a2ab-b0adb0b8c9ad","ios":"levelo://app?vid=04d84667-80d2-430a-a2ab-b0adb0b8c9ad"},"vehicle_type_id":"4","last_reported":1743437538,"current_range_meters":0,"station_id":"","pricing_plan_id":"cebpf4jnsgd1na2vs0mg"},{"bike_id":"deb3f671-3ace-4bcf-92e5-bfca91b65c0c","system_id":"levelo_inurba_marseille","lat":43.26936,"lon":5.39516,"is_reserved":false,"is_disabled":true,"rental_uris":{"android":"levelo://app?vid=deb3f671-3ace-4bcf-92e5-bfca91b65c0c","ios":"levelo://app?vid=deb3f671-3ace-4bcf-92e5-bfca91b65c0c"},"vehicle_type_id":"4","last_reported":1743437538,"current_range_meters":0,"station_id":"","pricing_plan_id":"cebpf4jnsgd1na2vs0mg"},{"bike_id":"54ddccb5-3e82-4e09-ad9d-1f88cce9f960","system_id":"levelo_inurba_marseille","lat":43.32989,"lon":5.43862,"is_reserved":false,"is_disabled":true,"rental_uris":{"android":"levelo://app?vid=54ddccb5-3e82-4e09-ad9d-1f88cce9f960","ios":"levelo://app?vid=54ddccb5-3e82-4e09-ad9d-1f88cce9f960"},"vehicle_type_id":"4","last_reported":1743437538,"current_range_meters":0,"station_id":"","pricing_plan_id":"cebpf4jnsgd1na2vs0mg"},{"bike_id":"288bb5a4-8592-4715-9f1c-af47147cb3c6","system_id":"levelo_inurba_marseille","lat":43.26151,"lon":5.41629,"is_reserved":false,"is_disabled":true,"rental_uris":{"android":"levelo://app?vid=288bb5a4-8592-4715-9f1c-af47147cb3c6","ios":"levelo://app?vid=288bb5a4-8592-4715-9f1c-af47147cb3c6"},"vehicle_type_id":"4","last_reported":1743437538,"current_range_meters":0,"station_id":"","pricing_plan_id":"cebpf4jnsgd1na2vs0mg"},{"bike_id":"45b73c6d-9e75-4513-9036-3e078d0ea030","system_id":"levelo_inurba_marseille","lat":43.31167,"lon":5.37861,"is_reserved":false,"is_disabled":true,"rental_uris":{"android":"levelo://app?vid=45b73c6d-9e75-4513-9036-3e078d0ea030","ios":"levelo://app?vid=45b73c6d-9e75-4513-9036-3e078d0ea030"},"vehicle_type_id":"4","last_reported":1743437538,"current_range_meters":0,"station_id":"","pricing_plan_id":"cebpf4jnsgd1na2vs0mg"},{"bike_id":"849d1e5f-9ac0-48ec-9724-e3bcf1ba9ea8","system_id":"levelo_inurba_marseille","lat":43.293272,"lon":5.404095,"is_reserved":false,"is_disabled":true,"rental_uris":{"android":"levelo://app?vid=849d1e5f-9ac0-48ec-9724-e3bcf1ba9ea8","ios":"levelo://app?vid=849d1e5f-9ac0-48ec-9724-e3bcf1ba9ea8"},"vehicle_type_id":"4","last_reported":1743437538,"current_range_meters":0,"station_id":"ce4bgih2rcd13ifvqba0","pricing_plan_id":"cebpf4jnsgd1na2vs0mg"},{"bike_id":"a96920c2-56e8-4d6e-981f-c6e311d792fa","system_id":"levelo_inurba_marseille","lat":43.29933,"lon":5.37474,"is_reserved":false,"is_disabled":true,"rental_uris":{"android":"levelo://app?vid=a96920c2-56e8-4d6e-981f-c6e311d792fa","ios":"levelo://app?vid=a96920c2-56e8-4d6e-981f-c6e311d792fa"},"vehicle_type_id":"4","last_reported":1743437538,"current_range_meters":0,"station_id":"ce4bgjh2rcd13ifvqbg0","pricing_plan_id":"cebpf4jnsgd1na2vs0mg"},{"bike_id":"862ac006-b122-42ac-89b6-645efefb4f90","system_id":"levelo_inurba_marseille","lat":43.30302,"lon":5.39226,"is_reserved":false,"is_disabled":true,"rental_uris":{"android":"levelo://app?vid=862ac006-b122-42ac-89b6-645efefb4f90","ios":"levelo://app?vid=862ac006-b122-42ac-89b6-645efefb4f90"},"vehicle_type_id":"4","last_reported":1743437538,"current_range_meters":0,"station_id":"ce4bgkh2rcd13ifvqbk0","pricing_plan_id":"cebpf4jnsgd1na2vs0mg"},{"bike_id":"bc11bcf6-45a7-4586-aa66-06e7efc98c57","system_id":"levelo_inurba_marseille","lat":43.31323,"lon":5.36764,"is_reserved":false,"is_disabled":true,"rental_uris":{"android":"levelo://app?vid=bc11bcf6-45a7-4586-aa66-06e7efc98c57","ios":"levelo://app?vid=bc11bcf6-45a7-4586-aa66-06e7efc98c57"},"vehicle_type_id":"4","last_reported":1743437538,"current_range_meters":0,"station_id":"ce4bgr92rcd13ifvqc6g","pricing_plan_id":"cebpf4jnsgd1na2vs0mg"},{"bike_id":"45256d6a-1e64-45d9-ad17-23151e1fdf1c","system_id":"levelo_inurba_marseille","lat":43.30597,"lon":5.393711,"is_reserved":false,"is_disabled":true,"rental_uris":{"android":"levelo://app?vid=45256d6a-1e64-45d9-ad17-23151e1fdf1c","ios":"levelo://app?vid=45256d6a-1e64-45d9-ad17-23151e1fdf1c"},"vehicle_type_id":"4","last_reported":1743437538,"current_range_meters":0,"station_id":"ce4bguh2rcd13ifvqcj0","pricing_plan_id":"cebpf4jnsgd1na2vs0mg"},{"bike_id":"489e0d47-ced0-480d-9404-106a542fbb82","system_id":"levelo_inurba_marseille","lat":43.28704,"lon":5.37411,"is_reserved":false,"is_disabled":false,"rental_uris":{"android":"levelo://app?vid=489e0d47-ced0-480d-9404-106a542fbb82","ios":"levelo://app?vid=489e0d47-ced0-480d-9404-106a542fbb82"},"vehicle_type_id":"4","last_reported":1743437538,"current_range_meters":0,"station_id":"ce4bh3p2rcd13ifvqdq0","pricing_plan_id":"cebpf4jnsgd1na2vs0mg"},{"bike_id":"6452bdc7-25db-4390-9049-390005b1230d","system_id":"levelo_inurba_marseille","lat":43.28707,"lon":5.37399,"is_reserved":false,"is_disabled":true,"rental_uris":{"android":"levelo://app?vid=6452bdc7-25db-4390-9049-390005b1230d","ios":"levelo://app?vid=6452bdc7-25db-4390-9049-390005b1230d"},"vehicle_type_id":"4","last_reported":1743437538,"current_range_meters":0,"station_id":"ce4bh3p2rcd13ifvqdq0","pricing_plan_id":"cebpf4jnsgd1na2vs0mg"},{"bike_id":"685e3499-53ad-4e3b-9472-de984b2398f0","system_id":"levelo_inurba_marseille","lat":43.28424,"lon":5.37521,"is_reserved":false,"is_disabled":true,"rental_uris":{"android":"levelo://app?vid=685e3499-53ad-4e3b-9472-de984b2398f0","ios":"levelo://app?vid=685e3499-53ad-4e3b-9472-de984b2398f0"},"vehicle_type_id":"4","last_reported":1743437538,"current_range_meters":0,"station_id":"ce4bh412rcd13ifvqds0","pricing_plan_id":"cebpf4jnsgd1na2vs0mg"},{"bike_id":"51494a1a-d5a8-40c1-800e-b755b2f15097","system_id":"levelo_inurba_marseille","lat":43.28476,"lon":5.38419,"is_reserved":false,"is_disabled":true,"rental_uris":{"android":"levelo://app?vid=51494a1a-d5a8-40c1-800e-b755b2f15097","ios":"levelo://app?vid=51494a1a-d5a8-40c1-800e-b755b2f15097"},"vehicle_type_id":"4","last_reported":1743437538,"current_range_meters":0,"station_id":"ce4bh512rcd13ifvqe3g","pricing_plan_id":"cebpf4jnsgd1na2vs0mg"},{"bike_id":"4c209dcf-6020-4cba-849c-076e6d544ba5","system_id":"levelo_inurba_marseille","lat":43.2906,"lon":5.35907,"is_reserved":false,"is_disabled":true,"rental_uris":{"android":"levelo://app?vid=4c209dcf-6020-4cba-849c-076e6d544ba5","ios":"levelo://app?vid=4c209dcf-6020-4cba-849c-076e6d544ba5"},"vehicle_type_id":"4","last_reported":1743437538,"current_range_meters":0,"station_id":"ce4bha92rcd13ifvqeg0","pricing_plan_id":"cebpf4jnsgd1na2vs0mg"},{"bike_id":"b102984b-9e7d-4b46-94ce-f38186fa3f52","system_id":"levelo_inurba_marseille","lat":43.273701,"lon":5.362629,"is_reserved":false,"is_disabled":true,"rental_uris":{"android":"levelo://app?vid=b102984b-9e7d-4b46-94ce-f38186fa3f52","ios":"levelo://app?vid=b102984b-9e7d-4b46-94ce-f38186fa3f52"},"vehicle_type_id":"4","last_reported":1743437538,"current_range_meters":0,"station_id":"ce4bhbh2rcd13ifvqeo0","pricing_plan_id":"cebpf4jnsgd1na2vs0mg"},{"bike_id":"7655067e-46e0-48ba-aecb-f9bea46ab0d5","system_id":"levelo_inurba_marseille","lat":43.26206,"lon":5.37449,"is_reserved":false,"is_disabled":true,"rental_uris":{"android":"levelo://app?vid=7655067e-46e0-48ba-aecb-f9bea46ab0d5","ios":"levelo://app?vid=7655067e-46e0-48ba-aecb-f9bea46ab0d5"},"vehicle_type_id":"4","last_reported":1743437538,"current_range_meters":0,"station_id":"ce4bhgp2rcd13ifvqfc0","pricing_plan_id":"cebpf4jnsgd1na2vs0mg"},{"bike_id":"d383e0bd-3dde-4646-b174-47f9418f74fe","system_id":"levelo_inurba_marseille","lat":43.273237,"lon":5.39095,"is_reserved":false,"is_disabled":true,"rental_uris":{"android":"levelo://app?vid=d383e0bd-3dde-4646-b174-47f9418f74fe","ios":"levelo://app?vid=d383e0bd-3dde-4646-b174-47f9418f74fe"},"vehicle_type_id":"4","last_reported":1743437538,"current_range_meters":0,"station_id":"ce4bhgp2rcd13ifvqfe0","pricing_plan_id":"cebpf4jnsgd1na2vs0mg"},{"bike_id":"bee9e6a2-2318-4d81-9c88-e089a4cb45c3","system_id":"levelo_inurba_marseille","lat":43.32481,"lon":5.36574,"is_reserved":false,"is_disabled":true,"rental_uris":{"android":"levelo://app?vid=bee9e6a2-2318-4d81-9c88-e089a4cb45c3","ios":"levelo://app?vid=bee9e6a2-2318-4d81-9c88-e089a4cb45c3"},"vehicle_type_id":"4","last_reported":1743437538,"current_range_meters":0,"station_id":"ce4bhs12rcd13ifvqhvg","pricing_plan_id":"cebpf4jnsgd1na2vs0mg"},{"bike_id":"7a16227c-8b85-46e8-a87c-8349c4711248","system_id":"levelo_inurba_marseille","lat":43.28141,"lon":5.44592,"is_reserved":false,"is_disabled":true,"rental_uris":{"android":"levelo://app?vid=7a16227c-8b85-46e8-a87c-8349c4711248","ios":"levelo://app?vid=7a16227c-8b85-46e8-a87c-8349c4711248"},"vehicle_type_id":"4","last_reported":1743437538,"current_range_meters":400,"station_id":"","pricing_plan_id":"cebpf4jnsgd1na2vs0mg"},{"bike_id":"bc7a5cfb-36e5-4bd1-960f-e5fda6a6227a","system_id":"levelo_inurba_marseille","lat":43.30661,"lon":5.40071,"is_reserved":false,"is_disabled":true,"rental_uris":{"android":"levelo://app?vid=bc7a5cfb-36e5-4bd1-960f-e5fda6a6227a","ios":"levelo://app?vid=bc7a5cfb-36e5-4bd1-960f-e5fda6a6227a"},"vehicle_type_id":"4","last_reported":1743437538,"current_range_meters":400,"station_id":"ce4bh112rcd13ifvqda0","pricing_plan_id":"cebpf4jnsgd1na2vs0mg"},{"bike_id":"10f6636b-df36-4896-b539-114106ff6ded","system_id":"levelo_inurba_marseille","lat":43.29535,"lon":5.39033,"is_reserved":false,"is_disabled":true,"rental_uris":{"android":"levelo://app?vid=10f6636b-df36-4896-b539-114106ff6ded","ios":"levelo://app?vid=10f6636b-df36-4896-b539-114106ff6ded"},"vehicle_type_id":"4","last_reported":1743437538,"current_range_meters":400,"station_id":"ce4bh3p2rcd13ifvqdp0","pricing_plan_id":"cebpf4jnsgd1na2vs0mg"},{"bike_id":"d34b543c-c92a-4d83-8484-c2d5fe30d198","system_id":"levelo_inurba_marseille","lat":43.22001,"lon":5.34607,"is_reserved":false,"is_disabled":true,"rental_uris":{"android":"levelo://app?vid=d34b543c-c92a-4d83-8484-c2d5fe30d198","ios":"levelo://app?vid=d34b543c-c92a-4d83-8484-c2d5fe30d198"},"vehicle_type_id":"4","last_reported":1743437538,"current_range_meters":800,"station_id":"","pricing_plan_id":"cebpf4jnsgd1na2vs0mg"},{"bike_id":"509453da-be15-443f-ae43-fe68fee77843","system_id":"levelo_inurba_marseille","lat":43.314923,"lon":5.373134,"is_reserved":false,"is_disabled":true,"rental_uris":{"android":"levelo://app?vid=509453da-be15-443f-ae43-fe68fee77843","ios":"levelo://app?vid=509453da-be15-443f-ae43-fe68fee77843"},"vehicle_type_id":"4","last_reported":1743437538,"current_range_meters":800,"station_id":"ce4bgt12rcd13ifvqcd0","pricing_plan_id":"cebpf4jnsgd1na2vs0mg"},{"bike_id":"e2cfe811-c3ed-4796-9943-6a0d6d14506c","system_id":"levelo_inurba_marseille","lat":43.27376,"lon":5.36268,"is_reserved":false,"is_disabled":true,"rental_uris":{"android":"levelo://app?vid=e2cfe811-c3ed-4796-9943-6a0d6d14506c","ios":"levelo://app?vid=e2cfe811-c3ed-4796-9943-6a0d6d14506c"},"vehicle_type_id":"4","last_reported":1743437538,"current_range_meters":800,"station_id":"ce4bhbh2rcd13ifvqeo0","pricing_plan_id":"cebpf4jnsgd1na2vs0mg"},{"bike_id":"8db7bfec-4262-4a84-9b10-18edd40a5a65","system_id":"levelo_inurba_marseille","lat":43.27377,"lon":5.36252,"is_reserved":false,"is_disabled":true,"rental_uris":{"android":"levelo://app?vid=8db7bfec-4262-4a84-9b10-18edd40a5a65","ios":"levelo://app?vid=8db7bfec-4262-4a84-9b10-18edd40a5a65"},"vehicle_type_id":"4","last_reported":1743437538,"current_range_meters":800,"station_id":"ce4bhbh2rcd13ifvqeo0","pricing_plan_id":"cebpf4jnsgd1na2vs0mg"},{"bike_id":"47c5440c-2f68-43dc-b464-f277b059096b","system_id":"levelo_inurba_marseille","lat":43.27912,"lon":5.39577,"is_reserved":false,"is_disabled":true,"rental_uris":{"android":"levelo://app?vid=47c5440c-2f68-43dc-b464-f277b059096b","ios":"levelo://app?vid=47c5440c-2f68-43dc-b464-f277b059096b"},"vehicle_type_id":"4","last_reported":1743437538,"current_range_meters":800,"station_id":"ce4bhf92rcd13ifvqf40","pricing_plan_id":"cebpf4jnsgd1na2vs0mg"},{"bike_id":"7a348cf5-efd3-45da-87b0-df96c8714a98","system_id":"levelo_inurba_marseille","lat":43.2845,"lon":5.39199,"is_reserved":false,"is_disabled":true,"rental_uris":{"android":"levelo://app?vid=7a348cf5-efd3-45da-87b0-df96c8714a98","ios":"levelo://app?vid=7a348cf5-efd3-45da-87b0-df96c8714a98"},"vehicle_type_id":"4","last_reported":1743437538,"current_range_meters":800,"station_id":"ce4bhoh2rcd13ifvqh5g","pricing_plan_id":"cebpf4jnsgd1na2vs0mg"},{"bike_id":"99190cc4-6904-4dee-8b40-76f42a2cd476","system_id":"levelo_inurba_marseille","lat":43.280027,"lon":5.40016,"is_reserved":false,"is_disabled":true,"rental_uris":{"android":"levelo://app?vid=99190cc4-6904-4dee-8b40-76f42a2cd476","ios":"levelo://app?vid=99190cc4-6904-4dee-8b40-76f42a2cd476"},"vehicle_type_id":"4","last_reported":1743437538,"current_range_meters":1200,"station_id":"","pricing_plan_id":"cebpf4jnsgd1na2vs0mg"},{"bike_id":"5b3317e2-ce4d-4867-a93b-a544e1acc1fa","system_id":"levelo_inurba_marseille","lat":43.30102,"lon":5.38262,"is_reserved":false,"is_disabled":true,"rental_uris":{"android":"levelo://app?vid=5b3317e2-ce4d-4867-a93b-a544e1acc1fa","ios":"levelo://app?vid=5b3317e2-ce4d-4867-a93b-a544e1acc1fa"},"vehicle_type_id":"4","last_reported":1743437538,"current_range_meters":1200,"station_id":"ce4bgup2rcd13ifvqcn0","pricing_plan_id":"cebpf4jnsgd1na2vs0mg"},{"bike_id":"4a1cdce7-2a4f-410e-84ec-7b00d32c8591","system_id":"levelo_inurba_marseille","lat":43.273771,"lon":5.362571,"is_reserved":false,"is_disabled":true,"rental_uris":{"android":"levelo://app?vid=4a1cdce7-2a4f-410e-84ec-7b00d32c8591","ios":"levelo://app?vid=4a1cdce7-2a4f-410e-84ec-7b00d32c8591"},"vehicle_type_id":"4","last_reported":1743437538,"current_range_meters":1200,"station_id":"ce4bhbh2rcd13ifvqeo0","pricing_plan_id":"cebpf4jnsgd1na2vs0mg"},{"bike_id":"f54c1973-7968-4cf7-8b72-eaf8d7ca540b","system_id":"levelo_inurba_marseille","lat":43.256997,"lon":5.411104,"is_reserved":false,"is_disabled":true,"rental_uris":{"android":"levelo://app?vid=f54c1973-7968-4cf7-8b72-eaf8d7ca540b","ios":"levelo://app?vid=f54c1973-7968-4cf7-8b72-eaf8d7ca540b"},"vehicle_type_id":"4","last_reported":1743437538,"current_range_meters":1200,"station_id":"ce4bhkp2rcd13ifvqgd0","pricing_plan_id":"cebpf4jnsgd1na2vs0mg"},{"bike_id":"c5232bbb-eca5-4700-870e-3fdfdec26a56","system_id":"levelo_inurba_marseille","lat":43.27183,"lon":5.40995,"is_reserved":false,"is_disabled":true,"rental_uris":{"android":"levelo://app?vid=c5232bbb-eca5-4700-870e-3fdfdec26a56","ios":"levelo://app?vid=c5232bbb-eca5-4700-870e-3fdfdec26a56"},"vehicle_type_id":"4","last_reported":1743437538,"current_range_meters":1200,"station_id":"ce4bhl12rcd13ifvqgf0","pricing_plan_id":"cebpf4jnsgd1na2vs0mg"},{"bike_id":"1d9319ec-83a8-4424-ade9-522969802e4f","system_id":"levelo_inurba_marseille","lat":43.29881,"lon":5.43661,"is_reserved":false,"is_disabled":true,"rental_uris":{"android":"levelo://app?vid=1d9319ec-83a8-4424-ade9-522969802e4f","ios":"levelo://app?vid=1d9319ec-83a8-4424-ade9-522969802e4f"},"vehicle_type_id":"4","last_reported":1743437538,"current_range_meters":1200,"station_id":"ce4bhpp2rcd13ifvqhfg","pricing_plan_id":"cebpf4jnsgd1na2vs0mg"},{"bike_id":"7606db27-cc8e-4d0d-b995-7849f5a70a5e","system_id":"levelo_inurba_marseille","lat":43.32034,"lon":5.38169,"is_reserved":false,"is_disabled":true,"rental_uris":{"android":"levelo://app?vid=7606db27-cc8e-4d0d-b995-7849f5a70a5e","ios":"levelo://app?vid=7606db27-cc8e-4d0d-b995-7849f5a70a5e"},"vehicle_type_id":"4","last_reported":1743437538,"current_range_meters":1200,"station_id":"ce4bhr12rcd13ifvqhpg","pricing_plan_id":"cebpf4jnsgd1na2vs0mg"},{"bike_id":"7c07071e-68ba-48b9-b431-26cb6c62ac42","system_id":"levelo_inurba_marseille","lat":43.3098,"lon":5.40473,"is_reserved":false,"is_disabled":true,"rental_uris":{"android":"levelo://app?vid=7c07071e-68ba-48b9-b431-26cb6c62ac42","ios":"levelo://app?vid=7c07071e-68ba-48b9-b431-26cb6c62ac42"},"vehicle_type_id":"4","last_reported":1743437538,"current_range_meters":1600,"station_id":"","pricing_plan_id":"cebpf4jnsgd1na2vs0mg"},{"bike_id":"0f712a53-8b96-4518-a3d6-5e98cc5903c8","system_id":"levelo_inurba_marseille","lat":43.28814,"lon":5.39876,"is_reserved":false,"is_disabled":true,"rental_uris":{"android":"levelo://app?vid=0f712a53-8b96-4518-a3d6-5e98cc5903c8","ios":"levelo://app?vid=0f712a53-8b96-4518-a3d6-5e98cc5903c8"},"vehicle_type_id":"4","last_reported":1743437538,"current_range_meters":1600,"station_id":"","pricing_plan_id":"cebpf4jnsgd1na2vs0mg"},{"bike_id":"dddda827-278d-44b5-8ece-511ccd7bde29","system_id":"levelo_inurba_marseille","lat":43.3095,"lon":5.39045,"is_reserved":false,"is_disabled":true,"rental_uris":{"android":"levelo://app?vid=dddda827-278d-44b5-8ece-511ccd7bde29","ios":"levelo://app?vid=dddda827-278d-44b5-8ece-511ccd7bde29"},"vehicle_type_id":"4","last_reported":1743437538,"current_range_meters":1600,"station_id":"ce4bgup2rcd13ifvqco0","pricing_plan_id":"cebpf4jnsgd1na2vs0mg"},{"bike_id":"5bbdd795-4a31-455b-b5da-50f812a2d0a0","system_id":"levelo_inurba_marseille","lat":43.27641,"lon":5.3585,"is_reserved":false,"is_disabled":true,"rental_uris":{"android":"levelo://app?vid=5bbdd795-4a31-455b-b5da-50f812a2d0a0","ios":"levelo://app?vid=5bbdd795-4a31-455b-b5da-50f812a2d0a0"},"vehicle_type_id":"4","last_reported":1743437538,"current_range_meters":2000,"station_id":"","pricing_plan_id":"cebpf4jnsgd1na2vs0mg"},{"bike_id":"0cee8e26-6b49-4785-b054-ed02ed91cc78","system_id":"levelo_inurba_marseille","lat":43.300003,"lon":5.400416,"is_reserved":false,"is_disabled":true,"rental_uris":{"android":"levelo://app?vid=0cee8e26-6b49-4785-b054-ed02ed91cc78","ios":"levelo://app?vid=0cee8e26-6b49-4785-b054-ed02ed91cc78"},"vehicle_type_id":"4","last_reported":1743437538,"current_range_meters":2000,"station_id":"ce4bh0h2rcd13ifvqd60","pricing_plan_id":"cebpf4jnsgd1na2vs0mg"},{"bike_id":"50848d9c-5d31-49f7-9c63-60b3caf81505","system_id":"levelo_inurba_marseille","lat":43.28974,"lon":5.37835,"is_reserved":false,"is_disabled":true,"rental_uris":{"android":"levelo://app?vid=50848d9c-5d31-49f7-9c63-60b3caf81505","ios":"levelo://app?vid=50848d9c-5d31-49f7-9c63-60b3caf81505"},"vehicle_type_id":"4","last_reported":1743437538,"current_range_meters":2000,"station_id":"ce4bh9p2rcd13ifvqed0","pricing_plan_id":"cebpf4jnsgd1na2vs0mg"},{"bike_id":"364d4e89-1edf-48e7-97a6-d3bae916611d","system_id":"levelo_inurba_marseille","lat":43.29021,"lon":5.35609,"is_reserved":false,"is_disabled":true,"rental_uris":{"android":"levelo://app?vid=364d4e89-1edf-48e7-97a6-d3bae916611d","ios":"levelo://app?vid=364d4e89-1edf-48e7-97a6-d3bae916611d"},"vehicle_type_id":"4","last_reported":1743437538,"current_range_meters":2000,"station_id":"ce4bhb92rcd13ifvqen0","pricing_plan_id":"cebpf4jnsgd1na2vs0mg"},{"bike_id":"8a94938b-3bd5-436e-bf09-e1dedb393054","system_id":"levelo_inurba_marseille","lat":43.25578,"lon":5.38219,"is_reserved":false,"is_disabled":true,"rental_uris":{"android":"levelo://app?vid=8a94938b-3bd5-436e-bf09-e1dedb393054","ios":"levelo://app?vid=8a94938b-3bd5-436e-bf09-e1dedb393054"},"vehicle_type_id":"4","last_reported":1743437538,"current_range_meters":2000,"station_id":"ce4bhih2rcd13ifvqfs0","pricing_plan_id":"cebpf4jnsgd1na2vs0mg"},{"bike_id":"62c55fa3-0da7-40b6-9630-2ef59d468e09","system_id":"levelo_inurba_marseille","lat":43.281512,"lon":5.426447,"is_reserved":false,"is_disabled":false,"rental_uris":{"android":"levelo://app?vid=62c55fa3-0da7-40b6-9630-2ef59d468e09","ios":"levelo://app?vid=62c55fa3-0da7-40b6-9630-2ef59d468e09"},"vehicle_type_id":"4","last_reported":1743437538,"current_range_meters":2000,"station_id":"ce4bhnh2rcd13ifvqgug","pricing_plan_id":"cebpf4jnsgd1na2vs0mg"},{"bike_id":"22a915dd-804c-4c8d-95ae-ce0a3422a1e2","system_id":"levelo_inurba_marseille","lat":43.281536,"lon":5.426518,"is_reserved":false,"is_disabled":true,"rental_uris":{"android":"levelo://app?vid=22a915dd-804c-4c8d-95ae-ce0a3422a1e2","ios":"levelo://app?vid=22a915dd-804c-4c8d-95ae-ce0a3422a1e2"},"vehicle_type_id":"4","last_reported":1743437538,"current_range_meters":2000,"station_id":"ce4bhnh2rcd13ifvqgug","pricing_plan_id":"cebpf4jnsgd1na2vs0mg"},{"bike_id":"96ac20e8-5840-4579-b371-184ec6253952","system_id":"levelo_inurba_marseille","lat":43.27509,"lon":5.4115,"is_reserved":false,"is_disabled":false,"rental_uris":{"android":"levelo://app?vid=96ac20e8-5840-4579-b371-184ec6253952","ios":"levelo://app?vid=96ac20e8-5840-4579-b371-184ec6253952"},"vehicle_type_id":"4","last_reported":1743437538,"current_range_meters":2800,"station_id":"","pricing_plan_id":"cebpf4jnsgd1na2vs0mg"},{"bike_id":"de1ff2b0-227a-4bb1-b7e1-d319f4a30710","system_id":"levelo_inurba_marseille","lat":43.284811,"lon":5.385623,"is_reserved":false,"is_disabled":false,"rental_uris":{"android":"levelo://app?vid=de1ff2b0-227a-4bb1-b7e1-d319f4a30710","ios":"levelo://app?vid=de1ff2b0-227a-4bb1-b7e1-d319f4a30710"},"vehicle_type_id":"4","last_reported":1743437538,"current_range_meters":2800,"station_id":"ce4bh8p2rcd13ifvqeb0","pricing_plan_id":"cebpf4jnsgd1na2vs0mg"},{"bike_id":"52100acd-afd8-4029-b2a9-316112878733","system_id":"levelo_inurba_marseille","lat":43.290283,"lon":5.386516,"is_reserved":false,"is_disabled":false,"rental_uris":{"android":"levelo://app?vid=52100acd-afd8-4029-b2a9-316112878733","ios":"levelo://app?vid=52100acd-afd8-4029-b2a9-316112878733"},"vehicle_type_id":"4","last_reported":1743437538,"current_range_meters":2800,"station_id":"ce4bhgp2rcd13ifvqfe0","pricing_plan_id":"cebpf4jnsgd1na2vs0mg"},{"bike_id":"bba2f3be-65c6-4fa8-a939-40b3072ff1c3","system_id":"levelo_inurba_marseille","lat":43.25498,"lon":5.37664,"is_reserved":false,"is_disabled":false,"rental_uris":{"android":"levelo://app?vid=bba2f3be-65c6-4fa8-a939-40b3072ff1c3","ios":"levelo://app?vid=bba2f3be-65c6-4fa8-a939-40b3072ff1c3"},"vehicle_type_id":"4","last_reported":1743437538,"current_range_meters":2800,"station_id":"ce4bhh12rcd13ifvqff0","pricing_plan_id":"cebpf4jnsgd1na2vs0mg"},{"bike_id":"66aad412-cd18-4780-8f5d-16f5bf6f10eb","system_id":"levelo_inurba_marseille","lat":43.31995,"lon":5.38172,"is_reserved":false,"is_disabled":false,"rental_uris":{"android":"levelo://app?vid=66aad412-cd18-4780-8f5d-16f5bf6f10eb","ios":"levelo://app?vid=66aad412-cd18-4780-8f5d-16f5bf6f10eb"},"vehicle_type_id":"4","last_reported":1743437538,"current_range_meters":3200,"station_id":"ce4bhr12rcd13ifvqhpg","pricing_plan_id":"cebpf4jnsgd1na2vs0mg"},{"bike_id":"5c52a543-a1ee-46ae-8bf5-26d089a7923e","system_id":"levelo_inurba_marseille","lat":43.32294,"lon":5.38288,"is_reserved":false,"is_disabled":false,"rental_uris":{"android":"levelo://app?vid=5c52a543-a1ee-46ae-8bf5-26d089a7923e","ios":"levelo://app?vid=5c52a543-a1ee-46ae-8bf5-26d089a7923e"},"vehicle_type_id":"4","last_reported":1743437538,"current_range_meters":3200,"station_id":"ce4bhr12rcd13ifvqhqg","pricing_plan_id":"cebpf4jnsgd1na2vs0mg"},{"bike_id":"bc8dcc8a-2d10-40c0-9625-d88e9e5ff3e9","system_id":"levelo_inurba_marseille","lat":43.23068,"lon":5.35491,"is_reserved":false,"is_disabled":false,"rental_uris":{"android":"levelo://app?vid=bc8dcc8a-2d10-40c0-9625-d88e9e5ff3e9","ios":"levelo://app?vid=bc8dcc8a-2d10-40c0-9625-d88e9e5ff3e9"},"vehicle_type_id":"4","last_reported":1743437538,"current_range_meters":3200,"station_id":"cpo3342slgdg3j2ifvpg","pricing_plan_id":"cebpf4jnsgd1na2vs0mg"},{"bike_id":"d0ed36b4-3c5a-4da6-8fb4-955c321dd03a","system_id":"levelo_inurba_marseille","lat":43.27526,"lon":5.41026,"is_reserved":false,"is_disabled":false,"rental_uris":{"android":"levelo://app?vid=d0ed36b4-3c5a-4da6-8fb4-955c321dd03a","ios":"levelo://app?vid=d0ed36b4-3c5a-4da6-8fb4-955c321dd03a"},"vehicle_type_id":"4","last_reported":1743437538,"current_range_meters":3600,"station_id":"","pricing_plan_id":"cebpf4jnsgd1na2vs0mg"},{"bike_id":"e2c7e4c0-d1ae-4901-a2df-4ddc418b458d","system_id":"levelo_inurba_marseille","lat":43.29261,"lon":5.40914,"is_reserved":false,"is_disabled":false,"rental_uris":{"android":"levelo://app?vid=e2c7e4c0-d1ae-4901-a2df-4ddc418b458d","ios":"levelo://app?vid=e2c7e4c0-d1ae-4901-a2df-4ddc418b458d"},"vehicle_type_id":"4","last_reported":1743437538,"current_range_meters":3600,"station_id":"ce4bh192rcd13ifvqdc0","pricing_plan_id":"cebpf4jnsgd1na2vs0mg"},{"bike_id":"d8a34909-acd6-4de4-be95-0ef9913ecce6","system_id":"levelo_inurba_marseille","lat":43.287,"lon":5.37402,"is_reserved":false,"is_disabled":false,"rental_uris":{"android":"levelo://app?vid=d8a34909-acd6-4de4-be95-0ef9913ecce6","ios":"levelo://app?vid=d8a34909-acd6-4de4-be95-0ef9913ecce6"},"vehicle_type_id":"4","last_reported":1743437538,"current_range_meters":3600,"station_id":"ce4bh3p2rcd13ifvqdq0","pricing_plan_id":"cebpf4jnsgd1na2vs0mg"},{"bike_id":"beed6011-ab3a-47b5-937e-6d442cf8eb30","system_id":"levelo_inurba_marseille","lat":43.29025,"lon":5.38652,"is_reserved":false,"is_disabled":false,"rental_uris":{"android":"levelo://app?vid=beed6011-ab3a-47b5-937e-6d442cf8eb30","ios":"levelo://app?vid=beed6011-ab3a-47b5-937e-6d442cf8eb30"},"vehicle_type_id":"4","last_reported":1743437538,"current_range_meters":4000,"station_id":"ce4bh4p2rcd13ifvqe0g","pricing_plan_id":"cebpf4jnsgd1na2vs0mg"},{"bike_id":"198eba0f-f1bc-4006-ac8d-f4269718918d","system_id":"levelo_inurba_marseille","lat":43.29276,"lon":5.38461,"is_reserved":false,"is_disabled":false,"rental_uris":{"android":"levelo://app?vid=198eba0f-f1bc-4006-ac8d-f4269718918d","ios":"levelo://app?vid=198eba0f-f1bc-4006-ac8d-f4269718918d"},"vehicle_type_id":"4","last_reported":1743437538,"current_range_meters":4000,"station_id":"ce4bh692rcd13ifvqea0","pricing_plan_id":"cebpf4jnsgd1na2vs0mg"},{"bike_id":"038a8d6f-975f-4e00-9d91-45e3b1965bd6","system_id":"levelo_inurba_marseille","lat":43.30419,"lon":5.41287,"is_reserved":false,"is_disabled":false,"rental_uris":{"android":"levelo://app?vid=038a8d6f-975f-4e00-9d91-45e3b1965bd6","ios":"levelo://app?vid=038a8d6f-975f-4e00-9d91-45e3b1965bd6"},"vehicle_type_id":"4","last_reported":1743437538,"current_range_meters":4000,"station_id":"ce4bhop2rcd13ifvqh8g","pricing_plan_id":"cebpf4jnsgd1na2vs0mg"},{"bike_id":"384b53be-0dd1-4ff6-96b3-76e22c52ec3c","system_id":"levelo_inurba_marseille","lat":43.27688,"lon":5.41913,"is_reserved":false,"is_disabled":false,"rental_uris":{"android":"levelo://app?vid=384b53be-0dd1-4ff6-96b3-76e22c52ec3c","ios":"levelo://app?vid=384b53be-0dd1-4ff6-96b3-76e22c52ec3c"},"vehicle_type_id":"4","last_reported":1743437538,"current_range_meters":4400,"station_id":"","pricing_plan_id":"cebpf4jnsgd1na2vs0mg"},{"bike_id":"3c4c0f94-42ff-4d1d-9111-5bcbcc31c4f4","system_id":"levelo_inurba_marseille","lat":43.27378,"lon":5.36257,"is_reserved":false,"is_disabled":false,"rental_uris":{"android":"levelo://app?vid=3c4c0f94-42ff-4d1d-9111-5bcbcc31c4f4","ios":"levelo://app?vid=3c4c0f94-42ff-4d1d-9111-5bcbcc31c4f4"},"vehicle_type_id":"4","last_reported":1743437538,"current_range_meters":4400,"station_id":"ce4bhbh2rcd13ifvqeo0","pricing_plan_id":"cebpf4jnsgd1na2vs0mg"},{"bike_id":"c7de85c8-23de-438b-aff3-a28ddd73d774","system_id":"levelo_inurba_marseille","lat":43.27942,"lon":5.41047,"is_reserved":false,"is_disabled":false,"rental_uris":{"android":"levelo://app?vid=c7de85c8-23de-438b-aff3-a28ddd73d774","ios":"levelo://app?vid=c7de85c8-23de-438b-aff3-a28ddd73d774"},"vehicle_type_id":"4","last_reported":1743437538,"current_range_meters":4400,"station_id":"ce4bhnp2rcd13ifvqh0g","pricing_plan_id":"cebpf4jnsgd1na2vs0mg"},{"bike_id":"961ccc4e-5600-4f15-8499-7936cfa27861","system_id":"levelo_inurba_marseille","lat":43.30896,"lon":5.37322,"is_reserved":false,"is_disabled":false,"rental_uris":{"android":"levelo://app?vid=961ccc4e-5600-4f15-8499-7936cfa27861","ios":"levelo://app?vid=961ccc4e-5600-4f15-8499-7936cfa27861"},"vehicle_type_id":"4","last_reported":1743437538,"current_range_meters":4800,"station_id":"","pricing_plan_id":"cebpf4jnsgd1na2vs0mg"},{"bike_id":"24af8ac9-81f3-4506-a700-68af2919827c","system_id":"levelo_inurba_marseille","lat":43.31125,"lon":5.37779,"is_reserved":false,"is_disabled":false,"rental_uris":{"android":"levelo://app?vid=24af8ac9-81f3-4506-a700-68af2919827c","ios":"levelo://app?vid=24af8ac9-81f3-4506-a700-68af2919827c"},"vehicle_type_id":"4","last_reported":1743437538,"current_range_meters":4800,"station_id":"ce4bgt92rcd13ifvqcg0","pricing_plan_id":"cebpf4jnsgd1na2vs0mg"},{"bike_id":"ebca59fa-7939-4fbf-b819-a3967af34520","system_id":"levelo_inurba_marseille","lat":43.30435,"lon":5.39743,"is_reserved":false,"is_disabled":false,"rental_uris":{"android":"levelo://app?vid=ebca59fa-7939-4fbf-b819-a3967af34520","ios":"levelo://app?vid=ebca59fa-7939-4fbf-b819-a3967af34520"},"vehicle_type_id":"4","last_reported":1743437538,"current_range_meters":4800,"station_id":"ce4bh092rcd13ifvqd20","pricing_plan_id":"cebpf4jnsgd1na2vs0mg"},{"bike_id":"9aeb9f8a-b44f-47bc-85ba-b79099039b3e","system_id":"levelo_inurba_marseille","lat":43.28471,"lon":5.35878,"is_reserved":false,"is_disabled":false,"rental_uris":{"android":"levelo://app?vid=9aeb9f8a-b44f-47bc-85ba-b79099039b3e","ios":"levelo://app?vid=9aeb9f8a-b44f-47bc-85ba-b79099039b3e"},"vehicle_type_id":"4","last_reported":1743437538,"current_range_meters":4800,"station_id":"ce4bhah2rcd13ifvqei0","pricing_plan_id":"cebpf4jnsgd1na2vs0mg"},{"bike_id":"e82a15f8-3928-40c1-a7ae-86e9dbd7f200","system_id":"levelo_inurba_marseille","lat":43.28455,"lon":5.3921,"is_reserved":false,"is_disabled":false,"rental_uris":{"android":"levelo://app?vid=e82a15f8-3928-40c1-a7ae-86e9dbd7f200","ios":"levelo://app?vid=e82a15f8-3928-40c1-a7ae-86e9dbd7f200"},"vehicle_type_id":"4","last_reported":1743437538,"current_range_meters":4800,"station_id":"ce4bhoh2rcd13ifvqh5g","pricing_plan_id":"cebpf4jnsgd1na2vs0mg"},{"bike_id":"5307d179-6b96-45fd-9670-17d1459d8fc6","system_id":"levelo_inurba_marseille","lat":43.30645,"lon":5.40089,"is_reserved":false,"is_disabled":false,"rental_uris":{"android":"levelo://app?vid=5307d179-6b96-45fd-9670-17d1459d8fc6","ios":"levelo://app?vid=5307d179-6b96-45fd-9670-17d1459d8fc6"},"vehicle_type_id":"4","last_reported":1743437538,"current_range_meters":5600,"station_id":"ce4bh112rcd13ifvqda0","pricing_plan_id":"cebpf4jnsgd1na2vs0mg"},{"bike_id":"0b840063-883e-4d4f-bf67-7a02689975ff","system_id":"levelo_inurba_marseille","lat":43.301184,"lon":5.398548,"is_reserved":false,"is_disabled":false,"rental_uris":{"android":"levelo://app?vid=0b840063-883e-4d4f-bf67-7a02689975ff","ios":"levelo://app?vid=0b840063-883e-4d4f-bf67-7a02689975ff"},"vehicle_type_id":"4","last_reported":1743437538,"current_range_meters":5600,"station_id":"ce4bh2p2rcd13ifvqdi0","pricing_plan_id":"cebpf4jnsgd1na2vs0mg"},{"bike_id":"121b211d-8186-4d8f-8214-209db19c0ff7","system_id":"levelo_inurba_marseille","lat":43.2903,"lon":5.38649,"is_reserved":false,"is_disabled":false,"rental_uris":{"android":"levelo://app?vid=121b211d-8186-4d8f-8214-209db19c0ff7","ios":"levelo://app?vid=121b211d-8186-4d8f-8214-209db19c0ff7"},"vehicle_type_id":"4","last_reported":1743437538,"current_range_meters":5600,"station_id":"ce4bh4p2rcd13ifvqe0g","pricing_plan_id":"cebpf4jnsgd1na2vs0mg"},{"bike_id":"ced147e0-8075-4eb4-af3a-e3db6d8138bd","system_id":"levelo_inurba_marseille","lat":43.28041,"lon":5.36956,"is_reserved":false,"is_disabled":false,"rental_uris":{"android":"levelo://app?vid=ced147e0-8075-4eb4-af3a-e3db6d8138bd","ios":"levelo://app?vid=ced147e0-8075-4eb4-af3a-e3db6d8138bd"},"vehicle_type_id":"4","last_reported":1743437538,"current_range_meters":5600,"station_id":"ce4bha12rcd13ifvqef0","pricing_plan_id":"cebpf4jnsgd1na2vs0mg"},{"bike_id":"72fdb279-423e-49c8-a30b-f406d7440799","system_id":"levelo_inurba_marseille","lat":43.27377,"lon":5.36264,"is_reserved":false,"is_disabled":false,"rental_uris":{"android":"levelo://app?vid=72fdb279-423e-49c8-a30b-f406d7440799","ios":"levelo://app?vid=72fdb279-423e-49c8-a30b-f406d7440799"},"vehicle_type_id":"4","last_reported":1743437538,"current_range_meters":5600,"station_id":"ce4bhbh2rcd13ifvqeo0","pricing_plan_id":"cebpf4jnsgd1na2vs0mg"},{"bike_id":"283b1f55-1fd6-4030-ab9a-c6e4794d3d65","system_id":"levelo_inurba_marseille","lat":43.275623,"lon":5.384281,"is_reserved":false,"is_disabled":false,"rental_uris":{"android":"levelo://app?vid=283b1f55-1fd6-4030-ab9a-c6e4794d3d65","ios":"levelo://app?vid=283b1f55-1fd6-4030-ab9a-c6e4794d3d65"},"vehicle_type_id":"4","last_reported":1743437538,"current_range_meters":5600,"station_id":"ce4bhh92rcd13ifvqfi0","pricing_plan_id":"cebpf4jnsgd1na2vs0mg"},{"bike_id":"c45a2939-f3d3-4c55-8774-5b23828508a6","system_id":"levelo_inurba_marseille","lat":43.269705,"lon":5.401602,"is_reserved":false,"is_disabled":false,"rental_uris":{"android":"levelo://app?vid=c45a2939-f3d3-4c55-8774-5b23828508a6","ios":"levelo://app?vid=c45a2939-f3d3-4c55-8774-5b23828508a6"},"vehicle_type_id":"4","last_reported":1743437538,"current_range_meters":5600,"station_id":"cjm6bp8fraef2m0cb0m0","pricing_plan_id":"cebpf4jnsgd1na2vs0mg"},{"bike_id":"18a0240a-4b66-4de0-8774-60a112f77be3","system_id":"levelo_inurba_marseille","lat":43.3127,"lon":5.3689,"is_reserved":false,"is_disabled":false,"rental_uris":{"android":"levelo://app?vid=18a0240a-4b66-4de0-8774-60a112f77be3","ios":"levelo://app?vid=18a0240a-4b66-4de0-8774-60a112f77be3"},"vehicle_type_id":"4","last_reported":1743437538,"current_range_meters":6000,"station_id":"","pricing_plan_id":"cebpf4jnsgd1na2vs0mg"},{"bike_id":"6e6a66e5-58ca-4db1-9695-b46ed5c28827","system_id":"levelo_inurba_marseille","lat":43.2901,"lon":5.35632,"is_reserved":false,"is_disabled":false,"rental_uris":{"android":"levelo://app?vid=6e6a66e5-58ca-4db1-9695-b46ed5c28827","ios":"levelo://app?vid=6e6a66e5-58ca-4db1-9695-b46ed5c28827"},"vehicle_type_id":"4","last_reported":1743437538,"current_range_meters":6000,"station_id":"","pricing_plan_id":"cebpf4jnsgd1na2vs0mg"},{"bike_id":"fae292b7-fa17-499c-9f0f-9a5456f611a7","system_id":"levelo_inurba_marseille","lat":43.29877,"lon":5.39742,"is_reserved":false,"is_disabled":false,"rental_uris":{"android":"levelo://app?vid=fae292b7-fa17-499c-9f0f-9a5456f611a7","ios":"levelo://app?vid=fae292b7-fa17-499c-9f0f-9a5456f611a7"},"vehicle_type_id":"4","last_reported":1743437538,"current_range_meters":6000,"station_id":"ce4bh0h2rcd13ifvqd50","pricing_plan_id":"cebpf4jnsgd1na2vs0mg"},{"bike_id":"6abfcf76-b46b-48ec-9741-222295465860","system_id":"levelo_inurba_marseille","lat":43.28587,"lon":5.3707,"is_reserved":false,"is_disabled":false,"rental_uris":{"android":"levelo://app?vid=6abfcf76-b46b-48ec-9741-222295465860","ios":"levelo://app?vid=6abfcf76-b46b-48ec-9741-222295465860"},"vehicle_type_id":"4","last_reported":1743437538,"current_range_meters":6000,"station_id":"ce4bh312rcd13ifvqdj0","pricing_plan_id":"cebpf4jnsgd1na2vs0mg"},{"bike_id":"71ab42a7-7964-4b34-ba13-ddd5b05d2353","system_id":"levelo_inurba_marseille","lat":43.2907,"lon":5.372303,"is_reserved":false,"is_disabled":false,"rental_uris":{"android":"levelo://app?vid=71ab42a7-7964-4b34-ba13-ddd5b05d2353","ios":"levelo://app?vid=71ab42a7-7964-4b34-ba13-ddd5b05d2353"},"vehicle_type_id":"4","last_reported":1743437538,"current_range_meters":6000,"station_id":"ce4bh5p2rcd13ifvqe4g","pricing_plan_id":"cebpf4jnsgd1na2vs0mg"},{"bike_id":"700fc2e2-88a4-4627-8337-fc3b3aacf804","system_id":"levelo_inurba_marseille","lat":43.2739,"lon":5.36274,"is_reserved":false,"is_disabled":false,"rental_uris":{"android":"levelo://app?vid=700fc2e2-88a4-4627-8337-fc3b3aacf804","ios":"levelo://app?vid=700fc2e2-88a4-4627-8337-fc3b3aacf804"},"vehicle_type_id":"4","last_reported":1743437538,"current_range_meters":6000,"station_id":"ce4bhbh2rcd13ifvqeo0","pricing_plan_id":"cebpf4jnsgd1na2vs0mg"},{"bike_id":"90e5c4ef-cce8-4321-b130-35e5db903364","system_id":"levelo_inurba_marseille","lat":43.26563,"lon":5.37298,"is_reserved":false,"is_disabled":false,"rental_uris":{"android":"levelo://app?vid=90e5c4ef-cce8-4321-b130-35e5db903364","ios":"levelo://app?vid=90e5c4ef-cce8-4321-b130-35e5db903364"},"vehicle_type_id":"4","last_reported":1743437538,"current_range_meters":6000,"station_id":"ce4bhg12rcd13ifvqf70","pricing_plan_id":"cebpf4jnsgd1na2vs0mg"},{"bike_id":"2e02620c-75ad-4485-a177-bfb681b696ae","system_id":"levelo_inurba_marseille","lat":43.2954,"lon":5.38549,"is_reserved":false,"is_disabled":false,"rental_uris":{"android":"levelo://app?vid=2e02620c-75ad-4485-a177-bfb681b696ae","ios":"levelo://app?vid=2e02620c-75ad-4485-a177-bfb681b696ae"},"vehicle_type_id":"4","last_reported":1743437538,"current_range_meters":6400,"station_id":"ce4bgih2rcd13ifvqba0","pricing_plan_id":"cebpf4jnsgd1na2vs0mg"},{"bike_id":"8314e1cc-f2e7-4456-9c27-166c0eba2a7a","system_id":"levelo_inurba_marseille","lat":43.29929,"lon":5.36513,"is_reserved":false,"is_disabled":false,"rental_uris":{"android":"levelo://app?vid=8314e1cc-f2e7-4456-9c27-166c0eba2a7a","ios":"levelo://app?vid=8314e1cc-f2e7-4456-9c27-166c0eba2a7a"},"vehicle_type_id":"4","last_reported":1743437538,"current_range_meters":6400,"station_id":"ce4bgm92rcd13ifvqbr0","pricing_plan_id":"cebpf4jnsgd1na2vs0mg"},{"bike_id":"8880d93c-08aa-4ab1-90e1-f1cb4919b176","system_id":"levelo_inurba_marseille","lat":43.304463,"lon":5.39743,"is_reserved":false,"is_disabled":false,"rental_uris":{"android":"levelo://app?vid=8880d93c-08aa-4ab1-90e1-f1cb4919b176","ios":"levelo://app?vid=8880d93c-08aa-4ab1-90e1-f1cb4919b176"},"vehicle_type_id":"4","last_reported":1743437538,"current_range_meters":6400,"station_id":"ce4bh092rcd13ifvqd20","pricing_plan_id":"cebpf4jnsgd1na2vs0mg"},{"bike_id":"0b48fa24-b20e-45a2-ab4d-117d635d0a38","system_id":"levelo_inurba_marseille","lat":43.28103,"lon":5.37836,"is_reserved":false,"is_disabled":false,"rental_uris":{"android":"levelo://app?vid=0b48fa24-b20e-45a2-ab4d-117d635d0a38","ios":"levelo://app?vid=0b48fa24-b20e-45a2-ab4d-117d635d0a38"},"vehicle_type_id":"4","last_reported":1743437538,"current_range_meters":6400,"station_id":"ce4bha12rcd13ifvqee0","pricing_plan_id":"cebpf4jnsgd1na2vs0mg"},{"bike_id":"c1debdb4-7edf-4859-bc33-13b555f96ae8","system_id":"levelo_inurba_marseille","lat":43.27385,"lon":5.36261,"is_reserved":false,"is_disabled":false,"rental_uris":{"android":"levelo://app?vid=c1debdb4-7edf-4859-bc33-13b555f96ae8","ios":"levelo://app?vid=c1debdb4-7edf-4859-bc33-13b555f96ae8"},"vehicle_type_id":"4","last_reported":1743437538,"current_range_meters":6400,"station_id":"ce4bhbh2rcd13ifvqeo0","pricing_plan_id":"cebpf4jnsgd1na2vs0mg"},{"bike_id":"a5cd7f0b-07e1-4789-a50d-f22857b318bb","system_id":"levelo_inurba_marseille","lat":43.28622,"lon":5.35108,"is_reserved":false,"is_disabled":false,"rental_uris":{"android":"levelo://app?vid=a5cd7f0b-07e1-4789-a50d-f22857b318bb","ios":"levelo://app?vid=a5cd7f0b-07e1-4789-a50d-f22857b318bb"},"vehicle_type_id":"4","last_reported":1743437538,"current_range_meters":6400,"station_id":"ce4bhch2rcd13ifvqeug","pricing_plan_id":"cebpf4jnsgd1na2vs0mg"},{"bike_id":"a38cf9c1-2a49-430a-a16d-eac9c7236c9c","system_id":"levelo_inurba_marseille","lat":43.251149,"lon":5.40321,"is_reserved":false,"is_disabled":false,"rental_uris":{"android":"levelo://app?vid=a38cf9c1-2a49-430a-a16d-eac9c7236c9c","ios":"levelo://app?vid=a38cf9c1-2a49-430a-a16d-eac9c7236c9c"},"vehicle_type_id":"4","last_reported":1743437538,"current_range_meters":6400,"station_id":"ce4bhlh2rcd13ifvqgig","pricing_plan_id":"cebpf4jnsgd1na2vs0mg"},{"bike_id":"a0c4a4d5-69b8-48c3-bbdb-159453c47c0f","system_id":"levelo_inurba_marseille","lat":43.28085,"lon":5.39601,"is_reserved":false,"is_disabled":false,"rental_uris":{"android":"levelo://app?vid=a0c4a4d5-69b8-48c3-bbdb-159453c47c0f","ios":"levelo://app?vid=a0c4a4d5-69b8-48c3-bbdb-159453c47c0f"},"vehicle_type_id":"4","last_reported":1743437538,"current_range_meters":6800,"station_id":"","pricing_plan_id":"cebpf4jnsgd1na2vs0mg"},{"bike_id":"cb2d8b13-0aa1-4f5a-ad5a-0f99ef2a66e3","system_id":"levelo_inurba_marseille","lat":43.31064,"lon":5.38346,"is_reserved":false,"is_disabled":false,"rental_uris":{"android":"levelo://app?vid=cb2d8b13-0aa1-4f5a-ad5a-0f99ef2a66e3","ios":"levelo://app?vid=cb2d8b13-0aa1-4f5a-ad5a-0f99ef2a66e3"},"vehicle_type_id":"4","last_reported":1743437538,"current_range_meters":6800,"station_id":"ce4bgv92rcd13ifvqcr0","pricing_plan_id":"cebpf4jnsgd1na2vs0mg"},{"bike_id":"02044c7f-2ede-4a7f-ad8d-34d035769dcf","system_id":"levelo_inurba_marseille","lat":43.29204,"lon":5.3581,"is_reserved":false,"is_disabled":false,"rental_uris":{"android":"levelo://app?vid=02044c7f-2ede-4a7f-ad8d-34d035769dcf","ios":"levelo://app?vid=02044c7f-2ede-4a7f-ad8d-34d035769dcf"},"vehicle_type_id":"4","last_reported":1743437538,"current_range_meters":6800,"station_id":"ce4bhb12rcd13ifvqel0","pricing_plan_id":"cebpf4jnsgd1na2vs0mg"},{"bike_id":"5cb79fbb-77fd-4094-b2ac-552c3e45fb01","system_id":"levelo_inurba_marseille","lat":43.28417,"lon":5.3499,"is_reserved":false,"is_disabled":false,"rental_uris":{"android":"levelo://app?vid=5cb79fbb-77fd-4094-b2ac-552c3e45fb01","ios":"levelo://app?vid=5cb79fbb-77fd-4094-b2ac-552c3e45fb01"},"vehicle_type_id":"4","last_reported":1743437538,"current_range_meters":6800,"station_id":"ce4bhbh2rcd13ifvqepg","pricing_plan_id":"cebpf4jnsgd1na2vs0mg"},{"bike_id":"36291f21-10e9-409f-9c08-11a98fedd09d","system_id":"levelo_inurba_marseille","lat":43.265533,"lon":5.372866,"is_reserved":false,"is_disabled":false,"rental_uris":{"android":"levelo://app?vid=36291f21-10e9-409f-9c08-11a98fedd09d","ios":"levelo://app?vid=36291f21-10e9-409f-9c08-11a98fedd09d"},"vehicle_type_id":"4","last_reported":1743437538,"current_range_meters":6800,"station_id":"ce4bhg12rcd13ifvqf70","pricing_plan_id":"cebpf4jnsgd1na2vs0mg"},{"bike_id":"42a0c523-72b0-42e5-a3da-9a58d28d40f8","system_id":"levelo_inurba_marseille","lat":43.27178,"lon":5.40998,"is_reserved":false,"is_disabled":false,"rental_uris":{"android":"levelo://app?vid=42a0c523-72b0-42e5-a3da-9a58d28d40f8","ios":"levelo://app?vid=42a0c523-72b0-42e5-a3da-9a58d28d40f8"},"vehicle_type_id":"4","last_reported":1743437538,"current_range_meters":6800,"station_id":"ce4bhl12rcd13ifvqgf0","pricing_plan_id":"cebpf4jnsgd1na2vs0mg"},{"bike_id":"f235224d-7e3f-4181-b735-ee8b8a4f563f","system_id":"levelo_inurba_marseille","lat":43.31692,"lon":5.373687,"is_reserved":false,"is_disabled":false,"rental_uris":{"android":"levelo://app?vid=f235224d-7e3f-4181-b735-ee8b8a4f563f","ios":"levelo://app?vid=f235224d-7e3f-4181-b735-ee8b8a4f563f"},"vehicle_type_id":"4","last_reported":1743437538,"current_range_meters":6800,"station_id":"ce4bhsp2rcd13ifvqi50","pricing_plan_id":"cebpf4jnsgd1na2vs0mg"},{"bike_id":"c342eef9-f083-4c40-a3b4-fc49c0589712","system_id":"levelo_inurba_marseille","lat":43.23065,"lon":5.35489,"is_reserved":false,"is_disabled":false,"rental_uris":{"android":"levelo://app?vid=c342eef9-f083-4c40-a3b4-fc49c0589712","ios":"levelo://app?vid=c342eef9-f083-4c40-a3b4-fc49c0589712"},"vehicle_type_id":"4","last_reported":1743437538,"current_range_meters":6800,"station_id":"cpo3342slgdg3j2ifvpg","pricing_plan_id":"cebpf4jnsgd1na2vs0mg"},{"bike_id":"16e7f770-184c-4ea9-9e79-0a841585d5e5","system_id":"levelo_inurba_marseille","lat":43.30295,"lon":5.392141,"is_reserved":false,"is_disabled":false,"rental_uris":{"android":"levelo://app?vid=16e7f770-184c-4ea9-9e79-0a841585d5e5","ios":"levelo://app?vid=16e7f770-184c-4ea9-9e79-0a841585d5e5"},"vehicle_type_id":"4","last_reported":1743437538,"current_range_meters":7200,"station_id":"ce4bh012rcd13ifvqcv0","pricing_plan_id":"cebpf4jnsgd1na2vs0mg"},{"bike_id":"7281ae64-3795-472f-9d73-2fd8fdf0b15c","system_id":"levelo_inurba_marseille","lat":43.29426,"lon":5.38622,"is_reserved":false,"is_disabled":false,"rental_uris":{"android":"levelo://app?vid=7281ae64-3795-472f-9d73-2fd8fdf0b15c","ios":"levelo://app?vid=7281ae64-3795-472f-9d73-2fd8fdf0b15c"},"vehicle_type_id":"4","last_reported":1743437538,"current_range_meters":7200,"station_id":"ce4bh2h2rcd13ifvqdh0","pricing_plan_id":"cebpf4jnsgd1na2vs0mg"},{"bike_id":"cff1a782-f357-4e47-825b-b3bbbd741616","system_id":"levelo_inurba_marseille","lat":43.283497,"lon":5.381069,"is_reserved":false,"is_disabled":false,"rental_uris":{"android":"levelo://app?vid=cff1a782-f357-4e47-825b-b3bbbd741616","ios":"levelo://app?vid=cff1a782-f357-4e47-825b-b3bbbd741616"},"vehicle_type_id":"4","last_reported":1743437538,"current_range_meters":7200,"station_id":"ce4bh412rcd13ifvqdr0","pricing_plan_id":"cebpf4jnsgd1na2vs0mg"},{"bike_id":"23d4f07c-739f-4dbe-85dd-dda7e3184f2f","system_id":"levelo_inurba_marseille","lat":43.29028,"lon":5.38646,"is_reserved":false,"is_disabled":false,"rental_uris":{"android":"levelo://app?vid=23d4f07c-739f-4dbe-85dd-dda7e3184f2f","ios":"levelo://app?vid=23d4f07c-739f-4dbe-85dd-dda7e3184f2f"},"vehicle_type_id":"4","last_reported":1743437538,"current_range_meters":7200,"station_id":"ce4bh4p2rcd13ifvqe0g","pricing_plan_id":"cebpf4jnsgd1na2vs0mg"},{"bike_id":"150fb73e-4e33-4a07-9752-e600c0f3009e","system_id":"levelo_inurba_marseille","lat":43.28166,"lon":5.42645,"is_reserved":false,"is_disabled":false,"rental_uris":{"android":"levelo://app?vid=150fb73e-4e33-4a07-9752-e600c0f3009e","ios":"levelo://app?vid=150fb73e-4e33-4a07-9752-e600c0f3009e"},"vehicle_type_id":"4","last_reported":1743437538,"current_range_meters":7200,"station_id":"ce4bhnh2rcd13ifvqgug","pricing_plan_id":"cebpf4jnsgd1na2vs0mg"},{"bike_id":"7865d8a4-b0c7-4d8d-aeac-e60f1ca769c8","system_id":"levelo_inurba_marseille","lat":43.28158,"lon":5.42659,"is_reserved":false,"is_disabled":false,"rental_uris":{"android":"levelo://app?vid=7865d8a4-b0c7-4d8d-aeac-e60f1ca769c8","ios":"levelo://app?vid=7865d8a4-b0c7-4d8d-aeac-e60f1ca769c8"},"vehicle_type_id":"4","last_reported":1743437538,"current_range_meters":7200,"station_id":"ce4bhnh2rcd13ifvqgug","pricing_plan_id":"cebpf4jnsgd1na2vs0mg"},{"bike_id":"5664cd51-8f46-4320-8083-3cabe0b8ea8d","system_id":"levelo_inurba_marseille","lat":43.28088,"lon":5.39624,"is_reserved":false,"is_disabled":false,"rental_uris":{"android":"levelo://app?vid=5664cd51-8f46-4320-8083-3cabe0b8ea8d","ios":"levelo://app?vid=5664cd51-8f46-4320-8083-3cabe0b8ea8d"},"vehicle_type_id":"4","last_reported":1743437538,"current_range_meters":7200,"station_id":"ce4bho12rcd13ifvqh2g","pricing_plan_id":"cebpf4jnsgd1na2vs0mg"},{"bike_id":"58ba954f-d3fd-4cac-abd2-623144afb52a","system_id":"levelo_inurba_marseille","lat":43.2293,"lon":5.35381,"is_reserved":false,"is_disabled":false,"rental_uris":{"android":"levelo://app?vid=58ba954f-d3fd-4cac-abd2-623144afb52a","ios":"levelo://app?vid=58ba954f-d3fd-4cac-abd2-623144afb52a"},"vehicle_type_id":"4","last_reported":1743437538,"current_range_meters":7200,"station_id":"cpo3532slgdg3j2ikp40","pricing_plan_id":"cebpf4jnsgd1na2vs0mg"},{"bike_id":"72c0eae1-21f4-4f5d-bbb1-c3a0363094f1","system_id":"levelo_inurba_marseille","lat":43.29943,"lon":5.36556,"is_reserved":false,"is_disabled":false,"rental_uris":{"android":"levelo://app?vid=72c0eae1-21f4-4f5d-bbb1-c3a0363094f1","ios":"levelo://app?vid=72c0eae1-21f4-4f5d-bbb1-c3a0363094f1"},"vehicle_type_id":"4","last_reported":1743437538,"current_range_meters":8000,"station_id":"ce4bgm92rcd13ifvqbr0","pricing_plan_id":"cebpf4jnsgd1na2vs0mg"},{"bike_id":"aa5b1114-0747-4cba-ab3e-d774fc66e16e","system_id":"levelo_inurba_marseille","lat":43.29699,"lon":5.36598,"is_reserved":false,"is_disabled":false,"rental_uris":{"android":"levelo://app?vid=aa5b1114-0747-4cba-ab3e-d774fc66e16e","ios":"levelo://app?vid=aa5b1114-0747-4cba-ab3e-d774fc66e16e"},"vehicle_type_id":"4","last_reported":1743437538,"current_range_meters":8000,"station_id":"ce4bgn12rcd13ifvqbt0","pricing_plan_id":"cebpf4jnsgd1na2vs0mg"},{"bike_id":"352af99e-abc0-4186-8cda-6ffeea075569","system_id":"levelo_inurba_marseille","lat":43.29266,"lon":5.40908,"is_reserved":false,"is_disabled":false,"rental_uris":{"android":"levelo://app?vid=352af99e-abc0-4186-8cda-6ffeea075569","ios":"levelo://app?vid=352af99e-abc0-4186-8cda-6ffeea075569"},"vehicle_type_id":"4","last_reported":1743437538,"current_range_meters":8000,"station_id":"ce4bh192rcd13ifvqdc0","pricing_plan_id":"cebpf4jnsgd1na2vs0mg"},{"bike_id":"41cc2619-6588-4fd8-81c5-eccbbd20d86c","system_id":"levelo_inurba_marseille","lat":43.29066,"lon":5.37169,"is_reserved":false,"is_disabled":false,"rental_uris":{"android":"levelo://app?vid=41cc2619-6588-4fd8-81c5-eccbbd20d86c","ios":"levelo://app?vid=41cc2619-6588-4fd8-81c5-eccbbd20d86c"},"vehicle_type_id":"4","last_reported":1743437538,"current_range_meters":8000,"station_id":"ce4bh5p2rcd13ifvqe4g","pricing_plan_id":"cebpf4jnsgd1na2vs0mg"},{"bike_id":"daef32c0-9907-48c4-af2a-8caabf901041","system_id":"levelo_inurba_marseille","lat":43.28628,"lon":5.3511,"is_reserved":false,"is_disabled":false,"rental_uris":{"android":"levelo://app?vid=daef32c0-9907-48c4-af2a-8caabf901041","ios":"levelo://app?vid=daef32c0-9907-48c4-af2a-8caabf901041"},"vehicle_type_id":"4","last_reported":1743437538,"current_range_meters":8000,"station_id":"ce4bhch2rcd13ifvqeug","pricing_plan_id":"cebpf4jnsgd1na2vs0mg"},{"bike_id":"dff39e82-80c5-4fb1-9dd1-23986fd00cf5","system_id":"levelo_inurba_marseille","lat":43.26563,"lon":5.3729,"is_reserved":false,"is_disabled":false,"rental_uris":{"android":"levelo://app?vid=dff39e82-80c5-4fb1-9dd1-23986fd00cf5","ios":"levelo://app?vid=dff39e82-80c5-4fb1-9dd1-23986fd00cf5"},"vehicle_type_id":"4","last_reported":1743437538,"current_range_meters":8000,"station_id":"ce4bhg12rcd13ifvqf70","pricing_plan_id":"cebpf4jnsgd1na2vs0mg"},{"bike_id":"6165c5e1-15f4-4779-ba2f-91df8ba3f8c0","system_id":"levelo_inurba_marseille","lat":43.28909,"lon":5.42997,"is_reserved":false,"is_disabled":false,"rental_uris":{"android":"levelo://app?vid=6165c5e1-15f4-4779-ba2f-91df8ba3f8c0","ios":"levelo://app?vid=6165c5e1-15f4-4779-ba2f-91df8ba3f8c0"},"vehicle_type_id":"4","last_reported":1743437538,"current_range_meters":8400,"station_id":"","pricing_plan_id":"cebpf4jnsgd1na2vs0mg"},{"bike_id":"204ecd7d-d79a-4494-8305-7c83c69add7d","system_id":"levelo_inurba_marseille","lat":43.2568,"lon":5.42006,"is_reserved":false,"is_disabled":false,"rental_uris":{"android":"levelo://app?vid=204ecd7d-d79a-4494-8305-7c83c69add7d","ios":"levelo://app?vid=204ecd7d-d79a-4494-8305-7c83c69add7d"},"vehicle_type_id":"4","last_reported":1743437538,"current_range_meters":8400,"station_id":"","pricing_plan_id":"cebpf4jnsgd1na2vs0mg"},{"bike_id":"f802fd31-4c9f-4371-ad9f-8c12d0466883","system_id":"levelo_inurba_marseille","lat":43.30606,"lon":5.37236,"is_reserved":false,"is_disabled":false,"rental_uris":{"android":"levelo://app?vid=f802fd31-4c9f-4371-ad9f-8c12d0466883","ios":"levelo://app?vid=f802fd31-4c9f-4371-ad9f-8c12d0466883"},"vehicle_type_id":"4","last_reported":1743437538,"current_range_meters":8400,"station_id":"ce4bgqh2rcd13ifvqc4g","pricing_plan_id":"cebpf4jnsgd1na2vs0mg"},{"bike_id":"86a94f48-b275-439b-a962-691df07d76e0","system_id":"levelo_inurba_marseille","lat":43.31369,"lon":5.38505,"is_reserved":false,"is_disabled":false,"rental_uris":{"android":"levelo://app?vid=86a94f48-b275-439b-a962-691df07d76e0","ios":"levelo://app?vid=86a94f48-b275-439b-a962-691df07d76e0"},"vehicle_type_id":"4","last_reported":1743437538,"current_range_meters":8400,"station_id":"ce4bgt92rcd13ifvqcf0","pricing_plan_id":"cebpf4jnsgd1na2vs0mg"},{"bike_id":"423a3260-c4fc-48cb-8854-39c587a3a476","system_id":"levelo_inurba_marseille","lat":43.31117,"lon":5.37791,"is_reserved":false,"is_disabled":false,"rental_uris":{"android":"levelo://app?vid=423a3260-c4fc-48cb-8854-39c587a3a476","ios":"levelo://app?vid=423a3260-c4fc-48cb-8854-39c587a3a476"},"vehicle_type_id":"4","last_reported":1743437538,"current_range_meters":8400,"station_id":"ce4bgt92rcd13ifvqcg0","pricing_plan_id":"cebpf4jnsgd1na2vs0mg"},{"bike_id":"87228ab0-610b-40f3-a9ff-9fffa091c478","system_id":"levelo_inurba_marseille","lat":43.3089,"lon":5.39632,"is_reserved":false,"is_disabled":false,"rental_uris":{"android":"levelo://app?vid=87228ab0-610b-40f3-a9ff-9fffa091c478","ios":"levelo://app?vid=87228ab0-610b-40f3-a9ff-9fffa091c478"},"vehicle_type_id":"4","last_reported":1743437538,"current_range_meters":8400,"station_id":"ce4bh012rcd13ifvqcv0","pricing_plan_id":"cebpf4jnsgd1na2vs0mg"},{"bike_id":"dcd1dcd5-97d1-47b8-81ed-96d9fd315261","system_id":"levelo_inurba_marseille","lat":43.30331,"lon":5.40443,"is_reserved":false,"is_disabled":false,"rental_uris":{"android":"levelo://app?vid=dcd1dcd5-97d1-47b8-81ed-96d9fd315261","ios":"levelo://app?vid=dcd1dcd5-97d1-47b8-81ed-96d9fd315261"},"vehicle_type_id":"4","last_reported":1743437538,"current_range_meters":8400,"station_id":"ce4bh012rcd13ifvqd10","pricing_plan_id":"cebpf4jnsgd1na2vs0mg"},{"bike_id":"81e21842-93a8-44ce-9ce9-5aa6fa157347","system_id":"levelo_inurba_marseille","lat":43.2987,"lon":5.39737,"is_reserved":false,"is_disabled":false,"rental_uris":{"android":"levelo://app?vid=81e21842-93a8-44ce-9ce9-5aa6fa157347","ios":"levelo://app?vid=81e21842-93a8-44ce-9ce9-5aa6fa157347"},"vehicle_type_id":"4","last_reported":1743437538,"current_range_meters":8400,"station_id":"ce4bh0h2rcd13ifvqd50","pricing_plan_id":"cebpf4jnsgd1na2vs0mg"},{"bike_id":"23fea1dd-0930-4fe8-8c03-361d721b033d","system_id":"levelo_inurba_marseille","lat":43.29028,"lon":5.38649,"is_reserved":false,"is_disabled":false,"rental_uris":{"android":"levelo://app?vid=23fea1dd-0930-4fe8-8c03-361d721b033d","ios":"levelo://app?vid=23fea1dd-0930-4fe8-8c03-361d721b033d"},"vehicle_type_id":"4","last_reported":1743437538,"current_range_meters":8400,"station_id":"ce4bh4p2rcd13ifvqe0g","pricing_plan_id":"cebpf4jnsgd1na2vs0mg"},{"bike_id":"8a423c5b-57f1-4052-9547-c2b64f34ded2","system_id":"levelo_inurba_marseille","lat":43.28277,"lon":5.35077,"is_reserved":false,"is_disabled":false,"rental_uris":{"android":"levelo://app?vid=8a423c5b-57f1-4052-9547-c2b64f34ded2","ios":"levelo://app?vid=8a423c5b-57f1-4052-9547-c2b64f34ded2"},"vehicle_type_id":"4","last_reported":1743437538,"current_range_meters":8400,"station_id":"ce4bhbp2rcd13ifvqerg","pricing_plan_id":"cebpf4jnsgd1na2vs0mg"},{"bike_id":"f50dd1be-9ee4-480d-920f-0721f0997798","system_id":"levelo_inurba_marseille","lat":43.2319,"lon":5.39999,"is_reserved":false,"is_disabled":false,"rental_uris":{"android":"levelo://app?vid=f50dd1be-9ee4-480d-920f-0721f0997798","ios":"levelo://app?vid=f50dd1be-9ee4-480d-920f-0721f0997798"},"vehicle_type_id":"4","last_reported":1743437538,"current_range_meters":8400,"station_id":"ce4bhn12rcd13ifvqgqg","pricing_plan_id":"cebpf4jnsgd1na2vs0mg"},{"bike_id":"fc004bbf-26ae-4867-967f-cc538b1ea52a","system_id":"levelo_inurba_marseille","lat":43.30541,"lon":5.38423,"is_reserved":false,"is_disabled":false,"rental_uris":{"android":"levelo://app?vid=fc004bbf-26ae-4867-967f-cc538b1ea52a","ios":"levelo://app?vid=fc004bbf-26ae-4867-967f-cc538b1ea52a"},"vehicle_type_id":"4","last_reported":1743437538,"current_range_meters":8800,"station_id":"ce4bgg92rcd13ifvqb30","pricing_plan_id":"cebpf4jnsgd1na2vs0mg"},{"bike_id":"c64f28dc-823c-4ec9-a2d9-53892f087f30","system_id":"levelo_inurba_marseille","lat":43.29933,"lon":5.37478,"is_reserved":false,"is_disabled":false,"rental_uris":{"android":"levelo://app?vid=c64f28dc-823c-4ec9-a2d9-53892f087f30","ios":"levelo://app?vid=c64f28dc-823c-4ec9-a2d9-53892f087f30"},"vehicle_type_id":"4","last_reported":1743437538,"current_range_meters":8800,"station_id":"ce4bgjh2rcd13ifvqbg0","pricing_plan_id":"cebpf4jnsgd1na2vs0mg"},{"bike_id":"ca0583b7-5669-4753-8262-d8e09aa9fe38","system_id":"levelo_inurba_marseille","lat":43.30558,"lon":5.36547,"is_reserved":false,"is_disabled":false,"rental_uris":{"android":"levelo://app?vid=ca0583b7-5669-4753-8262-d8e09aa9fe38","ios":"levelo://app?vid=ca0583b7-5669-4753-8262-d8e09aa9fe38"},"vehicle_type_id":"4","last_reported":1743437538,"current_range_meters":8800,"station_id":"ce4bgs12rcd13ifvqcag","pricing_plan_id":"cebpf4jnsgd1na2vs0mg"},{"bike_id":"07c33504-2284-44d4-a7b0-3ac565e0b359","system_id":"levelo_inurba_marseille","lat":43.31701,"lon":5.37741,"is_reserved":false,"is_disabled":false,"rental_uris":{"android":"levelo://app?vid=07c33504-2284-44d4-a7b0-3ac565e0b359","ios":"levelo://app?vid=07c33504-2284-44d4-a7b0-3ac565e0b359"},"vehicle_type_id":"4","last_reported":1743437538,"current_range_meters":8800,"station_id":"ce4bgth2rcd13ifvqch0","pricing_plan_id":"cebpf4jnsgd1na2vs0mg"},{"bike_id":"14741fc0-5bde-4188-90b0-1d4576dfdf0a","system_id":"levelo_inurba_marseille","lat":43.3025,"lon":5.40084,"is_reserved":false,"is_disabled":false,"rental_uris":{"android":"levelo://app?vid=14741fc0-5bde-4188-90b0-1d4576dfdf0a","ios":"levelo://app?vid=14741fc0-5bde-4188-90b0-1d4576dfdf0a"},"vehicle_type_id":"4","last_reported":1743437538,"current_range_meters":8800,"station_id":"ce4bgvh2rcd13ifvqcs0","pricing_plan_id":"cebpf4jnsgd1na2vs0mg"},{"bike_id":"b2382d2d-98f1-4599-885f-c47c6d91315d","system_id":"levelo_inurba_marseille","lat":43.288658,"lon":5.38226,"is_reserved":false,"is_disabled":false,"rental_uris":{"android":"levelo://app?vid=b2382d2d-98f1-4599-885f-c47c6d91315d","ios":"levelo://app?vid=b2382d2d-98f1-4599-885f-c47c6d91315d"},"vehicle_type_id":"4","last_reported":1743437538,"current_range_meters":8800,"station_id":"ce4bh612rcd13ifvqe6g","pricing_plan_id":"cebpf4jnsgd1na2vs0mg"},{"bike_id":"caed7f48-bc91-421d-a1ca-d6038f5337f1","system_id":"levelo_inurba_marseille","lat":43.29018,"lon":5.356374,"is_reserved":false,"is_disabled":false,"rental_uris":{"android":"levelo://app?vid=caed7f48-bc91-421d-a1ca-d6038f5337f1","ios":"levelo://app?vid=caed7f48-bc91-421d-a1ca-d6038f5337f1"},"vehicle_type_id":"4","last_reported":1743437538,"current_range_meters":8800,"station_id":"ce4bhb92rcd13ifvqen0","pricing_plan_id":"cebpf4jnsgd1na2vs0mg"},{"bike_id":"fea7ab93-0f90-49e8-b915-eb27838a4f0f","system_id":"levelo_inurba_marseille","lat":43.33039,"lon":5.39045,"is_reserved":false,"is_disabled":false,"rental_uris":{"android":"levelo://app?vid=fea7ab93-0f90-49e8-b915-eb27838a4f0f","ios":"levelo://app?vid=fea7ab93-0f90-49e8-b915-eb27838a4f0f"},"vehicle_type_id":"4","last_reported":1743437538,"current_range_meters":8800,"station_id":"ce4bhr92rcd13ifvqhrg","pricing_plan_id":"cebpf4jnsgd1na2vs0mg"},{"bike_id":"121010d1-d0ea-475b-97a6-f9054736109c","system_id":"levelo_inurba_marseille","lat":43.23219,"lon":5.39979,"is_reserved":false,"is_disabled":false,"rental_uris":{"android":"levelo://app?vid=121010d1-d0ea-475b-97a6-f9054736109c","ios":"levelo://app?vid=121010d1-d0ea-475b-97a6-f9054736109c"},"vehicle_type_id":"4","last_reported":1743437538,"current_range_meters":9200,"station_id":"ce4bhn12rcd13ifvqgqg","pricing_plan_id":"cebpf4jnsgd1na2vs0mg"},{"bike_id":"5203ccbe-ce3c-4351-a8e9-f9ee5ad38a9c","system_id":"levelo_inurba_marseille","lat":43.23193,"lon":5.39998,"is_reserved":false,"is_disabled":false,"rental_uris":{"android":"levelo://app?vid=5203ccbe-ce3c-4351-a8e9-f9ee5ad38a9c","ios":"levelo://app?vid=5203ccbe-ce3c-4351-a8e9-f9ee5ad38a9c"},"vehicle_type_id":"4","last_reported":1743437538,"current_range_meters":9200,"station_id":"ce4bhn12rcd13ifvqgqg","pricing_plan_id":"cebpf4jnsgd1na2vs0mg"},{"bike_id":"673336ae-a575-4218-b539-ae13537955fd","system_id":"levelo_inurba_marseille","lat":43.281523,"lon":5.426019,"is_reserved":false,"is_disabled":false,"rental_uris":{"android":"levelo://app?vid=673336ae-a575-4218-b539-ae13537955fd","ios":"levelo://app?vid=673336ae-a575-4218-b539-ae13537955fd"},"vehicle_type_id":"4","last_reported":1743437538,"current_range_meters":9200,"station_id":"ce4bhnh2rcd13ifvqgug","pricing_plan_id":"cebpf4jnsgd1na2vs0mg"},{"bike_id":"06948df7-6d1a-4428-b9d1-4e10d8e143d2","system_id":"levelo_inurba_marseille","lat":43.27961,"lon":5.41037,"is_reserved":false,"is_disabled":false,"rental_uris":{"android":"levelo://app?vid=06948df7-6d1a-4428-b9d1-4e10d8e143d2","ios":"levelo://app?vid=06948df7-6d1a-4428-b9d1-4e10d8e143d2"},"vehicle_type_id":"4","last_reported":1743437538,"current_range_meters":9200,"station_id":"ce4bhnp2rcd13ifvqh0g","pricing_plan_id":"cebpf4jnsgd1na2vs0mg"},{"bike_id":"c09f37f3-bfb7-4b26-920d-a14dc0486ef4","system_id":"levelo_inurba_marseille","lat":43.2835,"lon":5.39788,"is_reserved":false,"is_disabled":false,"rental_uris":{"android":"levelo://app?vid=c09f37f3-bfb7-4b26-920d-a14dc0486ef4","ios":"levelo://app?vid=c09f37f3-bfb7-4b26-920d-a14dc0486ef4"},"vehicle_type_id":"4","last_reported":1743437538,"current_range_meters":9600,"station_id":"","pricing_plan_id":"cebpf4jnsgd1na2vs0mg"},{"bike_id":"0f8f638f-6c59-4dfb-ab4f-882d40e453aa","system_id":"levelo_inurba_marseille","lat":43.29267,"lon":5.42767,"is_reserved":false,"is_disabled":false,"rental_uris":{"android":"levelo://app?vid=0f8f638f-6c59-4dfb-ab4f-882d40e453aa","ios":"levelo://app?vid=0f8f638f-6c59-4dfb-ab4f-882d40e453aa"},"vehicle_type_id":"4","last_reported":1743437538,"current_range_meters":9600,"station_id":"","pricing_plan_id":"cebpf4jnsgd1na2vs0mg"},{"bike_id":"b7f627de-60e2-48f5-b53e-6e952a04325d","system_id":"levelo_inurba_marseille","lat":43.29785,"lon":5.37095,"is_reserved":false,"is_disabled":false,"rental_uris":{"android":"levelo://app?vid=b7f627de-60e2-48f5-b53e-6e952a04325d","ios":"levelo://app?vid=b7f627de-60e2-48f5-b53e-6e952a04325d"},"vehicle_type_id":"4","last_reported":1743437538,"current_range_meters":9600,"station_id":"ce4bgop2rcd13ifvqc1g","pricing_plan_id":"cebpf4jnsgd1na2vs0mg"},{"bike_id":"3f72974e-7c57-4e9f-8963-7300aee74f7c","system_id":"levelo_inurba_marseille","lat":43.2919,"lon":5.3932,"is_reserved":false,"is_disabled":false,"rental_uris":{"android":"levelo://app?vid=3f72974e-7c57-4e9f-8963-7300aee74f7c","ios":"levelo://app?vid=3f72974e-7c57-4e9f-8963-7300aee74f7c"},"vehicle_type_id":"4","last_reported":1743437538,"current_range_meters":9600,"station_id":"ce4bh192rcd13ifvqdd0","pricing_plan_id":"cebpf4jnsgd1na2vs0mg"},{"bike_id":"cd4c796a-dd7d-4683-aa9e-b566ad8e8a64","system_id":"levelo_inurba_marseille","lat":43.28634,"lon":5.35128,"is_reserved":false,"is_disabled":false,"rental_uris":{"android":"levelo://app?vid=cd4c796a-dd7d-4683-aa9e-b566ad8e8a64","ios":"levelo://app?vid=cd4c796a-dd7d-4683-aa9e-b566ad8e8a64"},"vehicle_type_id":"4","last_reported":1743437538,"current_range_meters":9600,"station_id":"ce4bhch2rcd13ifvqeug","pricing_plan_id":"cebpf4jnsgd1na2vs0mg"},{"bike_id":"832b78c7-163d-4fe8-8519-fb710a4c44a5","system_id":"levelo_inurba_marseille","lat":43.27918,"lon":5.39577,"is_reserved":false,"is_disabled":false,"rental_uris":{"android":"levelo://app?vid=832b78c7-163d-4fe8-8519-fb710a4c44a5","ios":"levelo://app?vid=832b78c7-163d-4fe8-8519-fb710a4c44a5"},"vehicle_type_id":"4","last_reported":1743437538,"current_range_meters":9600,"station_id":"ce4bhf92rcd13ifvqf40","pricing_plan_id":"cebpf4jnsgd1na2vs0mg"},{"bike_id":"443b1ee5-f3f9-4110-95a2-b62fcdfc5153","system_id":"levelo_inurba_marseille","lat":43.23063,"lon":5.35504,"is_reserved":false,"is_disabled":false,"rental_uris":{"android":"levelo://app?vid=443b1ee5-f3f9-4110-95a2-b62fcdfc5153","ios":"levelo://app?vid=443b1ee5-f3f9-4110-95a2-b62fcdfc5153"},"vehicle_type_id":"4","last_reported":1743437538,"current_range_meters":9600,"station_id":"cpo3342slgdg3j2ifvpg","pricing_plan_id":"cebpf4jnsgd1na2vs0mg"},{"bike_id":"2bf31f9f-c5c0-434c-ab3b-b017d7dc966d","system_id":"levelo_inurba_marseille","lat":43.230509,"lon":5.354946,"is_reserved":false,"is_disabled":false,"rental_uris":{"android":"levelo://app?vid=2bf31f9f-c5c0-434c-ab3b-b017d7dc966d","ios":"levelo://app?vid=2bf31f9f-c5c0-434c-ab3b-b017d7dc966d"},"vehicle_type_id":"4","last_reported":1743437538,"current_range_meters":9600,"station_id":"cpo3342slgdg3j2ifvpg","pricing_plan_id":"cebpf4jnsgd1na2vs0mg"},{"bike_id":"fbc1c0a9-d425-4eb3-ba26-c96313abb304","system_id":"levelo_inurba_marseille","lat":43.28626,"lon":5.35042,"is_reserved":false,"is_disabled":false,"rental_uris":{"android":"levelo://app?vid=fbc1c0a9-d425-4eb3-ba26-c96313abb304","ios":"levelo://app?vid=fbc1c0a9-d425-4eb3-ba26-c96313abb304"},"vehicle_type_id":"4","last_reported":1743437538,"current_range_meters":10000,"station_id":"","pricing_plan_id":"cebpf4jnsgd1na2vs0mg"},{"bike_id":"cf3b5042-5bf0-45cd-88f2-41cea7aa4aef","system_id":"levelo_inurba_marseille","lat":43.29194,"lon":5.39317,"is_reserved":false,"is_disabled":false,"rental_uris":{"android":"levelo://app?vid=cf3b5042-5bf0-45cd-88f2-41cea7aa4aef","ios":"levelo://app?vid=cf3b5042-5bf0-45cd-88f2-41cea7aa4aef"},"vehicle_type_id":"4","last_reported":1743437538,"current_range_meters":10000,"station_id":"ce4bh192rcd13ifvqdd0","pricing_plan_id":"cebpf4jnsgd1na2vs0mg"},{"bike_id":"00d7371a-6ec2-4f55-8445-d56cf095358d","system_id":"levelo_inurba_marseille","lat":43.2893,"lon":5.38396,"is_reserved":false,"is_disabled":false,"rental_uris":{"android":"levelo://app?vid=00d7371a-6ec2-4f55-8445-d56cf095358d","ios":"levelo://app?vid=00d7371a-6ec2-4f55-8445-d56cf095358d"},"vehicle_type_id":"4","last_reported":1743437538,"current_range_meters":10000,"station_id":"ce4bh612rcd13ifvqe6g","pricing_plan_id":"cebpf4jnsgd1na2vs0mg"},{"bike_id":"0e419eaf-f282-42a0-ae3d-1d01927fca4c","system_id":"levelo_inurba_marseille","lat":43.28946,"lon":5.38411,"is_reserved":false,"is_disabled":false,"rental_uris":{"android":"levelo://app?vid=0e419eaf-f282-42a0-ae3d-1d01927fca4c","ios":"levelo://app?vid=0e419eaf-f282-42a0-ae3d-1d01927fca4c"},"vehicle_type_id":"4","last_reported":1743437538,"current_range_meters":10000,"station_id":"ce4bh612rcd13ifvqe6g","pricing_plan_id":"cebpf4jnsgd1na2vs0mg"},{"bike_id":"a49051c8-5f06-4471-9ba7-c2f53f6d878a","system_id":"levelo_inurba_marseille","lat":43.28462,"lon":5.3501,"is_reserved":false,"is_disabled":false,"rental_uris":{"android":"levelo://app?vid=a49051c8-5f06-4471-9ba7-c2f53f6d878a","ios":"levelo://app?vid=a49051c8-5f06-4471-9ba7-c2f53f6d878a"},"vehicle_type_id":"4","last_reported":1743437538,"current_range_meters":10000,"station_id":"ce4bhbh2rcd13ifvqepg","pricing_plan_id":"cebpf4jnsgd1na2vs0mg"},{"bike_id":"ac59da97-04db-4246-b3db-46a3b78c86d8","system_id":"levelo_inurba_marseille","lat":43.27679,"lon":5.3889,"is_reserved":false,"is_disabled":false,"rental_uris":{"android":"levelo://app?vid=ac59da97-04db-4246-b3db-46a3b78c86d8","ios":"levelo://app?vid=ac59da97-04db-4246-b3db-46a3b78c86d8"},"vehicle_type_id":"4","last_reported":1743437538,"current_range_meters":10000,"station_id":"ce4bhi12rcd13ifvqfo0","pricing_plan_id":"cebpf4jnsgd1na2vs0mg"},{"bike_id":"8fa5fb11-10c8-4bed-b75c-83f4c72259ad","system_id":"levelo_inurba_marseille","lat":43.32362,"lon":5.36759,"is_reserved":false,"is_disabled":false,"rental_uris":{"android":"levelo://app?vid=8fa5fb11-10c8-4bed-b75c-83f4c72259ad","ios":"levelo://app?vid=8fa5fb11-10c8-4bed-b75c-83f4c72259ad"},"vehicle_type_id":"4","last_reported":1743437538,"current_range_meters":10000,"station_id":"ce4bhsh2rcd13ifvqi2g","pricing_plan_id":"cebpf4jnsgd1na2vs0mg"},{"bike_id":"91c235b0-9f6b-4394-b6ea-ce3e3b8058f1","system_id":"levelo_inurba_marseille","lat":43.24329,"lon":5.37025,"is_reserved":false,"is_disabled":false,"rental_uris":{"android":"levelo://app?vid=91c235b0-9f6b-4394-b6ea-ce3e3b8058f1","ios":"levelo://app?vid=91c235b0-9f6b-4394-b6ea-ce3e3b8058f1"},"vehicle_type_id":"4","last_reported":1743437538,"current_range_meters":10800,"station_id":"","pricing_plan_id":"cebpf4jnsgd1na2vs0mg"},{"bike_id":"0731f617-b22f-4f1c-8f66-61daecb37b43","system_id":"levelo_inurba_marseille","lat":43.31712,"lon":5.37753,"is_reserved":false,"is_disabled":false,"rental_uris":{"android":"levelo://app?vid=0731f617-b22f-4f1c-8f66-61daecb37b43","ios":"levelo://app?vid=0731f617-b22f-4f1c-8f66-61daecb37b43"},"vehicle_type_id":"4","last_reported":1743437538,"current_range_meters":10800,"station_id":"ce4bgth2rcd13ifvqch0","pricing_plan_id":"cebpf4jnsgd1na2vs0mg"},{"bike_id":"337248ed-fd87-4665-8a93-e625990452c6","system_id":"levelo_inurba_marseille","lat":43.29423,"lon":5.38632,"is_reserved":false,"is_disabled":false,"rental_uris":{"android":"levelo://app?vid=337248ed-fd87-4665-8a93-e625990452c6","ios":"levelo://app?vid=337248ed-fd87-4665-8a93-e625990452c6"},"vehicle_type_id":"4","last_reported":1743437538,"current_range_meters":10800,"station_id":"ce4bh2h2rcd13ifvqdh0","pricing_plan_id":"cebpf4jnsgd1na2vs0mg"},{"bike_id":"285fa790-3775-479b-9dc1-994f548672b5","system_id":"levelo_inurba_marseille","lat":43.28422,"lon":5.34997,"is_reserved":false,"is_disabled":false,"rental_uris":{"android":"levelo://app?vid=285fa790-3775-479b-9dc1-994f548672b5","ios":"levelo://app?vid=285fa790-3775-479b-9dc1-994f548672b5"},"vehicle_type_id":"4","last_reported":1743437538,"current_range_meters":10800,"station_id":"ce4bhbh2rcd13ifvqepg","pricing_plan_id":"cebpf4jnsgd1na2vs0mg"},{"bike_id":"a358dfe8-8e12-4102-9fc4-95ff5ba6904c","system_id":"levelo_inurba_marseille","lat":43.28628,"lon":5.35107,"is_reserved":false,"is_disabled":false,"rental_uris":{"android":"levelo://app?vid=a358dfe8-8e12-4102-9fc4-95ff5ba6904c","ios":"levelo://app?vid=a358dfe8-8e12-4102-9fc4-95ff5ba6904c"},"vehicle_type_id":"4","last_reported":1743437538,"current_range_meters":10800,"station_id":"ce4bhch2rcd13ifvqeug","pricing_plan_id":"cebpf4jnsgd1na2vs0mg"},{"bike_id":"32c116d0-ee62-493d-9417-2d53cb4f4209","system_id":"levelo_inurba_marseille","lat":43.2319,"lon":5.39964,"is_reserved":false,"is_disabled":false,"rental_uris":{"android":"levelo://app?vid=32c116d0-ee62-493d-9417-2d53cb4f4209","ios":"levelo://app?vid=32c116d0-ee62-493d-9417-2d53cb4f4209"},"vehicle_type_id":"4","last_reported":1743437538,"current_range_meters":10800,"station_id":"ce4bhn12rcd13ifvqgqg","pricing_plan_id":"cebpf4jnsgd1na2vs0mg"},{"bike_id":"ca05f809-27ed-4783-9e04-5c1be8e2db9d","system_id":"levelo_inurba_marseille","lat":43.27811,"lon":5.40702,"is_reserved":false,"is_disabled":false,"rental_uris":{"android":"levelo://app?vid=ca05f809-27ed-4783-9e04-5c1be8e2db9d","ios":"levelo://app?vid=ca05f809-27ed-4783-9e04-5c1be8e2db9d"},"vehicle_type_id":"4","last_reported":1743437538,"current_range_meters":10800,"station_id":"ce4bhnh2rcd13ifvqgtg","pricing_plan_id":"cebpf4jnsgd1na2vs0mg"},{"bike_id":"716b296b-5962-41ec-b187-d110d39fa7f5","system_id":"levelo_inurba_marseille","lat":43.28152,"lon":5.42639,"is_reserved":false,"is_disabled":false,"rental_uris":{"android":"levelo://app?vid=716b296b-5962-41ec-b187-d110d39fa7f5","ios":"levelo://app?vid=716b296b-5962-41ec-b187-d110d39fa7f5"},"vehicle_type_id":"4","last_reported":1743437538,"current_range_meters":10800,"station_id":"ce4bhnh2rcd13ifvqgug","pricing_plan_id":"cebpf4jnsgd1na2vs0mg"},{"bike_id":"6fa97106-103e-4571-85c0-458067ed9648","system_id":"levelo_inurba_marseille","lat":43.22932,"lon":5.35385,"is_reserved":false,"is_disabled":false,"rental_uris":{"android":"levelo://app?vid=6fa97106-103e-4571-85c0-458067ed9648","ios":"levelo://app?vid=6fa97106-103e-4571-85c0-458067ed9648"},"vehicle_type_id":"4","last_reported":1743437538,"current_range_meters":10800,"station_id":"cpo3532slgdg3j2ikp40","pricing_plan_id":"cebpf4jnsgd1na2vs0mg"},{"bike_id":"9a596c39-d4f6-4b89-b325-74dfc5dc9e36","system_id":"levelo_inurba_marseille","lat":43.29594,"lon":5.36754,"is_reserved":false,"is_disabled":false,"rental_uris":{"android":"levelo://app?vid=9a596c39-d4f6-4b89-b325-74dfc5dc9e36","ios":"levelo://app?vid=9a596c39-d4f6-4b89-b325-74dfc5dc9e36"},"vehicle_type_id":"4","last_reported":1743437538,"current_range_meters":11200,"station_id":"ce4bgph2rcd13ifvqc2g","pricing_plan_id":"cebpf4jnsgd1na2vs0mg"},{"bike_id":"e08cdf3b-038a-44ee-a15f-4650001e6aa9","system_id":"levelo_inurba_marseille","lat":43.29852,"lon":5.36267,"is_reserved":false,"is_disabled":false,"rental_uris":{"android":"levelo://app?vid=e08cdf3b-038a-44ee-a15f-4650001e6aa9","ios":"levelo://app?vid=e08cdf3b-038a-44ee-a15f-4650001e6aa9"},"vehicle_type_id":"4","last_reported":1743437538,"current_range_meters":11200,"station_id":"ce4bgpp2rcd13ifvqc3g","pricing_plan_id":"cebpf4jnsgd1na2vs0mg"},{"bike_id":"e3ed6a7b-116d-4bce-98f8-0c4519635233","system_id":"levelo_inurba_marseille","lat":43.31963,"lon":5.37428,"is_reserved":false,"is_disabled":false,"rental_uris":{"android":"levelo://app?vid=e3ed6a7b-116d-4bce-98f8-0c4519635233","ios":"levelo://app?vid=e3ed6a7b-116d-4bce-98f8-0c4519635233"},"vehicle_type_id":"4","last_reported":1743437538,"current_range_meters":11600,"station_id":"","pricing_plan_id":"cebpf4jnsgd1na2vs0mg"},{"bike_id":"d264d650-dbae-4130-931a-7ff551a8c668","system_id":"levelo_inurba_marseille","lat":43.29549,"lon":5.38543,"is_reserved":false,"is_disabled":false,"rental_uris":{"android":"levelo://app?vid=d264d650-dbae-4130-931a-7ff551a8c668","ios":"levelo://app?vid=d264d650-dbae-4130-931a-7ff551a8c668"},"vehicle_type_id":"4","last_reported":1743437538,"current_range_meters":11600,"station_id":"ce4bgih2rcd13ifvqba0","pricing_plan_id":"cebpf4jnsgd1na2vs0mg"},{"bike_id":"7c17100f-b29a-4243-8e13-cb859aa9a60f","system_id":"levelo_inurba_marseille","lat":43.30333,"lon":5.40455,"is_reserved":false,"is_disabled":false,"rental_uris":{"android":"levelo://app?vid=7c17100f-b29a-4243-8e13-cb859aa9a60f","ios":"levelo://app?vid=7c17100f-b29a-4243-8e13-cb859aa9a60f"},"vehicle_type_id":"4","last_reported":1743437538,"current_range_meters":11600,"station_id":"ce4bh012rcd13ifvqd10","pricing_plan_id":"cebpf4jnsgd1na2vs0mg"},{"bike_id":"781e4fad-e8e0-41bd-9fc7-1331b936d0b1","system_id":"levelo_inurba_marseille","lat":43.28407,"lon":5.34984,"is_reserved":false,"is_disabled":false,"rental_uris":{"android":"levelo://app?vid=781e4fad-e8e0-41bd-9fc7-1331b936d0b1","ios":"levelo://app?vid=781e4fad-e8e0-41bd-9fc7-1331b936d0b1"},"vehicle_type_id":"4","last_reported":1743437538,"current_range_meters":11600,"station_id":"ce4bhbh2rcd13ifvqepg","pricing_plan_id":"cebpf4jnsgd1na2vs0mg"},{"bike_id":"32786654-e0a5-4ead-8bb5-f56016b6a3a0","system_id":"levelo_inurba_marseille","lat":43.26065,"lon":5.39393,"is_reserved":false,"is_disabled":false,"rental_uris":{"android":"levelo://app?vid=32786654-e0a5-4ead-8bb5-f56016b6a3a0","ios":"levelo://app?vid=32786654-e0a5-4ead-8bb5-f56016b6a3a0"},"vehicle_type_id":"4","last_reported":1743437538,"current_range_meters":11600,"station_id":"ce4bhh92rcd13ifvqfj0","pricing_plan_id":"cebpf4jnsgd1na2vs0mg"},{"bike_id":"3f895de2-2183-4394-b765-01100c07ba9f","system_id":"levelo_inurba_marseille","lat":43.28002,"lon":5.40032,"is_reserved":false,"is_disabled":false,"rental_uris":{"android":"levelo://app?vid=3f895de2-2183-4394-b765-01100c07ba9f","ios":"levelo://app?vid=3f895de2-2183-4394-b765-01100c07ba9f"},"vehicle_type_id":"4","last_reported":1743437538,"current_range_meters":11600,"station_id":"ce4bho92rcd13ifvqh4g","pricing_plan_id":"cebpf4jnsgd1na2vs0mg"},{"bike_id":"770c32d9-6950-4645-af0a-e407448b3f90","system_id":"levelo_inurba_marseille","lat":43.2944,"lon":5.38617,"is_reserved":false,"is_disabled":false,"rental_uris":{"android":"levelo://app?vid=770c32d9-6950-4645-af0a-e407448b3f90","ios":"levelo://app?vid=770c32d9-6950-4645-af0a-e407448b3f90"},"vehicle_type_id":"4","last_reported":1743437538,"current_range_meters":12000,"station_id":"ce4bh2h2rcd13ifvqdh0","pricing_plan_id":"cebpf4jnsgd1na2vs0mg"},{"bike_id":"18e66938-8332-4142-bae2-4bb24a62b634","system_id":"levelo_inurba_marseille","lat":43.29058,"lon":5.38691,"is_reserved":false,"is_disabled":false,"rental_uris":{"android":"levelo://app?vid=18e66938-8332-4142-bae2-4bb24a62b634","ios":"levelo://app?vid=18e66938-8332-4142-bae2-4bb24a62b634"},"vehicle_type_id":"4","last_reported":1743437538,"current_range_meters":12000,"station_id":"ce4bh4p2rcd13ifvqe0g","pricing_plan_id":"cebpf4jnsgd1na2vs0mg"},{"bike_id":"ccdc6351-7f72-4aca-af83-c62eaac74e06","system_id":"levelo_inurba_marseille","lat":43.32346,"lon":5.40625,"is_reserved":false,"is_disabled":false,"rental_uris":{"android":"levelo://app?vid=ccdc6351-7f72-4aca-af83-c62eaac74e06","ios":"levelo://app?vid=ccdc6351-7f72-4aca-af83-c62eaac74e06"},"vehicle_type_id":"4","last_reported":1743437538,"current_range_meters":12000,"station_id":"ce4bhq92rcd13ifvqhjg","pricing_plan_id":"cebpf4jnsgd1na2vs0mg"},{"bike_id":"05d25046-4d34-4207-95a4-80edb02394a5","system_id":"levelo_inurba_marseille","lat":43.3014,"lon":5.39874,"is_reserved":false,"is_disabled":false,"rental_uris":{"android":"levelo://app?vid=05d25046-4d34-4207-95a4-80edb02394a5","ios":"levelo://app?vid=05d25046-4d34-4207-95a4-80edb02394a5"},"vehicle_type_id":"4","last_reported":1743437538,"current_range_meters":12400,"station_id":"ce4bh0h2rcd13ifvqd40","pricing_plan_id":"cebpf4jnsgd1na2vs0mg"},{"bike_id":"912d02c0-d0d5-4c24-ac88-9a1f89e5eee2","system_id":"levelo_inurba_marseille","lat":43.30144,"lon":5.3986,"is_reserved":false,"is_disabled":false,"rental_uris":{"android":"levelo://app?vid=912d02c0-d0d5-4c24-ac88-9a1f89e5eee2","ios":"levelo://app?vid=912d02c0-d0d5-4c24-ac88-9a1f89e5eee2"},"vehicle_type_id":"4","last_reported":1743437538,"current_range_meters":12400,"station_id":"ce4bh0h2rcd13ifvqd40","pricing_plan_id":"cebpf4jnsgd1na2vs0mg"},{"bike_id":"eab94c70-a623-4460-b52a-cdb6fd58bc5c","system_id":"levelo_inurba_marseille","lat":43.28468,"lon":5.35898,"is_reserved":false,"is_disabled":false,"rental_uris":{"android":"levelo://app?vid=eab94c70-a623-4460-b52a-cdb6fd58bc5c","ios":"levelo://app?vid=eab94c70-a623-4460-b52a-cdb6fd58bc5c"},"vehicle_type_id":"4","last_reported":1743437538,"current_range_meters":12400,"station_id":"ce4bhah2rcd13ifvqei0","pricing_plan_id":"cebpf4jnsgd1na2vs0mg"},{"bike_id":"ec5fa713-f7d4-45fe-aed2-e0940dc48d3b","system_id":"levelo_inurba_marseille","lat":43.28612,"lon":5.351,"is_reserved":false,"is_disabled":false,"rental_uris":{"android":"levelo://app?vid=ec5fa713-f7d4-45fe-aed2-e0940dc48d3b","ios":"levelo://app?vid=ec5fa713-f7d4-45fe-aed2-e0940dc48d3b"},"vehicle_type_id":"4","last_reported":1743437538,"current_range_meters":12400,"station_id":"ce4bhch2rcd13ifvqeug","pricing_plan_id":"cebpf4jnsgd1na2vs0mg"},{"bike_id":"f41e2eef-3409-4d82-b478-b6958ffb7ce8","system_id":"levelo_inurba_marseille","lat":43.24157,"lon":5.36429,"is_reserved":false,"is_disabled":false,"rental_uris":{"android":"levelo://app?vid=f41e2eef-3409-4d82-b478-b6958ffb7ce8","ios":"levelo://app?vid=f41e2eef-3409-4d82-b478-b6958ffb7ce8"},"vehicle_type_id":"4","last_reported":1743437538,"current_range_meters":12400,"station_id":"cpo36qri1sfpv3e86is0","pricing_plan_id":"cebpf4jnsgd1na2vs0mg"},{"bike_id":"3d15b921-9796-4b70-8ea7-7e862de479da","system_id":"levelo_inurba_marseille","lat":43.30591,"lon":5.39361,"is_reserved":false,"is_disabled":false,"rental_uris":{"android":"levelo://app?vid=3d15b921-9796-4b70-8ea7-7e862de479da","ios":"levelo://app?vid=3d15b921-9796-4b70-8ea7-7e862de479da"},"vehicle_type_id":"4","last_reported":1743437538,"current_range_meters":12800,"station_id":"ce4bh0p2rcd13ifvqd80","pricing_plan_id":"cebpf4jnsgd1na2vs0mg"},{"bike_id":"444576ac-b144-4c48-a49b-7a6804063bfe","system_id":"levelo_inurba_marseille","lat":43.28427,"lon":5.34991,"is_reserved":false,"is_disabled":false,"rental_uris":{"android":"levelo://app?vid=444576ac-b144-4c48-a49b-7a6804063bfe","ios":"levelo://app?vid=444576ac-b144-4c48-a49b-7a6804063bfe"},"vehicle_type_id":"4","last_reported":1743437538,"current_range_meters":12800,"station_id":"ce4bhbh2rcd13ifvqepg","pricing_plan_id":"cebpf4jnsgd1na2vs0mg"},{"bike_id":"91d08179-721e-47a0-8cd8-3886ada5df00","system_id":"levelo_inurba_marseille","lat":43.2959,"lon":5.36738,"is_reserved":false,"is_disabled":false,"rental_uris":{"android":"levelo://app?vid=91d08179-721e-47a0-8cd8-3886ada5df00","ios":"levelo://app?vid=91d08179-721e-47a0-8cd8-3886ada5df00"},"vehicle_type_id":"4","last_reported":1743437538,"current_range_meters":13600,"station_id":"ce4bgph2rcd13ifvqc2g","pricing_plan_id":"cebpf4jnsgd1na2vs0mg"},{"bike_id":"20951527-f230-4958-ae83-b5c9f4ee30f6","system_id":"levelo_inurba_marseille","lat":43.31114,"lon":5.37781,"is_reserved":false,"is_disabled":false,"rental_uris":{"android":"levelo://app?vid=20951527-f230-4958-ae83-b5c9f4ee30f6","ios":"levelo://app?vid=20951527-f230-4958-ae83-b5c9f4ee30f6"},"vehicle_type_id":"4","last_reported":1743437538,"current_range_meters":13600,"station_id":"ce4bgt92rcd13ifvqcg0","pricing_plan_id":"cebpf4jnsgd1na2vs0mg"},{"bike_id":"ce36f6e7-4d93-41ed-8d51-454953bded67","system_id":"levelo_inurba_marseille","lat":43.27845,"lon":5.39227,"is_reserved":false,"is_disabled":false,"rental_uris":{"android":"levelo://app?vid=ce36f6e7-4d93-41ed-8d51-454953bded67","ios":"levelo://app?vid=ce36f6e7-4d93-41ed-8d51-454953bded67"},"vehicle_type_id":"4","last_reported":1743437538,"current_range_meters":13600,"station_id":"ce4bhjp2rcd13ifvqga0","pricing_plan_id":"cebpf4jnsgd1na2vs0mg"},{"bike_id":"87304c8a-53f6-45f9-98cc-415e4d7a95a5","system_id":"levelo_inurba_marseille","lat":43.23189,"lon":5.39975,"is_reserved":false,"is_disabled":false,"rental_uris":{"android":"levelo://app?vid=87304c8a-53f6-45f9-98cc-415e4d7a95a5","ios":"levelo://app?vid=87304c8a-53f6-45f9-98cc-415e4d7a95a5"},"vehicle_type_id":"4","last_reported":1743437538,"current_range_meters":13600,"station_id":"ce4bhn12rcd13ifvqgqg","pricing_plan_id":"cebpf4jnsgd1na2vs0mg"},{"bike_id":"7a894edd-a4a4-40de-8b70-ca9fb3d5e3fd","system_id":"levelo_inurba_marseille","lat":43.310852,"lon":5.424406,"is_reserved":false,"is_disabled":false,"rental_uris":{"android":"levelo://app?vid=7a894edd-a4a4-40de-8b70-ca9fb3d5e3fd","ios":"levelo://app?vid=7a894edd-a4a4-40de-8b70-ca9fb3d5e3fd"},"vehicle_type_id":"4","last_reported":1743437538,"current_range_meters":13600,"station_id":"ce4bhp92rcd13ifvqhag","pricing_plan_id":"cebpf4jnsgd1na2vs0mg"},{"bike_id":"9cde64a6-fcce-489c-9f8a-078da8b0bf70","system_id":"levelo_inurba_marseille","lat":43.29541,"lon":5.38555,"is_reserved":false,"is_disabled":false,"rental_uris":{"android":"levelo://app?vid=9cde64a6-fcce-489c-9f8a-078da8b0bf70","ios":"levelo://app?vid=9cde64a6-fcce-489c-9f8a-078da8b0bf70"},"vehicle_type_id":"4","last_reported":1743437538,"current_range_meters":14000,"station_id":"ce4bgih2rcd13ifvqba0","pricing_plan_id":"cebpf4jnsgd1na2vs0mg"},{"bike_id":"90d7b6c9-5274-48de-a2a6-6ab8f7bab736","system_id":"levelo_inurba_marseille","lat":43.27357,"lon":5.36234,"is_reserved":false,"is_disabled":false,"rental_uris":{"android":"levelo://app?vid=90d7b6c9-5274-48de-a2a6-6ab8f7bab736","ios":"levelo://app?vid=90d7b6c9-5274-48de-a2a6-6ab8f7bab736"},"vehicle_type_id":"4","last_reported":1743437538,"current_range_meters":14000,"station_id":"ce4bhbh2rcd13ifvqeo0","pricing_plan_id":"cebpf4jnsgd1na2vs0mg"},{"bike_id":"d162ab97-160b-4082-a300-c7000c41052c","system_id":"levelo_inurba_marseille","lat":43.28425,"lon":5.3502,"is_reserved":false,"is_disabled":false,"rental_uris":{"android":"levelo://app?vid=d162ab97-160b-4082-a300-c7000c41052c","ios":"levelo://app?vid=d162ab97-160b-4082-a300-c7000c41052c"},"vehicle_type_id":"4","last_reported":1743437538,"current_range_meters":14000,"station_id":"ce4bhbh2rcd13ifvqepg","pricing_plan_id":"cebpf4jnsgd1na2vs0mg"},{"bike_id":"28b17b45-66c0-4cd7-a6ca-c1d70eeea2ee","system_id":"levelo_inurba_marseille","lat":43.28419,"lon":5.34986,"is_reserved":false,"is_disabled":false,"rental_uris":{"android":"levelo://app?vid=28b17b45-66c0-4cd7-a6ca-c1d70eeea2ee","ios":"levelo://app?vid=28b17b45-66c0-4cd7-a6ca-c1d70eeea2ee"},"vehicle_type_id":"4","last_reported":1743437538,"current_range_meters":14000,"station_id":"ce4bhbh2rcd13ifvqepg","pricing_plan_id":"cebpf4jnsgd1na2vs0mg"},{"bike_id":"550fb9bc-94b3-4032-8d73-218f5d13c23d","system_id":"levelo_inurba_marseille","lat":43.28708,"lon":5.40008,"is_reserved":false,"is_disabled":false,"rental_uris":{"android":"levelo://app?vid=550fb9bc-94b3-4032-8d73-218f5d13c23d","ios":"levelo://app?vid=550fb9bc-94b3-4032-8d73-218f5d13c23d"},"vehicle_type_id":"4","last_reported":1743437538,"current_range_meters":14000,"station_id":"ce4bho92rcd13ifvqh3g","pricing_plan_id":"cebpf4jnsgd1na2vs0mg"},{"bike_id":"404bb5c7-9fd6-47bc-aba3-b452cf634749","system_id":"levelo_inurba_marseille","lat":43.23065,"lon":5.35491,"is_reserved":false,"is_disabled":false,"rental_uris":{"android":"levelo://app?vid=404bb5c7-9fd6-47bc-aba3-b452cf634749","ios":"levelo://app?vid=404bb5c7-9fd6-47bc-aba3-b452cf634749"},"vehicle_type_id":"4","last_reported":1743437538,"current_range_meters":14000,"station_id":"cpo3342slgdg3j2ifvpg","pricing_plan_id":"cebpf4jnsgd1na2vs0mg"},{"bike_id":"64c43800-394e-43b1-b99a-c7207d690114","system_id":"levelo_inurba_marseille","lat":43.31332,"lon":5.39691,"is_reserved":false,"is_disabled":false,"rental_uris":{"android":"levelo://app?vid=64c43800-394e-43b1-b99a-c7207d690114","ios":"levelo://app?vid=64c43800-394e-43b1-b99a-c7207d690114"},"vehicle_type_id":"4","last_reported":1743437538,"current_range_meters":14400,"station_id":"ce4bgvp2rcd13ifvqcu0","pricing_plan_id":"cebpf4jnsgd1na2vs0mg"},{"bike_id":"a7119465-6611-41e6-a637-73a5ae59a183","system_id":"levelo_inurba_marseille","lat":43.30154,"lon":5.3988,"is_reserved":false,"is_disabled":false,"rental_uris":{"android":"levelo://app?vid=a7119465-6611-41e6-a637-73a5ae59a183","ios":"levelo://app?vid=a7119465-6611-41e6-a637-73a5ae59a183"},"vehicle_type_id":"4","last_reported":1743437538,"current_range_meters":14400,"station_id":"ce4bh0h2rcd13ifvqd40","pricing_plan_id":"cebpf4jnsgd1na2vs0mg"},{"bike_id":"70f5bf93-8886-4fb1-a414-a4af7f6f1b66","system_id":"levelo_inurba_marseille","lat":43.25129,"lon":5.40315,"is_reserved":false,"is_disabled":false,"rental_uris":{"android":"levelo://app?vid=70f5bf93-8886-4fb1-a414-a4af7f6f1b66","ios":"levelo://app?vid=70f5bf93-8886-4fb1-a414-a4af7f6f1b66"},"vehicle_type_id":"4","last_reported":1743437538,"current_range_meters":14400,"station_id":"ce4bhlh2rcd13ifvqgig","pricing_plan_id":"cebpf4jnsgd1na2vs0mg"},{"bike_id":"8bcdac8d-bfbd-4e55-bc7e-a4fe1ae09e71","system_id":"levelo_inurba_marseille","lat":43.22932,"lon":5.35378,"is_reserved":false,"is_disabled":false,"rental_uris":{"android":"levelo://app?vid=8bcdac8d-bfbd-4e55-bc7e-a4fe1ae09e71","ios":"levelo://app?vid=8bcdac8d-bfbd-4e55-bc7e-a4fe1ae09e71"},"vehicle_type_id":"4","last_reported":1743437538,"current_range_meters":14400,"station_id":"cpo3532slgdg3j2ikp40","pricing_plan_id":"cebpf4jnsgd1na2vs0mg"},{"bike_id":"612bd1b5-78de-4e1a-b405-3c298305e9de","system_id":"levelo_inurba_marseille","lat":43.29427,"lon":5.38633,"is_reserved":false,"is_disabled":false,"rental_uris":{"android":"levelo://app?vid=612bd1b5-78de-4e1a-b405-3c298305e9de","ios":"levelo://app?vid=612bd1b5-78de-4e1a-b405-3c298305e9de"},"vehicle_type_id":"4","last_reported":1743437538,"current_range_meters":14800,"station_id":"ce4bh2h2rcd13ifvqdh0","pricing_plan_id":"cebpf4jnsgd1na2vs0mg"},{"bike_id":"e42e809e-aeb9-4576-9621-fe09af06c8dc","system_id":"levelo_inurba_marseille","lat":43.244,"lon":5.3707,"is_reserved":false,"is_disabled":false,"rental_uris":{"android":"levelo://app?vid=e42e809e-aeb9-4576-9621-fe09af06c8dc","ios":"levelo://app?vid=e42e809e-aeb9-4576-9621-fe09af06c8dc"},"vehicle_type_id":"4","last_reported":1743437538,"current_range_meters":14800,"station_id":"ce4bhhh2rcd13ifvqfk0","pricing_plan_id":"cebpf4jnsgd1na2vs0mg"},{"bike_id":"ab772d7e-f9d7-4d59-a2ea-e1960bfdaed5","system_id":"levelo_inurba_marseille","lat":43.25736,"lon":5.41111,"is_reserved":false,"is_disabled":false,"rental_uris":{"android":"levelo://app?vid=ab772d7e-f9d7-4d59-a2ea-e1960bfdaed5","ios":"levelo://app?vid=ab772d7e-f9d7-4d59-a2ea-e1960bfdaed5"},"vehicle_type_id":"4","last_reported":1743437538,"current_range_meters":14800,"station_id":"ce4bhkp2rcd13ifvqgd0","pricing_plan_id":"cebpf4jnsgd1na2vs0mg"},{"bike_id":"ee3b8f33-57e8-4a95-9e9e-930c46335bcb","system_id":"levelo_inurba_marseille","lat":43.32293,"lon":5.3827,"is_reserved":false,"is_disabled":false,"rental_uris":{"android":"levelo://app?vid=ee3b8f33-57e8-4a95-9e9e-930c46335bcb","ios":"levelo://app?vid=ee3b8f33-57e8-4a95-9e9e-930c46335bcb"},"vehicle_type_id":"4","last_reported":1743437538,"current_range_meters":14800,"station_id":"ce4bhr12rcd13ifvqhqg","pricing_plan_id":"cebpf4jnsgd1na2vs0mg"},{"bike_id":"d45a76e2-d3ad-45e9-8de7-fef8b821ebe5","system_id":"levelo_inurba_marseille","lat":43.29042,"lon":5.35949,"is_reserved":false,"is_disabled":false,"rental_uris":{"android":"levelo://app?vid=d45a76e2-d3ad-45e9-8de7-fef8b821ebe5","ios":"levelo://app?vid=d45a76e2-d3ad-45e9-8de7-fef8b821ebe5"},"vehicle_type_id":"4","last_reported":1743437538,"current_range_meters":15200,"station_id":"ce4bha92rcd13ifvqeg0","pricing_plan_id":"cebpf4jnsgd1na2vs0mg"},{"bike_id":"9f26f6b4-6f8c-41bd-9823-94cef41b22be","system_id":"levelo_inurba_marseille","lat":43.23203,"lon":5.39988,"is_reserved":false,"is_disabled":false,"rental_uris":{"android":"levelo://app?vid=9f26f6b4-6f8c-41bd-9823-94cef41b22be","ios":"levelo://app?vid=9f26f6b4-6f8c-41bd-9823-94cef41b22be"},"vehicle_type_id":"4","last_reported":1743437538,"current_range_meters":15200,"station_id":"ce4bhn12rcd13ifvqgqg","pricing_plan_id":"cebpf4jnsgd1na2vs0mg"},{"bike_id":"d555a6dd-87fb-4f1f-accb-2e9da48fe4bc","system_id":"levelo_inurba_marseille","lat":43.27362,"lon":5.36156,"is_reserved":false,"is_disabled":false,"rental_uris":{"android":"levelo://app?vid=d555a6dd-87fb-4f1f-accb-2e9da48fe4bc","ios":"levelo://app?vid=d555a6dd-87fb-4f1f-accb-2e9da48fe4bc"},"vehicle_type_id":"4","last_reported":1743437538,"current_range_meters":16000,"station_id":"","pricing_plan_id":"cebpf4jnsgd1na2vs0mg"},{"bike_id":"e47bc61d-df2d-41b3-b26b-dd94e6e5e301","system_id":"levelo_inurba_marseille","lat":43.26246,"lon":5.42119,"is_reserved":false,"is_disabled":false,"rental_uris":{"android":"levelo://app?vid=e47bc61d-df2d-41b3-b26b-dd94e6e5e301","ios":"levelo://app?vid=e47bc61d-df2d-41b3-b26b-dd94e6e5e301"},"vehicle_type_id":"4","last_reported":1743437538,"current_range_meters":16000,"station_id":"","pricing_plan_id":"cebpf4jnsgd1na2vs0mg"},{"bike_id":"f74ab59f-be69-4dbf-bb7a-b8d19bcdb4f1","system_id":"levelo_inurba_marseille","lat":43.26148,"lon":5.37973,"is_reserved":false,"is_disabled":false,"rental_uris":{"android":"levelo://app?vid=f74ab59f-be69-4dbf-bb7a-b8d19bcdb4f1","ios":"levelo://app?vid=f74ab59f-be69-4dbf-bb7a-b8d19bcdb4f1"},"vehicle_type_id":"4","last_reported":1743437538,"current_range_meters":16000,"station_id":"","pricing_plan_id":"cebpf4jnsgd1na2vs0mg"},{"bike_id":"ad0acab8-a20c-454d-a6f5-c6f299f989ee","system_id":"levelo_inurba_marseille","lat":43.29423,"lon":5.3863,"is_reserved":false,"is_disabled":false,"rental_uris":{"android":"levelo://app?vid=ad0acab8-a20c-454d-a6f5-c6f299f989ee","ios":"levelo://app?vid=ad0acab8-a20c-454d-a6f5-c6f299f989ee"},"vehicle_type_id":"4","last_reported":1743437538,"current_range_meters":16000,"station_id":"ce4bh2h2rcd13ifvqdh0","pricing_plan_id":"cebpf4jnsgd1na2vs0mg"},{"bike_id":"31349135-1628-41cd-a034-49c95e388b8e","system_id":"levelo_inurba_marseille","lat":43.28287,"lon":5.35084,"is_reserved":false,"is_disabled":false,"rental_uris":{"android":"levelo://app?vid=31349135-1628-41cd-a034-49c95e388b8e","ios":"levelo://app?vid=31349135-1628-41cd-a034-49c95e388b8e"},"vehicle_type_id":"4","last_reported":1743437538,"current_range_meters":16000,"station_id":"ce4bhbp2rcd13ifvqerg","pricing_plan_id":"cebpf4jnsgd1na2vs0mg"},{"bike_id":"1b63ccb2-1298-4d96-b7f3-6ad6cace00e9","system_id":"levelo_inurba_marseille","lat":43.26117,"lon":5.40106,"is_reserved":false,"is_disabled":false,"rental_uris":{"android":"levelo://app?vid=1b63ccb2-1298-4d96-b7f3-6ad6cace00e9","ios":"levelo://app?vid=1b63ccb2-1298-4d96-b7f3-6ad6cace00e9"},"vehicle_type_id":"4","last_reported":1743437538,"current_range_meters":16400,"station_id":"","pricing_plan_id":"cebpf4jnsgd1na2vs0mg"},{"bike_id":"14c6f955-5601-4536-bf1a-199a9389832d","system_id":"levelo_inurba_marseille","lat":43.2847,"lon":5.35891,"is_reserved":false,"is_disabled":false,"rental_uris":{"android":"levelo://app?vid=14c6f955-5601-4536-bf1a-199a9389832d","ios":"levelo://app?vid=14c6f955-5601-4536-bf1a-199a9389832d"},"vehicle_type_id":"4","last_reported":1743437538,"current_range_meters":16400,"station_id":"ce4bhah2rcd13ifvqei0","pricing_plan_id":"cebpf4jnsgd1na2vs0mg"},{"bike_id":"f72e0131-3d52-43d5-b4a2-152be119d6c5","system_id":"levelo_inurba_marseille","lat":43.27682,"lon":5.3887,"is_reserved":false,"is_disabled":false,"rental_uris":{"android":"levelo://app?vid=f72e0131-3d52-43d5-b4a2-152be119d6c5","ios":"levelo://app?vid=f72e0131-3d52-43d5-b4a2-152be119d6c5"},"vehicle_type_id":"4","last_reported":1743437538,"current_range_meters":16400,"station_id":"ce4bhi12rcd13ifvqfo0","pricing_plan_id":"cebpf4jnsgd1na2vs0mg"},{"bike_id":"53c98150-ed14-4505-9d86-fc916a9832c2","system_id":"levelo_inurba_marseille","lat":43.24182,"lon":5.39734,"is_reserved":false,"is_disabled":false,"rental_uris":{"android":"levelo://app?vid=53c98150-ed14-4505-9d86-fc916a9832c2","ios":"levelo://app?vid=53c98150-ed14-4505-9d86-fc916a9832c2"},"vehicle_type_id":"4","last_reported":1743437538,"current_range_meters":16400,"station_id":"ce4bhn12rcd13ifvqgpg","pricing_plan_id":"cebpf4jnsgd1na2vs0mg"},{"bike_id":"27773214-4312-4127-aa54-e74cba3d6d07","system_id":"levelo_inurba_marseille","lat":43.27791,"lon":5.40766,"is_reserved":false,"is_disabled":false,"rental_uris":{"android":"levelo://app?vid=27773214-4312-4127-aa54-e74cba3d6d07","ios":"levelo://app?vid=27773214-4312-4127-aa54-e74cba3d6d07"},"vehicle_type_id":"4","last_reported":1743437538,"current_range_meters":16400,"station_id":"ce4bhnh2rcd13ifvqgtg","pricing_plan_id":"cebpf4jnsgd1na2vs0mg"},{"bike_id":"3877a376-e619-41b0-adfc-a3b92c28df82","system_id":"levelo_inurba_marseille","lat":43.32367,"lon":5.38932,"is_reserved":false,"is_disabled":false,"rental_uris":{"android":"levelo://app?vid=3877a376-e619-41b0-adfc-a3b92c28df82","ios":"levelo://app?vid=3877a376-e619-41b0-adfc-a3b92c28df82"},"vehicle_type_id":"4","last_reported":1743437538,"current_range_meters":16400,"station_id":"ce4bhqp2rcd13ifvqhog","pricing_plan_id":"cebpf4jnsgd1na2vs0mg"},{"bike_id":"c13aa777-4e18-4e55-bfa7-89e8d505de65","system_id":"levelo_inurba_marseille","lat":43.310105,"lon":5.400853,"is_reserved":false,"is_disabled":false,"rental_uris":{"android":"levelo://app?vid=c13aa777-4e18-4e55-bfa7-89e8d505de65","ios":"levelo://app?vid=c13aa777-4e18-4e55-bfa7-89e8d505de65"},"vehicle_type_id":"4","last_reported":1743437538,"current_range_meters":16800,"station_id":"ce4bgvp2rcd13ifvqcu0","pricing_plan_id":"cebpf4jnsgd1na2vs0mg"},{"bike_id":"ca464ee6-da2a-4ff6-aa66-cbfed9fd5edf","system_id":"levelo_inurba_marseille","lat":43.30359,"lon":5.40479,"is_reserved":false,"is_disabled":false,"rental_uris":{"android":"levelo://app?vid=ca464ee6-da2a-4ff6-aa66-cbfed9fd5edf","ios":"levelo://app?vid=ca464ee6-da2a-4ff6-aa66-cbfed9fd5edf"},"vehicle_type_id":"4","last_reported":1743437538,"current_range_meters":16800,"station_id":"ce4bh012rcd13ifvqd10","pricing_plan_id":"cebpf4jnsgd1na2vs0mg"},{"bike_id":"c7c4a409-b0a9-4372-adec-737b17e711c1","system_id":"levelo_inurba_marseille","lat":43.27382,"lon":5.36258,"is_reserved":false,"is_disabled":false,"rental_uris":{"android":"levelo://app?vid=c7c4a409-b0a9-4372-adec-737b17e711c1","ios":"levelo://app?vid=c7c4a409-b0a9-4372-adec-737b17e711c1"},"vehicle_type_id":"4","last_reported":1743437538,"current_range_meters":16800,"station_id":"ce4bhbh2rcd13ifvqeo0","pricing_plan_id":"cebpf4jnsgd1na2vs0mg"},{"bike_id":"9a3354d3-065a-4b2d-b4a8-e18196e4c690","system_id":"levelo_inurba_marseille","lat":43.28291,"lon":5.35092,"is_reserved":false,"is_disabled":false,"rental_uris":{"android":"levelo://app?vid=9a3354d3-065a-4b2d-b4a8-e18196e4c690","ios":"levelo://app?vid=9a3354d3-065a-4b2d-b4a8-e18196e4c690"},"vehicle_type_id":"4","last_reported":1743437538,"current_range_meters":16800,"station_id":"ce4bhbp2rcd13ifvqerg","pricing_plan_id":"cebpf4jnsgd1na2vs0mg"},{"bike_id":"763895a0-076c-486a-b6da-ebd77f2fbd65","system_id":"levelo_inurba_marseille","lat":43.30611,"lon":5.37238,"is_reserved":false,"is_disabled":false,"rental_uris":{"android":"levelo://app?vid=763895a0-076c-486a-b6da-ebd77f2fbd65","ios":"levelo://app?vid=763895a0-076c-486a-b6da-ebd77f2fbd65"},"vehicle_type_id":"4","last_reported":1743437538,"current_range_meters":17200,"station_id":"ce4bgqh2rcd13ifvqc4g","pricing_plan_id":"cebpf4jnsgd1na2vs0mg"},