{"last_updated":1722445650,"ttl":30,"version":"2.2","data":{"bikes":[{"bike_id":"0c204385-009b-48a3-99b5-0e0e0d91b30f","system_id":"levelo_inurba_marseille","lat":43.31234,"lon":5.36819,"is_reserved":false,"is_disabled":false,"rental_uris":{"android":"levelo://app?vid=0c204385-009b-48a3-99b5-0e0e0d91b30f","ios":"levelo://app?vid=0c204385-009b-48a3-99b5-0e0e0d91b30f"},"vehicle_type_id":"4","last_reported":1722445650,"current_range_meters":2000,"station_id":"ce4bgl92rcd13ifvqbq0","pricing_plan_id":"cebpf4jnsgd1na2vs0mg"},{"bike_id":"6dea302f-7702-4a43-9958-857869e83f21","system_id":"levelo_inurba_marseille","lat":43.314811,"lon":5.373103,"is_reserved":false,"is_disabled":false,"rental_uris":{"android":"levelo://app?vid=6dea302f-7702-4a43-9958-857869e83f21","ios":"levelo://app?vid=6dea302f-7702-4a43-9958-857869e83f21"},"vehicle_type_id":"4","last_reported":1722445650,"current_range_meters":4400,"station_id":"ce4bgt12rcd13ifvqcd0","pricing_plan_id":"cebpf4jnsgd1na2vs0mg"},{"bike_id":"4807be0a-8012-465c-b54d-ea485ae2ba2a","system_id":"levelo_inurba_marseille","lat":43.30543,"lon":5.36543,"is_reserved":false,"is_disabled":false,"rental_uris":{"android":"levelo://app?vid=4807be0a-8012-465c-b54d-ea485ae2ba2a","ios":"levelo://app?vid=4807be0a-8012-465c-b54d-ea485ae2ba2a"},"vehicle_type_id":"4","last_reported":1722445650,"current_range_meters":7600,"station_id":"","pricing_plan_id":"cebpf4jnsgd1na2vs0mg"},{"bike_id":"d8209b43-bf03-4c41-a72b-972b8acfd67a","system_id":"levelo_inurba_marseille","lat":43.305706,"lon":5.365654,"is_reserved":false,"is_disabled":false,"rental_uris":{"android":"levelo://app?vid=d8209b43-bf03-4c41-a72b-972b8acfd67a","ios":"levelo://app?vid=d8209b43-bf03-4c41-a72b-972b8acfd67a"},"vehicle_type_id":"4","last_reported":1722445650,"current_range_meters":25600,"station_id":"ce4bgs12rcd13ifvqcag","pricing_plan_id":"cebpf4jnsgd1na2vs0mg"},{"bike_id":"0c4651a2-4eaa-477b-b1aa-686c9e5483de","system_id":"levelo_inurba_marseille","lat":43.320434,"lon":5.37184,"is_reserved":false,"is_disabled":false,"rental_uris":{"android":"levelo://app?vid=0c4651a2-4eaa-477b-b1aa-686c9e5483de","ios":"levelo://app?vid=0c4651a2-4eaa-477b-b1aa-686c9e5483de"},"vehicle_type_id":"4","last_reported":1722445650,"current_range_meters":23600,"station_id":"","pricing_plan_id":"cebpf4jnsgd1na2vs0mg"},{"bike_id":"578d6841-44b0-43fc-9723-25fe5ee5ec01","system_id":"levelo_inurba_marseille","lat":43.311606,"lon":5.379767,"is_reserved":false,"is_disabled":false,"rental_uris":{"android":"levelo://app?vid=578d6841-44b0-43fc-9723-25fe5ee5ec01","ios":"levelo://app?vid=578d6841-44b0-43fc-9723-25fe5ee5ec01"},"vehicle_type_id":"4","last_reported":1722445650,"current_range_meters":2400,"station_id":"","pricing_plan_id":"cebpf4jnsgd1na2vs0mg"},{"bike_id":"721aec96-b28c-4beb-ad51-c50f1d40deaa","system_id":"levelo_inurba_marseille","lat":43.315289,"lon":5.380349,"is_reserved":false,"is_disabled":false,"rental_uris":{"android":"levelo://app?vid=721aec96-b28c-4beb-ad51-c50f1d40deaa","ios":"levelo://app?vid=721aec96-b28c-4beb-ad51-c50f1d40deaa"},"vehicle_type_id":"4","last_reported":1722445650,"current_range_meters":12800,"station_id":"ce4bhsp2rcd13ifvqi50","pricing_plan_id":"cebpf4jnsgd1na2vs0mg"},{"bike_id":"29e4982a-5e5c-4992-bb3b-3a8c7138ddf9","system_id":"levelo_inurba_marseille","lat":43.3154,"lon":5.380246,"is_reserved":false,"is_disabled":false,"rental_uris":{"android":"levelo://app?vid=29e4982a-5e5c-4992-bb3b-3a8c7138ddf9","ios":"levelo://app?vid=29e4982a-5e5c-4992-bb3b-3a8c7138ddf9"},"vehicle_type_id":"4","last_reported":1722445650,"current_range_meters":2800,"station_id":"ce4bhsp2rcd13ifvqi50","pricing_plan_id":"cebpf4jnsgd1na2vs0mg"},{"bike_id":"1c277b31-11b9-453e-aba2-3cb6efb81360","system_id":"levelo_inurba_marseille","lat":43.31529,"lon":5.38036,"is_reserved":false,"is_disabled":false,"rental_uris":{"android":"levelo://app?vid=1c277b31-11b9-453e-aba2-3cb6efb81360","ios":"levelo://app?vid=1c277b31-11b9-453e-aba2-3cb6efb81360"},"vehicle_type_id":"4","last_reported":1722445650,"current_range_meters":18400,"station_id":"ce4bhsp2rcd13ifvqi50","pricing_plan_id":"cebpf4jnsgd1na2vs0mg"},{"bike_id":"53df5d1f-e1a7-46f1-b0bc-84f3f42d7de1","system_id":"levelo_inurba_marseille","lat":43.304606,"lon":5.379026,"is_reserved":false,"is_disabled":false,"rental_uris":{"android":"levelo://app?vid=53df5d1f-e1a7-46f1-b0bc-84f3f42d7de1","ios":"levelo://app?vid=53df5d1f-e1a7-46f1-b0bc-84f3f42d7de1"},"vehicle_type_id":"4","last_reported":1722445650,"current_range_meters":12400,"station_id":"ce4bgup2rcd13ifvqcn0","pricing_plan_id":"cebpf4jnsgd1na2vs0mg"},{"bike_id":"b915783b-eb1b-40a3-9d1e-a61cf1671110","system_id":"levelo_inurba_marseille","lat":43.304606,"lon":5.379026,"is_reserved":false,"is_disabled":false,"rental_uris":{"android":"levelo://app?vid=b915783b-eb1b-40a3-9d1e-a61cf1671110","ios":"levelo://app?vid=b915783b-eb1b-40a3-9d1e-a61cf1671110"},"vehicle_type_id":"4","last_reported":1722445650,"current_range_meters":12000,"station_id":"ce4bgup2rcd13ifvqcn0","pricing_plan_id":"cebpf4jnsgd1na2vs0mg"},{"bike_id":"563b16e0-6717-4a69-a127-32827b1c1ac8","system_id":"levelo_inurba_marseille","lat":43.324771,"lon":5.36557,"is_reserved":false,"is_disabled":false,"rental_uris":{"android":"levelo://app?vid=563b16e0-6717-4a69-a127-32827b1c1ac8","ios":"levelo://app?vid=563b16e0-6717-4a69-a127-32827b1c1ac8"},"vehicle_type_id":"4","last_reported":1722445650,"current_range_meters":800,"station_id":"ce4bhs12rcd13ifvqhvg","pricing_plan_id":"cebpf4jnsgd1na2vs0mg"},{"bike_id":"ea2bc102-8b42-4d2a-8b49-4e74d6d68c77","system_id":"levelo_inurba_marseille","lat":43.310804,"lon":5.38359,"is_reserved":false,"is_disabled":false,"rental_uris":{"android":"levelo://app?vid=ea2bc102-8b42-4d2a-8b49-4e74d6d68c77","ios":"levelo://app?vid=ea2bc102-8b42-4d2a-8b49-4e74d6d68c77"},"vehicle_type_id":"4","last_reported":1722445650,"current_range_meters":3600,"station_id":"ce4bgv92rcd13ifvqcr0","pricing_plan_id":"cebpf4jnsgd1na2vs0mg"},{"bike_id":"0e44d94e-edd9-478a-abc5-2fd6c77a5c45","system_id":"levelo_inurba_marseille","lat":43.30287,"lon":5.37693,"is_reserved":false,"is_disabled":false,"rental_uris":{"android":"levelo://app?vid=0e44d94e-edd9-478a-abc5-2fd6c77a5c45","ios":"levelo://app?vid=0e44d94e-edd9-478a-abc5-2fd6c77a5c45"},"vehicle_type_id":"4","last_reported":1722445650,"current_range_meters":31200,"station_id":"ce4bguh2rcd13ifvqcj0","pricing_plan_id":"cebpf4jnsgd1na2vs0mg"},{"bike_id":"c00ca47b-5870-4da5-9a01-ac8fbf1a8341","system_id":"levelo_inurba_marseille","lat":43.310804,"lon":5.38359,"is_reserved":false,"is_disabled":false,"rental_uris":{"android":"levelo://app?vid=c00ca47b-5870-4da5-9a01-ac8fbf1a8341","ios":"levelo://app?vid=c00ca47b-5870-4da5-9a01-ac8fbf1a8341"},"vehicle_type_id":"4","last_reported":1722445650,"current_range_meters":0,"station_id":"ce4bgv92rcd13ifvqcr0","pricing_plan_id":"cebpf4jnsgd1na2vs0mg"},{"bike_id":"9b26acda-dcbc-4621-8182-103381db6a5b","system_id":"levelo_inurba_marseille","lat":43.302784,"lon":5.377158,"is_reserved":false,"is_disabled":false,"rental_uris":{"android":"levelo://app?vid=9b26acda-dcbc-4621-8182-103381db6a5b","ios":"levelo://app?vid=9b26acda-dcbc-4621-8182-103381db6a5b"},"vehicle_type_id":"4","last_reported":1722445650,"current_range_meters":31200,"station_id":"ce4bguh2rcd13ifvqcj0","pricing_plan_id":"cebpf4jnsgd1na2vs0mg"},{"bike_id":"a3f238cb-bab9-4cc0-9fcc-ea4271a2d51c","system_id":"levelo_inurba_marseille","lat":43.301429,"lon":5.37413,"is_reserved":false,"is_disabled":false,"rental_uris":{"android":"levelo://app?vid=a3f238cb-bab9-4cc0-9fcc-ea4271a2d51c","ios":"levelo://app?vid=a3f238cb-bab9-4cc0-9fcc-ea4271a2d51c"},"vehicle_type_id":"4","last_reported":1722445650,"current_range_meters":6800,"station_id":"ce4bgs92rcd13ifvqcc0","pricing_plan_id":"cebpf4jnsgd1na2vs0mg"},{"bike_id":"cb691a2b-b55f-4dea-9efc-1ccb6ae0231e","system_id":"levelo_inurba_marseille","lat":43.287184,"lon":5.37937,"is_reserved":false,"is_disabled":false,"rental_uris":{"android":"levelo://app?vid=cb691a2b-b55f-4dea-9efc-1ccb6ae0231e","ios":"levelo://app?vid=cb691a2b-b55f-4dea-9efc-1ccb6ae0231e"},"vehicle_type_id":"4","last_reported":1722445650,"current_range_meters":0,"station_id":"ce4bh9p2rcd13ifvqec0","pricing_plan_id":"cebpf4jnsgd1na2vs0mg"},{"bike_id":"89f067c9-a3af-46a8-8e11-e236695d62b3","system_id":"levelo_inurba_marseille","lat":43.312834,"lon":5.384114,"is_reserved":false,"is_disabled":false,"rental_uris":{"android":"levelo://app?vid=89f067c9-a3af-46a8-8e11-e236695d62b3","ios":"levelo://app?vid=89f067c9-a3af-46a8-8e11-e236695d62b3"},"vehicle_type_id":"4","last_reported":1722445650,"current_range_meters":0,"station_id":"","pricing_plan_id":"cebpf4jnsgd1na2vs0mg"},{"bike_id":"8a4ad53d-7907-42d4-a932-def2e442ce93","system_id":"levelo_inurba_marseille","lat":43.319935,"lon":5.381699,"is_reserved":false,"is_disabled":false,"rental_uris":{"android":"levelo://app?vid=8a4ad53d-7907-42d4-a932-def2e442ce93","ios":"levelo://app?vid=8a4ad53d-7907-42d4-a932-def2e442ce93"},"vehicle_type_id":"4","last_reported":1722445650,"current_range_meters":22400,"station_id":"ce4bhr12rcd13ifvqhpg","pricing_plan_id":"cebpf4jnsgd1na2vs0mg"},{"bike_id":"abc93ddc-0269-419e-abd4-d8851a095fa2","system_id":"levelo_inurba_marseille","lat":43.313507,"lon":5.38493,"is_reserved":false,"is_disabled":false,"rental_uris":{"android":"levelo://app?vid=abc93ddc-0269-419e-abd4-d8851a095fa2","ios":"levelo://app?vid=abc93ddc-0269-419e-abd4-d8851a095fa2"},"vehicle_type_id":"4","last_reported":1722445650,"current_range_meters":0,"station_id":"ce4bgt92rcd13ifvqcf0","pricing_plan_id":"cebpf4jnsgd1na2vs0mg"},{"bike_id":"1dd287fc-04f8-4b54-ac9b-a695b475f466","system_id":"levelo_inurba_marseille","lat":43.313668,"lon":5.384932,"is_reserved":false,"is_disabled":false,"rental_uris":{"android":"levelo://app?vid=1dd287fc-04f8-4b54-ac9b-a695b475f466","ios":"levelo://app?vid=1dd287fc-04f8-4b54-ac9b-a695b475f466"},"vehicle_type_id":"4","last_reported":1722445650,"current_range_meters":0,"station_id":"ce4bgt92rcd13ifvqcf0","pricing_plan_id":"cebpf4jnsgd1na2vs0mg"},{"bike_id":"8e9d6fbd-6e9b-4d60-a7b7-8f9e9c4b7b78","system_id":"levelo_inurba_marseille","lat":43.299222,"lon":5.365554,"is_reserved":false,"is_disabled":false,"rental_uris":{"android":"levelo://app?vid=8e9d6fbd-6e9b-4d60-a7b7-8f9e9c4b7b78","ios":"levelo://app?vid=8e9d6fbd-6e9b-4d60-a7b7-8f9e9c4b7b78"},"vehicle_type_id":"4","last_reported":1722445650,"current_range_meters":16000,"station_id":"ce4bgm92rcd13ifvqbr0","pricing_plan_id":"cebpf4jnsgd1na2vs0mg"},{"bike_id":"4f7456bb-edba-4848-82a1-772f9c975c1c","system_id":"levelo_inurba_marseille","lat":43.299222,"lon":5.365554,"is_reserved":false,"is_disabled":false,"rental_uris":{"android":"levelo://app?vid=4f7456bb-edba-4848-82a1-772f9c975c1c","ios":"levelo://app?vid=4f7456bb-edba-4848-82a1-772f9c975c1c"},"vehicle_type_id":"4","last_reported":1722445650,"current_range_meters":19600,"station_id":"ce4bgm92rcd13ifvqbr0","pricing_plan_id":"cebpf4jnsgd1na2vs0mg"},{"bike_id":"7d1296d4-eab5-45b5-bdf4-2d2cdbab9c73","system_id":"levelo_inurba_marseille","lat":43.299724,"lon":5.371829,"is_reserved":false,"is_disabled":false,"rental_uris":{"android":"levelo://app?vid=7d1296d4-eab5-45b5-bdf4-2d2cdbab9c73","ios":"levelo://app?vid=7d1296d4-eab5-45b5-bdf4-2d2cdbab9c73"},"vehicle_type_id":"4","last_reported":1722445650,"current_range_meters":4000,"station_id":"ce4bgr92rcd13ifvqc7g","pricing_plan_id":"cebpf4jnsgd1na2vs0mg"},{"bike_id":"056538ff-97c0-4cf1-aa6f-caa764e01082","system_id":"levelo_inurba_marseille","lat":43.299724,"lon":5.371829,"is_reserved":false,"is_disabled":false,"rental_uris":{"android":"levelo://app?vid=056538ff-97c0-4cf1-aa6f-caa764e01082","ios":"levelo://app?vid=056538ff-97c0-4cf1-aa6f-caa764e01082"},"vehicle_type_id":"4","last_reported":1722445650,"current_range_meters":0,"station_id":"ce4bgr92rcd13ifvqc7g","pricing_plan_id":"cebpf4jnsgd1na2vs0mg"},{"bike_id":"ec768d8e-f13f-4ffc-8e00-23ed944ce961","system_id":"levelo_inurba_marseille","lat":43.299222,"lon":5.365554,"is_reserved":false,"is_disabled":false,"rental_uris":{"android":"levelo://app?vid=ec768d8e-f13f-4ffc-8e00-23ed944ce961","ios":"levelo://app?vid=ec768d8e-f13f-4ffc-8e00-23ed944ce961"},"vehicle_type_id":"4","last_reported":1722445650,"current_range_meters":15600,"station_id":"ce4bgm92rcd13ifvqbr0","pricing_plan_id":"cebpf4jnsgd1na2vs0mg"},{"bike_id":"b18229f0-dc68-4d57-ae90-75b5242a5fcc","system_id":"levelo_inurba_marseille","lat":43.299724,"lon":5.371829,"is_reserved":false,"is_disabled":false,"rental_uris":{"android":"levelo://app?vid=b18229f0-dc68-4d57-ae90-75b5242a5fcc","ios":"levelo://app?vid=b18229f0-dc68-4d57-ae90-75b5242a5fcc"},"vehicle_type_id":"4","last_reported":1722445650,"current_range_meters":0,"station_id":"ce4bgr92rcd13ifvqc7g","pricing_plan_id":"cebpf4jnsgd1na2vs0mg"},{"bike_id":"c13518c0-b897-4832-8532-272f8cb41e91","system_id":"levelo_inurba_marseille","lat":43.30493,"lon":5.38234,"is_reserved":false,"is_disabled":false,"rental_uris":{"android":"levelo://app?vid=c13518c0-b897-4832-8532-272f8cb41e91","ios":"levelo://app?vid=c13518c0-b897-4832-8532-272f8cb41e91"},"vehicle_type_id":"4","last_reported":1722445650,"current_range_meters":24400,"station_id":"","pricing_plan_id":"cebpf4jnsgd1na2vs0mg"},{"bike_id":"5e540531-5cb3-47f1-9fe3-b7d542075fa4","system_id":"levelo_inurba_marseille","lat":43.298433,"lon":5.362774,"is_reserved":false,"is_disabled":false,"rental_uris":{"android":"levelo://app?vid=5e540531-5cb3-47f1-9fe3-b7d542075fa4","ios":"levelo://app?vid=5e540531-5cb3-47f1-9fe3-b7d542075fa4"},"vehicle_type_id":"4","last_reported":1722445650,"current_range_meters":2400,"station_id":"ce4bgpp2rcd13ifvqc3g","pricing_plan_id":"cebpf4jnsgd1na2vs0mg"},{"bike_id":"65db9d19-b6ef-4fd5-8c11-c65eaa945844","system_id":"levelo_inurba_marseille","lat":43.298433,"lon":5.362774,"is_reserved":false,"is_disabled":false,"rental_uris":{"android":"levelo://app?vid=65db9d19-b6ef-4fd5-8c11-c65eaa945844","ios":"levelo://app?vid=65db9d19-b6ef-4fd5-8c11-c65eaa945844"},"vehicle_type_id":"4","last_reported":1722445650,"current_range_meters":12000,"station_id":"ce4bgpp2rcd13ifvqc3g","pricing_plan_id":"cebpf4jnsgd1na2vs0mg"},{"bike_id":"a591a489-c864-44a7-bb82-0aff49097ac2","system_id":"levelo_inurba_marseille","lat":43.298433,"lon":5.362774,"is_reserved":false,"is_disabled":false,"rental_uris":{"android":"levelo://app?vid=a591a489-c864-44a7-bb82-0aff49097ac2","ios":"levelo://app?vid=a591a489-c864-44a7-bb82-0aff49097ac2"},"vehicle_type_id":"4","last_reported":1722445650,"current_range_meters":4800,"station_id":"ce4bgpp2rcd13ifvqc3g","pricing_plan_id":"cebpf4jnsgd1na2vs0mg"},{"bike_id":"a68fab4c-1539-4eac-b6b8-d78dbd80682a","system_id":"levelo_inurba_marseille","lat":43.298433,"lon":5.362774,"is_reserved":false,"is_disabled":false,"rental_uris":{"android":"levelo://app?vid=a68fab4c-1539-4eac-b6b8-d78dbd80682a","ios":"levelo://app?vid=a68fab4c-1539-4eac-b6b8-d78dbd80682a"},"vehicle_type_id":"4","last_reported":1722445650,"current_range_meters":24400,"station_id":"ce4bgpp2rcd13ifvqc3g","pricing_plan_id":"cebpf4jnsgd1na2vs0mg"},{"bike_id":"e30959b4-e7d7-4f38-bd49-9e455d797d51","system_id":"levelo_inurba_marseille","lat":43.298433,"lon":5.362774,"is_reserved":false,"is_disabled":false,"rental_uris":{"android":"levelo://app?vid=e30959b4-e7d7-4f38-bd49-9e455d797d51","ios":"levelo://app?vid=e30959b4-e7d7-4f38-bd49-9e455d797d51"},"vehicle_type_id":"4","last_reported":1722445650,"current_range_meters":15600,"station_id":"ce4bgpp2rcd13ifvqc3g","pricing_plan_id":"cebpf4jnsgd1na2vs0mg"},{"bike_id":"0a53ff35-1f08-4d33-a245-e46eb015fb87","system_id":"levelo_inurba_marseille","lat":43.298433,"lon":5.362774,"is_reserved":false,"is_disabled":false,"rental_uris":{"android":"levelo://app?vid=0a53ff35-1f08-4d33-a245-e46eb015fb87","ios":"levelo://app?vid=0a53ff35-1f08-4d33-a245-e46eb015fb87"},"vehicle_type_id":"4","last_reported":1722445650,"current_range_meters":0,"station_id":"ce4bgpp2rcd13ifvqc3g","pricing_plan_id":"cebpf4jnsgd1na2vs0mg"},{"bike_id":"40e8c660-86d8-41ed-928c-18715f47379b","system_id":"levelo_inurba_marseille","lat":43.311722,"lon":5.387247,"is_reserved":false,"is_disabled":false,"rental_uris":{"android":"levelo://app?vid=40e8c660-86d8-41ed-928c-18715f47379b","ios":"levelo://app?vid=40e8c660-86d8-41ed-928c-18715f47379b"},"vehicle_type_id":"4","last_reported":1722445650,"current_range_meters":0,"station_id":"ce4bgv12rcd13ifvqcp0","pricing_plan_id":"cebpf4jnsgd1na2vs0mg"},{"bike_id":"85e1401e-e382-4473-8634-ca7ad214953b","system_id":"levelo_inurba_marseille","lat":43.311722,"lon":5.387247,"is_reserved":false,"is_disabled":false,"rental_uris":{"android":"levelo://app?vid=85e1401e-e382-4473-8634-ca7ad214953b","ios":"levelo://app?vid=85e1401e-e382-4473-8634-ca7ad214953b"},"vehicle_type_id":"4","last_reported":1722445650,"current_range_meters":22400,"station_id":"ce4bgv12rcd13ifvqcp0","pricing_plan_id":"cebpf4jnsgd1na2vs0mg"},{"bike_id":"397d1a6f-664b-45c1-a37e-fd2c9ceec3a9","system_id":"levelo_inurba_marseille","lat":43.311722,"lon":5.387247,"is_reserved":false,"is_disabled":false,"rental_uris":{"android":"levelo://app?vid=397d1a6f-664b-45c1-a37e-fd2c9ceec3a9","ios":"levelo://app?vid=397d1a6f-664b-45c1-a37e-fd2c9ceec3a9"},"vehicle_type_id":"4","last_reported":1722445650,"current_range_meters":4400,"station_id":"ce4bgv12rcd13ifvqcp0","pricing_plan_id":"cebpf4jnsgd1na2vs0mg"},{"bike_id":"145782d7-cf4e-4aaf-b147-3c18477fb8bd","system_id":"levelo_inurba_marseille","lat":43.311722,"lon":5.387247,"is_reserved":false,"is_disabled":false,"rental_uris":{"android":"levelo://app?vid=145782d7-cf4e-4aaf-b147-3c18477fb8bd","ios":"levelo://app?vid=145782d7-cf4e-4aaf-b147-3c18477fb8bd"},"vehicle_type_id":"4","last_reported":1722445650,"current_range_meters":7600,"station_id":"ce4bgv12rcd13ifvqcp0","pricing_plan_id":"cebpf4jnsgd1na2vs0mg"},{"bike_id":"0a9432da-e141-4bff-8cc1-c1da187655bd","system_id":"levelo_inurba_marseille","lat":43.32294,"lon":5.38263,"is_reserved":false,"is_disabled":false,"rental_uris":{"android":"levelo://app?vid=0a9432da-e141-4bff-8cc1-c1da187655bd","ios":"levelo://app?vid=0a9432da-e141-4bff-8cc1-c1da187655bd"},"vehicle_type_id":"4","last_reported":1722445650,"current_range_meters":28400,"station_id":"ce4bhr12rcd13ifvqhqg","pricing_plan_id":"cebpf4jnsgd1na2vs0mg"},{"bike_id":"ac51ce27-755e-40da-b998-426f92ade031","system_id":"levelo_inurba_marseille","lat":43.322872,"lon":5.382756,"is_reserved":false,"is_disabled":false,"rental_uris":{"android":"levelo://app?vid=ac51ce27-755e-40da-b998-426f92ade031","ios":"levelo://app?vid=ac51ce27-755e-40da-b998-426f92ade031"},"vehicle_type_id":"4","last_reported":1722445650,"current_range_meters":16800,"station_id":"ce4bhr12rcd13ifvqhqg","pricing_plan_id":"cebpf4jnsgd1na2vs0mg"},{"bike_id":"e8b2dc29-770e-4e00-b140-8f88ab2177ae","system_id":"levelo_inurba_marseille","lat":43.322872,"lon":5.382756,"is_reserved":false,"is_disabled":false,"rental_uris":{"android":"levelo://app?vid=e8b2dc29-770e-4e00-b140-8f88ab2177ae","ios":"levelo://app?vid=e8b2dc29-770e-4e00-b140-8f88ab2177ae"},"vehicle_type_id":"4","last_reported":1722445650,"current_range_meters":8000,"station_id":"ce4bhr12rcd13ifvqhqg","pricing_plan_id":"cebpf4jnsgd1na2vs0mg"},{"bike_id":"f268223f-905b-4365-a762-77e0b77ff2b1","system_id":"levelo_inurba_marseille","lat":43.322872,"lon":5.382756,"is_reserved":false,"is_disabled":false,"rental_uris":{"android":"levelo://app?vid=f268223f-905b-4365-a762-77e0b77ff2b1","ios":"levelo://app?vid=f268223f-905b-4365-a762-77e0b77ff2b1"},"vehicle_type_id":"4","last_reported":1722445650,"current_range_meters":18400,"station_id":"ce4bhr12rcd13ifvqhqg","pricing_plan_id":"cebpf4jnsgd1na2vs0mg"},{"bike_id":"9266143a-9546-4c26-9e06-b1ecc4abae8a","system_id":"levelo_inurba_marseille","lat":43.300265,"lon":5.382035,"is_reserved":false,"is_disabled":false,"rental_uris":{"android":"levelo://app?vid=9266143a-9546-4c26-9e06-b1ecc4abae8a","ios":"levelo://app?vid=9266143a-9546-4c26-9e06-b1ecc4abae8a"},"vehicle_type_id":"4","last_reported":1722445650,"current_range_meters":1200,"station_id":"","pricing_plan_id":"cebpf4jnsgd1na2vs0mg"},{"bike_id":"0b4472ed-f606-4f50-812d-33bdba98853e","system_id":"levelo_inurba_marseille","lat":43.296131,"lon":5.370791,"is_reserved":false,"is_disabled":false,"rental_uris":{"android":"levelo://app?vid=0b4472ed-f606-4f50-812d-33bdba98853e","ios":"levelo://app?vid=0b4472ed-f606-4f50-812d-33bdba98853e"},"vehicle_type_id":"4","last_reported":1722445650,"current_range_meters":0,"station_id":"ce4bgnh2rcd13ifvqc0g","pricing_plan_id":"cebpf4jnsgd1na2vs0mg"},{"bike_id":"187a825d-eb4d-49a1-9e34-169a05a48d15","system_id":"levelo_inurba_marseille","lat":43.296131,"lon":5.370791,"is_reserved":false,"is_disabled":false,"rental_uris":{"android":"levelo://app?vid=187a825d-eb4d-49a1-9e34-169a05a48d15","ios":"levelo://app?vid=187a825d-eb4d-49a1-9e34-169a05a48d15"},"vehicle_type_id":"4","last_reported":1722445650,"current_range_meters":5600,"station_id":"ce4bgnh2rcd13ifvqc0g","pricing_plan_id":"cebpf4jnsgd1na2vs0mg"},{"bike_id":"ea1707dc-61d7-4be2-9cba-468d11ecff62","system_id":"levelo_inurba_marseille","lat":43.296131,"lon":5.370791,"is_reserved":false,"is_disabled":false,"rental_uris":{"android":"levelo://app?vid=ea1707dc-61d7-4be2-9cba-468d11ecff62","ios":"levelo://app?vid=ea1707dc-61d7-4be2-9cba-468d11ecff62"},"vehicle_type_id":"4","last_reported":1722445650,"current_range_meters":0,"station_id":"ce4bgnh2rcd13ifvqc0g","pricing_plan_id":"cebpf4jnsgd1na2vs0mg"},{"bike_id":"952821b4-e71f-4cf5-8d7a-88e3743e6ad5","system_id":"levelo_inurba_marseille","lat":43.296131,"lon":5.370791,"is_reserved":false,"is_disabled":false,"rental_uris":{"android":"levelo://app?vid=952821b4-e71f-4cf5-8d7a-88e3743e6ad5","ios":"levelo://app?vid=952821b4-e71f-4cf5-8d7a-88e3743e6ad5"},"vehicle_type_id":"4","last_reported":1722445650,"current_range_meters":30000,"station_id":"ce4bgnh2rcd13ifvqc0g","pricing_plan_id":"cebpf4jnsgd1na2vs0mg"},{"bike_id":"540f5d8d-398b-4b94-9cbe-ce8a8c004549","system_id":"levelo_inurba_marseille","lat":43.29587,"lon":5.36745,"is_reserved":false,"is_disabled":false,"rental_uris":{"android":"levelo://app?vid=540f5d8d-398b-4b94-9cbe-ce8a8c004549","ios":"levelo://app?vid=540f5d8d-398b-4b94-9cbe-ce8a8c004549"},"vehicle_type_id":"4","last_reported":1722445650,"current_range_meters":31600,"station_id":"ce4bgph2rcd13ifvqc2g","pricing_plan_id":"cebpf4jnsgd1na2vs0mg"},{"bike_id":"f814a2de-df1e-4985-ba69-7c5a50e20b45","system_id":"levelo_inurba_marseille","lat":43.29573,"lon":5.367355,"is_reserved":false,"is_disabled":false,"rental_uris":{"android":"levelo://app?vid=f814a2de-df1e-4985-ba69-7c5a50e20b45","ios":"levelo://app?vid=f814a2de-df1e-4985-ba69-7c5a50e20b45"},"vehicle_type_id":"4","last_reported":1722445650,"current_range_meters":0,"station_id":"ce4bgph2rcd13ifvqc2g","pricing_plan_id":"cebpf4jnsgd1na2vs0mg"},{"bike_id":"8525d477-c146-4510-ad95-68c53329abaa","system_id":"levelo_inurba_marseille","lat":43.29573,"lon":5.367355,"is_reserved":false,"is_disabled":false,"rental_uris":{"android":"levelo://app?vid=8525d477-c146-4510-ad95-68c53329abaa","ios":"levelo://app?vid=8525d477-c146-4510-ad95-68c53329abaa"},"vehicle_type_id":"4","last_reported":1722445650,"current_range_meters":3600,"station_id":"ce4bgph2rcd13ifvqc2g","pricing_plan_id":"cebpf4jnsgd1na2vs0mg"},{"bike_id":"6dcaa6a2-c311-4180-9954-d063b5eacd52","system_id":"levelo_inurba_marseille","lat":43.309589,"lon":5.390258,"is_reserved":false,"is_disabled":false,"rental_uris":{"android":"levelo://app?vid=6dcaa6a2-c311-4180-9954-d063b5eacd52","ios":"levelo://app?vid=6dcaa6a2-c311-4180-9954-d063b5eacd52"},"vehicle_type_id":"4","last_reported":1722445650,"current_range_meters":31200,"station_id":"ce4bgup2rcd13ifvqco0","pricing_plan_id":"cebpf4jnsgd1na2vs0mg"},{"bike_id":"0f86cfa0-52a4-4fa6-bce7-a794d039bf10","system_id":"levelo_inurba_marseille","lat":43.30957,"lon":5.39032,"is_reserved":false,"is_disabled":false,"rental_uris":{"android":"levelo://app?vid=0f86cfa0-52a4-4fa6-bce7-a794d039bf10","ios":"levelo://app?vid=0f86cfa0-52a4-4fa6-bce7-a794d039bf10"},"vehicle_type_id":"4","last_reported":1722445650,"current_range_meters":20400,"station_id":"ce4bgup2rcd13ifvqco0","pricing_plan_id":"cebpf4jnsgd1na2vs0mg"},{"bike_id":"da5b160c-01e4-44c1-8017-d5cf407230d0","system_id":"levelo_inurba_marseille","lat":43.309589,"lon":5.390258,"is_reserved":false,"is_disabled":false,"rental_uris":{"android":"levelo://app?vid=da5b160c-01e4-44c1-8017-d5cf407230d0","ios":"levelo://app?vid=da5b160c-01e4-44c1-8017-d5cf407230d0"},"vehicle_type_id":"4","last_reported":1722445650,"current_range_meters":16800,"station_id":"ce4bgup2rcd13ifvqco0","pricing_plan_id":"cebpf4jnsgd1na2vs0mg"},{"bike_id":"594ca3b9-ac25-48e4-8f43-6e641ce77f34","system_id":"levelo_inurba_marseille","lat":43.309589,"lon":5.390258,"is_reserved":false,"is_disabled":false,"rental_uris":{"android":"levelo://app?vid=594ca3b9-ac25-48e4-8f43-6e641ce77f34","ios":"levelo://app?vid=594ca3b9-ac25-48e4-8f43-6e641ce77f34"},"vehicle_type_id":"4","last_reported":1722445650,"current_range_meters":0,"station_id":"ce4bgup2rcd13ifvqco0","pricing_plan_id":"cebpf4jnsgd1na2vs0mg"},{"bike_id":"e0297355-245a-4747-be77-82aaad29e1fd","system_id":"levelo_inurba_marseille","lat":43.298097,"lon":5.381008,"is_reserved":false,"is_disabled":false,"rental_uris":{"android":"levelo://app?vid=e0297355-245a-4747-be77-82aaad29e1fd","ios":"levelo://app?vid=e0297355-245a-4747-be77-82aaad29e1fd"},"vehicle_type_id":"4","last_reported":1722445650,"current_range_meters":5600,"station_id":"ce4bhbh2rcd13ifvqepg","pricing_plan_id":"cebpf4jnsgd1na2vs0mg"},{"bike_id":"0beb30b3-d396-4da7-a52a-791d939a57e7","system_id":"levelo_inurba_marseille","lat":43.296277,"lon":5.377108,"is_reserved":false,"is_disabled":false,"rental_uris":{"android":"levelo://app?vid=0beb30b3-d396-4da7-a52a-791d939a57e7","ios":"levelo://app?vid=0beb30b3-d396-4da7-a52a-791d939a57e7"},"vehicle_type_id":"4","last_reported":1722445650,"current_range_meters":0,"station_id":"ce4bgi92rcd13ifvqb90","pricing_plan_id":"cebpf4jnsgd1na2vs0mg"},{"bike_id":"e396189b-79c0-4e26-a0a6-2eefdfcdf8e1","system_id":"levelo_inurba_marseille","lat":43.296277,"lon":5.377108,"is_reserved":false,"is_disabled":false,"rental_uris":{"android":"levelo://app?vid=e396189b-79c0-4e26-a0a6-2eefdfcdf8e1","ios":"levelo://app?vid=e396189b-79c0-4e26-a0a6-2eefdfcdf8e1"},"vehicle_type_id":"4","last_reported":1722445650,"current_range_meters":0,"station_id":"ce4bgi92rcd13ifvqb90","pricing_plan_id":"cebpf4jnsgd1na2vs0mg"},{"bike_id":"c89e403a-7211-4551-9b81-bbd5287d0c21","system_id":"levelo_inurba_marseille","lat":43.299707,"lon":5.384859,"is_reserved":false,"is_disabled":false,"rental_uris":{"android":"levelo://app?vid=c89e403a-7211-4551-9b81-bbd5287d0c21","ios":"levelo://app?vid=c89e403a-7211-4551-9b81-bbd5287d0c21"},"vehicle_type_id":"4","last_reported":1722445650,"current_range_meters":0,"station_id":"ce4bgj92rcd13ifvqbd0","pricing_plan_id":"cebpf4jnsgd1na2vs0mg"},{"bike_id":"d40f9480-7452-43a0-bba8-bc764686fd35","system_id":"levelo_inurba_marseille","lat":43.29536,"lon":5.375,"is_reserved":false,"is_disabled":false,"rental_uris":{"android":"levelo://app?vid=d40f9480-7452-43a0-bba8-bc764686fd35","ios":"levelo://app?vid=d40f9480-7452-43a0-bba8-bc764686fd35"},"vehicle_type_id":"4","last_reported":1722445650,"current_range_meters":20400,"station_id":"ce4bgkp2rcd13ifvqbmg","pricing_plan_id":"cebpf4jnsgd1na2vs0mg"},{"bike_id":"c1cc88b2-b175-4dbf-a700-a694c13d470f","system_id":"levelo_inurba_marseille","lat":43.29536,"lon":5.37508,"is_reserved":false,"is_disabled":false,"rental_uris":{"android":"levelo://app?vid=c1cc88b2-b175-4dbf-a700-a694c13d470f","ios":"levelo://app?vid=c1cc88b2-b175-4dbf-a700-a694c13d470f"},"vehicle_type_id":"4","last_reported":1722445650,"current_range_meters":0,"station_id":"ce4bgkp2rcd13ifvqbmg","pricing_plan_id":"cebpf4jnsgd1na2vs0mg"},{"bike_id":"800db509-f675-49d1-b0bf-f9d67014de6d","system_id":"levelo_inurba_marseille","lat":43.299724,"lon":5.384848,"is_reserved":false,"is_disabled":false,"rental_uris":{"android":"levelo://app?vid=800db509-f675-49d1-b0bf-f9d67014de6d","ios":"levelo://app?vid=800db509-f675-49d1-b0bf-f9d67014de6d"},"vehicle_type_id":"4","last_reported":1722445650,"current_range_meters":15200,"station_id":"ce4bgj92rcd13ifvqbd0","pricing_plan_id":"cebpf4jnsgd1na2vs0mg"},{"bike_id":"b3aed60a-4625-47ed-8933-bf4d9b4bff59","system_id":"levelo_inurba_marseille","lat":43.299724,"lon":5.384848,"is_reserved":false,"is_disabled":false,"rental_uris":{"android":"levelo://app?vid=b3aed60a-4625-47ed-8933-bf4d9b4bff59","ios":"levelo://app?vid=b3aed60a-4625-47ed-8933-bf4d9b4bff59"},"vehicle_type_id":"4","last_reported":1722445650,"current_range_meters":15200,"station_id":"ce4bgj92rcd13ifvqbd0","pricing_plan_id":"cebpf4jnsgd1na2vs0mg"},{"bike_id":"3ec3b464-d52c-4abe-8fdd-c0798f691e76","system_id":"levelo_inurba_marseille","lat":43.299707,"lon":5.384859,"is_reserved":false,"is_disabled":false,"rental_uris":{"android":"levelo://app?vid=3ec3b464-d52c-4abe-8fdd-c0798f691e76","ios":"levelo://app?vid=3ec3b464-d52c-4abe-8fdd-c0798f691e76"},"vehicle_type_id":"4","last_reported":1722445650,"current_range_meters":0,"station_id":"ce4bgj92rcd13ifvqbd0","pricing_plan_id":"cebpf4jnsgd1na2vs0mg"},{"bike_id":"0560ad5a-2609-448e-9939-fc6ec400a95c","system_id":"levelo_inurba_marseille","lat":43.32367,"lon":5.388836,"is_reserved":false,"is_disabled":false,"rental_uris":{"android":"levelo://app?vid=0560ad5a-2609-448e-9939-fc6ec400a95c","ios":"levelo://app?vid=0560ad5a-2609-448e-9939-fc6ec400a95c"},"vehicle_type_id":"4","last_reported":1722445650,"current_range_meters":4800,"station_id":"ce4bhqp2rcd13ifvqhog","pricing_plan_id":"cebpf4jnsgd1na2vs0mg"},{"bike_id":"424fa7dd-ac8f-465b-b9d4-b9ef9ec8f7b3","system_id":"levelo_inurba_marseille","lat":43.32367,"lon":5.388836,"is_reserved":false,"is_disabled":false,"rental_uris":{"android":"levelo://app?vid=424fa7dd-ac8f-465b-b9d4-b9ef9ec8f7b3","ios":"levelo://app?vid=424fa7dd-ac8f-465b-b9d4-b9ef9ec8f7b3"},"vehicle_type_id":"4","last_reported":1722445650,"current_range_meters":15200,"station_id":"ce4bhqp2rcd13ifvqhog","pricing_plan_id":"cebpf4jnsgd1na2vs0mg"},{"bike_id":"0a85f345-216f-4704-a378-5933fa5393c1","system_id":"levelo_inurba_marseille","lat":43.323741,"lon":5.388814,"is_reserved":false,"is_disabled":false,"rental_uris":{"android":"levelo://app?vid=0a85f345-216f-4704-a378-5933fa5393c1","ios":"levelo://app?vid=0a85f345-216f-4704-a378-5933fa5393c1"},"vehicle_type_id":"4","last_reported":1722445650,"current_range_meters":3600,"station_id":"","pricing_plan_id":"cebpf4jnsgd1na2vs0mg"},{"bike_id":"430784cf-cdd4-4ca1-ac75-d143ff6455ee","system_id":"levelo_inurba_marseille","lat":43.2963,"lon":5.38104,"is_reserved":false,"is_disabled":false,"rental_uris":{"android":"levelo://app?vid=430784cf-cdd4-4ca1-ac75-d143ff6455ee","ios":"levelo://app?vid=430784cf-cdd4-4ca1-ac75-d143ff6455ee"},"vehicle_type_id":"4","last_reported":1722445650,"current_range_meters":21200,"station_id":"ce4bgl12rcd13ifvqbo0","pricing_plan_id":"cebpf4jnsgd1na2vs0mg"},{"bike_id":"5f0d951a-5389-40d2-92f2-635f99958b7d","system_id":"levelo_inurba_marseille","lat":43.29601,"lon":5.381084,"is_reserved":false,"is_disabled":false,"rental_uris":{"android":"levelo://app?vid=5f0d951a-5389-40d2-92f2-635f99958b7d","ios":"levelo://app?vid=5f0d951a-5389-40d2-92f2-635f99958b7d"},"vehicle_type_id":"4","last_reported":1722445650,"current_range_meters":0,"station_id":"ce4bgl12rcd13ifvqbo0","pricing_plan_id":"cebpf4jnsgd1na2vs0mg"},{"bike_id":"37f5e47a-a8c4-4807-ade8-80991a691e4d","system_id":"levelo_inurba_marseille","lat":43.292749,"lon":5.368398,"is_reserved":false,"is_disabled":false,"rental_uris":{"android":"levelo://app?vid=37f5e47a-a8c4-4807-ade8-80991a691e4d","ios":"levelo://app?vid=37f5e47a-a8c4-4807-ade8-80991a691e4d"},"vehicle_type_id":"4","last_reported":1722445650,"current_range_meters":2800,"station_id":"ce4bhbp2rcd13ifvqesg","pricing_plan_id":"cebpf4jnsgd1na2vs0mg"},{"bike_id":"9fc94776-a9bf-44bc-9a8d-d7ab4bf0cc95","system_id":"levelo_inurba_marseille","lat":43.292749,"lon":5.368398,"is_reserved":false,"is_disabled":false,"rental_uris":{"android":"levelo://app?vid=9fc94776-a9bf-44bc-9a8d-d7ab4bf0cc95","ios":"levelo://app?vid=9fc94776-a9bf-44bc-9a8d-d7ab4bf0cc95"},"vehicle_type_id":"4","last_reported":1722445650,"current_range_meters":15600,"station_id":"ce4bhbp2rcd13ifvqesg","pricing_plan_id":"cebpf4jnsgd1na2vs0mg"},{"bike_id":"b741887b-d88a-4029-a939-b8b3ab76cb01","system_id":"levelo_inurba_marseille","lat":43.292749,"lon":5.368402,"is_reserved":false,"is_disabled":false,"rental_uris":{"android":"levelo://app?vid=b741887b-d88a-4029-a939-b8b3ab76cb01","ios":"levelo://app?vid=b741887b-d88a-4029-a939-b8b3ab76cb01"},"vehicle_type_id":"4","last_reported":1722445650,"current_range_meters":16000,"station_id":"ce4bhbp2rcd13ifvqesg","pricing_plan_id":"cebpf4jnsgd1na2vs0mg"},{"bike_id":"2f914f83-a9b1-4273-a2eb-93495ad18bca","system_id":"levelo_inurba_marseille","lat":43.292749,"lon":5.368402,"is_reserved":false,"is_disabled":false,"rental_uris":{"android":"levelo://app?vid=2f914f83-a9b1-4273-a2eb-93495ad18bca","ios":"levelo://app?vid=2f914f83-a9b1-4273-a2eb-93495ad18bca"},"vehicle_type_id":"4","last_reported":1722445650,"current_range_meters":0,"station_id":"ce4bhbp2rcd13ifvqesg","pricing_plan_id":"cebpf4jnsgd1na2vs0mg"},{"bike_id":"06aa5918-3027-4906-a3b1-2c8680fa58e5","system_id":"levelo_inurba_marseille","lat":43.292749,"lon":5.368402,"is_reserved":false,"is_disabled":false,"rental_uris":{"android":"levelo://app?vid=06aa5918-3027-4906-a3b1-2c8680fa58e5","ios":"levelo://app?vid=06aa5918-3027-4906-a3b1-2c8680fa58e5"},"vehicle_type_id":"4","last_reported":1722445650,"current_range_meters":0,"station_id":"ce4bhbp2rcd13ifvqesg","pricing_plan_id":"cebpf4jnsgd1na2vs0mg"},{"bike_id":"72ab3f42-8871-4c63-80ba-0e1b10d53358","system_id":"levelo_inurba_marseille","lat":43.292559,"lon":5.367372,"is_reserved":false,"is_disabled":false,"rental_uris":{"android":"levelo://app?vid=72ab3f42-8871-4c63-80ba-0e1b10d53358","ios":"levelo://app?vid=72ab3f42-8871-4c63-80ba-0e1b10d53358"},"vehicle_type_id":"4","last_reported":1722445650,"current_range_meters":6000,"station_id":"","pricing_plan_id":"cebpf4jnsgd1na2vs0mg"},{"bike_id":"d1e3141e-e92e-4307-8aa6-2147583b078a","system_id":"levelo_inurba_marseille","lat":43.29306,"lon":5.3746,"is_reserved":false,"is_disabled":false,"rental_uris":{"android":"levelo://app?vid=d1e3141e-e92e-4307-8aa6-2147583b078a","ios":"levelo://app?vid=d1e3141e-e92e-4307-8aa6-2147583b078a"},"vehicle_type_id":"4","last_reported":1722445650,"current_range_meters":0,"station_id":"ce4bgi12rcd13ifvqb70","pricing_plan_id":"cebpf4jnsgd1na2vs0mg"},{"bike_id":"3dcfafc9-c3e7-492e-9f24-7e69990a0f36","system_id":"levelo_inurba_marseille","lat":43.293009,"lon":5.374584,"is_reserved":false,"is_disabled":false,"rental_uris":{"android":"levelo://app?vid=3dcfafc9-c3e7-492e-9f24-7e69990a0f36","ios":"levelo://app?vid=3dcfafc9-c3e7-492e-9f24-7e69990a0f36"},"vehicle_type_id":"4","last_reported":1722445650,"current_range_meters":17200,"station_id":"ce4bgi12rcd13ifvqb70","pricing_plan_id":"cebpf4jnsgd1na2vs0mg"},{"bike_id":"2b2e0607-1ba6-4f4f-ada9-f4dce096f714","system_id":"levelo_inurba_marseille","lat":43.293006,"lon":5.374515,"is_reserved":false,"is_disabled":false,"rental_uris":{"android":"levelo://app?vid=2b2e0607-1ba6-4f4f-ada9-f4dce096f714","ios":"levelo://app?vid=2b2e0607-1ba6-4f4f-ada9-f4dce096f714"},"vehicle_type_id":"4","last_reported":1722445650,"current_range_meters":0,"station_id":"ce4bgi12rcd13ifvqb70","pricing_plan_id":"cebpf4jnsgd1na2vs0mg"},{"bike_id":"314fba83-3fdd-4558-8317-850932247a86","system_id":"levelo_inurba_marseille","lat":43.293009,"lon":5.374584,"is_reserved":false,"is_disabled":false,"rental_uris":{"android":"levelo://app?vid=314fba83-3fdd-4558-8317-850932247a86","ios":"levelo://app?vid=314fba83-3fdd-4558-8317-850932247a86"},"vehicle_type_id":"4","last_reported":1722445650,"current_range_meters":0,"station_id":"ce4bgi12rcd13ifvqb70","pricing_plan_id":"cebpf4jnsgd1na2vs0mg"},{"bike_id":"7a0b788c-7202-422c-b9f7-fb2ee6a93c96","system_id":"levelo_inurba_marseille","lat":43.303002,"lon":5.392142,"is_reserved":false,"is_disabled":false,"rental_uris":{"android":"levelo://app?vid=7a0b788c-7202-422c-b9f7-fb2ee6a93c96","ios":"levelo://app?vid=7a0b788c-7202-422c-b9f7-fb2ee6a93c96"},"vehicle_type_id":"4","last_reported":1722445650,"current_range_meters":1600,"station_id":"ce4bgkh2rcd13ifvqbk0","pricing_plan_id":"cebpf4jnsgd1na2vs0mg"},{"bike_id":"f9b6f8b9-1bf2-43b3-b36c-b2743a9fdc38","system_id":"levelo_inurba_marseille","lat":43.29367,"lon":5.378305,"is_reserved":false,"is_disabled":false,"rental_uris":{"android":"levelo://app?vid=f9b6f8b9-1bf2-43b3-b36c-b2743a9fdc38","ios":"levelo://app?vid=f9b6f8b9-1bf2-43b3-b36c-b2743a9fdc38"},"vehicle_type_id":"4","last_reported":1722445650,"current_range_meters":0,"station_id":"ce4bgjh2rcd13ifvqbf0","pricing_plan_id":"cebpf4jnsgd1na2vs0mg"},{"bike_id":"73046b61-93b8-46d7-80c8-54000603f75a","system_id":"levelo_inurba_marseille","lat":43.302992,"lon":5.392136,"is_reserved":false,"is_disabled":false,"rental_uris":{"android":"levelo://app?vid=73046b61-93b8-46d7-80c8-54000603f75a","ios":"levelo://app?vid=73046b61-93b8-46d7-80c8-54000603f75a"},"vehicle_type_id":"4","last_reported":1722445650,"current_range_meters":18000,"station_id":"ce4bgkh2rcd13ifvqbk0","pricing_plan_id":"cebpf4jnsgd1na2vs0mg"},{"bike_id":"08297aa9-a9ff-46f0-8e48-f13a1322bb14","system_id":"levelo_inurba_marseille","lat":43.292311,"lon":5.360731,"is_reserved":false,"is_disabled":false,"rental_uris":{"android":"levelo://app?vid=08297aa9-a9ff-46f0-8e48-f13a1322bb14","ios":"levelo://app?vid=08297aa9-a9ff-46f0-8e48-f13a1322bb14"},"vehicle_type_id":"4","last_reported":1722445650,"current_range_meters":31200,"station_id":"ce4bhbh2rcd13ifvqeqg","pricing_plan_id":"cebpf4jnsgd1na2vs0mg"},{"bike_id":"07e6f7ad-ed8a-48b2-8e62-93eb8d99cd06","system_id":"levelo_inurba_marseille","lat":43.29225,"lon":5.36067,"is_reserved":false,"is_disabled":false,"rental_uris":{"android":"levelo://app?vid=07e6f7ad-ed8a-48b2-8e62-93eb8d99cd06","ios":"levelo://app?vid=07e6f7ad-ed8a-48b2-8e62-93eb8d99cd06"},"vehicle_type_id":"4","last_reported":1722445650,"current_range_meters":31200,"station_id":"ce4bhbh2rcd13ifvqeqg","pricing_plan_id":"cebpf4jnsgd1na2vs0mg"},{"bike_id":"6bd9d607-b15b-44a9-9f64-6b8208e36bbc","system_id":"levelo_inurba_marseille","lat":43.30085,"lon":5.390856,"is_reserved":false,"is_disabled":false,"rental_uris":{"android":"levelo://app?vid=6bd9d607-b15b-44a9-9f64-6b8208e36bbc","ios":"levelo://app?vid=6bd9d607-b15b-44a9-9f64-6b8208e36bbc"},"vehicle_type_id":"4","last_reported":1722445650,"current_range_meters":0,"station_id":"ce4bh192rcd13ifvqdb0","pricing_plan_id":"cebpf4jnsgd1na2vs0mg"},{"bike_id":"bc778718-fc98-4481-a423-8402e9075042","system_id":"levelo_inurba_marseille","lat":43.30085,"lon":5.390856,"is_reserved":false,"is_disabled":false,"rental_uris":{"android":"levelo://app?vid=bc778718-fc98-4481-a423-8402e9075042","ios":"levelo://app?vid=bc778718-fc98-4481-a423-8402e9075042"},"vehicle_type_id":"4","last_reported":1722445650,"current_range_meters":16400,"station_id":"ce4bh192rcd13ifvqdb0","pricing_plan_id":"cebpf4jnsgd1na2vs0mg"},{"bike_id":"c354ecca-18ea-4390-8ef0-7bc1a4bf651d","system_id":"levelo_inurba_marseille","lat":43.29223,"lon":5.36058,"is_reserved":false,"is_disabled":false,"rental_uris":{"android":"levelo://app?vid=c354ecca-18ea-4390-8ef0-7bc1a4bf651d","ios":"levelo://app?vid=c354ecca-18ea-4390-8ef0-7bc1a4bf651d"},"vehicle_type_id":"4","last_reported":1722445650,"current_range_meters":16400,"station_id":"ce4bhbh2rcd13ifvqeqg","pricing_plan_id":"cebpf4jnsgd1na2vs0mg"},{"bike_id":"2497b35a-7af2-41fa-9ed4-4f3b1a2deb49","system_id":"levelo_inurba_marseille","lat":43.29221,"lon":5.36059,"is_reserved":false,"is_disabled":false,"rental_uris":{"android":"levelo://app?vid=2497b35a-7af2-41fa-9ed4-4f3b1a2deb49","ios":"levelo://app?vid=2497b35a-7af2-41fa-9ed4-4f3b1a2deb49"},"vehicle_type_id":"4","last_reported":1722445650,"current_range_meters":6800,"station_id":"ce4bhbh2rcd13ifvqeqg","pricing_plan_id":"cebpf4jnsgd1na2vs0mg"},{"bike_id":"ce9a45c7-9d46-425f-98b2-e47bb728ff28","system_id":"levelo_inurba_marseille","lat":43.30085,"lon":5.390856,"is_reserved":false,"is_disabled":false,"rental_uris":{"android":"levelo://app?vid=ce9a45c7-9d46-425f-98b2-e47bb728ff28","ios":"levelo://app?vid=ce9a45c7-9d46-425f-98b2-e47bb728ff28"},"vehicle_type_id":"4","last_reported":1722445650,"current_range_meters":11600,"station_id":"ce4bh192rcd13ifvqdb0","pricing_plan_id":"cebpf4jnsgd1na2vs0mg"},{"bike_id":"d71bb2c5-a2ea-48c4-833b-ef13934819d0","system_id":"levelo_inurba_marseille","lat":43.31372,"lon":5.39598,"is_reserved":false,"is_disabled":false,"rental_uris":{"android":"levelo://app?vid=d71bb2c5-a2ea-48c4-833b-ef13934819d0","ios":"levelo://app?vid=d71bb2c5-a2ea-48c4-833b-ef13934819d0"},"vehicle_type_id":"4","last_reported":1722445650,"current_range_meters":11200,"station_id":"","pricing_plan_id":"cebpf4jnsgd1na2vs0mg"},{"bike_id":"49f856a0-9aee-4b50-9629-3cb4efe0c37f","system_id":"levelo_inurba_marseille","lat":43.292311,"lon":5.360731,"is_reserved":false,"is_disabled":false,"rental_uris":{"android":"levelo://app?vid=49f856a0-9aee-4b50-9629-3cb4efe0c37f","ios":"levelo://app?vid=49f856a0-9aee-4b50-9629-3cb4efe0c37f"},"vehicle_type_id":"4","last_reported":1722445650,"current_range_meters":22400,"station_id":"ce4bhbh2rcd13ifvqeqg","pricing_plan_id":"cebpf4jnsgd1na2vs0mg"},{"bike_id":"986ea529-269b-4bc4-9a35-20a1897afb8d","system_id":"levelo_inurba_marseille","lat":43.291994,"lon":5.357886,"is_reserved":false,"is_disabled":false,"rental_uris":{"android":"levelo://app?vid=986ea529-269b-4bc4-9a35-20a1897afb8d","ios":"levelo://app?vid=986ea529-269b-4bc4-9a35-20a1897afb8d"},"vehicle_type_id":"4","last_reported":1722445650,"current_range_meters":31200,"station_id":"ce4bhb12rcd13ifvqel0","pricing_plan_id":"cebpf4jnsgd1na2vs0mg"},{"bike_id":"8505d372-4d60-4182-982f-1392c23a7034","system_id":"levelo_inurba_marseille","lat":43.29193,"lon":5.35796,"is_reserved":false,"is_disabled":false,"rental_uris":{"android":"levelo://app?vid=8505d372-4d60-4182-982f-1392c23a7034","ios":"levelo://app?vid=8505d372-4d60-4182-982f-1392c23a7034"},"vehicle_type_id":"4","last_reported":1722445650,"current_range_meters":0,"station_id":"ce4bhb12rcd13ifvqel0","pricing_plan_id":"cebpf4jnsgd1na2vs0mg"},{"bike_id":"0d2cfb5c-6c73-4d68-a10e-dba81231d9d4","system_id":"levelo_inurba_marseille","lat":43.313291,"lon":5.396838,"is_reserved":false,"is_disabled":false,"rental_uris":{"android":"levelo://app?vid=0d2cfb5c-6c73-4d68-a10e-dba81231d9d4","ios":"levelo://app?vid=0d2cfb5c-6c73-4d68-a10e-dba81231d9d4"},"vehicle_type_id":"4","last_reported":1722445650,"current_range_meters":12000,"station_id":"ce4bgvp2rcd13ifvqcu0","pricing_plan_id":"cebpf4jnsgd1na2vs0mg"},{"bike_id":"e16f6eb5-5114-40c2-a837-ce0b6acc763e","system_id":"levelo_inurba_marseille","lat":43.313291,"lon":5.396838,"is_reserved":false,"is_disabled":false,"rental_uris":{"android":"levelo://app?vid=e16f6eb5-5114-40c2-a837-ce0b6acc763e","ios":"levelo://app?vid=e16f6eb5-5114-40c2-a837-ce0b6acc763e"},"vehicle_type_id":"4","last_reported":1722445650,"current_range_meters":6000,"station_id":"ce4bgvp2rcd13ifvqcu0","pricing_plan_id":"cebpf4jnsgd1na2vs0mg"},{"bike_id":"ac7864f3-d27c-4667-a331-25d914f15139","system_id":"levelo_inurba_marseille","lat":43.29529,"lon":5.385581,"is_reserved":false,"is_disabled":false,"rental_uris":{"android":"levelo://app?vid=ac7864f3-d27c-4667-a331-25d914f15139","ios":"levelo://app?vid=ac7864f3-d27c-4667-a331-25d914f15139"},"vehicle_type_id":"4","last_reported":1722445650,"current_range_meters":0,"station_id":"ce4bgih2rcd13ifvqba0","pricing_plan_id":"cebpf4jnsgd1na2vs0mg"},{"bike_id":"183e080a-8de3-47a1-8a63-fa6e55869fc3","system_id":"levelo_inurba_marseille","lat":43.309047,"lon":5.396551,"is_reserved":false,"is_disabled":false,"rental_uris":{"android":"levelo://app?vid=183e080a-8de3-47a1-8a63-fa6e55869fc3","ios":"levelo://app?vid=183e080a-8de3-47a1-8a63-fa6e55869fc3"},"vehicle_type_id":"4","last_reported":1722445650,"current_range_meters":2400,"station_id":"ce4bh012rcd13ifvqcv0","pricing_plan_id":"cebpf4jnsgd1na2vs0mg"},{"bike_id":"928f4f4c-97d4-4de2-b0c2-91472cd3ee55","system_id":"levelo_inurba_marseille","lat":43.309038,"lon":5.396546,"is_reserved":false,"is_disabled":false,"rental_uris":{"android":"levelo://app?vid=928f4f4c-97d4-4de2-b0c2-91472cd3ee55","ios":"levelo://app?vid=928f4f4c-97d4-4de2-b0c2-91472cd3ee55"},"vehicle_type_id":"4","last_reported":1722445650,"current_range_meters":10400,"station_id":"ce4bh012rcd13ifvqcv0","pricing_plan_id":"cebpf4jnsgd1na2vs0mg"},{"bike_id":"8b9c252c-4cae-4d06-a2ec-c117cfb8666d","system_id":"levelo_inurba_marseille","lat":43.29529,"lon":5.385581,"is_reserved":false,"is_disabled":false,"rental_uris":{"android":"levelo://app?vid=8b9c252c-4cae-4d06-a2ec-c117cfb8666d","ios":"levelo://app?vid=8b9c252c-4cae-4d06-a2ec-c117cfb8666d"},"vehicle_type_id":"4","last_reported":1722445650,"current_range_meters":1200,"station_id":"ce4bgih2rcd13ifvqba0","pricing_plan_id":"cebpf4jnsgd1na2vs0mg"},{"bike_id":"f33d226a-92ce-49b5-abbb-14e7a329f039","system_id":"levelo_inurba_marseille","lat":43.29529,"lon":5.385581,"is_reserved":false,"is_disabled":false,"rental_uris":{"android":"levelo://app?vid=f33d226a-92ce-49b5-abbb-14e7a329f039","ios":"levelo://app?vid=f33d226a-92ce-49b5-abbb-14e7a329f039"},"vehicle_type_id":"4","last_reported":1722445650,"current_range_meters":13200,"station_id":"ce4bgih2rcd13ifvqba0","pricing_plan_id":"cebpf4jnsgd1na2vs0mg"},{"bike_id":"416ab92a-ce00-47a4-bae9-8033323fb3b5","system_id":"levelo_inurba_marseille","lat":43.29529,"lon":5.385581,"is_reserved":false,"is_disabled":false,"rental_uris":{"android":"levelo://app?vid=416ab92a-ce00-47a4-bae9-8033323fb3b5","ios":"levelo://app?vid=416ab92a-ce00-47a4-bae9-8033323fb3b5"},"vehicle_type_id":"4","last_reported":1722445650,"current_range_meters":12800,"station_id":"ce4bgih2rcd13ifvqba0","pricing_plan_id":"cebpf4jnsgd1na2vs0mg"},{"bike_id":"154d9490-bc8e-45b6-b212-397543e88e60","system_id":"levelo_inurba_marseille","lat":43.290624,"lon":5.359245,"is_reserved":false,"is_disabled":false,"rental_uris":{"android":"levelo://app?vid=154d9490-bc8e-45b6-b212-397543e88e60","ios":"levelo://app?vid=154d9490-bc8e-45b6-b212-397543e88e60"},"vehicle_type_id":"4","last_reported":1722445650,"current_range_meters":1200,"station_id":"ce4bha92rcd13ifvqeg0","pricing_plan_id":"cebpf4jnsgd1na2vs0mg"},{"bike_id":"3a6ecb16-b5bc-4f30-879c-ee797490430d","system_id":"levelo_inurba_marseille","lat":43.294153,"lon":5.386305,"is_reserved":false,"is_disabled":false,"rental_uris":{"android":"levelo://app?vid=3a6ecb16-b5bc-4f30-879c-ee797490430d","ios":"levelo://app?vid=3a6ecb16-b5bc-4f30-879c-ee797490430d"},"vehicle_type_id":"4","last_reported":1722445650,"current_range_meters":0,"station_id":"ce4bh2h2rcd13ifvqdh0","pricing_plan_id":"cebpf4jnsgd1na2vs0mg"},{"bike_id":"36a7d7fc-f419-4d71-800b-1d2a39d83cd1","system_id":"levelo_inurba_marseille","lat":43.294153,"lon":5.386305,"is_reserved":false,"is_disabled":false,"rental_uris":{"android":"levelo://app?vid=36a7d7fc-f419-4d71-800b-1d2a39d83cd1","ios":"levelo://app?vid=36a7d7fc-f419-4d71-800b-1d2a39d83cd1"},"vehicle_type_id":"4","last_reported":1722445650,"current_range_meters":0,"station_id":"ce4bh2h2rcd13ifvqdh0","pricing_plan_id":"cebpf4jnsgd1na2vs0mg"},{"bike_id":"186b1e2d-944d-4f6d-b7f0-1d04a579f3e5","system_id":"levelo_inurba_marseille","lat":43.290327,"lon":5.375711,"is_reserved":false,"is_disabled":false,"rental_uris":{"android":"levelo://app?vid=186b1e2d-944d-4f6d-b7f0-1d04a579f3e5","ios":"levelo://app?vid=186b1e2d-944d-4f6d-b7f0-1d04a579f3e5"},"vehicle_type_id":"4","last_reported":1722445650,"current_range_meters":0,"station_id":"ce4bh692rcd13ifvqe90","pricing_plan_id":"cebpf4jnsgd1na2vs0mg"},{"bike_id":"eeb6e0e8-92c7-4be7-9ba8-9112bc55abc3","system_id":"levelo_inurba_marseille","lat":43.289468,"lon":5.363719,"is_reserved":false,"is_disabled":false,"rental_uris":{"android":"levelo://app?vid=eeb6e0e8-92c7-4be7-9ba8-9112bc55abc3","ios":"levelo://app?vid=eeb6e0e8-92c7-4be7-9ba8-9112bc55abc3"},"vehicle_type_id":"4","last_reported":1722445650,"current_range_meters":4400,"station_id":"ce4bhc92rcd13ifvqetg","pricing_plan_id":"cebpf4jnsgd1na2vs0mg"},{"bike_id":"d9e966a3-a9eb-4ac0-b4ba-44d90aaebaf4","system_id":"levelo_inurba_marseille","lat":43.29416,"lon":5.38623,"is_reserved":false,"is_disabled":false,"rental_uris":{"android":"levelo://app?vid=d9e966a3-a9eb-4ac0-b4ba-44d90aaebaf4","ios":"levelo://app?vid=d9e966a3-a9eb-4ac0-b4ba-44d90aaebaf4"},"vehicle_type_id":"4","last_reported":1722445650,"current_range_meters":0,"station_id":"ce4bh2h2rcd13ifvqdh0","pricing_plan_id":"cebpf4jnsgd1na2vs0mg"},{"bike_id":"eda74d74-f62d-4370-ab83-a048cef5c40d","system_id":"levelo_inurba_marseille","lat":43.289184,"lon":5.366408,"is_reserved":false,"is_disabled":false,"rental_uris":{"android":"levelo://app?vid=eda74d74-f62d-4370-ab83-a048cef5c40d","ios":"levelo://app?vid=eda74d74-f62d-4370-ab83-a048cef5c40d"},"vehicle_type_id":"4","last_reported":1722445650,"current_range_meters":0,"station_id":"ce4bhap2rcd13ifvqek0","pricing_plan_id":"cebpf4jnsgd1na2vs0mg"},{"bike_id":"f82fc110-7a4e-4d90-9b87-49362aee9608","system_id":"levelo_inurba_marseille","lat":43.292644,"lon":5.384257,"is_reserved":false,"is_disabled":false,"rental_uris":{"android":"levelo://app?vid=f82fc110-7a4e-4d90-9b87-49362aee9608","ios":"levelo://app?vid=f82fc110-7a4e-4d90-9b87-49362aee9608"},"vehicle_type_id":"4","last_reported":1722445650,"current_range_meters":0,"station_id":"ce4bh692rcd13ifvqea0","pricing_plan_id":"cebpf4jnsgd1na2vs0mg"},{"bike_id":"7713ea03-f0d2-4d76-b9fb-ce3cfb896fd9","system_id":"levelo_inurba_marseille","lat":43.30426,"lon":5.39747,"is_reserved":false,"is_disabled":false,"rental_uris":{"android":"levelo://app?vid=7713ea03-f0d2-4d76-b9fb-ce3cfb896fd9","ios":"levelo://app?vid=7713ea03-f0d2-4d76-b9fb-ce3cfb896fd9"},"vehicle_type_id":"4","last_reported":1722445650,"current_range_meters":0,"station_id":"ce4bh092rcd13ifvqd20","pricing_plan_id":"cebpf4jnsgd1na2vs0mg"},{"bike_id":"bc374c75-8bd9-4e8d-bddd-4838a4f7efdc","system_id":"levelo_inurba_marseille","lat":43.292644,"lon":5.384257,"is_reserved":false,"is_disabled":false,"rental_uris":{"android":"levelo://app?vid=bc374c75-8bd9-4e8d-bddd-4838a4f7efdc","ios":"levelo://app?vid=bc374c75-8bd9-4e8d-bddd-4838a4f7efdc"},"vehicle_type_id":"4","last_reported":1722445650,"current_range_meters":0,"station_id":"ce4bh692rcd13ifvqea0","pricing_plan_id":"cebpf4jnsgd1na2vs0mg"},{"bike_id":"c387f638-68ca-4e53-85d0-032ac255c1f2","system_id":"levelo_inurba_marseille","lat":43.29264,"lon":5.38447,"is_reserved":false,"is_disabled":false,"rental_uris":{"android":"levelo://app?vid=c387f638-68ca-4e53-85d0-032ac255c1f2","ios":"levelo://app?vid=c387f638-68ca-4e53-85d0-032ac255c1f2"},"vehicle_type_id":"4","last_reported":1722445650,"current_range_meters":0,"station_id":"ce4bh692rcd13ifvqea0","pricing_plan_id":"cebpf4jnsgd1na2vs0mg"},{"bike_id":"101724f9-3c8f-4b82-9157-279e19d72690","system_id":"levelo_inurba_marseille","lat":43.29257,"lon":5.38443,"is_reserved":false,"is_disabled":false,"rental_uris":{"android":"levelo://app?vid=101724f9-3c8f-4b82-9157-279e19d72690","ios":"levelo://app?vid=101724f9-3c8f-4b82-9157-279e19d72690"},"vehicle_type_id":"4","last_reported":1722445650,"current_range_meters":0,"station_id":"ce4bh692rcd13ifvqea0","pricing_plan_id":"cebpf4jnsgd1na2vs0mg"},{"bike_id":"0467bea7-366b-48a2-ad04-36fe05914c9a","system_id":"levelo_inurba_marseille","lat":43.292644,"lon":5.384257,"is_reserved":false,"is_disabled":false,"rental_uris":{"android":"levelo://app?vid=0467bea7-366b-48a2-ad04-36fe05914c9a","ios":"levelo://app?vid=0467bea7-366b-48a2-ad04-36fe05914c9a"},"vehicle_type_id":"4","last_reported":1722445650,"current_range_meters":0,"station_id":"ce4bh692rcd13ifvqea0","pricing_plan_id":"cebpf4jnsgd1na2vs0mg"},{"bike_id":"f90cf64b-2f12-47ac-9c5f-f295fc6cd849","system_id":"levelo_inurba_marseille","lat":43.29015,"lon":5.35607,"is_reserved":false,"is_disabled":false,"rental_uris":{"android":"levelo://app?vid=f90cf64b-2f12-47ac-9c5f-f295fc6cd849","ios":"levelo://app?vid=f90cf64b-2f12-47ac-9c5f-f295fc6cd849"},"vehicle_type_id":"4","last_reported":1722445650,"current_range_meters":0,"station_id":"ce4bhb92rcd13ifvqen0","pricing_plan_id":"cebpf4jnsgd1na2vs0mg"},{"bike_id":"df195d28-ff3c-4b9f-98fa-206107e122be","system_id":"levelo_inurba_marseille","lat":43.290103,"lon":5.356114,"is_reserved":false,"is_disabled":false,"rental_uris":{"android":"levelo://app?vid=df195d28-ff3c-4b9f-98fa-206107e122be","ios":"levelo://app?vid=df195d28-ff3c-4b9f-98fa-206107e122be"},"vehicle_type_id":"4","last_reported":1722445650,"current_range_meters":3200,"station_id":"ce4bhb92rcd13ifvqen0","pricing_plan_id":"cebpf4jnsgd1na2vs0mg"},{"bike_id":"622cd082-7653-4410-aded-978f4f26d9ec","system_id":"levelo_inurba_marseille","lat":43.295169,"lon":5.390426,"is_reserved":false,"is_disabled":false,"rental_uris":{"android":"levelo://app?vid=622cd082-7653-4410-aded-978f4f26d9ec","ios":"levelo://app?vid=622cd082-7653-4410-aded-978f4f26d9ec"},"vehicle_type_id":"4","last_reported":1722445650,"current_range_meters":0,"station_id":"ce4bh3p2rcd13ifvqdp0","pricing_plan_id":"cebpf4jnsgd1na2vs0mg"},{"bike_id":"748b540b-fd25-4e9d-a4a0-cfecc11ce9d7","system_id":"levelo_inurba_marseille","lat":43.33588,"lon":5.3787,"is_reserved":false,"is_disabled":false,"rental_uris":{"android":"levelo://app?vid=748b540b-fd25-4e9d-a4a0-cfecc11ce9d7","ios":"levelo://app?vid=748b540b-fd25-4e9d-a4a0-cfecc11ce9d7"},"vehicle_type_id":"4","last_reported":1722445650,"current_range_meters":28400,"station_id":"","pricing_plan_id":"cebpf4jnsgd1na2vs0mg"},{"bike_id":"f4cdf6f8-59cc-4926-bbd3-bf830cd7e7b6","system_id":"levelo_inurba_marseille","lat":43.2901,"lon":5.381269,"is_reserved":false,"is_disabled":false,"rental_uris":{"android":"levelo://app?vid=f4cdf6f8-59cc-4926-bbd3-bf830cd7e7b6","ios":"levelo://app?vid=f4cdf6f8-59cc-4926-bbd3-bf830cd7e7b6"},"vehicle_type_id":"4","last_reported":1722445650,"current_range_meters":28800,"station_id":"ce4bh4p2rcd13ifvqe1g","pricing_plan_id":"cebpf4jnsgd1na2vs0mg"},{"bike_id":"de3b6b55-853d-4514-96f2-c1f82d9e4ea0","system_id":"levelo_inurba_marseille","lat":43.29029,"lon":5.38144,"is_reserved":false,"is_disabled":false,"rental_uris":{"android":"levelo://app?vid=de3b6b55-853d-4514-96f2-c1f82d9e4ea0","ios":"levelo://app?vid=de3b6b55-853d-4514-96f2-c1f82d9e4ea0"},"vehicle_type_id":"4","last_reported":1722445650,"current_range_meters":0,"station_id":"ce4bh4p2rcd13ifvqe1g","pricing_plan_id":"cebpf4jnsgd1na2vs0mg"},{"bike_id":"082fe044-15cf-4bef-b8b9-3b2f07fa29df","system_id":"levelo_inurba_marseille","lat":43.28856,"lon":5.358371,"is_reserved":false,"is_disabled":false,"rental_uris":{"android":"levelo://app?vid=082fe044-15cf-4bef-b8b9-3b2f07fa29df","ios":"levelo://app?vid=082fe044-15cf-4bef-b8b9-3b2f07fa29df"},"vehicle_type_id":"4","last_reported":1722445650,"current_range_meters":0,"station_id":"ce4bhb12rcd13ifvqem0","pricing_plan_id":"cebpf4jnsgd1na2vs0mg"},{"bike_id":"0a9e5d05-d616-472c-a034-cc54acb519cf","system_id":"levelo_inurba_marseille","lat":43.28856,"lon":5.358371,"is_reserved":false,"is_disabled":false,"rental_uris":{"android":"levelo://app?vid=0a9e5d05-d616-472c-a034-cc54acb519cf","ios":"levelo://app?vid=0a9e5d05-d616-472c-a034-cc54acb519cf"},"vehicle_type_id":"4","last_reported":1722445650,"current_range_meters":31600,"station_id":"ce4bhb12rcd13ifvqem0","pricing_plan_id":"cebpf4jnsgd1na2vs0mg"},{"bike_id":"7e09ab31-9d51-45ae-9962-ec753f779d92","system_id":"levelo_inurba_marseille","lat":43.28849,"lon":5.35843,"is_reserved":false,"is_disabled":false,"rental_uris":{"android":"levelo://app?vid=7e09ab31-9d51-45ae-9962-ec753f779d92","ios":"levelo://app?vid=7e09ab31-9d51-45ae-9962-ec753f779d92"},"vehicle_type_id":"4","last_reported":1722445650,"current_range_meters":0,"station_id":"ce4bhb12rcd13ifvqem0","pricing_plan_id":"cebpf4jnsgd1na2vs0mg"},{"bike_id":"92edd0e0-73a5-4c6d-b1f4-1c7c997f5233","system_id":"levelo_inurba_marseille","lat":43.28856,"lon":5.358371,"is_reserved":false,"is_disabled":false,"rental_uris":{"android":"levelo://app?vid=92edd0e0-73a5-4c6d-b1f4-1c7c997f5233","ios":"levelo://app?vid=92edd0e0-73a5-4c6d-b1f4-1c7c997f5233"},"vehicle_type_id":"4","last_reported":1722445650,"current_range_meters":5600,"station_id":"ce4bhb12rcd13ifvqem0","pricing_plan_id":"cebpf4jnsgd1na2vs0mg"},{"bike_id":"0f6976bd-8e26-4c21-ab31-b7f33eac17ee","system_id":"levelo_inurba_marseille","lat":43.337321,"lon":5.374512,"is_reserved":false,"is_disabled":false,"rental_uris":{"android":"levelo://app?vid=0f6976bd-8e26-4c21-ab31-b7f33eac17ee","ios":"levelo://app?vid=0f6976bd-8e26-4c21-ab31-b7f33eac17ee"},"vehicle_type_id":"4","last_reported":1722445650,"current_range_meters":30400,"station_id":"","pricing_plan_id":"cebpf4jnsgd1na2vs0mg"},{"bike_id":"4a590a54-cefa-4b31-b34b-4a8edc2162b4","system_id":"levelo_inurba_marseille","lat":43.337388,"lon":5.374678,"is_reserved":false,"is_disabled":false,"rental_uris":{"android":"levelo://app?vid=4a590a54-cefa-4b31-b34b-4a8edc2162b4","ios":"levelo://app?vid=4a590a54-cefa-4b31-b34b-4a8edc2162b4"},"vehicle_type_id":"4","last_reported":1722445650,"current_range_meters":11600,"station_id":"","pricing_plan_id":"cebpf4jnsgd1na2vs0mg"},{"bike_id":"6f044633-3688-4e83-af67-cf3db97c1cc7","system_id":"levelo_inurba_marseille","lat":43.337444,"lon":5.374475,"is_reserved":false,"is_disabled":false,"rental_uris":{"android":"levelo://app?vid=6f044633-3688-4e83-af67-cf3db97c1cc7","ios":"levelo://app?vid=6f044633-3688-4e83-af67-cf3db97c1cc7"},"vehicle_type_id":"3","last_reported":1722445650,"current_range_meters":24800,"station_id":"","pricing_plan_id":"cebpf4jnsgd1na2vs0mg"},{"bike_id":"9c42a703-347c-48a2-929e-8003bdf919a4","system_id":"levelo_inurba_marseille","lat":43.312609,"lon":5.401662,"is_reserved":false,"is_disabled":false,"rental_uris":{"android":"levelo://app?vid=9c42a703-347c-48a2-929e-8003bdf919a4","ios":"levelo://app?vid=9c42a703-347c-48a2-929e-8003bdf919a4"},"vehicle_type_id":"4","last_reported":1722445650,"current_range_meters":12800,"station_id":"ce4bh092rcd13ifvqd30","pricing_plan_id":"cebpf4jnsgd1na2vs0mg"},{"bike_id":"c6c7e71a-d506-4d2f-898c-0b24026f56a3","system_id":"levelo_inurba_marseille","lat":43.312609,"lon":5.401662,"is_reserved":false,"is_disabled":false,"rental_uris":{"android":"levelo://app?vid=c6c7e71a-d506-4d2f-898c-0b24026f56a3","ios":"levelo://app?vid=c6c7e71a-d506-4d2f-898c-0b24026f56a3"},"vehicle_type_id":"4","last_reported":1722445650,"current_range_meters":18400,"station_id":"ce4bh092rcd13ifvqd30","pricing_plan_id":"cebpf4jnsgd1na2vs0mg"},{"bike_id":"d52d7f41-2777-498d-8741-8a21ea8f2e3d","system_id":"levelo_inurba_marseille","lat":43.309371,"lon":5.401449,"is_reserved":false,"is_disabled":false,"rental_uris":{"android":"levelo://app?vid=d52d7f41-2777-498d-8741-8a21ea8f2e3d","ios":"levelo://app?vid=d52d7f41-2777-498d-8741-8a21ea8f2e3d"},"vehicle_type_id":"4","last_reported":1722445650,"current_range_meters":1600,"station_id":"ce4bgvp2rcd13ifvqct0","pricing_plan_id":"cebpf4jnsgd1na2vs0mg"},{"bike_id":"420e807a-e148-486f-9154-391d8ec7addf","system_id":"levelo_inurba_marseille","lat":43.33771,"lon":5.374686,"is_reserved":false,"is_disabled":false,"rental_uris":{"android":"levelo://app?vid=420e807a-e148-486f-9154-391d8ec7addf","ios":"levelo://app?vid=420e807a-e148-486f-9154-391d8ec7addf"},"vehicle_type_id":"4","last_reported":1722445650,"current_range_meters":28000,"station_id":"","pricing_plan_id":"cebpf4jnsgd1na2vs0mg"},{"bike_id":"87e0dace-ee20-476c-bbbe-525c47ef4252","system_id":"levelo_inurba_marseille","lat":43.30141,"lon":5.39867,"is_reserved":false,"is_disabled":false,"rental_uris":{"android":"levelo://app?vid=87e0dace-ee20-476c-bbbe-525c47ef4252","ios":"levelo://app?vid=87e0dace-ee20-476c-bbbe-525c47ef4252"},"vehicle_type_id":"4","last_reported":1722445650,"current_range_meters":0,"station_id":"ce4bh0h2rcd13ifvqd40","pricing_plan_id":"cebpf4jnsgd1na2vs0mg"},{"bike_id":"4ec3b3eb-e1c2-47d4-aa6c-4b94a99c4577","system_id":"levelo_inurba_marseille","lat":43.301117,"lon":5.398795,"is_reserved":false,"is_disabled":false,"rental_uris":{"android":"levelo://app?vid=4ec3b3eb-e1c2-47d4-aa6c-4b94a99c4577","ios":"levelo://app?vid=4ec3b3eb-e1c2-47d4-aa6c-4b94a99c4577"},"vehicle_type_id":"4","last_reported":1722445650,"current_range_meters":1200,"station_id":"ce4bh0h2rcd13ifvqd40","pricing_plan_id":"cebpf4jnsgd1na2vs0mg"},{"bike_id":"4f8bbdf9-23c3-424f-9a32-c851543d202e","system_id":"levelo_inurba_marseille","lat":43.28727,"lon":5.36078,"is_reserved":false,"is_disabled":false,"rental_uris":{"android":"levelo://app?vid=4f8bbdf9-23c3-424f-9a32-c851543d202e","ios":"levelo://app?vid=4f8bbdf9-23c3-424f-9a32-c851543d202e"},"vehicle_type_id":"4","last_reported":1722445650,"current_range_meters":14400,"station_id":"cki0cbj6b192h4jlfktg","pricing_plan_id":"cebpf4jnsgd1na2vs0mg"},{"bike_id":"a641e968-1ac5-4e65-a964-9230898866b7","system_id":"levelo_inurba_marseille","lat":43.29062,"lon":5.38615,"is_reserved":false,"is_disabled":false,"rental_uris":{"android":"levelo://app?vid=a641e968-1ac5-4e65-a964-9230898866b7","ios":"levelo://app?vid=a641e968-1ac5-4e65-a964-9230898866b7"},"vehicle_type_id":"4","last_reported":1722445650,"current_range_meters":0,"station_id":"ce4bh4p2rcd13ifvqe0g","pricing_plan_id":"cebpf4jnsgd1na2vs0mg"},{"bike_id":"11d68f09-f08e-4552-8659-b102f41e5e6a","system_id":"levelo_inurba_marseille","lat":43.286961,"lon":5.373785,"is_reserved":false,"is_disabled":false,"rental_uris":{"android":"levelo://app?vid=11d68f09-f08e-4552-8659-b102f41e5e6a","ios":"levelo://app?vid=11d68f09-f08e-4552-8659-b102f41e5e6a"},"vehicle_type_id":"4","last_reported":1722445650,"current_range_meters":0,"station_id":"ce4bh3p2rcd13ifvqdq0","pricing_plan_id":"cebpf4jnsgd1na2vs0mg"},{"bike_id":"153cbab7-84b2-43fa-a896-1fca3af8ba55","system_id":"levelo_inurba_marseille","lat":43.298681,"lon":5.397225,"is_reserved":false,"is_disabled":false,"rental_uris":{"android":"levelo://app?vid=153cbab7-84b2-43fa-a896-1fca3af8ba55","ios":"levelo://app?vid=153cbab7-84b2-43fa-a896-1fca3af8ba55"},"vehicle_type_id":"4","last_reported":1722445650,"current_range_meters":12000,"station_id":"ce4bh0h2rcd13ifvqd50","pricing_plan_id":"cebpf4jnsgd1na2vs0mg"},{"bike_id":"04e5a83e-1b03-4f12-bb01-92640ce45357","system_id":"levelo_inurba_marseille","lat":43.286593,"lon":5.363346,"is_reserved":false,"is_disabled":false,"rental_uris":{"android":"levelo://app?vid=04e5a83e-1b03-4f12-bb01-92640ce45357","ios":"levelo://app?vid=04e5a83e-1b03-4f12-bb01-92640ce45357"},"vehicle_type_id":"4","last_reported":1722445650,"current_range_meters":2000,"station_id":"ce4bhah2rcd13ifvqej0","pricing_plan_id":"cebpf4jnsgd1na2vs0mg"},{"bike_id":"541e5397-2a8c-40c3-83b2-13ec2587d95e","system_id":"levelo_inurba_marseille","lat":43.286593,"lon":5.363346,"is_reserved":false,"is_disabled":false,"rental_uris":{"android":"levelo://app?vid=541e5397-2a8c-40c3-83b2-13ec2587d95e","ios":"levelo://app?vid=541e5397-2a8c-40c3-83b2-13ec2587d95e"},"vehicle_type_id":"4","last_reported":1722445650,"current_range_meters":0,"station_id":"ce4bhah2rcd13ifvqej0","pricing_plan_id":"cebpf4jnsgd1na2vs0mg"},{"bike_id":"d3a2f3f7-fcb9-45ff-a306-620840fa8ee3","system_id":"levelo_inurba_marseille","lat":43.286593,"lon":5.363346,"is_reserved":false,"is_disabled":false,"rental_uris":{"android":"levelo://app?vid=d3a2f3f7-fcb9-45ff-a306-620840fa8ee3","ios":"levelo://app?vid=d3a2f3f7-fcb9-45ff-a306-620840fa8ee3"},"vehicle_type_id":"4","last_reported":1722445650,"current_range_meters":0,"station_id":"ce4bhah2rcd13ifvqej0","pricing_plan_id":"cebpf4jnsgd1na2vs0mg"},{"bike_id":"37816ba6-eccb-4d93-be5f-080978b65a82","system_id":"levelo_inurba_marseille","lat":43.289307,"lon":5.38406,"is_reserved":false,"is_disabled":false,"rental_uris":{"android":"levelo://app?vid=37816ba6-eccb-4d93-be5f-080978b65a82","ios":"levelo://app?vid=37816ba6-eccb-4d93-be5f-080978b65a82"},"vehicle_type_id":"4","last_reported":1722445650,"current_range_meters":0,"station_id":"ce4bh612rcd13ifvqe6g","pricing_plan_id":"cebpf4jnsgd1na2vs0mg"},{"bike_id":"1a91a567-c0ab-4516-b639-88192e360457","system_id":"levelo_inurba_marseille","lat":43.289307,"lon":5.38406,"is_reserved":false,"is_disabled":false,"rental_uris":{"android":"levelo://app?vid=1a91a567-c0ab-4516-b639-88192e360457","ios":"levelo://app?vid=1a91a567-c0ab-4516-b639-88192e360457"},"vehicle_type_id":"4","last_reported":1722445650,"current_range_meters":31600,"station_id":"ce4bh612rcd13ifvqe6g","pricing_plan_id":"cebpf4jnsgd1na2vs0mg"},{"bike_id":"f5014981-7930-4f5c-b72d-04e1780a92b9","system_id":"levelo_inurba_marseille","lat":43.29027,"lon":5.38654,"is_reserved":false,"is_disabled":false,"rental_uris":{"android":"levelo://app?vid=f5014981-7930-4f5c-b72d-04e1780a92b9","ios":"levelo://app?vid=f5014981-7930-4f5c-b72d-04e1780a92b9"},"vehicle_type_id":"4","last_reported":1722445650,"current_range_meters":0,"station_id":"ce4bh4p2rcd13ifvqe0g","pricing_plan_id":"cebpf4jnsgd1na2vs0mg"},{"bike_id":"a9026573-7cc7-4d1f-90b0-2f1bd84e41a4","system_id":"levelo_inurba_marseille","lat":43.302759,"lon":5.400793,"is_reserved":false,"is_disabled":false,"rental_uris":{"android":"levelo://app?vid=a9026573-7cc7-4d1f-90b0-2f1bd84e41a4","ios":"levelo://app?vid=a9026573-7cc7-4d1f-90b0-2f1bd84e41a4"},"vehicle_type_id":"4","last_reported":1722445650,"current_range_meters":17600,"station_id":"ce4bgvh2rcd13ifvqcs0","pricing_plan_id":"cebpf4jnsgd1na2vs0mg"},{"bike_id":"aae54631-c8cb-4450-90f3-0123824c377e","system_id":"levelo_inurba_marseille","lat":43.286039,"lon":5.370679,"is_reserved":false,"is_disabled":false,"rental_uris":{"android":"levelo://app?vid=aae54631-c8cb-4450-90f3-0123824c377e","ios":"levelo://app?vid=aae54631-c8cb-4450-90f3-0123824c377e"},"vehicle_type_id":"4","last_reported":1722445650,"current_range_meters":6800,"station_id":"ce4bht12rcd13ifvqi60","pricing_plan_id":"cebpf4jnsgd1na2vs0mg"},{"bike_id":"d774d16a-95eb-4c6e-95c9-d3ced7f9dee0","system_id":"levelo_inurba_marseille","lat":43.291994,"lon":5.392907,"is_reserved":false,"is_disabled":false,"rental_uris":{"android":"levelo://app?vid=d774d16a-95eb-4c6e-95c9-d3ced7f9dee0","ios":"levelo://app?vid=d774d16a-95eb-4c6e-95c9-d3ced7f9dee0"},"vehicle_type_id":"4","last_reported":1722445650,"current_range_meters":28800,"station_id":"ce4bh192rcd13ifvqdd0","pricing_plan_id":"cebpf4jnsgd1na2vs0mg"},{"bike_id":"55006051-f150-4ba6-b8fa-4ddde8611ab4","system_id":"levelo_inurba_marseille","lat":43.287184,"lon":5.37937,"is_reserved":false,"is_disabled":false,"rental_uris":{"android":"levelo://app?vid=55006051-f150-4ba6-b8fa-4ddde8611ab4","ios":"levelo://app?vid=55006051-f150-4ba6-b8fa-4ddde8611ab4"},"vehicle_type_id":"4","last_reported":1722445650,"current_range_meters":1200,"station_id":"ce4bh9p2rcd13ifvqec0","pricing_plan_id":"cebpf4jnsgd1na2vs0mg"},{"bike_id":"314146f2-6aa4-4eda-814d-bbfb0e36432e","system_id":"levelo_inurba_marseille","lat":43.291994,"lon":5.392907,"is_reserved":false,"is_disabled":false,"rental_uris":{"android":"levelo://app?vid=314146f2-6aa4-4eda-814d-bbfb0e36432e","ios":"levelo://app?vid=314146f2-6aa4-4eda-814d-bbfb0e36432e"},"vehicle_type_id":"4","last_reported":1722445650,"current_range_meters":29600,"station_id":"ce4bh192rcd13ifvqdd0","pricing_plan_id":"cebpf4jnsgd1na2vs0mg"},{"bike_id":"93ae230d-5f60-459d-ae40-86b46e96e254","system_id":"levelo_inurba_marseille","lat":43.291994,"lon":5.392907,"is_reserved":false,"is_disabled":false,"rental_uris":{"android":"levelo://app?vid=93ae230d-5f60-459d-ae40-86b46e96e254","ios":"levelo://app?vid=93ae230d-5f60-459d-ae40-86b46e96e254"},"vehicle_type_id":"4","last_reported":1722445650,"current_range_meters":0,"station_id":"ce4bh192rcd13ifvqdd0","pricing_plan_id":"cebpf4jnsgd1na2vs0mg"},{"bike_id":"118ad05e-04c9-46f5-a579-d2391c8fcd87","system_id":"levelo_inurba_marseille","lat":43.29748,"lon":5.40024,"is_reserved":false,"is_disabled":false,"rental_uris":{"android":"levelo://app?vid=118ad05e-04c9-46f5-a579-d2391c8fcd87","ios":"levelo://app?vid=118ad05e-04c9-46f5-a579-d2391c8fcd87"},"vehicle_type_id":"4","last_reported":1722445650,"current_range_meters":26400,"station_id":"","pricing_plan_id":"cebpf4jnsgd1na2vs0mg"},{"bike_id":"497e4b64-4805-4044-9e3d-98327d320ae8","system_id":"levelo_inurba_marseille","lat":43.28467,"lon":5.35894,"is_reserved":false,"is_disabled":false,"rental_uris":{"android":"levelo://app?vid=497e4b64-4805-4044-9e3d-98327d320ae8","ios":"levelo://app?vid=497e4b64-4805-4044-9e3d-98327d320ae8"},"vehicle_type_id":"4","last_reported":1722445650,"current_range_meters":0,"station_id":"ce4bhah2rcd13ifvqei0","pricing_plan_id":"cebpf4jnsgd1na2vs0mg"},{"bike_id":"313a9d15-0471-49a6-b1cf-3f0f3706599f","system_id":"levelo_inurba_marseille","lat":43.284534,"lon":5.358662,"is_reserved":false,"is_disabled":false,"rental_uris":{"android":"levelo://app?vid=313a9d15-0471-49a6-b1cf-3f0f3706599f","ios":"levelo://app?vid=313a9d15-0471-49a6-b1cf-3f0f3706599f"},"vehicle_type_id":"4","last_reported":1722445650,"current_range_meters":0,"station_id":"ce4bhah2rcd13ifvqei0","pricing_plan_id":"cebpf4jnsgd1na2vs0mg"},{"bike_id":"abb19a1e-40c8-4371-ac7d-3c018b0716ee","system_id":"levelo_inurba_marseille","lat":43.294314,"lon":5.397498,"is_reserved":false,"is_disabled":false,"rental_uris":{"android":"levelo://app?vid=abb19a1e-40c8-4371-ac7d-3c018b0716ee","ios":"levelo://app?vid=abb19a1e-40c8-4371-ac7d-3c018b0716ee"},"vehicle_type_id":"4","last_reported":1722445650,"current_range_meters":4000,"station_id":"ce4bh3h2rcd13ifvqdo0","pricing_plan_id":"cebpf4jnsgd1na2vs0mg"},{"bike_id":"18312fbc-6cc1-4d7b-bb35-f4645815d3b3","system_id":"levelo_inurba_marseille","lat":43.28622,"lon":5.35102,"is_reserved":false,"is_disabled":false,"rental_uris":{"android":"levelo://app?vid=18312fbc-6cc1-4d7b-bb35-f4645815d3b3","ios":"levelo://app?vid=18312fbc-6cc1-4d7b-bb35-f4645815d3b3"},"vehicle_type_id":"4","last_reported":1722445650,"current_range_meters":27200,"station_id":"ce4bhch2rcd13ifvqeug","pricing_plan_id":"cebpf4jnsgd1na2vs0mg"},{"bike_id":"1ef67643-08d8-44ab-9073-554004269f75","system_id":"levelo_inurba_marseille","lat":43.2862,"lon":5.35108,"is_reserved":false,"is_disabled":false,"rental_uris":{"android":"levelo://app?vid=1ef67643-08d8-44ab-9073-554004269f75","ios":"levelo://app?vid=1ef67643-08d8-44ab-9073-554004269f75"},"vehicle_type_id":"4","last_reported":1722445650,"current_range_meters":0,"station_id":"ce4bhch2rcd13ifvqeug","pricing_plan_id":"cebpf4jnsgd1na2vs0mg"},{"bike_id":"f2549926-5729-4f63-8608-9d8bca370411","system_id":"levelo_inurba_marseille","lat":43.28621,"lon":5.35102,"is_reserved":false,"is_disabled":false,"rental_uris":{"android":"levelo://app?vid=f2549926-5729-4f63-8608-9d8bca370411","ios":"levelo://app?vid=f2549926-5729-4f63-8608-9d8bca370411"},"vehicle_type_id":"4","last_reported":1722445650,"current_range_meters":2800,"station_id":"ce4bhch2rcd13ifvqeug","pricing_plan_id":"cebpf4jnsgd1na2vs0mg"},{"bike_id":"722a88fc-6d98-4c90-b963-4e85ee9002d1","system_id":"levelo_inurba_marseille","lat":43.28619,"lon":5.35104,"is_reserved":false,"is_disabled":false,"rental_uris":{"android":"levelo://app?vid=722a88fc-6d98-4c90-b963-4e85ee9002d1","ios":"levelo://app?vid=722a88fc-6d98-4c90-b963-4e85ee9002d1"},"vehicle_type_id":"4","last_reported":1722445650,"current_range_meters":27200,"station_id":"ce4bhch2rcd13ifvqeug","pricing_plan_id":"cebpf4jnsgd1na2vs0mg"},{"bike_id":"07a7eea7-482a-4a83-96ec-0f35ebd45e44","system_id":"levelo_inurba_marseille","lat":43.28618,"lon":5.35106,"is_reserved":false,"is_disabled":false,"rental_uris":{"android":"levelo://app?vid=07a7eea7-482a-4a83-96ec-0f35ebd45e44","ios":"levelo://app?vid=07a7eea7-482a-4a83-96ec-0f35ebd45e44"},"vehicle_type_id":"4","last_reported":1722445650,"current_range_meters":2000,"station_id":"ce4bhch2rcd13ifvqeug","pricing_plan_id":"cebpf4jnsgd1na2vs0mg"},{"bike_id":"a0d1b669-67bd-4fc3-be36-c45fb8fdae00","system_id":"levelo_inurba_marseille","lat":43.28618,"lon":5.35106,"is_reserved":false,"is_disabled":false,"rental_uris":{"android":"levelo://app?vid=a0d1b669-67bd-4fc3-be36-c45fb8fdae00","ios":"levelo://app?vid=a0d1b669-67bd-4fc3-be36-c45fb8fdae00"},"vehicle_type_id":"4","last_reported":1722445650,"current_range_meters":0,"station_id":"ce4bhch2rcd13ifvqeug","pricing_plan_id":"cebpf4jnsgd1na2vs0mg"},{"bike_id":"a37116db-1c9c-4df7-a008-09a07c0777e6","system_id":"levelo_inurba_marseille","lat":43.28618,"lon":5.35105,"is_reserved":false,"is_disabled":false,"rental_uris":{"android":"levelo://app?vid=a37116db-1c9c-4df7-a008-09a07c0777e6","ios":"levelo://app?vid=a37116db-1c9c-4df7-a008-09a07c0777e6"},"vehicle_type_id":"4","last_reported":1722445650,"current_range_meters":0,"station_id":"ce4bhch2rcd13ifvqeug","pricing_plan_id":"cebpf4jnsgd1na2vs0mg"},{"bike_id":"bcdbeaec-9a4d-43a2-9c3c-87537dec273d","system_id":"levelo_inurba_marseille","lat":43.28619,"lon":5.351,"is_reserved":false,"is_disabled":false,"rental_uris":{"android":"levelo://app?vid=bcdbeaec-9a4d-43a2-9c3c-87537dec273d","ios":"levelo://app?vid=bcdbeaec-9a4d-43a2-9c3c-87537dec273d"},"vehicle_type_id":"4","last_reported":1722445650,"current_range_meters":1600,"station_id":"ce4bhch2rcd13ifvqeug","pricing_plan_id":"cebpf4jnsgd1na2vs0mg"},{"bike_id":"4a10541b-c8c3-4d10-8940-4ee68863839b","system_id":"levelo_inurba_marseille","lat":43.28617,"lon":5.35106,"is_reserved":false,"is_disabled":false,"rental_uris":{"android":"levelo://app?vid=4a10541b-c8c3-4d10-8940-4ee68863839b","ios":"levelo://app?vid=4a10541b-c8c3-4d10-8940-4ee68863839b"},"vehicle_type_id":"4","last_reported":1722445650,"current_range_meters":0,"station_id":"ce4bhch2rcd13ifvqeug","pricing_plan_id":"cebpf4jnsgd1na2vs0mg"},{"bike_id":"fc9a4dc8-8dc9-4e10-bef8-2730e3cf0e36","system_id":"levelo_inurba_marseille","lat":43.28617,"lon":5.35105,"is_reserved":false,"is_disabled":false,"rental_uris":{"android":"levelo://app?vid=fc9a4dc8-8dc9-4e10-bef8-2730e3cf0e36","ios":"levelo://app?vid=fc9a4dc8-8dc9-4e10-bef8-2730e3cf0e36"},"vehicle_type_id":"4","last_reported":1722445650,"current_range_meters":11200,"station_id":"ce4bhch2rcd13ifvqeug","pricing_plan_id":"cebpf4jnsgd1na2vs0mg"},{"bike_id":"54a08938-7bdc-4788-bfd4-ecb959bd9648","system_id":"levelo_inurba_marseille","lat":43.286164,"lon":5.351063,"is_reserved":false,"is_disabled":false,"rental_uris":{"android":"levelo://app?vid=54a08938-7bdc-4788-bfd4-ecb959bd9648","ios":"levelo://app?vid=54a08938-7bdc-4788-bfd4-ecb959bd9648"},"vehicle_type_id":"4","last_reported":1722445650,"current_range_meters":25200,"station_id":"","pricing_plan_id":"cebpf4jnsgd1na2vs0mg"},{"bike_id":"7a4e4249-13f1-449c-882b-3c2ab62ce804","system_id":"levelo_inurba_marseille","lat":43.28617,"lon":5.35103,"is_reserved":false,"is_disabled":false,"rental_uris":{"android":"levelo://app?vid=7a4e4249-13f1-449c-882b-3c2ab62ce804","ios":"levelo://app?vid=7a4e4249-13f1-449c-882b-3c2ab62ce804"},"vehicle_type_id":"4","last_reported":1722445650,"current_range_meters":27200,"station_id":"ce4bhch2rcd13ifvqeug","pricing_plan_id":"cebpf4jnsgd1na2vs0mg"},{"bike_id":"d9ed466e-9976-4b56-8de0-40cb1752601f","system_id":"levelo_inurba_marseille","lat":43.28615,"lon":5.35106,"is_reserved":false,"is_disabled":false,"rental_uris":{"android":"levelo://app?vid=d9ed466e-9976-4b56-8de0-40cb1752601f","ios":"levelo://app?vid=d9ed466e-9976-4b56-8de0-40cb1752601f"},"vehicle_type_id":"4","last_reported":1722445650,"current_range_meters":1200,"station_id":"ce4bhch2rcd13ifvqeug","pricing_plan_id":"cebpf4jnsgd1na2vs0mg"},{"bike_id":"01684394-bc40-4685-8269-c2da226bc82a","system_id":"levelo_inurba_marseille","lat":43.28616,"lon":5.35102,"is_reserved":false,"is_disabled":false,"rental_uris":{"android":"levelo://app?vid=01684394-bc40-4685-8269-c2da226bc82a","ios":"levelo://app?vid=01684394-bc40-4685-8269-c2da226bc82a"},"vehicle_type_id":"4","last_reported":1722445650,"current_range_meters":0,"station_id":"ce4bhch2rcd13ifvqeug","pricing_plan_id":"cebpf4jnsgd1na2vs0mg"},{"bike_id":"ac7fdf99-f319-45d7-a8f6-5f961165d975","system_id":"levelo_inurba_marseille","lat":43.28616,"lon":5.351,"is_reserved":false,"is_disabled":false,"rental_uris":{"android":"levelo://app?vid=ac7fdf99-f319-45d7-a8f6-5f961165d975","ios":"levelo://app?vid=ac7fdf99-f319-45d7-a8f6-5f961165d975"},"vehicle_type_id":"4","last_reported":1722445650,"current_range_meters":29200,"station_id":"ce4bhch2rcd13ifvqeug","pricing_plan_id":"cebpf4jnsgd1na2vs0mg"},{"bike_id":"bbc779cc-2c79-4949-a6bb-dcfffba271e9","system_id":"levelo_inurba_marseille","lat":43.28615,"lon":5.35102,"is_reserved":false,"is_disabled":false,"rental_uris":{"android":"levelo://app?vid=bbc779cc-2c79-4949-a6bb-dcfffba271e9","ios":"levelo://app?vid=bbc779cc-2c79-4949-a6bb-dcfffba271e9"},"vehicle_type_id":"4","last_reported":1722445650,"current_range_meters":13200,"station_id":"ce4bhch2rcd13ifvqeug","pricing_plan_id":"cebpf4jnsgd1na2vs0mg"},{"bike_id":"4766f575-dbbf-4597-8594-cde312a4e996","system_id":"levelo_inurba_marseille","lat":43.285856,"lon":5.350771,"is_reserved":false,"is_disabled":false,"rental_uris":{"android":"levelo://app?vid=4766f575-dbbf-4597-8594-cde312a4e996","ios":"levelo://app?vid=4766f575-dbbf-4597-8594-cde312a4e996"},"vehicle_type_id":"4","last_reported":1722445650,"current_range_meters":7200,"station_id":"ce4bhch2rcd13ifvqeug","pricing_plan_id":"cebpf4jnsgd1na2vs0mg"},{"bike_id":"b6ff4565-86f9-4350-8251-6f9f54e07489","system_id":"levelo_inurba_marseille","lat":43.28614,"lon":5.35104,"is_reserved":false,"is_disabled":false,"rental_uris":{"android":"levelo://app?vid=b6ff4565-86f9-4350-8251-6f9f54e07489","ios":"levelo://app?vid=b6ff4565-86f9-4350-8251-6f9f54e07489"},"vehicle_type_id":"4","last_reported":1722445650,"current_range_meters":23200,"station_id":"ce4bhch2rcd13ifvqeug","pricing_plan_id":"cebpf4jnsgd1na2vs0mg"},{"bike_id":"73bd37b8-c560-469d-8488-fa87ee98b200","system_id":"levelo_inurba_marseille","lat":43.285856,"lon":5.350771,"is_reserved":false,"is_disabled":false,"rental_uris":{"android":"levelo://app?vid=73bd37b8-c560-469d-8488-fa87ee98b200","ios":"levelo://app?vid=73bd37b8-c560-469d-8488-fa87ee98b200"},"vehicle_type_id":"4","last_reported":1722445650,"current_range_meters":28800,"station_id":"ce4bhch2rcd13ifvqeug","pricing_plan_id":"cebpf4jnsgd1na2vs0mg"},{"bike_id":"38ad34ad-15fe-4c94-abe8-a3d4bd74658b","system_id":"levelo_inurba_marseille","lat":43.28613,"lon":5.35102,"is_reserved":false,"is_disabled":false,"rental_uris":{"android":"levelo://app?vid=38ad34ad-15fe-4c94-abe8-a3d4bd74658b","ios":"levelo://app?vid=38ad34ad-15fe-4c94-abe8-a3d4bd74658b"},"vehicle_type_id":"4","last_reported":1722445650,"current_range_meters":4800,"station_id":"ce4bhch2rcd13ifvqeug","pricing_plan_id":"cebpf4jnsgd1na2vs0mg"},{"bike_id":"dead266a-edd6-47da-8066-6738a7056adc","system_id":"levelo_inurba_marseille","lat":43.285848,"lon":5.350787,"is_reserved":false,"is_disabled":false,"rental_uris":{"android":"levelo://app?vid=dead266a-edd6-47da-8066-6738a7056adc","ios":"levelo://app?vid=dead266a-edd6-47da-8066-6738a7056adc"},"vehicle_type_id":"4","last_reported":1722445650,"current_range_meters":10400,"station_id":"ce4bhch2rcd13ifvqeug","pricing_plan_id":"cebpf4jnsgd1na2vs0mg"},{"bike_id":"04e5e263-e997-4440-8a0b-cae2c7368d15","system_id":"levelo_inurba_marseille","lat":43.285856,"lon":5.350771,"is_reserved":false,"is_disabled":false,"rental_uris":{"android":"levelo://app?vid=04e5e263-e997-4440-8a0b-cae2c7368d15","ios":"levelo://app?vid=04e5e263-e997-4440-8a0b-cae2c7368d15"},"vehicle_type_id":"4","last_reported":1722445650,"current_range_meters":30400,"station_id":"ce4bhch2rcd13ifvqeug","pricing_plan_id":"cebpf4jnsgd1na2vs0mg"},{"bike_id":"d847ac11-8158-4764-a14c-b20f164218ce","system_id":"levelo_inurba_marseille","lat":43.28418,"lon":5.375,"is_reserved":false,"is_disabled":false,"rental_uris":{"android":"levelo://app?vid=d847ac11-8158-4764-a14c-b20f164218ce","ios":"levelo://app?vid=d847ac11-8158-4764-a14c-b20f164218ce"},"vehicle_type_id":"4","last_reported":1722445650,"current_range_meters":4400,"station_id":"ce4bh412rcd13ifvqds0","pricing_plan_id":"cebpf4jnsgd1na2vs0mg"},{"bike_id":"20b65809-20ba-4e92-be93-631e9a5db19e","system_id":"levelo_inurba_marseille","lat":43.286595,"lon":5.386795,"is_reserved":false,"is_disabled":false,"rental_uris":{"android":"levelo://app?vid=20b65809-20ba-4e92-be93-631e9a5db19e","ios":"levelo://app?vid=20b65809-20ba-4e92-be93-631e9a5db19e"},"vehicle_type_id":"4","last_reported":1722445650,"current_range_meters":3600,"station_id":"ce4bh492rcd13ifvqdug","pricing_plan_id":"cebpf4jnsgd1na2vs0mg"},{"bike_id":"cb4972c0-bced-49c2-9b30-2e954679d2d4","system_id":"levelo_inurba_marseille","lat":43.286595,"lon":5.386795,"is_reserved":false,"is_disabled":false,"rental_uris":{"android":"levelo://app?vid=cb4972c0-bced-49c2-9b30-2e954679d2d4","ios":"levelo://app?vid=cb4972c0-bced-49c2-9b30-2e954679d2d4"},"vehicle_type_id":"4","last_reported":1722445650,"current_range_meters":0,"station_id":"ce4bh492rcd13ifvqdug","pricing_plan_id":"cebpf4jnsgd1na2vs0mg"},{"bike_id":"55f16891-fae4-45c6-bc55-6a58c991c9b7","system_id":"levelo_inurba_marseille","lat":43.33717,"lon":5.391857,"is_reserved":false,"is_disabled":false,"rental_uris":{"android":"levelo://app?vid=55f16891-fae4-45c6-bc55-6a58c991c9b7","ios":"levelo://app?vid=55f16891-fae4-45c6-bc55-6a58c991c9b7"},"vehicle_type_id":"4","last_reported":1722445650,"current_range_meters":20400,"station_id":"ce4bhr92rcd13ifvqhsg","pricing_plan_id":"cebpf4jnsgd1na2vs0mg"},{"bike_id":"1e25cbc0-b1d1-4f0a-a05d-137f4bbddfe0","system_id":"levelo_inurba_marseille","lat":43.33717,"lon":5.391857,"is_reserved":false,"is_disabled":false,"rental_uris":{"android":"levelo://app?vid=1e25cbc0-b1d1-4f0a-a05d-137f4bbddfe0","ios":"levelo://app?vid=1e25cbc0-b1d1-4f0a-a05d-137f4bbddfe0"},"vehicle_type_id":"4","last_reported":1722445650,"current_range_meters":32000,"station_id":"ce4bhr92rcd13ifvqhsg","pricing_plan_id":"cebpf4jnsgd1na2vs0mg"},{"bike_id":"53469620-1e5a-4056-9bb1-b0ee59cf34fe","system_id":"levelo_inurba_marseille","lat":43.337168,"lon":5.391825,"is_reserved":false,"is_disabled":false,"rental_uris":{"android":"levelo://app?vid=53469620-1e5a-4056-9bb1-b0ee59cf34fe","ios":"levelo://app?vid=53469620-1e5a-4056-9bb1-b0ee59cf34fe"},"vehicle_type_id":"4","last_reported":1722445650,"current_range_meters":800,"station_id":"ce4bhr92rcd13ifvqhsg","pricing_plan_id":"cebpf4jnsgd1na2vs0mg"},{"bike_id":"4d0d74d4-a57a-4a19-84d5-33c07b0777cd","system_id":"levelo_inurba_marseille","lat":43.337239,"lon":5.391745,"is_reserved":false,"is_disabled":false,"rental_uris":{"android":"levelo://app?vid=4d0d74d4-a57a-4a19-84d5-33c07b0777cd","ios":"levelo://app?vid=4d0d74d4-a57a-4a19-84d5-33c07b0777cd"},"vehicle_type_id":"4","last_reported":1722445650,"current_range_meters":8400,"station_id":"ce4bhr92rcd13ifvqhsg","pricing_plan_id":"cebpf4jnsgd1na2vs0mg"},{"bike_id":"4e8c9a7f-1292-42f9-9e42-0cc3dac80cc3","system_id":"levelo_inurba_marseille","lat":43.33717,"lon":5.391857,"is_reserved":false,"is_disabled":false,"rental_uris":{"android":"levelo://app?vid=4e8c9a7f-1292-42f9-9e42-0cc3dac80cc3","ios":"levelo://app?vid=4e8c9a7f-1292-42f9-9e42-0cc3dac80cc3"},"vehicle_type_id":"4","last_reported":1722445650,"current_range_meters":3600,"station_id":"ce4bhr92rcd13ifvqhsg","pricing_plan_id":"cebpf4jnsgd1na2vs0mg"},{"bike_id":"0d2b2b33-4fc7-4137-830d-6f54fcce2e0f","system_id":"levelo_inurba_marseille","lat":43.33717,"lon":5.391857,"is_reserved":false,"is_disabled":false,"rental_uris":{"android":"levelo://app?vid=0d2b2b33-4fc7-4137-830d-6f54fcce2e0f","ios":"levelo://app?vid=0d2b2b33-4fc7-4137-830d-6f54fcce2e0f"},"vehicle_type_id":"4","last_reported":1722445650,"current_range_meters":23600,"station_id":"ce4bhr92rcd13ifvqhsg","pricing_plan_id":"cebpf4jnsgd1na2vs0mg"},{"bike_id":"851b6a7f-49c4-4961-beb1-2e6f4be577ca","system_id":"levelo_inurba_marseille","lat":43.337244,"lon":5.39185,"is_reserved":false,"is_disabled":false,"rental_uris":{"android":"levelo://app?vid=851b6a7f-49c4-4961-beb1-2e6f4be577ca","ios":"levelo://app?vid=851b6a7f-49c4-4961-beb1-2e6f4be577ca"},"vehicle_type_id":"4","last_reported":1722445650,"current_range_meters":0,"station_id":"ce4bhr92rcd13ifvqhsg","pricing_plan_id":"cebpf4jnsgd1na2vs0mg"},{"bike_id":"cdd0e847-61c8-4b05-be98-4f9b04020e4e","system_id":"levelo_inurba_marseille","lat":43.33727,"lon":5.39181,"is_reserved":false,"is_disabled":false,"rental_uris":{"android":"levelo://app?vid=cdd0e847-61c8-4b05-be98-4f9b04020e4e","ios":"levelo://app?vid=cdd0e847-61c8-4b05-be98-4f9b04020e4e"},"vehicle_type_id":"4","last_reported":1722445650,"current_range_meters":6400,"station_id":"ce4bhr92rcd13ifvqhsg","pricing_plan_id":"cebpf4jnsgd1na2vs0mg"},{"bike_id":"7a673e49-a141-4705-b917-2105a99796cf","system_id":"levelo_inurba_marseille","lat":43.33717,"lon":5.391857,"is_reserved":false,"is_disabled":false,"rental_uris":{"android":"levelo://app?vid=7a673e49-a141-4705-b917-2105a99796cf","ios":"levelo://app?vid=7a673e49-a141-4705-b917-2105a99796cf"},"vehicle_type_id":"4","last_reported":1722445650,"current_range_meters":22800,"station_id":"ce4bhr92rcd13ifvqhsg","pricing_plan_id":"cebpf4jnsgd1na2vs0mg"},{"bike_id":"b8f872da-289d-426a-b80a-24662bab1abe","system_id":"levelo_inurba_marseille","lat":43.297946,"lon":5.404063,"is_reserved":false,"is_disabled":false,"rental_uris":{"android":"levelo://app?vid=b8f872da-289d-426a-b80a-24662bab1abe","ios":"levelo://app?vid=b8f872da-289d-426a-b80a-24662bab1abe"},"vehicle_type_id":"4","last_reported":1722445650,"current_range_meters":19200,"station_id":"ce4bh112rcd13ifvqd90","pricing_plan_id":"cebpf4jnsgd1na2vs0mg"},{"bike_id":"e50b8adf-1ad2-43b1-b0c6-28212a36151f","system_id":"levelo_inurba_marseille","lat":43.284776,"lon":5.385603,"is_reserved":false,"is_disabled":false,"rental_uris":{"android":"levelo://app?vid=e50b8adf-1ad2-43b1-b0c6-28212a36151f","ios":"levelo://app?vid=e50b8adf-1ad2-43b1-b0c6-28212a36151f"},"vehicle_type_id":"4","last_reported":1722445650,"current_range_meters":0,"station_id":"ce4bh8p2rcd13ifvqeb0","pricing_plan_id":"cebpf4jnsgd1na2vs0mg"},{"bike_id":"fec6ee34-e5f1-40d1-bc65-a1baab808b7e","system_id":"levelo_inurba_marseille","lat":43.283498,"lon":5.380948,"is_reserved":false,"is_disabled":false,"rental_uris":{"android":"levelo://app?vid=fec6ee34-e5f1-40d1-bc65-a1baab808b7e","ios":"levelo://app?vid=fec6ee34-e5f1-40d1-bc65-a1baab808b7e"},"vehicle_type_id":"4","last_reported":1722445650,"current_range_meters":2000,"station_id":"ce4bh412rcd13ifvqdr0","pricing_plan_id":"cebpf4jnsgd1na2vs0mg"},{"bike_id":"d6aa78e1-503c-42ed-93c0-d8440441f221","system_id":"levelo_inurba_marseille","lat":43.28427,"lon":5.35,"is_reserved":false,"is_disabled":false,"rental_uris":{"android":"levelo://app?vid=d6aa78e1-503c-42ed-93c0-d8440441f221","ios":"levelo://app?vid=d6aa78e1-503c-42ed-93c0-d8440441f221"},"vehicle_type_id":"4","last_reported":1722445650,"current_range_meters":19600,"station_id":"ce4bhbh2rcd13ifvqepg","pricing_plan_id":"cebpf4jnsgd1na2vs0mg"},{"bike_id":"938fd696-2633-45e9-9f6a-49c74330ed14","system_id":"levelo_inurba_marseille","lat":43.284248,"lon":5.349978,"is_reserved":false,"is_disabled":false,"rental_uris":{"android":"levelo://app?vid=938fd696-2633-45e9-9f6a-49c74330ed14","ios":"levelo://app?vid=938fd696-2633-45e9-9f6a-49c74330ed14"},"vehicle_type_id":"4","last_reported":1722445650,"current_range_meters":30000,"station_id":"ce4bhbh2rcd13ifvqepg","pricing_plan_id":"cebpf4jnsgd1na2vs0mg"},{"bike_id":"5db72b29-8c64-4985-8763-8ef63c56ffc0","system_id":"levelo_inurba_marseille","lat":43.284776,"lon":5.385603,"is_reserved":false,"is_disabled":false,"rental_uris":{"android":"levelo://app?vid=5db72b29-8c64-4985-8763-8ef63c56ffc0","ios":"levelo://app?vid=5db72b29-8c64-4985-8763-8ef63c56ffc0"},"vehicle_type_id":"4","last_reported":1722445650,"current_range_meters":0,"station_id":"ce4bh8p2rcd13ifvqeb0","pricing_plan_id":"cebpf4jnsgd1na2vs0mg"},{"bike_id":"a8a95fdd-8ac7-4453-8a71-ffd4017c46de","system_id":"levelo_inurba_marseille","lat":43.28427,"lon":5.34986,"is_reserved":false,"is_disabled":false,"rental_uris":{"android":"levelo://app?vid=a8a95fdd-8ac7-4453-8a71-ffd4017c46de","ios":"levelo://app?vid=a8a95fdd-8ac7-4453-8a71-ffd4017c46de"},"vehicle_type_id":"4","last_reported":1722445650,"current_range_meters":28000,"station_id":"ce4bhbh2rcd13ifvqepg","pricing_plan_id":"cebpf4jnsgd1na2vs0mg"},{"bike_id":"8638c447-a9a7-4f3d-acb9-7ee8e05742c2","system_id":"levelo_inurba_marseille","lat":43.28426,"lon":5.34986,"is_reserved":false,"is_disabled":false,"rental_uris":{"android":"levelo://app?vid=8638c447-a9a7-4f3d-acb9-7ee8e05742c2","ios":"levelo://app?vid=8638c447-a9a7-4f3d-acb9-7ee8e05742c2"},"vehicle_type_id":"4","last_reported":1722445650,"current_range_meters":12000,"station_id":"ce4bhbh2rcd13ifvqepg","pricing_plan_id":"cebpf4jnsgd1na2vs0mg"},{"bike_id":"d89a6733-8eee-4187-b223-49c2bb6bda6d","system_id":"levelo_inurba_marseille","lat":43.28428,"lon":5.34979,"is_reserved":false,"is_disabled":false,"rental_uris":{"android":"levelo://app?vid=d89a6733-8eee-4187-b223-49c2bb6bda6d","ios":"levelo://app?vid=d89a6733-8eee-4187-b223-49c2bb6bda6d"},"vehicle_type_id":"4","last_reported":1722445650,"current_range_meters":23200,"station_id":"ce4bhbh2rcd13ifvqepg","pricing_plan_id":"cebpf4jnsgd1na2vs0mg"},{"bike_id":"0aed9efd-a687-4540-9e08-068903d5b223","system_id":"levelo_inurba_marseille","lat":43.284245,"lon":5.349887,"is_reserved":false,"is_disabled":false,"rental_uris":{"android":"levelo://app?vid=0aed9efd-a687-4540-9e08-068903d5b223","ios":"levelo://app?vid=0aed9efd-a687-4540-9e08-068903d5b223"},"vehicle_type_id":"4","last_reported":1722445650,"current_range_meters":31200,"station_id":"ce4bhbh2rcd13ifvqepg","pricing_plan_id":"cebpf4jnsgd1na2vs0mg"},{"bike_id":"508ee529-c073-459c-8a7c-0c46e8e0c615","system_id":"levelo_inurba_marseille","lat":43.28425,"lon":5.34987,"is_reserved":false,"is_disabled":false,"rental_uris":{"android":"levelo://app?vid=508ee529-c073-459c-8a7c-0c46e8e0c615","ios":"levelo://app?vid=508ee529-c073-459c-8a7c-0c46e8e0c615"},"vehicle_type_id":"4","last_reported":1722445650,"current_range_meters":30000,"station_id":"ce4bhbh2rcd13ifvqepg","pricing_plan_id":"cebpf4jnsgd1na2vs0mg"},{"bike_id":"db010d8f-385c-4620-b419-a0b3246b2a7b","system_id":"levelo_inurba_marseille","lat":43.28423,"lon":5.34991,"is_reserved":false,"is_disabled":false,"rental_uris":{"android":"levelo://app?vid=db010d8f-385c-4620-b419-a0b3246b2a7b","ios":"levelo://app?vid=db010d8f-385c-4620-b419-a0b3246b2a7b"},"vehicle_type_id":"4","last_reported":1722445650,"current_range_meters":2800,"station_id":"ce4bhbh2rcd13ifvqepg","pricing_plan_id":"cebpf4jnsgd1na2vs0mg"},{"bike_id":"207d5b0f-227d-45a4-9539-32791f6dbf04","system_id":"levelo_inurba_marseille","lat":43.284222,"lon":5.349934,"is_reserved":false,"is_disabled":false,"rental_uris":{"android":"levelo://app?vid=207d5b0f-227d-45a4-9539-32791f6dbf04","ios":"levelo://app?vid=207d5b0f-227d-45a4-9539-32791f6dbf04"},"vehicle_type_id":"4","last_reported":1722445650,"current_range_meters":13200,"station_id":"ce4bhbh2rcd13ifvqepg","pricing_plan_id":"cebpf4jnsgd1na2vs0mg"},{"bike_id":"d8606a98-f192-46a2-965e-b0f6f920aa9d","system_id":"levelo_inurba_marseille","lat":43.28422,"lon":5.34992,"is_reserved":false,"is_disabled":false,"rental_uris":{"android":"levelo://app?vid=d8606a98-f192-46a2-965e-b0f6f920aa9d","ios":"levelo://app?vid=d8606a98-f192-46a2-965e-b0f6f920aa9d"},"vehicle_type_id":"4","last_reported":1722445650,"current_range_meters":21600,"station_id":"ce4bhbh2rcd13ifvqepg","pricing_plan_id":"cebpf4jnsgd1na2vs0mg"},{"bike_id":"75eac02a-72c1-40b9-89e3-5af3d21346b9","system_id":"levelo_inurba_marseille","lat":43.28427,"lon":5.34976,"is_reserved":false,"is_disabled":false,"rental_uris":{"android":"levelo://app?vid=75eac02a-72c1-40b9-89e3-5af3d21346b9","ios":"levelo://app?vid=75eac02a-72c1-40b9-89e3-5af3d21346b9"},"vehicle_type_id":"4","last_reported":1722445650,"current_range_meters":0,"station_id":"ce4bhbh2rcd13ifvqepg","pricing_plan_id":"cebpf4jnsgd1na2vs0mg"},{"bike_id":"dab3fa74-ca79-46cc-9268-3e82eb063778","system_id":"levelo_inurba_marseille","lat":43.28425,"lon":5.34982,"is_reserved":false,"is_disabled":false,"rental_uris":{"android":"levelo://app?vid=dab3fa74-ca79-46cc-9268-3e82eb063778","ios":"levelo://app?vid=dab3fa74-ca79-46cc-9268-3e82eb063778"},"vehicle_type_id":"4","last_reported":1722445650,"current_range_meters":21600,"station_id":"ce4bhbh2rcd13ifvqepg","pricing_plan_id":"cebpf4jnsgd1na2vs0mg"},{"bike_id":"19b8586a-d37e-40d1-a258-de36dff7e51e","system_id":"levelo_inurba_marseille","lat":43.2834,"lon":5.38107,"is_reserved":false,"is_disabled":false,"rental_uris":{"android":"levelo://app?vid=19b8586a-d37e-40d1-a258-de36dff7e51e","ios":"levelo://app?vid=19b8586a-d37e-40d1-a258-de36dff7e51e"},"vehicle_type_id":"4","last_reported":1722445650,"current_range_meters":0,"station_id":"ce4bh412rcd13ifvqdr0","pricing_plan_id":"cebpf4jnsgd1na2vs0mg"},{"bike_id":"2001b312-2eef-4240-b2ae-def174863c7d","system_id":"levelo_inurba_marseille","lat":43.28424,"lon":5.34983,"is_reserved":false,"is_disabled":false,"rental_uris":{"android":"levelo://app?vid=2001b312-2eef-4240-b2ae-def174863c7d","ios":"levelo://app?vid=2001b312-2eef-4240-b2ae-def174863c7d"},"vehicle_type_id":"4","last_reported":1722445650,"current_range_meters":20800,"station_id":"ce4bhbh2rcd13ifvqepg","pricing_plan_id":"cebpf4jnsgd1na2vs0mg"},{"bike_id":"3ccc7532-4b96-4c9a-b8ef-35025366c1ef","system_id":"levelo_inurba_marseille","lat":43.284231,"lon":5.349853,"is_reserved":false,"is_disabled":false,"rental_uris":{"android":"levelo://app?vid=3ccc7532-4b96-4c9a-b8ef-35025366c1ef","ios":"levelo://app?vid=3ccc7532-4b96-4c9a-b8ef-35025366c1ef"},"vehicle_type_id":"4","last_reported":1722445650,"current_range_meters":30800,"station_id":"ce4bhbh2rcd13ifvqepg","pricing_plan_id":"cebpf4jnsgd1na2vs0mg"},{"bike_id":"19174288-a70a-4e34-83eb-61524b00aea4","system_id":"levelo_inurba_marseille","lat":43.28421,"lon":5.34991,"is_reserved":false,"is_disabled":false,"rental_uris":{"android":"levelo://app?vid=19174288-a70a-4e34-83eb-61524b00aea4","ios":"levelo://app?vid=19174288-a70a-4e34-83eb-61524b00aea4"},"vehicle_type_id":"4","last_reported":1722445650,"current_range_meters":22000,"station_id":"ce4bhbh2rcd13ifvqepg","pricing_plan_id":"cebpf4jnsgd1na2vs0mg"},{"bike_id":"16876110-2b36-41e9-b10c-75b914cfa82a","system_id":"levelo_inurba_marseille","lat":43.284248,"lon":5.349777,"is_reserved":false,"is_disabled":false,"rental_uris":{"android":"levelo://app?vid=16876110-2b36-41e9-b10c-75b914cfa82a","ios":"levelo://app?vid=16876110-2b36-41e9-b10c-75b914cfa82a"},"vehicle_type_id":"4","last_reported":1722445650,"current_range_meters":6000,"station_id":"ce4bhbh2rcd13ifvqepg","pricing_plan_id":"cebpf4jnsgd1na2vs0mg"},{"bike_id":"debb5c40-7963-4c1e-8719-5f703939df3f","system_id":"levelo_inurba_marseille","lat":43.28418,"lon":5.34999,"is_reserved":false,"is_disabled":false,"rental_uris":{"android":"levelo://app?vid=debb5c40-7963-4c1e-8719-5f703939df3f","ios":"levelo://app?vid=debb5c40-7963-4c1e-8719-5f703939df3f"},"vehicle_type_id":"4","last_reported":1722445650,"current_range_meters":18800,"station_id":"ce4bhbh2rcd13ifvqepg","pricing_plan_id":"cebpf4jnsgd1na2vs0mg"},{"bike_id":"be940d51-c1e4-4284-bac4-a5ecd8425db4","system_id":"levelo_inurba_marseille","lat":43.28422,"lon":5.34984,"is_reserved":false,"is_disabled":false,"rental_uris":{"android":"levelo://app?vid=be940d51-c1e4-4284-bac4-a5ecd8425db4","ios":"levelo://app?vid=be940d51-c1e4-4284-bac4-a5ecd8425db4"},"vehicle_type_id":"4","last_reported":1722445650,"current_range_meters":16000,"station_id":"ce4bhbh2rcd13ifvqepg","pricing_plan_id":"cebpf4jnsgd1na2vs0mg"},{"bike_id":"7a8a8272-0bc6-4185-a2d3-2147d0136ae2","system_id":"levelo_inurba_marseille","lat":43.28421,"lon":5.34987,"is_reserved":false,"is_disabled":false,"rental_uris":{"android":"levelo://app?vid=7a8a8272-0bc6-4185-a2d3-2147d0136ae2","ios":"levelo://app?vid=7a8a8272-0bc6-4185-a2d3-2147d0136ae2"},"vehicle_type_id":"4","last_reported":1722445650,"current_range_meters":30800,"station_id":"ce4bhbh2rcd13ifvqepg","pricing_plan_id":"cebpf4jnsgd1na2vs0mg"},{"bike_id":"4355ccdf-dec3-4b96-99e4-e8a52a344b21","system_id":"levelo_inurba_marseille","lat":43.28418,"lon":5.34994,"is_reserved":false,"is_disabled":false,"rental_uris":{"android":"levelo://app?vid=4355ccdf-dec3-4b96-99e4-e8a52a344b21","ios":"levelo://app?vid=4355ccdf-dec3-4b96-99e4-e8a52a344b21"},"vehicle_type_id":"4","last_reported":1722445650,"current_range_meters":18400,"station_id":"ce4bhbh2rcd13ifvqepg","pricing_plan_id":"cebpf4jnsgd1na2vs0mg"},{"bike_id":"47ca68d4-b7a4-4784-b586-e56438b44a00","system_id":"levelo_inurba_marseille","lat":43.284215,"lon":5.349808,"is_reserved":false,"is_disabled":false,"rental_uris":{"android":"levelo://app?vid=47ca68d4-b7a4-4784-b586-e56438b44a00","ios":"levelo://app?vid=47ca68d4-b7a4-4784-b586-e56438b44a00"},"vehicle_type_id":"4","last_reported":1722445650,"current_range_meters":12400,"station_id":"ce4bhbh2rcd13ifvqepg","pricing_plan_id":"cebpf4jnsgd1na2vs0mg"},{"bike_id":"58a81324-6822-41b0-a0b9-629210756de4","system_id":"levelo_inurba_marseille","lat":43.28418,"lon":5.34991,"is_reserved":false,"is_disabled":false,"rental_uris":{"android":"levelo://app?vid=58a81324-6822-41b0-a0b9-629210756de4","ios":"levelo://app?vid=58a81324-6822-41b0-a0b9-629210756de4"},"vehicle_type_id":"4","last_reported":1722445650,"current_range_meters":25200,"station_id":"ce4bhbh2rcd13ifvqepg","pricing_plan_id":"cebpf4jnsgd1na2vs0mg"},{"bike_id":"449a451e-0127-449d-80e1-1485be6e50a7","system_id":"levelo_inurba_marseille","lat":43.2842,"lon":5.34984,"is_reserved":false,"is_disabled":false,"rental_uris":{"android":"levelo://app?vid=449a451e-0127-449d-80e1-1485be6e50a7","ios":"levelo://app?vid=449a451e-0127-449d-80e1-1485be6e50a7"},"vehicle_type_id":"4","last_reported":1722445650,"current_range_meters":1200,"station_id":"ce4bhbh2rcd13ifvqepg","pricing_plan_id":"cebpf4jnsgd1na2vs0mg"},{"bike_id":"8377bcf3-4502-4e5e-9ebf-28e998174d2c","system_id":"levelo_inurba_marseille","lat":43.284214,"lon":5.349706,"is_reserved":false,"is_disabled":false,"rental_uris":{"android":"levelo://app?vid=8377bcf3-4502-4e5e-9ebf-28e998174d2c","ios":"levelo://app?vid=8377bcf3-4502-4e5e-9ebf-28e998174d2c"},"vehicle_type_id":"4","last_reported":1722445650,"current_range_meters":24400,"station_id":"ce4bhbh2rcd13ifvqepg","pricing_plan_id":"cebpf4jnsgd1na2vs0mg"},{"bike_id":"4ba30434-b328-42f3-b912-4773d0ba3994","system_id":"levelo_inurba_marseille","lat":43.2842,"lon":5.34982,"is_reserved":false,"is_disabled":false,"rental_uris":{"android":"levelo://app?vid=4ba30434-b328-42f3-b912-4773d0ba3994","ios":"levelo://app?vid=4ba30434-b328-42f3-b912-4773d0ba3994"},"vehicle_type_id":"4","last_reported":1722445650,"current_range_meters":22800,"station_id":"ce4bhbh2rcd13ifvqepg","pricing_plan_id":"cebpf4jnsgd1na2vs0mg"},{"bike_id":"a7010d1c-0a68-45f5-9646-1150c3bd5f88","system_id":"levelo_inurba_marseille","lat":43.28418,"lon":5.34988,"is_reserved":false,"is_disabled":false,"rental_uris":{"android":"levelo://app?vid=a7010d1c-0a68-45f5-9646-1150c3bd5f88","ios":"levelo://app?vid=a7010d1c-0a68-45f5-9646-1150c3bd5f88"},"vehicle_type_id":"4","last_reported":1722445650,"current_range_meters":20800,"station_id":"ce4bhbh2rcd13ifvqepg","pricing_plan_id":"cebpf4jnsgd1na2vs0mg"},{"bike_id":"176d826f-82e8-4923-a874-991e2460067d","system_id":"levelo_inurba_marseille","lat":43.2842,"lon":5.34981,"is_reserved":false,"is_disabled":false,"rental_uris":{"android":"levelo://app?vid=176d826f-82e8-4923-a874-991e2460067d","ios":"levelo://app?vid=176d826f-82e8-4923-a874-991e2460067d"},"vehicle_type_id":"4","last_reported":1722445650,"current_range_meters":8400,"station_id":"ce4bhbh2rcd13ifvqepg","pricing_plan_id":"cebpf4jnsgd1na2vs0mg"},