{"last_updated":1747116949,"ttl":60,"version":"2.2","data":{"bikes":[{"bike_id":"fc2577e7-1497-425b-9d4f-ab8d7dc843c6","system_id":"levelo_inurba_marseille","lat":43.33771,"lon":5.37485,"is_reserved":false,"is_disabled":false,"rental_uris":{"android":"levelo://app?vid=fc2577e7-1497-425b-9d4f-ab8d7dc843c6","ios":"levelo://app?vid=fc2577e7-1497-425b-9d4f-ab8d7dc843c6"},"vehicle_type_id":"4","last_reported":1747116949,"current_range_meters":2800,"station_id":"","pricing_plan_id":"cebpf4jnsgd1na2vs0mg"},{"bike_id":"dca840ee-e5ee-445c-bf30-80690b028cee","system_id":"levelo_inurba_marseille","lat":43.272085,"lon":5.391885,"is_reserved":false,"is_disabled":false,"rental_uris":{"android":"levelo://app?vid=dca840ee-e5ee-445c-bf30-80690b028cee","ios":"levelo://app?vid=dca840ee-e5ee-445c-bf30-80690b028cee"},"vehicle_type_id":"4","last_reported":1747116949,"current_range_meters":2800,"station_id":"ce4bhhp2rcd13ifvqfm0","pricing_plan_id":"cebpf4jnsgd1na2vs0mg"},{"bike_id":"1b36f742-077a-45ea-9285-9b00817387d4","system_id":"levelo_inurba_marseille","lat":43.28947,"lon":5.36634,"is_reserved":false,"is_disabled":false,"rental_uris":{"android":"levelo://app?vid=1b36f742-077a-45ea-9285-9b00817387d4","ios":"levelo://app?vid=1b36f742-077a-45ea-9285-9b00817387d4"},"vehicle_type_id":"4","last_reported":1747116949,"current_range_meters":2000,"station_id":"ce4bhap2rcd13ifvqek0","pricing_plan_id":"cebpf4jnsgd1na2vs0mg"},{"bike_id":"3ae1cd74-71fb-47ba-ac9b-3b9bc8cd8449","system_id":"levelo_inurba_marseille","lat":43.21735,"lon":5.34605,"is_reserved":false,"is_disabled":false,"rental_uris":{"android":"levelo://app?vid=3ae1cd74-71fb-47ba-ac9b-3b9bc8cd8449","ios":"levelo://app?vid=3ae1cd74-71fb-47ba-ac9b-3b9bc8cd8449"},"vehicle_type_id":"4","last_reported":1747116949,"current_range_meters":2800,"station_id":"st_cvj6r9ubvosntc0bgbag","pricing_plan_id":"cebpf4jnsgd1na2vs0mg"},{"bike_id":"1838afde-afc3-4eda-8678-62b4dcd0e305","system_id":"levelo_inurba_marseille","lat":43.24073,"lon":5.37761,"is_reserved":false,"is_disabled":false,"rental_uris":{"android":"levelo://app?vid=1838afde-afc3-4eda-8678-62b4dcd0e305","ios":"levelo://app?vid=1838afde-afc3-4eda-8678-62b4dcd0e305"},"vehicle_type_id":"4","last_reported":1747116949,"current_range_meters":2800,"station_id":"ce4bhnp2rcd13ifvqgvg","pricing_plan_id":"cebpf4jnsgd1na2vs0mg"},{"bike_id":"b1b8c807-8597-4a9c-bbcd-a2746fd63865","system_id":"levelo_inurba_marseille","lat":43.252766,"lon":5.399239,"is_reserved":false,"is_disabled":false,"rental_uris":{"android":"levelo://app?vid=b1b8c807-8597-4a9c-bbcd-a2746fd63865","ios":"levelo://app?vid=b1b8c807-8597-4a9c-bbcd-a2746fd63865"},"vehicle_type_id":"4","last_reported":1747116949,"current_range_meters":2800,"station_id":"","pricing_plan_id":"cebpf4jnsgd1na2vs0mg"},{"bike_id":"0cc4eb21-80ad-4141-8799-66402bf47bda","system_id":"levelo_inurba_marseille","lat":43.32474,"lon":5.36562,"is_reserved":false,"is_disabled":false,"rental_uris":{"android":"levelo://app?vid=0cc4eb21-80ad-4141-8799-66402bf47bda","ios":"levelo://app?vid=0cc4eb21-80ad-4141-8799-66402bf47bda"},"vehicle_type_id":"4","last_reported":1747116949,"current_range_meters":2800,"station_id":"ce4bhs12rcd13ifvqhvg","pricing_plan_id":"cebpf4jnsgd1na2vs0mg"},{"bike_id":"0fedde00-40eb-40d2-8fc2-e61ecce46b7b","system_id":"levelo_inurba_marseille","lat":43.282938,"lon":5.432244,"is_reserved":false,"is_disabled":false,"rental_uris":{"android":"levelo://app?vid=0fedde00-40eb-40d2-8fc2-e61ecce46b7b","ios":"levelo://app?vid=0fedde00-40eb-40d2-8fc2-e61ecce46b7b"},"vehicle_type_id":"4","last_reported":1747116949,"current_range_meters":2800,"station_id":"","pricing_plan_id":"cebpf4jnsgd1na2vs0mg"},{"bike_id":"129c03ab-3dcf-46d9-96ab-a3c8ac304f4a","system_id":"levelo_inurba_marseille","lat":43.26521,"lon":5.39074,"is_reserved":false,"is_disabled":true,"rental_uris":{"android":"levelo://app?vid=129c03ab-3dcf-46d9-96ab-a3c8ac304f4a","ios":"levelo://app?vid=129c03ab-3dcf-46d9-96ab-a3c8ac304f4a"},"vehicle_type_id":"4","last_reported":1747116949,"current_range_meters":2800,"station_id":"","pricing_plan_id":"cebpf4jnsgd1na2vs0mg"},{"bike_id":"09fde8c6-3fac-4b57-bda0-3226b0426213","system_id":"levelo_inurba_marseille","lat":43.30549,"lon":5.36539,"is_reserved":false,"is_disabled":false,"rental_uris":{"android":"levelo://app?vid=09fde8c6-3fac-4b57-bda0-3226b0426213","ios":"levelo://app?vid=09fde8c6-3fac-4b57-bda0-3226b0426213"},"vehicle_type_id":"4","last_reported":1747116949,"current_range_meters":3200,"station_id":"ce4bgs12rcd13ifvqcag","pricing_plan_id":"cebpf4jnsgd1na2vs0mg"},{"bike_id":"14aeffdc-edbf-4806-af26-1089f07b916e","system_id":"levelo_inurba_marseille","lat":43.28477,"lon":5.38429,"is_reserved":false,"is_disabled":false,"rental_uris":{"android":"levelo://app?vid=14aeffdc-edbf-4806-af26-1089f07b916e","ios":"levelo://app?vid=14aeffdc-edbf-4806-af26-1089f07b916e"},"vehicle_type_id":"4","last_reported":1747116949,"current_range_meters":3200,"station_id":"ce4bh512rcd13ifvqe3g","pricing_plan_id":"cebpf4jnsgd1na2vs0mg"},{"bike_id":"83a81ffb-3d1c-4122-a406-60b114a380fc","system_id":"levelo_inurba_marseille","lat":43.21215,"lon":5.35057,"is_reserved":false,"is_disabled":false,"rental_uris":{"android":"levelo://app?vid=83a81ffb-3d1c-4122-a406-60b114a380fc","ios":"levelo://app?vid=83a81ffb-3d1c-4122-a406-60b114a380fc"},"vehicle_type_id":"4","last_reported":1747116949,"current_range_meters":3200,"station_id":"st_cvj6sg6p6f1abm77japg","pricing_plan_id":"cebpf4jnsgd1na2vs0mg"},{"bike_id":"0fa43b28-a1f0-42f2-ab2c-512fb16942f6","system_id":"levelo_inurba_marseille","lat":43.27135,"lon":5.41049,"is_reserved":false,"is_disabled":true,"rental_uris":{"android":"levelo://app?vid=0fa43b28-a1f0-42f2-ab2c-512fb16942f6","ios":"levelo://app?vid=0fa43b28-a1f0-42f2-ab2c-512fb16942f6"},"vehicle_type_id":"4","last_reported":1747116949,"current_range_meters":1600,"station_id":"","pricing_plan_id":"cebpf4jnsgd1na2vs0mg"},{"bike_id":"0e1e6390-d921-43af-909c-422df745958c","system_id":"levelo_inurba_marseille","lat":43.29041,"lon":5.39965,"is_reserved":false,"is_disabled":false,"rental_uris":{"android":"levelo://app?vid=0e1e6390-d921-43af-909c-422df745958c","ios":"levelo://app?vid=0e1e6390-d921-43af-909c-422df745958c"},"vehicle_type_id":"4","last_reported":1747116949,"current_range_meters":3200,"station_id":"ce4bh392rcd13ifvqdm0","pricing_plan_id":"cebpf4jnsgd1na2vs0mg"},{"bike_id":"6b54b966-1023-412a-9ede-b017b3342fdd","system_id":"levelo_inurba_marseille","lat":43.2979,"lon":5.3809,"is_reserved":false,"is_disabled":true,"rental_uris":{"android":"levelo://app?vid=6b54b966-1023-412a-9ede-b017b3342fdd","ios":"levelo://app?vid=6b54b966-1023-412a-9ede-b017b3342fdd"},"vehicle_type_id":"4","last_reported":1747116949,"current_range_meters":3600,"station_id":"ce4bgip2rcd13ifvqbb0","pricing_plan_id":"cebpf4jnsgd1na2vs0mg"},{"bike_id":"5f9b62df-1db7-4452-8caf-5538e3287ca8","system_id":"levelo_inurba_marseille","lat":43.29363,"lon":5.42827,"is_reserved":false,"is_disabled":false,"rental_uris":{"android":"levelo://app?vid=5f9b62df-1db7-4452-8caf-5538e3287ca8","ios":"levelo://app?vid=5f9b62df-1db7-4452-8caf-5538e3287ca8"},"vehicle_type_id":"4","last_reported":1747116949,"current_range_meters":4000,"station_id":"","pricing_plan_id":"cebpf4jnsgd1na2vs0mg"},{"bike_id":"79f767b1-523b-4188-996e-cfe61a261e86","system_id":"levelo_inurba_marseille","lat":43.241794,"lon":5.397305,"is_reserved":false,"is_disabled":false,"rental_uris":{"android":"levelo://app?vid=79f767b1-523b-4188-996e-cfe61a261e86","ios":"levelo://app?vid=79f767b1-523b-4188-996e-cfe61a261e86"},"vehicle_type_id":"4","last_reported":1747116949,"current_range_meters":4400,"station_id":"ce4bhn12rcd13ifvqgpg","pricing_plan_id":"cebpf4jnsgd1na2vs0mg"},{"bike_id":"1be6f956-947f-43ad-acfa-d909fea859e7","system_id":"levelo_inurba_marseille","lat":43.28699,"lon":5.39985,"is_reserved":false,"is_disabled":false,"rental_uris":{"android":"levelo://app?vid=1be6f956-947f-43ad-acfa-d909fea859e7","ios":"levelo://app?vid=1be6f956-947f-43ad-acfa-d909fea859e7"},"vehicle_type_id":"4","last_reported":1747116949,"current_range_meters":4400,"station_id":"ce4bho92rcd13ifvqh3g","pricing_plan_id":"cebpf4jnsgd1na2vs0mg"},{"bike_id":"aa321893-fd0c-4b2c-bae2-164aa8b0d038","system_id":"levelo_inurba_marseille","lat":43.29776,"lon":5.37113,"is_reserved":false,"is_disabled":false,"rental_uris":{"android":"levelo://app?vid=aa321893-fd0c-4b2c-bae2-164aa8b0d038","ios":"levelo://app?vid=aa321893-fd0c-4b2c-bae2-164aa8b0d038"},"vehicle_type_id":"4","last_reported":1747116949,"current_range_meters":4400,"station_id":"ce4bgop2rcd13ifvqc1g","pricing_plan_id":"cebpf4jnsgd1na2vs0mg"},{"bike_id":"a9fdfac9-13ae-4a51-8f3d-a89bb8a08b3d","system_id":"levelo_inurba_marseille","lat":43.231475,"lon":5.437032,"is_reserved":false,"is_disabled":false,"rental_uris":{"android":"levelo://app?vid=a9fdfac9-13ae-4a51-8f3d-a89bb8a08b3d","ios":"levelo://app?vid=a9fdfac9-13ae-4a51-8f3d-a89bb8a08b3d"},"vehicle_type_id":"4","last_reported":1747116949,"current_range_meters":4800,"station_id":"ce4bhmp2rcd13ifvqgog","pricing_plan_id":"cebpf4jnsgd1na2vs0mg"},{"bike_id":"c166edd6-904a-4bc0-bde0-4462b8738864","system_id":"levelo_inurba_marseille","lat":43.24161,"lon":5.36409,"is_reserved":false,"is_disabled":false,"rental_uris":{"android":"levelo://app?vid=c166edd6-904a-4bc0-bde0-4462b8738864","ios":"levelo://app?vid=c166edd6-904a-4bc0-bde0-4462b8738864"},"vehicle_type_id":"4","last_reported":1747116949,"current_range_meters":4800,"station_id":"cpo36qri1sfpv3e86is0","pricing_plan_id":"cebpf4jnsgd1na2vs0mg"},{"bike_id":"2deb1013-2a4e-4281-83f4-5de1b133ca70","system_id":"levelo_inurba_marseille","lat":43.299083,"lon":5.436546,"is_reserved":false,"is_disabled":false,"rental_uris":{"android":"levelo://app?vid=2deb1013-2a4e-4281-83f4-5de1b133ca70","ios":"levelo://app?vid=2deb1013-2a4e-4281-83f4-5de1b133ca70"},"vehicle_type_id":"4","last_reported":1747116949,"current_range_meters":4800,"station_id":"ce4bhpp2rcd13ifvqhfg","pricing_plan_id":"cebpf4jnsgd1na2vs0mg"},{"bike_id":"daf4e063-31f2-4b88-aa14-a8b6f4bed22c","system_id":"levelo_inurba_marseille","lat":43.304136,"lon":5.397561,"is_reserved":false,"is_disabled":false,"rental_uris":{"android":"levelo://app?vid=daf4e063-31f2-4b88-aa14-a8b6f4bed22c","ios":"levelo://app?vid=daf4e063-31f2-4b88-aa14-a8b6f4bed22c"},"vehicle_type_id":"4","last_reported":1747116949,"current_range_meters":5600,"station_id":"ce4bh092rcd13ifvqd20","pricing_plan_id":"cebpf4jnsgd1na2vs0mg"},{"bike_id":"513e7ed6-e660-494d-9b4a-add9bc0bfaa9","system_id":"levelo_inurba_marseille","lat":43.30153,"lon":5.380695,"is_reserved":false,"is_disabled":true,"rental_uris":{"android":"levelo://app?vid=513e7ed6-e660-494d-9b4a-add9bc0bfaa9","ios":"levelo://app?vid=513e7ed6-e660-494d-9b4a-add9bc0bfaa9"},"vehicle_type_id":"4","last_reported":1747116949,"current_range_meters":5600,"station_id":"ce4bgjp2rcd13ifvqbh0","pricing_plan_id":"cebpf4jnsgd1na2vs0mg"},{"bike_id":"864ce70f-1098-4973-90a9-d5c9b927170c","system_id":"levelo_inurba_marseille","lat":43.30403,"lon":5.42493,"is_reserved":false,"is_disabled":false,"rental_uris":{"android":"levelo://app?vid=864ce70f-1098-4973-90a9-d5c9b927170c","ios":"levelo://app?vid=864ce70f-1098-4973-90a9-d5c9b927170c"},"vehicle_type_id":"4","last_reported":1747116949,"current_range_meters":6000,"station_id":"ce4bghh2rcd13ifvqb60","pricing_plan_id":"cebpf4jnsgd1na2vs0mg"},{"bike_id":"1f6c8b6d-922c-466f-bf09-dfb7253bda7d","system_id":"levelo_inurba_marseille","lat":43.32543,"lon":5.41424,"is_reserved":false,"is_disabled":false,"rental_uris":{"android":"levelo://app?vid=1f6c8b6d-922c-466f-bf09-dfb7253bda7d","ios":"levelo://app?vid=1f6c8b6d-922c-466f-bf09-dfb7253bda7d"},"vehicle_type_id":"4","last_reported":1747116949,"current_range_meters":5600,"station_id":"ce4bhq12rcd13ifvqhhg","pricing_plan_id":"cebpf4jnsgd1na2vs0mg"},{"bike_id":"6749e139-3394-48e9-b69d-ef7c40230981","system_id":"levelo_inurba_marseille","lat":43.29524,"lon":5.39038,"is_reserved":false,"is_disabled":false,"rental_uris":{"android":"levelo://app?vid=6749e139-3394-48e9-b69d-ef7c40230981","ios":"levelo://app?vid=6749e139-3394-48e9-b69d-ef7c40230981"},"vehicle_type_id":"4","last_reported":1747116949,"current_range_meters":6000,"station_id":"ce4bh3p2rcd13ifvqdp0","pricing_plan_id":"cebpf4jnsgd1na2vs0mg"},{"bike_id":"63e9444f-c14c-435d-9c33-22d8afa9b431","system_id":"levelo_inurba_marseille","lat":43.28576,"lon":5.39468,"is_reserved":false,"is_disabled":true,"rental_uris":{"android":"levelo://app?vid=63e9444f-c14c-435d-9c33-22d8afa9b431","ios":"levelo://app?vid=63e9444f-c14c-435d-9c33-22d8afa9b431"},"vehicle_type_id":"4","last_reported":1747116949,"current_range_meters":6000,"station_id":"ce4bh292rcd13ifvqdg0","pricing_plan_id":"cebpf4jnsgd1na2vs0mg"},{"bike_id":"1d02b725-747b-4abe-9a23-fbaaa2c75704","system_id":"levelo_inurba_marseille","lat":43.298183,"lon":5.381193,"is_reserved":false,"is_disabled":false,"rental_uris":{"android":"levelo://app?vid=1d02b725-747b-4abe-9a23-fbaaa2c75704","ios":"levelo://app?vid=1d02b725-747b-4abe-9a23-fbaaa2c75704"},"vehicle_type_id":"4","last_reported":1747116949,"current_range_meters":5600,"station_id":"ce4bgip2rcd13ifvqbb0","pricing_plan_id":"cebpf4jnsgd1na2vs0mg"},{"bike_id":"671f1f53-8d82-4ed4-ade1-f1720e0973b5","system_id":"levelo_inurba_marseille","lat":43.28173,"lon":5.4265,"is_reserved":false,"is_disabled":false,"rental_uris":{"android":"levelo://app?vid=671f1f53-8d82-4ed4-ade1-f1720e0973b5","ios":"levelo://app?vid=671f1f53-8d82-4ed4-ade1-f1720e0973b5"},"vehicle_type_id":"4","last_reported":1747116949,"current_range_meters":6800,"station_id":"ce4bhnh2rcd13ifvqgug","pricing_plan_id":"cebpf4jnsgd1na2vs0mg"},{"bike_id":"3f2e4373-902f-4072-9141-dc15887edea5","system_id":"levelo_inurba_marseille","lat":43.29049,"lon":5.39957,"is_reserved":false,"is_disabled":false,"rental_uris":{"android":"levelo://app?vid=3f2e4373-902f-4072-9141-dc15887edea5","ios":"levelo://app?vid=3f2e4373-902f-4072-9141-dc15887edea5"},"vehicle_type_id":"4","last_reported":1747116949,"current_range_meters":6800,"station_id":"ce4bh392rcd13ifvqdm0","pricing_plan_id":"cebpf4jnsgd1na2vs0mg"},{"bike_id":"51339d9a-bf99-4a70-b141-4ae02a0688c0","system_id":"levelo_inurba_marseille","lat":43.25495,"lon":5.376444,"is_reserved":false,"is_disabled":false,"rental_uris":{"android":"levelo://app?vid=51339d9a-bf99-4a70-b141-4ae02a0688c0","ios":"levelo://app?vid=51339d9a-bf99-4a70-b141-4ae02a0688c0"},"vehicle_type_id":"4","last_reported":1747116949,"current_range_meters":6800,"station_id":"ce4bhh12rcd13ifvqfg0","pricing_plan_id":"cebpf4jnsgd1na2vs0mg"},{"bike_id":"b0ac8040-90e0-41ee-a2e3-e5462910fefc","system_id":"levelo_inurba_marseille","lat":43.27562,"lon":5.4128,"is_reserved":false,"is_disabled":false,"rental_uris":{"android":"levelo://app?vid=b0ac8040-90e0-41ee-a2e3-e5462910fefc","ios":"levelo://app?vid=b0ac8040-90e0-41ee-a2e3-e5462910fefc"},"vehicle_type_id":"4","last_reported":1747116949,"current_range_meters":6800,"station_id":"","pricing_plan_id":"cebpf4jnsgd1na2vs0mg"},{"bike_id":"0a7e584e-880e-41a6-aef5-ff83f35e27d8","system_id":"levelo_inurba_marseille","lat":43.30617,"lon":5.40462,"is_reserved":false,"is_disabled":false,"rental_uris":{"android":"levelo://app?vid=0a7e584e-880e-41a6-aef5-ff83f35e27d8","ios":"levelo://app?vid=0a7e584e-880e-41a6-aef5-ff83f35e27d8"},"vehicle_type_id":"4","last_reported":1747116949,"current_range_meters":6800,"station_id":"","pricing_plan_id":"cebpf4jnsgd1na2vs0mg"},{"bike_id":"ea43783d-8b54-48fc-b7dc-9031385273ca","system_id":"levelo_inurba_marseille","lat":43.260673,"lon":5.393959,"is_reserved":false,"is_disabled":true,"rental_uris":{"android":"levelo://app?vid=ea43783d-8b54-48fc-b7dc-9031385273ca","ios":"levelo://app?vid=ea43783d-8b54-48fc-b7dc-9031385273ca"},"vehicle_type_id":"4","last_reported":1747116949,"current_range_meters":6800,"station_id":"ce4bhh92rcd13ifvqfj0","pricing_plan_id":"cebpf4jnsgd1na2vs0mg"},{"bike_id":"de4a530f-3b17-41b9-bd98-d22e64d46bdc","system_id":"levelo_inurba_marseille","lat":43.321068,"lon":5.367762,"is_reserved":false,"is_disabled":false,"rental_uris":{"android":"levelo://app?vid=de4a530f-3b17-41b9-bd98-d22e64d46bdc","ios":"levelo://app?vid=de4a530f-3b17-41b9-bd98-d22e64d46bdc"},"vehicle_type_id":"4","last_reported":1747116949,"current_range_meters":6800,"station_id":"ce4bhrh2rcd13ifvqhug","pricing_plan_id":"cebpf4jnsgd1na2vs0mg"},{"bike_id":"40093641-a413-410f-b6ab-4e6a24ea2573","system_id":"levelo_inurba_marseille","lat":43.3054,"lon":5.36697,"is_reserved":false,"is_disabled":false,"rental_uris":{"android":"levelo://app?vid=40093641-a413-410f-b6ab-4e6a24ea2573","ios":"levelo://app?vid=40093641-a413-410f-b6ab-4e6a24ea2573"},"vehicle_type_id":"4","last_reported":1747116949,"current_range_meters":7200,"station_id":"ce4bgrp2rcd13ifvqc9g","pricing_plan_id":"cebpf4jnsgd1na2vs0mg"},{"bike_id":"421902d3-3e56-4e29-82d3-db9bdc2d8e56","system_id":"levelo_inurba_marseille","lat":43.26553,"lon":5.39024,"is_reserved":false,"is_disabled":false,"rental_uris":{"android":"levelo://app?vid=421902d3-3e56-4e29-82d3-db9bdc2d8e56","ios":"levelo://app?vid=421902d3-3e56-4e29-82d3-db9bdc2d8e56"},"vehicle_type_id":"4","last_reported":1747116949,"current_range_meters":7200,"station_id":"ce4bhe12rcd13ifvqf30","pricing_plan_id":"cebpf4jnsgd1na2vs0mg"},{"bike_id":"817ae355-323f-4b59-ad3f-7cabef227558","system_id":"levelo_inurba_marseille","lat":43.31482,"lon":5.373088,"is_reserved":false,"is_disabled":false,"rental_uris":{"android":"levelo://app?vid=817ae355-323f-4b59-ad3f-7cabef227558","ios":"levelo://app?vid=817ae355-323f-4b59-ad3f-7cabef227558"},"vehicle_type_id":"4","last_reported":1747116949,"current_range_meters":7200,"station_id":"ce4bgt12rcd13ifvqcd0","pricing_plan_id":"cebpf4jnsgd1na2vs0mg"},{"bike_id":"69173211-7418-4279-9c31-e67b6b55d52f","system_id":"levelo_inurba_marseille","lat":43.306747,"lon":5.40033,"is_reserved":false,"is_disabled":false,"rental_uris":{"android":"levelo://app?vid=69173211-7418-4279-9c31-e67b6b55d52f","ios":"levelo://app?vid=69173211-7418-4279-9c31-e67b6b55d52f"},"vehicle_type_id":"4","last_reported":1747116949,"current_range_meters":7200,"station_id":"","pricing_plan_id":"cebpf4jnsgd1na2vs0mg"},{"bike_id":"8b3eac21-bb1f-4170-9c40-95292bcf13c4","system_id":"levelo_inurba_marseille","lat":43.31668,"lon":5.40484,"is_reserved":false,"is_disabled":false,"rental_uris":{"android":"levelo://app?vid=8b3eac21-bb1f-4170-9c40-95292bcf13c4","ios":"levelo://app?vid=8b3eac21-bb1f-4170-9c40-95292bcf13c4"},"vehicle_type_id":"4","last_reported":1747116949,"current_range_meters":7200,"station_id":"ce4bh012rcd13ifvqd00","pricing_plan_id":"cebpf4jnsgd1na2vs0mg"},{"bike_id":"7a6b4769-26f3-4c0b-923a-5f450823fa5c","system_id":"levelo_inurba_marseille","lat":43.27663,"lon":5.38866,"is_reserved":false,"is_disabled":false,"rental_uris":{"android":"levelo://app?vid=7a6b4769-26f3-4c0b-923a-5f450823fa5c","ios":"levelo://app?vid=7a6b4769-26f3-4c0b-923a-5f450823fa5c"},"vehicle_type_id":"4","last_reported":1747116949,"current_range_meters":7200,"station_id":"ce4bhi12rcd13ifvqfo0","pricing_plan_id":"cebpf4jnsgd1na2vs0mg"},{"bike_id":"a70a465d-4c17-47a7-b84c-843e3deb8697","system_id":"levelo_inurba_marseille","lat":43.275,"lon":5.42449,"is_reserved":false,"is_disabled":true,"rental_uris":{"android":"levelo://app?vid=a70a465d-4c17-47a7-b84c-843e3deb8697","ios":"levelo://app?vid=a70a465d-4c17-47a7-b84c-843e3deb8697"},"vehicle_type_id":"4","last_reported":1747116949,"current_range_meters":8000,"station_id":"ce4bhn92rcd13ifvqgrg","pricing_plan_id":"cebpf4jnsgd1na2vs0mg"},{"bike_id":"7b0310c2-4dd8-4d0d-9eaf-d38f3b6639d2","system_id":"levelo_inurba_marseille","lat":43.27341,"lon":5.39121,"is_reserved":false,"is_disabled":false,"rental_uris":{"android":"levelo://app?vid=7b0310c2-4dd8-4d0d-9eaf-d38f3b6639d2","ios":"levelo://app?vid=7b0310c2-4dd8-4d0d-9eaf-d38f3b6639d2"},"vehicle_type_id":"4","last_reported":1747116949,"current_range_meters":8000,"station_id":"ce4bhgp2rcd13ifvqfe0","pricing_plan_id":"cebpf4jnsgd1na2vs0mg"},{"bike_id":"c5eb53b8-783c-4568-bc58-af7e2dd00aa0","system_id":"levelo_inurba_marseille","lat":43.32372,"lon":5.36736,"is_reserved":false,"is_disabled":false,"rental_uris":{"android":"levelo://app?vid=c5eb53b8-783c-4568-bc58-af7e2dd00aa0","ios":"levelo://app?vid=c5eb53b8-783c-4568-bc58-af7e2dd00aa0"},"vehicle_type_id":"4","last_reported":1747116949,"current_range_meters":8000,"station_id":"ce4bhsh2rcd13ifvqi2g","pricing_plan_id":"cebpf4jnsgd1na2vs0mg"},{"bike_id":"596027d7-677c-4b81-a7c6-75d1e4f18128","system_id":"levelo_inurba_marseille","lat":43.28106,"lon":5.37835,"is_reserved":false,"is_disabled":false,"rental_uris":{"android":"levelo://app?vid=596027d7-677c-4b81-a7c6-75d1e4f18128","ios":"levelo://app?vid=596027d7-677c-4b81-a7c6-75d1e4f18128"},"vehicle_type_id":"4","last_reported":1747116949,"current_range_meters":7200,"station_id":"ce4bha12rcd13ifvqee0","pricing_plan_id":"cebpf4jnsgd1na2vs0mg"},{"bike_id":"cf119389-8c06-4449-a205-2b18fbb577ee","system_id":"levelo_inurba_marseille","lat":43.31664,"lon":5.40431,"is_reserved":false,"is_disabled":false,"rental_uris":{"android":"levelo://app?vid=cf119389-8c06-4449-a205-2b18fbb577ee","ios":"levelo://app?vid=cf119389-8c06-4449-a205-2b18fbb577ee"},"vehicle_type_id":"4","last_reported":1747116949,"current_range_meters":8000,"station_id":"ce4bh012rcd13ifvqd00","pricing_plan_id":"cebpf4jnsgd1na2vs0mg"},{"bike_id":"ebacf0ee-0e7d-49e6-afdb-a7b7548fb163","system_id":"levelo_inurba_marseille","lat":43.30162,"lon":5.38097,"is_reserved":false,"is_disabled":false,"rental_uris":{"android":"levelo://app?vid=ebacf0ee-0e7d-49e6-afdb-a7b7548fb163","ios":"levelo://app?vid=ebacf0ee-0e7d-49e6-afdb-a7b7548fb163"},"vehicle_type_id":"4","last_reported":1747116949,"current_range_meters":8400,"station_id":"ce4bgjp2rcd13ifvqbh0","pricing_plan_id":"cebpf4jnsgd1na2vs0mg"},{"bike_id":"34dd0b61-4d53-48ae-977d-84c8d9fa88f8","system_id":"levelo_inurba_marseille","lat":43.24162,"lon":5.364,"is_reserved":false,"is_disabled":false,"rental_uris":{"android":"levelo://app?vid=34dd0b61-4d53-48ae-977d-84c8d9fa88f8","ios":"levelo://app?vid=34dd0b61-4d53-48ae-977d-84c8d9fa88f8"},"vehicle_type_id":"4","last_reported":1747116949,"current_range_meters":8400,"station_id":"cpo36qri1sfpv3e86is0","pricing_plan_id":"cebpf4jnsgd1na2vs0mg"},{"bike_id":"c9c8fabd-916e-4f4d-a79d-b19f907698a1","system_id":"levelo_inurba_marseille","lat":43.29038,"lon":5.39965,"is_reserved":false,"is_disabled":false,"rental_uris":{"android":"levelo://app?vid=c9c8fabd-916e-4f4d-a79d-b19f907698a1","ios":"levelo://app?vid=c9c8fabd-916e-4f4d-a79d-b19f907698a1"},"vehicle_type_id":"4","last_reported":1747116949,"current_range_meters":8400,"station_id":"ce4bh392rcd13ifvqdm0","pricing_plan_id":"cebpf4jnsgd1na2vs0mg"},{"bike_id":"e0b16578-b75c-49a0-be9b-59a4685629b7","system_id":"levelo_inurba_marseille","lat":43.28154,"lon":5.42644,"is_reserved":false,"is_disabled":false,"rental_uris":{"android":"levelo://app?vid=e0b16578-b75c-49a0-be9b-59a4685629b7","ios":"levelo://app?vid=e0b16578-b75c-49a0-be9b-59a4685629b7"},"vehicle_type_id":"4","last_reported":1747116949,"current_range_meters":8400,"station_id":"ce4bhnh2rcd13ifvqgug","pricing_plan_id":"cebpf4jnsgd1na2vs0mg"},{"bike_id":"2ee4d910-0ee1-4bc5-86c8-c77afad12b4f","system_id":"levelo_inurba_marseille","lat":43.321021,"lon":5.368007,"is_reserved":false,"is_disabled":false,"rental_uris":{"android":"levelo://app?vid=2ee4d910-0ee1-4bc5-86c8-c77afad12b4f","ios":"levelo://app?vid=2ee4d910-0ee1-4bc5-86c8-c77afad12b4f"},"vehicle_type_id":"4","last_reported":1747116949,"current_range_meters":8400,"station_id":"ce4bhrh2rcd13ifvqhug","pricing_plan_id":"cebpf4jnsgd1na2vs0mg"},{"bike_id":"bb34b67e-c841-4c7a-b6c4-2655e42a61b7","system_id":"levelo_inurba_marseille","lat":43.30468,"lon":5.37896,"is_reserved":false,"is_disabled":false,"rental_uris":{"android":"levelo://app?vid=bb34b67e-c841-4c7a-b6c4-2655e42a61b7","ios":"levelo://app?vid=bb34b67e-c841-4c7a-b6c4-2655e42a61b7"},"vehicle_type_id":"4","last_reported":1747116949,"current_range_meters":8800,"station_id":"ce4bgup2rcd13ifvqcn0","pricing_plan_id":"cebpf4jnsgd1na2vs0mg"},{"bike_id":"cbc7eed1-f7c6-43f2-b64f-3b59b18e7401","system_id":"levelo_inurba_marseille","lat":43.22484,"lon":5.3479,"is_reserved":false,"is_disabled":true,"rental_uris":{"android":"levelo://app?vid=cbc7eed1-f7c6-43f2-b64f-3b59b18e7401","ios":"levelo://app?vid=cbc7eed1-f7c6-43f2-b64f-3b59b18e7401"},"vehicle_type_id":"4","last_reported":1747116949,"current_range_meters":8800,"station_id":"st_cvj5dfep6f1abm77gieg","pricing_plan_id":"cebpf4jnsgd1na2vs0mg"},{"bike_id":"4d42a573-7ea3-48b5-a447-4fda0af734fb","system_id":"levelo_inurba_marseille","lat":43.2594,"lon":5.40903,"is_reserved":false,"is_disabled":false,"rental_uris":{"android":"levelo://app?vid=4d42a573-7ea3-48b5-a447-4fda0af734fb","ios":"levelo://app?vid=4d42a573-7ea3-48b5-a447-4fda0af734fb"},"vehicle_type_id":"4","last_reported":1747116949,"current_range_meters":9200,"station_id":"ce4bhm92rcd13ifvqglg","pricing_plan_id":"cebpf4jnsgd1na2vs0mg"},{"bike_id":"6b0a2887-7565-43a6-949c-d6ae4fe9866e","system_id":"levelo_inurba_marseille","lat":43.27495,"lon":5.42451,"is_reserved":false,"is_disabled":false,"rental_uris":{"android":"levelo://app?vid=6b0a2887-7565-43a6-949c-d6ae4fe9866e","ios":"levelo://app?vid=6b0a2887-7565-43a6-949c-d6ae4fe9866e"},"vehicle_type_id":"4","last_reported":1747116949,"current_range_meters":9200,"station_id":"","pricing_plan_id":"cebpf4jnsgd1na2vs0mg"},{"bike_id":"668968ba-bbcc-4412-8158-7ab373b2f402","system_id":"levelo_inurba_marseille","lat":43.284847,"lon":5.384152,"is_reserved":false,"is_disabled":false,"rental_uris":{"android":"levelo://app?vid=668968ba-bbcc-4412-8158-7ab373b2f402","ios":"levelo://app?vid=668968ba-bbcc-4412-8158-7ab373b2f402"},"vehicle_type_id":"4","last_reported":1747116949,"current_range_meters":9200,"station_id":"ce4bh512rcd13ifvqe3g","pricing_plan_id":"cebpf4jnsgd1na2vs0mg"},{"bike_id":"1f43240f-8fe5-4289-a4f8-5b6bc46864b5","system_id":"levelo_inurba_marseille","lat":43.27691,"lon":5.38887,"is_reserved":false,"is_disabled":true,"rental_uris":{"android":"levelo://app?vid=1f43240f-8fe5-4289-a4f8-5b6bc46864b5","ios":"levelo://app?vid=1f43240f-8fe5-4289-a4f8-5b6bc46864b5"},"vehicle_type_id":"4","last_reported":1747116949,"current_range_meters":9200,"station_id":"ce4bhi12rcd13ifvqfo0","pricing_plan_id":"cebpf4jnsgd1na2vs0mg"},{"bike_id":"1391eea0-6035-42b6-878e-780fe3b6610f","system_id":"levelo_inurba_marseille","lat":43.30529,"lon":5.36713,"is_reserved":false,"is_disabled":false,"rental_uris":{"android":"levelo://app?vid=1391eea0-6035-42b6-878e-780fe3b6610f","ios":"levelo://app?vid=1391eea0-6035-42b6-878e-780fe3b6610f"},"vehicle_type_id":"4","last_reported":1747116949,"current_range_meters":9200,"station_id":"ce4bgrp2rcd13ifvqc9g","pricing_plan_id":"cebpf4jnsgd1na2vs0mg"},{"bike_id":"b6b483a5-031f-4066-8a26-95e501962eb5","system_id":"levelo_inurba_marseille","lat":43.27909,"lon":5.38007,"is_reserved":false,"is_disabled":false,"rental_uris":{"android":"levelo://app?vid=b6b483a5-031f-4066-8a26-95e501962eb5","ios":"levelo://app?vid=b6b483a5-031f-4066-8a26-95e501962eb5"},"vehicle_type_id":"4","last_reported":1747116949,"current_range_meters":9200,"station_id":"ce4bhf92rcd13ifvqf50","pricing_plan_id":"cebpf4jnsgd1na2vs0mg"},{"bike_id":"faedb3b9-6d87-4542-872a-d17349ac4ed6","system_id":"levelo_inurba_marseille","lat":43.28154,"lon":5.42646,"is_reserved":false,"is_disabled":false,"rental_uris":{"android":"levelo://app?vid=faedb3b9-6d87-4542-872a-d17349ac4ed6","ios":"levelo://app?vid=faedb3b9-6d87-4542-872a-d17349ac4ed6"},"vehicle_type_id":"4","last_reported":1747116949,"current_range_meters":9600,"station_id":"ce4bhnh2rcd13ifvqgug","pricing_plan_id":"cebpf4jnsgd1na2vs0mg"},{"bike_id":"480977bd-d894-40ad-9026-4ea290dc9528","system_id":"levelo_inurba_marseille","lat":43.241748,"lon":5.363988,"is_reserved":false,"is_disabled":false,"rental_uris":{"android":"levelo://app?vid=480977bd-d894-40ad-9026-4ea290dc9528","ios":"levelo://app?vid=480977bd-d894-40ad-9026-4ea290dc9528"},"vehicle_type_id":"4","last_reported":1747116949,"current_range_meters":10000,"station_id":"cpo36qri1sfpv3e86is0","pricing_plan_id":"cebpf4jnsgd1na2vs0mg"},{"bike_id":"0633aaed-12e9-4c7a-9a88-ccd8a599115a","system_id":"levelo_inurba_marseille","lat":43.25003,"lon":5.389239,"is_reserved":false,"is_disabled":true,"rental_uris":{"android":"levelo://app?vid=0633aaed-12e9-4c7a-9a88-ccd8a599115a","ios":"levelo://app?vid=0633aaed-12e9-4c7a-9a88-ccd8a599115a"},"vehicle_type_id":"4","last_reported":1747116949,"current_range_meters":10000,"station_id":"ce4bhgp2rcd13ifvqfd0","pricing_plan_id":"cebpf4jnsgd1na2vs0mg"},{"bike_id":"514b5930-0fdf-4acd-bbcd-af58d719758f","system_id":"levelo_inurba_marseille","lat":43.34132,"lon":5.4091,"is_reserved":false,"is_disabled":true,"rental_uris":{"android":"levelo://app?vid=514b5930-0fdf-4acd-bbcd-af58d719758f","ios":"levelo://app?vid=514b5930-0fdf-4acd-bbcd-af58d719758f"},"vehicle_type_id":"4","last_reported":1747116949,"current_range_meters":10000,"station_id":"ce4bhqh2rcd13ifvqhlg","pricing_plan_id":"cebpf4jnsgd1na2vs0mg"},{"bike_id":"7b8a8c7f-00d1-4b13-ade5-db41e679ee8e","system_id":"levelo_inurba_marseille","lat":43.29529,"lon":5.37499,"is_reserved":false,"is_disabled":false,"rental_uris":{"android":"levelo://app?vid=7b8a8c7f-00d1-4b13-ade5-db41e679ee8e","ios":"levelo://app?vid=7b8a8c7f-00d1-4b13-ade5-db41e679ee8e"},"vehicle_type_id":"4","last_reported":1747116949,"current_range_meters":9600,"station_id":"ce4bgkp2rcd13ifvqbmg","pricing_plan_id":"cebpf4jnsgd1na2vs0mg"},{"bike_id":"ac3030fa-1740-4828-ad83-daded8929ecc","system_id":"levelo_inurba_marseille","lat":43.255169,"lon":5.400901,"is_reserved":false,"is_disabled":false,"rental_uris":{"android":"levelo://app?vid=ac3030fa-1740-4828-ad83-daded8929ecc","ios":"levelo://app?vid=ac3030fa-1740-4828-ad83-daded8929ecc"},"vehicle_type_id":"4","last_reported":1747116949,"current_range_meters":10800,"station_id":"","pricing_plan_id":"cebpf4jnsgd1na2vs0mg"},{"bike_id":"37947ea2-4144-498b-9773-6d6e7497365c","system_id":"levelo_inurba_marseille","lat":43.31478,"lon":5.373179,"is_reserved":false,"is_disabled":false,"rental_uris":{"android":"levelo://app?vid=37947ea2-4144-498b-9773-6d6e7497365c","ios":"levelo://app?vid=37947ea2-4144-498b-9773-6d6e7497365c"},"vehicle_type_id":"4","last_reported":1747116949,"current_range_meters":10800,"station_id":"ce4bgt12rcd13ifvqcd0","pricing_plan_id":"cebpf4jnsgd1na2vs0mg"},{"bike_id":"0e89a721-196d-4572-b905-e39e1dafff7a","system_id":"levelo_inurba_marseille","lat":43.320997,"lon":5.367809,"is_reserved":false,"is_disabled":false,"rental_uris":{"android":"levelo://app?vid=0e89a721-196d-4572-b905-e39e1dafff7a","ios":"levelo://app?vid=0e89a721-196d-4572-b905-e39e1dafff7a"},"vehicle_type_id":"4","last_reported":1747116949,"current_range_meters":10800,"station_id":"ce4bhrh2rcd13ifvqhug","pricing_plan_id":"cebpf4jnsgd1na2vs0mg"},{"bike_id":"c45660a4-2a75-4fe5-babc-ce5f32b31b47","system_id":"levelo_inurba_marseille","lat":43.3093,"lon":5.40142,"is_reserved":false,"is_disabled":false,"rental_uris":{"android":"levelo://app?vid=c45660a4-2a75-4fe5-babc-ce5f32b31b47","ios":"levelo://app?vid=c45660a4-2a75-4fe5-babc-ce5f32b31b47"},"vehicle_type_id":"4","last_reported":1747116949,"current_range_meters":10800,"station_id":"ce4bgvp2rcd13ifvqct0","pricing_plan_id":"cebpf4jnsgd1na2vs0mg"},{"bike_id":"5de1e8df-cec1-47cf-b554-41f6e726d337","system_id":"levelo_inurba_marseille","lat":43.274121,"lon":5.406151,"is_reserved":false,"is_disabled":false,"rental_uris":{"android":"levelo://app?vid=5de1e8df-cec1-47cf-b554-41f6e726d337","ios":"levelo://app?vid=5de1e8df-cec1-47cf-b554-41f6e726d337"},"vehicle_type_id":"4","last_reported":1747116949,"current_range_meters":10800,"station_id":"","pricing_plan_id":"cebpf4jnsgd1na2vs0mg"},{"bike_id":"d3734810-5316-4bf8-8ff1-5399b080897d","system_id":"levelo_inurba_marseille","lat":43.314888,"lon":5.37301,"is_reserved":false,"is_disabled":false,"rental_uris":{"android":"levelo://app?vid=d3734810-5316-4bf8-8ff1-5399b080897d","ios":"levelo://app?vid=d3734810-5316-4bf8-8ff1-5399b080897d"},"vehicle_type_id":"4","last_reported":1747116949,"current_range_meters":10800,"station_id":"ce4bgt12rcd13ifvqcd0","pricing_plan_id":"cebpf4jnsgd1na2vs0mg"},{"bike_id":"f2ac9d6e-d254-40a9-8f89-2be67522687f","system_id":"levelo_inurba_marseille","lat":43.29566,"lon":5.37525,"is_reserved":false,"is_disabled":false,"rental_uris":{"android":"levelo://app?vid=f2ac9d6e-d254-40a9-8f89-2be67522687f","ios":"levelo://app?vid=f2ac9d6e-d254-40a9-8f89-2be67522687f"},"vehicle_type_id":"4","last_reported":1747116949,"current_range_meters":11200,"station_id":"ce4bgh92rcd13ifvqb50","pricing_plan_id":"cebpf4jnsgd1na2vs0mg"},{"bike_id":"10f61616-993a-4d1b-b7f7-cb0db1afa526","system_id":"levelo_inurba_marseille","lat":43.24081,"lon":5.37755,"is_reserved":false,"is_disabled":false,"rental_uris":{"android":"levelo://app?vid=10f61616-993a-4d1b-b7f7-cb0db1afa526","ios":"levelo://app?vid=10f61616-993a-4d1b-b7f7-cb0db1afa526"},"vehicle_type_id":"4","last_reported":1747116949,"current_range_meters":11600,"station_id":"ce4bhnp2rcd13ifvqgvg","pricing_plan_id":"cebpf4jnsgd1na2vs0mg"},{"bike_id":"1ad5c8f8-8a6b-40d4-8c4e-9f363d9ed9b4","system_id":"levelo_inurba_marseille","lat":43.30581,"lon":5.393576,"is_reserved":false,"is_disabled":false,"rental_uris":{"android":"levelo://app?vid=1ad5c8f8-8a6b-40d4-8c4e-9f363d9ed9b4","ios":"levelo://app?vid=1ad5c8f8-8a6b-40d4-8c4e-9f363d9ed9b4"},"vehicle_type_id":"4","last_reported":1747116949,"current_range_meters":12000,"station_id":"","pricing_plan_id":"cebpf4jnsgd1na2vs0mg"},{"bike_id":"1acfd386-7d38-4928-ad74-5021194967c2","system_id":"levelo_inurba_marseille","lat":43.30428,"lon":5.38886,"is_reserved":false,"is_disabled":true,"rental_uris":{"android":"levelo://app?vid=1acfd386-7d38-4928-ad74-5021194967c2","ios":"levelo://app?vid=1acfd386-7d38-4928-ad74-5021194967c2"},"vehicle_type_id":"4","last_reported":1747116949,"current_range_meters":12000,"station_id":"ce4bgk12rcd13ifvqbi0","pricing_plan_id":"cebpf4jnsgd1na2vs0mg"},{"bike_id":"dabcefea-35be-4a21-9aa4-961dedfe1e4a","system_id":"levelo_inurba_marseille","lat":43.24802,"lon":5.37452,"is_reserved":false,"is_disabled":false,"rental_uris":{"android":"levelo://app?vid=dabcefea-35be-4a21-9aa4-961dedfe1e4a","ios":"levelo://app?vid=dabcefea-35be-4a21-9aa4-961dedfe1e4a"},"vehicle_type_id":"4","last_reported":1747116949,"current_range_meters":12000,"station_id":"ce4bhgh2rcd13ifvqfb0","pricing_plan_id":"cebpf4jnsgd1na2vs0mg"},{"bike_id":"5766006e-a55b-407e-a037-f411eb9b18e8","system_id":"levelo_inurba_marseille","lat":43.273304,"lon":5.390801,"is_reserved":false,"is_disabled":false,"rental_uris":{"android":"levelo://app?vid=5766006e-a55b-407e-a037-f411eb9b18e8","ios":"levelo://app?vid=5766006e-a55b-407e-a037-f411eb9b18e8"},"vehicle_type_id":"4","last_reported":1747116949,"current_range_meters":12000,"station_id":"ce4bhgp2rcd13ifvqfe0","pricing_plan_id":"cebpf4jnsgd1na2vs0mg"},{"bike_id":"ed82de67-f99c-423e-a19e-5a8396700ec6","system_id":"levelo_inurba_marseille","lat":43.30672,"lon":5.40076,"is_reserved":false,"is_disabled":false,"rental_uris":{"android":"levelo://app?vid=ed82de67-f99c-423e-a19e-5a8396700ec6","ios":"levelo://app?vid=ed82de67-f99c-423e-a19e-5a8396700ec6"},"vehicle_type_id":"4","last_reported":1747116949,"current_range_meters":12800,"station_id":"ce4bh112rcd13ifvqda0","pricing_plan_id":"cebpf4jnsgd1na2vs0mg"},{"bike_id":"e6ad97f1-b73e-46fd-a80f-360ecb6587de","system_id":"levelo_inurba_marseille","lat":43.280004,"lon":5.400094,"is_reserved":false,"is_disabled":false,"rental_uris":{"android":"levelo://app?vid=e6ad97f1-b73e-46fd-a80f-360ecb6587de","ios":"levelo://app?vid=e6ad97f1-b73e-46fd-a80f-360ecb6587de"},"vehicle_type_id":"4","last_reported":1747116949,"current_range_meters":12800,"station_id":"ce4bho92rcd13ifvqh4g","pricing_plan_id":"cebpf4jnsgd1na2vs0mg"},{"bike_id":"445cdd30-5124-4966-8c84-9b05079a96b6","system_id":"levelo_inurba_marseille","lat":43.28712,"lon":5.37918,"is_reserved":false,"is_disabled":false,"rental_uris":{"android":"levelo://app?vid=445cdd30-5124-4966-8c84-9b05079a96b6","ios":"levelo://app?vid=445cdd30-5124-4966-8c84-9b05079a96b6"},"vehicle_type_id":"4","last_reported":1747116949,"current_range_meters":13600,"station_id":"ce4bh9p2rcd13ifvqec0","pricing_plan_id":"cebpf4jnsgd1na2vs0mg"},{"bike_id":"f702f1f1-baff-4710-b092-d4b131f8acb6","system_id":"levelo_inurba_marseille","lat":43.30392,"lon":5.42475,"is_reserved":false,"is_disabled":false,"rental_uris":{"android":"levelo://app?vid=f702f1f1-baff-4710-b092-d4b131f8acb6","ios":"levelo://app?vid=f702f1f1-baff-4710-b092-d4b131f8acb6"},"vehicle_type_id":"4","last_reported":1747116949,"current_range_meters":13600,"station_id":"ce4bhoh2rcd13ifvqh6g","pricing_plan_id":"cebpf4jnsgd1na2vs0mg"},{"bike_id":"2fdc8039-2a91-416c-8148-d1e7c0df93ae","system_id":"levelo_inurba_marseille","lat":43.22926,"lon":5.35382,"is_reserved":false,"is_disabled":true,"rental_uris":{"android":"levelo://app?vid=2fdc8039-2a91-416c-8148-d1e7c0df93ae","ios":"levelo://app?vid=2fdc8039-2a91-416c-8148-d1e7c0df93ae"},"vehicle_type_id":"4","last_reported":1747116949,"current_range_meters":13600,"station_id":"cpo3532slgdg3j2ikp40","pricing_plan_id":"cebpf4jnsgd1na2vs0mg"},{"bike_id":"63f56810-7750-4fa3-adb4-4bc710b68290","system_id":"levelo_inurba_marseille","lat":43.28347,"lon":5.38093,"is_reserved":false,"is_disabled":false,"rental_uris":{"android":"levelo://app?vid=63f56810-7750-4fa3-adb4-4bc710b68290","ios":"levelo://app?vid=63f56810-7750-4fa3-adb4-4bc710b68290"},"vehicle_type_id":"4","last_reported":1747116949,"current_range_meters":13600,"station_id":"ce4bh412rcd13ifvqdr0","pricing_plan_id":"cebpf4jnsgd1na2vs0mg"},{"bike_id":"616125ea-6ee3-4c86-8803-1da187aa646d","system_id":"levelo_inurba_marseille","lat":43.27493,"lon":5.42431,"is_reserved":false,"is_disabled":false,"rental_uris":{"android":"levelo://app?vid=616125ea-6ee3-4c86-8803-1da187aa646d","ios":"levelo://app?vid=616125ea-6ee3-4c86-8803-1da187aa646d"},"vehicle_type_id":"4","last_reported":1747116949,"current_range_meters":14000,"station_id":"ce4bhn92rcd13ifvqgrg","pricing_plan_id":"cebpf4jnsgd1na2vs0mg"},{"bike_id":"556e7d69-5d47-4a34-9e72-f2f8167566e6","system_id":"levelo_inurba_marseille","lat":43.301253,"lon":5.387893,"is_reserved":false,"is_disabled":false,"rental_uris":{"android":"levelo://app?vid=556e7d69-5d47-4a34-9e72-f2f8167566e6","ios":"levelo://app?vid=556e7d69-5d47-4a34-9e72-f2f8167566e6"},"vehicle_type_id":"4","last_reported":1747116949,"current_range_meters":14000,"station_id":"ce4bghh2rcd13ifvqb60","pricing_plan_id":"cebpf4jnsgd1na2vs0mg"},{"bike_id":"5b19c83f-be33-4587-8537-e1e25cfa7db6","system_id":"levelo_inurba_marseille","lat":43.23968,"lon":5.36632,"is_reserved":false,"is_disabled":false,"rental_uris":{"android":"levelo://app?vid=5b19c83f-be33-4587-8537-e1e25cfa7db6","ios":"levelo://app?vid=5b19c83f-be33-4587-8537-e1e25cfa7db6"},"vehicle_type_id":"4","last_reported":1747116949,"current_range_meters":14400,"station_id":"ce4bhi12rcd13ifvqfp0","pricing_plan_id":"cebpf4jnsgd1na2vs0mg"},{"bike_id":"42557dae-bbe0-42c6-8015-b1021735213b","system_id":"levelo_inurba_marseille","lat":43.284534,"lon":5.358955,"is_reserved":false,"is_disabled":true,"rental_uris":{"android":"levelo://app?vid=42557dae-bbe0-42c6-8015-b1021735213b","ios":"levelo://app?vid=42557dae-bbe0-42c6-8015-b1021735213b"},"vehicle_type_id":"4","last_reported":1747116949,"current_range_meters":14400,"station_id":"ce4bhah2rcd13ifvqei0","pricing_plan_id":"cebpf4jnsgd1na2vs0mg"},{"bike_id":"a8d98450-92cc-44d0-b272-436af46aa0f9","system_id":"levelo_inurba_marseille","lat":43.29408,"lon":5.38609,"is_reserved":false,"is_disabled":false,"rental_uris":{"android":"levelo://app?vid=a8d98450-92cc-44d0-b272-436af46aa0f9","ios":"levelo://app?vid=a8d98450-92cc-44d0-b272-436af46aa0f9"},"vehicle_type_id":"4","last_reported":1747116949,"current_range_meters":14400,"station_id":"ce4bh2h2rcd13ifvqdh0","pricing_plan_id":"cebpf4jnsgd1na2vs0mg"},{"bike_id":"bd0ab1ac-42cd-4049-b159-2a0d654abdc8","system_id":"levelo_inurba_marseille","lat":43.298084,"lon":5.381084,"is_reserved":false,"is_disabled":false,"rental_uris":{"android":"levelo://app?vid=bd0ab1ac-42cd-4049-b159-2a0d654abdc8","ios":"levelo://app?vid=bd0ab1ac-42cd-4049-b159-2a0d654abdc8"},"vehicle_type_id":"4","last_reported":1747116949,"current_range_meters":14800,"station_id":"ce4bgip2rcd13ifvqbb0","pricing_plan_id":"cebpf4jnsgd1na2vs0mg"},{"bike_id":"90d5290f-0b26-4779-854b-76e9ada96b08","system_id":"levelo_inurba_marseille","lat":43.29969,"lon":5.37173,"is_reserved":false,"is_disabled":false,"rental_uris":{"android":"levelo://app?vid=90d5290f-0b26-4779-854b-76e9ada96b08","ios":"levelo://app?vid=90d5290f-0b26-4779-854b-76e9ada96b08"},"vehicle_type_id":"4","last_reported":1747116949,"current_range_meters":14400,"station_id":"ce4bgr92rcd13ifvqc7g","pricing_plan_id":"cebpf4jnsgd1na2vs0mg"},{"bike_id":"354f0639-e2ee-49bc-b649-f0d89cf9efb0","system_id":"levelo_inurba_marseille","lat":43.32467,"lon":5.36567,"is_reserved":false,"is_disabled":false,"rental_uris":{"android":"levelo://app?vid=354f0639-e2ee-49bc-b649-f0d89cf9efb0","ios":"levelo://app?vid=354f0639-e2ee-49bc-b649-f0d89cf9efb0"},"vehicle_type_id":"4","last_reported":1747116949,"current_range_meters":14400,"station_id":"ce4bhs12rcd13ifvqhvg","pricing_plan_id":"cebpf4jnsgd1na2vs0mg"},{"bike_id":"578516c8-cd17-490c-9791-20dd55e97a24","system_id":"levelo_inurba_marseille","lat":43.30919,"lon":5.36847,"is_reserved":false,"is_disabled":false,"rental_uris":{"android":"levelo://app?vid=578516c8-cd17-490c-9791-20dd55e97a24","ios":"levelo://app?vid=578516c8-cd17-490c-9791-20dd55e97a24"},"vehicle_type_id":"4","last_reported":1747116949,"current_range_meters":14800,"station_id":"ce4bgn92rcd13ifvqbvg","pricing_plan_id":"cebpf4jnsgd1na2vs0mg"},{"bike_id":"152a8b5e-e8fc-4c70-a7fd-9add15ef06b9","system_id":"levelo_inurba_marseille","lat":43.30174,"lon":5.366563,"is_reserved":false,"is_disabled":false,"rental_uris":{"android":"levelo://app?vid=152a8b5e-e8fc-4c70-a7fd-9add15ef06b9","ios":"levelo://app?vid=152a8b5e-e8fc-4c70-a7fd-9add15ef06b9"},"vehicle_type_id":"4","last_reported":1747116949,"current_range_meters":14800,"station_id":"ce4bgrh2rcd13ifvqc8g","pricing_plan_id":"cebpf4jnsgd1na2vs0mg"},{"bike_id":"ef0f891e-d6e3-4198-aa9f-2547ee9950fb","system_id":"levelo_inurba_marseille","lat":43.281565,"lon":5.426444,"is_reserved":false,"is_disabled":false,"rental_uris":{"android":"levelo://app?vid=ef0f891e-d6e3-4198-aa9f-2547ee9950fb","ios":"levelo://app?vid=ef0f891e-d6e3-4198-aa9f-2547ee9950fb"},"vehicle_type_id":"4","last_reported":1747116949,"current_range_meters":14800,"station_id":"ce4bhnh2rcd13ifvqgug","pricing_plan_id":"cebpf4jnsgd1na2vs0mg"},{"bike_id":"56804647-9200-40e3-b22d-163739b0e936","system_id":"levelo_inurba_marseille","lat":43.30644,"lon":5.400784,"is_reserved":false,"is_disabled":false,"rental_uris":{"android":"levelo://app?vid=56804647-9200-40e3-b22d-163739b0e936","ios":"levelo://app?vid=56804647-9200-40e3-b22d-163739b0e936"},"vehicle_type_id":"4","last_reported":1747116949,"current_range_meters":15200,"station_id":"ce4bh112rcd13ifvqda0","pricing_plan_id":"cebpf4jnsgd1na2vs0mg"},{"bike_id":"817270a4-9a01-4414-b690-0ea4101d3373","system_id":"levelo_inurba_marseille","lat":43.30373,"lon":5.42489,"is_reserved":false,"is_disabled":false,"rental_uris":{"android":"levelo://app?vid=817270a4-9a01-4414-b690-0ea4101d3373","ios":"levelo://app?vid=817270a4-9a01-4414-b690-0ea4101d3373"},"vehicle_type_id":"4","last_reported":1747116949,"current_range_meters":15200,"station_id":"ce4bhoh2rcd13ifvqh6g","pricing_plan_id":"cebpf4jnsgd1na2vs0mg"},{"bike_id":"386d5dbf-2a14-4801-8ee7-a8f50e4a87d8","system_id":"levelo_inurba_marseille","lat":43.21749,"lon":5.346,"is_reserved":false,"is_disabled":true,"rental_uris":{"android":"levelo://app?vid=386d5dbf-2a14-4801-8ee7-a8f50e4a87d8","ios":"levelo://app?vid=386d5dbf-2a14-4801-8ee7-a8f50e4a87d8"},"vehicle_type_id":"4","last_reported":1747116949,"current_range_meters":15200,"station_id":"st_cvj6r9ubvosntc0bgbag","pricing_plan_id":"cebpf4jnsgd1na2vs0mg"},{"bike_id":"da18d5b1-a1e0-4788-b49e-8a8e3d5203f9","system_id":"levelo_inurba_marseille","lat":43.24084,"lon":5.37748,"is_reserved":false,"is_disabled":false,"rental_uris":{"android":"levelo://app?vid=da18d5b1-a1e0-4788-b49e-8a8e3d5203f9","ios":"levelo://app?vid=da18d5b1-a1e0-4788-b49e-8a8e3d5203f9"},"vehicle_type_id":"4","last_reported":1747116949,"current_range_meters":15200,"station_id":"ce4bhnp2rcd13ifvqgvg","pricing_plan_id":"cebpf4jnsgd1na2vs0mg"},{"bike_id":"8916068a-3377-4312-9540-9a6e352a2225","system_id":"levelo_inurba_marseille","lat":43.29028,"lon":5.38639,"is_reserved":false,"is_disabled":false,"rental_uris":{"android":"levelo://app?vid=8916068a-3377-4312-9540-9a6e352a2225","ios":"levelo://app?vid=8916068a-3377-4312-9540-9a6e352a2225"},"vehicle_type_id":"4","last_reported":1747116949,"current_range_meters":16000,"station_id":"ce4bh4p2rcd13ifvqe0g","pricing_plan_id":"cebpf4jnsgd1na2vs0mg"},{"bike_id":"0e123c4d-e8d0-4826-91b5-bc1bd261f062","system_id":"levelo_inurba_marseille","lat":43.292471,"lon":5.401371,"is_reserved":false,"is_disabled":true,"rental_uris":{"android":"levelo://app?vid=0e123c4d-e8d0-4826-91b5-bc1bd261f062","ios":"levelo://app?vid=0e123c4d-e8d0-4826-91b5-bc1bd261f062"},"vehicle_type_id":"4","last_reported":1747116949,"current_range_meters":16000,"station_id":"ce4bh312rcd13ifvqdk0","pricing_plan_id":"cebpf4jnsgd1na2vs0mg"},{"bike_id":"520f07fc-e2a5-442e-bcdc-caa8376efe3e","system_id":"levelo_inurba_marseille","lat":43.31683,"lon":5.40492,"is_reserved":false,"is_disabled":false,"rental_uris":{"android":"levelo://app?vid=520f07fc-e2a5-442e-bcdc-caa8376efe3e","ios":"levelo://app?vid=520f07fc-e2a5-442e-bcdc-caa8376efe3e"},"vehicle_type_id":"4","last_reported":1747116949,"current_range_meters":16000,"station_id":"ce4bh012rcd13ifvqd00","pricing_plan_id":"cebpf4jnsgd1na2vs0mg"},{"bike_id":"8136a806-37ea-4bbf-8997-2ad9f811c3c7","system_id":"levelo_inurba_marseille","lat":43.28427,"lon":5.34997,"is_reserved":false,"is_disabled":false,"rental_uris":{"android":"levelo://app?vid=8136a806-37ea-4bbf-8997-2ad9f811c3c7","ios":"levelo://app?vid=8136a806-37ea-4bbf-8997-2ad9f811c3c7"},"vehicle_type_id":"4","last_reported":1747116949,"current_range_meters":16400,"station_id":"ce4bhbh2rcd13ifvqepg","pricing_plan_id":"cebpf4jnsgd1na2vs0mg"},{"bike_id":"dc26092d-a8ef-40cf-9e51-bfa53602e30d","system_id":"levelo_inurba_marseille","lat":43.33775,"lon":5.37441,"is_reserved":false,"is_disabled":false,"rental_uris":{"android":"levelo://app?vid=dc26092d-a8ef-40cf-9e51-bfa53602e30d","ios":"levelo://app?vid=dc26092d-a8ef-40cf-9e51-bfa53602e30d"},"vehicle_type_id":"4","last_reported":1747116949,"current_range_meters":16400,"station_id":"","pricing_plan_id":"cebpf4jnsgd1na2vs0mg"},{"bike_id":"905c7fa1-36c8-400b-8567-bc91dc4641ec","system_id":"levelo_inurba_marseille","lat":43.27378,"lon":5.36253,"is_reserved":false,"is_disabled":true,"rental_uris":{"android":"levelo://app?vid=905c7fa1-36c8-400b-8567-bc91dc4641ec","ios":"levelo://app?vid=905c7fa1-36c8-400b-8567-bc91dc4641ec"},"vehicle_type_id":"4","last_reported":1747116949,"current_range_meters":16400,"station_id":"ce4bhbh2rcd13ifvqeo0","pricing_plan_id":"cebpf4jnsgd1na2vs0mg"},{"bike_id":"2064d8ad-c121-472c-a67d-5dfda4a122da","system_id":"levelo_inurba_marseille","lat":43.29582,"lon":5.375078,"is_reserved":false,"is_disabled":true,"rental_uris":{"android":"levelo://app?vid=2064d8ad-c121-472c-a67d-5dfda4a122da","ios":"levelo://app?vid=2064d8ad-c121-472c-a67d-5dfda4a122da"},"vehicle_type_id":"4","last_reported":1747116949,"current_range_meters":16400,"station_id":"ce4bgh92rcd13ifvqb50","pricing_plan_id":"cebpf4jnsgd1na2vs0mg"},{"bike_id":"d82df4cb-3d75-4606-a7b4-8ec8e4c10529","system_id":"levelo_inurba_marseille","lat":43.30461,"lon":5.379,"is_reserved":false,"is_disabled":false,"rental_uris":{"android":"levelo://app?vid=d82df4cb-3d75-4606-a7b4-8ec8e4c10529","ios":"levelo://app?vid=d82df4cb-3d75-4606-a7b4-8ec8e4c10529"},"vehicle_type_id":"4","last_reported":1747116949,"current_range_meters":16400,"station_id":"ce4bgup2rcd13ifvqcn0","pricing_plan_id":"cebpf4jnsgd1na2vs0mg"},{"bike_id":"3015caa5-c6e8-446b-ada8-4c9f9c36d485","system_id":"levelo_inurba_marseille","lat":43.23963,"lon":5.36628,"is_reserved":false,"is_disabled":false,"rental_uris":{"android":"levelo://app?vid=3015caa5-c6e8-446b-ada8-4c9f9c36d485","ios":"levelo://app?vid=3015caa5-c6e8-446b-ada8-4c9f9c36d485"},"vehicle_type_id":"4","last_reported":1747116949,"current_range_meters":16400,"station_id":"ce4bhi12rcd13ifvqfp0","pricing_plan_id":"cebpf4jnsgd1na2vs0mg"},{"bike_id":"722f656e-1514-4511-9cdf-63ce7fb401ae","system_id":"levelo_inurba_marseille","lat":43.29276,"lon":5.401383,"is_reserved":false,"is_disabled":false,"rental_uris":{"android":"levelo://app?vid=722f656e-1514-4511-9cdf-63ce7fb401ae","ios":"levelo://app?vid=722f656e-1514-4511-9cdf-63ce7fb401ae"},"vehicle_type_id":"4","last_reported":1747116949,"current_range_meters":16800,"station_id":"ce4bh312rcd13ifvqdk0","pricing_plan_id":"cebpf4jnsgd1na2vs0mg"},{"bike_id":"9d352004-7b2c-43e3-9328-20e4f737c9c4","system_id":"levelo_inurba_marseille","lat":43.262294,"lon":5.404539,"is_reserved":false,"is_disabled":false,"rental_uris":{"android":"levelo://app?vid=9d352004-7b2c-43e3-9328-20e4f737c9c4","ios":"levelo://app?vid=9d352004-7b2c-43e3-9328-20e4f737c9c4"},"vehicle_type_id":"4","last_reported":1747116949,"current_range_meters":16800,"station_id":"","pricing_plan_id":"cebpf4jnsgd1na2vs0mg"},{"bike_id":"f7f83790-a6d5-4eed-8f7c-6288505a6c7e","system_id":"levelo_inurba_marseille","lat":43.30455,"lon":5.37913,"is_reserved":false,"is_disabled":false,"rental_uris":{"android":"levelo://app?vid=f7f83790-a6d5-4eed-8f7c-6288505a6c7e","ios":"levelo://app?vid=f7f83790-a6d5-4eed-8f7c-6288505a6c7e"},"vehicle_type_id":"4","last_reported":1747116949,"current_range_meters":16800,"station_id":"ce4bgup2rcd13ifvqcn0","pricing_plan_id":"cebpf4jnsgd1na2vs0mg"},{"bike_id":"ac4cbd7e-8d1f-401c-aeee-73a661b93db0","system_id":"levelo_inurba_marseille","lat":43.28939,"lon":5.39623,"is_reserved":false,"is_disabled":false,"rental_uris":{"android":"levelo://app?vid=ac4cbd7e-8d1f-401c-aeee-73a661b93db0","ios":"levelo://app?vid=ac4cbd7e-8d1f-401c-aeee-73a661b93db0"},"vehicle_type_id":"4","last_reported":1747116949,"current_range_meters":16800,"station_id":"ce4bh3h2rcd13ifvqdn0","pricing_plan_id":"cebpf4jnsgd1na2vs0mg"},{"bike_id":"c4bb8286-e622-47d7-b687-d3a451fbee9b","system_id":"levelo_inurba_marseille","lat":43.33731,"lon":5.39187,"is_reserved":false,"is_disabled":false,"rental_uris":{"android":"levelo://app?vid=c4bb8286-e622-47d7-b687-d3a451fbee9b","ios":"levelo://app?vid=c4bb8286-e622-47d7-b687-d3a451fbee9b"},"vehicle_type_id":"4","last_reported":1747116949,"current_range_meters":17200,"station_id":"ce4bhr92rcd13ifvqhsg","pricing_plan_id":"cebpf4jnsgd1na2vs0mg"},{"bike_id":"c898206a-f917-4a97-a896-23d0ca1417ca","system_id":"levelo_inurba_marseille","lat":43.31718,"lon":5.43698,"is_reserved":false,"is_disabled":false,"rental_uris":{"android":"levelo://app?vid=c898206a-f917-4a97-a896-23d0ca1417ca","ios":"levelo://app?vid=c898206a-f917-4a97-a896-23d0ca1417ca"},"vehicle_type_id":"4","last_reported":1747116949,"current_range_meters":17600,"station_id":"ce4bhp92rcd13ifvqhcg","pricing_plan_id":"cebpf4jnsgd1na2vs0mg"},{"bike_id":"39a6bd1f-7072-469f-8856-342cea40130d","system_id":"levelo_inurba_marseille","lat":43.24645,"lon":5.38907,"is_reserved":false,"is_disabled":false,"rental_uris":{"android":"levelo://app?vid=39a6bd1f-7072-469f-8856-342cea40130d","ios":"levelo://app?vid=39a6bd1f-7072-469f-8856-342cea40130d"},"vehicle_type_id":"4","last_reported":1747116949,"current_range_meters":17600,"station_id":"ce4bhg12rcd13ifvqf60","pricing_plan_id":"cebpf4jnsgd1na2vs0mg"},{"bike_id":"6d2e8927-7d5f-447e-9b02-db282a9b3500","system_id":"levelo_inurba_marseille","lat":43.23176,"lon":5.39992,"is_reserved":false,"is_disabled":false,"rental_uris":{"android":"levelo://app?vid=6d2e8927-7d5f-447e-9b02-db282a9b3500","ios":"levelo://app?vid=6d2e8927-7d5f-447e-9b02-db282a9b3500"},"vehicle_type_id":"4","last_reported":1747116949,"current_range_meters":17200,"station_id":"ce4bhn12rcd13ifvqgqg","pricing_plan_id":"cebpf4jnsgd1na2vs0mg"},{"bike_id":"18b26a1f-81d9-4a5e-8d2a-67344278c7bb","system_id":"levelo_inurba_marseille","lat":43.25121,"lon":5.40317,"is_reserved":false,"is_disabled":false,"rental_uris":{"android":"levelo://app?vid=18b26a1f-81d9-4a5e-8d2a-67344278c7bb","ios":"levelo://app?vid=18b26a1f-81d9-4a5e-8d2a-67344278c7bb"},"vehicle_type_id":"4","last_reported":1747116949,"current_range_meters":17600,"station_id":"ce4bhlh2rcd13ifvqgig","pricing_plan_id":"cebpf4jnsgd1na2vs0mg"},{"bike_id":"bdcf7cfb-a8c6-4aa2-8cf3-ea44dd62b882","system_id":"levelo_inurba_marseille","lat":43.24806,"lon":5.37454,"is_reserved":false,"is_disabled":false,"rental_uris":{"android":"levelo://app?vid=bdcf7cfb-a8c6-4aa2-8cf3-ea44dd62b882","ios":"levelo://app?vid=bdcf7cfb-a8c6-4aa2-8cf3-ea44dd62b882"},"vehicle_type_id":"4","last_reported":1747116949,"current_range_meters":18000,"station_id":"ce4bhgh2rcd13ifvqfb0","pricing_plan_id":"cebpf4jnsgd1na2vs0mg"},{"bike_id":"9d76660f-c284-49a2-8765-48337aa51471","system_id":"levelo_inurba_marseille","lat":43.32089,"lon":5.36815,"is_reserved":false,"is_disabled":false,"rental_uris":{"android":"levelo://app?vid=9d76660f-c284-49a2-8765-48337aa51471","ios":"levelo://app?vid=9d76660f-c284-49a2-8765-48337aa51471"},"vehicle_type_id":"4","last_reported":1747116949,"current_range_meters":18000,"station_id":"ce4bhrh2rcd13ifvqhug","pricing_plan_id":"cebpf4jnsgd1na2vs0mg"},{"bike_id":"d32141a3-bc2d-4773-a44e-5bf9a3ff868b","system_id":"levelo_inurba_marseille","lat":43.25723,"lon":5.41103,"is_reserved":false,"is_disabled":true,"rental_uris":{"android":"levelo://app?vid=d32141a3-bc2d-4773-a44e-5bf9a3ff868b","ios":"levelo://app?vid=d32141a3-bc2d-4773-a44e-5bf9a3ff868b"},"vehicle_type_id":"4","last_reported":1747116949,"current_range_meters":18800,"station_id":"ce4bhkp2rcd13ifvqgd0","pricing_plan_id":"cebpf4jnsgd1na2vs0mg"},{"bike_id":"d3768589-0594-48f6-adbe-f5694b3f5a7d","system_id":"levelo_inurba_marseille","lat":43.30906,"lon":5.36836,"is_reserved":false,"is_disabled":false,"rental_uris":{"android":"levelo://app?vid=d3768589-0594-48f6-adbe-f5694b3f5a7d","ios":"levelo://app?vid=d3768589-0594-48f6-adbe-f5694b3f5a7d"},"vehicle_type_id":"4","last_reported":1747116949,"current_range_meters":18800,"station_id":"ce4bgn92rcd13ifvqbvg","pricing_plan_id":"cebpf4jnsgd1na2vs0mg"},{"bike_id":"e753fca7-77cd-4454-9e59-ee2ddd0637fc","system_id":"levelo_inurba_marseille","lat":43.27503,"lon":5.4245,"is_reserved":false,"is_disabled":false,"rental_uris":{"android":"levelo://app?vid=e753fca7-77cd-4454-9e59-ee2ddd0637fc","ios":"levelo://app?vid=e753fca7-77cd-4454-9e59-ee2ddd0637fc"},"vehicle_type_id":"4","last_reported":1747116949,"current_range_meters":18800,"station_id":"","pricing_plan_id":"cebpf4jnsgd1na2vs0mg"},{"bike_id":"a72f76bf-10e2-4383-8079-634a7f2d442b","system_id":"levelo_inurba_marseille","lat":43.23155,"lon":5.43717,"is_reserved":false,"is_disabled":false,"rental_uris":{"android":"levelo://app?vid=a72f76bf-10e2-4383-8079-634a7f2d442b","ios":"levelo://app?vid=a72f76bf-10e2-4383-8079-634a7f2d442b"},"vehicle_type_id":"4","last_reported":1747116949,"current_range_meters":18800,"station_id":"ce4bhmp2rcd13ifvqgog","pricing_plan_id":"cebpf4jnsgd1na2vs0mg"},{"bike_id":"e83dcaca-181c-4b02-bf44-8d4da8809b5b","system_id":"levelo_inurba_marseille","lat":43.317149,"lon":5.436988,"is_reserved":false,"is_disabled":false,"rental_uris":{"android":"levelo://app?vid=e83dcaca-181c-4b02-bf44-8d4da8809b5b","ios":"levelo://app?vid=e83dcaca-181c-4b02-bf44-8d4da8809b5b"},"vehicle_type_id":"4","last_reported":1747116949,"current_range_meters":18800,"station_id":"ce4bhp92rcd13ifvqhcg","pricing_plan_id":"cebpf4jnsgd1na2vs0mg"},{"bike_id":"0c893fb7-8626-4706-85bf-f404b871dea5","system_id":"levelo_inurba_marseille","lat":43.281254,"lon":5.445899,"is_reserved":false,"is_disabled":false,"rental_uris":{"android":"levelo://app?vid=0c893fb7-8626-4706-85bf-f404b871dea5","ios":"levelo://app?vid=0c893fb7-8626-4706-85bf-f404b871dea5"},"vehicle_type_id":"4","last_reported":1747116949,"current_range_meters":18800,"station_id":"","pricing_plan_id":"cebpf4jnsgd1na2vs0mg"},{"bike_id":"e9f11e1d-6d2c-42c2-95ba-10e98b48f437","system_id":"levelo_inurba_marseille","lat":43.30456,"lon":5.37908,"is_reserved":false,"is_disabled":false,"rental_uris":{"android":"levelo://app?vid=e9f11e1d-6d2c-42c2-95ba-10e98b48f437","ios":"levelo://app?vid=e9f11e1d-6d2c-42c2-95ba-10e98b48f437"},"vehicle_type_id":"4","last_reported":1747116949,"current_range_meters":18800,"station_id":"ce4bgup2rcd13ifvqcn0","pricing_plan_id":"cebpf4jnsgd1na2vs0mg"},{"bike_id":"fc7757ff-13ed-4d01-9192-245c921181aa","system_id":"levelo_inurba_marseille","lat":43.29029,"lon":5.39964,"is_reserved":false,"is_disabled":false,"rental_uris":{"android":"levelo://app?vid=fc7757ff-13ed-4d01-9192-245c921181aa","ios":"levelo://app?vid=fc7757ff-13ed-4d01-9192-245c921181aa"},"vehicle_type_id":"4","last_reported":1747116949,"current_range_meters":18800,"station_id":"ce4bh392rcd13ifvqdm0","pricing_plan_id":"cebpf4jnsgd1na2vs0mg"},{"bike_id":"63c63660-7b8a-4e94-8f3f-69a7971a16e5","system_id":"levelo_inurba_marseille","lat":43.30147,"lon":5.38091,"is_reserved":false,"is_disabled":false,"rental_uris":{"android":"levelo://app?vid=63c63660-7b8a-4e94-8f3f-69a7971a16e5","ios":"levelo://app?vid=63c63660-7b8a-4e94-8f3f-69a7971a16e5"},"vehicle_type_id":"4","last_reported":1747116949,"current_range_meters":18800,"station_id":"ce4bgjp2rcd13ifvqbh0","pricing_plan_id":"cebpf4jnsgd1na2vs0mg"},{"bike_id":"85bb6071-e792-4f67-a718-8548b40eced6","system_id":"levelo_inurba_marseille","lat":43.286741,"lon":5.386647,"is_reserved":false,"is_disabled":true,"rental_uris":{"android":"levelo://app?vid=85bb6071-e792-4f67-a718-8548b40eced6","ios":"levelo://app?vid=85bb6071-e792-4f67-a718-8548b40eced6"},"vehicle_type_id":"4","last_reported":1747116949,"current_range_meters":18800,"station_id":"ce4bh492rcd13ifvqdug","pricing_plan_id":"cebpf4jnsgd1na2vs0mg"},{"bike_id":"eeb882a8-fe36-4d5c-a964-fc0d0f965523","system_id":"levelo_inurba_marseille","lat":43.306791,"lon":5.366936,"is_reserved":false,"is_disabled":false,"rental_uris":{"android":"levelo://app?vid=eeb882a8-fe36-4d5c-a964-fc0d0f965523","ios":"levelo://app?vid=eeb882a8-fe36-4d5c-a964-fc0d0f965523"},"vehicle_type_id":"4","last_reported":1747116949,"current_range_meters":18800,"station_id":"","pricing_plan_id":"cebpf4jnsgd1na2vs0mg"},{"bike_id":"cb15221d-1ef6-4006-8e3a-d528e80c97db","system_id":"levelo_inurba_marseille","lat":43.2407,"lon":5.37763,"is_reserved":false,"is_disabled":false,"rental_uris":{"android":"levelo://app?vid=cb15221d-1ef6-4006-8e3a-d528e80c97db","ios":"levelo://app?vid=cb15221d-1ef6-4006-8e3a-d528e80c97db"},"vehicle_type_id":"4","last_reported":1747116949,"current_range_meters":19200,"station_id":"ce4bhnp2rcd13ifvqgvg","pricing_plan_id":"cebpf4jnsgd1na2vs0mg"},{"bike_id":"5586737f-6455-4ea2-9af8-69a63f84810a","system_id":"levelo_inurba_marseille","lat":43.23965,"lon":5.36635,"is_reserved":false,"is_disabled":false,"rental_uris":{"android":"levelo://app?vid=5586737f-6455-4ea2-9af8-69a63f84810a","ios":"levelo://app?vid=5586737f-6455-4ea2-9af8-69a63f84810a"},"vehicle_type_id":"4","last_reported":1747116949,"current_range_meters":19200,"station_id":"ce4bhi12rcd13ifvqfp0","pricing_plan_id":"cebpf4jnsgd1na2vs0mg"},{"bike_id":"7c3d38dc-b1a2-4dae-812f-10870efc06cf","system_id":"levelo_inurba_marseille","lat":43.23153,"lon":5.43724,"is_reserved":false,"is_disabled":false,"rental_uris":{"android":"levelo://app?vid=7c3d38dc-b1a2-4dae-812f-10870efc06cf","ios":"levelo://app?vid=7c3d38dc-b1a2-4dae-812f-10870efc06cf"},"vehicle_type_id":"4","last_reported":1747116949,"current_range_meters":19200,"station_id":"ce4bhmp2rcd13ifvqgog","pricing_plan_id":"cebpf4jnsgd1na2vs0mg"},{"bike_id":"1e297e0e-a907-489c-9a22-1dfb89bfb64f","system_id":"levelo_inurba_marseille","lat":43.292257,"lon":5.364182,"is_reserved":false,"is_disabled":true,"rental_uris":{"android":"levelo://app?vid=1e297e0e-a907-489c-9a22-1dfb89bfb64f","ios":"levelo://app?vid=1e297e0e-a907-489c-9a22-1dfb89bfb64f"},"vehicle_type_id":"4","last_reported":1747116949,"current_range_meters":19200,"station_id":"","pricing_plan_id":"cebpf4jnsgd1na2vs0mg"},{"bike_id":"a2576232-01a1-41db-a926-80e44fa96326","system_id":"levelo_inurba_marseille","lat":43.29844,"lon":5.36264,"is_reserved":false,"is_disabled":false,"rental_uris":{"android":"levelo://app?vid=a2576232-01a1-41db-a926-80e44fa96326","ios":"levelo://app?vid=a2576232-01a1-41db-a926-80e44fa96326"},"vehicle_type_id":"4","last_reported":1747116949,"current_range_meters":19200,"station_id":"ce4bgpp2rcd13ifvqc3g","pricing_plan_id":"cebpf4jnsgd1na2vs0mg"},{"bike_id":"09e60dc0-1eac-4ef5-b2b0-ce0b5323703b","system_id":"levelo_inurba_marseille","lat":43.27496,"lon":5.42454,"is_reserved":false,"is_disabled":false,"rental_uris":{"android":"levelo://app?vid=09e60dc0-1eac-4ef5-b2b0-ce0b5323703b","ios":"levelo://app?vid=09e60dc0-1eac-4ef5-b2b0-ce0b5323703b"},"vehicle_type_id":"4","last_reported":1747116949,"current_range_meters":19200,"station_id":"","pricing_plan_id":"cebpf4jnsgd1na2vs0mg"},{"bike_id":"9e7ebd91-af82-4549-976b-c088b359c00b","system_id":"levelo_inurba_marseille","lat":43.32099,"lon":5.368,"is_reserved":false,"is_disabled":false,"rental_uris":{"android":"levelo://app?vid=9e7ebd91-af82-4549-976b-c088b359c00b","ios":"levelo://app?vid=9e7ebd91-af82-4549-976b-c088b359c00b"},"vehicle_type_id":"4","last_reported":1747116949,"current_range_meters":19200,"station_id":"ce4bhrh2rcd13ifvqhug","pricing_plan_id":"cebpf4jnsgd1na2vs0mg"},{"bike_id":"9ebd264f-eb78-4712-977a-7949f9099e54","system_id":"levelo_inurba_marseille","lat":43.24075,"lon":5.3776,"is_reserved":false,"is_disabled":false,"rental_uris":{"android":"levelo://app?vid=9ebd264f-eb78-4712-977a-7949f9099e54","ios":"levelo://app?vid=9ebd264f-eb78-4712-977a-7949f9099e54"},"vehicle_type_id":"4","last_reported":1747116949,"current_range_meters":19200,"station_id":"ce4bhnp2rcd13ifvqgvg","pricing_plan_id":"cebpf4jnsgd1na2vs0mg"},{"bike_id":"581a76c6-406f-436c-80cf-424046378536","system_id":"levelo_inurba_marseille","lat":43.23133,"lon":5.43708,"is_reserved":false,"is_disabled":false,"rental_uris":{"android":"levelo://app?vid=581a76c6-406f-436c-80cf-424046378536","ios":"levelo://app?vid=581a76c6-406f-436c-80cf-424046378536"},"vehicle_type_id":"4","last_reported":1747116949,"current_range_meters":19200,"station_id":"ce4bhmp2rcd13ifvqgog","pricing_plan_id":"cebpf4jnsgd1na2vs0mg"},{"bike_id":"0cd08830-fc84-4017-9483-59e593e66c02","system_id":"levelo_inurba_marseille","lat":43.24396,"lon":5.37063,"is_reserved":false,"is_disabled":true,"rental_uris":{"android":"levelo://app?vid=0cd08830-fc84-4017-9483-59e593e66c02","ios":"levelo://app?vid=0cd08830-fc84-4017-9483-59e593e66c02"},"vehicle_type_id":"4","last_reported":1747116949,"current_range_meters":19600,"station_id":"ce4bhhh2rcd13ifvqfk0","pricing_plan_id":"cebpf4jnsgd1na2vs0mg"},{"bike_id":"3161144a-408c-4586-b7ff-23edd431593d","system_id":"levelo_inurba_marseille","lat":43.28629,"lon":5.35085,"is_reserved":false,"is_disabled":false,"rental_uris":{"android":"levelo://app?vid=3161144a-408c-4586-b7ff-23edd431593d","ios":"levelo://app?vid=3161144a-408c-4586-b7ff-23edd431593d"},"vehicle_type_id":"4","last_reported":1747116949,"current_range_meters":19600,"station_id":"ce4bhch2rcd13ifvqeug","pricing_plan_id":"cebpf4jnsgd1na2vs0mg"},{"bike_id":"98bccbc0-f31c-46d1-b09c-025d734bf0d8","system_id":"levelo_inurba_marseille","lat":43.30554,"lon":5.36687,"is_reserved":false,"is_disabled":false,"rental_uris":{"android":"levelo://app?vid=98bccbc0-f31c-46d1-b09c-025d734bf0d8","ios":"levelo://app?vid=98bccbc0-f31c-46d1-b09c-025d734bf0d8"},"vehicle_type_id":"4","last_reported":1747116949,"current_range_meters":19600,"station_id":"ce4bgrp2rcd13ifvqc9g","pricing_plan_id":"cebpf4jnsgd1na2vs0mg"},{"bike_id":"aaa65e13-bb51-40c2-9c98-77b97e5da3dd","system_id":"levelo_inurba_marseille","lat":43.324817,"lon":5.365571,"is_reserved":false,"is_disabled":false,"rental_uris":{"android":"levelo://app?vid=aaa65e13-bb51-40c2-9c98-77b97e5da3dd","ios":"levelo://app?vid=aaa65e13-bb51-40c2-9c98-77b97e5da3dd"},"vehicle_type_id":"4","last_reported":1747116949,"current_range_meters":19600,"station_id":"ce4bhs12rcd13ifvqhvg","pricing_plan_id":"cebpf4jnsgd1na2vs0mg"},{"bike_id":"40a1c000-90a0-4865-a7e7-3a2a723ed018","system_id":"levelo_inurba_marseille","lat":43.25941,"lon":5.40902,"is_reserved":false,"is_disabled":false,"rental_uris":{"android":"levelo://app?vid=40a1c000-90a0-4865-a7e7-3a2a723ed018","ios":"levelo://app?vid=40a1c000-90a0-4865-a7e7-3a2a723ed018"},"vehicle_type_id":"4","last_reported":1747116949,"current_range_meters":20000,"station_id":"ce4bhm92rcd13ifvqglg","pricing_plan_id":"cebpf4jnsgd1na2vs0mg"},{"bike_id":"41a4bf39-49b2-4db9-8370-a61b5011ecbd","system_id":"levelo_inurba_marseille","lat":43.28987,"lon":5.3782,"is_reserved":false,"is_disabled":true,"rental_uris":{"android":"levelo://app?vid=41a4bf39-49b2-4db9-8370-a61b5011ecbd","ios":"levelo://app?vid=41a4bf39-49b2-4db9-8370-a61b5011ecbd"},"vehicle_type_id":"4","last_reported":1747116949,"current_range_meters":20000,"station_id":"ce4bh9p2rcd13ifvqed0","pricing_plan_id":"cebpf4jnsgd1na2vs0mg"},{"bike_id":"bb1746d7-068d-4837-bf23-ca3e2bd391fb","system_id":"levelo_inurba_marseille","lat":43.26191,"lon":5.374729,"is_reserved":false,"is_disabled":false,"rental_uris":{"android":"levelo://app?vid=bb1746d7-068d-4837-bf23-ca3e2bd391fb","ios":"levelo://app?vid=bb1746d7-068d-4837-bf23-ca3e2bd391fb"},"vehicle_type_id":"4","last_reported":1747116949,"current_range_meters":20000,"station_id":"ce4bhgp2rcd13ifvqfc0","pricing_plan_id":"cebpf4jnsgd1na2vs0mg"},{"bike_id":"73926c6a-7a8f-4245-8c9e-eb7a0c700d34","system_id":"levelo_inurba_marseille","lat":43.26942,"lon":5.40244,"is_reserved":false,"is_disabled":false,"rental_uris":{"android":"levelo://app?vid=73926c6a-7a8f-4245-8c9e-eb7a0c700d34","ios":"levelo://app?vid=73926c6a-7a8f-4245-8c9e-eb7a0c700d34"},"vehicle_type_id":"4","last_reported":1747116949,"current_range_meters":20000,"station_id":"cjm6bp8fraef2m0cb0m0","pricing_plan_id":"cebpf4jnsgd1na2vs0mg"},{"bike_id":"d94ade41-3bd8-41db-87eb-ae1253102bdc","system_id":"levelo_inurba_marseille","lat":43.27493,"lon":5.42435,"is_reserved":false,"is_disabled":false,"rental_uris":{"android":"levelo://app?vid=d94ade41-3bd8-41db-87eb-ae1253102bdc","ios":"levelo://app?vid=d94ade41-3bd8-41db-87eb-ae1253102bdc"},"vehicle_type_id":"4","last_reported":1747116949,"current_range_meters":20400,"station_id":"ce4bhn92rcd13ifvqgrg","pricing_plan_id":"cebpf4jnsgd1na2vs0mg"},{"bike_id":"84951397-69e9-4cc4-a9b3-8bac0d4c150d","system_id":"levelo_inurba_marseille","lat":43.30377,"lon":5.424939,"is_reserved":false,"is_disabled":false,"rental_uris":{"android":"levelo://app?vid=84951397-69e9-4cc4-a9b3-8bac0d4c150d","ios":"levelo://app?vid=84951397-69e9-4cc4-a9b3-8bac0d4c150d"},"vehicle_type_id":"4","last_reported":1747116949,"current_range_meters":20400,"station_id":"ce4bhoh2rcd13ifvqh6g","pricing_plan_id":"cebpf4jnsgd1na2vs0mg"},{"bike_id":"a5e11739-9f4e-4a5c-a67a-316bdd3705d0","system_id":"levelo_inurba_marseille","lat":43.27496,"lon":5.42463,"is_reserved":false,"is_disabled":false,"rental_uris":{"android":"levelo://app?vid=a5e11739-9f4e-4a5c-a67a-316bdd3705d0","ios":"levelo://app?vid=a5e11739-9f4e-4a5c-a67a-316bdd3705d0"},"vehicle_type_id":"4","last_reported":1747116949,"current_range_meters":20400,"station_id":"","pricing_plan_id":"cebpf4jnsgd1na2vs0mg"},{"bike_id":"d3ee0d64-5680-4380-93bd-954f0eacacee","system_id":"levelo_inurba_marseille","lat":43.29554,"lon":5.42252,"is_reserved":false,"is_disabled":false,"rental_uris":{"android":"levelo://app?vid=d3ee0d64-5680-4380-93bd-954f0eacacee","ios":"levelo://app?vid=d3ee0d64-5680-4380-93bd-954f0eacacee"},"vehicle_type_id":"4","last_reported":1747116949,"current_range_meters":20400,"station_id":"ce4bhph2rcd13ifvqhdg","pricing_plan_id":"cebpf4jnsgd1na2vs0mg"},{"bike_id":"bd88d41b-f29d-44c2-8d5d-19a0735af1da","system_id":"levelo_inurba_marseille","lat":43.25939,"lon":5.40901,"is_reserved":false,"is_disabled":false,"rental_uris":{"android":"levelo://app?vid=bd88d41b-f29d-44c2-8d5d-19a0735af1da","ios":"levelo://app?vid=bd88d41b-f29d-44c2-8d5d-19a0735af1da"},"vehicle_type_id":"4","last_reported":1747116949,"current_range_meters":20400,"station_id":"ce4bhm92rcd13ifvqglg","pricing_plan_id":"cebpf4jnsgd1na2vs0mg"},{"bike_id":"05669342-cb45-4c08-a397-74c64938fdba","system_id":"levelo_inurba_marseille","lat":43.25943,"lon":5.40901,"is_reserved":false,"is_disabled":false,"rental_uris":{"android":"levelo://app?vid=05669342-cb45-4c08-a397-74c64938fdba","ios":"levelo://app?vid=05669342-cb45-4c08-a397-74c64938fdba"},"vehicle_type_id":"4","last_reported":1747116949,"current_range_meters":20400,"station_id":"ce4bhm92rcd13ifvqglg","pricing_plan_id":"cebpf4jnsgd1na2vs0mg"},{"bike_id":"746d6870-f129-46ea-9cce-9733ae5747f5","system_id":"levelo_inurba_marseille","lat":43.24157,"lon":5.39718,"is_reserved":false,"is_disabled":false,"rental_uris":{"android":"levelo://app?vid=746d6870-f129-46ea-9cce-9733ae5747f5","ios":"levelo://app?vid=746d6870-f129-46ea-9cce-9733ae5747f5"},"vehicle_type_id":"4","last_reported":1747116949,"current_range_meters":20800,"station_id":"ce4bhn12rcd13ifvqgpg","pricing_plan_id":"cebpf4jnsgd1na2vs0mg"},{"bike_id":"7edae4e3-02d9-44f7-8013-99c1fec4bf3b","system_id":"levelo_inurba_marseille","lat":43.31699,"lon":5.40457,"is_reserved":false,"is_disabled":false,"rental_uris":{"android":"levelo://app?vid=7edae4e3-02d9-44f7-8013-99c1fec4bf3b","ios":"levelo://app?vid=7edae4e3-02d9-44f7-8013-99c1fec4bf3b"},"vehicle_type_id":"4","last_reported":1747116949,"current_range_meters":20800,"station_id":"ce4bh012rcd13ifvqd00","pricing_plan_id":"cebpf4jnsgd1na2vs0mg"},{"bike_id":"0a12ae31-9f3b-467f-bf3b-3e289283c812","system_id":"levelo_inurba_marseille","lat":43.30823,"lon":5.37088,"is_reserved":false,"is_disabled":false,"rental_uris":{"android":"levelo://app?vid=0a12ae31-9f3b-467f-bf3b-3e289283c812","ios":"levelo://app?vid=0a12ae31-9f3b-467f-bf3b-3e289283c812"},"vehicle_type_id":"4","last_reported":1747116949,"current_range_meters":20800,"station_id":"","pricing_plan_id":"cebpf4jnsgd1na2vs0mg"},{"bike_id":"2a8d6c84-f97c-47ac-97e8-b5252d886c6b","system_id":"levelo_inurba_marseille","lat":43.30636,"lon":5.4009,"is_reserved":false,"is_disabled":false,"rental_uris":{"android":"levelo://app?vid=2a8d6c84-f97c-47ac-97e8-b5252d886c6b","ios":"levelo://app?vid=2a8d6c84-f97c-47ac-97e8-b5252d886c6b"},"vehicle_type_id":"4","last_reported":1747116949,"current_range_meters":20800,"station_id":"ce4bh112rcd13ifvqda0","pricing_plan_id":"cebpf4jnsgd1na2vs0mg"},{"bike_id":"35e2ed5c-9125-481e-b7d6-9730fa18d455","system_id":"levelo_inurba_marseille","lat":43.29277,"lon":5.40114,"is_reserved":false,"is_disabled":false,"rental_uris":{"android":"levelo://app?vid=35e2ed5c-9125-481e-b7d6-9730fa18d455","ios":"levelo://app?vid=35e2ed5c-9125-481e-b7d6-9730fa18d455"},"vehicle_type_id":"4","last_reported":1747116949,"current_range_meters":20800,"station_id":"ce4bh312rcd13ifvqdk0","pricing_plan_id":"cebpf4jnsgd1na2vs0mg"},{"bike_id":"2b26af35-a117-4935-9adc-712cc7d2c39d","system_id":"levelo_inurba_marseille","lat":43.28162,"lon":5.42651,"is_reserved":false,"is_disabled":false,"rental_uris":{"android":"levelo://app?vid=2b26af35-a117-4935-9adc-712cc7d2c39d","ios":"levelo://app?vid=2b26af35-a117-4935-9adc-712cc7d2c39d"},"vehicle_type_id":"4","last_reported":1747116949,"current_range_meters":20400,"station_id":"ce4bhnh2rcd13ifvqgug","pricing_plan_id":"cebpf4jnsgd1na2vs0mg"},{"bike_id":"2ed5c842-9ef0-44ed-9b28-37459ba29bd5","system_id":"levelo_inurba_marseille","lat":43.295767,"lon":5.422983,"is_reserved":false,"is_disabled":false,"rental_uris":{"android":"levelo://app?vid=2ed5c842-9ef0-44ed-9b28-37459ba29bd5","ios":"levelo://app?vid=2ed5c842-9ef0-44ed-9b28-37459ba29bd5"},"vehicle_type_id":"4","last_reported":1747116949,"current_range_meters":20800,"station_id":"ce4bhph2rcd13ifvqhdg","pricing_plan_id":"cebpf4jnsgd1na2vs0mg"},{"bike_id":"8aceedaf-8f81-4dee-8504-231e643fc543","system_id":"levelo_inurba_marseille","lat":43.29568,"lon":5.37527,"is_reserved":false,"is_disabled":false,"rental_uris":{"android":"levelo://app?vid=8aceedaf-8f81-4dee-8504-231e643fc543","ios":"levelo://app?vid=8aceedaf-8f81-4dee-8504-231e643fc543"},"vehicle_type_id":"4","last_reported":1747116949,"current_range_meters":21600,"station_id":"","pricing_plan_id":"cebpf4jnsgd1na2vs0mg"},{"bike_id":"0bd8ec0c-f5ae-4a5e-984a-532761025e62","system_id":"levelo_inurba_marseille","lat":43.2794,"lon":5.41041,"is_reserved":false,"is_disabled":false,"rental_uris":{"android":"levelo://app?vid=0bd8ec0c-f5ae-4a5e-984a-532761025e62","ios":"levelo://app?vid=0bd8ec0c-f5ae-4a5e-984a-532761025e62"},"vehicle_type_id":"4","last_reported":1747116949,"current_range_meters":21600,"station_id":"ce4bhnp2rcd13ifvqh0g","pricing_plan_id":"cebpf4jnsgd1na2vs0mg"},{"bike_id":"00661fbc-b6d0-422a-b73d-1704fa8299f6","system_id":"levelo_inurba_marseille","lat":43.30932,"lon":5.40143,"is_reserved":false,"is_disabled":false,"rental_uris":{"android":"levelo://app?vid=00661fbc-b6d0-422a-b73d-1704fa8299f6","ios":"levelo://app?vid=00661fbc-b6d0-422a-b73d-1704fa8299f6"},"vehicle_type_id":"4","last_reported":1747116949,"current_range_meters":21600,"station_id":"ce4bgvp2rcd13ifvqct0","pricing_plan_id":"cebpf4jnsgd1na2vs0mg"},{"bike_id":"59e59d1d-3878-4486-88b9-e9a4863f02dd","system_id":"levelo_inurba_marseille","lat":43.29546,"lon":5.38536,"is_reserved":false,"is_disabled":false,"rental_uris":{"android":"levelo://app?vid=59e59d1d-3878-4486-88b9-e9a4863f02dd","ios":"levelo://app?vid=59e59d1d-3878-4486-88b9-e9a4863f02dd"},"vehicle_type_id":"4","last_reported":1747116949,"current_range_meters":21600,"station_id":"ce4bgih2rcd13ifvqba0","pricing_plan_id":"cebpf4jnsgd1na2vs0mg"},{"bike_id":"a1811688-68e4-477a-bc8b-271e96fe4451","system_id":"levelo_inurba_marseille","lat":43.29025,"lon":5.38605,"is_reserved":false,"is_disabled":true,"rental_uris":{"android":"levelo://app?vid=a1811688-68e4-477a-bc8b-271e96fe4451","ios":"levelo://app?vid=a1811688-68e4-477a-bc8b-271e96fe4451"},"vehicle_type_id":"4","last_reported":1747116949,"current_range_meters":21600,"station_id":"ce4bh4p2rcd13ifvqe0g","pricing_plan_id":"cebpf4jnsgd1na2vs0mg"},{"bike_id":"03d6b1b7-88c4-4f66-b343-d23b5bee9a6b","system_id":"levelo_inurba_marseille","lat":43.30429,"lon":5.38895,"is_reserved":false,"is_disabled":false,"rental_uris":{"android":"levelo://app?vid=03d6b1b7-88c4-4f66-b343-d23b5bee9a6b","ios":"levelo://app?vid=03d6b1b7-88c4-4f66-b343-d23b5bee9a6b"},"vehicle_type_id":"4","last_reported":1747116949,"current_range_meters":21600,"station_id":"ce4bgk12rcd13ifvqbi0","pricing_plan_id":"cebpf4jnsgd1na2vs0mg"},{"bike_id":"ae0510dd-41be-4f58-95f7-feea4be11841","system_id":"levelo_inurba_marseille","lat":43.23145,"lon":5.43719,"is_reserved":false,"is_disabled":false,"rental_uris":{"android":"levelo://app?vid=ae0510dd-41be-4f58-95f7-feea4be11841","ios":"levelo://app?vid=ae0510dd-41be-4f58-95f7-feea4be11841"},"vehicle_type_id":"4","last_reported":1747116949,"current_range_meters":21600,"station_id":"ce4bhmp2rcd13ifvqgog","pricing_plan_id":"cebpf4jnsgd1na2vs0mg"},{"bike_id":"0754b4a2-a909-4615-b862-bb6d331feff4","system_id":"levelo_inurba_marseille","lat":43.30669,"lon":5.4009,"is_reserved":false,"is_disabled":false,"rental_uris":{"android":"levelo://app?vid=0754b4a2-a909-4615-b862-bb6d331feff4","ios":"levelo://app?vid=0754b4a2-a909-4615-b862-bb6d331feff4"},"vehicle_type_id":"4","last_reported":1747116949,"current_range_meters":21600,"station_id":"ce4bh112rcd13ifvqda0","pricing_plan_id":"cebpf4jnsgd1na2vs0mg"},{"bike_id":"e3e0989c-01bb-43b9-9d9f-010ea964c88e","system_id":"levelo_inurba_marseille","lat":43.29289,"lon":5.36847,"is_reserved":false,"is_disabled":false,"rental_uris":{"android":"levelo://app?vid=e3e0989c-01bb-43b9-9d9f-010ea964c88e","ios":"levelo://app?vid=e3e0989c-01bb-43b9-9d9f-010ea964c88e"},"vehicle_type_id":"4","last_reported":1747116949,"current_range_meters":21600,"station_id":"ce4bhbp2rcd13ifvqesg","pricing_plan_id":"cebpf4jnsgd1na2vs0mg"},{"bike_id":"092b04fe-eb95-45f7-8186-54e418969201","system_id":"levelo_inurba_marseille","lat":43.30146,"lon":5.38056,"is_reserved":false,"is_disabled":false,"rental_uris":{"android":"levelo://app?vid=092b04fe-eb95-45f7-8186-54e418969201","ios":"levelo://app?vid=092b04fe-eb95-45f7-8186-54e418969201"},"vehicle_type_id":"4","last_reported":1747116949,"current_range_meters":21600,"station_id":"ce4bgjp2rcd13ifvqbh0","pricing_plan_id":"cebpf4jnsgd1na2vs0mg"},{"bike_id":"fef560a9-c53c-4a1d-b46a-8a0f425e60be","system_id":"levelo_inurba_marseille","lat":43.30149,"lon":5.3806,"is_reserved":false,"is_disabled":false,"rental_uris":{"android":"levelo://app?vid=fef560a9-c53c-4a1d-b46a-8a0f425e60be","ios":"levelo://app?vid=fef560a9-c53c-4a1d-b46a-8a0f425e60be"},"vehicle_type_id":"4","last_reported":1747116949,"current_range_meters":22000,"station_id":"ce4bgjp2rcd13ifvqbh0","pricing_plan_id":"cebpf4jnsgd1na2vs0mg"},{"bike_id":"0304fac0-e7c3-4c3f-b547-fb5823c8e499","system_id":"levelo_inurba_marseille","lat":43.24079,"lon":5.37755,"is_reserved":false,"is_disabled":false,"rental_uris":{"android":"levelo://app?vid=0304fac0-e7c3-4c3f-b547-fb5823c8e499","ios":"levelo://app?vid=0304fac0-e7c3-4c3f-b547-fb5823c8e499"},"vehicle_type_id":"4","last_reported":1747116949,"current_range_meters":21600,"station_id":"ce4bhnp2rcd13ifvqgvg","pricing_plan_id":"cebpf4jnsgd1na2vs0mg"},{"bike_id":"93b69480-82c0-418a-9f60-c038dd3b262d","system_id":"levelo_inurba_marseille","lat":43.28412,"lon":5.34985,"is_reserved":false,"is_disabled":false,"rental_uris":{"android":"levelo://app?vid=93b69480-82c0-418a-9f60-c038dd3b262d","ios":"levelo://app?vid=93b69480-82c0-418a-9f60-c038dd3b262d"},"vehicle_type_id":"4","last_reported":1747116949,"current_range_meters":21600,"station_id":"ce4bhbh2rcd13ifvqepg","pricing_plan_id":"cebpf4jnsgd1na2vs0mg"},{"bike_id":"8888139d-c848-4841-afea-959dffeb0a3c","system_id":"levelo_inurba_marseille","lat":43.29609,"lon":5.37734,"is_reserved":false,"is_disabled":false,"rental_uris":{"android":"levelo://app?vid=8888139d-c848-4841-afea-959dffeb0a3c","ios":"levelo://app?vid=8888139d-c848-4841-afea-959dffeb0a3c"},"vehicle_type_id":"4","last_reported":1747116949,"current_range_meters":21600,"station_id":"ce4bgi92rcd13ifvqb90","pricing_plan_id":"cebpf4jnsgd1na2vs0mg"},{"bike_id":"2c49fcb1-0062-4c0e-867b-25f879743715","system_id":"levelo_inurba_marseille","lat":43.30468,"lon":5.37904,"is_reserved":false,"is_disabled":false,"rental_uris":{"android":"levelo://app?vid=2c49fcb1-0062-4c0e-867b-25f879743715","ios":"levelo://app?vid=2c49fcb1-0062-4c0e-867b-25f879743715"},"vehicle_type_id":"4","last_reported":1747116949,"current_range_meters":22000,"station_id":"ce4bgup2rcd13ifvqcn0","pricing_plan_id":"cebpf4jnsgd1na2vs0mg"},{"bike_id":"4030faec-0bd5-44cd-a44b-b20471dcfd42","system_id":"levelo_inurba_marseille","lat":43.30306,"lon":5.36887,"is_reserved":false,"is_disabled":false,"rental_uris":{"android":"levelo://app?vid=4030faec-0bd5-44cd-a44b-b20471dcfd42","ios":"levelo://app?vid=4030faec-0bd5-44cd-a44b-b20471dcfd42"},"vehicle_type_id":"4","last_reported":1747116949,"current_range_meters":22000,"station_id":"ce4bgqh2rcd13ifvqc5g","pricing_plan_id":"cebpf4jnsgd1na2vs0mg"},{"bike_id":"fc24fb6f-e8ea-4fe3-a4d8-4f509935c5b5","system_id":"levelo_inurba_marseille","lat":43.23155,"lon":5.43722,"is_reserved":false,"is_disabled":false,"rental_uris":{"android":"levelo://app?vid=fc24fb6f-e8ea-4fe3-a4d8-4f509935c5b5","ios":"levelo://app?vid=fc24fb6f-e8ea-4fe3-a4d8-4f509935c5b5"},"vehicle_type_id":"4","last_reported":1747116949,"current_range_meters":21600,"station_id":"ce4bhmp2rcd13ifvqgog","pricing_plan_id":"cebpf4jnsgd1na2vs0mg"},{"bike_id":"f2ac7eae-1989-4024-8480-23c489f655a2","system_id":"levelo_inurba_marseille","lat":43.30798,"lon":5.43518,"is_reserved":false,"is_disabled":true,"rental_uris":{"android":"levelo://app?vid=f2ac7eae-1989-4024-8480-23c489f655a2","ios":"levelo://app?vid=f2ac7eae-1989-4024-8480-23c489f655a2"},"vehicle_type_id":"4","last_reported":1747116949,"current_range_meters":22000,"station_id":"ce4bhph2rcd13ifvqheg","pricing_plan_id":"cebpf4jnsgd1na2vs0mg"},{"bike_id":"01fd7024-c5dd-4846-aa4d-1c0e2b80f49d","system_id":"levelo_inurba_marseille","lat":43.30153,"lon":5.38079,"is_reserved":false,"is_disabled":false,"rental_uris":{"android":"levelo://app?vid=01fd7024-c5dd-4846-aa4d-1c0e2b80f49d","ios":"levelo://app?vid=01fd7024-c5dd-4846-aa4d-1c0e2b80f49d"},"vehicle_type_id":"4","last_reported":1747116949,"current_range_meters":22000,"station_id":"ce4bgjp2rcd13ifvqbh0","pricing_plan_id":"cebpf4jnsgd1na2vs0mg"},{"bike_id":"80e9c186-ae54-4a79-9e6c-66a15759c870","system_id":"levelo_inurba_marseille","lat":43.30933,"lon":5.4015,"is_reserved":false,"is_disabled":false,"rental_uris":{"android":"levelo://app?vid=80e9c186-ae54-4a79-9e6c-66a15759c870","ios":"levelo://app?vid=80e9c186-ae54-4a79-9e6c-66a15759c870"},"vehicle_type_id":"4","last_reported":1747116949,"current_range_meters":22400,"station_id":"ce4bgvp2rcd13ifvqct0","pricing_plan_id":"cebpf4jnsgd1na2vs0mg"},{"bike_id":"cbc36575-3256-4394-a4da-378199101485","system_id":"levelo_inurba_marseille","lat":43.267547,"lon":5.393784,"is_reserved":false,"is_disabled":false,"rental_uris":{"android":"levelo://app?vid=cbc36575-3256-4394-a4da-378199101485","ios":"levelo://app?vid=cbc36575-3256-4394-a4da-378199101485"},"vehicle_type_id":"4","last_reported":1747116949,"current_range_meters":22400,"station_id":"ce4bhh12rcd13ifvqfg0","pricing_plan_id":"cebpf4jnsgd1na2vs0mg"},{"bike_id":"a1a6e77c-8d51-43be-9fbd-dd92c5e81b88","system_id":"levelo_inurba_marseille","lat":43.30474,"lon":5.379,"is_reserved":false,"is_disabled":false,"rental_uris":{"android":"levelo://app?vid=a1a6e77c-8d51-43be-9fbd-dd92c5e81b88","ios":"levelo://app?vid=a1a6e77c-8d51-43be-9fbd-dd92c5e81b88"},"vehicle_type_id":"4","last_reported":1747116949,"current_range_meters":22400,"station_id":"ce4bgup2rcd13ifvqcn0","pricing_plan_id":"cebpf4jnsgd1na2vs0mg"},{"bike_id":"2160e204-8e07-45ab-b6bb-45a549a6026e","system_id":"levelo_inurba_marseille","lat":43.32547,"lon":5.41424,"is_reserved":false,"is_disabled":false,"rental_uris":{"android":"levelo://app?vid=2160e204-8e07-45ab-b6bb-45a549a6026e","ios":"levelo://app?vid=2160e204-8e07-45ab-b6bb-45a549a6026e"},"vehicle_type_id":"4","last_reported":1747116949,"current_range_meters":22400,"station_id":"ce4bhq12rcd13ifvqhhg","pricing_plan_id":"cebpf4jnsgd1na2vs0mg"},{"bike_id":"7ace5040-541d-4d19-a542-2c3ed622be8e","system_id":"levelo_inurba_marseille","lat":43.25111,"lon":5.40321,"is_reserved":false,"is_disabled":true,"rental_uris":{"android":"levelo://app?vid=7ace5040-541d-4d19-a542-2c3ed622be8e","ios":"levelo://app?vid=7ace5040-541d-4d19-a542-2c3ed622be8e"},"vehicle_type_id":"4","last_reported":1747116949,"current_range_meters":22800,"station_id":"ce4bhlh2rcd13ifvqgig","pricing_plan_id":"cebpf4jnsgd1na2vs0mg"},{"bike_id":"b963eb7d-609a-45f1-bafd-6ea623ae7fbf","system_id":"levelo_inurba_marseille","lat":43.28157,"lon":5.42643,"is_reserved":false,"is_disabled":false,"rental_uris":{"android":"levelo://app?vid=b963eb7d-609a-45f1-bafd-6ea623ae7fbf","ios":"levelo://app?vid=b963eb7d-609a-45f1-bafd-6ea623ae7fbf"},"vehicle_type_id":"4","last_reported":1747116949,"current_range_meters":22800,"station_id":"ce4bhnh2rcd13ifvqgug","pricing_plan_id":"cebpf4jnsgd1na2vs0mg"},{"bike_id":"b486fccb-9886-4ea2-aa6b-e7d31ae7922e","system_id":"levelo_inurba_marseille","lat":43.30374,"lon":5.42491,"is_reserved":false,"is_disabled":false,"rental_uris":{"android":"levelo://app?vid=b486fccb-9886-4ea2-aa6b-e7d31ae7922e","ios":"levelo://app?vid=b486fccb-9886-4ea2-aa6b-e7d31ae7922e"},"vehicle_type_id":"4","last_reported":1747116949,"current_range_meters":22800,"station_id":"ce4bhoh2rcd13ifvqh6g","pricing_plan_id":"cebpf4jnsgd1na2vs0mg"},{"bike_id":"cb7738d3-963c-4e46-9f62-293387476fe7","system_id":"levelo_inurba_marseille","lat":43.32293,"lon":5.38269,"is_reserved":false,"is_disabled":false,"rental_uris":{"android":"levelo://app?vid=cb7738d3-963c-4e46-9f62-293387476fe7","ios":"levelo://app?vid=cb7738d3-963c-4e46-9f62-293387476fe7"},"vehicle_type_id":"4","last_reported":1747116949,"current_range_meters":23200,"station_id":"ce4bhr12rcd13ifvqhqg","pricing_plan_id":"cebpf4jnsgd1na2vs0mg"},{"bike_id":"5647a91f-31a6-41fb-82bb-83893a94fc73","system_id":"levelo_inurba_marseille","lat":43.21195,"lon":5.35096,"is_reserved":false,"is_disabled":false,"rental_uris":{"android":"levelo://app?vid=5647a91f-31a6-41fb-82bb-83893a94fc73","ios":"levelo://app?vid=5647a91f-31a6-41fb-82bb-83893a94fc73"},"vehicle_type_id":"4","last_reported":1747116949,"current_range_meters":23200,"station_id":"st_cvj6sg6p6f1abm77japg","pricing_plan_id":"cebpf4jnsgd1na2vs0mg"},{"bike_id":"a55a8e89-7507-44c1-8a58-75c7621a3117","system_id":"levelo_inurba_marseille","lat":43.24066,"lon":5.37763,"is_reserved":false,"is_disabled":false,"rental_uris":{"android":"levelo://app?vid=a55a8e89-7507-44c1-8a58-75c7621a3117","ios":"levelo://app?vid=a55a8e89-7507-44c1-8a58-75c7621a3117"},"vehicle_type_id":"4","last_reported":1747116949,"current_range_meters":23200,"station_id":"ce4bhnp2rcd13ifvqgvg","pricing_plan_id":"cebpf4jnsgd1na2vs0mg"},{"bike_id":"312cf0fa-89c7-41e2-ab6c-83d3c271172c","system_id":"levelo_inurba_marseille","lat":43.31669,"lon":5.40468,"is_reserved":false,"is_disabled":false,"rental_uris":{"android":"levelo://app?vid=312cf0fa-89c7-41e2-ab6c-83d3c271172c","ios":"levelo://app?vid=312cf0fa-89c7-41e2-ab6c-83d3c271172c"},"vehicle_type_id":"4","last_reported":1747116949,"current_range_meters":23200,"station_id":"ce4bh012rcd13ifvqd00","pricing_plan_id":"cebpf4jnsgd1na2vs0mg"},{"bike_id":"424f63f3-4eae-4a0a-8b26-a0884fb9d838","system_id":"levelo_inurba_marseille","lat":43.24386,"lon":5.37064,"is_reserved":false,"is_disabled":false,"rental_uris":{"android":"levelo://app?vid=424f63f3-4eae-4a0a-8b26-a0884fb9d838","ios":"levelo://app?vid=424f63f3-4eae-4a0a-8b26-a0884fb9d838"},"vehicle_type_id":"4","last_reported":1747116949,"current_range_meters":22800,"station_id":"ce4bhhh2rcd13ifvqfk0","pricing_plan_id":"cebpf4jnsgd1na2vs0mg"},{"bike_id":"ab5c8029-ec94-4aa6-b252-45f1de6751c7","system_id":"levelo_inurba_marseille","lat":43.313263,"lon":5.396965,"is_reserved":false,"is_disabled":true,"rental_uris":{"android":"levelo://app?vid=ab5c8029-ec94-4aa6-b252-45f1de6751c7","ios":"levelo://app?vid=ab5c8029-ec94-4aa6-b252-45f1de6751c7"},"vehicle_type_id":"4","last_reported":1747116949,"current_range_meters":22800,"station_id":"ce4bgvp2rcd13ifvqcu0","pricing_plan_id":"cebpf4jnsgd1na2vs0mg"},{"bike_id":"116ae56f-812b-4fd5-a472-63d5671f10b2","system_id":"levelo_inurba_marseille","lat":43.2407,"lon":5.37766,"is_reserved":false,"is_disabled":false,"rental_uris":{"android":"levelo://app?vid=116ae56f-812b-4fd5-a472-63d5671f10b2","ios":"levelo://app?vid=116ae56f-812b-4fd5-a472-63d5671f10b2"},"vehicle_type_id":"4","last_reported":1747116949,"current_range_meters":23200,"station_id":"ce4bhnp2rcd13ifvqgvg","pricing_plan_id":"cebpf4jnsgd1na2vs0mg"},{"bike_id":"f1d5255b-8c61-431a-ae0b-f0e258cc0cfc","system_id":"levelo_inurba_marseille","lat":43.30154,"lon":5.38106,"is_reserved":false,"is_disabled":true,"rental_uris":{"android":"levelo://app?vid=f1d5255b-8c61-431a-ae0b-f0e258cc0cfc","ios":"levelo://app?vid=f1d5255b-8c61-431a-ae0b-f0e258cc0cfc"},"vehicle_type_id":"4","last_reported":1747116949,"current_range_meters":23200,"station_id":"ce4bgjp2rcd13ifvqbh0","pricing_plan_id":"cebpf4jnsgd1na2vs0mg"},{"bike_id":"0a8ca5c2-40f2-4245-9b84-8e8cc11c2ffd","system_id":"levelo_inurba_marseille","lat":43.26069,"lon":5.39397,"is_reserved":false,"is_disabled":true,"rental_uris":{"android":"levelo://app?vid=0a8ca5c2-40f2-4245-9b84-8e8cc11c2ffd","ios":"levelo://app?vid=0a8ca5c2-40f2-4245-9b84-8e8cc11c2ffd"},"vehicle_type_id":"4","last_reported":1747116949,"current_range_meters":23200,"station_id":"ce4bhh92rcd13ifvqfj0","pricing_plan_id":"cebpf4jnsgd1na2vs0mg"},{"bike_id":"8deafdb0-b72e-42a8-9144-f28ecef9389d","system_id":"levelo_inurba_marseille","lat":43.32114,"lon":5.36828,"is_reserved":false,"is_disabled":false,"rental_uris":{"android":"levelo://app?vid=8deafdb0-b72e-42a8-9144-f28ecef9389d","ios":"levelo://app?vid=8deafdb0-b72e-42a8-9144-f28ecef9389d"},"vehicle_type_id":"4","last_reported":1747116949,"current_range_meters":24000,"station_id":"","pricing_plan_id":"cebpf4jnsgd1na2vs0mg"},{"bike_id":"8e75da86-6032-4e55-9cbb-6493ed73b892","system_id":"levelo_inurba_marseille","lat":43.301468,"lon":5.380862,"is_reserved":false,"is_disabled":false,"rental_uris":{"android":"levelo://app?vid=8e75da86-6032-4e55-9cbb-6493ed73b892","ios":"levelo://app?vid=8e75da86-6032-4e55-9cbb-6493ed73b892"},"vehicle_type_id":"4","last_reported":1747116949,"current_range_meters":24000,"station_id":"ce4bgjp2rcd13ifvqbh0","pricing_plan_id":"cebpf4jnsgd1na2vs0mg"},{"bike_id":"6a823f1a-6318-4c59-8ef1-0310574389dd","system_id":"levelo_inurba_marseille","lat":43.29578,"lon":5.39976,"is_reserved":false,"is_disabled":false,"rental_uris":{"android":"levelo://app?vid=6a823f1a-6318-4c59-8ef1-0310574389dd","ios":"levelo://app?vid=6a823f1a-6318-4c59-8ef1-0310574389dd"},"vehicle_type_id":"4","last_reported":1747116949,"current_range_meters":24000,"station_id":"ce4bh312rcd13ifvqdj0","pricing_plan_id":"cebpf4jnsgd1na2vs0mg"},{"bike_id":"118d5b17-7204-43b2-a58f-b0555d2ee4c8","system_id":"levelo_inurba_marseille","lat":43.30462,"lon":5.379,"is_reserved":false,"is_disabled":false,"rental_uris":{"android":"levelo://app?vid=118d5b17-7204-43b2-a58f-b0555d2ee4c8","ios":"levelo://app?vid=118d5b17-7204-43b2-a58f-b0555d2ee4c8"},"vehicle_type_id":"4","last_reported":1747116949,"current_range_meters":24000,"station_id":"ce4bgup2rcd13ifvqcn0","pricing_plan_id":"cebpf4jnsgd1na2vs0mg"},{"bike_id":"3ea93f15-db04-4894-a901-ee3874ff2ab2","system_id":"levelo_inurba_marseille","lat":43.28356,"lon":5.3809,"is_reserved":false,"is_disabled":false,"rental_uris":{"android":"levelo://app?vid=3ea93f15-db04-4894-a901-ee3874ff2ab2","ios":"levelo://app?vid=3ea93f15-db04-4894-a901-ee3874ff2ab2"},"vehicle_type_id":"4","last_reported":1747116949,"current_range_meters":24000,"station_id":"ce4bh412rcd13ifvqdr0","pricing_plan_id":"cebpf4jnsgd1na2vs0mg"},{"bike_id":"856edd1c-41fa-4163-ac94-3c5b1ee3b929","system_id":"levelo_inurba_marseille","lat":43.27382,"lon":5.36254,"is_reserved":false,"is_disabled":true,"rental_uris":{"android":"levelo://app?vid=856edd1c-41fa-4163-ac94-3c5b1ee3b929","ios":"levelo://app?vid=856edd1c-41fa-4163-ac94-3c5b1ee3b929"},"vehicle_type_id":"4","last_reported":1747116949,"current_range_meters":24000,"station_id":"ce4bhbh2rcd13ifvqeo0","pricing_plan_id":"cebpf4jnsgd1na2vs0mg"},{"bike_id":"e3c7d281-3ec2-4b4f-a753-a74c2001c065","system_id":"levelo_inurba_marseille","lat":43.30538,"lon":5.36542,"is_reserved":false,"is_disabled":false,"rental_uris":{"android":"levelo://app?vid=e3c7d281-3ec2-4b4f-a753-a74c2001c065","ios":"levelo://app?vid=e3c7d281-3ec2-4b4f-a753-a74c2001c065"},"vehicle_type_id":"4","last_reported":1747116949,"current_range_meters":24000,"station_id":"ce4bgs12rcd13ifvqcag","pricing_plan_id":"cebpf4jnsgd1na2vs0mg"},{"bike_id":"ba94f5af-8633-4810-9811-c5e53b3760cb","system_id":"levelo_inurba_marseille","lat":43.30555,"lon":5.3654,"is_reserved":false,"is_disabled":false,"rental_uris":{"android":"levelo://app?vid=ba94f5af-8633-4810-9811-c5e53b3760cb","ios":"levelo://app?vid=ba94f5af-8633-4810-9811-c5e53b3760cb"},"vehicle_type_id":"4","last_reported":1747116949,"current_range_meters":24000,"station_id":"ce4bgs12rcd13ifvqcag","pricing_plan_id":"cebpf4jnsgd1na2vs0mg"},{"bike_id":"48069bbe-c63f-4e66-aac9-b57b0558a5ee","system_id":"levelo_inurba_marseille","lat":43.30465,"lon":5.37907,"is_reserved":false,"is_disabled":false,"rental_uris":{"android":"levelo://app?vid=48069bbe-c63f-4e66-aac9-b57b0558a5ee","ios":"levelo://app?vid=48069bbe-c63f-4e66-aac9-b57b0558a5ee"},"vehicle_type_id":"4","last_reported":1747116949,"current_range_meters":24400,"station_id":"ce4bgup2rcd13ifvqcn0","pricing_plan_id":"cebpf4jnsgd1na2vs0mg"},{"bike_id":"93362b3f-2597-4629-a6d9-baa2de57db56","system_id":"levelo_inurba_marseille","lat":43.295116,"lon":5.394024,"is_reserved":false,"is_disabled":true,"rental_uris":{"android":"levelo://app?vid=93362b3f-2597-4629-a6d9-baa2de57db56","ios":"levelo://app?vid=93362b3f-2597-4629-a6d9-baa2de57db56"},"vehicle_type_id":"4","last_reported":1747116949,"current_range_meters":24400,"station_id":"ce4bh292rcd13ifvqdf0","pricing_plan_id":"cebpf4jnsgd1na2vs0mg"},{"bike_id":"2c8a7149-f445-410c-925a-8edbcf2ea25f","system_id":"levelo_inurba_marseille","lat":43.30538,"lon":5.36553,"is_reserved":false,"is_disabled":false,"rental_uris":{"android":"levelo://app?vid=2c8a7149-f445-410c-925a-8edbcf2ea25f","ios":"levelo://app?vid=2c8a7149-f445-410c-925a-8edbcf2ea25f"},"vehicle_type_id":"4","last_reported":1747116949,"current_range_meters":24400,"station_id":"ce4bgs12rcd13ifvqcag","pricing_plan_id":"cebpf4jnsgd1na2vs0mg"},{"bike_id":"b6c45f4c-eeb2-4fd7-8f28-b4190a551e65","system_id":"levelo_inurba_marseille","lat":43.24182,"lon":5.39724,"is_reserved":false,"is_disabled":false,"rental_uris":{"android":"levelo://app?vid=b6c45f4c-eeb2-4fd7-8f28-b4190a551e65","ios":"levelo://app?vid=b6c45f4c-eeb2-4fd7-8f28-b4190a551e65"},"vehicle_type_id":"4","last_reported":1747116949,"current_range_meters":24400,"station_id":"ce4bhn12rcd13ifvqgpg","pricing_plan_id":"cebpf4jnsgd1na2vs0mg"},{"bike_id":"942a6455-0f25-4fc4-93c2-3e6f157d0830","system_id":"levelo_inurba_marseille","lat":43.29046,"lon":5.39975,"is_reserved":false,"is_disabled":false,"rental_uris":{"android":"levelo://app?vid=942a6455-0f25-4fc4-93c2-3e6f157d0830","ios":"levelo://app?vid=942a6455-0f25-4fc4-93c2-3e6f157d0830"},"vehicle_type_id":"4","last_reported":1747116949,"current_range_meters":24400,"station_id":"ce4bh392rcd13ifvqdm0","pricing_plan_id":"cebpf4jnsgd1na2vs0mg"},{"bike_id":"7affee8a-ab3f-4a5a-9d31-297d05c8aa7b","system_id":"levelo_inurba_marseille","lat":43.30641,"lon":5.40073,"is_reserved":false,"is_disabled":false,"rental_uris":{"android":"levelo://app?vid=7affee8a-ab3f-4a5a-9d31-297d05c8aa7b","ios":"levelo://app?vid=7affee8a-ab3f-4a5a-9d31-297d05c8aa7b"},"vehicle_type_id":"4","last_reported":1747116949,"current_range_meters":24400,"station_id":"ce4bh112rcd13ifvqda0","pricing_plan_id":"cebpf4jnsgd1na2vs0mg"},{"bike_id":"c7fa4d62-c372-41b2-982b-967928c4d3a4","system_id":"levelo_inurba_marseille","lat":43.298025,"lon":5.381075,"is_reserved":false,"is_disabled":false,"rental_uris":{"android":"levelo://app?vid=c7fa4d62-c372-41b2-982b-967928c4d3a4","ios":"levelo://app?vid=c7fa4d62-c372-41b2-982b-967928c4d3a4"},"vehicle_type_id":"4","last_reported":1747116949,"current_range_meters":24400,"station_id":"ce4bgip2rcd13ifvqbb0","pricing_plan_id":"cebpf4jnsgd1na2vs0mg"},{"bike_id":"f0af08b4-97ab-496c-bdbe-5f634755ca69","system_id":"levelo_inurba_marseille","lat":43.23974,"lon":5.36604,"is_reserved":false,"is_disabled":false,"rental_uris":{"android":"levelo://app?vid=f0af08b4-97ab-496c-bdbe-5f634755ca69","ios":"levelo://app?vid=f0af08b4-97ab-496c-bdbe-5f634755ca69"},"vehicle_type_id":"4","last_reported":1747116949,"current_range_meters":24400,"station_id":"ce4bhi12rcd13ifvqfp0","pricing_plan_id":"cebpf4jnsgd1na2vs0mg"},{"bike_id":"9670f60b-d981-469e-87fd-010a1d3c3a6e","system_id":"levelo_inurba_marseille","lat":43.32098,"lon":5.36792,"is_reserved":false,"is_disabled":false,"rental_uris":{"android":"levelo://app?vid=9670f60b-d981-469e-87fd-010a1d3c3a6e","ios":"levelo://app?vid=9670f60b-d981-469e-87fd-010a1d3c3a6e"},"vehicle_type_id":"4","last_reported":1747116949,"current_range_meters":24400,"station_id":"ce4bhrh2rcd13ifvqhug","pricing_plan_id":"cebpf4jnsgd1na2vs0mg"},{"bike_id":"18556955-6e5e-44de-8de6-34b971734618","system_id":"levelo_inurba_marseille","lat":43.32112,"lon":5.36767,"is_reserved":false,"is_disabled":false,"rental_uris":{"android":"levelo://app?vid=18556955-6e5e-44de-8de6-34b971734618","ios":"levelo://app?vid=18556955-6e5e-44de-8de6-34b971734618"},"vehicle_type_id":"4","last_reported":1747116949,"current_range_meters":24800,"station_id":"ce4bhrh2rcd13ifvqhug","pricing_plan_id":"cebpf4jnsgd1na2vs0mg"},{"bike_id":"3d7a57b8-e15f-4786-b7e9-8bfcb063d6da","system_id":"levelo_inurba_marseille","lat":43.304705,"lon":5.37906,"is_reserved":false,"is_disabled":false,"rental_uris":{"android":"levelo://app?vid=3d7a57b8-e15f-4786-b7e9-8bfcb063d6da","ios":"levelo://app?vid=3d7a57b8-e15f-4786-b7e9-8bfcb063d6da"},"vehicle_type_id":"4","last_reported":1747116949,"current_range_meters":24800,"station_id":"ce4bgup2rcd13ifvqcn0","pricing_plan_id":"cebpf4jnsgd1na2vs0mg"},{"bike_id":"dcff9ecd-c529-43ce-8d3d-24b8a4d7e247","system_id":"levelo_inurba_marseille","lat":43.30548,"lon":5.36677,"is_reserved":false,"is_disabled":false,"rental_uris":{"android":"levelo://app?vid=dcff9ecd-c529-43ce-8d3d-24b8a4d7e247","ios":"levelo://app?vid=dcff9ecd-c529-43ce-8d3d-24b8a4d7e247"},"vehicle_type_id":"4","last_reported":1747116949,"current_range_meters":24800,"station_id":"ce4bgrp2rcd13ifvqc9g","pricing_plan_id":"cebpf4jnsgd1na2vs0mg"},{"bike_id":"6f779989-4881-454b-aebd-1adcb21c6957","system_id":"levelo_inurba_marseille","lat":43.2948,"lon":5.37507,"is_reserved":false,"is_disabled":true,"rental_uris":{"android":"levelo://app?vid=6f779989-4881-454b-aebd-1adcb21c6957","ios":"levelo://app?vid=6f779989-4881-454b-aebd-1adcb21c6957"},"vehicle_type_id":"4","last_reported":1747116949,"current_range_meters":24800,"station_id":"ce4bgkp2rcd13ifvqbmg","pricing_plan_id":"cebpf4jnsgd1na2vs0mg"},{"bike_id":"619af3fb-66fc-47cc-9bd5-383be6ecd77f","system_id":"levelo_inurba_marseille","lat":43.31088,"lon":5.42426,"is_reserved":false,"is_disabled":false,"rental_uris":{"android":"levelo://app?vid=619af3fb-66fc-47cc-9bd5-383be6ecd77f","ios":"levelo://app?vid=619af3fb-66fc-47cc-9bd5-383be6ecd77f"},"vehicle_type_id":"4","last_reported":1747116949,"current_range_meters":24400,"station_id":"ce4bhp92rcd13ifvqhag","pricing_plan_id":"cebpf4jnsgd1na2vs0mg"},{"bike_id":"520af330-0f68-46cd-954f-56b291da825e","system_id":"levelo_inurba_marseille","lat":43.29913,"lon":5.3749,"is_reserved":false,"is_disabled":false,"rental_uris":{"android":"levelo://app?vid=520af330-0f68-46cd-954f-56b291da825e","ios":"levelo://app?vid=520af330-0f68-46cd-954f-56b291da825e"},"vehicle_type_id":"4","last_reported":1747116949,"current_range_meters":24800,"station_id":"ce4bgjh2rcd13ifvqbg0","pricing_plan_id":"cebpf4jnsgd1na2vs0mg"},{"bike_id":"05cf6086-9201-4785-b47b-101f3186bfd0","system_id":"levelo_inurba_marseille","lat":43.337444,"lon":5.374475,"is_reserved":false,"is_disabled":false,"rental_uris":{"android":"levelo://app?vid=05cf6086-9201-4785-b47b-101f3186bfd0","ios":"levelo://app?vid=05cf6086-9201-4785-b47b-101f3186bfd0"},"vehicle_type_id":"4","last_reported":1747116949,"current_range_meters":24800,"station_id":"","pricing_plan_id":"cebpf4jnsgd1na2vs0mg"},{"bike_id":"c0b9fd4f-e181-46ce-b0bf-f5119973334f","system_id":"levelo_inurba_marseille","lat":43.33771,"lon":5.37424,"is_reserved":false,"is_disabled":false,"rental_uris":{"android":"levelo://app?vid=c0b9fd4f-e181-46ce-b0bf-f5119973334f","ios":"levelo://app?vid=c0b9fd4f-e181-46ce-b0bf-f5119973334f"},"vehicle_type_id":"4","last_reported":1747116949,"current_range_meters":24800,"station_id":"","pricing_plan_id":"cebpf4jnsgd1na2vs0mg"},{"bike_id":"2a1c8644-5ff0-4b10-b062-c419ae57850d","system_id":"levelo_inurba_marseille","lat":43.29428,"lon":5.39145,"is_reserved":false,"is_disabled":false,"rental_uris":{"android":"levelo://app?vid=2a1c8644-5ff0-4b10-b062-c419ae57850d","ios":"levelo://app?vid=2a1c8644-5ff0-4b10-b062-c419ae57850d"},