{"last_updated":1724620028,"ttl":30,"version":"2.2","data":{"bikes":[{"bike_id":"5226e437-f95f-4bba-8fb4-bdd86284ceb9","system_id":"levelo_inurba_marseille","lat":43.313391,"lon":5.36706,"is_reserved":false,"is_disabled":false,"rental_uris":{"android":"levelo://app?vid=5226e437-f95f-4bba-8fb4-bdd86284ceb9","ios":"levelo://app?vid=5226e437-f95f-4bba-8fb4-bdd86284ceb9"},"vehicle_type_id":"4","last_reported":1724620028,"current_range_meters":8400,"station_id":"ce4bgr92rcd13ifvqc6g","pricing_plan_id":"cebpf4jnsgd1na2vs0mg"},{"bike_id":"6d5fddc3-f9ed-4a0b-8f29-f74733a4cf94","system_id":"levelo_inurba_marseille","lat":43.309034,"lon":5.371783,"is_reserved":false,"is_disabled":false,"rental_uris":{"android":"levelo://app?vid=6d5fddc3-f9ed-4a0b-8f29-f74733a4cf94","ios":"levelo://app?vid=6d5fddc3-f9ed-4a0b-8f29-f74733a4cf94"},"vehicle_type_id":"4","last_reported":1724620028,"current_range_meters":8400,"station_id":"ce4bguh2rcd13ifvqckg","pricing_plan_id":"cebpf4jnsgd1na2vs0mg"},{"bike_id":"cc621f22-0226-40b4-8a8d-0506d06749e3","system_id":"levelo_inurba_marseille","lat":43.30143,"lon":5.37413,"is_reserved":false,"is_disabled":false,"rental_uris":{"android":"levelo://app?vid=cc621f22-0226-40b4-8a8d-0506d06749e3","ios":"levelo://app?vid=cc621f22-0226-40b4-8a8d-0506d06749e3"},"vehicle_type_id":"4","last_reported":1724620028,"current_range_meters":29600,"station_id":"ce4bgs92rcd13ifvqcc0","pricing_plan_id":"cebpf4jnsgd1na2vs0mg"},{"bike_id":"86818c37-2574-442a-8d60-f4bbd6d9f6c5","system_id":"levelo_inurba_marseille","lat":43.305712,"lon":5.365641,"is_reserved":false,"is_disabled":false,"rental_uris":{"android":"levelo://app?vid=86818c37-2574-442a-8d60-f4bbd6d9f6c5","ios":"levelo://app?vid=86818c37-2574-442a-8d60-f4bbd6d9f6c5"},"vehicle_type_id":"4","last_reported":1724620028,"current_range_meters":6800,"station_id":"ce4bgs12rcd13ifvqcag","pricing_plan_id":"cebpf4jnsgd1na2vs0mg"},{"bike_id":"ba979436-043d-41db-958a-f9be2287f71a","system_id":"levelo_inurba_marseille","lat":43.305712,"lon":5.365641,"is_reserved":false,"is_disabled":false,"rental_uris":{"android":"levelo://app?vid=ba979436-043d-41db-958a-f9be2287f71a","ios":"levelo://app?vid=ba979436-043d-41db-958a-f9be2287f71a"},"vehicle_type_id":"4","last_reported":1724620028,"current_range_meters":30800,"station_id":"ce4bgs12rcd13ifvqcag","pricing_plan_id":"cebpf4jnsgd1na2vs0mg"},{"bike_id":"eafafdf5-290e-44d7-ab2b-1983ebcbed09","system_id":"levelo_inurba_marseille","lat":43.30548,"lon":5.36538,"is_reserved":false,"is_disabled":false,"rental_uris":{"android":"levelo://app?vid=eafafdf5-290e-44d7-ab2b-1983ebcbed09","ios":"levelo://app?vid=eafafdf5-290e-44d7-ab2b-1983ebcbed09"},"vehicle_type_id":"4","last_reported":1724620028,"current_range_meters":21200,"station_id":"ce4bgs12rcd13ifvqcag","pricing_plan_id":"cebpf4jnsgd1na2vs0mg"},{"bike_id":"baa99a04-234c-44a6-89dd-8956c2cdbe85","system_id":"levelo_inurba_marseille","lat":43.30534,"lon":5.36549,"is_reserved":false,"is_disabled":false,"rental_uris":{"android":"levelo://app?vid=baa99a04-234c-44a6-89dd-8956c2cdbe85","ios":"levelo://app?vid=baa99a04-234c-44a6-89dd-8956c2cdbe85"},"vehicle_type_id":"4","last_reported":1724620028,"current_range_meters":9600,"station_id":"ce4bgs12rcd13ifvqcag","pricing_plan_id":"cebpf4jnsgd1na2vs0mg"},{"bike_id":"45363f9e-9c19-4541-87fd-5d3f73113011","system_id":"levelo_inurba_marseille","lat":43.30531,"lon":5.36539,"is_reserved":false,"is_disabled":false,"rental_uris":{"android":"levelo://app?vid=45363f9e-9c19-4541-87fd-5d3f73113011","ios":"levelo://app?vid=45363f9e-9c19-4541-87fd-5d3f73113011"},"vehicle_type_id":"4","last_reported":1724620028,"current_range_meters":10400,"station_id":"ce4bgs12rcd13ifvqcag","pricing_plan_id":"cebpf4jnsgd1na2vs0mg"},{"bike_id":"01659172-6035-4819-8099-72dd4dfd00f9","system_id":"levelo_inurba_marseille","lat":43.305989,"lon":5.37225,"is_reserved":false,"is_disabled":false,"rental_uris":{"android":"levelo://app?vid=01659172-6035-4819-8099-72dd4dfd00f9","ios":"levelo://app?vid=01659172-6035-4819-8099-72dd4dfd00f9"},"vehicle_type_id":"4","last_reported":1724620028,"current_range_meters":2000,"station_id":"ce4bgqh2rcd13ifvqc4g","pricing_plan_id":"cebpf4jnsgd1na2vs0mg"},{"bike_id":"7ed6ac00-2d8d-41bd-91d6-c6bf379a5db1","system_id":"levelo_inurba_marseille","lat":43.305989,"lon":5.37225,"is_reserved":false,"is_disabled":false,"rental_uris":{"android":"levelo://app?vid=7ed6ac00-2d8d-41bd-91d6-c6bf379a5db1","ios":"levelo://app?vid=7ed6ac00-2d8d-41bd-91d6-c6bf379a5db1"},"vehicle_type_id":"4","last_reported":1724620028,"current_range_meters":18000,"station_id":"ce4bgqh2rcd13ifvqc4g","pricing_plan_id":"cebpf4jnsgd1na2vs0mg"},{"bike_id":"609a47a3-1bd1-4371-b14e-109091e03ee6","system_id":"levelo_inurba_marseille","lat":43.311131,"lon":5.377651,"is_reserved":false,"is_disabled":false,"rental_uris":{"android":"levelo://app?vid=609a47a3-1bd1-4371-b14e-109091e03ee6","ios":"levelo://app?vid=609a47a3-1bd1-4371-b14e-109091e03ee6"},"vehicle_type_id":"4","last_reported":1724620028,"current_range_meters":31200,"station_id":"ce4bgt92rcd13ifvqcg0","pricing_plan_id":"cebpf4jnsgd1na2vs0mg"},{"bike_id":"ea651212-1816-4a78-a0a4-3ec6e1d70c79","system_id":"levelo_inurba_marseille","lat":43.311131,"lon":5.377651,"is_reserved":false,"is_disabled":false,"rental_uris":{"android":"levelo://app?vid=ea651212-1816-4a78-a0a4-3ec6e1d70c79","ios":"levelo://app?vid=ea651212-1816-4a78-a0a4-3ec6e1d70c79"},"vehicle_type_id":"4","last_reported":1724620028,"current_range_meters":15200,"station_id":"ce4bgt92rcd13ifvqcg0","pricing_plan_id":"cebpf4jnsgd1na2vs0mg"},{"bike_id":"59730a81-49e9-41ca-858b-75a0f01dc9ce","system_id":"levelo_inurba_marseille","lat":43.305712,"lon":5.365641,"is_reserved":false,"is_disabled":false,"rental_uris":{"android":"levelo://app?vid=59730a81-49e9-41ca-858b-75a0f01dc9ce","ios":"levelo://app?vid=59730a81-49e9-41ca-858b-75a0f01dc9ce"},"vehicle_type_id":"4","last_reported":1724620028,"current_range_meters":29200,"station_id":"ce4bgs12rcd13ifvqcag","pricing_plan_id":"cebpf4jnsgd1na2vs0mg"},{"bike_id":"f46e9a9d-6c21-4bb9-bab6-f6bd2bb58fb7","system_id":"levelo_inurba_marseille","lat":43.311131,"lon":5.377651,"is_reserved":false,"is_disabled":false,"rental_uris":{"android":"levelo://app?vid=f46e9a9d-6c21-4bb9-bab6-f6bd2bb58fb7","ios":"levelo://app?vid=f46e9a9d-6c21-4bb9-bab6-f6bd2bb58fb7"},"vehicle_type_id":"4","last_reported":1724620028,"current_range_meters":24000,"station_id":"ce4bgt92rcd13ifvqcg0","pricing_plan_id":"cebpf4jnsgd1na2vs0mg"},{"bike_id":"c948169e-b683-4206-b6e9-40086190c91a","system_id":"levelo_inurba_marseille","lat":43.30775,"lon":5.3765,"is_reserved":false,"is_disabled":false,"rental_uris":{"android":"levelo://app?vid=c948169e-b683-4206-b6e9-40086190c91a","ios":"levelo://app?vid=c948169e-b683-4206-b6e9-40086190c91a"},"vehicle_type_id":"4","last_reported":1724620028,"current_range_meters":0,"station_id":"ce4bgv92rcd13ifvqcq0","pricing_plan_id":"cebpf4jnsgd1na2vs0mg"},{"bike_id":"2bc22663-eda5-4826-9c7c-70a486ee2510","system_id":"levelo_inurba_marseille","lat":43.317075,"lon":5.377367,"is_reserved":false,"is_disabled":false,"rental_uris":{"android":"levelo://app?vid=2bc22663-eda5-4826-9c7c-70a486ee2510","ios":"levelo://app?vid=2bc22663-eda5-4826-9c7c-70a486ee2510"},"vehicle_type_id":"4","last_reported":1724620028,"current_range_meters":4000,"station_id":"ce4bgth2rcd13ifvqch0","pricing_plan_id":"cebpf4jnsgd1na2vs0mg"},{"bike_id":"8f9799e2-723a-474f-935d-729dd99659b4","system_id":"levelo_inurba_marseille","lat":43.311131,"lon":5.377651,"is_reserved":false,"is_disabled":false,"rental_uris":{"android":"levelo://app?vid=8f9799e2-723a-474f-935d-729dd99659b4","ios":"levelo://app?vid=8f9799e2-723a-474f-935d-729dd99659b4"},"vehicle_type_id":"4","last_reported":1724620028,"current_range_meters":22400,"station_id":"ce4bgt92rcd13ifvqcg0","pricing_plan_id":"cebpf4jnsgd1na2vs0mg"},{"bike_id":"f8866dbd-8e34-4b7a-9157-45f59ffcda26","system_id":"levelo_inurba_marseille","lat":43.279742,"lon":5.38744,"is_reserved":false,"is_disabled":false,"rental_uris":{"android":"levelo://app?vid=f8866dbd-8e34-4b7a-9157-45f59ffcda26","ios":"levelo://app?vid=f8866dbd-8e34-4b7a-9157-45f59ffcda26"},"vehicle_type_id":"4","last_reported":1724620028,"current_range_meters":22400,"station_id":"ce4bhg12rcd13ifvqf80","pricing_plan_id":"cebpf4jnsgd1na2vs0mg"},{"bike_id":"1053b0a9-d2ea-4bc9-adce-35a9b8a55731","system_id":"levelo_inurba_marseille","lat":43.303046,"lon":5.368981,"is_reserved":false,"is_disabled":false,"rental_uris":{"android":"levelo://app?vid=1053b0a9-d2ea-4bc9-adce-35a9b8a55731","ios":"levelo://app?vid=1053b0a9-d2ea-4bc9-adce-35a9b8a55731"},"vehicle_type_id":"4","last_reported":1724620028,"current_range_meters":7200,"station_id":"ce4bgqh2rcd13ifvqc5g","pricing_plan_id":"cebpf4jnsgd1na2vs0mg"},{"bike_id":"c871d83d-49b3-41ef-99ea-f955b1915f63","system_id":"levelo_inurba_marseille","lat":43.303046,"lon":5.368981,"is_reserved":false,"is_disabled":false,"rental_uris":{"android":"levelo://app?vid=c871d83d-49b3-41ef-99ea-f955b1915f63","ios":"levelo://app?vid=c871d83d-49b3-41ef-99ea-f955b1915f63"},"vehicle_type_id":"4","last_reported":1724620028,"current_range_meters":8000,"station_id":"ce4bgqh2rcd13ifvqc5g","pricing_plan_id":"cebpf4jnsgd1na2vs0mg"},{"bike_id":"8759b9ee-6252-4e11-a005-3a536f9a4cf3","system_id":"levelo_inurba_marseille","lat":43.301939,"lon":5.366286,"is_reserved":false,"is_disabled":false,"rental_uris":{"android":"levelo://app?vid=8759b9ee-6252-4e11-a005-3a536f9a4cf3","ios":"levelo://app?vid=8759b9ee-6252-4e11-a005-3a536f9a4cf3"},"vehicle_type_id":"4","last_reported":1724620028,"current_range_meters":14000,"station_id":"ce4bgrh2rcd13ifvqc8g","pricing_plan_id":"cebpf4jnsgd1na2vs0mg"},{"bike_id":"21b7aaef-460d-4185-b1aa-34e5d59960b4","system_id":"levelo_inurba_marseille","lat":43.303046,"lon":5.368981,"is_reserved":false,"is_disabled":false,"rental_uris":{"android":"levelo://app?vid=21b7aaef-460d-4185-b1aa-34e5d59960b4","ios":"levelo://app?vid=21b7aaef-460d-4185-b1aa-34e5d59960b4"},"vehicle_type_id":"4","last_reported":1724620028,"current_range_meters":10800,"station_id":"ce4bgqh2rcd13ifvqc5g","pricing_plan_id":"cebpf4jnsgd1na2vs0mg"},{"bike_id":"d22fde8f-61a8-4ba7-aabf-c5840fc7206c","system_id":"levelo_inurba_marseille","lat":43.31523,"lon":5.380373,"is_reserved":false,"is_disabled":false,"rental_uris":{"android":"levelo://app?vid=d22fde8f-61a8-4ba7-aabf-c5840fc7206c","ios":"levelo://app?vid=d22fde8f-61a8-4ba7-aabf-c5840fc7206c"},"vehicle_type_id":"4","last_reported":1724620028,"current_range_meters":0,"station_id":"ce4bhsp2rcd13ifvqi50","pricing_plan_id":"cebpf4jnsgd1na2vs0mg"},{"bike_id":"c7d42f03-2453-4ee0-b47e-2c9751103fd7","system_id":"levelo_inurba_marseille","lat":43.315289,"lon":5.380349,"is_reserved":false,"is_disabled":false,"rental_uris":{"android":"levelo://app?vid=c7d42f03-2453-4ee0-b47e-2c9751103fd7","ios":"levelo://app?vid=c7d42f03-2453-4ee0-b47e-2c9751103fd7"},"vehicle_type_id":"4","last_reported":1724620028,"current_range_meters":18400,"station_id":"ce4bhsp2rcd13ifvqi50","pricing_plan_id":"cebpf4jnsgd1na2vs0mg"},{"bike_id":"fd3fe435-ace9-45e1-8c2e-6b9860e82c6d","system_id":"levelo_inurba_marseille","lat":43.301939,"lon":5.366286,"is_reserved":false,"is_disabled":false,"rental_uris":{"android":"levelo://app?vid=fd3fe435-ace9-45e1-8c2e-6b9860e82c6d","ios":"levelo://app?vid=fd3fe435-ace9-45e1-8c2e-6b9860e82c6d"},"vehicle_type_id":"4","last_reported":1724620028,"current_range_meters":30000,"station_id":"ce4bgrh2rcd13ifvqc8g","pricing_plan_id":"cebpf4jnsgd1na2vs0mg"},{"bike_id":"38deeee8-1dc9-4c39-9cba-8c03a1bd2ba0","system_id":"levelo_inurba_marseille","lat":43.308012,"lon":5.381511,"is_reserved":false,"is_disabled":false,"rental_uris":{"android":"levelo://app?vid=38deeee8-1dc9-4c39-9cba-8c03a1bd2ba0","ios":"levelo://app?vid=38deeee8-1dc9-4c39-9cba-8c03a1bd2ba0"},"vehicle_type_id":"4","last_reported":1724620028,"current_range_meters":20800,"station_id":"ce4bgt12rcd13ifvqce0","pricing_plan_id":"cebpf4jnsgd1na2vs0mg"},{"bike_id":"92e39338-d4e8-4e62-be85-350ffe1329c4","system_id":"levelo_inurba_marseille","lat":43.308012,"lon":5.381511,"is_reserved":false,"is_disabled":false,"rental_uris":{"android":"levelo://app?vid=92e39338-d4e8-4e62-be85-350ffe1329c4","ios":"levelo://app?vid=92e39338-d4e8-4e62-be85-350ffe1329c4"},"vehicle_type_id":"4","last_reported":1724620028,"current_range_meters":27600,"station_id":"ce4bgt12rcd13ifvqce0","pricing_plan_id":"cebpf4jnsgd1na2vs0mg"},{"bike_id":"07319454-c582-44bd-bd69-481568178fa6","system_id":"levelo_inurba_marseille","lat":43.308012,"lon":5.381511,"is_reserved":false,"is_disabled":false,"rental_uris":{"android":"levelo://app?vid=07319454-c582-44bd-bd69-481568178fa6","ios":"levelo://app?vid=07319454-c582-44bd-bd69-481568178fa6"},"vehicle_type_id":"4","last_reported":1724620028,"current_range_meters":31200,"station_id":"ce4bgt12rcd13ifvqce0","pricing_plan_id":"cebpf4jnsgd1na2vs0mg"},{"bike_id":"fb8b936f-a0ad-480e-afc5-3e5cc98b2cb6","system_id":"levelo_inurba_marseille","lat":43.308012,"lon":5.381511,"is_reserved":false,"is_disabled":false,"rental_uris":{"android":"levelo://app?vid=fb8b936f-a0ad-480e-afc5-3e5cc98b2cb6","ios":"levelo://app?vid=fb8b936f-a0ad-480e-afc5-3e5cc98b2cb6"},"vehicle_type_id":"4","last_reported":1724620028,"current_range_meters":12000,"station_id":"ce4bgt12rcd13ifvqce0","pricing_plan_id":"cebpf4jnsgd1na2vs0mg"},{"bike_id":"db0f3a31-3c05-4b3c-b5e8-ad112376e149","system_id":"levelo_inurba_marseille","lat":43.324771,"lon":5.36557,"is_reserved":false,"is_disabled":false,"rental_uris":{"android":"levelo://app?vid=db0f3a31-3c05-4b3c-b5e8-ad112376e149","ios":"levelo://app?vid=db0f3a31-3c05-4b3c-b5e8-ad112376e149"},"vehicle_type_id":"4","last_reported":1724620028,"current_range_meters":3200,"station_id":"ce4bhs12rcd13ifvqhvg","pricing_plan_id":"cebpf4jnsgd1na2vs0mg"},{"bike_id":"c30c57e5-e6a4-4301-8c1f-bb1d7a5e5a91","system_id":"levelo_inurba_marseille","lat":43.32473,"lon":5.3658,"is_reserved":false,"is_disabled":false,"rental_uris":{"android":"levelo://app?vid=c30c57e5-e6a4-4301-8c1f-bb1d7a5e5a91","ios":"levelo://app?vid=c30c57e5-e6a4-4301-8c1f-bb1d7a5e5a91"},"vehicle_type_id":"4","last_reported":1724620028,"current_range_meters":20400,"station_id":"ce4bhs12rcd13ifvqhvg","pricing_plan_id":"cebpf4jnsgd1na2vs0mg"},{"bike_id":"971c6e7e-e5a4-448f-8ae5-baf76426d7c4","system_id":"levelo_inurba_marseille","lat":43.304606,"lon":5.379026,"is_reserved":false,"is_disabled":false,"rental_uris":{"android":"levelo://app?vid=971c6e7e-e5a4-448f-8ae5-baf76426d7c4","ios":"levelo://app?vid=971c6e7e-e5a4-448f-8ae5-baf76426d7c4"},"vehicle_type_id":"4","last_reported":1724620028,"current_range_meters":20800,"station_id":"ce4bgup2rcd13ifvqcn0","pricing_plan_id":"cebpf4jnsgd1na2vs0mg"},{"bike_id":"f670ca59-ce41-4a3a-aa0a-08446ed8640d","system_id":"levelo_inurba_marseille","lat":43.324771,"lon":5.36557,"is_reserved":false,"is_disabled":false,"rental_uris":{"android":"levelo://app?vid=f670ca59-ce41-4a3a-aa0a-08446ed8640d","ios":"levelo://app?vid=f670ca59-ce41-4a3a-aa0a-08446ed8640d"},"vehicle_type_id":"4","last_reported":1724620028,"current_range_meters":15600,"station_id":"ce4bhs12rcd13ifvqhvg","pricing_plan_id":"cebpf4jnsgd1na2vs0mg"},{"bike_id":"58f17ab3-49fd-4c96-9c92-dd6ccaa1e784","system_id":"levelo_inurba_marseille","lat":43.324771,"lon":5.36557,"is_reserved":false,"is_disabled":false,"rental_uris":{"android":"levelo://app?vid=58f17ab3-49fd-4c96-9c92-dd6ccaa1e784","ios":"levelo://app?vid=58f17ab3-49fd-4c96-9c92-dd6ccaa1e784"},"vehicle_type_id":"4","last_reported":1724620028,"current_range_meters":7600,"station_id":"ce4bhs12rcd13ifvqhvg","pricing_plan_id":"cebpf4jnsgd1na2vs0mg"},{"bike_id":"9e2a8d51-e2ab-4c34-b5e7-eeff80380caf","system_id":"levelo_inurba_marseille","lat":43.324771,"lon":5.36557,"is_reserved":false,"is_disabled":false,"rental_uris":{"android":"levelo://app?vid=9e2a8d51-e2ab-4c34-b5e7-eeff80380caf","ios":"levelo://app?vid=9e2a8d51-e2ab-4c34-b5e7-eeff80380caf"},"vehicle_type_id":"4","last_reported":1724620028,"current_range_meters":18000,"station_id":"ce4bhs12rcd13ifvqhvg","pricing_plan_id":"cebpf4jnsgd1na2vs0mg"},{"bike_id":"85b01fa3-5478-4e13-af9f-aa805921c297","system_id":"levelo_inurba_marseille","lat":43.324771,"lon":5.36557,"is_reserved":false,"is_disabled":false,"rental_uris":{"android":"levelo://app?vid=85b01fa3-5478-4e13-af9f-aa805921c297","ios":"levelo://app?vid=85b01fa3-5478-4e13-af9f-aa805921c297"},"vehicle_type_id":"4","last_reported":1724620028,"current_range_meters":7600,"station_id":"ce4bhs12rcd13ifvqhvg","pricing_plan_id":"cebpf4jnsgd1na2vs0mg"},{"bike_id":"4b068ad2-1221-4476-9487-2b7eb5619d8a","system_id":"levelo_inurba_marseille","lat":43.31366,"lon":5.38364,"is_reserved":false,"is_disabled":false,"rental_uris":{"android":"levelo://app?vid=4b068ad2-1221-4476-9487-2b7eb5619d8a","ios":"levelo://app?vid=4b068ad2-1221-4476-9487-2b7eb5619d8a"},"vehicle_type_id":"4","last_reported":1724620028,"current_range_meters":0,"station_id":"","pricing_plan_id":"cebpf4jnsgd1na2vs0mg"},{"bike_id":"7d1dc12e-4c55-4565-8d4f-4b40b920aaf1","system_id":"levelo_inurba_marseille","lat":43.310804,"lon":5.38359,"is_reserved":false,"is_disabled":false,"rental_uris":{"android":"levelo://app?vid=7d1dc12e-4c55-4565-8d4f-4b40b920aaf1","ios":"levelo://app?vid=7d1dc12e-4c55-4565-8d4f-4b40b920aaf1"},"vehicle_type_id":"4","last_reported":1724620028,"current_range_meters":31200,"station_id":"ce4bgv92rcd13ifvqcr0","pricing_plan_id":"cebpf4jnsgd1na2vs0mg"},{"bike_id":"86dc5332-634d-4017-823b-2c688fe874bc","system_id":"levelo_inurba_marseille","lat":43.310804,"lon":5.38359,"is_reserved":false,"is_disabled":false,"rental_uris":{"android":"levelo://app?vid=86dc5332-634d-4017-823b-2c688fe874bc","ios":"levelo://app?vid=86dc5332-634d-4017-823b-2c688fe874bc"},"vehicle_type_id":"4","last_reported":1724620028,"current_range_meters":18800,"station_id":"ce4bgv92rcd13ifvqcr0","pricing_plan_id":"cebpf4jnsgd1na2vs0mg"},{"bike_id":"e4e67f1d-7f12-4a2f-b995-2434dfbe0f10","system_id":"levelo_inurba_marseille","lat":43.301429,"lon":5.37413,"is_reserved":false,"is_disabled":false,"rental_uris":{"android":"levelo://app?vid=e4e67f1d-7f12-4a2f-b995-2434dfbe0f10","ios":"levelo://app?vid=e4e67f1d-7f12-4a2f-b995-2434dfbe0f10"},"vehicle_type_id":"4","last_reported":1724620028,"current_range_meters":11200,"station_id":"ce4bgs92rcd13ifvqcc0","pricing_plan_id":"cebpf4jnsgd1na2vs0mg"},{"bike_id":"6dca9155-3fa7-454c-abf1-4c38737df2ed","system_id":"levelo_inurba_marseille","lat":43.301429,"lon":5.37413,"is_reserved":false,"is_disabled":false,"rental_uris":{"android":"levelo://app?vid=6dca9155-3fa7-454c-abf1-4c38737df2ed","ios":"levelo://app?vid=6dca9155-3fa7-454c-abf1-4c38737df2ed"},"vehicle_type_id":"4","last_reported":1724620028,"current_range_meters":19200,"station_id":"ce4bgs92rcd13ifvqcc0","pricing_plan_id":"cebpf4jnsgd1na2vs0mg"},{"bike_id":"0509c888-846b-4ef0-bea6-9b36817e7760","system_id":"levelo_inurba_marseille","lat":43.319651,"lon":5.381509,"is_reserved":false,"is_disabled":false,"rental_uris":{"android":"levelo://app?vid=0509c888-846b-4ef0-bea6-9b36817e7760","ios":"levelo://app?vid=0509c888-846b-4ef0-bea6-9b36817e7760"},"vehicle_type_id":"4","last_reported":1724620028,"current_range_meters":6400,"station_id":"ce4bhr12rcd13ifvqhpg","pricing_plan_id":"cebpf4jnsgd1na2vs0mg"},{"bike_id":"5736ed4e-9dc7-4fa5-90a1-403587840cbd","system_id":"levelo_inurba_marseille","lat":43.319935,"lon":5.381699,"is_reserved":false,"is_disabled":false,"rental_uris":{"android":"levelo://app?vid=5736ed4e-9dc7-4fa5-90a1-403587840cbd","ios":"levelo://app?vid=5736ed4e-9dc7-4fa5-90a1-403587840cbd"},"vehicle_type_id":"4","last_reported":1724620028,"current_range_meters":25200,"station_id":"ce4bhr12rcd13ifvqhpg","pricing_plan_id":"cebpf4jnsgd1na2vs0mg"},{"bike_id":"585da6d7-cf3a-4419-85d1-36ed88740a5f","system_id":"levelo_inurba_marseille","lat":43.319935,"lon":5.381699,"is_reserved":false,"is_disabled":false,"rental_uris":{"android":"levelo://app?vid=585da6d7-cf3a-4419-85d1-36ed88740a5f","ios":"levelo://app?vid=585da6d7-cf3a-4419-85d1-36ed88740a5f"},"vehicle_type_id":"4","last_reported":1724620028,"current_range_meters":23200,"station_id":"ce4bhr12rcd13ifvqhpg","pricing_plan_id":"cebpf4jnsgd1na2vs0mg"},{"bike_id":"1f04bba8-328e-4639-b46e-6ed338c232dc","system_id":"levelo_inurba_marseille","lat":43.319935,"lon":5.381699,"is_reserved":false,"is_disabled":false,"rental_uris":{"android":"levelo://app?vid=1f04bba8-328e-4639-b46e-6ed338c232dc","ios":"levelo://app?vid=1f04bba8-328e-4639-b46e-6ed338c232dc"},"vehicle_type_id":"4","last_reported":1724620028,"current_range_meters":21200,"station_id":"ce4bhr12rcd13ifvqhpg","pricing_plan_id":"cebpf4jnsgd1na2vs0mg"},{"bike_id":"062289a5-ae57-4c62-befe-6f1a402f7d92","system_id":"levelo_inurba_marseille","lat":43.319935,"lon":5.381699,"is_reserved":false,"is_disabled":false,"rental_uris":{"android":"levelo://app?vid=062289a5-ae57-4c62-befe-6f1a402f7d92","ios":"levelo://app?vid=062289a5-ae57-4c62-befe-6f1a402f7d92"},"vehicle_type_id":"4","last_reported":1724620028,"current_range_meters":12000,"station_id":"ce4bhr12rcd13ifvqhpg","pricing_plan_id":"cebpf4jnsgd1na2vs0mg"},{"bike_id":"fffe9636-b66c-41c5-8f36-4a1eb2aec921","system_id":"levelo_inurba_marseille","lat":43.313571,"lon":5.384829,"is_reserved":false,"is_disabled":false,"rental_uris":{"android":"levelo://app?vid=fffe9636-b66c-41c5-8f36-4a1eb2aec921","ios":"levelo://app?vid=fffe9636-b66c-41c5-8f36-4a1eb2aec921"},"vehicle_type_id":"4","last_reported":1724620028,"current_range_meters":26800,"station_id":"ce4bgt92rcd13ifvqcf0","pricing_plan_id":"cebpf4jnsgd1na2vs0mg"},{"bike_id":"395b9d4f-aa7a-403c-b9c4-70f02aec1a42","system_id":"levelo_inurba_marseille","lat":43.313571,"lon":5.384829,"is_reserved":false,"is_disabled":false,"rental_uris":{"android":"levelo://app?vid=395b9d4f-aa7a-403c-b9c4-70f02aec1a42","ios":"levelo://app?vid=395b9d4f-aa7a-403c-b9c4-70f02aec1a42"},"vehicle_type_id":"4","last_reported":1724620028,"current_range_meters":23200,"station_id":"ce4bgt92rcd13ifvqcf0","pricing_plan_id":"cebpf4jnsgd1na2vs0mg"},{"bike_id":"820defe7-e862-46e2-acaa-f5030965a1fa","system_id":"levelo_inurba_marseille","lat":43.313571,"lon":5.384829,"is_reserved":false,"is_disabled":false,"rental_uris":{"android":"levelo://app?vid=820defe7-e862-46e2-acaa-f5030965a1fa","ios":"levelo://app?vid=820defe7-e862-46e2-acaa-f5030965a1fa"},"vehicle_type_id":"4","last_reported":1724620028,"current_range_meters":29200,"station_id":"ce4bgt92rcd13ifvqcf0","pricing_plan_id":"cebpf4jnsgd1na2vs0mg"},{"bike_id":"6329e16e-1932-421b-9416-c9e9acc27e81","system_id":"levelo_inurba_marseille","lat":43.299724,"lon":5.371829,"is_reserved":false,"is_disabled":false,"rental_uris":{"android":"levelo://app?vid=6329e16e-1932-421b-9416-c9e9acc27e81","ios":"levelo://app?vid=6329e16e-1932-421b-9416-c9e9acc27e81"},"vehicle_type_id":"4","last_reported":1724620028,"current_range_meters":17200,"station_id":"ce4bgr92rcd13ifvqc7g","pricing_plan_id":"cebpf4jnsgd1na2vs0mg"},{"bike_id":"e1d9b682-ab27-4a33-91fe-9b9d38102ec8","system_id":"levelo_inurba_marseille","lat":43.299724,"lon":5.371829,"is_reserved":false,"is_disabled":false,"rental_uris":{"android":"levelo://app?vid=e1d9b682-ab27-4a33-91fe-9b9d38102ec8","ios":"levelo://app?vid=e1d9b682-ab27-4a33-91fe-9b9d38102ec8"},"vehicle_type_id":"4","last_reported":1724620028,"current_range_meters":7600,"station_id":"ce4bgr92rcd13ifvqc7g","pricing_plan_id":"cebpf4jnsgd1na2vs0mg"},{"bike_id":"ae82b2df-fa9a-4cde-8e36-cdbb0eda4762","system_id":"levelo_inurba_marseille","lat":43.29901,"lon":5.36363,"is_reserved":false,"is_disabled":false,"rental_uris":{"android":"levelo://app?vid=ae82b2df-fa9a-4cde-8e36-cdbb0eda4762","ios":"levelo://app?vid=ae82b2df-fa9a-4cde-8e36-cdbb0eda4762"},"vehicle_type_id":"4","last_reported":1724620028,"current_range_meters":21600,"station_id":"","pricing_plan_id":"cebpf4jnsgd1na2vs0mg"},{"bike_id":"a9c09d90-4bfa-4bad-a70f-34f1ab00cede","system_id":"levelo_inurba_marseille","lat":43.311722,"lon":5.387247,"is_reserved":false,"is_disabled":false,"rental_uris":{"android":"levelo://app?vid=a9c09d90-4bfa-4bad-a70f-34f1ab00cede","ios":"levelo://app?vid=a9c09d90-4bfa-4bad-a70f-34f1ab00cede"},"vehicle_type_id":"4","last_reported":1724620028,"current_range_meters":26400,"station_id":"ce4bgv12rcd13ifvqcp0","pricing_plan_id":"cebpf4jnsgd1na2vs0mg"},{"bike_id":"b132fe83-634b-4bcd-9099-7ac8c294f73a","system_id":"levelo_inurba_marseille","lat":43.311722,"lon":5.387247,"is_reserved":false,"is_disabled":false,"rental_uris":{"android":"levelo://app?vid=b132fe83-634b-4bcd-9099-7ac8c294f73a","ios":"levelo://app?vid=b132fe83-634b-4bcd-9099-7ac8c294f73a"},"vehicle_type_id":"4","last_reported":1724620028,"current_range_meters":7600,"station_id":"ce4bgv12rcd13ifvqcp0","pricing_plan_id":"cebpf4jnsgd1na2vs0mg"},{"bike_id":"43576a8d-30b7-45c4-8cc3-3281c65252f4","system_id":"levelo_inurba_marseille","lat":43.311722,"lon":5.387247,"is_reserved":false,"is_disabled":false,"rental_uris":{"android":"levelo://app?vid=43576a8d-30b7-45c4-8cc3-3281c65252f4","ios":"levelo://app?vid=43576a8d-30b7-45c4-8cc3-3281c65252f4"},"vehicle_type_id":"4","last_reported":1724620028,"current_range_meters":31200,"station_id":"ce4bgv12rcd13ifvqcp0","pricing_plan_id":"cebpf4jnsgd1na2vs0mg"},{"bike_id":"dbad5375-05c7-4907-815f-e5beef0576df","system_id":"levelo_inurba_marseille","lat":43.311722,"lon":5.387247,"is_reserved":false,"is_disabled":false,"rental_uris":{"android":"levelo://app?vid=dbad5375-05c7-4907-815f-e5beef0576df","ios":"levelo://app?vid=dbad5375-05c7-4907-815f-e5beef0576df"},"vehicle_type_id":"4","last_reported":1724620028,"current_range_meters":24800,"station_id":"ce4bgv12rcd13ifvqcp0","pricing_plan_id":"cebpf4jnsgd1na2vs0mg"},{"bike_id":"8e0d5b91-2afd-4568-ba39-7e3ebfc932c7","system_id":"levelo_inurba_marseille","lat":43.311722,"lon":5.387247,"is_reserved":false,"is_disabled":false,"rental_uris":{"android":"levelo://app?vid=8e0d5b91-2afd-4568-ba39-7e3ebfc932c7","ios":"levelo://app?vid=8e0d5b91-2afd-4568-ba39-7e3ebfc932c7"},"vehicle_type_id":"4","last_reported":1724620028,"current_range_meters":31200,"station_id":"ce4bgv12rcd13ifvqcp0","pricing_plan_id":"cebpf4jnsgd1na2vs0mg"},{"bike_id":"fdc185ab-6d08-4ccb-8fd3-1e1370a36190","system_id":"levelo_inurba_marseille","lat":43.311722,"lon":5.387247,"is_reserved":false,"is_disabled":false,"rental_uris":{"android":"levelo://app?vid=fdc185ab-6d08-4ccb-8fd3-1e1370a36190","ios":"levelo://app?vid=fdc185ab-6d08-4ccb-8fd3-1e1370a36190"},"vehicle_type_id":"4","last_reported":1724620028,"current_range_meters":12400,"station_id":"ce4bgv12rcd13ifvqcp0","pricing_plan_id":"cebpf4jnsgd1na2vs0mg"},{"bike_id":"d7dbcbc4-6ae6-475d-820f-ef7620850b09","system_id":"levelo_inurba_marseille","lat":43.311722,"lon":5.387247,"is_reserved":false,"is_disabled":false,"rental_uris":{"android":"levelo://app?vid=d7dbcbc4-6ae6-475d-820f-ef7620850b09","ios":"levelo://app?vid=d7dbcbc4-6ae6-475d-820f-ef7620850b09"},"vehicle_type_id":"4","last_reported":1724620028,"current_range_meters":15600,"station_id":"ce4bgv12rcd13ifvqcp0","pricing_plan_id":"cebpf4jnsgd1na2vs0mg"},{"bike_id":"0898351a-65b8-4305-a36a-ba057ed9d43d","system_id":"levelo_inurba_marseille","lat":43.311722,"lon":5.387247,"is_reserved":false,"is_disabled":false,"rental_uris":{"android":"levelo://app?vid=0898351a-65b8-4305-a36a-ba057ed9d43d","ios":"levelo://app?vid=0898351a-65b8-4305-a36a-ba057ed9d43d"},"vehicle_type_id":"4","last_reported":1724620028,"current_range_meters":27600,"station_id":"ce4bgv12rcd13ifvqcp0","pricing_plan_id":"cebpf4jnsgd1na2vs0mg"},{"bike_id":"047eff78-1882-4999-b192-8225710cf58e","system_id":"levelo_inurba_marseille","lat":43.30026,"lon":5.37819,"is_reserved":false,"is_disabled":false,"rental_uris":{"android":"levelo://app?vid=047eff78-1882-4999-b192-8225710cf58e","ios":"levelo://app?vid=047eff78-1882-4999-b192-8225710cf58e"},"vehicle_type_id":"4","last_reported":1724620028,"current_range_meters":11200,"station_id":"","pricing_plan_id":"cebpf4jnsgd1na2vs0mg"},{"bike_id":"7455ba0a-046a-49b7-8b72-b2fa298915ea","system_id":"levelo_inurba_marseille","lat":43.301417,"lon":5.3809,"is_reserved":false,"is_disabled":false,"rental_uris":{"android":"levelo://app?vid=7455ba0a-046a-49b7-8b72-b2fa298915ea","ios":"levelo://app?vid=7455ba0a-046a-49b7-8b72-b2fa298915ea"},"vehicle_type_id":"4","last_reported":1724620028,"current_range_meters":30000,"station_id":"ce4bgjp2rcd13ifvqbh0","pricing_plan_id":"cebpf4jnsgd1na2vs0mg"},{"bike_id":"1600b445-4c74-401c-8ded-fbe3246e677e","system_id":"levelo_inurba_marseille","lat":43.32287,"lon":5.38269,"is_reserved":false,"is_disabled":false,"rental_uris":{"android":"levelo://app?vid=1600b445-4c74-401c-8ded-fbe3246e677e","ios":"levelo://app?vid=1600b445-4c74-401c-8ded-fbe3246e677e"},"vehicle_type_id":"4","last_reported":1724620028,"current_range_meters":24000,"station_id":"ce4bhr12rcd13ifvqhqg","pricing_plan_id":"cebpf4jnsgd1na2vs0mg"},{"bike_id":"2059d4c4-51f5-410e-9afb-5701f3ac3f3a","system_id":"levelo_inurba_marseille","lat":43.32287,"lon":5.3827,"is_reserved":false,"is_disabled":false,"rental_uris":{"android":"levelo://app?vid=2059d4c4-51f5-410e-9afb-5701f3ac3f3a","ios":"levelo://app?vid=2059d4c4-51f5-410e-9afb-5701f3ac3f3a"},"vehicle_type_id":"4","last_reported":1724620028,"current_range_meters":3600,"station_id":"ce4bhr12rcd13ifvqhqg","pricing_plan_id":"cebpf4jnsgd1na2vs0mg"},{"bike_id":"43637faa-bc57-4af9-9031-ccf7137dafc6","system_id":"levelo_inurba_marseille","lat":43.32289,"lon":5.38268,"is_reserved":false,"is_disabled":false,"rental_uris":{"android":"levelo://app?vid=43637faa-bc57-4af9-9031-ccf7137dafc6","ios":"levelo://app?vid=43637faa-bc57-4af9-9031-ccf7137dafc6"},"vehicle_type_id":"4","last_reported":1724620028,"current_range_meters":17600,"station_id":"ce4bhr12rcd13ifvqhqg","pricing_plan_id":"cebpf4jnsgd1na2vs0mg"},{"bike_id":"8f5cf47f-a4b4-4766-afa5-715d740b61c9","system_id":"levelo_inurba_marseille","lat":43.322872,"lon":5.382756,"is_reserved":false,"is_disabled":false,"rental_uris":{"android":"levelo://app?vid=8f5cf47f-a4b4-4766-afa5-715d740b61c9","ios":"levelo://app?vid=8f5cf47f-a4b4-4766-afa5-715d740b61c9"},"vehicle_type_id":"4","last_reported":1724620028,"current_range_meters":23200,"station_id":"ce4bhr12rcd13ifvqhqg","pricing_plan_id":"cebpf4jnsgd1na2vs0mg"},{"bike_id":"562cf404-c2e2-4eec-84ba-16992be67cca","system_id":"levelo_inurba_marseille","lat":43.322872,"lon":5.382756,"is_reserved":false,"is_disabled":false,"rental_uris":{"android":"levelo://app?vid=562cf404-c2e2-4eec-84ba-16992be67cca","ios":"levelo://app?vid=562cf404-c2e2-4eec-84ba-16992be67cca"},"vehicle_type_id":"4","last_reported":1724620028,"current_range_meters":20400,"station_id":"ce4bhr12rcd13ifvqhqg","pricing_plan_id":"cebpf4jnsgd1na2vs0mg"},{"bike_id":"9d463c10-4f62-4795-a9e4-99e0d13224f9","system_id":"levelo_inurba_marseille","lat":43.322872,"lon":5.382756,"is_reserved":false,"is_disabled":false,"rental_uris":{"android":"levelo://app?vid=9d463c10-4f62-4795-a9e4-99e0d13224f9","ios":"levelo://app?vid=9d463c10-4f62-4795-a9e4-99e0d13224f9"},"vehicle_type_id":"4","last_reported":1724620028,"current_range_meters":29600,"station_id":"ce4bhr12rcd13ifvqhqg","pricing_plan_id":"cebpf4jnsgd1na2vs0mg"},{"bike_id":"9fc41c12-f3d1-43b3-bb79-6bccbc185963","system_id":"levelo_inurba_marseille","lat":43.297163,"lon":5.365866,"is_reserved":false,"is_disabled":false,"rental_uris":{"android":"levelo://app?vid=9fc41c12-f3d1-43b3-bb79-6bccbc185963","ios":"levelo://app?vid=9fc41c12-f3d1-43b3-bb79-6bccbc185963"},"vehicle_type_id":"4","last_reported":1724620028,"current_range_meters":12800,"station_id":"ce4bgn12rcd13ifvqbt0","pricing_plan_id":"cebpf4jnsgd1na2vs0mg"},{"bike_id":"f1576687-b65b-4272-acca-d8b64a7e8bb3","system_id":"levelo_inurba_marseille","lat":43.297163,"lon":5.365866,"is_reserved":false,"is_disabled":false,"rental_uris":{"android":"levelo://app?vid=f1576687-b65b-4272-acca-d8b64a7e8bb3","ios":"levelo://app?vid=f1576687-b65b-4272-acca-d8b64a7e8bb3"},"vehicle_type_id":"4","last_reported":1724620028,"current_range_meters":30400,"station_id":"ce4bgn12rcd13ifvqbt0","pricing_plan_id":"cebpf4jnsgd1na2vs0mg"},{"bike_id":"22fb7960-fc42-4bcf-bf67-fbe145ad83f0","system_id":"levelo_inurba_marseille","lat":43.305364,"lon":5.384119,"is_reserved":false,"is_disabled":false,"rental_uris":{"android":"levelo://app?vid=22fb7960-fc42-4bcf-bf67-fbe145ad83f0","ios":"levelo://app?vid=22fb7960-fc42-4bcf-bf67-fbe145ad83f0"},"vehicle_type_id":"4","last_reported":1724620028,"current_range_meters":6000,"station_id":"ce4bgg92rcd13ifvqb30","pricing_plan_id":"cebpf4jnsgd1na2vs0mg"},{"bike_id":"0f80e4a7-dd24-4bcb-898e-d82ea20cfec9","system_id":"levelo_inurba_marseille","lat":43.2963,"lon":5.36031,"is_reserved":false,"is_disabled":false,"rental_uris":{"android":"levelo://app?vid=0f80e4a7-dd24-4bcb-898e-d82ea20cfec9","ios":"levelo://app?vid=0f80e4a7-dd24-4bcb-898e-d82ea20cfec9"},"vehicle_type_id":"4","last_reported":1724620028,"current_range_meters":0,"station_id":"","pricing_plan_id":"cebpf4jnsgd1na2vs0mg"},{"bike_id":"e23b5135-05cf-48d2-905d-a30772322ea3","system_id":"levelo_inurba_marseille","lat":43.30958,"lon":5.39032,"is_reserved":false,"is_disabled":false,"rental_uris":{"android":"levelo://app?vid=e23b5135-05cf-48d2-905d-a30772322ea3","ios":"levelo://app?vid=e23b5135-05cf-48d2-905d-a30772322ea3"},"vehicle_type_id":"4","last_reported":1724620028,"current_range_meters":0,"station_id":"ce4bgup2rcd13ifvqco0","pricing_plan_id":"cebpf4jnsgd1na2vs0mg"},{"bike_id":"922217be-2c27-4f97-8378-ae2695608fb0","system_id":"levelo_inurba_marseille","lat":43.296935,"lon":5.376544,"is_reserved":false,"is_disabled":false,"rental_uris":{"android":"levelo://app?vid=922217be-2c27-4f97-8378-ae2695608fb0","ios":"levelo://app?vid=922217be-2c27-4f97-8378-ae2695608fb0"},"vehicle_type_id":"4","last_reported":1724620028,"current_range_meters":12000,"station_id":"ce4bgkh2rcd13ifvqbl0","pricing_plan_id":"cebpf4jnsgd1na2vs0mg"},{"bike_id":"e6fd205d-6a33-4337-837d-c3b0ba2eac92","system_id":"levelo_inurba_marseille","lat":43.317557,"lon":5.390173,"is_reserved":false,"is_disabled":false,"rental_uris":{"android":"levelo://app?vid=e6fd205d-6a33-4337-837d-c3b0ba2eac92","ios":"levelo://app?vid=e6fd205d-6a33-4337-837d-c3b0ba2eac92"},"vehicle_type_id":"4","last_reported":1724620028,"current_range_meters":18000,"station_id":"ce4bhqp2rcd13ifvqhng","pricing_plan_id":"cebpf4jnsgd1na2vs0mg"},{"bike_id":"226b65c0-ca0a-4f97-bf1e-25075e0211af","system_id":"levelo_inurba_marseille","lat":43.317557,"lon":5.390173,"is_reserved":false,"is_disabled":false,"rental_uris":{"android":"levelo://app?vid=226b65c0-ca0a-4f97-bf1e-25075e0211af","ios":"levelo://app?vid=226b65c0-ca0a-4f97-bf1e-25075e0211af"},"vehicle_type_id":"4","last_reported":1724620028,"current_range_meters":17200,"station_id":"ce4bhqp2rcd13ifvqhng","pricing_plan_id":"cebpf4jnsgd1na2vs0mg"},{"bike_id":"c3b5431a-bc4b-4c80-8e25-b2c955c54430","system_id":"levelo_inurba_marseille","lat":43.317557,"lon":5.390173,"is_reserved":false,"is_disabled":false,"rental_uris":{"android":"levelo://app?vid=c3b5431a-bc4b-4c80-8e25-b2c955c54430","ios":"levelo://app?vid=c3b5431a-bc4b-4c80-8e25-b2c955c54430"},"vehicle_type_id":"4","last_reported":1724620028,"current_range_meters":20800,"station_id":"ce4bhqp2rcd13ifvqhng","pricing_plan_id":"cebpf4jnsgd1na2vs0mg"},{"bike_id":"f3a30803-e6e6-44e8-b48a-491c239989cf","system_id":"levelo_inurba_marseille","lat":43.317557,"lon":5.390173,"is_reserved":false,"is_disabled":false,"rental_uris":{"android":"levelo://app?vid=f3a30803-e6e6-44e8-b48a-491c239989cf","ios":"levelo://app?vid=f3a30803-e6e6-44e8-b48a-491c239989cf"},"vehicle_type_id":"4","last_reported":1724620028,"current_range_meters":7600,"station_id":"ce4bhqp2rcd13ifvqhng","pricing_plan_id":"cebpf4jnsgd1na2vs0mg"},{"bike_id":"cd0508c0-8fc9-425d-bd77-81c1a226ae1f","system_id":"levelo_inurba_marseille","lat":43.317557,"lon":5.390173,"is_reserved":false,"is_disabled":false,"rental_uris":{"android":"levelo://app?vid=cd0508c0-8fc9-425d-bd77-81c1a226ae1f","ios":"levelo://app?vid=cd0508c0-8fc9-425d-bd77-81c1a226ae1f"},"vehicle_type_id":"4","last_reported":1724620028,"current_range_meters":15600,"station_id":"ce4bhqp2rcd13ifvqhng","pricing_plan_id":"cebpf4jnsgd1na2vs0mg"},{"bike_id":"83ed9b6a-deea-4f8d-a9f4-3f45357a6f08","system_id":"levelo_inurba_marseille","lat":43.2976,"lon":5.37958,"is_reserved":false,"is_disabled":false,"rental_uris":{"android":"levelo://app?vid=83ed9b6a-deea-4f8d-a9f4-3f45357a6f08","ios":"levelo://app?vid=83ed9b6a-deea-4f8d-a9f4-3f45357a6f08"},"vehicle_type_id":"4","last_reported":1724620028,"current_range_meters":17200,"station_id":"","pricing_plan_id":"cebpf4jnsgd1na2vs0mg"},{"bike_id":"178afe1d-fa9b-44c9-a1da-f0d6e694e2eb","system_id":"levelo_inurba_marseille","lat":43.298979,"lon":5.382927,"is_reserved":false,"is_disabled":false,"rental_uris":{"android":"levelo://app?vid=178afe1d-fa9b-44c9-a1da-f0d6e694e2eb","ios":"levelo://app?vid=178afe1d-fa9b-44c9-a1da-f0d6e694e2eb"},"vehicle_type_id":"4","last_reported":1724620028,"current_range_meters":800,"station_id":"","pricing_plan_id":"cebpf4jnsgd1na2vs0mg"},{"bike_id":"0d5b7a13-7936-4d21-855d-bfbd6c79f2ea","system_id":"levelo_inurba_marseille","lat":43.304278,"lon":5.388868,"is_reserved":false,"is_disabled":false,"rental_uris":{"android":"levelo://app?vid=0d5b7a13-7936-4d21-855d-bfbd6c79f2ea","ios":"levelo://app?vid=0d5b7a13-7936-4d21-855d-bfbd6c79f2ea"},"vehicle_type_id":"4","last_reported":1724620028,"current_range_meters":12000,"station_id":"ce4bgk12rcd13ifvqbi0","pricing_plan_id":"cebpf4jnsgd1na2vs0mg"},{"bike_id":"8fad924d-d34f-4eb0-85b3-3869171fd252","system_id":"levelo_inurba_marseille","lat":43.304278,"lon":5.388868,"is_reserved":false,"is_disabled":false,"rental_uris":{"android":"levelo://app?vid=8fad924d-d34f-4eb0-85b3-3869171fd252","ios":"levelo://app?vid=8fad924d-d34f-4eb0-85b3-3869171fd252"},"vehicle_type_id":"4","last_reported":1724620028,"current_range_meters":4000,"station_id":"ce4bgk12rcd13ifvqbi0","pricing_plan_id":"cebpf4jnsgd1na2vs0mg"},{"bike_id":"0312aac5-5cb1-4018-8e85-f7a5857aff8d","system_id":"levelo_inurba_marseille","lat":43.304278,"lon":5.388868,"is_reserved":false,"is_disabled":false,"rental_uris":{"android":"levelo://app?vid=0312aac5-5cb1-4018-8e85-f7a5857aff8d","ios":"levelo://app?vid=0312aac5-5cb1-4018-8e85-f7a5857aff8d"},"vehicle_type_id":"4","last_reported":1724620028,"current_range_meters":18800,"station_id":"ce4bgk12rcd13ifvqbi0","pricing_plan_id":"cebpf4jnsgd1na2vs0mg"},{"bike_id":"31874de3-dfaa-4bfb-93e8-730152332d9a","system_id":"levelo_inurba_marseille","lat":43.304274,"lon":5.388873,"is_reserved":false,"is_disabled":false,"rental_uris":{"android":"levelo://app?vid=31874de3-dfaa-4bfb-93e8-730152332d9a","ios":"levelo://app?vid=31874de3-dfaa-4bfb-93e8-730152332d9a"},"vehicle_type_id":"4","last_reported":1724620028,"current_range_meters":6800,"station_id":"ce4bgk12rcd13ifvqbi0","pricing_plan_id":"cebpf4jnsgd1na2vs0mg"},{"bike_id":"a76a224d-3060-431d-afd2-78ab6f28b18f","system_id":"levelo_inurba_marseille","lat":43.30423,"lon":5.38895,"is_reserved":false,"is_disabled":false,"rental_uris":{"android":"levelo://app?vid=a76a224d-3060-431d-afd2-78ab6f28b18f","ios":"levelo://app?vid=a76a224d-3060-431d-afd2-78ab6f28b18f"},"vehicle_type_id":"4","last_reported":1724620028,"current_range_meters":20400,"station_id":"ce4bgk12rcd13ifvqbi0","pricing_plan_id":"cebpf4jnsgd1na2vs0mg"},{"bike_id":"ad82286f-5108-4984-92ab-42c053d25349","system_id":"levelo_inurba_marseille","lat":43.299707,"lon":5.384859,"is_reserved":false,"is_disabled":false,"rental_uris":{"android":"levelo://app?vid=ad82286f-5108-4984-92ab-42c053d25349","ios":"levelo://app?vid=ad82286f-5108-4984-92ab-42c053d25349"},"vehicle_type_id":"4","last_reported":1724620028,"current_range_meters":1200,"station_id":"ce4bgj92rcd13ifvqbd0","pricing_plan_id":"cebpf4jnsgd1na2vs0mg"},{"bike_id":"711eca2d-6859-451b-94d5-bd663c6ca81f","system_id":"levelo_inurba_marseille","lat":43.2998,"lon":5.38481,"is_reserved":false,"is_disabled":false,"rental_uris":{"android":"levelo://app?vid=711eca2d-6859-451b-94d5-bd663c6ca81f","ios":"levelo://app?vid=711eca2d-6859-451b-94d5-bd663c6ca81f"},"vehicle_type_id":"4","last_reported":1724620028,"current_range_meters":8800,"station_id":"ce4bgj92rcd13ifvqbd0","pricing_plan_id":"cebpf4jnsgd1na2vs0mg"},{"bike_id":"7e378aa7-70c9-4205-8fb4-3b6dcfaaef7d","system_id":"levelo_inurba_marseille","lat":43.29979,"lon":5.384993,"is_reserved":false,"is_disabled":false,"rental_uris":{"android":"levelo://app?vid=7e378aa7-70c9-4205-8fb4-3b6dcfaaef7d","ios":"levelo://app?vid=7e378aa7-70c9-4205-8fb4-3b6dcfaaef7d"},"vehicle_type_id":"4","last_reported":1724620028,"current_range_meters":0,"station_id":"ce4bgj92rcd13ifvqbd0","pricing_plan_id":"cebpf4jnsgd1na2vs0mg"},{"bike_id":"f0f23af3-86b6-49b9-b75a-cce204f7c2fd","system_id":"levelo_inurba_marseille","lat":43.292749,"lon":5.368402,"is_reserved":false,"is_disabled":false,"rental_uris":{"android":"levelo://app?vid=f0f23af3-86b6-49b9-b75a-cce204f7c2fd","ios":"levelo://app?vid=f0f23af3-86b6-49b9-b75a-cce204f7c2fd"},"vehicle_type_id":"4","last_reported":1724620028,"current_range_meters":0,"station_id":"ce4bhbp2rcd13ifvqesg","pricing_plan_id":"cebpf4jnsgd1na2vs0mg"},{"bike_id":"3d906a8a-4399-4245-a00e-7316fd931398","system_id":"levelo_inurba_marseille","lat":43.301396,"lon":5.387812,"is_reserved":false,"is_disabled":false,"rental_uris":{"android":"levelo://app?vid=3d906a8a-4399-4245-a00e-7316fd931398","ios":"levelo://app?vid=3d906a8a-4399-4245-a00e-7316fd931398"},"vehicle_type_id":"4","last_reported":1724620028,"current_range_meters":6800,"station_id":"ce4bghh2rcd13ifvqb60","pricing_plan_id":"cebpf4jnsgd1na2vs0mg"},{"bike_id":"0fe35816-330c-4daa-bd9a-2c3e5fe3ae55","system_id":"levelo_inurba_marseille","lat":43.301396,"lon":5.387812,"is_reserved":false,"is_disabled":false,"rental_uris":{"android":"levelo://app?vid=0fe35816-330c-4daa-bd9a-2c3e5fe3ae55","ios":"levelo://app?vid=0fe35816-330c-4daa-bd9a-2c3e5fe3ae55"},"vehicle_type_id":"4","last_reported":1724620028,"current_range_meters":19200,"station_id":"ce4bghh2rcd13ifvqb60","pricing_plan_id":"cebpf4jnsgd1na2vs0mg"},{"bike_id":"4e80fc42-727a-4bf3-99a6-d95228109e4b","system_id":"levelo_inurba_marseille","lat":43.301396,"lon":5.387812,"is_reserved":false,"is_disabled":false,"rental_uris":{"android":"levelo://app?vid=4e80fc42-727a-4bf3-99a6-d95228109e4b","ios":"levelo://app?vid=4e80fc42-727a-4bf3-99a6-d95228109e4b"},"vehicle_type_id":"4","last_reported":1724620028,"current_range_meters":0,"station_id":"ce4bghh2rcd13ifvqb60","pricing_plan_id":"cebpf4jnsgd1na2vs0mg"},{"bike_id":"794978c3-771e-42a5-aeef-5405130559ba","system_id":"levelo_inurba_marseille","lat":43.301396,"lon":5.387812,"is_reserved":false,"is_disabled":false,"rental_uris":{"android":"levelo://app?vid=794978c3-771e-42a5-aeef-5405130559ba","ios":"levelo://app?vid=794978c3-771e-42a5-aeef-5405130559ba"},"vehicle_type_id":"4","last_reported":1724620028,"current_range_meters":26000,"station_id":"ce4bghh2rcd13ifvqb60","pricing_plan_id":"cebpf4jnsgd1na2vs0mg"},{"bike_id":"93196cbe-223b-49a3-a83a-847eb2c57653","system_id":"levelo_inurba_marseille","lat":43.32367,"lon":5.388836,"is_reserved":false,"is_disabled":false,"rental_uris":{"android":"levelo://app?vid=93196cbe-223b-49a3-a83a-847eb2c57653","ios":"levelo://app?vid=93196cbe-223b-49a3-a83a-847eb2c57653"},"vehicle_type_id":"4","last_reported":1724620028,"current_range_meters":400,"station_id":"ce4bhqp2rcd13ifvqhog","pricing_plan_id":"cebpf4jnsgd1na2vs0mg"},{"bike_id":"e9f43118-4f53-4435-8e12-a9693a896f53","system_id":"levelo_inurba_marseille","lat":43.32367,"lon":5.388836,"is_reserved":false,"is_disabled":false,"rental_uris":{"android":"levelo://app?vid=e9f43118-4f53-4435-8e12-a9693a896f53","ios":"levelo://app?vid=e9f43118-4f53-4435-8e12-a9693a896f53"},"vehicle_type_id":"4","last_reported":1724620028,"current_range_meters":0,"station_id":"ce4bhqp2rcd13ifvqhog","pricing_plan_id":"cebpf4jnsgd1na2vs0mg"},{"bike_id":"a1ee482f-2a7a-407c-90ad-26034a19fdf3","system_id":"levelo_inurba_marseille","lat":43.32367,"lon":5.388836,"is_reserved":false,"is_disabled":false,"rental_uris":{"android":"levelo://app?vid=a1ee482f-2a7a-407c-90ad-26034a19fdf3","ios":"levelo://app?vid=a1ee482f-2a7a-407c-90ad-26034a19fdf3"},"vehicle_type_id":"4","last_reported":1724620028,"current_range_meters":9600,"station_id":"ce4bhqp2rcd13ifvqhog","pricing_plan_id":"cebpf4jnsgd1na2vs0mg"},{"bike_id":"58877867-da07-42c5-a435-7d7921e05f54","system_id":"levelo_inurba_marseille","lat":43.293259,"lon":5.371586,"is_reserved":false,"is_disabled":false,"rental_uris":{"android":"levelo://app?vid=58877867-da07-42c5-a435-7d7921e05f54","ios":"levelo://app?vid=58877867-da07-42c5-a435-7d7921e05f54"},"vehicle_type_id":"4","last_reported":1724620028,"current_range_meters":23600,"station_id":"ce4bgh92rcd13ifvqb40","pricing_plan_id":"cebpf4jnsgd1na2vs0mg"},{"bike_id":"c9fd98f1-012e-4517-ae61-f78ba697b5a4","system_id":"levelo_inurba_marseille","lat":43.292749,"lon":5.368402,"is_reserved":false,"is_disabled":false,"rental_uris":{"android":"levelo://app?vid=c9fd98f1-012e-4517-ae61-f78ba697b5a4","ios":"levelo://app?vid=c9fd98f1-012e-4517-ae61-f78ba697b5a4"},"vehicle_type_id":"4","last_reported":1724620028,"current_range_meters":8400,"station_id":"ce4bhbp2rcd13ifvqesg","pricing_plan_id":"cebpf4jnsgd1na2vs0mg"},{"bike_id":"f510b83f-de0e-4d7a-8a8e-a35ebc624805","system_id":"levelo_inurba_marseille","lat":43.29302,"lon":5.3717,"is_reserved":false,"is_disabled":false,"rental_uris":{"android":"levelo://app?vid=f510b83f-de0e-4d7a-8a8e-a35ebc624805","ios":"levelo://app?vid=f510b83f-de0e-4d7a-8a8e-a35ebc624805"},"vehicle_type_id":"4","last_reported":1724620028,"current_range_meters":13600,"station_id":"ce4bgh92rcd13ifvqb40","pricing_plan_id":"cebpf4jnsgd1na2vs0mg"},{"bike_id":"299c6ce5-eb11-432a-aa32-8745468495e7","system_id":"levelo_inurba_marseille","lat":43.292749,"lon":5.368402,"is_reserved":false,"is_disabled":false,"rental_uris":{"android":"levelo://app?vid=299c6ce5-eb11-432a-aa32-8745468495e7","ios":"levelo://app?vid=299c6ce5-eb11-432a-aa32-8745468495e7"},"vehicle_type_id":"4","last_reported":1724620028,"current_range_meters":800,"station_id":"ce4bhbp2rcd13ifvqesg","pricing_plan_id":"cebpf4jnsgd1na2vs0mg"},{"bike_id":"23d4a728-9a73-4940-b968-90a42022d2e0","system_id":"levelo_inurba_marseille","lat":43.29567,"lon":5.38152,"is_reserved":false,"is_disabled":false,"rental_uris":{"android":"levelo://app?vid=23d4a728-9a73-4940-b968-90a42022d2e0","ios":"levelo://app?vid=23d4a728-9a73-4940-b968-90a42022d2e0"},"vehicle_type_id":"4","last_reported":1724620028,"current_range_meters":22000,"station_id":"","pricing_plan_id":"cebpf4jnsgd1na2vs0mg"},{"bike_id":"fb4aeacb-24f8-4a87-b212-fdda592fbafa","system_id":"levelo_inurba_marseille","lat":43.302992,"lon":5.392136,"is_reserved":false,"is_disabled":false,"rental_uris":{"android":"levelo://app?vid=fb4aeacb-24f8-4a87-b212-fdda592fbafa","ios":"levelo://app?vid=fb4aeacb-24f8-4a87-b212-fdda592fbafa"},"vehicle_type_id":"4","last_reported":1724620028,"current_range_meters":28800,"station_id":"ce4bgkh2rcd13ifvqbk0","pricing_plan_id":"cebpf4jnsgd1na2vs0mg"},{"bike_id":"2847618a-9f75-4e67-9082-468fdad3b6af","system_id":"levelo_inurba_marseille","lat":43.30085,"lon":5.390856,"is_reserved":false,"is_disabled":false,"rental_uris":{"android":"levelo://app?vid=2847618a-9f75-4e67-9082-468fdad3b6af","ios":"levelo://app?vid=2847618a-9f75-4e67-9082-468fdad3b6af"},"vehicle_type_id":"4","last_reported":1724620028,"current_range_meters":16800,"station_id":"ce4bh192rcd13ifvqdb0","pricing_plan_id":"cebpf4jnsgd1na2vs0mg"},{"bike_id":"5003abae-e36d-4901-94c9-25ee9c96fe97","system_id":"levelo_inurba_marseille","lat":43.298764,"lon":5.388973,"is_reserved":false,"is_disabled":false,"rental_uris":{"android":"levelo://app?vid=5003abae-e36d-4901-94c9-25ee9c96fe97","ios":"levelo://app?vid=5003abae-e36d-4901-94c9-25ee9c96fe97"},"vehicle_type_id":"4","last_reported":1724620028,"current_range_meters":0,"station_id":"ce4bh392rcd13ifvqdl0","pricing_plan_id":"cebpf4jnsgd1na2vs0mg"},{"bike_id":"f5ad40f5-9991-4a4a-b2df-1cae1d40ccad","system_id":"levelo_inurba_marseille","lat":43.291746,"lon":5.371594,"is_reserved":false,"is_disabled":false,"rental_uris":{"android":"levelo://app?vid=f5ad40f5-9991-4a4a-b2df-1cae1d40ccad","ios":"levelo://app?vid=f5ad40f5-9991-4a4a-b2df-1cae1d40ccad"},"vehicle_type_id":"4","last_reported":1724620028,"current_range_meters":0,"station_id":"ce4bha92rcd13ifvqeh0","pricing_plan_id":"cebpf4jnsgd1na2vs0mg"},{"bike_id":"88d19492-030c-42c9-8e92-3f50eb73d1fe","system_id":"levelo_inurba_marseille","lat":43.298764,"lon":5.388973,"is_reserved":false,"is_disabled":false,"rental_uris":{"android":"levelo://app?vid=88d19492-030c-42c9-8e92-3f50eb73d1fe","ios":"levelo://app?vid=88d19492-030c-42c9-8e92-3f50eb73d1fe"},"vehicle_type_id":"4","last_reported":1724620028,"current_range_meters":30400,"station_id":"ce4bh392rcd13ifvqdl0","pricing_plan_id":"cebpf4jnsgd1na2vs0mg"},{"bike_id":"6e554b41-4b35-41e6-9726-d216b8fdc096","system_id":"levelo_inurba_marseille","lat":43.292005,"lon":5.357875,"is_reserved":false,"is_disabled":false,"rental_uris":{"android":"levelo://app?vid=6e554b41-4b35-41e6-9726-d216b8fdc096","ios":"levelo://app?vid=6e554b41-4b35-41e6-9726-d216b8fdc096"},"vehicle_type_id":"4","last_reported":1724620028,"current_range_meters":31200,"station_id":"ce4bhb12rcd13ifvqel0","pricing_plan_id":"cebpf4jnsgd1na2vs0mg"},{"bike_id":"06a8019c-48bf-442f-9b6e-2aa458d0e6af","system_id":"levelo_inurba_marseille","lat":43.309038,"lon":5.396546,"is_reserved":false,"is_disabled":false,"rental_uris":{"android":"levelo://app?vid=06a8019c-48bf-442f-9b6e-2aa458d0e6af","ios":"levelo://app?vid=06a8019c-48bf-442f-9b6e-2aa458d0e6af"},"vehicle_type_id":"4","last_reported":1724620028,"current_range_meters":25600,"station_id":"ce4bh012rcd13ifvqcv0","pricing_plan_id":"cebpf4jnsgd1na2vs0mg"},{"bike_id":"146a606c-8031-4d4b-b93b-638fc22c5369","system_id":"levelo_inurba_marseille","lat":43.313291,"lon":5.396838,"is_reserved":false,"is_disabled":false,"rental_uris":{"android":"levelo://app?vid=146a606c-8031-4d4b-b93b-638fc22c5369","ios":"levelo://app?vid=146a606c-8031-4d4b-b93b-638fc22c5369"},"vehicle_type_id":"4","last_reported":1724620028,"current_range_meters":8800,"station_id":"ce4bgvp2rcd13ifvqcu0","pricing_plan_id":"cebpf4jnsgd1na2vs0mg"},{"bike_id":"78023808-393a-44f4-8f98-44b5331727ff","system_id":"levelo_inurba_marseille","lat":43.309047,"lon":5.396551,"is_reserved":false,"is_disabled":false,"rental_uris":{"android":"levelo://app?vid=78023808-393a-44f4-8f98-44b5331727ff","ios":"levelo://app?vid=78023808-393a-44f4-8f98-44b5331727ff"},"vehicle_type_id":"4","last_reported":1724620028,"current_range_meters":30400,"station_id":"ce4bh012rcd13ifvqcv0","pricing_plan_id":"cebpf4jnsgd1na2vs0mg"},{"bike_id":"67d7baea-3a76-4f43-8d97-c8909ec1de43","system_id":"levelo_inurba_marseille","lat":43.3133,"lon":5.39698,"is_reserved":false,"is_disabled":false,"rental_uris":{"android":"levelo://app?vid=67d7baea-3a76-4f43-8d97-c8909ec1de43","ios":"levelo://app?vid=67d7baea-3a76-4f43-8d97-c8909ec1de43"},"vehicle_type_id":"4","last_reported":1724620028,"current_range_meters":4400,"station_id":"ce4bgvp2rcd13ifvqcu0","pricing_plan_id":"cebpf4jnsgd1na2vs0mg"},{"bike_id":"43db0c72-d1f2-4cbc-894b-5c64dafde8ae","system_id":"levelo_inurba_marseille","lat":43.309038,"lon":5.396546,"is_reserved":false,"is_disabled":false,"rental_uris":{"android":"levelo://app?vid=43db0c72-d1f2-4cbc-894b-5c64dafde8ae","ios":"levelo://app?vid=43db0c72-d1f2-4cbc-894b-5c64dafde8ae"},"vehicle_type_id":"4","last_reported":1724620028,"current_range_meters":31200,"station_id":"ce4bh012rcd13ifvqcv0","pricing_plan_id":"cebpf4jnsgd1na2vs0mg"},{"bike_id":"8375b614-c6c8-4236-9d4b-fe38b2e794b6","system_id":"levelo_inurba_marseille","lat":43.309038,"lon":5.396546,"is_reserved":false,"is_disabled":false,"rental_uris":{"android":"levelo://app?vid=8375b614-c6c8-4236-9d4b-fe38b2e794b6","ios":"levelo://app?vid=8375b614-c6c8-4236-9d4b-fe38b2e794b6"},"vehicle_type_id":"4","last_reported":1724620028,"current_range_meters":12400,"station_id":"ce4bh012rcd13ifvqcv0","pricing_plan_id":"cebpf4jnsgd1na2vs0mg"},{"bike_id":"843f42fc-60e3-4f21-83c3-1ae31623f4f9","system_id":"levelo_inurba_marseille","lat":43.309038,"lon":5.396546,"is_reserved":false,"is_disabled":false,"rental_uris":{"android":"levelo://app?vid=843f42fc-60e3-4f21-83c3-1ae31623f4f9","ios":"levelo://app?vid=843f42fc-60e3-4f21-83c3-1ae31623f4f9"},"vehicle_type_id":"4","last_reported":1724620028,"current_range_meters":4800,"station_id":"ce4bh012rcd13ifvqcv0","pricing_plan_id":"cebpf4jnsgd1na2vs0mg"},{"bike_id":"3952af14-d81a-40fe-bce3-19fff3a8b0f1","system_id":"levelo_inurba_marseille","lat":43.309038,"lon":5.396546,"is_reserved":false,"is_disabled":false,"rental_uris":{"android":"levelo://app?vid=3952af14-d81a-40fe-bce3-19fff3a8b0f1","ios":"levelo://app?vid=3952af14-d81a-40fe-bce3-19fff3a8b0f1"},"vehicle_type_id":"4","last_reported":1724620028,"current_range_meters":19200,"station_id":"ce4bh012rcd13ifvqcv0","pricing_plan_id":"cebpf4jnsgd1na2vs0mg"},{"bike_id":"6f1fcb8d-383a-4977-ae7c-8562f4d4b5e5","system_id":"levelo_inurba_marseille","lat":43.298681,"lon":5.397225,"is_reserved":false,"is_disabled":false,"rental_uris":{"android":"levelo://app?vid=6f1fcb8d-383a-4977-ae7c-8562f4d4b5e5","ios":"levelo://app?vid=6f1fcb8d-383a-4977-ae7c-8562f4d4b5e5"},"vehicle_type_id":"4","last_reported":1724620028,"current_range_meters":6800,"station_id":"ce4bh0h2rcd13ifvqd50","pricing_plan_id":"cebpf4jnsgd1na2vs0mg"},{"bike_id":"b94eba49-d9cc-4d42-b900-50e094ad7455","system_id":"levelo_inurba_marseille","lat":43.308799,"lon":5.396602,"is_reserved":false,"is_disabled":false,"rental_uris":{"android":"levelo://app?vid=b94eba49-d9cc-4d42-b900-50e094ad7455","ios":"levelo://app?vid=b94eba49-d9cc-4d42-b900-50e094ad7455"},"vehicle_type_id":"4","last_reported":1724620028,"current_range_meters":400,"station_id":"ce4bh012rcd13ifvqcv0","pricing_plan_id":"cebpf4jnsgd1na2vs0mg"},{"bike_id":"af83baf7-d331-484d-8e24-017698d3ce6d","system_id":"levelo_inurba_marseille","lat":43.29533,"lon":5.38542,"is_reserved":false,"is_disabled":false,"rental_uris":{"android":"levelo://app?vid=af83baf7-d331-484d-8e24-017698d3ce6d","ios":"levelo://app?vid=af83baf7-d331-484d-8e24-017698d3ce6d"},"vehicle_type_id":"4","last_reported":1724620028,"current_range_meters":31200,"station_id":"ce4bgih2rcd13ifvqba0","pricing_plan_id":"cebpf4jnsgd1na2vs0mg"},{"bike_id":"c0d082bb-83b6-47d9-811a-b087c3717c6a","system_id":"levelo_inurba_marseille","lat":43.29529,"lon":5.385581,"is_reserved":false,"is_disabled":false,"rental_uris":{"android":"levelo://app?vid=c0d082bb-83b6-47d9-811a-b087c3717c6a","ios":"levelo://app?vid=c0d082bb-83b6-47d9-811a-b087c3717c6a"},"vehicle_type_id":"4","last_reported":1724620028,"current_range_meters":17600,"station_id":"ce4bgih2rcd13ifvqba0","pricing_plan_id":"cebpf4jnsgd1na2vs0mg"},{"bike_id":"00b39f94-9fb5-4dbd-8021-b1b1fb540913","system_id":"levelo_inurba_marseille","lat":43.29529,"lon":5.385581,"is_reserved":false,"is_disabled":false,"rental_uris":{"android":"levelo://app?vid=00b39f94-9fb5-4dbd-8021-b1b1fb540913","ios":"levelo://app?vid=00b39f94-9fb5-4dbd-8021-b1b1fb540913"},"vehicle_type_id":"4","last_reported":1724620028,"current_range_meters":31600,"station_id":"ce4bgih2rcd13ifvqba0","pricing_plan_id":"cebpf4jnsgd1na2vs0mg"},{"bike_id":"c751ae64-1c39-4b46-acf9-9823165a059c","system_id":"levelo_inurba_marseille","lat":43.29533,"lon":5.38548,"is_reserved":false,"is_disabled":false,"rental_uris":{"android":"levelo://app?vid=c751ae64-1c39-4b46-acf9-9823165a059c","ios":"levelo://app?vid=c751ae64-1c39-4b46-acf9-9823165a059c"},"vehicle_type_id":"4","last_reported":1724620028,"current_range_meters":21200,"station_id":"ce4bgih2rcd13ifvqba0","pricing_plan_id":"cebpf4jnsgd1na2vs0mg"},{"bike_id":"51ebdfa6-a493-4901-9e9f-f20293c1a58f","system_id":"levelo_inurba_marseille","lat":43.29529,"lon":5.38541,"is_reserved":false,"is_disabled":false,"rental_uris":{"android":"levelo://app?vid=51ebdfa6-a493-4901-9e9f-f20293c1a58f","ios":"levelo://app?vid=51ebdfa6-a493-4901-9e9f-f20293c1a58f"},"vehicle_type_id":"4","last_reported":1724620028,"current_range_meters":11600,"station_id":"ce4bgih2rcd13ifvqba0","pricing_plan_id":"cebpf4jnsgd1na2vs0mg"},{"bike_id":"a0774a3f-5bd6-4186-970c-aff2e4d48d00","system_id":"levelo_inurba_marseille","lat":43.29529,"lon":5.385581,"is_reserved":false,"is_disabled":false,"rental_uris":{"android":"levelo://app?vid=a0774a3f-5bd6-4186-970c-aff2e4d48d00","ios":"levelo://app?vid=a0774a3f-5bd6-4186-970c-aff2e4d48d00"},"vehicle_type_id":"4","last_reported":1724620028,"current_range_meters":31200,"station_id":"ce4bgih2rcd13ifvqba0","pricing_plan_id":"cebpf4jnsgd1na2vs0mg"},{"bike_id":"af2b0476-eda6-4e38-80b6-d42a7ae05421","system_id":"levelo_inurba_marseille","lat":43.29529,"lon":5.385581,"is_reserved":false,"is_disabled":false,"rental_uris":{"android":"levelo://app?vid=af2b0476-eda6-4e38-80b6-d42a7ae05421","ios":"levelo://app?vid=af2b0476-eda6-4e38-80b6-d42a7ae05421"},"vehicle_type_id":"4","last_reported":1724620028,"current_range_meters":30000,"station_id":"ce4bgih2rcd13ifvqba0","pricing_plan_id":"cebpf4jnsgd1na2vs0mg"},{"bike_id":"b37570b7-8a2d-4b6a-b241-780c37d8835d","system_id":"levelo_inurba_marseille","lat":43.29529,"lon":5.385581,"is_reserved":false,"is_disabled":false,"rental_uris":{"android":"levelo://app?vid=b37570b7-8a2d-4b6a-b241-780c37d8835d","ios":"levelo://app?vid=b37570b7-8a2d-4b6a-b241-780c37d8835d"},"vehicle_type_id":"4","last_reported":1724620028,"current_range_meters":22000,"station_id":"ce4bgih2rcd13ifvqba0","pricing_plan_id":"cebpf4jnsgd1na2vs0mg"},{"bike_id":"c49516ad-cd0e-4f50-968d-8c6f07422860","system_id":"levelo_inurba_marseille","lat":43.29529,"lon":5.385581,"is_reserved":false,"is_disabled":false,"rental_uris":{"android":"levelo://app?vid=c49516ad-cd0e-4f50-968d-8c6f07422860","ios":"levelo://app?vid=c49516ad-cd0e-4f50-968d-8c6f07422860"},"vehicle_type_id":"4","last_reported":1724620028,"current_range_meters":22400,"station_id":"ce4bgih2rcd13ifvqba0","pricing_plan_id":"cebpf4jnsgd1na2vs0mg"},{"bike_id":"745cd823-a666-407b-b3c9-c3f48f82133e","system_id":"levelo_inurba_marseille","lat":43.29529,"lon":5.385581,"is_reserved":false,"is_disabled":false,"rental_uris":{"android":"levelo://app?vid=745cd823-a666-407b-b3c9-c3f48f82133e","ios":"levelo://app?vid=745cd823-a666-407b-b3c9-c3f48f82133e"},"vehicle_type_id":"4","last_reported":1724620028,"current_range_meters":13600,"station_id":"ce4bgih2rcd13ifvqba0","pricing_plan_id":"cebpf4jnsgd1na2vs0mg"},{"bike_id":"3960c277-289e-4e79-91bd-0bd2271b3fc5","system_id":"levelo_inurba_marseille","lat":43.29529,"lon":5.385581,"is_reserved":false,"is_disabled":false,"rental_uris":{"android":"levelo://app?vid=3960c277-289e-4e79-91bd-0bd2271b3fc5","ios":"levelo://app?vid=3960c277-289e-4e79-91bd-0bd2271b3fc5"},"vehicle_type_id":"4","last_reported":1724620028,"current_range_meters":10400,"station_id":"ce4bgih2rcd13ifvqba0","pricing_plan_id":"cebpf4jnsgd1na2vs0mg"},{"bike_id":"41196739-4d5a-4c50-b837-f9ff36d9cc81","system_id":"levelo_inurba_marseille","lat":43.29528,"lon":5.38543,"is_reserved":false,"is_disabled":false,"rental_uris":{"android":"levelo://app?vid=41196739-4d5a-4c50-b837-f9ff36d9cc81","ios":"levelo://app?vid=41196739-4d5a-4c50-b837-f9ff36d9cc81"},"vehicle_type_id":"4","last_reported":1724620028,"current_range_meters":10400,"station_id":"ce4bgih2rcd13ifvqba0","pricing_plan_id":"cebpf4jnsgd1na2vs0mg"},{"bike_id":"2d9e50d5-d203-42d0-a781-b73b38b50391","system_id":"levelo_inurba_marseille","lat":43.29529,"lon":5.385581,"is_reserved":false,"is_disabled":false,"rental_uris":{"android":"levelo://app?vid=2d9e50d5-d203-42d0-a781-b73b38b50391","ios":"levelo://app?vid=2d9e50d5-d203-42d0-a781-b73b38b50391"},"vehicle_type_id":"4","last_reported":1724620028,"current_range_meters":7200,"station_id":"ce4bgih2rcd13ifvqba0","pricing_plan_id":"cebpf4jnsgd1na2vs0mg"},{"bike_id":"2f47c894-f86f-41aa-b96c-a765d0b66510","system_id":"levelo_inurba_marseille","lat":43.29529,"lon":5.385581,"is_reserved":false,"is_disabled":false,"rental_uris":{"android":"levelo://app?vid=2f47c894-f86f-41aa-b96c-a765d0b66510","ios":"levelo://app?vid=2f47c894-f86f-41aa-b96c-a765d0b66510"},"vehicle_type_id":"4","last_reported":1724620028,"current_range_meters":10800,"station_id":"ce4bgih2rcd13ifvqba0","pricing_plan_id":"cebpf4jnsgd1na2vs0mg"},{"bike_id":"39bd0ea6-4265-4270-bcfa-1323bfe1e4a1","system_id":"levelo_inurba_marseille","lat":43.29529,"lon":5.385581,"is_reserved":false,"is_disabled":false,"rental_uris":{"android":"levelo://app?vid=39bd0ea6-4265-4270-bcfa-1323bfe1e4a1","ios":"levelo://app?vid=39bd0ea6-4265-4270-bcfa-1323bfe1e4a1"},"vehicle_type_id":"4","last_reported":1724620028,"current_range_meters":31200,"station_id":"ce4bgih2rcd13ifvqba0","pricing_plan_id":"cebpf4jnsgd1na2vs0mg"},{"bike_id":"c366b87f-c173-4379-903d-77d2153a320d","system_id":"levelo_inurba_marseille","lat":43.2953,"lon":5.38554,"is_reserved":false,"is_disabled":false,"rental_uris":{"android":"levelo://app?vid=c366b87f-c173-4379-903d-77d2153a320d","ios":"levelo://app?vid=c366b87f-c173-4379-903d-77d2153a320d"},"vehicle_type_id":"4","last_reported":1724620028,"current_range_meters":26000,"station_id":"ce4bgih2rcd13ifvqba0","pricing_plan_id":"cebpf4jnsgd1na2vs0mg"},{"bike_id":"f374b7ef-e2bd-46ac-8680-2ef713604057","system_id":"levelo_inurba_marseille","lat":43.29529,"lon":5.385581,"is_reserved":false,"is_disabled":false,"rental_uris":{"android":"levelo://app?vid=f374b7ef-e2bd-46ac-8680-2ef713604057","ios":"levelo://app?vid=f374b7ef-e2bd-46ac-8680-2ef713604057"},"vehicle_type_id":"4","last_reported":1724620028,"current_range_meters":8400,"station_id":"ce4bgih2rcd13ifvqba0","pricing_plan_id":"cebpf4jnsgd1na2vs0mg"},{"bike_id":"0f363dfc-2456-4c81-9806-f49cf6292dc0","system_id":"levelo_inurba_marseille","lat":43.303365,"lon":5.394585,"is_reserved":false,"is_disabled":false,"rental_uris":{"android":"levelo://app?vid=0f363dfc-2456-4c81-9806-f49cf6292dc0","ios":"levelo://app?vid=0f363dfc-2456-4c81-9806-f49cf6292dc0"},"vehicle_type_id":"4","last_reported":1724620028,"current_range_meters":0,"station_id":"","pricing_plan_id":"cebpf4jnsgd1na2vs0mg"},{"bike_id":"0cc53d30-32f5-4332-86af-7641c6457475","system_id":"levelo_inurba_marseille","lat":43.290779,"lon":5.371482,"is_reserved":false,"is_disabled":false,"rental_uris":{"android":"levelo://app?vid=0cc53d30-32f5-4332-86af-7641c6457475","ios":"levelo://app?vid=0cc53d30-32f5-4332-86af-7641c6457475"},"vehicle_type_id":"4","last_reported":1724620028,"current_range_meters":8000,"station_id":"ce4bh5p2rcd13ifvqe4g","pricing_plan_id":"cebpf4jnsgd1na2vs0mg"},{"bike_id":"9de109c2-dea9-4217-81b2-3eb085caf99a","system_id":"levelo_inurba_marseille","lat":43.33472,"lon":5.36124,"is_reserved":false,"is_disabled":false,"rental_uris":{"android":"levelo://app?vid=9de109c2-dea9-4217-81b2-3eb085caf99a","ios":"levelo://app?vid=9de109c2-dea9-4217-81b2-3eb085caf99a"},"vehicle_type_id":"4","last_reported":1724620028,"current_range_meters":14000,"station_id":"","pricing_plan_id":"cebpf4jnsgd1na2vs0mg"},{"bike_id":"353a047e-6270-4802-ba02-12b164b29ead","system_id":"levelo_inurba_marseille","lat":43.302008,"lon":5.394694,"is_reserved":false,"is_disabled":false,"rental_uris":{"android":"levelo://app?vid=353a047e-6270-4802-ba02-12b164b29ead","ios":"levelo://app?vid=353a047e-6270-4802-ba02-12b164b29ead"},"vehicle_type_id":"4","last_reported":1724620028,"current_range_meters":12400,"station_id":"ce4bh0p2rcd13ifvqd70","pricing_plan_id":"cebpf4jnsgd1na2vs0mg"},{"bike_id":"5e40f470-19d0-4937-a4e1-e4c6f16a70c9","system_id":"levelo_inurba_marseille","lat":43.302008,"lon":5.394694,"is_reserved":false,"is_disabled":false,"rental_uris":{"android":"levelo://app?vid=5e40f470-19d0-4937-a4e1-e4c6f16a70c9","ios":"levelo://app?vid=5e40f470-19d0-4937-a4e1-e4c6f16a70c9"},"vehicle_type_id":"4","last_reported":1724620028,"current_range_meters":2800,"station_id":"ce4bh0p2rcd13ifvqd70","pricing_plan_id":"cebpf4jnsgd1na2vs0mg"},{"bike_id":"8afbddf0-5e94-4b2d-b46a-5b3491a55ec4","system_id":"levelo_inurba_marseille","lat":43.294162,"lon":5.386292,"is_reserved":false,"is_disabled":false,"rental_uris":{"android":"levelo://app?vid=8afbddf0-5e94-4b2d-b46a-5b3491a55ec4","ios":"levelo://app?vid=8afbddf0-5e94-4b2d-b46a-5b3491a55ec4"},"vehicle_type_id":"4","last_reported":1724620028,"current_range_meters":0,"station_id":"ce4bh2h2rcd13ifvqdh0","pricing_plan_id":"cebpf4jnsgd1na2vs0mg"},{"bike_id":"3faa78d2-b6f5-4fda-b388-9941be458708","system_id":"levelo_inurba_marseille","lat":43.29421,"lon":5.38623,"is_reserved":false,"is_disabled":false,"rental_uris":{"android":"levelo://app?vid=3faa78d2-b6f5-4fda-b388-9941be458708","ios":"levelo://app?vid=3faa78d2-b6f5-4fda-b388-9941be458708"},"vehicle_type_id":"4","last_reported":1724620028,"current_range_meters":800,"station_id":"ce4bh2h2rcd13ifvqdh0","pricing_plan_id":"cebpf4jnsgd1na2vs0mg"},{"bike_id":"61957d83-17c3-4449-8acf-21da37cbf736","system_id":"levelo_inurba_marseille","lat":43.2942,"lon":5.38622,"is_reserved":false,"is_disabled":false,"rental_uris":{"android":"levelo://app?vid=61957d83-17c3-4449-8acf-21da37cbf736","ios":"levelo://app?vid=61957d83-17c3-4449-8acf-21da37cbf736"},"vehicle_type_id":"4","last_reported":1724620028,"current_range_meters":31200,"station_id":"ce4bh2h2rcd13ifvqdh0","pricing_plan_id":"cebpf4jnsgd1na2vs0mg"},{"bike_id":"854feb12-ce7a-418b-b245-1eb4274ffba9","system_id":"levelo_inurba_marseille","lat":43.294162,"lon":5.386292,"is_reserved":false,"is_disabled":false,"rental_uris":{"android":"levelo://app?vid=854feb12-ce7a-418b-b245-1eb4274ffba9","ios":"levelo://app?vid=854feb12-ce7a-418b-b245-1eb4274ffba9"},"vehicle_type_id":"4","last_reported":1724620028,"current_range_meters":16800,"station_id":"ce4bh2h2rcd13ifvqdh0","pricing_plan_id":"cebpf4jnsgd1na2vs0mg"},{"bike_id":"0c5fe476-7d82-44bc-af23-cd6d257d1466","system_id":"levelo_inurba_marseille","lat":43.2942,"lon":5.38631,"is_reserved":false,"is_disabled":false,"rental_uris":{"android":"levelo://app?vid=0c5fe476-7d82-44bc-af23-cd6d257d1466","ios":"levelo://app?vid=0c5fe476-7d82-44bc-af23-cd6d257d1466"},"vehicle_type_id":"4","last_reported":1724620028,"current_range_meters":0,"station_id":"ce4bh2h2rcd13ifvqdh0","pricing_plan_id":"cebpf4jnsgd1na2vs0mg"},{"bike_id":"83f1337e-c0f5-4726-854d-5610ba923f75","system_id":"levelo_inurba_marseille","lat":43.2942,"lon":5.38631,"is_reserved":false,"is_disabled":false,"rental_uris":{"android":"levelo://app?vid=83f1337e-c0f5-4726-854d-5610ba923f75","ios":"levelo://app?vid=83f1337e-c0f5-4726-854d-5610ba923f75"},"vehicle_type_id":"4","last_reported":1724620028,"current_range_meters":26400,"station_id":"ce4bh2h2rcd13ifvqdh0","pricing_plan_id":"cebpf4jnsgd1na2vs0mg"},{"bike_id":"45417b9d-b5c9-48a8-a9e4-60c39ebf4de7","system_id":"levelo_inurba_marseille","lat":43.29419,"lon":5.38633,"is_reserved":false,"is_disabled":false,"rental_uris":{"android":"levelo://app?vid=45417b9d-b5c9-48a8-a9e4-60c39ebf4de7","ios":"levelo://app?vid=45417b9d-b5c9-48a8-a9e4-60c39ebf4de7"},"vehicle_type_id":"4","last_reported":1724620028,"current_range_meters":0,"station_id":"ce4bh2h2rcd13ifvqdh0","pricing_plan_id":"cebpf4jnsgd1na2vs0mg"},{"bike_id":"83990bb8-bfea-46b7-b0fb-bc13088d7abe","system_id":"levelo_inurba_marseille","lat":43.29417,"lon":5.38631,"is_reserved":false,"is_disabled":false,"rental_uris":{"android":"levelo://app?vid=83990bb8-bfea-46b7-b0fb-bc13088d7abe","ios":"levelo://app?vid=83990bb8-bfea-46b7-b0fb-bc13088d7abe"},"vehicle_type_id":"4","last_reported":1724620028,"current_range_meters":31200,"station_id":"ce4bh2h2rcd13ifvqdh0","pricing_plan_id":"cebpf4jnsgd1na2vs0mg"},{"bike_id":"33e9849b-8f0b-4eb4-bf74-1db78f6b874b","system_id":"levelo_inurba_marseille","lat":43.29415,"lon":5.38633,"is_reserved":false,"is_disabled":false,"rental_uris":{"android":"levelo://app?vid=33e9849b-8f0b-4eb4-bf74-1db78f6b874b","ios":"levelo://app?vid=33e9849b-8f0b-4eb4-bf74-1db78f6b874b"},"vehicle_type_id":"4","last_reported":1724620028,"current_range_meters":3600,"station_id":"ce4bh2h2rcd13ifvqdh0","pricing_plan_id":"cebpf4jnsgd1na2vs0mg"},{"bike_id":"f99e5ed5-9df6-4572-96e8-0cd32e76b712","system_id":"levelo_inurba_marseille","lat":43.29529,"lon":5.385581,"is_reserved":false,"is_disabled":false,"rental_uris":{"android":"levelo://app?vid=f99e5ed5-9df6-4572-96e8-0cd32e76b712","ios":"levelo://app?vid=f99e5ed5-9df6-4572-96e8-0cd32e76b712"},"vehicle_type_id":"4","last_reported":1724620028,"current_range_meters":27200,"station_id":"ce4bgih2rcd13ifvqba0","pricing_plan_id":"cebpf4jnsgd1na2vs0mg"},{"bike_id":"6bbdad06-da56-4300-a637-e24ee3d7c7f0","system_id":"levelo_inurba_marseille","lat":43.289184,"lon":5.366408,"is_reserved":false,"is_disabled":false,"rental_uris":{"android":"levelo://app?vid=6bbdad06-da56-4300-a637-e24ee3d7c7f0","ios":"levelo://app?vid=6bbdad06-da56-4300-a637-e24ee3d7c7f0"},"vehicle_type_id":"4","last_reported":1724620028,"current_range_meters":18400,"station_id":"ce4bhap2rcd13ifvqek0","pricing_plan_id":"cebpf4jnsgd1na2vs0mg"},{"bike_id":"33fbc317-eb2d-4c88-ba0a-d935cbfa4681","system_id":"levelo_inurba_marseille","lat":43.289184,"lon":5.366408,"is_reserved":false,"is_disabled":false,"rental_uris":{"android":"levelo://app?vid=33fbc317-eb2d-4c88-ba0a-d935cbfa4681","ios":"levelo://app?vid=33fbc317-eb2d-4c88-ba0a-d935cbfa4681"},"vehicle_type_id":"4","last_reported":1724620028,"current_range_meters":16800,"station_id":"ce4bhap2rcd13ifvqek0","pricing_plan_id":"cebpf4jnsgd1na2vs0mg"},{"bike_id":"b6e86e18-9cc6-454a-959f-c564f329a003","system_id":"levelo_inurba_marseille","lat":43.294085,"lon":5.386547,"is_reserved":false,"is_disabled":false,"rental_uris":{"android":"levelo://app?vid=b6e86e18-9cc6-454a-959f-c564f329a003","ios":"levelo://app?vid=b6e86e18-9cc6-454a-959f-c564f329a003"},"vehicle_type_id":"4","last_reported":1724620028,"current_range_meters":22400,"station_id":"ce4bh2h2rcd13ifvqdh0","pricing_plan_id":"cebpf4jnsgd1na2vs0mg"},{"bike_id":"b449506d-ba52-421b-96ef-3b114fa18e74","system_id":"levelo_inurba_marseille","lat":43.304296,"lon":5.397513,"is_reserved":false,"is_disabled":false,"rental_uris":{"android":"levelo://app?vid=b449506d-ba52-421b-96ef-3b114fa18e74","ios":"levelo://app?vid=b449506d-ba52-421b-96ef-3b114fa18e74"},"vehicle_type_id":"4","last_reported":1724620028,"current_range_meters":9200,"station_id":"ce4bh092rcd13ifvqd20","pricing_plan_id":"cebpf4jnsgd1na2vs0mg"},{"bike_id":"0a7e178c-23c3-4541-adf3-e7b51917c182","system_id":"levelo_inurba_marseille","lat":43.304296,"lon":5.397513,"is_reserved":false,"is_disabled":false,"rental_uris":{"android":"levelo://app?vid=0a7e178c-23c3-4541-adf3-e7b51917c182","ios":"levelo://app?vid=0a7e178c-23c3-4541-adf3-e7b51917c182"},"vehicle_type_id":"4","last_reported":1724620028,"current_range_meters":1200,"station_id":"ce4bh092rcd13ifvqd20","pricing_plan_id":"cebpf4jnsgd1na2vs0mg"},{"bike_id":"c8062565-1bdb-414b-863a-b8e7c758f837","system_id":"levelo_inurba_marseille","lat":43.292642,"lon":5.384254,"is_reserved":false,"is_disabled":false,"rental_uris":{"android":"levelo://app?vid=c8062565-1bdb-414b-863a-b8e7c758f837","ios":"levelo://app?vid=c8062565-1bdb-414b-863a-b8e7c758f837"},"vehicle_type_id":"4","last_reported":1724620028,"current_range_meters":9600,"station_id":"ce4bh692rcd13ifvqea0","pricing_plan_id":"cebpf4jnsgd1na2vs0mg"},{"bike_id":"e400aa65-fa40-4733-9ad0-5df37cdbc1b8","system_id":"levelo_inurba_marseille","lat":43.29263,"lon":5.38451,"is_reserved":false,"is_disabled":false,"rental_uris":{"android":"levelo://app?vid=e400aa65-fa40-4733-9ad0-5df37cdbc1b8","ios":"levelo://app?vid=e400aa65-fa40-4733-9ad0-5df37cdbc1b8"},"vehicle_type_id":"4","last_reported":1724620028,"current_range_meters":0,"station_id":"ce4bh692rcd13ifvqea0","pricing_plan_id":"cebpf4jnsgd1na2vs0mg"},{"bike_id":"76d6ea9f-88a7-4d2f-b486-dcc5f752b679","system_id":"levelo_inurba_marseille","lat":43.29251,"lon":5.38445,"is_reserved":false,"is_disabled":false,"rental_uris":{"android":"levelo://app?vid=76d6ea9f-88a7-4d2f-b486-dcc5f752b679","ios":"levelo://app?vid=76d6ea9f-88a7-4d2f-b486-dcc5f752b679"},"vehicle_type_id":"4","last_reported":1724620028,"current_range_meters":31200,"station_id":"ce4bh692rcd13ifvqea0","pricing_plan_id":"cebpf4jnsgd1na2vs0mg"},{"bike_id":"6736f61e-fad3-4e4c-9e30-2cc178c9b031","system_id":"levelo_inurba_marseille","lat":43.29253,"lon":5.38453,"is_reserved":false,"is_disabled":false,"rental_uris":{"android":"levelo://app?vid=6736f61e-fad3-4e4c-9e30-2cc178c9b031","ios":"levelo://app?vid=6736f61e-fad3-4e4c-9e30-2cc178c9b031"},"vehicle_type_id":"4","last_reported":1724620028,"current_range_meters":0,"station_id":"ce4bh692rcd13ifvqea0","pricing_plan_id":"cebpf4jnsgd1na2vs0mg"},{"bike_id":"a52e0b6b-8c2f-4de3-bfe9-f5f6cb7a18c5","system_id":"levelo_inurba_marseille","lat":43.292644,"lon":5.384257,"is_reserved":false,"is_disabled":false,"rental_uris":{"android":"levelo://app?vid=a52e0b6b-8c2f-4de3-bfe9-f5f6cb7a18c5","ios":"levelo://app?vid=a52e0b6b-8c2f-4de3-bfe9-f5f6cb7a18c5"},"vehicle_type_id":"4","last_reported":1724620028,"current_range_meters":26800,"station_id":"ce4bh692rcd13ifvqea0","pricing_plan_id":"cebpf4jnsgd1na2vs0mg"},{"bike_id":"2f6b2371-0fbc-4b43-85fc-dc3954c5271f","system_id":"levelo_inurba_marseille","lat":43.29002,"lon":5.35615,"is_reserved":false,"is_disabled":false,"rental_uris":{"android":"levelo://app?vid=2f6b2371-0fbc-4b43-85fc-dc3954c5271f","ios":"levelo://app?vid=2f6b2371-0fbc-4b43-85fc-dc3954c5271f"},"vehicle_type_id":"4","last_reported":1724620028,"current_range_meters":0,"station_id":"ce4bhb92rcd13ifvqen0","pricing_plan_id":"cebpf4jnsgd1na2vs0mg"},{"bike_id":"94c8019c-2f1d-4912-9de7-a84bd8c87712","system_id":"levelo_inurba_marseille","lat":43.290104,"lon":5.356111,"is_reserved":false,"is_disabled":false,"rental_uris":{"android":"levelo://app?vid=94c8019c-2f1d-4912-9de7-a84bd8c87712","ios":"levelo://app?vid=94c8019c-2f1d-4912-9de7-a84bd8c87712"},"vehicle_type_id":"4","last_reported":1724620028,"current_range_meters":30800,"station_id":"ce4bhb92rcd13ifvqen0","pricing_plan_id":"cebpf4jnsgd1na2vs0mg"},{"bike_id":"a05209b8-2a0a-4a3f-846b-67152678785f","system_id":"levelo_inurba_marseille","lat":43.291,"lon":5.38147,"is_reserved":false,"is_disabled":false,"rental_uris":{"android":"levelo://app?vid=a05209b8-2a0a-4a3f-846b-67152678785f","ios":"levelo://app?vid=a05209b8-2a0a-4a3f-846b-67152678785f"},"vehicle_type_id":"4","last_reported":1724620028,"current_range_meters":0,"station_id":"ce4bh512rcd13ifvqe2g","pricing_plan_id":"cebpf4jnsgd1na2vs0mg"},{"bike_id":"699affdd-4894-4ed5-8a98-ba8b54710f99","system_id":"levelo_inurba_marseille","lat":43.330442,"lon":5.389148,"is_reserved":false,"is_disabled":false,"rental_uris":{"android":"levelo://app?vid=699affdd-4894-4ed5-8a98-ba8b54710f99","ios":"levelo://app?vid=699affdd-4894-4ed5-8a98-ba8b54710f99"},"vehicle_type_id":"4","last_reported":1724620028,"current_range_meters":30400,"station_id":"ce4bhr92rcd13ifvqhrg","pricing_plan_id":"cebpf4jnsgd1na2vs0mg"},{"bike_id":"35177f11-3ba5-4b94-8852-34f2659e2af4","system_id":"levelo_inurba_marseille","lat":43.29791,"lon":5.39347,"is_reserved":false,"is_disabled":false,"rental_uris":{"android":"levelo://app?vid=35177f11-3ba5-4b94-8852-34f2659e2af4","ios":"levelo://app?vid=35177f11-3ba5-4b94-8852-34f2659e2af4"},"vehicle_type_id":"4","last_reported":1724620028,"current_range_meters":8800,"station_id":"chh1huq6cuj3fo74tm60","pricing_plan_id":"cebpf4jnsgd1na2vs0mg"},{"bike_id":"3b24b3d5-1cbe-46c3-a70c-5fa547a2a4e1","system_id":"levelo_inurba_marseille","lat":43.297807,"lon":5.393533,"is_reserved":false,"is_disabled":false,"rental_uris":{"android":"levelo://app?vid=3b24b3d5-1cbe-46c3-a70c-5fa547a2a4e1","ios":"levelo://app?vid=3b24b3d5-1cbe-46c3-a70c-5fa547a2a4e1"},"vehicle_type_id":"4","last_reported":1724620028,"current_range_meters":3200,"station_id":"chh1huq6cuj3fo74tm60","pricing_plan_id":"cebpf4jnsgd1na2vs0mg"},{"bike_id":"1badf805-ff52-42d5-bd69-ebadbe94a1a1","system_id":"levelo_inurba_marseille","lat":43.297807,"lon":5.393533,"is_reserved":false,"is_disabled":false,"rental_uris":{"android":"levelo://app?vid=1badf805-ff52-42d5-bd69-ebadbe94a1a1","ios":"levelo://app?vid=1badf805-ff52-42d5-bd69-ebadbe94a1a1"},"vehicle_type_id":"4","last_reported":1724620028,"current_range_meters":22800,"station_id":"chh1huq6cuj3fo74tm60","pricing_plan_id":"cebpf4jnsgd1na2vs0mg"},{"bike_id":"9a25ba6e-b5d4-463e-8742-fd4aa5659dc0","system_id":"levelo_inurba_marseille","lat":43.289741,"lon":5.378306,"is_reserved":false,"is_disabled":false,"rental_uris":{"android":"levelo://app?vid=9a25ba6e-b5d4-463e-8742-fd4aa5659dc0","ios":"levelo://app?vid=9a25ba6e-b5d4-463e-8742-fd4aa5659dc0"},"vehicle_type_id":"4","last_reported":1724620028,"current_range_meters":5200,"station_id":"ce4bh9p2rcd13ifvqed0","pricing_plan_id":"cebpf4jnsgd1na2vs0mg"},{"bike_id":"dfdd0c0b-3072-41ad-8e86-6b2c04dcce82","system_id":"levelo_inurba_marseille","lat":43.297807,"lon":5.393533,"is_reserved":false,"is_disabled":false,"rental_uris":{"android":"levelo://app?vid=dfdd0c0b-3072-41ad-8e86-6b2c04dcce82","ios":"levelo://app?vid=dfdd0c0b-3072-41ad-8e86-6b2c04dcce82"},"vehicle_type_id":"4","last_reported":1724620028,"current_range_meters":28400,"station_id":"chh1huq6cuj3fo74tm60","pricing_plan_id":"cebpf4jnsgd1na2vs0mg"},{"bike_id":"3c488a12-ce64-4777-89cf-ca348bae950e","system_id":"levelo_inurba_marseille","lat":43.289741,"lon":5.378306,"is_reserved":false,"is_disabled":false,"rental_uris":{"android":"levelo://app?vid=3c488a12-ce64-4777-89cf-ca348bae950e","ios":"levelo://app?vid=3c488a12-ce64-4777-89cf-ca348bae950e"},"vehicle_type_id":"4","last_reported":1724620028,"current_range_meters":17200,"station_id":"ce4bh9p2rcd13ifvqed0","pricing_plan_id":"cebpf4jnsgd1na2vs0mg"},{"bike_id":"90718a45-3a40-4b04-bcf5-d2916bdd6eaf","system_id":"levelo_inurba_marseille","lat":43.330442,"lon":5.389148,"is_reserved":false,"is_disabled":false,"rental_uris":{"android":"levelo://app?vid=90718a45-3a40-4b04-bcf5-d2916bdd6eaf","ios":"levelo://app?vid=90718a45-3a40-4b04-bcf5-d2916bdd6eaf"},"vehicle_type_id":"4","last_reported":1724620028,"current_range_meters":9600,"station_id":"ce4bhr92rcd13ifvqhrg","pricing_plan_id":"cebpf4jnsgd1na2vs0mg"},{"bike_id":"8b306bf0-30da-46ee-a483-2db61a595e94","system_id":"levelo_inurba_marseille","lat":43.330442,"lon":5.389148,"is_reserved":false,"is_disabled":false,"rental_uris":{"android":"levelo://app?vid=8b306bf0-30da-46ee-a483-2db61a595e94","ios":"levelo://app?vid=8b306bf0-30da-46ee-a483-2db61a595e94"},"vehicle_type_id":"4","last_reported":1724620028,"current_range_meters":27600,"station_id":"ce4bhr92rcd13ifvqhrg","pricing_plan_id":"cebpf4jnsgd1na2vs0mg"},{"bike_id":"e24cf5ad-2a76-40f7-a271-2ecc094636ae","system_id":"levelo_inurba_marseille","lat":43.330442,"lon":5.389148,"is_reserved":false,"is_disabled":false,"rental_uris":{"android":"levelo://app?vid=e24cf5ad-2a76-40f7-a271-2ecc094636ae","ios":"levelo://app?vid=e24cf5ad-2a76-40f7-a271-2ecc094636ae"},"vehicle_type_id":"4","last_reported":1724620028,"current_range_meters":23200,"station_id":"ce4bhr92rcd13ifvqhrg","pricing_plan_id":"cebpf4jnsgd1na2vs0mg"},{"bike_id":"b2fabd9e-3b03-4375-8d2a-b9bf95cd5a4d","system_id":"levelo_inurba_marseille","lat":43.330442,"lon":5.389148,"is_reserved":false,"is_disabled":false,"rental_uris":{"android":"levelo://app?vid=b2fabd9e-3b03-4375-8d2a-b9bf95cd5a4d","ios":"levelo://app?vid=b2fabd9e-3b03-4375-8d2a-b9bf95cd5a4d"},"vehicle_type_id":"4","last_reported":1724620028,"current_range_meters":22400,"station_id":"ce4bhr92rcd13ifvqhrg","pricing_plan_id":"cebpf4jnsgd1na2vs0mg"},{"bike_id":"a0407b2b-2fc3-41a9-a4e2-44ace9dcac3c","system_id":"levelo_inurba_marseille","lat":43.330442,"lon":5.389148,"is_reserved":false,"is_disabled":false,"rental_uris":{"android":"levelo://app?vid=a0407b2b-2fc3-41a9-a4e2-44ace9dcac3c","ios":"levelo://app?vid=a0407b2b-2fc3-41a9-a4e2-44ace9dcac3c"},"vehicle_type_id":"4","last_reported":1724620028,"current_range_meters":30400,"station_id":"ce4bhr92rcd13ifvqhrg","pricing_plan_id":"cebpf4jnsgd1na2vs0mg"},{"bike_id":"86f3678b-a010-423b-815f-464903968be4","system_id":"levelo_inurba_marseille","lat":43.33025,"lon":5.39043,"is_reserved":false,"is_disabled":false,"rental_uris":{"android":"levelo://app?vid=86f3678b-a010-423b-815f-464903968be4","ios":"levelo://app?vid=86f3678b-a010-423b-815f-464903968be4"},"vehicle_type_id":"4","last_reported":1724620028,"current_range_meters":26800,"station_id":"ce4bhr92rcd13ifvqhrg","pricing_plan_id":"cebpf4jnsgd1na2vs0mg"},{"bike_id":"7f26ad4d-8a43-4ed4-b2ad-2a20de996ff4","system_id":"levelo_inurba_marseille","lat":43.330442,"lon":5.389148,"is_reserved":false,"is_disabled":false,"rental_uris":{"android":"levelo://app?vid=7f26ad4d-8a43-4ed4-b2ad-2a20de996ff4","ios":"levelo://app?vid=7f26ad4d-8a43-4ed4-b2ad-2a20de996ff4"},"vehicle_type_id":"4","last_reported":1724620028,"current_range_meters":31200,"station_id":"ce4bhr92rcd13ifvqhrg","pricing_plan_id":"cebpf4jnsgd1na2vs0mg"},{"bike_id":"1a3c10ac-0242-42b2-81bb-b09312f52f2c","system_id":"levelo_inurba_marseille","lat":43.295169,"lon":5.390426,"is_reserved":false,"is_disabled":false,"rental_uris":{"android":"levelo://app?vid=1a3c10ac-0242-42b2-81bb-b09312f52f2c","ios":"levelo://app?vid=1a3c10ac-0242-42b2-81bb-b09312f52f2c"},"vehicle_type_id":"4","last_reported":1724620028,"current_range_meters":24000,"station_id":"ce4bh3p2rcd13ifvqdp0","pricing_plan_id":"cebpf4jnsgd1na2vs0mg"},{"bike_id":"8b3c4af9-d08d-4764-972c-d9f6574a231b","system_id":"levelo_inurba_marseille","lat":43.295169,"lon":5.390426,"is_reserved":false,"is_disabled":false,"rental_uris":{"android":"levelo://app?vid=8b3c4af9-d08d-4764-972c-d9f6574a231b","ios":"levelo://app?vid=8b3c4af9-d08d-4764-972c-d9f6574a231b"},"vehicle_type_id":"4","last_reported":1724620028,"current_range_meters":31200,"station_id":"ce4bh3p2rcd13ifvqdp0","pricing_plan_id":"cebpf4jnsgd1na2vs0mg"},{"bike_id":"f77f4418-1eb7-4e04-842e-fb560358dc6d","system_id":"levelo_inurba_marseille","lat":43.305182,"lon":5.398996,"is_reserved":false,"is_disabled":false,"rental_uris":{"android":"levelo://app?vid=f77f4418-1eb7-4e04-842e-fb560358dc6d","ios":"levelo://app?vid=f77f4418-1eb7-4e04-842e-fb560358dc6d"},"vehicle_type_id":"4","last_reported":1724620028,"current_range_meters":7200,"station_id":"","pricing_plan_id":"cebpf4jnsgd1na2vs0mg"},{"bike_id":"bfc266bf-378a-40e6-9912-2f3a0fe859c0","system_id":"levelo_inurba_marseille","lat":43.295169,"lon":5.390426,"is_reserved":false,"is_disabled":false,"rental_uris":{"android":"levelo://app?vid=bfc266bf-378a-40e6-9912-2f3a0fe859c0","ios":"levelo://app?vid=bfc266bf-378a-40e6-9912-2f3a0fe859c0"},"vehicle_type_id":"4","last_reported":1724620028,"current_range_meters":18400,"station_id":"ce4bh3p2rcd13ifvqdp0","pricing_plan_id":"cebpf4jnsgd1na2vs0mg"},{"bike_id":"2320b9d4-cd20-4cb0-bf9c-c6fa8014a20e","system_id":"levelo_inurba_marseille","lat":43.298681,"lon":5.397225,"is_reserved":false,"is_disabled":false,"rental_uris":{"android":"levelo://app?vid=2320b9d4-cd20-4cb0-bf9c-c6fa8014a20e","ios":"levelo://app?vid=2320b9d4-cd20-4cb0-bf9c-c6fa8014a20e"},"vehicle_type_id":"4","last_reported":1724620028,"current_range_meters":18800,"station_id":"ce4bh0h2rcd13ifvqd50","pricing_plan_id":"cebpf4jnsgd1na2vs0mg"},{"bike_id":"a22174b9-b7cf-4d41-9f91-9ffae90af98c","system_id":"levelo_inurba_marseille","lat":43.2901,"lon":5.381269,"is_reserved":false,"is_disabled":false,"rental_uris":{"android":"levelo://app?vid=a22174b9-b7cf-4d41-9f91-9ffae90af98c","ios":"levelo://app?vid=a22174b9-b7cf-4d41-9f91-9ffae90af98c"},"vehicle_type_id":"4","last_reported":1724620028,"current_range_meters":24800,"station_id":"ce4bh4p2rcd13ifvqe1g","pricing_plan_id":"cebpf4jnsgd1na2vs0mg"},{"bike_id":"af32d5c6-543c-44fb-af28-ea68d21ab0c3","system_id":"levelo_inurba_marseille","lat":43.310644,"lon":5.400932,"is_reserved":false,"is_disabled":false,"rental_uris":{"android":"levelo://app?vid=af32d5c6-543c-44fb-af28-ea68d21ab0c3","ios":"levelo://app?vid=af32d5c6-543c-44fb-af28-ea68d21ab0c3"},"vehicle_type_id":"4","last_reported":1724620028,"current_range_meters":0,"station_id":"","pricing_plan_id":"cebpf4jnsgd1na2vs0mg"},{"bike_id":"f7c15cd0-beed-4c78-b5c5-f5e6a745d426","system_id":"levelo_inurba_marseille","lat":43.2901,"lon":5.381269,"is_reserved":false,"is_disabled":false,"rental_uris":{"android":"levelo://app?vid=f7c15cd0-beed-4c78-b5c5-f5e6a745d426","ios":"levelo://app?vid=f7c15cd0-beed-4c78-b5c5-f5e6a745d426"},"vehicle_type_id":"4","last_reported":1724620028,"current_range_meters":10000,"station_id":"ce4bh4p2rcd13ifvqe1g","pricing_plan_id":"cebpf4jnsgd1na2vs0mg"},{"bike_id":"30081d5c-6ea9-41cb-bcd9-885e30575c1d","system_id":"levelo_inurba_marseille","lat":43.312609,"lon":5.401662,"is_reserved":false,"is_disabled":false,"rental_uris":{"android":"levelo://app?vid=30081d5c-6ea9-41cb-bcd9-885e30575c1d","ios":"levelo://app?vid=30081d5c-6ea9-41cb-bcd9-885e30575c1d"},"vehicle_type_id":"4","last_reported":1724620028,"current_range_meters":26800,"station_id":"ce4bh092rcd13ifvqd30","pricing_plan_id":"cebpf4jnsgd1na2vs0mg"},{"bike_id":"122fd252-0c0c-4615-bb8a-6b46480f29e9","system_id":"levelo_inurba_marseille","lat":43.312609,"lon":5.401662,"is_reserved":false,"is_disabled":false,"rental_uris":{"android":"levelo://app?vid=122fd252-0c0c-4615-bb8a-6b46480f29e9","ios":"levelo://app?vid=122fd252-0c0c-4615-bb8a-6b46480f29e9"},"vehicle_type_id":"4","last_reported":1724620028,"current_range_meters":22800,"station_id":"ce4bh092rcd13ifvqd30","pricing_plan_id":"cebpf4jnsgd1na2vs0mg"},{"bike_id":"acaeed05-9439-4b43-8429-b1caee28c579","system_id":"levelo_inurba_marseille","lat":43.312609,"lon":5.401662,"is_reserved":false,"is_disabled":false,"rental_uris":{"android":"levelo://app?vid=acaeed05-9439-4b43-8429-b1caee28c579","ios":"levelo://app?vid=acaeed05-9439-4b43-8429-b1caee28c579"},"vehicle_type_id":"4","last_reported":1724620028,"current_range_meters":10800,"station_id":"ce4bh092rcd13ifvqd30","pricing_plan_id":"cebpf4jnsgd1na2vs0mg"},{"bike_id":"fc535f38-0b61-4df0-bd9b-8340c07a3205","system_id":"levelo_inurba_marseille","lat":43.309371,"lon":5.401449,"is_reserved":false,"is_disabled":false,"rental_uris":{"android":"levelo://app?vid=fc535f38-0b61-4df0-bd9b-8340c07a3205","ios":"levelo://app?vid=fc535f38-0b61-4df0-bd9b-8340c07a3205"},"vehicle_type_id":"4","last_reported":1724620028,"current_range_meters":16000,"station_id":"ce4bgvp2rcd13ifvqct0","pricing_plan_id":"cebpf4jnsgd1na2vs0mg"},{"bike_id":"1831596b-f14c-42aa-8730-4b879b0642f2","system_id":"levelo_inurba_marseille","lat":43.312609,"lon":5.401662,"is_reserved":false,"is_disabled":false,"rental_uris":{"android":"levelo://app?vid=1831596b-f14c-42aa-8730-4b879b0642f2","ios":"levelo://app?vid=1831596b-f14c-42aa-8730-4b879b0642f2"},"vehicle_type_id":"4","last_reported":1724620028,"current_range_meters":28400,"station_id":"ce4bh092rcd13ifvqd30","pricing_plan_id":"cebpf4jnsgd1na2vs0mg"},{"bike_id":"be89fe1f-566b-4d4c-ae93-9e5fcc5f685b","system_id":"levelo_inurba_marseille","lat":43.312609,"lon":5.401662,"is_reserved":false,"is_disabled":false,"rental_uris":{"android":"levelo://app?vid=be89fe1f-566b-4d4c-ae93-9e5fcc5f685b","ios":"levelo://app?vid=be89fe1f-566b-4d4c-ae93-9e5fcc5f685b"},"vehicle_type_id":"4","last_reported":1724620028,"current_range_meters":15600,"station_id":"ce4bh092rcd13ifvqd30","pricing_plan_id":"cebpf4jnsgd1na2vs0mg"},{"bike_id":"9732a888-10d8-49c4-87a8-5eb3e17aaf33","system_id":"levelo_inurba_marseille","lat":43.312609,"lon":5.401662,"is_reserved":false,"is_disabled":false,"rental_uris":{"android":"levelo://app?vid=9732a888-10d8-49c4-87a8-5eb3e17aaf33","ios":"levelo://app?vid=9732a888-10d8-49c4-87a8-5eb3e17aaf33"},"vehicle_type_id":"4","last_reported":1724620028,"current_range_meters":31200,"station_id":"ce4bh092rcd13ifvqd30","pricing_plan_id":"cebpf4jnsgd1na2vs0mg"},{"bike_id":"9ec3d770-57a1-4ee3-8821-86236ebb7c46","system_id":"levelo_inurba_marseille","lat":43.312609,"lon":5.401662,"is_reserved":false,"is_disabled":false,"rental_uris":{"android":"levelo://app?vid=9ec3d770-57a1-4ee3-8821-86236ebb7c46","ios":"levelo://app?vid=9ec3d770-57a1-4ee3-8821-86236ebb7c46"},"vehicle_type_id":"4","last_reported":1724620028,"current_range_meters":23600,"station_id":"ce4bh092rcd13ifvqd30","pricing_plan_id":"cebpf4jnsgd1na2vs0mg"},{"bike_id":"6714f448-80de-404c-98c7-d8c9ec3e3be8","system_id":"levelo_inurba_marseille","lat":43.312609,"lon":5.401662,"is_reserved":false,"is_disabled":false,"rental_uris":{"android":"levelo://app?vid=6714f448-80de-404c-98c7-d8c9ec3e3be8","ios":"levelo://app?vid=6714f448-80de-404c-98c7-d8c9ec3e3be8"},"vehicle_type_id":"4","last_reported":1724620028,"current_range_meters":23600,"station_id":"ce4bh092rcd13ifvqd30","pricing_plan_id":"cebpf4jnsgd1na2vs0mg"},{"bike_id":"f9c28ef8-5fcc-493b-a05b-b9e30870cdda","system_id":"levelo_inurba_marseille","lat":43.312609,"lon":5.401662,"is_reserved":false,"is_disabled":false,"rental_uris":{"android":"levelo://app?vid=f9c28ef8-5fcc-493b-a05b-b9e30870cdda","ios":"levelo://app?vid=f9c28ef8-5fcc-493b-a05b-b9e30870cdda"},"vehicle_type_id":"4","last_reported":1724620028,"current_range_meters":31200,"station_id":"ce4bh092rcd13ifvqd30","pricing_plan_id":"cebpf4jnsgd1na2vs0mg"},{"bike_id":"5996799c-1a47-4ee0-9d2d-fa56d8a1286e","system_id":"levelo_inurba_marseille","lat":43.312609,"lon":5.401662,"is_reserved":false,"is_disabled":false,"rental_uris":{"android":"levelo://app?vid=5996799c-1a47-4ee0-9d2d-fa56d8a1286e","ios":"levelo://app?vid=5996799c-1a47-4ee0-9d2d-fa56d8a1286e"},"vehicle_type_id":"4","last_reported":1724620028,"current_range_meters":20400,"station_id":"ce4bh092rcd13ifvqd30","pricing_plan_id":"cebpf4jnsgd1na2vs0mg"},{"bike_id":"1634e432-f0d3-4d61-8247-09ae44668314","system_id":"levelo_inurba_marseille","lat":43.312609,"lon":5.401662,"is_reserved":false,"is_disabled":false,"rental_uris":{"android":"levelo://app?vid=1634e432-f0d3-4d61-8247-09ae44668314","ios":"levelo://app?vid=1634e432-f0d3-4d61-8247-09ae44668314"},"vehicle_type_id":"4","last_reported":1724620028,"current_range_meters":31200,"station_id":"ce4bh092rcd13ifvqd30","pricing_plan_id":"cebpf4jnsgd1na2vs0mg"},{"bike_id":"c594b3e3-1ba6-43b9-a1c1-be8533666e55","system_id":"levelo_inurba_marseille","lat":43.33751,"lon":5.37441,"is_reserved":false,"is_disabled":false,"rental_uris":{"android":"levelo://app?vid=c594b3e3-1ba6-43b9-a1c1-be8533666e55","ios":"levelo://app?vid=c594b3e3-1ba6-43b9-a1c1-be8533666e55"},"vehicle_type_id":"4","last_reported":1724620028,"current_range_meters":22000,"station_id":"","pricing_plan_id":"cebpf4jnsgd1na2vs0mg"},{"bike_id":"c3b58a26-0558-45a3-8a6d-fb6598e43c6c","system_id":"levelo_inurba_marseille","lat":43.312609,"lon":5.401662,"is_reserved":false,"is_disabled":false,"rental_uris":{"android":"levelo://app?vid=c3b58a26-0558-45a3-8a6d-fb6598e43c6c","ios":"levelo://app?vid=c3b58a26-0558-45a3-8a6d-fb6598e43c6c"},"vehicle_type_id":"4","last_reported":1724620028,"current_range_meters":4800,"station_id":"ce4bh092rcd13ifvqd30","pricing_plan_id":"cebpf4jnsgd1na2vs0mg"},{"bike_id":"a0e34b23-4dd9-45fc-8739-f707ec590116","system_id":"levelo_inurba_marseille","lat":43.312609,"lon":5.401662,"is_reserved":false,"is_disabled":false,"rental_uris":{"android":"levelo://app?vid=a0e34b23-4dd9-45fc-8739-f707ec590116","ios":"levelo://app?vid=a0e34b23-4dd9-45fc-8739-f707ec590116"},"vehicle_type_id":"4","last_reported":1724620028,"current_range_meters":24800,"station_id":"ce4bh092rcd13ifvqd30","pricing_plan_id":"cebpf4jnsgd1na2vs0mg"},{"bike_id":"a7f94ff2-2bf0-4bc3-b762-397ce1a0c905","system_id":"levelo_inurba_marseille","lat":43.312609,"lon":5.401662,"is_reserved":false,"is_disabled":false,"rental_uris":{"android":"levelo://app?vid=a7f94ff2-2bf0-4bc3-b762-397ce1a0c905","ios":"levelo://app?vid=a7f94ff2-2bf0-4bc3-b762-397ce1a0c905"},"vehicle_type_id":"4","last_reported":1724620028,"current_range_meters":31200,"station_id":"ce4bh092rcd13ifvqd30","pricing_plan_id":"cebpf4jnsgd1na2vs0mg"},{"bike_id":"7f5eea91-8c84-401c-96b2-008838e00518","system_id":"levelo_inurba_marseille","lat":43.312609,"lon":5.401662,"is_reserved":false,"is_disabled":false,"rental_uris":{"android":"levelo://app?vid=7f5eea91-8c84-401c-96b2-008838e00518","ios":"levelo://app?vid=7f5eea91-8c84-401c-96b2-008838e00518"},"vehicle_type_id":"4","last_reported":1724620028,"current_range_meters":22800,"station_id":"ce4bh092rcd13ifvqd30","pricing_plan_id":"cebpf4jnsgd1na2vs0mg"},{"bike_id":"4d355077-a133-4c85-8c7d-155b5dac241a","system_id":"levelo_inurba_marseille","lat":43.31268,"lon":5.40185,"is_reserved":false,"is_disabled":false,"rental_uris":{"android":"levelo://app?vid=4d355077-a133-4c85-8c7d-155b5dac241a","ios":"levelo://app?vid=4d355077-a133-4c85-8c7d-155b5dac241a"},"vehicle_type_id":"4","last_reported":1724620028,"current_range_meters":31200,"station_id":"ce4bh092rcd13ifvqd30","pricing_plan_id":"cebpf4jnsgd1na2vs0mg"},{"bike_id":"3fd493d6-7a42-4262-809d-3da1f0a96841","system_id":"levelo_inurba_marseille","lat":43.30645,"lon":5.40078,"is_reserved":false,"is_disabled":false,"rental_uris":{"android":"levelo://app?vid=3fd493d6-7a42-4262-809d-3da1f0a96841","ios":"levelo://app?vid=3fd493d6-7a42-4262-809d-3da1f0a96841"},"vehicle_type_id":"4","last_reported":1724620028,"current_range_meters":12400,"station_id":"ce4bh112rcd13ifvqda0","pricing_plan_id":"cebpf4jnsgd1na2vs0mg"},{"bike_id":"db399c75-49ad-4419-a288-38737e32025d","system_id":"levelo_inurba_marseille","lat":43.337552,"lon":5.374572,"is_reserved":false,"is_disabled":false,"rental_uris":{"android":"levelo://app?vid=db399c75-49ad-4419-a288-38737e32025d","ios":"levelo://app?vid=db399c75-49ad-4419-a288-38737e32025d"},"vehicle_type_id":"4","last_reported":1724620028,"current_range_meters":23600,"station_id":"","pricing_plan_id":"cebpf4jnsgd1na2vs0mg"},{"bike_id":"831f6ccd-7749-4ca2-8b01-dc0b8b27076e","system_id":"levelo_inurba_marseille","lat":43.31252,"lon":5.40188,"is_reserved":false,"is_disabled":false,"rental_uris":{"android":"levelo://app?vid=831f6ccd-7749-4ca2-8b01-dc0b8b27076e","ios":"levelo://app?vid=831f6ccd-7749-4ca2-8b01-dc0b8b27076e"},"vehicle_type_id":"4","last_reported":1724620028,"current_range_meters":31200,"station_id":"ce4bh092rcd13ifvqd30","pricing_plan_id":"cebpf4jnsgd1na2vs0mg"},{"bike_id":"279ed40d-d96c-4924-b8a4-8661e8d72886","system_id":"levelo_inurba_marseille","lat":43.306412,"lon":5.401035,"is_reserved":false,"is_disabled":false,"rental_uris":{"android":"levelo://app?vid=279ed40d-d96c-4924-b8a4-8661e8d72886","ios":"levelo://app?vid=279ed40d-d96c-4924-b8a4-8661e8d72886"},"vehicle_type_id":"4","last_reported":1724620028,"current_range_meters":11200,"station_id":"ce4bh112rcd13ifvqda0","pricing_plan_id":"cebpf4jnsgd1na2vs0mg"},{"bike_id":"a6de0161-1a37-4484-af54-217f3b7611b4","system_id":"levelo_inurba_marseille","lat":43.3375,"lon":5.37493,"is_reserved":false,"is_disabled":false,"rental_uris":{"android":"levelo://app?vid=a6de0161-1a37-4484-af54-217f3b7611b4","ios":"levelo://app?vid=a6de0161-1a37-4484-af54-217f3b7611b4"},"vehicle_type_id":"4","last_reported":1724620028,"current_range_meters":28000,"station_id":"","pricing_plan_id":"cebpf4jnsgd1na2vs0mg"},{"bike_id":"e876c67c-1eec-4527-b522-2361f71f1c62","system_id":"levelo_inurba_marseille","lat":43.3064,"lon":5.40079,"is_reserved":false,"is_disabled":false,"rental_uris":{"android":"levelo://app?vid=e876c67c-1eec-4527-b522-2361f71f1c62","ios":"levelo://app?vid=e876c67c-1eec-4527-b522-2361f71f1c62"},"vehicle_type_id":"4","last_reported":1724620028,"current_range_meters":0,"station_id":"ce4bh112rcd13ifvqda0","pricing_plan_id":"cebpf4jnsgd1na2vs0mg"},{"bike_id":"cdc35d34-57e9-43e1-ac36-c0218dd5a9e1","system_id":"levelo_inurba_marseille","lat":43.337512,"lon":5.374915,"is_reserved":false,"is_disabled":false,"rental_uris":{"android":"levelo://app?vid=cdc35d34-57e9-43e1-ac36-c0218dd5a9e1","ios":"levelo://app?vid=cdc35d34-57e9-43e1-ac36-c0218dd5a9e1"},"vehicle_type_id":"4","last_reported":1724620028,"current_range_meters":16800,"station_id":"","pricing_plan_id":"cebpf4jnsgd1na2vs0mg"},{"bike_id":"dfa062e6-965a-46e3-86c5-1dc86503ede5","system_id":"levelo_inurba_marseille","lat":43.287755,"lon":5.373679,"is_reserved":false,"is_disabled":false,"rental_uris":{"android":"levelo://app?vid=dfa062e6-965a-46e3-86c5-1dc86503ede5","ios":"levelo://app?vid=dfa062e6-965a-46e3-86c5-1dc86503ede5"},"vehicle_type_id":"4","last_reported":1724620028,"current_range_meters":29200,"station_id":"","pricing_plan_id":"cebpf4jnsgd1na2vs0mg"},{"bike_id":"26f0e4c7-d5b8-4921-b6c8-02e00f03b69a","system_id":"levelo_inurba_marseille","lat":43.30642,"lon":5.401031,"is_reserved":false,"is_disabled":false,"rental_uris":{"android":"levelo://app?vid=26f0e4c7-d5b8-4921-b6c8-02e00f03b69a","ios":"levelo://app?vid=26f0e4c7-d5b8-4921-b6c8-02e00f03b69a"},"vehicle_type_id":"4","last_reported":1724620028,"current_range_meters":10800,"station_id":"ce4bh112rcd13ifvqda0","pricing_plan_id":"cebpf4jnsgd1na2vs0mg"},{"bike_id":"1b635017-1f6d-4ccf-887c-5535d999fc49","system_id":"levelo_inurba_marseille","lat":43.33768,"lon":5.37436,"is_reserved":false,"is_disabled":false,"rental_uris":{"android":"levelo://app?vid=1b635017-1f6d-4ccf-887c-5535d999fc49","ios":"levelo://app?vid=1b635017-1f6d-4ccf-887c-5535d999fc49"},"vehicle_type_id":"4","last_reported":1724620028,"current_range_meters":9600,"station_id":"","pricing_plan_id":"cebpf4jnsgd1na2vs0mg"},{"bike_id":"efae1dd1-6f08-44b2-8758-ddc80c511b49","system_id":"levelo_inurba_marseille","lat":43.30642,"lon":5.401031,"is_reserved":false,"is_disabled":false,"rental_uris":{"android":"levelo://app?vid=efae1dd1-6f08-44b2-8758-ddc80c511b49","ios":"levelo://app?vid=efae1dd1-6f08-44b2-8758-ddc80c511b49"},"vehicle_type_id":"4","last_reported":1724620028,"current_range_meters":14000,"station_id":"ce4bh112rcd13ifvqda0","pricing_plan_id":"cebpf4jnsgd1na2vs0mg"},{"bike_id":"b55c1f2b-32e5-4707-9957-743afc50ee61","system_id":"levelo_inurba_marseille","lat":43.301117,"lon":5.398795,"is_reserved":false,"is_disabled":false,"rental_uris":{"android":"levelo://app?vid=b55c1f2b-32e5-4707-9957-743afc50ee61","ios":"levelo://app?vid=b55c1f2b-32e5-4707-9957-743afc50ee61"},"vehicle_type_id":"4","last_reported":1724620028,"current_range_meters":30400,"station_id":"ce4bh0h2rcd13ifvqd40","pricing_plan_id":"cebpf4jnsgd1na2vs0mg"},{"bike_id":"501e54c9-1478-4eee-98ca-68ea0f16b8c7","system_id":"levelo_inurba_marseille","lat":43.30136,"lon":5.39863,"is_reserved":false,"is_disabled":false,"rental_uris":{"android":"levelo://app?vid=501e54c9-1478-4eee-98ca-68ea0f16b8c7","ios":"levelo://app?vid=501e54c9-1478-4eee-98ca-68ea0f16b8c7"},"vehicle_type_id":"4","last_reported":1724620028,"current_range_meters":31200,"station_id":"ce4bh0h2rcd13ifvqd40","pricing_plan_id":"cebpf4jnsgd1na2vs0mg"},{"bike_id":"90d25ede-1856-415d-a945-9d8d6d4989aa","system_id":"levelo_inurba_marseille","lat":43.30145,"lon":5.39871,"is_reserved":false,"is_disabled":false,"rental_uris":{"android":"levelo://app?vid=90d25ede-1856-415d-a945-9d8d6d4989aa","ios":"levelo://app?vid=90d25ede-1856-415d-a945-9d8d6d4989aa"},"vehicle_type_id":"4","last_reported":1724620028,"current_range_meters":21600,"station_id":"ce4bh0h2rcd13ifvqd40","pricing_plan_id":"cebpf4jnsgd1na2vs0mg"},{"bike_id":"4fde47ea-f23c-4e48-8911-f7d1b1fd83f2","system_id":"levelo_inurba_marseille","lat":43.28727,"lon":5.36078,"is_reserved":false,"is_disabled":false,"rental_uris":{"android":"levelo://app?vid=4fde47ea-f23c-4e48-8911-f7d1b1fd83f2","ios":"levelo://app?vid=4fde47ea-f23c-4e48-8911-f7d1b1fd83f2"},"vehicle_type_id":"4","last_reported":1724620028,"current_range_meters":14400,"station_id":"cki0cbj6b192h4jlfktg","pricing_plan_id":"cebpf4jnsgd1na2vs0mg"},{"bike_id":"b30310d5-c348-420e-883d-7b3fe6c25a67","system_id":"levelo_inurba_marseille","lat":43.28727,"lon":5.36078,"is_reserved":false,"is_disabled":false,"rental_uris":{"android":"levelo://app?vid=b30310d5-c348-420e-883d-7b3fe6c25a67","ios":"levelo://app?vid=b30310d5-c348-420e-883d-7b3fe6c25a67"},"vehicle_type_id":"4","last_reported":1724620028,"current_range_meters":400,"station_id":"cki0cbj6b192h4jlfktg","pricing_plan_id":"cebpf4jnsgd1na2vs0mg"},