{"last_updated":1781341164,"ttl":60,"version":"2.2","data":{"bikes":[{"bike_id":"ec12d144-24c8-4071-abf6-197e520eae96","system_id":"levelo_inurba_marseille","lat":43.337444,"lon":5.374475,"is_reserved":false,"is_disabled":false,"rental_uris":{"android":"levelo://app?vid=ec12d144-24c8-4071-abf6-197e520eae96","ios":"levelo://app?vid=ec12d144-24c8-4071-abf6-197e520eae96"},"vehicle_type_id":"4","last_reported":1781341165,"current_range_meters":0,"station_id":"","pricing_plan_id":"cebpf4jnsgd1na2vs0mg"},{"bike_id":"0ed557ef-f847-4c44-aa5f-5403680fa420","system_id":"levelo_inurba_marseille","lat":43.30148,"lon":5.380709,"is_reserved":false,"is_disabled":false,"rental_uris":{"android":"levelo://app?vid=0ed557ef-f847-4c44-aa5f-5403680fa420","ios":"levelo://app?vid=0ed557ef-f847-4c44-aa5f-5403680fa420"},"vehicle_type_id":"4","last_reported":1781341165,"current_range_meters":1600,"station_id":"ce4bgjp2rcd13ifvqbh0","pricing_plan_id":"cebpf4jnsgd1na2vs0mg"},{"bike_id":"50bf3ab9-b210-47ad-b2d7-2c4678361f26","system_id":"levelo_inurba_marseille","lat":43.29795,"lon":5.38088,"is_reserved":false,"is_disabled":false,"rental_uris":{"android":"levelo://app?vid=50bf3ab9-b210-47ad-b2d7-2c4678361f26","ios":"levelo://app?vid=50bf3ab9-b210-47ad-b2d7-2c4678361f26"},"vehicle_type_id":"4","last_reported":1781341165,"current_range_meters":2800,"station_id":"ce4bgip2rcd13ifvqbb0","pricing_plan_id":"cebpf4jnsgd1na2vs0mg"},{"bike_id":"75957e17-14b6-4bb3-bf2a-65abfaecf665","system_id":"levelo_inurba_marseille","lat":43.30161,"lon":5.38112,"is_reserved":false,"is_disabled":false,"rental_uris":{"android":"levelo://app?vid=75957e17-14b6-4bb3-bf2a-65abfaecf665","ios":"levelo://app?vid=75957e17-14b6-4bb3-bf2a-65abfaecf665"},"vehicle_type_id":"4","last_reported":1781341165,"current_range_meters":2800,"station_id":"ce4bgjp2rcd13ifvqbh0","pricing_plan_id":"cebpf4jnsgd1na2vs0mg"},{"bike_id":"694cb4eb-4a1f-4a8f-a8a8-d0ef5546c187","system_id":"levelo_inurba_marseille","lat":43.26546,"lon":5.37289,"is_reserved":false,"is_disabled":false,"rental_uris":{"android":"levelo://app?vid=694cb4eb-4a1f-4a8f-a8a8-d0ef5546c187","ios":"levelo://app?vid=694cb4eb-4a1f-4a8f-a8a8-d0ef5546c187"},"vehicle_type_id":"4","last_reported":1781341165,"current_range_meters":2800,"station_id":"ce4bhg12rcd13ifvqf70","pricing_plan_id":"cebpf4jnsgd1na2vs0mg"},{"bike_id":"70beb0aa-d301-49aa-951d-61025b7c5b64","system_id":"levelo_inurba_marseille","lat":43.31717,"lon":5.37738,"is_reserved":false,"is_disabled":false,"rental_uris":{"android":"levelo://app?vid=70beb0aa-d301-49aa-951d-61025b7c5b64","ios":"levelo://app?vid=70beb0aa-d301-49aa-951d-61025b7c5b64"},"vehicle_type_id":"4","last_reported":1781341165,"current_range_meters":2800,"station_id":"ce4bgth2rcd13ifvqch0","pricing_plan_id":"cebpf4jnsgd1na2vs0mg"},{"bike_id":"b4c0f195-58a3-456c-9ed4-e0663f1468e6","system_id":"levelo_inurba_marseille","lat":43.28266,"lon":5.37401,"is_reserved":false,"is_disabled":false,"rental_uris":{"android":"levelo://app?vid=b4c0f195-58a3-456c-9ed4-e0663f1468e6","ios":"levelo://app?vid=b4c0f195-58a3-456c-9ed4-e0663f1468e6"},"vehicle_type_id":"4","last_reported":1781341165,"current_range_meters":2800,"station_id":"","pricing_plan_id":"cebpf4jnsgd1na2vs0mg"},{"bike_id":"f0200c08-2b44-4b6e-aae5-49f3fb56a5c1","system_id":"levelo_inurba_marseille","lat":43.30124,"lon":5.39223,"is_reserved":false,"is_disabled":false,"rental_uris":{"android":"levelo://app?vid=f0200c08-2b44-4b6e-aae5-49f3fb56a5c1","ios":"levelo://app?vid=f0200c08-2b44-4b6e-aae5-49f3fb56a5c1"},"vehicle_type_id":"4","last_reported":1781341165,"current_range_meters":2800,"station_id":"","pricing_plan_id":"cebpf4jnsgd1na2vs0mg"},{"bike_id":"30831359-d01b-4ab6-8cce-7be7a0507ea9","system_id":"levelo_inurba_marseille","lat":43.25721,"lon":5.41105,"is_reserved":false,"is_disabled":false,"rental_uris":{"android":"levelo://app?vid=30831359-d01b-4ab6-8cce-7be7a0507ea9","ios":"levelo://app?vid=30831359-d01b-4ab6-8cce-7be7a0507ea9"},"vehicle_type_id":"4","last_reported":1781341165,"current_range_meters":2800,"station_id":"ce4bhkp2rcd13ifvqgd0","pricing_plan_id":"cebpf4jnsgd1na2vs0mg"},{"bike_id":"8b37e8ed-378d-4c3d-98e7-9d0044328e1f","system_id":"levelo_inurba_marseille","lat":43.29079,"lon":5.37151,"is_reserved":false,"is_disabled":false,"rental_uris":{"android":"levelo://app?vid=8b37e8ed-378d-4c3d-98e7-9d0044328e1f","ios":"levelo://app?vid=8b37e8ed-378d-4c3d-98e7-9d0044328e1f"},"vehicle_type_id":"4","last_reported":1781341165,"current_range_meters":2800,"station_id":"ce4bh5p2rcd13ifvqe4g","pricing_plan_id":"cebpf4jnsgd1na2vs0mg"},{"bike_id":"df621b5a-4007-4472-be8e-29d63b488430","system_id":"levelo_inurba_marseille","lat":43.23975,"lon":5.36635,"is_reserved":false,"is_disabled":false,"rental_uris":{"android":"levelo://app?vid=df621b5a-4007-4472-be8e-29d63b488430","ios":"levelo://app?vid=df621b5a-4007-4472-be8e-29d63b488430"},"vehicle_type_id":"4","last_reported":1781341165,"current_range_meters":2800,"station_id":"ce4bhi12rcd13ifvqfp0","pricing_plan_id":"cebpf4jnsgd1na2vs0mg"},{"bike_id":"dbcda9ae-c30a-47f2-91a8-8dac9b33d85e","system_id":"levelo_inurba_marseille","lat":43.2802,"lon":5.36049,"is_reserved":false,"is_disabled":false,"rental_uris":{"android":"levelo://app?vid=dbcda9ae-c30a-47f2-91a8-8dac9b33d85e","ios":"levelo://app?vid=dbcda9ae-c30a-47f2-91a8-8dac9b33d85e"},"vehicle_type_id":"4","last_reported":1781341165,"current_range_meters":2800,"station_id":"","pricing_plan_id":"cebpf4jnsgd1na2vs0mg"},{"bike_id":"497db4fe-414c-4f3e-9d03-238169542317","system_id":"levelo_inurba_marseille","lat":43.35071,"lon":5.35074,"is_reserved":false,"is_disabled":false,"rental_uris":{"android":"levelo://app?vid=497db4fe-414c-4f3e-9d03-238169542317","ios":"levelo://app?vid=497db4fe-414c-4f3e-9d03-238169542317"},"vehicle_type_id":"4","last_reported":1781341165,"current_range_meters":3200,"station_id":"","pricing_plan_id":"cebpf4jnsgd1na2vs0mg"},{"bike_id":"52e0ca30-f6db-4b40-a595-fe3e1b7ca10e","system_id":"levelo_inurba_marseille","lat":43.25124,"lon":5.40323,"is_reserved":false,"is_disabled":true,"rental_uris":{"android":"levelo://app?vid=52e0ca30-f6db-4b40-a595-fe3e1b7ca10e","ios":"levelo://app?vid=52e0ca30-f6db-4b40-a595-fe3e1b7ca10e"},"vehicle_type_id":"4","last_reported":1781341165,"current_range_meters":3200,"station_id":"ce4bhlh2rcd13ifvqgig","pricing_plan_id":"cebpf4jnsgd1na2vs0mg"},{"bike_id":"e45e1124-95d4-4314-ac4c-3fe5309e96cb","system_id":"levelo_inurba_marseille","lat":43.27204,"lon":5.40962,"is_reserved":false,"is_disabled":false,"rental_uris":{"android":"levelo://app?vid=e45e1124-95d4-4314-ac4c-3fe5309e96cb","ios":"levelo://app?vid=e45e1124-95d4-4314-ac4c-3fe5309e96cb"},"vehicle_type_id":"4","last_reported":1781341165,"current_range_meters":3200,"station_id":"ce4bhl12rcd13ifvqgf0","pricing_plan_id":"cebpf4jnsgd1na2vs0mg"},{"bike_id":"ddca55a8-e739-444a-85b1-1f7f96ddd4cf","system_id":"levelo_inurba_marseille","lat":43.28255,"lon":5.35067,"is_reserved":false,"is_disabled":false,"rental_uris":{"android":"levelo://app?vid=ddca55a8-e739-444a-85b1-1f7f96ddd4cf","ios":"levelo://app?vid=ddca55a8-e739-444a-85b1-1f7f96ddd4cf"},"vehicle_type_id":"4","last_reported":1781341165,"current_range_meters":3200,"station_id":"ce4bhbp2rcd13ifvqerg","pricing_plan_id":"cebpf4jnsgd1na2vs0mg"},{"bike_id":"5868bc47-e30d-49b5-b51a-7a8a5eb4eb1b","system_id":"levelo_inurba_marseille","lat":43.31515,"lon":5.37288,"is_reserved":false,"is_disabled":false,"rental_uris":{"android":"levelo://app?vid=5868bc47-e30d-49b5-b51a-7a8a5eb4eb1b","ios":"levelo://app?vid=5868bc47-e30d-49b5-b51a-7a8a5eb4eb1b"},"vehicle_type_id":"4","last_reported":1781341165,"current_range_meters":3200,"station_id":"ce4bgt12rcd13ifvqcd0","pricing_plan_id":"cebpf4jnsgd1na2vs0mg"},{"bike_id":"edd7f6cf-c00d-4334-ba4f-ddda86c6a12e","system_id":"levelo_inurba_marseille","lat":43.30245,"lon":5.37637,"is_reserved":false,"is_disabled":false,"rental_uris":{"android":"levelo://app?vid=edd7f6cf-c00d-4334-ba4f-ddda86c6a12e","ios":"levelo://app?vid=edd7f6cf-c00d-4334-ba4f-ddda86c6a12e"},"vehicle_type_id":"4","last_reported":1781341165,"current_range_meters":3200,"station_id":"","pricing_plan_id":"cebpf4jnsgd1na2vs0mg"},{"bike_id":"8ebd92b7-0571-4c42-993d-e47d6c3be6ca","system_id":"levelo_inurba_marseille","lat":43.2257,"lon":5.41627,"is_reserved":false,"is_disabled":false,"rental_uris":{"android":"levelo://app?vid=8ebd92b7-0571-4c42-993d-e47d6c3be6ca","ios":"levelo://app?vid=8ebd92b7-0571-4c42-993d-e47d6c3be6ca"},"vehicle_type_id":"4","last_reported":1781341165,"current_range_meters":3200,"station_id":"st_d2o4gvlbi1j2169b742g","pricing_plan_id":"cebpf4jnsgd1na2vs0mg"},{"bike_id":"6c149b80-daf1-4dc6-b899-1e8147e8b6f7","system_id":"levelo_inurba_marseille","lat":43.25078,"lon":5.40401,"is_reserved":false,"is_disabled":false,"rental_uris":{"android":"levelo://app?vid=6c149b80-daf1-4dc6-b899-1e8147e8b6f7","ios":"levelo://app?vid=6c149b80-daf1-4dc6-b899-1e8147e8b6f7"},"vehicle_type_id":"4","last_reported":1781341165,"current_range_meters":3200,"station_id":"","pricing_plan_id":"cebpf4jnsgd1na2vs0mg"},{"bike_id":"a50af965-b87b-4f91-9b9a-3e26dc71f7c1","system_id":"levelo_inurba_marseille","lat":43.29074,"lon":5.43864,"is_reserved":false,"is_disabled":false,"rental_uris":{"android":"levelo://app?vid=a50af965-b87b-4f91-9b9a-3e26dc71f7c1","ios":"levelo://app?vid=a50af965-b87b-4f91-9b9a-3e26dc71f7c1"},"vehicle_type_id":"4","last_reported":1781341165,"current_range_meters":3200,"station_id":"","pricing_plan_id":"cebpf4jnsgd1na2vs0mg"},{"bike_id":"cdb51552-946c-4f57-8807-f1cfa55d450c","system_id":"levelo_inurba_marseille","lat":43.31545,"lon":5.37296,"is_reserved":false,"is_disabled":true,"rental_uris":{"android":"levelo://app?vid=cdb51552-946c-4f57-8807-f1cfa55d450c","ios":"levelo://app?vid=cdb51552-946c-4f57-8807-f1cfa55d450c"},"vehicle_type_id":"4","last_reported":1781341165,"current_range_meters":3200,"station_id":"","pricing_plan_id":"cebpf4jnsgd1na2vs0mg"},{"bike_id":"95a6a820-080c-4047-9edc-2eab85cc3ea0","system_id":"levelo_inurba_marseille","lat":43.31223,"lon":5.37283,"is_reserved":false,"is_disabled":false,"rental_uris":{"android":"levelo://app?vid=95a6a820-080c-4047-9edc-2eab85cc3ea0","ios":"levelo://app?vid=95a6a820-080c-4047-9edc-2eab85cc3ea0"},"vehicle_type_id":"4","last_reported":1781341165,"current_range_meters":3200,"station_id":"","pricing_plan_id":"cebpf4jnsgd1na2vs0mg"},{"bike_id":"d44d1305-f3d5-496c-aa36-6bfc9a948d0e","system_id":"levelo_inurba_marseille","lat":43.30143,"lon":5.38766,"is_reserved":false,"is_disabled":false,"rental_uris":{"android":"levelo://app?vid=d44d1305-f3d5-496c-aa36-6bfc9a948d0e","ios":"levelo://app?vid=d44d1305-f3d5-496c-aa36-6bfc9a948d0e"},"vehicle_type_id":"4","last_reported":1781341165,"current_range_meters":3200,"station_id":"ce4bghh2rcd13ifvqb60","pricing_plan_id":"cebpf4jnsgd1na2vs0mg"},{"bike_id":"1c98abbc-5109-4928-805d-65f05598d16e","system_id":"levelo_inurba_marseille","lat":43.28869,"lon":5.35889,"is_reserved":false,"is_disabled":false,"rental_uris":{"android":"levelo://app?vid=1c98abbc-5109-4928-805d-65f05598d16e","ios":"levelo://app?vid=1c98abbc-5109-4928-805d-65f05598d16e"},"vehicle_type_id":"4","last_reported":1781341165,"current_range_meters":3600,"station_id":"ce4bhb12rcd13ifvqem0","pricing_plan_id":"cebpf4jnsgd1na2vs0mg"},{"bike_id":"ba9e662c-c195-4d37-b478-8ff41eecf68d","system_id":"levelo_inurba_marseille","lat":43.29453,"lon":5.39758,"is_reserved":false,"is_disabled":false,"rental_uris":{"android":"levelo://app?vid=ba9e662c-c195-4d37-b478-8ff41eecf68d","ios":"levelo://app?vid=ba9e662c-c195-4d37-b478-8ff41eecf68d"},"vehicle_type_id":"4","last_reported":1781341165,"current_range_meters":3600,"station_id":"ce4bh3h2rcd13ifvqdo0","pricing_plan_id":"cebpf4jnsgd1na2vs0mg"},{"bike_id":"34d571b2-7447-44f4-ad5a-1e998394f77b","system_id":"levelo_inurba_marseille","lat":43.30344,"lon":5.41896,"is_reserved":false,"is_disabled":false,"rental_uris":{"android":"levelo://app?vid=34d571b2-7447-44f4-ad5a-1e998394f77b","ios":"levelo://app?vid=34d571b2-7447-44f4-ad5a-1e998394f77b"},"vehicle_type_id":"4","last_reported":1781341165,"current_range_meters":3600,"station_id":"ce4bhop2rcd13ifvqh7g","pricing_plan_id":"cebpf4jnsgd1na2vs0mg"},{"bike_id":"379f8066-5ce1-4a4c-bfaa-9fd9ac023697","system_id":"levelo_inurba_marseille","lat":43.30734,"lon":5.42448,"is_reserved":false,"is_disabled":false,"rental_uris":{"android":"levelo://app?vid=379f8066-5ce1-4a4c-bfaa-9fd9ac023697","ios":"levelo://app?vid=379f8066-5ce1-4a4c-bfaa-9fd9ac023697"},"vehicle_type_id":"4","last_reported":1781341165,"current_range_meters":3600,"station_id":"st_cvj6ca6bvosntc0bfgr0","pricing_plan_id":"cebpf4jnsgd1na2vs0mg"},{"bike_id":"b105e559-ad92-41ad-9bdf-4bd2f454dd68","system_id":"levelo_inurba_marseille","lat":43.30154,"lon":5.4496,"is_reserved":false,"is_disabled":false,"rental_uris":{"android":"levelo://app?vid=b105e559-ad92-41ad-9bdf-4bd2f454dd68","ios":"levelo://app?vid=b105e559-ad92-41ad-9bdf-4bd2f454dd68"},"vehicle_type_id":"4","last_reported":1781341165,"current_range_meters":3600,"station_id":"","pricing_plan_id":"cebpf4jnsgd1na2vs0mg"},{"bike_id":"8549ed76-d067-4e8e-8122-bf5cc7918ab0","system_id":"levelo_inurba_marseille","lat":43.27823,"lon":5.40719,"is_reserved":false,"is_disabled":false,"rental_uris":{"android":"levelo://app?vid=8549ed76-d067-4e8e-8122-bf5cc7918ab0","ios":"levelo://app?vid=8549ed76-d067-4e8e-8122-bf5cc7918ab0"},"vehicle_type_id":"4","last_reported":1781341165,"current_range_meters":3600,"station_id":"ce4bhnh2rcd13ifvqgtg","pricing_plan_id":"cebpf4jnsgd1na2vs0mg"},{"bike_id":"8ec584c5-513c-4f69-a1dc-c46420911cc0","system_id":"levelo_inurba_marseille","lat":43.25332,"lon":5.42157,"is_reserved":false,"is_disabled":false,"rental_uris":{"android":"levelo://app?vid=8ec584c5-513c-4f69-a1dc-c46420911cc0","ios":"levelo://app?vid=8ec584c5-513c-4f69-a1dc-c46420911cc0"},"vehicle_type_id":"4","last_reported":1781341165,"current_range_meters":3600,"station_id":"st_d2m65c5bi1j21697t3ng","pricing_plan_id":"cebpf4jnsgd1na2vs0mg"},{"bike_id":"cae71ddf-1770-4b1b-95b4-fe12f03eb6e6","system_id":"levelo_inurba_marseille","lat":43.28441,"lon":5.39181,"is_reserved":false,"is_disabled":false,"rental_uris":{"android":"levelo://app?vid=cae71ddf-1770-4b1b-95b4-fe12f03eb6e6","ios":"levelo://app?vid=cae71ddf-1770-4b1b-95b4-fe12f03eb6e6"},"vehicle_type_id":"4","last_reported":1781341165,"current_range_meters":3600,"station_id":"ce4bhoh2rcd13ifvqh5g","pricing_plan_id":"cebpf4jnsgd1na2vs0mg"},{"bike_id":"a4b5c841-081f-4864-9ad4-e1c7a6e60416","system_id":"levelo_inurba_marseille","lat":43.2379,"lon":5.36628,"is_reserved":false,"is_disabled":true,"rental_uris":{"android":"levelo://app?vid=a4b5c841-081f-4864-9ad4-e1c7a6e60416","ios":"levelo://app?vid=a4b5c841-081f-4864-9ad4-e1c7a6e60416"},"vehicle_type_id":"4","last_reported":1781341165,"current_range_meters":3600,"station_id":"st_d3nk18o9ro0c73en2l3g","pricing_plan_id":"cebpf4jnsgd1na2vs0mg"},{"bike_id":"b154e503-5e6b-4b2c-aea8-7afe1c19122c","system_id":"levelo_inurba_marseille","lat":43.28104,"lon":5.4264,"is_reserved":false,"is_disabled":false,"rental_uris":{"android":"levelo://app?vid=b154e503-5e6b-4b2c-aea8-7afe1c19122c","ios":"levelo://app?vid=b154e503-5e6b-4b2c-aea8-7afe1c19122c"},"vehicle_type_id":"4","last_reported":1781341165,"current_range_meters":3600,"station_id":"","pricing_plan_id":"cebpf4jnsgd1na2vs0mg"},{"bike_id":"ee494397-ad1c-4b5e-80ed-9cc6e888762d","system_id":"levelo_inurba_marseille","lat":43.31893,"lon":5.42484,"is_reserved":false,"is_disabled":false,"rental_uris":{"android":"levelo://app?vid=ee494397-ad1c-4b5e-80ed-9cc6e888762d","ios":"levelo://app?vid=ee494397-ad1c-4b5e-80ed-9cc6e888762d"},"vehicle_type_id":"4","last_reported":1781341165,"current_range_meters":3600,"station_id":"","pricing_plan_id":"cebpf4jnsgd1na2vs0mg"},{"bike_id":"70f0bc29-7bd0-43d0-8163-83e56721f61e","system_id":"levelo_inurba_marseille","lat":43.21192,"lon":5.35072,"is_reserved":false,"is_disabled":false,"rental_uris":{"android":"levelo://app?vid=70f0bc29-7bd0-43d0-8163-83e56721f61e","ios":"levelo://app?vid=70f0bc29-7bd0-43d0-8163-83e56721f61e"},"vehicle_type_id":"4","last_reported":1781341165,"current_range_meters":3600,"station_id":"st_cvj6sg6p6f1abm77japg","pricing_plan_id":"cebpf4jnsgd1na2vs0mg"},{"bike_id":"4bbd9026-ac9b-4dc1-97ad-6610089734db","system_id":"levelo_inurba_marseille","lat":43.31566,"lon":5.38794,"is_reserved":false,"is_disabled":false,"rental_uris":{"android":"levelo://app?vid=4bbd9026-ac9b-4dc1-97ad-6610089734db","ios":"levelo://app?vid=4bbd9026-ac9b-4dc1-97ad-6610089734db"},"vehicle_type_id":"4","last_reported":1781341165,"current_range_meters":4000,"station_id":"","pricing_plan_id":"cebpf4jnsgd1na2vs0mg"},{"bike_id":"a3a4b2b7-f60b-4415-9325-6d491744cd93","system_id":"levelo_inurba_marseille","lat":43.28845,"lon":5.39305,"is_reserved":false,"is_disabled":false,"rental_uris":{"android":"levelo://app?vid=a3a4b2b7-f60b-4415-9325-6d491744cd93","ios":"levelo://app?vid=a3a4b2b7-f60b-4415-9325-6d491744cd93"},"vehicle_type_id":"4","last_reported":1781341165,"current_range_meters":4000,"station_id":"ce4bh2p2rcd13ifvqdi0","pricing_plan_id":"cebpf4jnsgd1na2vs0mg"},{"bike_id":"15f87de7-5c26-42c4-9f78-afc027a1d926","system_id":"levelo_inurba_marseille","lat":43.23175,"lon":5.35544,"is_reserved":false,"is_disabled":false,"rental_uris":{"android":"levelo://app?vid=15f87de7-5c26-42c4-9f78-afc027a1d926","ios":"levelo://app?vid=15f87de7-5c26-42c4-9f78-afc027a1d926"},"vehicle_type_id":"4","last_reported":1781341165,"current_range_meters":4000,"station_id":"ce4bhu92rcd13ifvqi70","pricing_plan_id":"cebpf4jnsgd1na2vs0mg"},{"bike_id":"ca746b02-5fb3-4c3a-9223-47a2952e9ff2","system_id":"levelo_inurba_marseille","lat":43.28484,"lon":5.38558,"is_reserved":false,"is_disabled":false,"rental_uris":{"android":"levelo://app?vid=ca746b02-5fb3-4c3a-9223-47a2952e9ff2","ios":"levelo://app?vid=ca746b02-5fb3-4c3a-9223-47a2952e9ff2"},"vehicle_type_id":"4","last_reported":1781341165,"current_range_meters":4000,"station_id":"ce4bh8p2rcd13ifvqeb0","pricing_plan_id":"cebpf4jnsgd1na2vs0mg"},{"bike_id":"8a9f3474-1ba5-4fc3-b4e6-1d2f8579f9d1","system_id":"levelo_inurba_marseille","lat":43.26573,"lon":5.39018,"is_reserved":false,"is_disabled":true,"rental_uris":{"android":"levelo://app?vid=8a9f3474-1ba5-4fc3-b4e6-1d2f8579f9d1","ios":"levelo://app?vid=8a9f3474-1ba5-4fc3-b4e6-1d2f8579f9d1"},"vehicle_type_id":"4","last_reported":1781341165,"current_range_meters":4000,"station_id":"ce4bhe12rcd13ifvqf30","pricing_plan_id":"cebpf4jnsgd1na2vs0mg"},{"bike_id":"d3862ea1-fa39-463c-98c9-6efbc86109cd","system_id":"levelo_inurba_marseille","lat":43.24799,"lon":5.37447,"is_reserved":false,"is_disabled":false,"rental_uris":{"android":"levelo://app?vid=d3862ea1-fa39-463c-98c9-6efbc86109cd","ios":"levelo://app?vid=d3862ea1-fa39-463c-98c9-6efbc86109cd"},"vehicle_type_id":"4","last_reported":1781341165,"current_range_meters":4000,"station_id":"ce4bhgh2rcd13ifvqfb0","pricing_plan_id":"cebpf4jnsgd1na2vs0mg"},{"bike_id":"a318bc01-9889-445e-ad9e-b36118278119","system_id":"levelo_inurba_marseille","lat":43.286,"lon":5.3511,"is_reserved":false,"is_disabled":true,"rental_uris":{"android":"levelo://app?vid=a318bc01-9889-445e-ad9e-b36118278119","ios":"levelo://app?vid=a318bc01-9889-445e-ad9e-b36118278119"},"vehicle_type_id":"4","last_reported":1781341165,"current_range_meters":4000,"station_id":"ce4bhch2rcd13ifvqeug","pricing_plan_id":"cebpf4jnsgd1na2vs0mg"},{"bike_id":"256e289f-64f1-4d2d-95a5-92b8d0bd9870","system_id":"levelo_inurba_marseille","lat":43.284618,"lon":5.358909,"is_reserved":false,"is_disabled":false,"rental_uris":{"android":"levelo://app?vid=256e289f-64f1-4d2d-95a5-92b8d0bd9870","ios":"levelo://app?vid=256e289f-64f1-4d2d-95a5-92b8d0bd9870"},"vehicle_type_id":"4","last_reported":1781341165,"current_range_meters":4000,"station_id":"ce4bhah2rcd13ifvqei0","pricing_plan_id":"cebpf4jnsgd1na2vs0mg"},{"bike_id":"3e6d8bd8-ecda-47bb-9209-82b012d7e98b","system_id":"levelo_inurba_marseille","lat":43.30933,"lon":5.4014,"is_reserved":false,"is_disabled":false,"rental_uris":{"android":"levelo://app?vid=3e6d8bd8-ecda-47bb-9209-82b012d7e98b","ios":"levelo://app?vid=3e6d8bd8-ecda-47bb-9209-82b012d7e98b"},"vehicle_type_id":"4","last_reported":1781341165,"current_range_meters":4000,"station_id":"ce4bgvp2rcd13ifvqct0","pricing_plan_id":"cebpf4jnsgd1na2vs0mg"},{"bike_id":"77b974f9-a632-44af-9f8c-17ef6ed95bf9","system_id":"levelo_inurba_marseille","lat":43.28284,"lon":5.35075,"is_reserved":false,"is_disabled":false,"rental_uris":{"android":"levelo://app?vid=77b974f9-a632-44af-9f8c-17ef6ed95bf9","ios":"levelo://app?vid=77b974f9-a632-44af-9f8c-17ef6ed95bf9"},"vehicle_type_id":"4","last_reported":1781341165,"current_range_meters":4000,"station_id":"ce4bhbp2rcd13ifvqerg","pricing_plan_id":"cebpf4jnsgd1na2vs0mg"},{"bike_id":"76ff20aa-c2bd-4fa2-8dca-7099f4d9bbe6","system_id":"levelo_inurba_marseille","lat":43.21191,"lon":5.35052,"is_reserved":false,"is_disabled":false,"rental_uris":{"android":"levelo://app?vid=76ff20aa-c2bd-4fa2-8dca-7099f4d9bbe6","ios":"levelo://app?vid=76ff20aa-c2bd-4fa2-8dca-7099f4d9bbe6"},"vehicle_type_id":"4","last_reported":1781341165,"current_range_meters":4000,"station_id":"st_cvj6sg6p6f1abm77japg","pricing_plan_id":"cebpf4jnsgd1na2vs0mg"},{"bike_id":"7c56fbf2-b06b-4ad4-bd6e-fb0ad9ba401c","system_id":"levelo_inurba_marseille","lat":43.28731,"lon":5.37948,"is_reserved":false,"is_disabled":true,"rental_uris":{"android":"levelo://app?vid=7c56fbf2-b06b-4ad4-bd6e-fb0ad9ba401c","ios":"levelo://app?vid=7c56fbf2-b06b-4ad4-bd6e-fb0ad9ba401c"},"vehicle_type_id":"4","last_reported":1781341165,"current_range_meters":4400,"station_id":"ce4bh9p2rcd13ifvqec0","pricing_plan_id":"cebpf4jnsgd1na2vs0mg"},{"bike_id":"0b5cbfd6-9c75-4477-af25-b8dc3e218845","system_id":"levelo_inurba_marseille","lat":43.29797,"lon":5.38084,"is_reserved":false,"is_disabled":false,"rental_uris":{"android":"levelo://app?vid=0b5cbfd6-9c75-4477-af25-b8dc3e218845","ios":"levelo://app?vid=0b5cbfd6-9c75-4477-af25-b8dc3e218845"},"vehicle_type_id":"4","last_reported":1781341165,"current_range_meters":4400,"station_id":"ce4bgip2rcd13ifvqbb0","pricing_plan_id":"cebpf4jnsgd1na2vs0mg"},{"bike_id":"d39db183-6bf7-420a-96f5-b25822544857","system_id":"levelo_inurba_marseille","lat":43.32356,"lon":5.36741,"is_reserved":false,"is_disabled":false,"rental_uris":{"android":"levelo://app?vid=d39db183-6bf7-420a-96f5-b25822544857","ios":"levelo://app?vid=d39db183-6bf7-420a-96f5-b25822544857"},"vehicle_type_id":"4","last_reported":1781341165,"current_range_meters":4400,"station_id":"ce4bhsh2rcd13ifvqi2g","pricing_plan_id":"cebpf4jnsgd1na2vs0mg"},{"bike_id":"a0d2ac5f-fff6-43f6-831d-dfa81e9c3981","system_id":"levelo_inurba_marseille","lat":43.29604,"lon":5.36429,"is_reserved":false,"is_disabled":false,"rental_uris":{"android":"levelo://app?vid=a0d2ac5f-fff6-43f6-831d-dfa81e9c3981","ios":"levelo://app?vid=a0d2ac5f-fff6-43f6-831d-dfa81e9c3981"},"vehicle_type_id":"4","last_reported":1781341165,"current_range_meters":4400,"station_id":"","pricing_plan_id":"cebpf4jnsgd1na2vs0mg"},{"bike_id":"2d65b860-94da-4574-a20f-82b65ca5f84b","system_id":"levelo_inurba_marseille","lat":43.22558,"lon":5.41627,"is_reserved":false,"is_disabled":false,"rental_uris":{"android":"levelo://app?vid=2d65b860-94da-4574-a20f-82b65ca5f84b","ios":"levelo://app?vid=2d65b860-94da-4574-a20f-82b65ca5f84b"},"vehicle_type_id":"4","last_reported":1781341165,"current_range_meters":4400,"station_id":"st_d2o4gvlbi1j2169b742g","pricing_plan_id":"cebpf4jnsgd1na2vs0mg"},{"bike_id":"fb2a1f7d-f7e9-4d12-bb3c-32e8cd55f82d","system_id":"levelo_inurba_marseille","lat":43.29068,"lon":5.4426,"is_reserved":false,"is_disabled":false,"rental_uris":{"android":"levelo://app?vid=fb2a1f7d-f7e9-4d12-bb3c-32e8cd55f82d","ios":"levelo://app?vid=fb2a1f7d-f7e9-4d12-bb3c-32e8cd55f82d"},"vehicle_type_id":"4","last_reported":1781341165,"current_range_meters":4400,"station_id":"","pricing_plan_id":"cebpf4jnsgd1na2vs0mg"},{"bike_id":"5ab25b28-e35d-4f10-9ca9-7d658cce4ea9","system_id":"levelo_inurba_marseille","lat":43.28914,"lon":5.38384,"is_reserved":false,"is_disabled":true,"rental_uris":{"android":"levelo://app?vid=5ab25b28-e35d-4f10-9ca9-7d658cce4ea9","ios":"levelo://app?vid=5ab25b28-e35d-4f10-9ca9-7d658cce4ea9"},"vehicle_type_id":"4","last_reported":1781341165,"current_range_meters":4400,"station_id":"ce4bh612rcd13ifvqe6g","pricing_plan_id":"cebpf4jnsgd1na2vs0mg"},{"bike_id":"0970bf3a-be23-4a5e-bdd9-f52548a20638","system_id":"levelo_inurba_marseille","lat":43.30955,"lon":5.39029,"is_reserved":false,"is_disabled":false,"rental_uris":{"android":"levelo://app?vid=0970bf3a-be23-4a5e-bdd9-f52548a20638","ios":"levelo://app?vid=0970bf3a-be23-4a5e-bdd9-f52548a20638"},"vehicle_type_id":"4","last_reported":1781341165,"current_range_meters":4400,"station_id":"ce4bgup2rcd13ifvqco0","pricing_plan_id":"cebpf4jnsgd1na2vs0mg"},{"bike_id":"29f89edd-ea47-4769-ba03-c94739969a4f","system_id":"levelo_inurba_marseille","lat":43.29366,"lon":5.40171,"is_reserved":false,"is_disabled":false,"rental_uris":{"android":"levelo://app?vid=29f89edd-ea47-4769-ba03-c94739969a4f","ios":"levelo://app?vid=29f89edd-ea47-4769-ba03-c94739969a4f"},"vehicle_type_id":"4","last_reported":1781341165,"current_range_meters":4400,"station_id":"","pricing_plan_id":"cebpf4jnsgd1na2vs0mg"},{"bike_id":"2c5cf9f1-0f74-46f8-9d12-70a47c497260","system_id":"levelo_inurba_marseille","lat":43.30958,"lon":5.39034,"is_reserved":false,"is_disabled":false,"rental_uris":{"android":"levelo://app?vid=2c5cf9f1-0f74-46f8-9d12-70a47c497260","ios":"levelo://app?vid=2c5cf9f1-0f74-46f8-9d12-70a47c497260"},"vehicle_type_id":"4","last_reported":1781341165,"current_range_meters":4400,"station_id":"ce4bgup2rcd13ifvqco0","pricing_plan_id":"cebpf4jnsgd1na2vs0mg"},{"bike_id":"9baebc47-9a21-445a-b575-5e8cc4ed7549","system_id":"levelo_inurba_marseille","lat":43.28468,"lon":5.48395,"is_reserved":false,"is_disabled":false,"rental_uris":{"android":"levelo://app?vid=9baebc47-9a21-445a-b575-5e8cc4ed7549","ios":"levelo://app?vid=9baebc47-9a21-445a-b575-5e8cc4ed7549"},"vehicle_type_id":"4","last_reported":1781341165,"current_range_meters":4400,"station_id":"st_d3svhcjqgbts73a3dn0g","pricing_plan_id":"cebpf4jnsgd1na2vs0mg"},{"bike_id":"2882d32d-720c-4b6b-b52a-a70816ab5176","system_id":"levelo_inurba_marseille","lat":43.24633,"lon":5.43139,"is_reserved":false,"is_disabled":false,"rental_uris":{"android":"levelo://app?vid=2882d32d-720c-4b6b-b52a-a70816ab5176","ios":"levelo://app?vid=2882d32d-720c-4b6b-b52a-a70816ab5176"},"vehicle_type_id":"4","last_reported":1781341165,"current_range_meters":4400,"station_id":"st_d2m6c4gdas8pm72e190g","pricing_plan_id":"cebpf4jnsgd1na2vs0mg"},{"bike_id":"7717390a-9f55-4678-b2a5-ba0a73b8a548","system_id":"levelo_inurba_marseille","lat":43.31599,"lon":5.36973,"is_reserved":false,"is_disabled":false,"rental_uris":{"android":"levelo://app?vid=7717390a-9f55-4678-b2a5-ba0a73b8a548","ios":"levelo://app?vid=7717390a-9f55-4678-b2a5-ba0a73b8a548"},"vehicle_type_id":"4","last_reported":1781341165,"current_range_meters":4400,"station_id":"","pricing_plan_id":"cebpf4jnsgd1na2vs0mg"},{"bike_id":"cdaa4188-ec22-4134-8a24-557ae2e107d4","system_id":"levelo_inurba_marseille","lat":43.29023,"lon":5.38621,"is_reserved":false,"is_disabled":true,"rental_uris":{"android":"levelo://app?vid=cdaa4188-ec22-4134-8a24-557ae2e107d4","ios":"levelo://app?vid=cdaa4188-ec22-4134-8a24-557ae2e107d4"},"vehicle_type_id":"4","last_reported":1781341165,"current_range_meters":4400,"station_id":"ce4bh4p2rcd13ifvqe0g","pricing_plan_id":"cebpf4jnsgd1na2vs0mg"},{"bike_id":"e6cf441d-ce53-4103-bb07-7c9c071ed491","system_id":"levelo_inurba_marseille","lat":43.28471,"lon":5.38418,"is_reserved":false,"is_disabled":false,"rental_uris":{"android":"levelo://app?vid=e6cf441d-ce53-4103-bb07-7c9c071ed491","ios":"levelo://app?vid=e6cf441d-ce53-4103-bb07-7c9c071ed491"},"vehicle_type_id":"4","last_reported":1781341165,"current_range_meters":4400,"station_id":"ce4bh512rcd13ifvqe3g","pricing_plan_id":"cebpf4jnsgd1na2vs0mg"},{"bike_id":"67d79504-0563-4610-907f-80e12b8075dc","system_id":"levelo_inurba_marseille","lat":43.24408,"lon":5.37069,"is_reserved":false,"is_disabled":false,"rental_uris":{"android":"levelo://app?vid=67d79504-0563-4610-907f-80e12b8075dc","ios":"levelo://app?vid=67d79504-0563-4610-907f-80e12b8075dc"},"vehicle_type_id":"4","last_reported":1781341165,"current_range_meters":4800,"station_id":"ce4bhhh2rcd13ifvqfk0","pricing_plan_id":"cebpf4jnsgd1na2vs0mg"},{"bike_id":"44577758-9781-4e26-a98a-6f13509dbbf8","system_id":"levelo_inurba_marseille","lat":43.33723,"lon":5.39175,"is_reserved":false,"is_disabled":false,"rental_uris":{"android":"levelo://app?vid=44577758-9781-4e26-a98a-6f13509dbbf8","ios":"levelo://app?vid=44577758-9781-4e26-a98a-6f13509dbbf8"},"vehicle_type_id":"4","last_reported":1781341165,"current_range_meters":4800,"station_id":"ce4bhr92rcd13ifvqhsg","pricing_plan_id":"cebpf4jnsgd1na2vs0mg"},{"bike_id":"dbec9561-ef7f-41df-80d3-2c0c18917c60","system_id":"levelo_inurba_marseille","lat":43.30532,"lon":5.36535,"is_reserved":false,"is_disabled":false,"rental_uris":{"android":"levelo://app?vid=dbec9561-ef7f-41df-80d3-2c0c18917c60","ios":"levelo://app?vid=dbec9561-ef7f-41df-80d3-2c0c18917c60"},"vehicle_type_id":"4","last_reported":1781341165,"current_range_meters":4800,"station_id":"ce4bgs12rcd13ifvqcag","pricing_plan_id":"cebpf4jnsgd1na2vs0mg"},{"bike_id":"2f86dca4-711f-4105-8f52-e190a5543aaf","system_id":"levelo_inurba_marseille","lat":43.22531,"lon":5.34819,"is_reserved":false,"is_disabled":false,"rental_uris":{"android":"levelo://app?vid=2f86dca4-711f-4105-8f52-e190a5543aaf","ios":"levelo://app?vid=2f86dca4-711f-4105-8f52-e190a5543aaf"},"vehicle_type_id":"4","last_reported":1781341165,"current_range_meters":4800,"station_id":"st_cvj5dfep6f1abm77gieg","pricing_plan_id":"cebpf4jnsgd1na2vs0mg"},{"bike_id":"f312a474-3688-43e4-8515-a784a5c48528","system_id":"levelo_inurba_marseille","lat":43.21182,"lon":5.35084,"is_reserved":false,"is_disabled":true,"rental_uris":{"android":"levelo://app?vid=f312a474-3688-43e4-8515-a784a5c48528","ios":"levelo://app?vid=f312a474-3688-43e4-8515-a784a5c48528"},"vehicle_type_id":"4","last_reported":1781341165,"current_range_meters":4800,"station_id":"st_cvj6sg6p6f1abm77japg","pricing_plan_id":"cebpf4jnsgd1na2vs0mg"},{"bike_id":"6592f03d-a34c-4add-9022-fdbf188f6bdf","system_id":"levelo_inurba_marseille","lat":43.23193,"lon":5.3996,"is_reserved":false,"is_disabled":false,"rental_uris":{"android":"levelo://app?vid=6592f03d-a34c-4add-9022-fdbf188f6bdf","ios":"levelo://app?vid=6592f03d-a34c-4add-9022-fdbf188f6bdf"},"vehicle_type_id":"4","last_reported":1781341165,"current_range_meters":4800,"station_id":"ce4bhn12rcd13ifvqgqg","pricing_plan_id":"cebpf4jnsgd1na2vs0mg"},{"bike_id":"375aa780-9294-44bf-9f1a-d3f215aa635a","system_id":"levelo_inurba_marseille","lat":43.30562,"lon":5.36505,"is_reserved":false,"is_disabled":false,"rental_uris":{"android":"levelo://app?vid=375aa780-9294-44bf-9f1a-d3f215aa635a","ios":"levelo://app?vid=375aa780-9294-44bf-9f1a-d3f215aa635a"},"vehicle_type_id":"4","last_reported":1781341165,"current_range_meters":4800,"station_id":"ce4bgs12rcd13ifvqcag","pricing_plan_id":"cebpf4jnsgd1na2vs0mg"},{"bike_id":"a921a687-4f8b-4d1b-a254-2ddeeeaf8a37","system_id":"levelo_inurba_marseille","lat":43.24211,"lon":5.37091,"is_reserved":false,"is_disabled":false,"rental_uris":{"android":"levelo://app?vid=a921a687-4f8b-4d1b-a254-2ddeeeaf8a37","ios":"levelo://app?vid=a921a687-4f8b-4d1b-a254-2ddeeeaf8a37"},"vehicle_type_id":"4","last_reported":1781341165,"current_range_meters":4800,"station_id":"","pricing_plan_id":"cebpf4jnsgd1na2vs0mg"},{"bike_id":"bd9b6a68-643b-4076-b66c-3437c3dc0dba","system_id":"levelo_inurba_marseille","lat":43.28613,"lon":5.35094,"is_reserved":false,"is_disabled":false,"rental_uris":{"android":"levelo://app?vid=bd9b6a68-643b-4076-b66c-3437c3dc0dba","ios":"levelo://app?vid=bd9b6a68-643b-4076-b66c-3437c3dc0dba"},"vehicle_type_id":"4","last_reported":1781341165,"current_range_meters":4800,"station_id":"ce4bhch2rcd13ifvqeug","pricing_plan_id":"cebpf4jnsgd1na2vs0mg"},{"bike_id":"ccc32958-168e-4c33-8a28-5da0464cfb12","system_id":"levelo_inurba_marseille","lat":43.23156,"lon":5.4371,"is_reserved":false,"is_disabled":false,"rental_uris":{"android":"levelo://app?vid=ccc32958-168e-4c33-8a28-5da0464cfb12","ios":"levelo://app?vid=ccc32958-168e-4c33-8a28-5da0464cfb12"},"vehicle_type_id":"4","last_reported":1781341165,"current_range_meters":4800,"station_id":"ce4bhmp2rcd13ifvqgog","pricing_plan_id":"cebpf4jnsgd1na2vs0mg"},{"bike_id":"dba08d41-a0bc-48d4-8b57-3a1f571fc795","system_id":"levelo_inurba_marseille","lat":43.2416,"lon":5.39705,"is_reserved":false,"is_disabled":false,"rental_uris":{"android":"levelo://app?vid=dba08d41-a0bc-48d4-8b57-3a1f571fc795","ios":"levelo://app?vid=dba08d41-a0bc-48d4-8b57-3a1f571fc795"},"vehicle_type_id":"4","last_reported":1781341165,"current_range_meters":4800,"station_id":"ce4bhn12rcd13ifvqgpg","pricing_plan_id":"cebpf4jnsgd1na2vs0mg"},{"bike_id":"6cd47c38-243b-47f1-a692-ea5981badca2","system_id":"levelo_inurba_marseille","lat":43.28281,"lon":5.35073,"is_reserved":false,"is_disabled":false,"rental_uris":{"android":"levelo://app?vid=6cd47c38-243b-47f1-a692-ea5981badca2","ios":"levelo://app?vid=6cd47c38-243b-47f1-a692-ea5981badca2"},"vehicle_type_id":"4","last_reported":1781341165,"current_range_meters":4800,"station_id":"ce4bhbp2rcd13ifvqerg","pricing_plan_id":"cebpf4jnsgd1na2vs0mg"},{"bike_id":"edd47405-d388-4d04-852e-90210eefdaf9","system_id":"levelo_inurba_marseille","lat":43.23147,"lon":5.43718,"is_reserved":false,"is_disabled":false,"rental_uris":{"android":"levelo://app?vid=edd47405-d388-4d04-852e-90210eefdaf9","ios":"levelo://app?vid=edd47405-d388-4d04-852e-90210eefdaf9"},"vehicle_type_id":"4","last_reported":1781341165,"current_range_meters":4800,"station_id":"ce4bhmp2rcd13ifvqgog","pricing_plan_id":"cebpf4jnsgd1na2vs0mg"},{"bike_id":"6063d252-323b-431a-9439-3c3a4c45c525","system_id":"levelo_inurba_marseille","lat":43.2987,"lon":5.36278,"is_reserved":false,"is_disabled":true,"rental_uris":{"android":"levelo://app?vid=6063d252-323b-431a-9439-3c3a4c45c525","ios":"levelo://app?vid=6063d252-323b-431a-9439-3c3a4c45c525"},"vehicle_type_id":"4","last_reported":1781341165,"current_range_meters":4800,"station_id":"ce4bgpp2rcd13ifvqc3g","pricing_plan_id":"cebpf4jnsgd1na2vs0mg"},{"bike_id":"d67515b1-2020-42b4-a2cc-d9a608471893","system_id":"levelo_inurba_marseille","lat":43.30144,"lon":5.38085,"is_reserved":false,"is_disabled":false,"rental_uris":{"android":"levelo://app?vid=d67515b1-2020-42b4-a2cc-d9a608471893","ios":"levelo://app?vid=d67515b1-2020-42b4-a2cc-d9a608471893"},"vehicle_type_id":"4","last_reported":1781341165,"current_range_meters":4800,"station_id":"ce4bgjp2rcd13ifvqbh0","pricing_plan_id":"cebpf4jnsgd1na2vs0mg"},{"bike_id":"6a7afd93-57ec-47a1-be55-6cce2f341269","system_id":"levelo_inurba_marseille","lat":43.28455,"lon":5.35886,"is_reserved":false,"is_disabled":false,"rental_uris":{"android":"levelo://app?vid=6a7afd93-57ec-47a1-be55-6cce2f341269","ios":"levelo://app?vid=6a7afd93-57ec-47a1-be55-6cce2f341269"},"vehicle_type_id":"4","last_reported":1781341165,"current_range_meters":4800,"station_id":"ce4bhah2rcd13ifvqei0","pricing_plan_id":"cebpf4jnsgd1na2vs0mg"},{"bike_id":"789bb187-05f0-427e-a77f-6842144ea4ab","system_id":"levelo_inurba_marseille","lat":43.24627,"lon":5.43148,"is_reserved":false,"is_disabled":false,"rental_uris":{"android":"levelo://app?vid=789bb187-05f0-427e-a77f-6842144ea4ab","ios":"levelo://app?vid=789bb187-05f0-427e-a77f-6842144ea4ab"},"vehicle_type_id":"4","last_reported":1781341165,"current_range_meters":4800,"station_id":"st_d2m6c4gdas8pm72e190g","pricing_plan_id":"cebpf4jnsgd1na2vs0mg"},{"bike_id":"932afb10-d230-406f-a6e2-098fe36a2de4","system_id":"levelo_inurba_marseille","lat":43.25387,"lon":5.42163,"is_reserved":false,"is_disabled":false,"rental_uris":{"android":"levelo://app?vid=932afb10-d230-406f-a6e2-098fe36a2de4","ios":"levelo://app?vid=932afb10-d230-406f-a6e2-098fe36a2de4"},"vehicle_type_id":"4","last_reported":1781341165,"current_range_meters":5600,"station_id":"","pricing_plan_id":"cebpf4jnsgd1na2vs0mg"},{"bike_id":"2bee0b71-7313-4479-a12e-bf2e45d84741","system_id":"levelo_inurba_marseille","lat":43.29702,"lon":5.36616,"is_reserved":false,"is_disabled":false,"rental_uris":{"android":"levelo://app?vid=2bee0b71-7313-4479-a12e-bf2e45d84741","ios":"levelo://app?vid=2bee0b71-7313-4479-a12e-bf2e45d84741"},"vehicle_type_id":"4","last_reported":1781341165,"current_range_meters":5600,"station_id":"ce4bgn12rcd13ifvqbt0","pricing_plan_id":"cebpf4jnsgd1na2vs0mg"},{"bike_id":"7ec5ac6c-1ad1-484e-b1ac-0dd6240aeac8","system_id":"levelo_inurba_marseille","lat":43.3218,"lon":5.36788,"is_reserved":false,"is_disabled":false,"rental_uris":{"android":"levelo://app?vid=7ec5ac6c-1ad1-484e-b1ac-0dd6240aeac8","ios":"levelo://app?vid=7ec5ac6c-1ad1-484e-b1ac-0dd6240aeac8"},"vehicle_type_id":"4","last_reported":1781341165,"current_range_meters":5600,"station_id":"ce4bhrh2rcd13ifvqhug","pricing_plan_id":"cebpf4jnsgd1na2vs0mg"},{"bike_id":"62a7283c-3986-4a36-a4a9-466e25d3d521","system_id":"levelo_inurba_marseille","lat":43.26936,"lon":5.38908,"is_reserved":false,"is_disabled":true,"rental_uris":{"android":"levelo://app?vid=62a7283c-3986-4a36-a4a9-466e25d3d521","ios":"levelo://app?vid=62a7283c-3986-4a36-a4a9-466e25d3d521"},"vehicle_type_id":"4","last_reported":1781341165,"current_range_meters":5600,"station_id":"ce4bhhh2rcd13ifvqfl0","pricing_plan_id":"cebpf4jnsgd1na2vs0mg"},{"bike_id":"e738b281-1c19-4894-b368-371a22b6cfd1","system_id":"levelo_inurba_marseille","lat":43.29004,"lon":5.35599,"is_reserved":false,"is_disabled":false,"rental_uris":{"android":"levelo://app?vid=e738b281-1c19-4894-b368-371a22b6cfd1","ios":"levelo://app?vid=e738b281-1c19-4894-b368-371a22b6cfd1"},"vehicle_type_id":"4","last_reported":1781341165,"current_range_meters":5600,"station_id":"ce4bhb92rcd13ifvqen0","pricing_plan_id":"cebpf4jnsgd1na2vs0mg"},{"bike_id":"116e7e79-df73-459e-bb6d-922ab4ccb8bd","system_id":"levelo_inurba_marseille","lat":43.21212,"lon":5.35062,"is_reserved":false,"is_disabled":false,"rental_uris":{"android":"levelo://app?vid=116e7e79-df73-459e-bb6d-922ab4ccb8bd","ios":"levelo://app?vid=116e7e79-df73-459e-bb6d-922ab4ccb8bd"},"vehicle_type_id":"4","last_reported":1781341165,"current_range_meters":5600,"station_id":"st_cvj6sg6p6f1abm77japg","pricing_plan_id":"cebpf4jnsgd1na2vs0mg"},{"bike_id":"61abc050-794c-43f3-96ae-15565612cd1b","system_id":"levelo_inurba_marseille","lat":43.28694,"lon":5.46658,"is_reserved":false,"is_disabled":false,"rental_uris":{"android":"levelo://app?vid=61abc050-794c-43f3-96ae-15565612cd1b","ios":"levelo://app?vid=61abc050-794c-43f3-96ae-15565612cd1b"},"vehicle_type_id":"4","last_reported":1781341165,"current_range_meters":5600,"station_id":"st_d6tc3vkotcvc738tfjhg","pricing_plan_id":"cebpf4jnsgd1na2vs0mg"},{"bike_id":"e128b65e-1a46-4b25-bad3-8ba661209936","system_id":"levelo_inurba_marseille","lat":43.29275,"lon":5.40144,"is_reserved":false,"is_disabled":false,"rental_uris":{"android":"levelo://app?vid=e128b65e-1a46-4b25-bad3-8ba661209936","ios":"levelo://app?vid=e128b65e-1a46-4b25-bad3-8ba661209936"},"vehicle_type_id":"4","last_reported":1781341165,"current_range_meters":5600,"station_id":"ce4bh312rcd13ifvqdk0","pricing_plan_id":"cebpf4jnsgd1na2vs0mg"},{"bike_id":"3548b3e0-6d02-4658-8ed0-5d3c5826fc11","system_id":"levelo_inurba_marseille","lat":43.29256,"lon":5.37609,"is_reserved":false,"is_disabled":false,"rental_uris":{"android":"levelo://app?vid=3548b3e0-6d02-4658-8ed0-5d3c5826fc11","ios":"levelo://app?vid=3548b3e0-6d02-4658-8ed0-5d3c5826fc11"},"vehicle_type_id":"4","last_reported":1781341165,"current_range_meters":5600,"station_id":"ce4bgi12rcd13ifvqb80","pricing_plan_id":"cebpf4jnsgd1na2vs0mg"},{"bike_id":"86e244b1-b6ba-4aff-bc02-a57a3af6fd31","system_id":"levelo_inurba_marseille","lat":43.23194,"lon":5.35545,"is_reserved":false,"is_disabled":false,"rental_uris":{"android":"levelo://app?vid=86e244b1-b6ba-4aff-bc02-a57a3af6fd31","ios":"levelo://app?vid=86e244b1-b6ba-4aff-bc02-a57a3af6fd31"},"vehicle_type_id":"4","last_reported":1781341165,"current_range_meters":5600,"station_id":"ce4bhu92rcd13ifvqi70","pricing_plan_id":"cebpf4jnsgd1na2vs0mg"},{"bike_id":"75a8d4bb-5b93-4cf3-8f56-e58ee660da96","system_id":"levelo_inurba_marseille","lat":43.2419,"lon":5.40803,"is_reserved":false,"is_disabled":false,"rental_uris":{"android":"levelo://app?vid=75a8d4bb-5b93-4cf3-8f56-e58ee660da96","ios":"levelo://app?vid=75a8d4bb-5b93-4cf3-8f56-e58ee660da96"},"vehicle_type_id":"4","last_reported":1781341165,"current_range_meters":5600,"station_id":"","pricing_plan_id":"cebpf4jnsgd1na2vs0mg"},{"bike_id":"1f4cf7cf-98e2-40ce-8e0b-c74ae682295d","system_id":"levelo_inurba_marseille","lat":43.26257,"lon":5.38782,"is_reserved":false,"is_disabled":false,"rental_uris":{"android":"levelo://app?vid=1f4cf7cf-98e2-40ce-8e0b-c74ae682295d","ios":"levelo://app?vid=1f4cf7cf-98e2-40ce-8e0b-c74ae682295d"},"vehicle_type_id":"4","last_reported":1781341165,"current_range_meters":5600,"station_id":"","pricing_plan_id":"cebpf4jnsgd1na2vs0mg"},{"bike_id":"82cdc0d4-ef96-4485-9864-910a3ebf6cc6","system_id":"levelo_inurba_marseille","lat":43.27627,"lon":5.36096,"is_reserved":false,"is_disabled":false,"rental_uris":{"android":"levelo://app?vid=82cdc0d4-ef96-4485-9864-910a3ebf6cc6","ios":"levelo://app?vid=82cdc0d4-ef96-4485-9864-910a3ebf6cc6"},"vehicle_type_id":"4","last_reported":1781341165,"current_range_meters":5600,"station_id":"ce4bgj92rcd13ifvqbe0","pricing_plan_id":"cebpf4jnsgd1na2vs0mg"},{"bike_id":"ed1b8ea2-ecf3-46da-8352-26963074c835","system_id":"levelo_inurba_marseille","lat":43.24453,"lon":5.42543,"is_reserved":false,"is_disabled":false,"rental_uris":{"android":"levelo://app?vid=ed1b8ea2-ecf3-46da-8352-26963074c835","ios":"levelo://app?vid=ed1b8ea2-ecf3-46da-8352-26963074c835"},"vehicle_type_id":"4","last_reported":1781341165,"current_range_meters":5600,"station_id":"st_d4a3vfp97mjs738cd8kg","pricing_plan_id":"cebpf4jnsgd1na2vs0mg"},{"bike_id":"3ea61c54-5ae4-4ec5-8d1e-95c813254f6e","system_id":"levelo_inurba_marseille","lat":43.24462,"lon":5.42522,"is_reserved":false,"is_disabled":false,"rental_uris":{"android":"levelo://app?vid=3ea61c54-5ae4-4ec5-8d1e-95c813254f6e","ios":"levelo://app?vid=3ea61c54-5ae4-4ec5-8d1e-95c813254f6e"},"vehicle_type_id":"4","last_reported":1781341165,"current_range_meters":5600,"station_id":"st_d4a3vfp97mjs738cd8kg","pricing_plan_id":"cebpf4jnsgd1na2vs0mg"},{"bike_id":"9f069751-295a-496b-b19c-281f4491a5fd","system_id":"levelo_inurba_marseille","lat":43.35115,"lon":5.3501,"is_reserved":false,"is_disabled":false,"rental_uris":{"android":"levelo://app?vid=9f069751-295a-496b-b19c-281f4491a5fd","ios":"levelo://app?vid=9f069751-295a-496b-b19c-281f4491a5fd"},"vehicle_type_id":"4","last_reported":1781341165,"current_range_meters":6000,"station_id":"","pricing_plan_id":"cebpf4jnsgd1na2vs0mg"},{"bike_id":"b250cbdb-4d15-48f1-8d3b-9f0804befd16","system_id":"levelo_inurba_marseille","lat":43.25343,"lon":5.42171,"is_reserved":false,"is_disabled":false,"rental_uris":{"android":"levelo://app?vid=b250cbdb-4d15-48f1-8d3b-9f0804befd16","ios":"levelo://app?vid=b250cbdb-4d15-48f1-8d3b-9f0804befd16"},"vehicle_type_id":"4","last_reported":1781341165,"current_range_meters":6000,"station_id":"st_d2m65c5bi1j21697t3ng","pricing_plan_id":"cebpf4jnsgd1na2vs0mg"},{"bike_id":"6a27404a-fd45-46ef-b0c6-d19df52b0472","system_id":"levelo_inurba_marseille","lat":43.30035,"lon":5.3771,"is_reserved":false,"is_disabled":false,"rental_uris":{"android":"levelo://app?vid=6a27404a-fd45-46ef-b0c6-d19df52b0472","ios":"levelo://app?vid=6a27404a-fd45-46ef-b0c6-d19df52b0472"},"vehicle_type_id":"4","last_reported":1781341165,"current_range_meters":6000,"station_id":"","pricing_plan_id":"cebpf4jnsgd1na2vs0mg"},{"bike_id":"d43d82bc-dd66-4ccb-ba98-7fe9c5e7c015","system_id":"levelo_inurba_marseille","lat":43.27202,"lon":5.39194,"is_reserved":false,"is_disabled":true,"rental_uris":{"android":"levelo://app?vid=d43d82bc-dd66-4ccb-ba98-7fe9c5e7c015","ios":"levelo://app?vid=d43d82bc-dd66-4ccb-ba98-7fe9c5e7c015"},"vehicle_type_id":"4","last_reported":1781341165,"current_range_meters":6000,"station_id":"ce4bhhp2rcd13ifvqfm0","pricing_plan_id":"cebpf4jnsgd1na2vs0mg"},{"bike_id":"abe6cceb-7fd9-4b65-a9cf-5abedce13f87","system_id":"levelo_inurba_marseille","lat":43.3042,"lon":5.39748,"is_reserved":false,"is_disabled":false,"rental_uris":{"android":"levelo://app?vid=abe6cceb-7fd9-4b65-a9cf-5abedce13f87","ios":"levelo://app?vid=abe6cceb-7fd9-4b65-a9cf-5abedce13f87"},"vehicle_type_id":"4","last_reported":1781341165,"current_range_meters":6000,"station_id":"ce4bh092rcd13ifvqd20","pricing_plan_id":"cebpf4jnsgd1na2vs0mg"},{"bike_id":"a88c18f7-a05b-424b-a2e6-87c48e40dd60","system_id":"levelo_inurba_marseille","lat":43.23896,"lon":5.37463,"is_reserved":false,"is_disabled":true,"rental_uris":{"android":"levelo://app?vid=a88c18f7-a05b-424b-a2e6-87c48e40dd60","ios":"levelo://app?vid=a88c18f7-a05b-424b-a2e6-87c48e40dd60"},"vehicle_type_id":"4","last_reported":1781341165,"current_range_meters":6000,"station_id":"st_d6sm7csbq4hs73f8fpjg","pricing_plan_id":"cebpf4jnsgd1na2vs0mg"},{"bike_id":"16d12528-6905-4ec2-88b1-2e891c8a6e25","system_id":"levelo_inurba_marseille","lat":43.27062,"lon":5.40245,"is_reserved":false,"is_disabled":false,"rental_uris":{"android":"levelo://app?vid=16d12528-6905-4ec2-88b1-2e891c8a6e25","ios":"levelo://app?vid=16d12528-6905-4ec2-88b1-2e891c8a6e25"},"vehicle_type_id":"4","last_reported":1781341165,"current_range_meters":6000,"station_id":"ce4bhk92rcd13ifvqgc0","pricing_plan_id":"cebpf4jnsgd1na2vs0mg"},{"bike_id":"98c0a183-7ee6-4b0b-b809-46c8824508e7","system_id":"levelo_inurba_marseille","lat":43.29616,"lon":5.41922,"is_reserved":false,"is_disabled":false,"rental_uris":{"android":"levelo://app?vid=98c0a183-7ee6-4b0b-b809-46c8824508e7","ios":"levelo://app?vid=98c0a183-7ee6-4b0b-b809-46c8824508e7"},"vehicle_type_id":"4","last_reported":1781341165,"current_range_meters":6000,"station_id":"","pricing_plan_id":"cebpf4jnsgd1na2vs0mg"},{"bike_id":"1bd36802-444b-47b8-b6d5-5854caf6a4a9","system_id":"levelo_inurba_marseille","lat":43.315,"lon":5.3722,"is_reserved":false,"is_disabled":false,"rental_uris":{"android":"levelo://app?vid=1bd36802-444b-47b8-b6d5-5854caf6a4a9","ios":"levelo://app?vid=1bd36802-444b-47b8-b6d5-5854caf6a4a9"},"vehicle_type_id":"4","last_reported":1781341165,"current_range_meters":6000,"station_id":"","pricing_plan_id":"cebpf4jnsgd1na2vs0mg"},{"bike_id":"3e0e61b2-028e-48c8-a21d-fe5880a99474","system_id":"levelo_inurba_marseille","lat":43.23966,"lon":5.36636,"is_reserved":false,"is_disabled":false,"rental_uris":{"android":"levelo://app?vid=3e0e61b2-028e-48c8-a21d-fe5880a99474","ios":"levelo://app?vid=3e0e61b2-028e-48c8-a21d-fe5880a99474"},"vehicle_type_id":"4","last_reported":1781341165,"current_range_meters":6000,"station_id":"ce4bhi12rcd13ifvqfp0","pricing_plan_id":"cebpf4jnsgd1na2vs0mg"},{"bike_id":"641f7e7c-96b1-4542-9c7d-7c36bcfd4993","system_id":"levelo_inurba_marseille","lat":43.28661,"lon":5.36361,"is_reserved":false,"is_disabled":false,"rental_uris":{"android":"levelo://app?vid=641f7e7c-96b1-4542-9c7d-7c36bcfd4993","ios":"levelo://app?vid=641f7e7c-96b1-4542-9c7d-7c36bcfd4993"},"vehicle_type_id":"4","last_reported":1781341165,"current_range_meters":6000,"station_id":"ce4bhah2rcd13ifvqej0","pricing_plan_id":"cebpf4jnsgd1na2vs0mg"},{"bike_id":"cf2ecc12-f863-46e8-a4d9-61a8831aafb1","system_id":"levelo_inurba_marseille","lat":43.28696,"lon":5.39958,"is_reserved":false,"is_disabled":false,"rental_uris":{"android":"levelo://app?vid=cf2ecc12-f863-46e8-a4d9-61a8831aafb1","ios":"levelo://app?vid=cf2ecc12-f863-46e8-a4d9-61a8831aafb1"},"vehicle_type_id":"4","last_reported":1781341165,"current_range_meters":6000,"station_id":"ce4bho92rcd13ifvqh3g","pricing_plan_id":"cebpf4jnsgd1na2vs0mg"},{"bike_id":"f389c322-123d-4144-915a-383855424cea","system_id":"levelo_inurba_marseille","lat":43.24361,"lon":5.37073,"is_reserved":false,"is_disabled":false,"rental_uris":{"android":"levelo://app?vid=f389c322-123d-4144-915a-383855424cea","ios":"levelo://app?vid=f389c322-123d-4144-915a-383855424cea"},"vehicle_type_id":"4","last_reported":1781341165,"current_range_meters":6000,"station_id":"ce4bhhh2rcd13ifvqfk0","pricing_plan_id":"cebpf4jnsgd1na2vs0mg"},{"bike_id":"0c3e00b0-1145-4a94-9a9d-eabaea8f21a5","system_id":"levelo_inurba_marseille","lat":43.29066,"lon":5.39985,"is_reserved":false,"is_disabled":false,"rental_uris":{"android":"levelo://app?vid=0c3e00b0-1145-4a94-9a9d-eabaea8f21a5","ios":"levelo://app?vid=0c3e00b0-1145-4a94-9a9d-eabaea8f21a5"},"vehicle_type_id":"4","last_reported":1781341165,"current_range_meters":6000,"station_id":"ce4bh392rcd13ifvqdm0","pricing_plan_id":"cebpf4jnsgd1na2vs0mg"},{"bike_id":"01974ce9-2ce7-4184-9698-03768bec9bb4","system_id":"levelo_inurba_marseille","lat":43.28672,"lon":5.46641,"is_reserved":false,"is_disabled":false,"rental_uris":{"android":"levelo://app?vid=01974ce9-2ce7-4184-9698-03768bec9bb4","ios":"levelo://app?vid=01974ce9-2ce7-4184-9698-03768bec9bb4"},"vehicle_type_id":"4","last_reported":1781341165,"current_range_meters":6000,"station_id":"st_d6tc3vkotcvc738tfjhg","pricing_plan_id":"cebpf4jnsgd1na2vs0mg"},{"bike_id":"e37613eb-2b80-45f6-8be7-6bbc2d17cf64","system_id":"levelo_inurba_marseille","lat":43.24775,"lon":5.37437,"is_reserved":false,"is_disabled":false,"rental_uris":{"android":"levelo://app?vid=e37613eb-2b80-45f6-8be7-6bbc2d17cf64","ios":"levelo://app?vid=e37613eb-2b80-45f6-8be7-6bbc2d17cf64"},"vehicle_type_id":"4","last_reported":1781341165,"current_range_meters":6000,"station_id":"ce4bhgh2rcd13ifvqfb0","pricing_plan_id":"cebpf4jnsgd1na2vs0mg"},{"bike_id":"0897b860-ea8d-4a84-8734-c8f86b8b5d47","system_id":"levelo_inurba_marseille","lat":43.28284,"lon":5.35072,"is_reserved":false,"is_disabled":false,"rental_uris":{"android":"levelo://app?vid=0897b860-ea8d-4a84-8734-c8f86b8b5d47","ios":"levelo://app?vid=0897b860-ea8d-4a84-8734-c8f86b8b5d47"},"vehicle_type_id":"4","last_reported":1781341165,"current_range_meters":6000,"station_id":"ce4bhbp2rcd13ifvqerg","pricing_plan_id":"cebpf4jnsgd1na2vs0mg"},{"bike_id":"6944bee6-b756-4213-8d96-b135dd86679b","system_id":"levelo_inurba_marseille","lat":43.2872,"lon":5.37361,"is_reserved":false,"is_disabled":false,"rental_uris":{"android":"levelo://app?vid=6944bee6-b756-4213-8d96-b135dd86679b","ios":"levelo://app?vid=6944bee6-b756-4213-8d96-b135dd86679b"},"vehicle_type_id":"4","last_reported":1781341165,"current_range_meters":6000,"station_id":"ce4bh3p2rcd13ifvqdq0","pricing_plan_id":"cebpf4jnsgd1na2vs0mg"},{"bike_id":"a0704a6c-26e7-4cb3-88ea-ea581e546366","system_id":"levelo_inurba_marseille","lat":43.28248,"lon":5.35067,"is_reserved":false,"is_disabled":false,"rental_uris":{"android":"levelo://app?vid=a0704a6c-26e7-4cb3-88ea-ea581e546366","ios":"levelo://app?vid=a0704a6c-26e7-4cb3-88ea-ea581e546366"},"vehicle_type_id":"4","last_reported":1781341165,"current_range_meters":6000,"station_id":"ce4bhbp2rcd13ifvqerg","pricing_plan_id":"cebpf4jnsgd1na2vs0mg"},{"bike_id":"292ba82b-0dab-46c1-b4a2-48a52268ff1c","system_id":"levelo_inurba_marseille","lat":43.26554,"lon":5.39024,"is_reserved":false,"is_disabled":true,"rental_uris":{"android":"levelo://app?vid=292ba82b-0dab-46c1-b4a2-48a52268ff1c","ios":"levelo://app?vid=292ba82b-0dab-46c1-b4a2-48a52268ff1c"},"vehicle_type_id":"4","last_reported":1781341165,"current_range_meters":6000,"station_id":"ce4bhe12rcd13ifvqf30","pricing_plan_id":"cebpf4jnsgd1na2vs0mg"},{"bike_id":"eda98293-5c91-4dae-89c6-486a45b00f60","system_id":"levelo_inurba_marseille","lat":43.23266,"lon":5.40037,"is_reserved":false,"is_disabled":false,"rental_uris":{"android":"levelo://app?vid=eda98293-5c91-4dae-89c6-486a45b00f60","ios":"levelo://app?vid=eda98293-5c91-4dae-89c6-486a45b00f60"},"vehicle_type_id":"4","last_reported":1781341165,"current_range_meters":6000,"station_id":"","pricing_plan_id":"cebpf4jnsgd1na2vs0mg"},{"bike_id":"5b721959-b843-4261-959d-635897c03c13","system_id":"levelo_inurba_marseille","lat":43.24643,"lon":5.43135,"is_reserved":false,"is_disabled":false,"rental_uris":{"android":"levelo://app?vid=5b721959-b843-4261-959d-635897c03c13","ios":"levelo://app?vid=5b721959-b843-4261-959d-635897c03c13"},"vehicle_type_id":"4","last_reported":1781341165,"current_range_meters":6000,"station_id":"st_d2m6c4gdas8pm72e190g","pricing_plan_id":"cebpf4jnsgd1na2vs0mg"},{"bike_id":"9ddc2ac2-d160-4554-b14b-a68f791ecf14","system_id":"levelo_inurba_marseille","lat":43.2847,"lon":5.35878,"is_reserved":false,"is_disabled":false,"rental_uris":{"android":"levelo://app?vid=9ddc2ac2-d160-4554-b14b-a68f791ecf14","ios":"levelo://app?vid=9ddc2ac2-d160-4554-b14b-a68f791ecf14"},"vehicle_type_id":"4","last_reported":1781341165,"current_range_meters":6000,"station_id":"ce4bhah2rcd13ifvqei0","pricing_plan_id":"cebpf4jnsgd1na2vs0mg"},{"bike_id":"db8c5b68-a2ae-4ccd-8b82-df47b61ade41","system_id":"levelo_inurba_marseille","lat":43.24676,"lon":5.37908,"is_reserved":false,"is_disabled":false,"rental_uris":{"android":"levelo://app?vid=db8c5b68-a2ae-4ccd-8b82-df47b61ade41","ios":"levelo://app?vid=db8c5b68-a2ae-4ccd-8b82-df47b61ade41"},"vehicle_type_id":"4","last_reported":1781341165,"current_range_meters":6000,"station_id":"","pricing_plan_id":"cebpf4jnsgd1na2vs0mg"},{"bike_id":"6e4387d7-bd16-4a30-af78-71416e460c6d","system_id":"levelo_inurba_marseille","lat":43.30831,"lon":5.38384,"is_reserved":false,"is_disabled":false,"rental_uris":{"android":"levelo://app?vid=6e4387d7-bd16-4a30-af78-71416e460c6d","ios":"levelo://app?vid=6e4387d7-bd16-4a30-af78-71416e460c6d"},"vehicle_type_id":"4","last_reported":1781341165,"current_range_meters":6000,"station_id":"","pricing_plan_id":"cebpf4jnsgd1na2vs0mg"},{"bike_id":"f2f41311-bb5c-4ea3-b093-81b210f508fb","system_id":"levelo_inurba_marseille","lat":43.32477,"lon":5.36539,"is_reserved":false,"is_disabled":false,"rental_uris":{"android":"levelo://app?vid=f2f41311-bb5c-4ea3-b093-81b210f508fb","ios":"levelo://app?vid=f2f41311-bb5c-4ea3-b093-81b210f508fb"},"vehicle_type_id":"4","last_reported":1781341165,"current_range_meters":6000,"station_id":"ce4bhs12rcd13ifvqhvg","pricing_plan_id":"cebpf4jnsgd1na2vs0mg"},{"bike_id":"2f5a2eb1-a60a-4fe8-a5aa-002259731410","system_id":"levelo_inurba_marseille","lat":43.31069,"lon":5.37175,"is_reserved":false,"is_disabled":true,"rental_uris":{"android":"levelo://app?vid=2f5a2eb1-a60a-4fe8-a5aa-002259731410","ios":"levelo://app?vid=2f5a2eb1-a60a-4fe8-a5aa-002259731410"},"vehicle_type_id":"4","last_reported":1781341165,"current_range_meters":6000,"station_id":"st_d4kl2rp97mjs73e7tdfg","pricing_plan_id":"cebpf4jnsgd1na2vs0mg"},{"bike_id":"e7eb3dfa-f001-4b2c-9e99-0dec83e07235","system_id":"levelo_inurba_marseille","lat":43.28277,"lon":5.35061,"is_reserved":false,"is_disabled":false,"rental_uris":{"android":"levelo://app?vid=e7eb3dfa-f001-4b2c-9e99-0dec83e07235","ios":"levelo://app?vid=e7eb3dfa-f001-4b2c-9e99-0dec83e07235"},"vehicle_type_id":"4","last_reported":1781341165,"current_range_meters":6000,"station_id":"ce4bhbp2rcd13ifvqerg","pricing_plan_id":"cebpf4jnsgd1na2vs0mg"},{"bike_id":"8ec4238f-ba66-43e8-ba04-4f52a7b4c36b","system_id":"levelo_inurba_marseille","lat":43.23136,"lon":5.43711,"is_reserved":false,"is_disabled":false,"rental_uris":{"android":"levelo://app?vid=8ec4238f-ba66-43e8-ba04-4f52a7b4c36b","ios":"levelo://app?vid=8ec4238f-ba66-43e8-ba04-4f52a7b4c36b"},"vehicle_type_id":"4","last_reported":1781341165,"current_range_meters":6000,"station_id":"ce4bhmp2rcd13ifvqgog","pricing_plan_id":"cebpf4jnsgd1na2vs0mg"},{"bike_id":"2364cf0b-8288-4a64-9cc4-124c45ae507c","system_id":"levelo_inurba_marseille","lat":43.26611,"lon":5.3943,"is_reserved":false,"is_disabled":false,"rental_uris":{"android":"levelo://app?vid=2364cf0b-8288-4a64-9cc4-124c45ae507c","ios":"levelo://app?vid=2364cf0b-8288-4a64-9cc4-124c45ae507c"},"vehicle_type_id":"4","last_reported":1781341165,"current_range_meters":6400,"station_id":"","pricing_plan_id":"cebpf4jnsgd1na2vs0mg"},{"bike_id":"05fd6433-01ca-477d-8b87-92ab8f12b154","system_id":"levelo_inurba_marseille","lat":43.27205,"lon":5.40954,"is_reserved":false,"is_disabled":false,"rental_uris":{"android":"levelo://app?vid=05fd6433-01ca-477d-8b87-92ab8f12b154","ios":"levelo://app?vid=05fd6433-01ca-477d-8b87-92ab8f12b154"},"vehicle_type_id":"4","last_reported":1781341165,"current_range_meters":6400,"station_id":"ce4bhl12rcd13ifvqgf0","pricing_plan_id":"cebpf4jnsgd1na2vs0mg"},{"bike_id":"b94500b0-c8e7-4697-a363-e6426899264d","system_id":"levelo_inurba_marseille","lat":43.26375,"lon":5.4105,"is_reserved":false,"is_disabled":false,"rental_uris":{"android":"levelo://app?vid=b94500b0-c8e7-4697-a363-e6426899264d","ios":"levelo://app?vid=b94500b0-c8e7-4697-a363-e6426899264d"},"vehicle_type_id":"4","last_reported":1781341165,"current_range_meters":6400,"station_id":"st_d4e5ca6na9uc73bfl5fg","pricing_plan_id":"cebpf4jnsgd1na2vs0mg"},{"bike_id":"a303e4db-b9ba-4d63-9eff-f7e5a8e536c2","system_id":"levelo_inurba_marseille","lat":43.28006,"lon":5.40894,"is_reserved":false,"is_disabled":false,"rental_uris":{"android":"levelo://app?vid=a303e4db-b9ba-4d63-9eff-f7e5a8e536c2","ios":"levelo://app?vid=a303e4db-b9ba-4d63-9eff-f7e5a8e536c2"},"vehicle_type_id":"4","last_reported":1781341165,"current_range_meters":6400,"station_id":"","pricing_plan_id":"cebpf4jnsgd1na2vs0mg"},{"bike_id":"8fba8053-d383-46c1-9ff7-a6acbb1e81ed","system_id":"levelo_inurba_marseille","lat":43.30639,"lon":5.40055,"is_reserved":false,"is_disabled":false,"rental_uris":{"android":"levelo://app?vid=8fba8053-d383-46c1-9ff7-a6acbb1e81ed","ios":"levelo://app?vid=8fba8053-d383-46c1-9ff7-a6acbb1e81ed"},"vehicle_type_id":"4","last_reported":1781341165,"current_range_meters":6400,"station_id":"ce4bh112rcd13ifvqda0","pricing_plan_id":"cebpf4jnsgd1na2vs0mg"},{"bike_id":"8a9787a5-9a28-427a-a205-4aa9d9212c91","system_id":"levelo_inurba_marseille","lat":43.28799,"lon":5.35521,"is_reserved":false,"is_disabled":false,"rental_uris":{"android":"levelo://app?vid=8a9787a5-9a28-427a-a205-4aa9d9212c91","ios":"levelo://app?vid=8a9787a5-9a28-427a-a205-4aa9d9212c91"},"vehicle_type_id":"4","last_reported":1781341165,"current_range_meters":6400,"station_id":"","pricing_plan_id":"cebpf4jnsgd1na2vs0mg"},{"bike_id":"09d9c6f1-ccd6-4075-9a03-4634c196f8cd","system_id":"levelo_inurba_marseille","lat":43.24196,"lon":5.36349,"is_reserved":false,"is_disabled":false,"rental_uris":{"android":"levelo://app?vid=09d9c6f1-ccd6-4075-9a03-4634c196f8cd","ios":"levelo://app?vid=09d9c6f1-ccd6-4075-9a03-4634c196f8cd"},"vehicle_type_id":"4","last_reported":1781341165,"current_range_meters":6400,"station_id":"cpo36qri1sfpv3e86is0","pricing_plan_id":"cebpf4jnsgd1na2vs0mg"},{"bike_id":"960d68cb-472e-483d-974c-3b485764f425","system_id":"levelo_inurba_marseille","lat":43.31683,"lon":5.40478,"is_reserved":false,"is_disabled":false,"rental_uris":{"android":"levelo://app?vid=960d68cb-472e-483d-974c-3b485764f425","ios":"levelo://app?vid=960d68cb-472e-483d-974c-3b485764f425"},"vehicle_type_id":"4","last_reported":1781341165,"current_range_meters":6400,"station_id":"ce4bh012rcd13ifvqd00","pricing_plan_id":"cebpf4jnsgd1na2vs0mg"},{"bike_id":"1e2011a9-e6da-4836-bd87-fa5dfcf943e2","system_id":"levelo_inurba_marseille","lat":43.26209,"lon":5.37443,"is_reserved":false,"is_disabled":false,"rental_uris":{"android":"levelo://app?vid=1e2011a9-e6da-4836-bd87-fa5dfcf943e2","ios":"levelo://app?vid=1e2011a9-e6da-4836-bd87-fa5dfcf943e2"},"vehicle_type_id":"4","last_reported":1781341165,"current_range_meters":6400,"station_id":"ce4bhgp2rcd13ifvqfc0","pricing_plan_id":"cebpf4jnsgd1na2vs0mg"},{"bike_id":"57bfd0f8-0112-425c-9ca9-e1cb3d003bc6","system_id":"levelo_inurba_marseille","lat":43.32112,"lon":5.36783,"is_reserved":false,"is_disabled":false,"rental_uris":{"android":"levelo://app?vid=57bfd0f8-0112-425c-9ca9-e1cb3d003bc6","ios":"levelo://app?vid=57bfd0f8-0112-425c-9ca9-e1cb3d003bc6"},"vehicle_type_id":"4","last_reported":1781341165,"current_range_meters":6400,"station_id":"ce4bhrh2rcd13ifvqhug","pricing_plan_id":"cebpf4jnsgd1na2vs0mg"},{"bike_id":"5f189998-b2b6-4e38-b849-68910c9a3d84","system_id":"levelo_inurba_marseille","lat":43.317514,"lon":5.39012,"is_reserved":false,"is_disabled":false,"rental_uris":{"android":"levelo://app?vid=5f189998-b2b6-4e38-b849-68910c9a3d84","ios":"levelo://app?vid=5f189998-b2b6-4e38-b849-68910c9a3d84"},"vehicle_type_id":"4","last_reported":1781341165,"current_range_meters":6400,"station_id":"","pricing_plan_id":"cebpf4jnsgd1na2vs0mg"},{"bike_id":"2966e569-5f6f-488b-810b-7eb0b0a695b7","system_id":"levelo_inurba_marseille","lat":43.24181,"lon":5.39717,"is_reserved":false,"is_disabled":false,"rental_uris":{"android":"levelo://app?vid=2966e569-5f6f-488b-810b-7eb0b0a695b7","ios":"levelo://app?vid=2966e569-5f6f-488b-810b-7eb0b0a695b7"},"vehicle_type_id":"4","last_reported":1781341165,"current_range_meters":6400,"station_id":"ce4bhn12rcd13ifvqgpg","pricing_plan_id":"cebpf4jnsgd1na2vs0mg"},{"bike_id":"dae4a7fe-39fb-415b-bfff-c315598931de","system_id":"levelo_inurba_marseille","lat":43.28471,"lon":5.38416,"is_reserved":false,"is_disabled":false,"rental_uris":{"android":"levelo://app?vid=dae4a7fe-39fb-415b-bfff-c315598931de","ios":"levelo://app?vid=dae4a7fe-39fb-415b-bfff-c315598931de"},"vehicle_type_id":"4","last_reported":1781341165,"current_range_meters":6400,"station_id":"ce4bh512rcd13ifvqe3g","pricing_plan_id":"cebpf4jnsgd1na2vs0mg"},{"bike_id":"0297113f-11e1-4497-8b79-ab7198c0f3d4","system_id":"levelo_inurba_marseille","lat":43.28423,"lon":5.34973,"is_reserved":false,"is_disabled":false,"rental_uris":{"android":"levelo://app?vid=0297113f-11e1-4497-8b79-ab7198c0f3d4","ios":"levelo://app?vid=0297113f-11e1-4497-8b79-ab7198c0f3d4"},"vehicle_type_id":"4","last_reported":1781341165,"current_range_meters":6400,"station_id":"ce4bhbh2rcd13ifvqepg","pricing_plan_id":"cebpf4jnsgd1na2vs0mg"},{"bike_id":"aec8333f-a9c6-4953-b628-b84715e28c57","system_id":"levelo_inurba_marseille","lat":43.2781,"lon":5.40724,"is_reserved":false,"is_disabled":false,"rental_uris":{"android":"levelo://app?vid=aec8333f-a9c6-4953-b628-b84715e28c57","ios":"levelo://app?vid=aec8333f-a9c6-4953-b628-b84715e28c57"},"vehicle_type_id":"4","last_reported":1781341165,"current_range_meters":6400,"station_id":"ce4bhnh2rcd13ifvqgtg","pricing_plan_id":"cebpf4jnsgd1na2vs0mg"},{"bike_id":"b26e7c46-af17-4136-b152-d4853d8c5290","system_id":"levelo_inurba_marseille","lat":43.26213,"lon":5.37433,"is_reserved":false,"is_disabled":false,"rental_uris":{"android":"levelo://app?vid=b26e7c46-af17-4136-b152-d4853d8c5290","ios":"levelo://app?vid=b26e7c46-af17-4136-b152-d4853d8c5290"},"vehicle_type_id":"4","last_reported":1781341165,"current_range_meters":6400,"station_id":"ce4bhgp2rcd13ifvqfc0","pricing_plan_id":"cebpf4jnsgd1na2vs0mg"},{"bike_id":"b2b66218-a4a0-4a7d-829e-0fbd5991f761","system_id":"levelo_inurba_marseille","lat":43.26559,"lon":5.3728,"is_reserved":false,"is_disabled":false,"rental_uris":{"android":"levelo://app?vid=b2b66218-a4a0-4a7d-829e-0fbd5991f761","ios":"levelo://app?vid=b2b66218-a4a0-4a7d-829e-0fbd5991f761"},"vehicle_type_id":"4","last_reported":1781341165,"current_range_meters":6400,"station_id":"ce4bhg12rcd13ifvqf70","pricing_plan_id":"cebpf4jnsgd1na2vs0mg"},{"bike_id":"bbcbb2dd-841e-4503-8c72-a15d9c979dd5","system_id":"levelo_inurba_marseille","lat":43.31402,"lon":5.37294,"is_reserved":false,"is_disabled":false,"rental_uris":{"android":"levelo://app?vid=bbcbb2dd-841e-4503-8c72-a15d9c979dd5","ios":"levelo://app?vid=bbcbb2dd-841e-4503-8c72-a15d9c979dd5"},"vehicle_type_id":"4","last_reported":1781341165,"current_range_meters":6400,"station_id":"ce4bgt12rcd13ifvqcd0","pricing_plan_id":"cebpf4jnsgd1na2vs0mg"},{"bike_id":"b91d9fa1-4fec-403b-8038-57eb8aa275ac","system_id":"levelo_inurba_marseille","lat":43.24387,"lon":5.37036,"is_reserved":false,"is_disabled":false,"rental_uris":{"android":"levelo://app?vid=b91d9fa1-4fec-403b-8038-57eb8aa275ac","ios":"levelo://app?vid=b91d9fa1-4fec-403b-8038-57eb8aa275ac"},"vehicle_type_id":"4","last_reported":1781341165,"current_range_meters":6400,"station_id":"ce4bhhh2rcd13ifvqfk0","pricing_plan_id":"cebpf4jnsgd1na2vs0mg"},{"bike_id":"0a91b7e5-aad5-456e-b905-400413669c01","system_id":"levelo_inurba_marseille","lat":43.27768,"lon":5.37589,"is_reserved":false,"is_disabled":false,"rental_uris":{"android":"levelo://app?vid=0a91b7e5-aad5-456e-b905-400413669c01","ios":"levelo://app?vid=0a91b7e5-aad5-456e-b905-400413669c01"},"vehicle_type_id":"4","last_reported":1781341165,"current_range_meters":6400,"station_id":"","pricing_plan_id":"cebpf4jnsgd1na2vs0mg"},{"bike_id":"62c3f239-efce-4093-b9be-af970fbf7e8f","system_id":"levelo_inurba_marseille","lat":43.24061,"lon":5.37754,"is_reserved":false,"is_disabled":false,"rental_uris":{"android":"levelo://app?vid=62c3f239-efce-4093-b9be-af970fbf7e8f","ios":"levelo://app?vid=62c3f239-efce-4093-b9be-af970fbf7e8f"},"vehicle_type_id":"4","last_reported":1781341165,"current_range_meters":6400,"station_id":"ce4bhnp2rcd13ifvqgvg","pricing_plan_id":"cebpf4jnsgd1na2vs0mg"},{"bike_id":"78f96ec0-3651-40e0-9064-540398d155f5","system_id":"levelo_inurba_marseille","lat":43.24474,"lon":5.42539,"is_reserved":false,"is_disabled":false,"rental_uris":{"android":"levelo://app?vid=78f96ec0-3651-40e0-9064-540398d155f5","ios":"levelo://app?vid=78f96ec0-3651-40e0-9064-540398d155f5"},"vehicle_type_id":"4","last_reported":1781341165,"current_range_meters":6400,"station_id":"st_d4a3vfp97mjs738cd8kg","pricing_plan_id":"cebpf4jnsgd1na2vs0mg"},{"bike_id":"eda0da1b-1e21-4711-8a0b-2f4b083c116d","system_id":"levelo_inurba_marseille","lat":43.28573,"lon":5.39491,"is_reserved":false,"is_disabled":false,"rental_uris":{"android":"levelo://app?vid=eda0da1b-1e21-4711-8a0b-2f4b083c116d","ios":"levelo://app?vid=eda0da1b-1e21-4711-8a0b-2f4b083c116d"},"vehicle_type_id":"4","last_reported":1781341165,"current_range_meters":6800,"station_id":"ce4bh292rcd13ifvqdg0","pricing_plan_id":"cebpf4jnsgd1na2vs0mg"},{"bike_id":"2f70ef4e-6af0-41d0-bdb7-405718b4158d","system_id":"levelo_inurba_marseille","lat":43.24515,"lon":5.372983,"is_reserved":false,"is_disabled":false,"rental_uris":{"android":"levelo://app?vid=2f70ef4e-6af0-41d0-bdb7-405718b4158d","ios":"levelo://app?vid=2f70ef4e-6af0-41d0-bdb7-405718b4158d"},"vehicle_type_id":"4","last_reported":1781341165,"current_range_meters":6800,"station_id":"st_cvj6r9ubvosntc0bgbag","pricing_plan_id":"cebpf4jnsgd1na2vs0mg"},{"bike_id":"6edf579f-78f6-4a80-8faa-35bdd39ec8f9","system_id":"levelo_inurba_marseille","lat":43.30533,"lon":5.36545,"is_reserved":false,"is_disabled":false,"rental_uris":{"android":"levelo://app?vid=6edf579f-78f6-4a80-8faa-35bdd39ec8f9","ios":"levelo://app?vid=6edf579f-78f6-4a80-8faa-35bdd39ec8f9"},"vehicle_type_id":"4","last_reported":1781341165,"current_range_meters":6800,"station_id":"ce4bgs12rcd13ifvqcag","pricing_plan_id":"cebpf4jnsgd1na2vs0mg"},{"bike_id":"c175211b-3da4-46cc-a60f-4967a28b1b76","system_id":"levelo_inurba_marseille","lat":43.33164,"lon":5.37681,"is_reserved":false,"is_disabled":false,"rental_uris":{"android":"levelo://app?vid=c175211b-3da4-46cc-a60f-4967a28b1b76","ios":"levelo://app?vid=c175211b-3da4-46cc-a60f-4967a28b1b76"},"vehicle_type_id":"4","last_reported":1781341165,"current_range_meters":6800,"station_id":"st_d46cu089ee8s73dldbu0","pricing_plan_id":"cebpf4jnsgd1na2vs0mg"},{"bike_id":"b9d1843a-d85f-480b-9e0d-ac8e9afe5d9f","system_id":"levelo_inurba_marseille","lat":43.337444,"lon":5.374475,"is_reserved":false,"is_disabled":false,"rental_uris":{"android":"levelo://app?vid=b9d1843a-d85f-480b-9e0d-ac8e9afe5d9f","ios":"levelo://app?vid=b9d1843a-d85f-480b-9e0d-ac8e9afe5d9f"},"vehicle_type_id":"4","last_reported":1781341165,"current_range_meters":6800,"station_id":"","pricing_plan_id":"cebpf4jnsgd1na2vs0mg"},{"bike_id":"117176f1-66e3-4c2f-80e5-83a0581ccce9","system_id":"levelo_inurba_marseille","lat":43.28617,"lon":5.35102,"is_reserved":false,"is_disabled":false,"rental_uris":{"android":"levelo://app?vid=117176f1-66e3-4c2f-80e5-83a0581ccce9","ios":"levelo://app?vid=117176f1-66e3-4c2f-80e5-83a0581ccce9"},"vehicle_type_id":"4","last_reported":1781341165,"current_range_meters":6800,"station_id":"ce4bhch2rcd13ifvqeug","pricing_plan_id":"cebpf4jnsgd1na2vs0mg"},{"bike_id":"2d8a047b-0411-40fc-a69f-3169f78c4ee9","system_id":"levelo_inurba_marseille","lat":43.32376,"lon":5.36735,"is_reserved":false,"is_disabled":false,"rental_uris":{"android":"levelo://app?vid=2d8a047b-0411-40fc-a69f-3169f78c4ee9","ios":"levelo://app?vid=2d8a047b-0411-40fc-a69f-3169f78c4ee9"},"vehicle_type_id":"4","last_reported":1781341165,"current_range_meters":6800,"station_id":"ce4bhsh2rcd13ifvqi2g","pricing_plan_id":"cebpf4jnsgd1na2vs0mg"},{"bike_id":"4a305e61-cb85-41d9-877c-cbe7f71a47fa","system_id":"levelo_inurba_marseille","lat":43.26229,"lon":5.37425,"is_reserved":false,"is_disabled":false,"rental_uris":{"android":"levelo://app?vid=4a305e61-cb85-41d9-877c-cbe7f71a47fa","ios":"levelo://app?vid=4a305e61-cb85-41d9-877c-cbe7f71a47fa"},"vehicle_type_id":"4","last_reported":1781341165,"current_range_meters":6800,"station_id":"","pricing_plan_id":"cebpf4jnsgd1na2vs0mg"},{"bike_id":"ec7ff123-2191-49c9-b4f8-c9b1016b4d1d","system_id":"levelo_inurba_marseille","lat":43.33546,"lon":5.37447,"is_reserved":false,"is_disabled":false,"rental_uris":{"android":"levelo://app?vid=ec7ff123-2191-49c9-b4f8-c9b1016b4d1d","ios":"levelo://app?vid=ec7ff123-2191-49c9-b4f8-c9b1016b4d1d"},"vehicle_type_id":"4","last_reported":1781341165,"current_range_meters":6800,"station_id":"st_d46tts09ee8s73dlu43g","pricing_plan_id":"cebpf4jnsgd1na2vs0mg"},{"bike_id":"35565049-90de-4fb4-b35d-e9c548924e41","system_id":"levelo_inurba_marseille","lat":43.26768,"lon":5.39446,"is_reserved":false,"is_disabled":true,"rental_uris":{"android":"levelo://app?vid=35565049-90de-4fb4-b35d-e9c548924e41","ios":"levelo://app?vid=35565049-90de-4fb4-b35d-e9c548924e41"},"vehicle_type_id":"4","last_reported":1781341165,"current_range_meters":6800,"station_id":"","pricing_plan_id":"cebpf4jnsgd1na2vs0mg"},{"bike_id":"ac3358ce-481e-4fda-9f9b-670be68b265e","system_id":"levelo_inurba_marseille","lat":43.31474,"lon":5.40195,"is_reserved":false,"is_disabled":false,"rental_uris":{"android":"levelo://app?vid=ac3358ce-481e-4fda-9f9b-670be68b265e","ios":"levelo://app?vid=ac3358ce-481e-4fda-9f9b-670be68b265e"},"vehicle_type_id":"4","last_reported":1781341165,"current_range_meters":6800,"station_id":"","pricing_plan_id":"cebpf4jnsgd1na2vs0mg"},{"bike_id":"abc01caa-7e82-486b-ad5a-e31151d2d0fc","system_id":"levelo_inurba_marseille","lat":43.27763,"lon":5.39584,"is_reserved":false,"is_disabled":false,"rental_uris":{"android":"levelo://app?vid=abc01caa-7e82-486b-ad5a-e31151d2d0fc","ios":"levelo://app?vid=abc01caa-7e82-486b-ad5a-e31151d2d0fc"},"vehicle_type_id":"4","last_reported":1781341165,"current_range_meters":6800,"station_id":"","pricing_plan_id":"cebpf4jnsgd1na2vs0mg"},{"bike_id":"5b5ea2fb-3ba8-4c10-841c-ca34891a615c","system_id":"levelo_inurba_marseille","lat":43.29349,"lon":5.36376,"is_reserved":false,"is_disabled":false,"rental_uris":{"android":"levelo://app?vid=5b5ea2fb-3ba8-4c10-841c-ca34891a615c","ios":"levelo://app?vid=5b5ea2fb-3ba8-4c10-841c-ca34891a615c"},"vehicle_type_id":"4","last_reported":1781341165,"current_range_meters":6800,"station_id":"","pricing_plan_id":"cebpf4jnsgd1na2vs0mg"},{"bike_id":"b75b860e-f642-4d57-ae10-a57f8b9673f2","system_id":"levelo_inurba_marseille","lat":43.26234,"lon":5.38754,"is_reserved":false,"is_disabled":false,"rental_uris":{"android":"levelo://app?vid=b75b860e-f642-4d57-ae10-a57f8b9673f2","ios":"levelo://app?vid=b75b860e-f642-4d57-ae10-a57f8b9673f2"},"vehicle_type_id":"4","last_reported":1781341165,"current_range_meters":6800,"station_id":"st_d8gjfg747rts73coq3b0","pricing_plan_id":"cebpf4jnsgd1na2vs0mg"},{"bike_id":"8d6efb67-d557-4a93-b201-4c66b4722f12","system_id":"levelo_inurba_marseille","lat":43.28411,"lon":5.39176,"is_reserved":false,"is_disabled":false,"rental_uris":{"android":"levelo://app?vid=8d6efb67-d557-4a93-b201-4c66b4722f12","ios":"levelo://app?vid=8d6efb67-d557-4a93-b201-4c66b4722f12"},"vehicle_type_id":"4","last_reported":1781341165,"current_range_meters":6800,"station_id":"ce4bhoh2rcd13ifvqh5g","pricing_plan_id":"cebpf4jnsgd1na2vs0mg"},{"bike_id":"be004f60-661b-45b9-a00d-02d877da6c38","system_id":"levelo_inurba_marseille","lat":43.25372,"lon":5.42288,"is_reserved":false,"is_disabled":false,"rental_uris":{"android":"levelo://app?vid=be004f60-661b-45b9-a00d-02d877da6c38","ios":"levelo://app?vid=be004f60-661b-45b9-a00d-02d877da6c38"},"vehicle_type_id":"4","last_reported":1781341165,"current_range_meters":6800,"station_id":"","pricing_plan_id":"cebpf4jnsgd1na2vs0mg"},{"bike_id":"d476aca5-3b70-40b3-8b78-89f47aa194b2","system_id":"levelo_inurba_marseille","lat":43.24067,"lon":5.37754,"is_reserved":false,"is_disabled":false,"rental_uris":{"android":"levelo://app?vid=d476aca5-3b70-40b3-8b78-89f47aa194b2","ios":"levelo://app?vid=d476aca5-3b70-40b3-8b78-89f47aa194b2"},"vehicle_type_id":"4","last_reported":1781341165,"current_range_meters":6800,"station_id":"ce4bhnp2rcd13ifvqgvg","pricing_plan_id":"cebpf4jnsgd1na2vs0mg"},{"bike_id":"b24c0d85-3fad-4984-8586-684bbf5e0145","system_id":"levelo_inurba_marseille","lat":43.30279,"lon":5.37691,"is_reserved":false,"is_disabled":false,"rental_uris":{"android":"levelo://app?vid=b24c0d85-3fad-4984-8586-684bbf5e0145","ios":"levelo://app?vid=b24c0d85-3fad-4984-8586-684bbf5e0145"},"vehicle_type_id":"4","last_reported":1781341165,"current_range_meters":6800,"station_id":"ce4bguh2rcd13ifvqcj0","pricing_plan_id":"cebpf4jnsgd1na2vs0mg"},{"bike_id":"8973ed0e-0f1d-4b17-8f92-c0a250fe8e91","system_id":"levelo_inurba_marseille","lat":43.27959,"lon":5.4103,"is_reserved":false,"is_disabled":false,"rental_uris":{"android":"levelo://app?vid=8973ed0e-0f1d-4b17-8f92-c0a250fe8e91","ios":"levelo://app?vid=8973ed0e-0f1d-4b17-8f92-c0a250fe8e91"},"vehicle_type_id":"4","last_reported":1781341165,"current_range_meters":6800,"station_id":"ce4bhnp2rcd13ifvqh0g","pricing_plan_id":"cebpf4jnsgd1na2vs0mg"},{"bike_id":"20c31014-f070-4043-96b2-81ad3164473b","system_id":"levelo_inurba_marseille","lat":43.29269,"lon":5.40905,"is_reserved":false,"is_disabled":false,"rental_uris":{"android":"levelo://app?vid=20c31014-f070-4043-96b2-81ad3164473b","ios":"levelo://app?vid=20c31014-f070-4043-96b2-81ad3164473b"},"vehicle_type_id":"4","last_reported":1781341165,"current_range_meters":6800,"station_id":"ce4bh192rcd13ifvqdc0","pricing_plan_id":"cebpf4jnsgd1na2vs0mg"},{"bike_id":"eafcac8f-4e35-4bea-bcbf-9122613364b1","system_id":"levelo_inurba_marseille","lat":43.2407,"lon":5.37745,"is_reserved":false,"is_disabled":false,"rental_uris":{"android":"levelo://app?vid=eafcac8f-4e35-4bea-bcbf-9122613364b1","ios":"levelo://app?vid=eafcac8f-4e35-4bea-bcbf-9122613364b1"},"vehicle_type_id":"4","last_reported":1781341165,"current_range_meters":6800,"station_id":"ce4bhnp2rcd13ifvqgvg","pricing_plan_id":"cebpf4jnsgd1na2vs0mg"},{"bike_id":"a943d7b5-5be8-4620-9fd2-b412f143c1ae","system_id":"levelo_inurba_marseille","lat":43.23153,"lon":5.437105,"is_reserved":false,"is_disabled":false,"rental_uris":{"android":"levelo://app?vid=a943d7b5-5be8-4620-9fd2-b412f143c1ae","ios":"levelo://app?vid=a943d7b5-5be8-4620-9fd2-b412f143c1ae"},"vehicle_type_id":"4","last_reported":1781341165,"current_range_meters":6800,"station_id":"ce4bhmp2rcd13ifvqgog","pricing_plan_id":"cebpf4jnsgd1na2vs0mg"},{"bike_id":"5f68454a-3f46-4716-98ea-a07b68026da7","system_id":"levelo_inurba_marseille","lat":43.30114,"lon":5.37725,"is_reserved":false,"is_disabled":false,"rental_uris":{"android":"levelo://app?vid=5f68454a-3f46-4716-98ea-a07b68026da7","ios":"levelo://app?vid=5f68454a-3f46-4716-98ea-a07b68026da7"},"vehicle_type_id":"4","last_reported":1781341165,"current_range_meters":6800,"station_id":"","pricing_plan_id":"cebpf4jnsgd1na2vs0mg"},{"bike_id":"b0e1c627-e366-414e-b921-4572a58307db","system_id":"levelo_inurba_marseille","lat":43.28603,"lon":5.35081,"is_reserved":false,"is_disabled":true,"rental_uris":{"android":"levelo://app?vid=b0e1c627-e366-414e-b921-4572a58307db","ios":"levelo://app?vid=b0e1c627-e366-414e-b921-4572a58307db"},"vehicle_type_id":"4","last_reported":1781341165,"current_range_meters":6800,"station_id":"ce4bhch2rcd13ifvqeug","pricing_plan_id":"cebpf4jnsgd1na2vs0mg"},{"bike_id":"4ada14b1-acd8-4130-a2ae-2ee1cc65e2d2","system_id":"levelo_inurba_marseille","lat":43.28595,"lon":5.39379,"is_reserved":false,"is_disabled":false,"rental_uris":{"android":"levelo://app?vid=4ada14b1-acd8-4130-a2ae-2ee1cc65e2d2","ios":"levelo://app?vid=4ada14b1-acd8-4130-a2ae-2ee1cc65e2d2"},"vehicle_type_id":"4","last_reported":1781341165,"current_range_meters":6800,"station_id":"","pricing_plan_id":"cebpf4jnsgd1na2vs0mg"},{"bike_id":"b7d2a694-0b32-489a-bba4-72ef715e6be8","system_id":"levelo_inurba_marseille","lat":43.286181,"lon":5.351043,"is_reserved":false,"is_disabled":false,"rental_uris":{"android":"levelo://app?vid=b7d2a694-0b32-489a-bba4-72ef715e6be8","ios":"levelo://app?vid=b7d2a694-0b32-489a-bba4-72ef715e6be8"},"vehicle_type_id":"4","last_reported":1781341165,"current_range_meters":6800,"station_id":"ce4bhch2rcd13ifvqeug","pricing_plan_id":"cebpf4jnsgd1na2vs0mg"},{"bike_id":"903543e1-84f5-420c-985c-087b50f51827","system_id":"levelo_inurba_marseille","lat":43.28611,"lon":5.35099,"is_reserved":false,"is_disabled":false,"rental_uris":{"android":"levelo://app?vid=903543e1-84f5-420c-985c-087b50f51827","ios":"levelo://app?vid=903543e1-84f5-420c-985c-087b50f51827"},"vehicle_type_id":"4","last_reported":1781341165,"current_range_meters":6800,"station_id":"ce4bhch2rcd13ifvqeug","pricing_plan_id":"cebpf4jnsgd1na2vs0mg"},{"bike_id":"e91b8690-fabb-4d10-a5ac-e1b97d9d8712","system_id":"levelo_inurba_marseille","lat":43.30634,"lon":5.37222,"is_reserved":false,"is_disabled":false,"rental_uris":{"android":"levelo://app?vid=e91b8690-fabb-4d10-a5ac-e1b97d9d8712","ios":"levelo://app?vid=e91b8690-fabb-4d10-a5ac-e1b97d9d8712"},"vehicle_type_id":"4","last_reported":1781341165,"current_range_meters":6800,"station_id":"ce4bgqh2rcd13ifvqc4g","pricing_plan_id":"cebpf4jnsgd1na2vs0mg"},{"bike_id":"18e5072a-492c-4323-bf41-16437374da96","system_id":"levelo_inurba_marseille","lat":43.29564,"lon":5.37526,"is_reserved":false,"is_disabled":false,"rental_uris":{"android":"levelo://app?vid=18e5072a-492c-4323-bf41-16437374da96","ios":"levelo://app?vid=18e5072a-492c-4323-bf41-16437374da96"},"vehicle_type_id":"4","last_reported":1781341165,"current_range_meters":6800,"station_id":"ce4bgh92rcd13ifvqb50","pricing_plan_id":"cebpf4jnsgd1na2vs0mg"},{"bike_id":"bf740f93-dcae-45bd-8189-93f0bf5977b3","system_id":"levelo_inurba_marseille","lat":43.22554,"lon":5.41626,"is_reserved":false,"is_disabled":false,"rental_uris":{"android":"levelo://app?vid=bf740f93-dcae-45bd-8189-93f0bf5977b3","ios":"levelo://app?vid=bf740f93-dcae-45bd-8189-93f0bf5977b3"},"vehicle_type_id":"4","last_reported":1781341165,"current_range_meters":6800,"station_id":"st_d2o4gvlbi1j2169b742g","pricing_plan_id":"cebpf4jnsgd1na2vs0mg"},{"bike_id":"049baa7c-8cf0-4258-a907-45281671c213","system_id":"levelo_inurba_marseille","lat":43.27821,"lon":5.40719,"is_reserved":false,"is_disabled":false,"rental_uris":{"android":"levelo://app?vid=049baa7c-8cf0-4258-a907-45281671c213","ios":"levelo://app?vid=049baa7c-8cf0-4258-a907-45281671c213"},"vehicle_type_id":"4","last_reported":1781341165,"current_range_meters":6800,"station_id":"ce4bhnh2rcd13ifvqgtg","pricing_plan_id":"cebpf4jnsgd1na2vs0mg"},{"bike_id":"20e2f7fe-097b-429a-9bd5-ee17629861c2","system_id":"levelo_inurba_marseille","lat":43.31889,"lon":5.40727,"is_reserved":false,"is_disabled":false,"rental_uris":{"android":"levelo://app?vid=20e2f7fe-097b-429a-9bd5-ee17629861c2","ios":"levelo://app?vid=20e2f7fe-097b-429a-9bd5-ee17629861c2"},"vehicle_type_id":"4","last_reported":1781341165,"current_range_meters":6800,"station_id":"ce4bhq12rcd13ifvqhig","pricing_plan_id":"cebpf4jnsgd1na2vs0mg"},{"bike_id":"7042a3ac-53be-4298-91ef-4af216d264b8","system_id":"levelo_inurba_marseille","lat":43.28269,"lon":5.35046,"is_reserved":false,"is_disabled":false,"rental_uris":{"android":"levelo://app?vid=7042a3ac-53be-4298-91ef-4af216d264b8","ios":"levelo://app?vid=7042a3ac-53be-4298-91ef-4af216d264b8"},"vehicle_type_id":"4","last_reported":1781341165,"current_range_meters":6800,"station_id":"ce4bhbp2rcd13ifvqerg","pricing_plan_id":"cebpf4jnsgd1na2vs0mg"},{"bike_id":"a4367c49-3ad9-4e5d-b890-d24a763f0a44","system_id":"levelo_inurba_marseille","lat":43.28827,"lon":5.42766,"is_reserved":false,"is_disabled":false,"rental_uris":{"android":"levelo://app?vid=a4367c49-3ad9-4e5d-b890-d24a763f0a44","ios":"levelo://app?vid=a4367c49-3ad9-4e5d-b890-d24a763f0a44"},"vehicle_type_id":"4","last_reported":1781341165,"current_range_meters":6800,"station_id":"","pricing_plan_id":"cebpf4jnsgd1na2vs0mg"},{"bike_id":"437e3ba7-ea12-4e88-a20f-de0ed79ac149","system_id":"levelo_inurba_marseille","lat":43.24024,"lon":5.37863,"is_reserved":false,"is_disabled":false,"rental_uris":{"android":"levelo://app?vid=437e3ba7-ea12-4e88-a20f-de0ed79ac149","ios":"levelo://app?vid=437e3ba7-ea12-4e88-a20f-de0ed79ac149"},"vehicle_type_id":"4","last_reported":1781341165,"current_range_meters":6800,"station_id":"","pricing_plan_id":"cebpf4jnsgd1na2vs0mg"},{"bike_id":"30b58aa9-1caa-4c6c-abbc-edccbb12357a","system_id":"levelo_inurba_marseille","lat":43.30457,"lon":5.37909,"is_reserved":false,"is_disabled":false,"rental_uris":{"android":"levelo://app?vid=30b58aa9-1caa-4c6c-abbc-edccbb12357a","ios":"levelo://app?vid=30b58aa9-1caa-4c6c-abbc-edccbb12357a"},"vehicle_type_id":"4","last_reported":1781341165,"current_range_meters":6800,"station_id":"ce4bgup2rcd13ifvqcn0","pricing_plan_id":"cebpf4jnsgd1na2vs0mg"},{"bike_id":"45469403-b2c5-4518-9427-6181c2421365","system_id":"levelo_inurba_marseille","lat":43.22545,"lon":5.34828,"is_reserved":false,"is_disabled":false,"rental_uris":{"android":"levelo://app?vid=45469403-b2c5-4518-9427-6181c2421365","ios":"levelo://app?vid=45469403-b2c5-4518-9427-6181c2421365"},"vehicle_type_id":"4","last_reported":1781341165,"current_range_meters":6800,"station_id":"st_cvj5dfep6f1abm77gieg","pricing_plan_id":"cebpf4jnsgd1na2vs0mg"},{"bike_id":"30e11970-43f1-4eb4-85d6-ae8736f298f2","system_id":"levelo_inurba_marseille","lat":43.29105,"lon":5.38158,"is_reserved":false,"is_disabled":true,"rental_uris":{"android":"levelo://app?vid=30e11970-43f1-4eb4-85d6-ae8736f298f2","ios":"levelo://app?vid=30e11970-43f1-4eb4-85d6-ae8736f298f2"},"vehicle_type_id":"4","last_reported":1781341165,"current_range_meters":7200,"station_id":"ce4bh512rcd13ifvqe2g","pricing_plan_id":"cebpf4jnsgd1na2vs0mg"},{"bike_id":"86b4821b-066f-4af7-9341-601c3120669c","system_id":"levelo_inurba_marseille","lat":43.26226,"lon":5.38764,"is_reserved":false,"is_disabled":false,"rental_uris":{"android":"levelo://app?vid=86b4821b-066f-4af7-9341-601c3120669c","ios":"levelo://app?vid=86b4821b-066f-4af7-9341-601c3120669c"},"vehicle_type_id":"4","last_reported":1781341165,"current_range_meters":7200,"station_id":"st_d8gjfg747rts73coq3b0","pricing_plan_id":"cebpf4jnsgd1na2vs0mg"},{"bike_id":"b6a8a717-b820-4aee-9a19-29f3d1075cc9","system_id":"levelo_inurba_marseille","lat":43.31037,"lon":5.37153,"is_reserved":false,"is_disabled":false,"rental_uris":{"android":"levelo://app?vid=b6a8a717-b820-4aee-9a19-29f3d1075cc9","ios":"levelo://app?vid=b6a8a717-b820-4aee-9a19-29f3d1075cc9"},"vehicle_type_id":"4","last_reported":1781341165,"current_range_meters":7200,"station_id":"st_d4kl2rp97mjs73e7tdfg","pricing_plan_id":"cebpf4jnsgd1na2vs0mg"},{"bike_id":"60ef35b5-2df4-436e-b925-da19a11c6328","system_id":"levelo_inurba_marseille","lat":43.32111,"lon":5.36756,"is_reserved":false,"is_disabled":false,"rental_uris":{"android":"levelo://app?vid=60ef35b5-2df4-436e-b925-da19a11c6328","ios":"levelo://app?vid=60ef35b5-2df4-436e-b925-da19a11c6328"},"vehicle_type_id":"4","last_reported":1781341165,"current_range_meters":7200,"station_id":"ce4bhrh2rcd13ifvqhug","pricing_plan_id":"cebpf4jnsgd1na2vs0mg"},{"bike_id":"98467ecf-43e3-4b8a-ad56-b85e9677f0ed","system_id":"levelo_inurba_marseille","lat":43.29633,"lon":5.40598,"is_reserved":false,"is_disabled":false,"rental_uris":{"android":"levelo://app?vid=98467ecf-43e3-4b8a-ad56-b85e9677f0ed","ios":"levelo://app?vid=98467ecf-43e3-4b8a-ad56-b85e9677f0ed"},"vehicle_type_id":"4","last_reported":1781341165,"current_range_meters":7200,"station_id":"ce4bh0h2rcd13ifvqd60","pricing_plan_id":"cebpf4jnsgd1na2vs0mg"},{"bike_id":"f8512e4c-12f1-407d-a418-7fa99b208e7f","system_id":"levelo_inurba_marseille","lat":43.24801,"lon":5.37442,"is_reserved":false,"is_disabled":false,"rental_uris":{"android":"levelo://app?vid=f8512e4c-12f1-407d-a418-7fa99b208e7f","ios":"levelo://app?vid=f8512e4c-12f1-407d-a418-7fa99b208e7f"},"vehicle_type_id":"4","last_reported":1781341165,"current_range_meters":7200,"station_id":"ce4bhgh2rcd13ifvqfb0","pricing_plan_id":"cebpf4jnsgd1na2vs0mg"},{"bike_id":"27d3f6f8-8cc3-4981-a68f-1397edf5966f","system_id":"levelo_inurba_marseille","lat":43.28534,"lon":5.4409,"is_reserved":false,"is_disabled":false,"rental_uris":{"android":"levelo://app?vid=27d3f6f8-8cc3-4981-a68f-1397edf5966f","ios":"levelo://app?vid=27d3f6f8-8cc3-4981-a68f-1397edf5966f"},"vehicle_type_id":"4","last_reported":1781341165,"current_range_meters":7200,"station_id":"st_d3j3df2ikq2c7380ej80","pricing_plan_id":"cebpf4jnsgd1na2vs0mg"},{"bike_id":"4b84cc20-93d9-4e85-811a-ba432f50bc38","system_id":"levelo_inurba_marseille","lat":43.26184,"lon":5.38067,"is_reserved":false,"is_disabled":false,"rental_uris":{"android":"levelo://app?vid=4b84cc20-93d9-4e85-811a-ba432f50bc38","ios":"levelo://app?vid=4b84cc20-93d9-4e85-811a-ba432f50bc38"},"vehicle_type_id":"4","last_reported":1781341165,"current_range_meters":7200,"station_id":"","pricing_plan_id":"cebpf4jnsgd1na2vs0mg"},{"bike_id":"e9569279-e2ef-4e9f-95c5-a952e85e209d","system_id":"levelo_inurba_marseille","lat":43.31086,"lon":5.37163,"is_reserved":false,"is_disabled":false,"rental_uris":{"android":"levelo://app?vid=e9569279-e2ef-4e9f-95c5-a952e85e209d","ios":"levelo://app?vid=e9569279-e2ef-4e9f-95c5-a952e85e209d"},"vehicle_type_id":"4","last_reported":1781341165,"current_range_meters":7200,"station_id":"st_d4kl2rp97mjs73e7tdfg","pricing_plan_id":"cebpf4jnsgd1na2vs0mg"},{"bike_id":"5458e9e4-5a60-46b0-950d-75ac07433e31","system_id":"levelo_inurba_marseille","lat":43.29098,"lon":5.38433,"is_reserved":false,"is_disabled":false,"rental_uris":{"android":"levelo://app?vid=5458e9e4-5a60-46b0-950d-75ac07433e31","ios":"levelo://app?vid=5458e9e4-5a60-46b0-950d-75ac07433e31"},"vehicle_type_id":"4","last_reported":1781341165,"current_range_meters":7200,"station_id":"","pricing_plan_id":"cebpf4jnsgd1na2vs0mg"},{"bike_id":"8b239052-d9fc-4d23-ac3a-40115a7c616e","system_id":"levelo_inurba_marseille","lat":43.29248,"lon":5.3843,"is_reserved":false,"is_disabled":false,"rental_uris":{"android":"levelo://app?vid=8b239052-d9fc-4d23-ac3a-40115a7c616e","ios":"levelo://app?vid=8b239052-d9fc-4d23-ac3a-40115a7c616e"},"vehicle_type_id":"4","last_reported":1781341165,"current_range_meters":7200,"station_id":"ce4bh692rcd13ifvqea0","pricing_plan_id":"cebpf4jnsgd1na2vs0mg"},{"bike_id":"d9bbcfa4-a44d-4020-b0df-d2651b3bdf41","system_id":"levelo_inurba_marseille","lat":43.21196,"lon":5.35062,"is_reserved":false,"is_disabled":false,"rental_uris":{"android":"levelo://app?vid=d9bbcfa4-a44d-4020-b0df-d2651b3bdf41","ios":"levelo://app?vid=d9bbcfa4-a44d-4020-b0df-d2651b3bdf41"},"vehicle_type_id":"4","last_reported":1781341165,"current_range_meters":7200,"station_id":"st_cvj6sg6p6f1abm77japg","pricing_plan_id":"cebpf4jnsgd1na2vs0mg"},{"bike_id":"dc3e3e35-560a-41ac-8b92-c31e5b3f3434","system_id":"levelo_inurba_marseille","lat":43.26679,"lon":5.39298,"is_reserved":false,"is_disabled":false,"rental_uris":{"android":"levelo://app?vid=dc3e3e35-560a-41ac-8b92-c31e5b3f3434","ios":"levelo://app?vid=dc3e3e35-560a-41ac-8b92-c31e5b3f3434"},"vehicle_type_id":"4","last_reported":1781341165,"current_range_meters":7200,"station_id":"","pricing_plan_id":"cebpf4jnsgd1na2vs0mg"},{"bike_id":"f85f6381-61f9-49f1-b5d1-4e80c0b6acbd","system_id":"levelo_inurba_marseille","lat":43.30467,"lon":5.37902,"is_reserved":false,"is_disabled":false,"rental_uris":{"android":"levelo://app?vid=f85f6381-61f9-49f1-b5d1-4e80c0b6acbd","ios":"levelo://app?vid=f85f6381-61f9-49f1-b5d1-4e80c0b6acbd"},"vehicle_type_id":"4","last_reported":1781341165,"current_range_meters":7200,"station_id":"ce4bgup2rcd13ifvqcn0","pricing_plan_id":"cebpf4jnsgd1na2vs0mg"},{"bike_id":"8f5b297e-a101-4dac-9b10-8764ca019902","system_id":"levelo_inurba_marseille","lat":43.313634,"lon":5.38489,"is_reserved":false,"is_disabled":true,"rental_uris":{"android":"levelo://app?vid=8f5b297e-a101-4dac-9b10-8764ca019902","ios":"levelo://app?vid=8f5b297e-a101-4dac-9b10-8764ca019902"},"vehicle_type_id":"4","last_reported":1781341165,"current_range_meters":7200,"station_id":"","pricing_plan_id":"cebpf4jnsgd1na2vs0mg"},{"bike_id":"b8c5ce0c-d2a9-42a7-a3c8-3016d03d17c3","system_id":"levelo_inurba_marseille","lat":43.29897,"lon":5.38137,"is_reserved":false,"is_disabled":false,"rental_uris":{"android":"levelo://app?vid=b8c5ce0c-d2a9-42a7-a3c8-3016d03d17c3","ios":"levelo://app?vid=b8c5ce0c-d2a9-42a7-a3c8-3016d03d17c3"},"vehicle_type_id":"4","last_reported":1781341165,"current_range_meters":7200,"station_id":"ce4bgj12rcd13ifvqbc0","pricing_plan_id":"cebpf4jnsgd1na2vs0mg"},{"bike_id":"63ddbe11-e454-4871-a281-730c90a3e18b","system_id":"levelo_inurba_marseille","lat":43.26571,"lon":5.37238,"is_reserved":false,"is_disabled":false,"rental_uris":{"android":"levelo://app?vid=63ddbe11-e454-4871-a281-730c90a3e18b","ios":"levelo://app?vid=63ddbe11-e454-4871-a281-730c90a3e18b"},"vehicle_type_id":"4","last_reported":1781341165,"current_range_meters":7200,"station_id":"ce4bhg12rcd13ifvqf70","pricing_plan_id":"cebpf4jnsgd1na2vs0mg"},{"bike_id":"9f041565-0780-4f89-a35d-fec053461d26","system_id":"levelo_inurba_marseille","lat":43.26558,"lon":5.37286,"is_reserved":false,"is_disabled":false,"rental_uris":{"android":"levelo://app?vid=9f041565-0780-4f89-a35d-fec053461d26","ios":"levelo://app?vid=9f041565-0780-4f89-a35d-fec053461d26"},"vehicle_type_id":"4","last_reported":1781341165,"current_range_meters":7200,"station_id":"ce4bhg12rcd13ifvqf70","pricing_plan_id":"cebpf4jnsgd1na2vs0mg"},{"bike_id":"6fb07b35-b88f-45ae-9e9e-ceed1b219374","system_id":"levelo_inurba_marseille","lat":43.325,"lon":5.36576,"is_reserved":false,"is_disabled":true,"rental_uris":{"android":"levelo://app?vid=6fb07b35-b88f-45ae-9e9e-ceed1b219374","ios":"levelo://app?vid=6fb07b35-b88f-45ae-9e9e-ceed1b219374"},"vehicle_type_id":"4","last_reported":1781341165,"current_range_meters":7200,"station_id":"ce4bhs12rcd13ifvqhvg","pricing_plan_id":"cebpf4jnsgd1na2vs0mg"},{"bike_id":"9cf14db7-7787-4fa0-ab0d-23e167daa079","system_id":"levelo_inurba_marseille","lat":43.29532,"lon":5.37504,"is_reserved":false,"is_disabled":false,"rental_uris":{"android":"levelo://app?vid=9cf14db7-7787-4fa0-ab0d-23e167daa079","ios":"levelo://app?vid=9cf14db7-7787-4fa0-ab0d-23e167daa079"},"vehicle_type_id":"4","last_reported":1781341165,"current_range_meters":7200,"station_id":"ce4bgkp2rcd13ifvqbmg","pricing_plan_id":"cebpf4jnsgd1na2vs0mg"},{"bike_id":"3ac38b3a-df68-4ddb-8be7-f5ce5af56eb3","system_id":"levelo_inurba_marseille","lat":43.29003,"lon":5.35598,"is_reserved":false,"is_disabled":true,"rental_uris":{"android":"levelo://app?vid=3ac38b3a-df68-4ddb-8be7-f5ce5af56eb3","ios":"levelo://app?vid=3ac38b3a-df68-4ddb-8be7-f5ce5af56eb3"},"vehicle_type_id":"4","last_reported":1781341165,"current_range_meters":7200,"station_id":"ce4bhb92rcd13ifvqen0","pricing_plan_id":"cebpf4jnsgd1na2vs0mg"},{"bike_id":"6df7054b-12fc-4820-90eb-30a94928fe3f","system_id":"levelo_inurba_marseille","lat":43.23811,"lon":5.36615,"is_reserved":false,"is_disabled":false,"rental_uris":{"android":"levelo://app?vid=6df7054b-12fc-4820-90eb-30a94928fe3f","ios":"levelo://app?vid=6df7054b-12fc-4820-90eb-30a94928fe3f"},"vehicle_type_id":"4","last_reported":1781341165,"current_range_meters":7200,"station_id":"st_d3nk18o9ro0c73en2l3g","pricing_plan_id":"cebpf4jnsgd1na2vs0mg"},{"bike_id":"6e1ae1a6-4321-48b4-a352-d2f47e71c777","system_id":"levelo_inurba_marseille","lat":43.31319,"lon":5.39684,"is_reserved":false,"is_disabled":false,"rental_uris":{"android":"levelo://app?vid=6e1ae1a6-4321-48b4-a352-d2f47e71c777","ios":"levelo://app?vid=6e1ae1a6-4321-48b4-a352-d2f47e71c777"},"vehicle_type_id":"4","last_reported":1781341165,"current_range_meters":7200,"station_id":"ce4bgvp2rcd13ifvqcu0","pricing_plan_id":"cebpf4jnsgd1na2vs0mg"},{"bike_id":"ab2d2bfc-dbcb-4624-aa83-14cf0bbb574e","system_id":"levelo_inurba_marseille","lat":43.27173,"lon":5.4099,"is_reserved":false,"is_disabled":false,"rental_uris":{"android":"levelo://app?vid=ab2d2bfc-dbcb-4624-aa83-14cf0bbb574e","ios":"levelo://app?vid=ab2d2bfc-dbcb-4624-aa83-14cf0bbb574e"},"vehicle_type_id":"4","last_reported":1781341165,"current_range_meters":7200,"station_id":"ce4bhl12rcd13ifvqgf0","pricing_plan_id":"cebpf4jnsgd1na2vs0mg"},{"bike_id":"a8da77e4-dc80-4573-aff2-042d5a0489c3","system_id":"levelo_inurba_marseille","lat":43.30622,"lon":5.39883,"is_reserved":false,"is_disabled":false,"rental_uris":{"android":"levelo://app?vid=a8da77e4-dc80-4573-aff2-042d5a0489c3","ios":"levelo://app?vid=a8da77e4-dc80-4573-aff2-042d5a0489c3"},"vehicle_type_id":"4","last_reported":1781341165,"current_range_meters":7200,"station_id":"","pricing_plan_id":"cebpf4jnsgd1na2vs0mg"},{"bike_id":"a2138d07-ea1d-44d1-b328-4311635048af","system_id":"levelo_inurba_marseille","lat":43.29017,"lon":5.39959,"is_reserved":false,"is_disabled":false,"rental_uris":{"android":"levelo://app?vid=a2138d07-ea1d-44d1-b328-4311635048af","ios":"levelo://app?vid=a2138d07-ea1d-44d1-b328-4311635048af"},"vehicle_type_id":"4","last_reported":1781341165,"current_range_meters":7200,"station_id":"ce4bh392rcd13ifvqdm0","pricing_plan_id":"cebpf4jnsgd1na2vs0mg"},{"bike_id":"cf0c68e9-108f-4cb2-8999-26e59936ff8c","system_id":"levelo_inurba_marseille","lat":43.23064,"lon":5.35494,"is_reserved":false,"is_disabled":false,"rental_uris":{"android":"levelo://app?vid=cf0c68e9-108f-4cb2-8999-26e59936ff8c","ios":"levelo://app?vid=cf0c68e9-108f-4cb2-8999-26e59936ff8c"},"vehicle_type_id":"4","last_reported":1781341165,"current_range_meters":8000,"station_id":"cpo3342slgdg3j2ifvpg","pricing_plan_id":"cebpf4jnsgd1na2vs0mg"},{"bike_id":"236f4ff0-29c5-444a-871b-0f28eebe2522","system_id":"levelo_inurba_marseille","lat":43.23897,"lon":5.3745,"is_reserved":false,"is_disabled":false,"rental_uris":{"android":"levelo://app?vid=236f4ff0-29c5-444a-871b-0f28eebe2522","ios":"levelo://app?vid=236f4ff0-29c5-444a-871b-0f28eebe2522"},"vehicle_type_id":"4","last_reported":1781341165,"current_range_meters":8000,"station_id":"st_d6sm7csbq4hs73f8fpjg","pricing_plan_id":"cebpf4jnsgd1na2vs0mg"},{"bike_id":"b88cdece-4ff3-477d-8f49-d847d368a2ed","system_id":"levelo_inurba_marseille","lat":43.30566,"lon":5.36544,"is_reserved":false,"is_disabled":false,"rental_uris":{"android":"levelo://app?vid=b88cdece-4ff3-477d-8f49-d847d368a2ed","ios":"levelo://app?vid=b88cdece-4ff3-477d-8f49-d847d368a2ed"},"vehicle_type_id":"4","last_reported":1781341165,"current_range_meters":8000,"station_id":"ce4bgs12rcd13ifvqcag","pricing_plan_id":"cebpf4jnsgd1na2vs0mg"},{"bike_id":"b8283d2f-f65f-41f5-947e-3656ddc8e33f","system_id":"levelo_inurba_marseille","lat":43.23205,"lon":5.35543,"is_reserved":false,"is_disabled":false,"rental_uris":{"android":"levelo://app?vid=b8283d2f-f65f-41f5-947e-3656ddc8e33f","ios":"levelo://app?vid=b8283d2f-f65f-41f5-947e-3656ddc8e33f"},"vehicle_type_id":"4","last_reported":1781341165,"current_range_meters":8000,"station_id":"ce4bhu92rcd13ifvqi70","pricing_plan_id":"cebpf4jnsgd1na2vs0mg"},{"bike_id":"3b98ab9b-91bf-42a1-a015-49ad3b9b5e3b","system_id":"levelo_inurba_marseille","lat":43.25083,"lon":5.39518,"is_reserved":false,"is_disabled":false,"rental_uris":{"android":"levelo://app?vid=3b98ab9b-91bf-42a1-a015-49ad3b9b5e3b","ios":"levelo://app?vid=3b98ab9b-91bf-42a1-a015-49ad3b9b5e3b"},"vehicle_type_id":"4","last_reported":1781341165,"current_range_meters":8000,"station_id":"ce4bhm12rcd13ifvqgkg","pricing_plan_id":"cebpf4jnsgd1na2vs0mg"},{"bike_id":"c43c92bc-16e7-4616-8292-b9ed941fbd42","system_id":"levelo_inurba_marseille","lat":43.22563,"lon":5.4163,"is_reserved":false,"is_disabled":false,"rental_uris":{"android":"levelo://app?vid=c43c92bc-16e7-4616-8292-b9ed941fbd42","ios":"levelo://app?vid=c43c92bc-16e7-4616-8292-b9ed941fbd42"},"vehicle_type_id":"4","last_reported":1781341165,"current_range_meters":8000,"station_id":"st_d2o4gvlbi1j2169b742g","pricing_plan_id":"cebpf4jnsgd1na2vs0mg"},{"bike_id":"0af28dff-10e3-45c2-abfc-a6abed270ace","system_id":"levelo_inurba_marseille","lat":43.33716,"lon":5.39178,"is_reserved":false,"is_disabled":false,"rental_uris":{"android":"levelo://app?vid=0af28dff-10e3-45c2-abfc-a6abed270ace","ios":"levelo://app?vid=0af28dff-10e3-45c2-abfc-a6abed270ace"},"vehicle_type_id":"4","last_reported":1781341165,"current_range_meters":8000,"station_id":"ce4bhr92rcd13ifvqhsg","pricing_plan_id":"cebpf4jnsgd1na2vs0mg"},{"bike_id":"db37d03e-c628-4d66-81fe-e5884eb1db17","system_id":"levelo_inurba_marseille","lat":43.295291,"lon":5.390218,"is_reserved":false,"is_disabled":false,"rental_uris":{"android":"levelo://app?vid=db37d03e-c628-4d66-81fe-e5884eb1db17","ios":"levelo://app?vid=db37d03e-c628-4d66-81fe-e5884eb1db17"},"vehicle_type_id":"4","last_reported":1781341165,"current_range_meters":8000,"station_id":"ce4bh3p2rcd13ifvqdp0","pricing_plan_id":"cebpf4jnsgd1na2vs0mg"},{"bike_id":"bf601120-2f22-4bcd-8556-91c5f1ccc8b1","system_id":"levelo_inurba_marseille","lat":43.31405,"lon":5.38113,"is_reserved":false,"is_disabled":false,"rental_uris":{"android":"levelo://app?vid=bf601120-2f22-4bcd-8556-91c5f1ccc8b1","ios":"levelo://app?vid=bf601120-2f22-4bcd-8556-91c5f1ccc8b1"},"vehicle_type_id":"4","last_reported":1781341165,"current_range_meters":8000,"station_id":"","pricing_plan_id":"cebpf4jnsgd1na2vs0mg"},{"bike_id":"2e296511-deb4-43a9-83f0-81592d7a3463","system_id":"levelo_inurba_marseille","lat":43.33196,"lon":5.37715,"is_reserved":false,"is_disabled":false,"rental_uris":{"android":"levelo://app?vid=2e296511-deb4-43a9-83f0-81592d7a3463","ios":"levelo://app?vid=2e296511-deb4-43a9-83f0-81592d7a3463"},"vehicle_type_id":"4","last_reported":1781341165,"current_range_meters":8000,"station_id":"","pricing_plan_id":"cebpf4jnsgd1na2vs0mg"},{"bike_id":"6e443034-dd29-4412-bdce-6bedd2a99865","system_id":"levelo_inurba_marseille","lat":43.26554,"lon":5.37285,"is_reserved":false,"is_disabled":false,"rental_uris":{"android":"levelo://app?vid=6e443034-dd29-4412-bdce-6bedd2a99865","ios":"levelo://app?vid=6e443034-dd29-4412-bdce-6bedd2a99865"},"vehicle_type_id":"4","last_reported":1781341165,"current_range_meters":8000,"station_id":"ce4bhg12rcd13ifvqf70","pricing_plan_id":"cebpf4jnsgd1na2vs0mg"},{"bike_id":"1955998d-fe4f-463e-a16e-4532c28b0301","system_id":"levelo_inurba_marseille","lat":43.29575,"lon":5.37507,"is_reserved":false,"is_disabled":false,"rental_uris":{"android":"levelo://app?vid=1955998d-fe4f-463e-a16e-4532c28b0301","ios":"levelo://app?vid=1955998d-fe4f-463e-a16e-4532c28b0301"},"vehicle_type_id":"4","last_reported":1781341165,"current_range_meters":8000,"station_id":"ce4bgh92rcd13ifvqb50","pricing_plan_id":"cebpf4jnsgd1na2vs0mg"},{"bike_id":"0aeec06b-f1a2-482a-8144-c59e9314c4b7","system_id":"levelo_inurba_marseille","lat":43.3032,"lon":5.40445,"is_reserved":false,"is_disabled":false,"rental_uris":{"android":"levelo://app?vid=0aeec06b-f1a2-482a-8144-c59e9314c4b7","ios":"levelo://app?vid=0aeec06b-f1a2-482a-8144-c59e9314c4b7"},"vehicle_type_id":"4","last_reported":1781341165,"current_range_meters":8000,"station_id":"ce4bh012rcd13ifvqd10","pricing_plan_id":"cebpf4jnsgd1na2vs0mg"},