{"last_updated":1708459679,"ttl":30,"version":"2.2","data":{"bikes":[{"bike_id":"4364f1e2-3635-4926-9306-3c3246ad3b9a","system_id":"levelo_inurba_marseille","lat":43.312239,"lon":5.368562,"is_reserved":false,"is_disabled":false,"rental_uris":{"android":"levelo://app?vid=4364f1e2-3635-4926-9306-3c3246ad3b9a","ios":"levelo://app?vid=4364f1e2-3635-4926-9306-3c3246ad3b9a"},"vehicle_type_id":"4","last_reported":1708459679,"current_range_meters":0,"station_id":"ce4bgl92rcd13ifvqbq0","pricing_plan_id":"cebpf4jnsgd1na2vs0mg"},{"bike_id":"d144e62d-579b-4304-a01d-c45fc1219784","system_id":"levelo_inurba_marseille","lat":43.312239,"lon":5.368562,"is_reserved":false,"is_disabled":false,"rental_uris":{"android":"levelo://app?vid=d144e62d-579b-4304-a01d-c45fc1219784","ios":"levelo://app?vid=d144e62d-579b-4304-a01d-c45fc1219784"},"vehicle_type_id":"4","last_reported":1708459679,"current_range_meters":800,"station_id":"ce4bgl92rcd13ifvqbq0","pricing_plan_id":"cebpf4jnsgd1na2vs0mg"},{"bike_id":"bb38e1b2-5879-497f-986f-4f140d288791","system_id":"levelo_inurba_marseille","lat":43.312239,"lon":5.368562,"is_reserved":false,"is_disabled":false,"rental_uris":{"android":"levelo://app?vid=bb38e1b2-5879-497f-986f-4f140d288791","ios":"levelo://app?vid=bb38e1b2-5879-497f-986f-4f140d288791"},"vehicle_type_id":"4","last_reported":1708459679,"current_range_meters":10000,"station_id":"ce4bgl92rcd13ifvqbq0","pricing_plan_id":"cebpf4jnsgd1na2vs0mg"},{"bike_id":"335b407d-6bd0-44f3-a7ab-707caa73a298","system_id":"levelo_inurba_marseille","lat":43.312239,"lon":5.368562,"is_reserved":false,"is_disabled":false,"rental_uris":{"android":"levelo://app?vid=335b407d-6bd0-44f3-a7ab-707caa73a298","ios":"levelo://app?vid=335b407d-6bd0-44f3-a7ab-707caa73a298"},"vehicle_type_id":"4","last_reported":1708459679,"current_range_meters":0,"station_id":"ce4bgl92rcd13ifvqbq0","pricing_plan_id":"cebpf4jnsgd1na2vs0mg"},{"bike_id":"59a4525b-9878-4a84-8ee1-08a7a01078a5","system_id":"levelo_inurba_marseille","lat":43.309076,"lon":5.368465,"is_reserved":false,"is_disabled":false,"rental_uris":{"android":"levelo://app?vid=59a4525b-9878-4a84-8ee1-08a7a01078a5","ios":"levelo://app?vid=59a4525b-9878-4a84-8ee1-08a7a01078a5"},"vehicle_type_id":"4","last_reported":1708459679,"current_range_meters":2000,"station_id":"ce4bgn92rcd13ifvqbvg","pricing_plan_id":"cebpf4jnsgd1na2vs0mg"},{"bike_id":"dde7c5b0-f8c4-4252-a773-6bbd69465dda","system_id":"levelo_inurba_marseille","lat":43.309034,"lon":5.371783,"is_reserved":false,"is_disabled":false,"rental_uris":{"android":"levelo://app?vid=dde7c5b0-f8c4-4252-a773-6bbd69465dda","ios":"levelo://app?vid=dde7c5b0-f8c4-4252-a773-6bbd69465dda"},"vehicle_type_id":"4","last_reported":1708459679,"current_range_meters":6400,"station_id":"ce4bguh2rcd13ifvqckg","pricing_plan_id":"cebpf4jnsgd1na2vs0mg"},{"bike_id":"c4bdd22d-7794-425d-a4ea-4c7f7e6ecdaa","system_id":"levelo_inurba_marseille","lat":43.305989,"lon":5.37225,"is_reserved":false,"is_disabled":false,"rental_uris":{"android":"levelo://app?vid=c4bdd22d-7794-425d-a4ea-4c7f7e6ecdaa","ios":"levelo://app?vid=c4bdd22d-7794-425d-a4ea-4c7f7e6ecdaa"},"vehicle_type_id":"4","last_reported":1708459679,"current_range_meters":6800,"station_id":"ce4bgqh2rcd13ifvqc4g","pricing_plan_id":"cebpf4jnsgd1na2vs0mg"},{"bike_id":"a191c388-70d6-4837-b3e0-2bf2f919b01e","system_id":"levelo_inurba_marseille","lat":43.305989,"lon":5.37225,"is_reserved":false,"is_disabled":false,"rental_uris":{"android":"levelo://app?vid=a191c388-70d6-4837-b3e0-2bf2f919b01e","ios":"levelo://app?vid=a191c388-70d6-4837-b3e0-2bf2f919b01e"},"vehicle_type_id":"4","last_reported":1708459679,"current_range_meters":17200,"station_id":"ce4bgqh2rcd13ifvqc4g","pricing_plan_id":"cebpf4jnsgd1na2vs0mg"},{"bike_id":"7c47b7e1-2d56-446b-9cb3-e5d119ab737d","system_id":"levelo_inurba_marseille","lat":43.31124,"lon":5.37777,"is_reserved":false,"is_disabled":false,"rental_uris":{"android":"levelo://app?vid=7c47b7e1-2d56-446b-9cb3-e5d119ab737d","ios":"levelo://app?vid=7c47b7e1-2d56-446b-9cb3-e5d119ab737d"},"vehicle_type_id":"4","last_reported":1708459679,"current_range_meters":5200,"station_id":"ce4bgt92rcd13ifvqcg0","pricing_plan_id":"cebpf4jnsgd1na2vs0mg"},{"bike_id":"dc22c28f-522a-4fb4-b7ab-c6251b90de82","system_id":"levelo_inurba_marseille","lat":43.31654,"lon":5.37675,"is_reserved":false,"is_disabled":false,"rental_uris":{"android":"levelo://app?vid=dc22c28f-522a-4fb4-b7ab-c6251b90de82","ios":"levelo://app?vid=dc22c28f-522a-4fb4-b7ab-c6251b90de82"},"vehicle_type_id":"4","last_reported":1708459679,"current_range_meters":30400,"station_id":"","pricing_plan_id":"cebpf4jnsgd1na2vs0mg"},{"bike_id":"1558b876-f493-4dcf-bcd1-5ce3594ac6c5","system_id":"levelo_inurba_marseille","lat":43.31122,"lon":5.37789,"is_reserved":false,"is_disabled":false,"rental_uris":{"android":"levelo://app?vid=1558b876-f493-4dcf-bcd1-5ce3594ac6c5","ios":"levelo://app?vid=1558b876-f493-4dcf-bcd1-5ce3594ac6c5"},"vehicle_type_id":"4","last_reported":1708459679,"current_range_meters":0,"station_id":"ce4bgt92rcd13ifvqcg0","pricing_plan_id":"cebpf4jnsgd1na2vs0mg"},{"bike_id":"4fb8b5cc-0bc0-4887-a478-af66a06b2ea5","system_id":"levelo_inurba_marseille","lat":43.307945,"lon":5.376487,"is_reserved":false,"is_disabled":false,"rental_uris":{"android":"levelo://app?vid=4fb8b5cc-0bc0-4887-a478-af66a06b2ea5","ios":"levelo://app?vid=4fb8b5cc-0bc0-4887-a478-af66a06b2ea5"},"vehicle_type_id":"4","last_reported":1708459679,"current_range_meters":3600,"station_id":"ce4bgv92rcd13ifvqcq0","pricing_plan_id":"cebpf4jnsgd1na2vs0mg"},{"bike_id":"f2dfa75f-eb4e-4f9c-9729-85a59db10d6c","system_id":"levelo_inurba_marseille","lat":43.317115,"lon":5.377475,"is_reserved":false,"is_disabled":false,"rental_uris":{"android":"levelo://app?vid=f2dfa75f-eb4e-4f9c-9729-85a59db10d6c","ios":"levelo://app?vid=f2dfa75f-eb4e-4f9c-9729-85a59db10d6c"},"vehicle_type_id":"4","last_reported":1708459679,"current_range_meters":10000,"station_id":"","pricing_plan_id":"cebpf4jnsgd1na2vs0mg"},{"bike_id":"d202946a-1378-4320-ac81-6b6b24475f00","system_id":"levelo_inurba_marseille","lat":43.303046,"lon":5.368981,"is_reserved":false,"is_disabled":false,"rental_uris":{"android":"levelo://app?vid=d202946a-1378-4320-ac81-6b6b24475f00","ios":"levelo://app?vid=d202946a-1378-4320-ac81-6b6b24475f00"},"vehicle_type_id":"4","last_reported":1708459679,"current_range_meters":5600,"station_id":"ce4bgqh2rcd13ifvqc5g","pricing_plan_id":"cebpf4jnsgd1na2vs0mg"},{"bike_id":"a8da9c64-ff44-452d-a385-0c6903f4db99","system_id":"levelo_inurba_marseille","lat":43.31538,"lon":5.38027,"is_reserved":false,"is_disabled":false,"rental_uris":{"android":"levelo://app?vid=a8da9c64-ff44-452d-a385-0c6903f4db99","ios":"levelo://app?vid=a8da9c64-ff44-452d-a385-0c6903f4db99"},"vehicle_type_id":"4","last_reported":1708459679,"current_range_meters":10400,"station_id":"ce4bhsp2rcd13ifvqi50","pricing_plan_id":"cebpf4jnsgd1na2vs0mg"},{"bike_id":"899a1e27-cfa7-47fc-963f-21f822bf584e","system_id":"levelo_inurba_marseille","lat":43.303046,"lon":5.368981,"is_reserved":false,"is_disabled":false,"rental_uris":{"android":"levelo://app?vid=899a1e27-cfa7-47fc-963f-21f822bf584e","ios":"levelo://app?vid=899a1e27-cfa7-47fc-963f-21f822bf584e"},"vehicle_type_id":"4","last_reported":1708459679,"current_range_meters":30400,"station_id":"ce4bgqh2rcd13ifvqc5g","pricing_plan_id":"cebpf4jnsgd1na2vs0mg"},{"bike_id":"2c15de6a-a81c-4fe1-8f1c-b99b2399218b","system_id":"levelo_inurba_marseille","lat":43.301939,"lon":5.366286,"is_reserved":false,"is_disabled":false,"rental_uris":{"android":"levelo://app?vid=2c15de6a-a81c-4fe1-8f1c-b99b2399218b","ios":"levelo://app?vid=2c15de6a-a81c-4fe1-8f1c-b99b2399218b"},"vehicle_type_id":"4","last_reported":1708459679,"current_range_meters":14400,"station_id":"ce4bgrh2rcd13ifvqc8g","pricing_plan_id":"cebpf4jnsgd1na2vs0mg"},{"bike_id":"df2e8be1-a186-4acb-8794-3d09859ca296","system_id":"levelo_inurba_marseille","lat":43.308012,"lon":5.381511,"is_reserved":false,"is_disabled":false,"rental_uris":{"android":"levelo://app?vid=df2e8be1-a186-4acb-8794-3d09859ca296","ios":"levelo://app?vid=df2e8be1-a186-4acb-8794-3d09859ca296"},"vehicle_type_id":"4","last_reported":1708459679,"current_range_meters":30000,"station_id":"ce4bgt12rcd13ifvqce0","pricing_plan_id":"cebpf4jnsgd1na2vs0mg"},{"bike_id":"4cd60cd3-101b-4a05-9703-76840434a255","system_id":"levelo_inurba_marseille","lat":43.324771,"lon":5.36557,"is_reserved":false,"is_disabled":false,"rental_uris":{"android":"levelo://app?vid=4cd60cd3-101b-4a05-9703-76840434a255","ios":"levelo://app?vid=4cd60cd3-101b-4a05-9703-76840434a255"},"vehicle_type_id":"4","last_reported":1708459679,"current_range_meters":24000,"station_id":"ce4bhs12rcd13ifvqhvg","pricing_plan_id":"cebpf4jnsgd1na2vs0mg"},{"bike_id":"2a251856-e1b8-4c18-a0a0-94a2c0abc5e4","system_id":"levelo_inurba_marseille","lat":43.324771,"lon":5.36557,"is_reserved":false,"is_disabled":false,"rental_uris":{"android":"levelo://app?vid=2a251856-e1b8-4c18-a0a0-94a2c0abc5e4","ios":"levelo://app?vid=2a251856-e1b8-4c18-a0a0-94a2c0abc5e4"},"vehicle_type_id":"4","last_reported":1708459679,"current_range_meters":28800,"station_id":"ce4bhs12rcd13ifvqhvg","pricing_plan_id":"cebpf4jnsgd1na2vs0mg"},{"bike_id":"5f3727da-be6d-4245-8b7a-5c108328736b","system_id":"levelo_inurba_marseille","lat":43.324771,"lon":5.36557,"is_reserved":false,"is_disabled":false,"rental_uris":{"android":"levelo://app?vid=5f3727da-be6d-4245-8b7a-5c108328736b","ios":"levelo://app?vid=5f3727da-be6d-4245-8b7a-5c108328736b"},"vehicle_type_id":"4","last_reported":1708459679,"current_range_meters":0,"station_id":"ce4bhs12rcd13ifvqhvg","pricing_plan_id":"cebpf4jnsgd1na2vs0mg"},{"bike_id":"cda8eb5b-2134-4fe4-b0ac-1209e0bbc329","system_id":"levelo_inurba_marseille","lat":43.324771,"lon":5.36557,"is_reserved":false,"is_disabled":false,"rental_uris":{"android":"levelo://app?vid=cda8eb5b-2134-4fe4-b0ac-1209e0bbc329","ios":"levelo://app?vid=cda8eb5b-2134-4fe4-b0ac-1209e0bbc329"},"vehicle_type_id":"4","last_reported":1708459679,"current_range_meters":16800,"station_id":"ce4bhs12rcd13ifvqhvg","pricing_plan_id":"cebpf4jnsgd1na2vs0mg"},{"bike_id":"caaf26f8-fbed-445b-be7b-3ecf625cc521","system_id":"levelo_inurba_marseille","lat":43.324771,"lon":5.36557,"is_reserved":false,"is_disabled":false,"rental_uris":{"android":"levelo://app?vid=caaf26f8-fbed-445b-be7b-3ecf625cc521","ios":"levelo://app?vid=caaf26f8-fbed-445b-be7b-3ecf625cc521"},"vehicle_type_id":"4","last_reported":1708459679,"current_range_meters":29600,"station_id":"ce4bhs12rcd13ifvqhvg","pricing_plan_id":"cebpf4jnsgd1na2vs0mg"},{"bike_id":"60bd5b21-6f65-4106-848b-6b1dc6e92f81","system_id":"levelo_inurba_marseille","lat":43.30268,"lon":5.37725,"is_reserved":false,"is_disabled":false,"rental_uris":{"android":"levelo://app?vid=60bd5b21-6f65-4106-848b-6b1dc6e92f81","ios":"levelo://app?vid=60bd5b21-6f65-4106-848b-6b1dc6e92f81"},"vehicle_type_id":"4","last_reported":1708459679,"current_range_meters":27200,"station_id":"ce4bguh2rcd13ifvqcj0","pricing_plan_id":"cebpf4jnsgd1na2vs0mg"},{"bike_id":"fa74ca84-175e-486c-a29b-18a75d0e7172","system_id":"levelo_inurba_marseille","lat":43.319935,"lon":5.381699,"is_reserved":false,"is_disabled":false,"rental_uris":{"android":"levelo://app?vid=fa74ca84-175e-486c-a29b-18a75d0e7172","ios":"levelo://app?vid=fa74ca84-175e-486c-a29b-18a75d0e7172"},"vehicle_type_id":"4","last_reported":1708459679,"current_range_meters":0,"station_id":"ce4bhr12rcd13ifvqhpg","pricing_plan_id":"cebpf4jnsgd1na2vs0mg"},{"bike_id":"71aefc01-5c84-43c5-9ff2-653f0c93be49","system_id":"levelo_inurba_marseille","lat":43.319935,"lon":5.381699,"is_reserved":false,"is_disabled":false,"rental_uris":{"android":"levelo://app?vid=71aefc01-5c84-43c5-9ff2-653f0c93be49","ios":"levelo://app?vid=71aefc01-5c84-43c5-9ff2-653f0c93be49"},"vehicle_type_id":"4","last_reported":1708459679,"current_range_meters":12400,"station_id":"ce4bhr12rcd13ifvqhpg","pricing_plan_id":"cebpf4jnsgd1na2vs0mg"},{"bike_id":"4da0bc28-1f1b-4133-aeb1-e5fa264d8ee7","system_id":"levelo_inurba_marseille","lat":43.31549,"lon":5.3845,"is_reserved":false,"is_disabled":false,"rental_uris":{"android":"levelo://app?vid=4da0bc28-1f1b-4133-aeb1-e5fa264d8ee7","ios":"levelo://app?vid=4da0bc28-1f1b-4133-aeb1-e5fa264d8ee7"},"vehicle_type_id":"4","last_reported":1708459679,"current_range_meters":21600,"station_id":"","pricing_plan_id":"cebpf4jnsgd1na2vs0mg"},{"bike_id":"342e505e-2165-4d72-a238-1e7c766c4edc","system_id":"levelo_inurba_marseille","lat":43.313571,"lon":5.384829,"is_reserved":false,"is_disabled":false,"rental_uris":{"android":"levelo://app?vid=342e505e-2165-4d72-a238-1e7c766c4edc","ios":"levelo://app?vid=342e505e-2165-4d72-a238-1e7c766c4edc"},"vehicle_type_id":"4","last_reported":1708459679,"current_range_meters":16800,"station_id":"ce4bgt92rcd13ifvqcf0","pricing_plan_id":"cebpf4jnsgd1na2vs0mg"},{"bike_id":"1ff774a0-234a-4358-9a48-e829a770ab07","system_id":"levelo_inurba_marseille","lat":43.313571,"lon":5.384829,"is_reserved":false,"is_disabled":false,"rental_uris":{"android":"levelo://app?vid=1ff774a0-234a-4358-9a48-e829a770ab07","ios":"levelo://app?vid=1ff774a0-234a-4358-9a48-e829a770ab07"},"vehicle_type_id":"4","last_reported":1708459679,"current_range_meters":14800,"station_id":"ce4bgt92rcd13ifvqcf0","pricing_plan_id":"cebpf4jnsgd1na2vs0mg"},{"bike_id":"6da3e66f-8136-409a-be4c-7bb9fad61327","system_id":"levelo_inurba_marseille","lat":43.313571,"lon":5.384829,"is_reserved":false,"is_disabled":false,"rental_uris":{"android":"levelo://app?vid=6da3e66f-8136-409a-be4c-7bb9fad61327","ios":"levelo://app?vid=6da3e66f-8136-409a-be4c-7bb9fad61327"},"vehicle_type_id":"4","last_reported":1708459679,"current_range_meters":9600,"station_id":"ce4bgt92rcd13ifvqcf0","pricing_plan_id":"cebpf4jnsgd1na2vs0mg"},{"bike_id":"000a80ac-2a92-406f-8597-2675a2aa0744","system_id":"levelo_inurba_marseille","lat":43.31369,"lon":5.38493,"is_reserved":false,"is_disabled":false,"rental_uris":{"android":"levelo://app?vid=000a80ac-2a92-406f-8597-2675a2aa0744","ios":"levelo://app?vid=000a80ac-2a92-406f-8597-2675a2aa0744"},"vehicle_type_id":"4","last_reported":1708459679,"current_range_meters":18800,"station_id":"ce4bgt92rcd13ifvqcf0","pricing_plan_id":"cebpf4jnsgd1na2vs0mg"},{"bike_id":"f4bee53d-a74d-48d5-957c-a931d02520ed","system_id":"levelo_inurba_marseille","lat":43.31362,"lon":5.38497,"is_reserved":false,"is_disabled":false,"rental_uris":{"android":"levelo://app?vid=f4bee53d-a74d-48d5-957c-a931d02520ed","ios":"levelo://app?vid=f4bee53d-a74d-48d5-957c-a931d02520ed"},"vehicle_type_id":"4","last_reported":1708459679,"current_range_meters":14800,"station_id":"ce4bgt92rcd13ifvqcf0","pricing_plan_id":"cebpf4jnsgd1na2vs0mg"},{"bike_id":"44009f75-4b92-44b9-b40c-40086f71eea2","system_id":"levelo_inurba_marseille","lat":43.313571,"lon":5.384829,"is_reserved":false,"is_disabled":false,"rental_uris":{"android":"levelo://app?vid=44009f75-4b92-44b9-b40c-40086f71eea2","ios":"levelo://app?vid=44009f75-4b92-44b9-b40c-40086f71eea2"},"vehicle_type_id":"4","last_reported":1708459679,"current_range_meters":24800,"station_id":"ce4bgt92rcd13ifvqcf0","pricing_plan_id":"cebpf4jnsgd1na2vs0mg"},{"bike_id":"b4d6622f-5b3c-4eba-bb71-a1fdefcb7060","system_id":"levelo_inurba_marseille","lat":43.29977,"lon":5.3718,"is_reserved":false,"is_disabled":false,"rental_uris":{"android":"levelo://app?vid=b4d6622f-5b3c-4eba-bb71-a1fdefcb7060","ios":"levelo://app?vid=b4d6622f-5b3c-4eba-bb71-a1fdefcb7060"},"vehicle_type_id":"4","last_reported":1708459679,"current_range_meters":0,"station_id":"ce4bgr92rcd13ifvqc7g","pricing_plan_id":"cebpf4jnsgd1na2vs0mg"},{"bike_id":"99ee0764-6e5f-4312-b208-a19081eac319","system_id":"levelo_inurba_marseille","lat":43.299222,"lon":5.365554,"is_reserved":false,"is_disabled":false,"rental_uris":{"android":"levelo://app?vid=99ee0764-6e5f-4312-b208-a19081eac319","ios":"levelo://app?vid=99ee0764-6e5f-4312-b208-a19081eac319"},"vehicle_type_id":"4","last_reported":1708459679,"current_range_meters":17600,"station_id":"ce4bgm92rcd13ifvqbr0","pricing_plan_id":"cebpf4jnsgd1na2vs0mg"},{"bike_id":"faa283ef-51e5-4de8-8651-f15aa5007dbd","system_id":"levelo_inurba_marseille","lat":43.299724,"lon":5.371829,"is_reserved":false,"is_disabled":false,"rental_uris":{"android":"levelo://app?vid=faa283ef-51e5-4de8-8651-f15aa5007dbd","ios":"levelo://app?vid=faa283ef-51e5-4de8-8651-f15aa5007dbd"},"vehicle_type_id":"4","last_reported":1708459679,"current_range_meters":9600,"station_id":"ce4bgr92rcd13ifvqc7g","pricing_plan_id":"cebpf4jnsgd1na2vs0mg"},{"bike_id":"a6e9407d-2cdd-49dc-8c3e-263c10004b7b","system_id":"levelo_inurba_marseille","lat":43.299243,"lon":5.37481,"is_reserved":false,"is_disabled":false,"rental_uris":{"android":"levelo://app?vid=a6e9407d-2cdd-49dc-8c3e-263c10004b7b","ios":"levelo://app?vid=a6e9407d-2cdd-49dc-8c3e-263c10004b7b"},"vehicle_type_id":"4","last_reported":1708459679,"current_range_meters":12800,"station_id":"ce4bgjh2rcd13ifvqbg0","pricing_plan_id":"cebpf4jnsgd1na2vs0mg"},{"bike_id":"2a58611e-f5fc-4942-bda3-2c57d67d728a","system_id":"levelo_inurba_marseille","lat":43.31183,"lon":5.387097,"is_reserved":false,"is_disabled":false,"rental_uris":{"android":"levelo://app?vid=2a58611e-f5fc-4942-bda3-2c57d67d728a","ios":"levelo://app?vid=2a58611e-f5fc-4942-bda3-2c57d67d728a"},"vehicle_type_id":"4","last_reported":1708459679,"current_range_meters":0,"station_id":"ce4bgv12rcd13ifvqcp0","pricing_plan_id":"cebpf4jnsgd1na2vs0mg"},{"bike_id":"f6a86732-d769-4a07-8a0f-0c7f0b7570df","system_id":"levelo_inurba_marseille","lat":43.311722,"lon":5.387247,"is_reserved":false,"is_disabled":false,"rental_uris":{"android":"levelo://app?vid=f6a86732-d769-4a07-8a0f-0c7f0b7570df","ios":"levelo://app?vid=f6a86732-d769-4a07-8a0f-0c7f0b7570df"},"vehicle_type_id":"4","last_reported":1708459679,"current_range_meters":13600,"station_id":"ce4bgv12rcd13ifvqcp0","pricing_plan_id":"cebpf4jnsgd1na2vs0mg"},{"bike_id":"b8fded91-470c-440e-84dc-874ba2e0aad6","system_id":"levelo_inurba_marseille","lat":43.311722,"lon":5.387247,"is_reserved":false,"is_disabled":false,"rental_uris":{"android":"levelo://app?vid=b8fded91-470c-440e-84dc-874ba2e0aad6","ios":"levelo://app?vid=b8fded91-470c-440e-84dc-874ba2e0aad6"},"vehicle_type_id":"4","last_reported":1708459679,"current_range_meters":2800,"station_id":"ce4bgv12rcd13ifvqcp0","pricing_plan_id":"cebpf4jnsgd1na2vs0mg"},{"bike_id":"478510f5-43e3-4b32-8ee9-816653d96ea6","system_id":"levelo_inurba_marseille","lat":43.299243,"lon":5.374807,"is_reserved":false,"is_disabled":false,"rental_uris":{"android":"levelo://app?vid=478510f5-43e3-4b32-8ee9-816653d96ea6","ios":"levelo://app?vid=478510f5-43e3-4b32-8ee9-816653d96ea6"},"vehicle_type_id":"4","last_reported":1708459679,"current_range_meters":13600,"station_id":"ce4bgjh2rcd13ifvqbg0","pricing_plan_id":"cebpf4jnsgd1na2vs0mg"},{"bike_id":"f1d9aa1f-d7bf-4a67-bed6-307ea08e9ecc","system_id":"levelo_inurba_marseille","lat":43.311722,"lon":5.387247,"is_reserved":false,"is_disabled":false,"rental_uris":{"android":"levelo://app?vid=f1d9aa1f-d7bf-4a67-bed6-307ea08e9ecc","ios":"levelo://app?vid=f1d9aa1f-d7bf-4a67-bed6-307ea08e9ecc"},"vehicle_type_id":"4","last_reported":1708459679,"current_range_meters":28000,"station_id":"ce4bgv12rcd13ifvqcp0","pricing_plan_id":"cebpf4jnsgd1na2vs0mg"},{"bike_id":"3eb10fd5-2bbe-4ae8-8df2-e708c1d17f6a","system_id":"levelo_inurba_marseille","lat":43.297794,"lon":5.370888,"is_reserved":false,"is_disabled":false,"rental_uris":{"android":"levelo://app?vid=3eb10fd5-2bbe-4ae8-8df2-e708c1d17f6a","ios":"levelo://app?vid=3eb10fd5-2bbe-4ae8-8df2-e708c1d17f6a"},"vehicle_type_id":"4","last_reported":1708459679,"current_range_meters":1600,"station_id":"ce4bgop2rcd13ifvqc1g","pricing_plan_id":"cebpf4jnsgd1na2vs0mg"},{"bike_id":"098eaae3-c91c-4c4e-9a14-70e940012909","system_id":"levelo_inurba_marseille","lat":43.298063,"lon":5.362145,"is_reserved":false,"is_disabled":false,"rental_uris":{"android":"levelo://app?vid=098eaae3-c91c-4c4e-9a14-70e940012909","ios":"levelo://app?vid=098eaae3-c91c-4c4e-9a14-70e940012909"},"vehicle_type_id":"4","last_reported":1708459679,"current_range_meters":20800,"station_id":"","pricing_plan_id":"cebpf4jnsgd1na2vs0mg"},{"bike_id":"79b54601-dd27-44fc-91ca-5befd5594d9b","system_id":"levelo_inurba_marseille","lat":43.322872,"lon":5.382756,"is_reserved":false,"is_disabled":false,"rental_uris":{"android":"levelo://app?vid=79b54601-dd27-44fc-91ca-5befd5594d9b","ios":"levelo://app?vid=79b54601-dd27-44fc-91ca-5befd5594d9b"},"vehicle_type_id":"4","last_reported":1708459679,"current_range_meters":30000,"station_id":"ce4bhr12rcd13ifvqhqg","pricing_plan_id":"cebpf4jnsgd1na2vs0mg"},{"bike_id":"3ef6b703-e056-421a-9179-5e7d94b25453","system_id":"levelo_inurba_marseille","lat":43.3229,"lon":5.38271,"is_reserved":false,"is_disabled":false,"rental_uris":{"android":"levelo://app?vid=3ef6b703-e056-421a-9179-5e7d94b25453","ios":"levelo://app?vid=3ef6b703-e056-421a-9179-5e7d94b25453"},"vehicle_type_id":"4","last_reported":1708459679,"current_range_meters":24000,"station_id":"ce4bhr12rcd13ifvqhqg","pricing_plan_id":"cebpf4jnsgd1na2vs0mg"},{"bike_id":"25fc5026-6ec5-4002-b696-3e1c3a41c330","system_id":"levelo_inurba_marseille","lat":43.32287,"lon":5.38279,"is_reserved":false,"is_disabled":false,"rental_uris":{"android":"levelo://app?vid=25fc5026-6ec5-4002-b696-3e1c3a41c330","ios":"levelo://app?vid=25fc5026-6ec5-4002-b696-3e1c3a41c330"},"vehicle_type_id":"4","last_reported":1708459679,"current_range_meters":8400,"station_id":"ce4bhr12rcd13ifvqhqg","pricing_plan_id":"cebpf4jnsgd1na2vs0mg"},{"bike_id":"8b56043d-5a3f-4374-9d23-73ad33c38f92","system_id":"levelo_inurba_marseille","lat":43.29711,"lon":5.366037,"is_reserved":false,"is_disabled":false,"rental_uris":{"android":"levelo://app?vid=8b56043d-5a3f-4374-9d23-73ad33c38f92","ios":"levelo://app?vid=8b56043d-5a3f-4374-9d23-73ad33c38f92"},"vehicle_type_id":"4","last_reported":1708459679,"current_range_meters":21600,"station_id":"ce4bgn12rcd13ifvqbt0","pricing_plan_id":"cebpf4jnsgd1na2vs0mg"},{"bike_id":"43150398-4c31-4b9c-a9d4-73dedce22f55","system_id":"levelo_inurba_marseille","lat":43.29704,"lon":5.36614,"is_reserved":false,"is_disabled":false,"rental_uris":{"android":"levelo://app?vid=43150398-4c31-4b9c-a9d4-73dedce22f55","ios":"levelo://app?vid=43150398-4c31-4b9c-a9d4-73dedce22f55"},"vehicle_type_id":"4","last_reported":1708459679,"current_range_meters":0,"station_id":"ce4bgn12rcd13ifvqbt0","pricing_plan_id":"cebpf4jnsgd1na2vs0mg"},{"bike_id":"42a5bc49-017c-4bed-ace8-b0cc016138bf","system_id":"levelo_inurba_marseille","lat":43.32851,"lon":5.36689,"is_reserved":false,"is_disabled":false,"rental_uris":{"android":"levelo://app?vid=42a5bc49-017c-4bed-ace8-b0cc016138bf","ios":"levelo://app?vid=42a5bc49-017c-4bed-ace8-b0cc016138bf"},"vehicle_type_id":"4","last_reported":1708459679,"current_range_meters":7200,"station_id":"","pricing_plan_id":"cebpf4jnsgd1na2vs0mg"},{"bike_id":"b9668c0a-60ae-4a02-b461-e9c590b83077","system_id":"levelo_inurba_marseille","lat":43.297163,"lon":5.365866,"is_reserved":false,"is_disabled":false,"rental_uris":{"android":"levelo://app?vid=b9668c0a-60ae-4a02-b461-e9c590b83077","ios":"levelo://app?vid=b9668c0a-60ae-4a02-b461-e9c590b83077"},"vehicle_type_id":"4","last_reported":1708459679,"current_range_meters":4400,"station_id":"ce4bgn12rcd13ifvqbt0","pricing_plan_id":"cebpf4jnsgd1na2vs0mg"},{"bike_id":"bbf8255e-8746-4967-b6cf-3cade37d1a46","system_id":"levelo_inurba_marseille","lat":43.309589,"lon":5.390258,"is_reserved":false,"is_disabled":false,"rental_uris":{"android":"levelo://app?vid=bbf8255e-8746-4967-b6cf-3cade37d1a46","ios":"levelo://app?vid=bbf8255e-8746-4967-b6cf-3cade37d1a46"},"vehicle_type_id":"4","last_reported":1708459679,"current_range_meters":24400,"station_id":"ce4bgup2rcd13ifvqco0","pricing_plan_id":"cebpf4jnsgd1na2vs0mg"},{"bike_id":"94d05653-18fa-44ca-99c1-724693dfd273","system_id":"levelo_inurba_marseille","lat":43.2968,"lon":5.37291,"is_reserved":false,"is_disabled":false,"rental_uris":{"android":"levelo://app?vid=94d05653-18fa-44ca-99c1-724693dfd273","ios":"levelo://app?vid=94d05653-18fa-44ca-99c1-724693dfd273"},"vehicle_type_id":"4","last_reported":1708459679,"current_range_meters":2800,"station_id":"ce4bgk12rcd13ifvqbj0","pricing_plan_id":"cebpf4jnsgd1na2vs0mg"},{"bike_id":"ebf079cc-16ce-46a9-aa94-481f09f98936","system_id":"levelo_inurba_marseille","lat":43.3095,"lon":5.39038,"is_reserved":false,"is_disabled":false,"rental_uris":{"android":"levelo://app?vid=ebf079cc-16ce-46a9-aa94-481f09f98936","ios":"levelo://app?vid=ebf079cc-16ce-46a9-aa94-481f09f98936"},"vehicle_type_id":"4","last_reported":1708459679,"current_range_meters":0,"station_id":"ce4bgup2rcd13ifvqco0","pricing_plan_id":"cebpf4jnsgd1na2vs0mg"},{"bike_id":"c645a06f-8daa-44f7-acec-6d3d9a264b55","system_id":"levelo_inurba_marseille","lat":43.317557,"lon":5.390173,"is_reserved":false,"is_disabled":false,"rental_uris":{"android":"levelo://app?vid=c645a06f-8daa-44f7-acec-6d3d9a264b55","ios":"levelo://app?vid=c645a06f-8daa-44f7-acec-6d3d9a264b55"},"vehicle_type_id":"4","last_reported":1708459679,"current_range_meters":5600,"station_id":"ce4bhqp2rcd13ifvqhng","pricing_plan_id":"cebpf4jnsgd1na2vs0mg"},{"bike_id":"d8e199a1-664b-4dd0-82eb-aea7c746ff0e","system_id":"levelo_inurba_marseille","lat":43.317557,"lon":5.390173,"is_reserved":false,"is_disabled":false,"rental_uris":{"android":"levelo://app?vid=d8e199a1-664b-4dd0-82eb-aea7c746ff0e","ios":"levelo://app?vid=d8e199a1-664b-4dd0-82eb-aea7c746ff0e"},"vehicle_type_id":"4","last_reported":1708459679,"current_range_meters":24400,"station_id":"ce4bhqp2rcd13ifvqhng","pricing_plan_id":"cebpf4jnsgd1na2vs0mg"},{"bike_id":"709449f5-e857-471f-a017-038efc025a48","system_id":"levelo_inurba_marseille","lat":43.31758,"lon":5.39016,"is_reserved":false,"is_disabled":false,"rental_uris":{"android":"levelo://app?vid=709449f5-e857-471f-a017-038efc025a48","ios":"levelo://app?vid=709449f5-e857-471f-a017-038efc025a48"},"vehicle_type_id":"4","last_reported":1708459679,"current_range_meters":3200,"station_id":"ce4bhqp2rcd13ifvqhng","pricing_plan_id":"cebpf4jnsgd1na2vs0mg"},{"bike_id":"d6e2bc02-57e3-487e-896f-1135c0ee3fc2","system_id":"levelo_inurba_marseille","lat":43.31763,"lon":5.39016,"is_reserved":false,"is_disabled":false,"rental_uris":{"android":"levelo://app?vid=d6e2bc02-57e3-487e-896f-1135c0ee3fc2","ios":"levelo://app?vid=d6e2bc02-57e3-487e-896f-1135c0ee3fc2"},"vehicle_type_id":"4","last_reported":1708459679,"current_range_meters":0,"station_id":"ce4bhqp2rcd13ifvqhng","pricing_plan_id":"cebpf4jnsgd1na2vs0mg"},{"bike_id":"7e1d2f4e-e71b-4dc1-8196-1f3ea2880a1c","system_id":"levelo_inurba_marseille","lat":43.29789,"lon":5.3809,"is_reserved":false,"is_disabled":false,"rental_uris":{"android":"levelo://app?vid=7e1d2f4e-e71b-4dc1-8196-1f3ea2880a1c","ios":"levelo://app?vid=7e1d2f4e-e71b-4dc1-8196-1f3ea2880a1c"},"vehicle_type_id":"4","last_reported":1708459679,"current_range_meters":0,"station_id":"ce4bgip2rcd13ifvqbb0","pricing_plan_id":"cebpf4jnsgd1na2vs0mg"},{"bike_id":"e48570b4-3711-45e9-a0cb-19679951d6f6","system_id":"levelo_inurba_marseille","lat":43.298037,"lon":5.381066,"is_reserved":false,"is_disabled":false,"rental_uris":{"android":"levelo://app?vid=e48570b4-3711-45e9-a0cb-19679951d6f6","ios":"levelo://app?vid=e48570b4-3711-45e9-a0cb-19679951d6f6"},"vehicle_type_id":"4","last_reported":1708459679,"current_range_meters":22000,"station_id":"ce4bgip2rcd13ifvqbb0","pricing_plan_id":"cebpf4jnsgd1na2vs0mg"},{"bike_id":"dad3cb2d-9083-470d-a8d6-46b65c14484b","system_id":"levelo_inurba_marseille","lat":43.304278,"lon":5.388868,"is_reserved":false,"is_disabled":false,"rental_uris":{"android":"levelo://app?vid=dad3cb2d-9083-470d-a8d6-46b65c14484b","ios":"levelo://app?vid=dad3cb2d-9083-470d-a8d6-46b65c14484b"},"vehicle_type_id":"4","last_reported":1708459679,"current_range_meters":10400,"station_id":"ce4bgk12rcd13ifvqbi0","pricing_plan_id":"cebpf4jnsgd1na2vs0mg"},{"bike_id":"9f82be14-9418-46a1-b314-54f46ce2fc90","system_id":"levelo_inurba_marseille","lat":43.304274,"lon":5.388873,"is_reserved":false,"is_disabled":false,"rental_uris":{"android":"levelo://app?vid=9f82be14-9418-46a1-b314-54f46ce2fc90","ios":"levelo://app?vid=9f82be14-9418-46a1-b314-54f46ce2fc90"},"vehicle_type_id":"4","last_reported":1708459679,"current_range_meters":11200,"station_id":"ce4bgk12rcd13ifvqbi0","pricing_plan_id":"cebpf4jnsgd1na2vs0mg"},{"bike_id":"77dc26fe-2885-4b23-8e05-5d4d8ba9a60c","system_id":"levelo_inurba_marseille","lat":43.29623,"lon":5.37733,"is_reserved":false,"is_disabled":false,"rental_uris":{"android":"levelo://app?vid=77dc26fe-2885-4b23-8e05-5d4d8ba9a60c","ios":"levelo://app?vid=77dc26fe-2885-4b23-8e05-5d4d8ba9a60c"},"vehicle_type_id":"4","last_reported":1708459679,"current_range_meters":0,"station_id":"ce4bgi92rcd13ifvqb90","pricing_plan_id":"cebpf4jnsgd1na2vs0mg"},{"bike_id":"cc38d617-d64b-49c7-ac64-467c638c48fe","system_id":"levelo_inurba_marseille","lat":43.295194,"lon":5.39397,"is_reserved":false,"is_disabled":false,"rental_uris":{"android":"levelo://app?vid=cc38d617-d64b-49c7-ac64-467c638c48fe","ios":"levelo://app?vid=cc38d617-d64b-49c7-ac64-467c638c48fe"},"vehicle_type_id":"4","last_reported":1708459679,"current_range_meters":0,"station_id":"ce4bh292rcd13ifvqdf0","pricing_plan_id":"cebpf4jnsgd1na2vs0mg"},{"bike_id":"9b4599a9-5a0a-40ae-89a7-b453db390246","system_id":"levelo_inurba_marseille","lat":43.296277,"lon":5.377108,"is_reserved":false,"is_disabled":false,"rental_uris":{"android":"levelo://app?vid=9b4599a9-5a0a-40ae-89a7-b453db390246","ios":"levelo://app?vid=9b4599a9-5a0a-40ae-89a7-b453db390246"},"vehicle_type_id":"4","last_reported":1708459679,"current_range_meters":5600,"station_id":"ce4bgi92rcd13ifvqb90","pricing_plan_id":"cebpf4jnsgd1na2vs0mg"},{"bike_id":"759e1aba-2757-4cea-8c2d-6ad82edaf474","system_id":"levelo_inurba_marseille","lat":43.299717,"lon":5.384845,"is_reserved":false,"is_disabled":false,"rental_uris":{"android":"levelo://app?vid=759e1aba-2757-4cea-8c2d-6ad82edaf474","ios":"levelo://app?vid=759e1aba-2757-4cea-8c2d-6ad82edaf474"},"vehicle_type_id":"4","last_reported":1708459679,"current_range_meters":19600,"station_id":"ce4bgj92rcd13ifvqbd0","pricing_plan_id":"cebpf4jnsgd1na2vs0mg"},{"bike_id":"7671d002-68d4-4024-8203-235f9470c257","system_id":"levelo_inurba_marseille","lat":43.32367,"lon":5.388836,"is_reserved":false,"is_disabled":false,"rental_uris":{"android":"levelo://app?vid=7671d002-68d4-4024-8203-235f9470c257","ios":"levelo://app?vid=7671d002-68d4-4024-8203-235f9470c257"},"vehicle_type_id":"4","last_reported":1708459679,"current_range_meters":18800,"station_id":"ce4bhqp2rcd13ifvqhog","pricing_plan_id":"cebpf4jnsgd1na2vs0mg"},{"bike_id":"ffa3a922-4c5d-4a9c-9e91-ae0166b49b2d","system_id":"levelo_inurba_marseille","lat":43.3012,"lon":5.3879,"is_reserved":false,"is_disabled":false,"rental_uris":{"android":"levelo://app?vid=ffa3a922-4c5d-4a9c-9e91-ae0166b49b2d","ios":"levelo://app?vid=ffa3a922-4c5d-4a9c-9e91-ae0166b49b2d"},"vehicle_type_id":"4","last_reported":1708459679,"current_range_meters":10000,"station_id":"","pricing_plan_id":"cebpf4jnsgd1na2vs0mg"},{"bike_id":"146e877e-91b7-4571-b34e-bca68e9e556b","system_id":"levelo_inurba_marseille","lat":43.32367,"lon":5.388836,"is_reserved":false,"is_disabled":false,"rental_uris":{"android":"levelo://app?vid=146e877e-91b7-4571-b34e-bca68e9e556b","ios":"levelo://app?vid=146e877e-91b7-4571-b34e-bca68e9e556b"},"vehicle_type_id":"4","last_reported":1708459679,"current_range_meters":24800,"station_id":"ce4bhqp2rcd13ifvqhog","pricing_plan_id":"cebpf4jnsgd1na2vs0mg"},{"bike_id":"f6d70e1a-28a8-4fd6-82cd-ab78aeaef9da","system_id":"levelo_inurba_marseille","lat":43.32367,"lon":5.388836,"is_reserved":false,"is_disabled":false,"rental_uris":{"android":"levelo://app?vid=f6d70e1a-28a8-4fd6-82cd-ab78aeaef9da","ios":"levelo://app?vid=f6d70e1a-28a8-4fd6-82cd-ab78aeaef9da"},"vehicle_type_id":"4","last_reported":1708459679,"current_range_meters":27200,"station_id":"ce4bhqp2rcd13ifvqhog","pricing_plan_id":"cebpf4jnsgd1na2vs0mg"},{"bike_id":"c7084a34-df4c-476a-a442-9e632d7f09f6","system_id":"levelo_inurba_marseille","lat":43.32367,"lon":5.388836,"is_reserved":false,"is_disabled":false,"rental_uris":{"android":"levelo://app?vid=c7084a34-df4c-476a-a442-9e632d7f09f6","ios":"levelo://app?vid=c7084a34-df4c-476a-a442-9e632d7f09f6"},"vehicle_type_id":"4","last_reported":1708459679,"current_range_meters":5200,"station_id":"ce4bhqp2rcd13ifvqhog","pricing_plan_id":"cebpf4jnsgd1na2vs0mg"},{"bike_id":"0605d24d-f576-4560-a092-4bccfadc3a33","system_id":"levelo_inurba_marseille","lat":43.32367,"lon":5.388836,"is_reserved":false,"is_disabled":false,"rental_uris":{"android":"levelo://app?vid=0605d24d-f576-4560-a092-4bccfadc3a33","ios":"levelo://app?vid=0605d24d-f576-4560-a092-4bccfadc3a33"},"vehicle_type_id":"4","last_reported":1708459679,"current_range_meters":8800,"station_id":"ce4bhqp2rcd13ifvqhog","pricing_plan_id":"cebpf4jnsgd1na2vs0mg"},{"bike_id":"329a33c3-a828-4b37-8434-1ef61d227642","system_id":"levelo_inurba_marseille","lat":43.29602,"lon":5.381084,"is_reserved":false,"is_disabled":false,"rental_uris":{"android":"levelo://app?vid=329a33c3-a828-4b37-8434-1ef61d227642","ios":"levelo://app?vid=329a33c3-a828-4b37-8434-1ef61d227642"},"vehicle_type_id":"4","last_reported":1708459679,"current_range_meters":4800,"station_id":"ce4bgl12rcd13ifvqbo0","pricing_plan_id":"cebpf4jnsgd1na2vs0mg"},{"bike_id":"c9433b27-1c45-4b97-90bc-1331d6e16074","system_id":"levelo_inurba_marseille","lat":43.29601,"lon":5.381084,"is_reserved":false,"is_disabled":false,"rental_uris":{"android":"levelo://app?vid=c9433b27-1c45-4b97-90bc-1331d6e16074","ios":"levelo://app?vid=c9433b27-1c45-4b97-90bc-1331d6e16074"},"vehicle_type_id":"4","last_reported":1708459679,"current_range_meters":9200,"station_id":"ce4bgl12rcd13ifvqbo0","pricing_plan_id":"cebpf4jnsgd1na2vs0mg"},{"bike_id":"19cea37b-027c-494f-a092-ef89b3513d96","system_id":"levelo_inurba_marseille","lat":43.29602,"lon":5.381084,"is_reserved":false,"is_disabled":false,"rental_uris":{"android":"levelo://app?vid=19cea37b-027c-494f-a092-ef89b3513d96","ios":"levelo://app?vid=19cea37b-027c-494f-a092-ef89b3513d96"},"vehicle_type_id":"4","last_reported":1708459679,"current_range_meters":7200,"station_id":"ce4bgl12rcd13ifvqbo0","pricing_plan_id":"cebpf4jnsgd1na2vs0mg"},{"bike_id":"62ceac5a-ec1b-470f-ace4-4c613b5e0630","system_id":"levelo_inurba_marseille","lat":43.29306,"lon":5.37177,"is_reserved":false,"is_disabled":false,"rental_uris":{"android":"levelo://app?vid=62ceac5a-ec1b-470f-ace4-4c613b5e0630","ios":"levelo://app?vid=62ceac5a-ec1b-470f-ace4-4c613b5e0630"},"vehicle_type_id":"4","last_reported":1708459679,"current_range_meters":22000,"station_id":"ce4bgh92rcd13ifvqb40","pricing_plan_id":"cebpf4jnsgd1na2vs0mg"},{"bike_id":"af3dabe6-b930-410a-b946-601474256b68","system_id":"levelo_inurba_marseille","lat":43.29266,"lon":5.36839,"is_reserved":false,"is_disabled":false,"rental_uris":{"android":"levelo://app?vid=af3dabe6-b930-410a-b946-601474256b68","ios":"levelo://app?vid=af3dabe6-b930-410a-b946-601474256b68"},"vehicle_type_id":"4","last_reported":1708459679,"current_range_meters":0,"station_id":"ce4bhbp2rcd13ifvqesg","pricing_plan_id":"cebpf4jnsgd1na2vs0mg"},{"bike_id":"46da80bd-46a8-4ce1-8df1-399e972dfcd8","system_id":"levelo_inurba_marseille","lat":43.29265,"lon":5.36839,"is_reserved":false,"is_disabled":false,"rental_uris":{"android":"levelo://app?vid=46da80bd-46a8-4ce1-8df1-399e972dfcd8","ios":"levelo://app?vid=46da80bd-46a8-4ce1-8df1-399e972dfcd8"},"vehicle_type_id":"4","last_reported":1708459679,"current_range_meters":0,"station_id":"ce4bhbp2rcd13ifvqesg","pricing_plan_id":"cebpf4jnsgd1na2vs0mg"},{"bike_id":"3d1400e7-40bc-4b35-9131-78c7b78eb703","system_id":"levelo_inurba_marseille","lat":43.305994,"lon":5.393687,"is_reserved":false,"is_disabled":false,"rental_uris":{"android":"levelo://app?vid=3d1400e7-40bc-4b35-9131-78c7b78eb703","ios":"levelo://app?vid=3d1400e7-40bc-4b35-9131-78c7b78eb703"},"vehicle_type_id":"4","last_reported":1708459679,"current_range_meters":10000,"station_id":"ce4bh0p2rcd13ifvqd80","pricing_plan_id":"cebpf4jnsgd1na2vs0mg"},{"bike_id":"aaba5baa-ff71-4d63-a243-294d528101db","system_id":"levelo_inurba_marseille","lat":43.30595,"lon":5.39357,"is_reserved":false,"is_disabled":false,"rental_uris":{"android":"levelo://app?vid=aaba5baa-ff71-4d63-a243-294d528101db","ios":"levelo://app?vid=aaba5baa-ff71-4d63-a243-294d528101db"},"vehicle_type_id":"4","last_reported":1708459679,"current_range_meters":30400,"station_id":"ce4bh0p2rcd13ifvqd80","pricing_plan_id":"cebpf4jnsgd1na2vs0mg"},{"bike_id":"b9c3b8d8-0aea-4986-a06f-d9c079da22e1","system_id":"levelo_inurba_marseille","lat":43.303098,"lon":5.392022,"is_reserved":false,"is_disabled":false,"rental_uris":{"android":"levelo://app?vid=b9c3b8d8-0aea-4986-a06f-d9c079da22e1","ios":"levelo://app?vid=b9c3b8d8-0aea-4986-a06f-d9c079da22e1"},"vehicle_type_id":"4","last_reported":1708459679,"current_range_meters":29600,"station_id":"ce4bgkh2rcd13ifvqbk0","pricing_plan_id":"cebpf4jnsgd1na2vs0mg"},{"bike_id":"2c0631dd-90bc-4e0f-88e7-2d4f809ebdf3","system_id":"levelo_inurba_marseille","lat":43.30307,"lon":5.39202,"is_reserved":false,"is_disabled":false,"rental_uris":{"android":"levelo://app?vid=2c0631dd-90bc-4e0f-88e7-2d4f809ebdf3","ios":"levelo://app?vid=2c0631dd-90bc-4e0f-88e7-2d4f809ebdf3"},"vehicle_type_id":"4","last_reported":1708459679,"current_range_meters":24400,"station_id":"ce4bgkh2rcd13ifvqbk0","pricing_plan_id":"cebpf4jnsgd1na2vs0mg"},{"bike_id":"f575c977-2f4d-4d2a-aaa4-9c77b8a7fbff","system_id":"levelo_inurba_marseille","lat":43.302992,"lon":5.392136,"is_reserved":false,"is_disabled":false,"rental_uris":{"android":"levelo://app?vid=f575c977-2f4d-4d2a-aaa4-9c77b8a7fbff","ios":"levelo://app?vid=f575c977-2f4d-4d2a-aaa4-9c77b8a7fbff"},"vehicle_type_id":"4","last_reported":1708459679,"current_range_meters":28000,"station_id":"ce4bgkh2rcd13ifvqbk0","pricing_plan_id":"cebpf4jnsgd1na2vs0mg"},{"bike_id":"ced04b86-ef37-48ff-8101-83188245b1bb","system_id":"levelo_inurba_marseille","lat":43.29368,"lon":5.378588,"is_reserved":false,"is_disabled":false,"rental_uris":{"android":"levelo://app?vid=ced04b86-ef37-48ff-8101-83188245b1bb","ios":"levelo://app?vid=ced04b86-ef37-48ff-8101-83188245b1bb"},"vehicle_type_id":"4","last_reported":1708459679,"current_range_meters":0,"station_id":"","pricing_plan_id":"cebpf4jnsgd1na2vs0mg"},{"bike_id":"cabee6b8-3462-4ce9-82cc-658221ba68b8","system_id":"levelo_inurba_marseille","lat":43.286591,"lon":5.363346,"is_reserved":false,"is_disabled":false,"rental_uris":{"android":"levelo://app?vid=cabee6b8-3462-4ce9-82cc-658221ba68b8","ios":"levelo://app?vid=cabee6b8-3462-4ce9-82cc-658221ba68b8"},"vehicle_type_id":"4","last_reported":1708459679,"current_range_meters":400,"station_id":"ce4bhah2rcd13ifvqej0","pricing_plan_id":"cebpf4jnsgd1na2vs0mg"},{"bike_id":"b8146bd2-0c9b-4652-9cd9-1af91fc7c18a","system_id":"levelo_inurba_marseille","lat":43.300852,"lon":5.390859,"is_reserved":false,"is_disabled":false,"rental_uris":{"android":"levelo://app?vid=b8146bd2-0c9b-4652-9cd9-1af91fc7c18a","ios":"levelo://app?vid=b8146bd2-0c9b-4652-9cd9-1af91fc7c18a"},"vehicle_type_id":"4","last_reported":1708459679,"current_range_meters":15600,"station_id":"ce4bh192rcd13ifvqdb0","pricing_plan_id":"cebpf4jnsgd1na2vs0mg"},{"bike_id":"5e774ffa-42b2-4f16-97d7-d54e88763a07","system_id":"levelo_inurba_marseille","lat":43.300852,"lon":5.390859,"is_reserved":false,"is_disabled":false,"rental_uris":{"android":"levelo://app?vid=5e774ffa-42b2-4f16-97d7-d54e88763a07","ios":"levelo://app?vid=5e774ffa-42b2-4f16-97d7-d54e88763a07"},"vehicle_type_id":"4","last_reported":1708459679,"current_range_meters":10800,"station_id":"ce4bh192rcd13ifvqdb0","pricing_plan_id":"cebpf4jnsgd1na2vs0mg"},{"bike_id":"90237fbb-8904-48a9-8842-c30f6c0bbf3c","system_id":"levelo_inurba_marseille","lat":43.300852,"lon":5.390859,"is_reserved":false,"is_disabled":false,"rental_uris":{"android":"levelo://app?vid=90237fbb-8904-48a9-8842-c30f6c0bbf3c","ios":"levelo://app?vid=90237fbb-8904-48a9-8842-c30f6c0bbf3c"},"vehicle_type_id":"4","last_reported":1708459679,"current_range_meters":13600,"station_id":"ce4bh192rcd13ifvqdb0","pricing_plan_id":"cebpf4jnsgd1na2vs0mg"},{"bike_id":"7169bb19-64e6-4a4b-bdfe-ef43be7d92f5","system_id":"levelo_inurba_marseille","lat":43.298764,"lon":5.388973,"is_reserved":false,"is_disabled":false,"rental_uris":{"android":"levelo://app?vid=7169bb19-64e6-4a4b-bdfe-ef43be7d92f5","ios":"levelo://app?vid=7169bb19-64e6-4a4b-bdfe-ef43be7d92f5"},"vehicle_type_id":"4","last_reported":1708459679,"current_range_meters":22400,"station_id":"ce4bh392rcd13ifvqdl0","pricing_plan_id":"cebpf4jnsgd1na2vs0mg"},{"bike_id":"4f11681f-e276-4b03-8e44-28ff1ab196b9","system_id":"levelo_inurba_marseille","lat":43.298764,"lon":5.388973,"is_reserved":false,"is_disabled":false,"rental_uris":{"android":"levelo://app?vid=4f11681f-e276-4b03-8e44-28ff1ab196b9","ios":"levelo://app?vid=4f11681f-e276-4b03-8e44-28ff1ab196b9"},"vehicle_type_id":"4","last_reported":1708459679,"current_range_meters":23200,"station_id":"ce4bh392rcd13ifvqdl0","pricing_plan_id":"cebpf4jnsgd1na2vs0mg"},{"bike_id":"f7e7eaa3-9bfb-4321-a7a4-1cdfcafd72d0","system_id":"levelo_inurba_marseille","lat":43.291993,"lon":5.360483,"is_reserved":false,"is_disabled":false,"rental_uris":{"android":"levelo://app?vid=f7e7eaa3-9bfb-4321-a7a4-1cdfcafd72d0","ios":"levelo://app?vid=f7e7eaa3-9bfb-4321-a7a4-1cdfcafd72d0"},"vehicle_type_id":"4","last_reported":1708459679,"current_range_meters":27600,"station_id":"ce4bhbh2rcd13ifvqeqg","pricing_plan_id":"cebpf4jnsgd1na2vs0mg"},{"bike_id":"d418b51f-70ce-4caa-8b62-93ce995be6d2","system_id":"levelo_inurba_marseille","lat":43.298764,"lon":5.388973,"is_reserved":false,"is_disabled":false,"rental_uris":{"android":"levelo://app?vid=d418b51f-70ce-4caa-8b62-93ce995be6d2","ios":"levelo://app?vid=d418b51f-70ce-4caa-8b62-93ce995be6d2"},"vehicle_type_id":"4","last_reported":1708459679,"current_range_meters":12400,"station_id":"ce4bh392rcd13ifvqdl0","pricing_plan_id":"cebpf4jnsgd1na2vs0mg"},{"bike_id":"855ac862-eadc-4106-994e-0826df01c293","system_id":"levelo_inurba_marseille","lat":43.298764,"lon":5.388973,"is_reserved":false,"is_disabled":false,"rental_uris":{"android":"levelo://app?vid=855ac862-eadc-4106-994e-0826df01c293","ios":"levelo://app?vid=855ac862-eadc-4106-994e-0826df01c293"},"vehicle_type_id":"4","last_reported":1708459679,"current_range_meters":22400,"station_id":"ce4bh392rcd13ifvqdl0","pricing_plan_id":"cebpf4jnsgd1na2vs0mg"},{"bike_id":"592c8551-e0f3-4efb-bf27-e001406eca21","system_id":"levelo_inurba_marseille","lat":43.298764,"lon":5.388973,"is_reserved":false,"is_disabled":false,"rental_uris":{"android":"levelo://app?vid=592c8551-e0f3-4efb-bf27-e001406eca21","ios":"levelo://app?vid=592c8551-e0f3-4efb-bf27-e001406eca21"},"vehicle_type_id":"4","last_reported":1708459679,"current_range_meters":28800,"station_id":"ce4bh392rcd13ifvqdl0","pricing_plan_id":"cebpf4jnsgd1na2vs0mg"},{"bike_id":"41260925-67f1-4bb7-9bb5-211660ee6d5d","system_id":"levelo_inurba_marseille","lat":43.298764,"lon":5.388973,"is_reserved":false,"is_disabled":false,"rental_uris":{"android":"levelo://app?vid=41260925-67f1-4bb7-9bb5-211660ee6d5d","ios":"levelo://app?vid=41260925-67f1-4bb7-9bb5-211660ee6d5d"},"vehicle_type_id":"4","last_reported":1708459679,"current_range_meters":0,"station_id":"ce4bh392rcd13ifvqdl0","pricing_plan_id":"cebpf4jnsgd1na2vs0mg"},{"bike_id":"c55bb9fa-251d-4027-8a30-91628bdd200e","system_id":"levelo_inurba_marseille","lat":43.298764,"lon":5.388973,"is_reserved":false,"is_disabled":false,"rental_uris":{"android":"levelo://app?vid=c55bb9fa-251d-4027-8a30-91628bdd200e","ios":"levelo://app?vid=c55bb9fa-251d-4027-8a30-91628bdd200e"},"vehicle_type_id":"4","last_reported":1708459679,"current_range_meters":13200,"station_id":"ce4bh392rcd13ifvqdl0","pricing_plan_id":"cebpf4jnsgd1na2vs0mg"},{"bike_id":"9ae909db-3d00-49f4-a3dd-70da3ac20add","system_id":"levelo_inurba_marseille","lat":43.291994,"lon":5.357886,"is_reserved":false,"is_disabled":false,"rental_uris":{"android":"levelo://app?vid=9ae909db-3d00-49f4-a3dd-70da3ac20add","ios":"levelo://app?vid=9ae909db-3d00-49f4-a3dd-70da3ac20add"},"vehicle_type_id":"4","last_reported":1708459679,"current_range_meters":0,"station_id":"ce4bhb12rcd13ifvqel0","pricing_plan_id":"cebpf4jnsgd1na2vs0mg"},{"bike_id":"11fca4fa-033b-4243-8205-4d7705b4ad0e","system_id":"levelo_inurba_marseille","lat":43.291994,"lon":5.357886,"is_reserved":false,"is_disabled":false,"rental_uris":{"android":"levelo://app?vid=11fca4fa-033b-4243-8205-4d7705b4ad0e","ios":"levelo://app?vid=11fca4fa-033b-4243-8205-4d7705b4ad0e"},"vehicle_type_id":"4","last_reported":1708459679,"current_range_meters":8800,"station_id":"ce4bhb12rcd13ifvqel0","pricing_plan_id":"cebpf4jnsgd1na2vs0mg"},{"bike_id":"2b106bd7-e21c-45a9-813b-570f2f32c230","system_id":"levelo_inurba_marseille","lat":43.313291,"lon":5.396838,"is_reserved":false,"is_disabled":false,"rental_uris":{"android":"levelo://app?vid=2b106bd7-e21c-45a9-813b-570f2f32c230","ios":"levelo://app?vid=2b106bd7-e21c-45a9-813b-570f2f32c230"},"vehicle_type_id":"4","last_reported":1708459679,"current_range_meters":16400,"station_id":"ce4bgvp2rcd13ifvqcu0","pricing_plan_id":"cebpf4jnsgd1na2vs0mg"},{"bike_id":"a5266621-0c3a-4158-86f7-d67d0628c575","system_id":"levelo_inurba_marseille","lat":43.313291,"lon":5.396838,"is_reserved":false,"is_disabled":false,"rental_uris":{"android":"levelo://app?vid=a5266621-0c3a-4158-86f7-d67d0628c575","ios":"levelo://app?vid=a5266621-0c3a-4158-86f7-d67d0628c575"},"vehicle_type_id":"4","last_reported":1708459679,"current_range_meters":13200,"station_id":"ce4bgvp2rcd13ifvqcu0","pricing_plan_id":"cebpf4jnsgd1na2vs0mg"},{"bike_id":"613bf604-d8d9-4ffb-89ae-506cd677d251","system_id":"levelo_inurba_marseille","lat":43.29192,"lon":5.35799,"is_reserved":false,"is_disabled":false,"rental_uris":{"android":"levelo://app?vid=613bf604-d8d9-4ffb-89ae-506cd677d251","ios":"levelo://app?vid=613bf604-d8d9-4ffb-89ae-506cd677d251"},"vehicle_type_id":"4","last_reported":1708459679,"current_range_meters":26400,"station_id":"ce4bhb12rcd13ifvqel0","pricing_plan_id":"cebpf4jnsgd1na2vs0mg"},{"bike_id":"986fbe80-ec73-49c1-8a50-7e54ab6d6d29","system_id":"levelo_inurba_marseille","lat":43.309047,"lon":5.396551,"is_reserved":false,"is_disabled":false,"rental_uris":{"android":"levelo://app?vid=986fbe80-ec73-49c1-8a50-7e54ab6d6d29","ios":"levelo://app?vid=986fbe80-ec73-49c1-8a50-7e54ab6d6d29"},"vehicle_type_id":"4","last_reported":1708459679,"current_range_meters":4400,"station_id":"ce4bh012rcd13ifvqcv0","pricing_plan_id":"cebpf4jnsgd1na2vs0mg"},{"bike_id":"a18a8e53-a21d-4f1c-b971-a459b3adfcde","system_id":"levelo_inurba_marseille","lat":43.313291,"lon":5.396838,"is_reserved":false,"is_disabled":false,"rental_uris":{"android":"levelo://app?vid=a18a8e53-a21d-4f1c-b971-a459b3adfcde","ios":"levelo://app?vid=a18a8e53-a21d-4f1c-b971-a459b3adfcde"},"vehicle_type_id":"4","last_reported":1708459679,"current_range_meters":8000,"station_id":"ce4bgvp2rcd13ifvqcu0","pricing_plan_id":"cebpf4jnsgd1na2vs0mg"},{"bike_id":"7a0398e1-3895-40a6-9cc4-11ace95086c3","system_id":"levelo_inurba_marseille","lat":43.313291,"lon":5.396838,"is_reserved":false,"is_disabled":false,"rental_uris":{"android":"levelo://app?vid=7a0398e1-3895-40a6-9cc4-11ace95086c3","ios":"levelo://app?vid=7a0398e1-3895-40a6-9cc4-11ace95086c3"},"vehicle_type_id":"4","last_reported":1708459679,"current_range_meters":21200,"station_id":"ce4bgvp2rcd13ifvqcu0","pricing_plan_id":"cebpf4jnsgd1na2vs0mg"},{"bike_id":"c7675864-b47b-4d37-a757-396a5e51116a","system_id":"levelo_inurba_marseille","lat":43.313291,"lon":5.396838,"is_reserved":false,"is_disabled":false,"rental_uris":{"android":"levelo://app?vid=c7675864-b47b-4d37-a757-396a5e51116a","ios":"levelo://app?vid=c7675864-b47b-4d37-a757-396a5e51116a"},"vehicle_type_id":"4","last_reported":1708459679,"current_range_meters":30800,"station_id":"ce4bgvp2rcd13ifvqcu0","pricing_plan_id":"cebpf4jnsgd1na2vs0mg"},{"bike_id":"b254b897-3e14-4b27-8ae8-379a3ddebe36","system_id":"levelo_inurba_marseille","lat":43.313291,"lon":5.396838,"is_reserved":false,"is_disabled":false,"rental_uris":{"android":"levelo://app?vid=b254b897-3e14-4b27-8ae8-379a3ddebe36","ios":"levelo://app?vid=b254b897-3e14-4b27-8ae8-379a3ddebe36"},"vehicle_type_id":"4","last_reported":1708459679,"current_range_meters":6800,"station_id":"ce4bgvp2rcd13ifvqcu0","pricing_plan_id":"cebpf4jnsgd1na2vs0mg"},{"bike_id":"34a78d8f-16a7-48c2-9f83-7a325f0f9681","system_id":"levelo_inurba_marseille","lat":43.313291,"lon":5.396838,"is_reserved":false,"is_disabled":false,"rental_uris":{"android":"levelo://app?vid=34a78d8f-16a7-48c2-9f83-7a325f0f9681","ios":"levelo://app?vid=34a78d8f-16a7-48c2-9f83-7a325f0f9681"},"vehicle_type_id":"4","last_reported":1708459679,"current_range_meters":24800,"station_id":"ce4bgvp2rcd13ifvqcu0","pricing_plan_id":"cebpf4jnsgd1na2vs0mg"},{"bike_id":"c11ae92b-1c16-45f8-9436-5af16eccadc6","system_id":"levelo_inurba_marseille","lat":43.309047,"lon":5.396551,"is_reserved":false,"is_disabled":false,"rental_uris":{"android":"levelo://app?vid=c11ae92b-1c16-45f8-9436-5af16eccadc6","ios":"levelo://app?vid=c11ae92b-1c16-45f8-9436-5af16eccadc6"},"vehicle_type_id":"4","last_reported":1708459679,"current_range_meters":24800,"station_id":"ce4bh012rcd13ifvqcv0","pricing_plan_id":"cebpf4jnsgd1na2vs0mg"},{"bike_id":"5ea256f7-79fa-451a-8ab5-05cb3615da89","system_id":"levelo_inurba_marseille","lat":43.313291,"lon":5.396838,"is_reserved":false,"is_disabled":false,"rental_uris":{"android":"levelo://app?vid=5ea256f7-79fa-451a-8ab5-05cb3615da89","ios":"levelo://app?vid=5ea256f7-79fa-451a-8ab5-05cb3615da89"},"vehicle_type_id":"4","last_reported":1708459679,"current_range_meters":7600,"station_id":"ce4bgvp2rcd13ifvqcu0","pricing_plan_id":"cebpf4jnsgd1na2vs0mg"},{"bike_id":"44ee7ac5-6398-4e31-bfea-488afc00b53f","system_id":"levelo_inurba_marseille","lat":43.309047,"lon":5.396551,"is_reserved":false,"is_disabled":false,"rental_uris":{"android":"levelo://app?vid=44ee7ac5-6398-4e31-bfea-488afc00b53f","ios":"levelo://app?vid=44ee7ac5-6398-4e31-bfea-488afc00b53f"},"vehicle_type_id":"4","last_reported":1708459679,"current_range_meters":22800,"station_id":"ce4bh012rcd13ifvqcv0","pricing_plan_id":"cebpf4jnsgd1na2vs0mg"},{"bike_id":"1c8e05e1-50a2-495d-b73e-83b1c65be716","system_id":"levelo_inurba_marseille","lat":43.313291,"lon":5.396838,"is_reserved":false,"is_disabled":false,"rental_uris":{"android":"levelo://app?vid=1c8e05e1-50a2-495d-b73e-83b1c65be716","ios":"levelo://app?vid=1c8e05e1-50a2-495d-b73e-83b1c65be716"},"vehicle_type_id":"4","last_reported":1708459679,"current_range_meters":7200,"station_id":"ce4bgvp2rcd13ifvqcu0","pricing_plan_id":"cebpf4jnsgd1na2vs0mg"},{"bike_id":"180a3929-6535-4296-942f-19d37f04a27b","system_id":"levelo_inurba_marseille","lat":43.309047,"lon":5.396551,"is_reserved":false,"is_disabled":false,"rental_uris":{"android":"levelo://app?vid=180a3929-6535-4296-942f-19d37f04a27b","ios":"levelo://app?vid=180a3929-6535-4296-942f-19d37f04a27b"},"vehicle_type_id":"4","last_reported":1708459679,"current_range_meters":6000,"station_id":"ce4bh012rcd13ifvqcv0","pricing_plan_id":"cebpf4jnsgd1na2vs0mg"},{"bike_id":"22c3d2c2-247c-46b8-9437-c6704a8ad207","system_id":"levelo_inurba_marseille","lat":43.309047,"lon":5.396551,"is_reserved":false,"is_disabled":false,"rental_uris":{"android":"levelo://app?vid=22c3d2c2-247c-46b8-9437-c6704a8ad207","ios":"levelo://app?vid=22c3d2c2-247c-46b8-9437-c6704a8ad207"},"vehicle_type_id":"4","last_reported":1708459679,"current_range_meters":6400,"station_id":"ce4bh012rcd13ifvqcv0","pricing_plan_id":"cebpf4jnsgd1na2vs0mg"},{"bike_id":"448fb62e-c2c5-4c37-902c-0b0394426dad","system_id":"levelo_inurba_marseille","lat":43.309038,"lon":5.396546,"is_reserved":false,"is_disabled":false,"rental_uris":{"android":"levelo://app?vid=448fb62e-c2c5-4c37-902c-0b0394426dad","ios":"levelo://app?vid=448fb62e-c2c5-4c37-902c-0b0394426dad"},"vehicle_type_id":"4","last_reported":1708459679,"current_range_meters":23200,"station_id":"ce4bh012rcd13ifvqcv0","pricing_plan_id":"cebpf4jnsgd1na2vs0mg"},{"bike_id":"46664148-94b4-4d11-900b-75fe01328a6e","system_id":"levelo_inurba_marseille","lat":43.309038,"lon":5.396546,"is_reserved":false,"is_disabled":false,"rental_uris":{"android":"levelo://app?vid=46664148-94b4-4d11-900b-75fe01328a6e","ios":"levelo://app?vid=46664148-94b4-4d11-900b-75fe01328a6e"},"vehicle_type_id":"4","last_reported":1708459679,"current_range_meters":5200,"station_id":"ce4bh012rcd13ifvqcv0","pricing_plan_id":"cebpf4jnsgd1na2vs0mg"},{"bike_id":"cdb4dc15-f139-44f0-982b-c911037acfce","system_id":"levelo_inurba_marseille","lat":43.29529,"lon":5.385581,"is_reserved":false,"is_disabled":false,"rental_uris":{"android":"levelo://app?vid=cdb4dc15-f139-44f0-982b-c911037acfce","ios":"levelo://app?vid=cdb4dc15-f139-44f0-982b-c911037acfce"},"vehicle_type_id":"4","last_reported":1708459679,"current_range_meters":10400,"station_id":"ce4bgih2rcd13ifvqba0","pricing_plan_id":"cebpf4jnsgd1na2vs0mg"},{"bike_id":"36607efb-c0a1-4051-a6b4-5203efe2ed28","system_id":"levelo_inurba_marseille","lat":43.29531,"lon":5.38538,"is_reserved":false,"is_disabled":false,"rental_uris":{"android":"levelo://app?vid=36607efb-c0a1-4051-a6b4-5203efe2ed28","ios":"levelo://app?vid=36607efb-c0a1-4051-a6b4-5203efe2ed28"},"vehicle_type_id":"4","last_reported":1708459679,"current_range_meters":0,"station_id":"ce4bgih2rcd13ifvqba0","pricing_plan_id":"cebpf4jnsgd1na2vs0mg"},{"bike_id":"3f0e6286-6696-4eaf-b63e-5d71e22415d6","system_id":"levelo_inurba_marseille","lat":43.29529,"lon":5.385581,"is_reserved":false,"is_disabled":false,"rental_uris":{"android":"levelo://app?vid=3f0e6286-6696-4eaf-b63e-5d71e22415d6","ios":"levelo://app?vid=3f0e6286-6696-4eaf-b63e-5d71e22415d6"},"vehicle_type_id":"4","last_reported":1708459679,"current_range_meters":0,"station_id":"ce4bgih2rcd13ifvqba0","pricing_plan_id":"cebpf4jnsgd1na2vs0mg"},{"bike_id":"11e75439-0608-4dc7-b736-35c651d34ca3","system_id":"levelo_inurba_marseille","lat":43.29525,"lon":5.38541,"is_reserved":false,"is_disabled":false,"rental_uris":{"android":"levelo://app?vid=11e75439-0608-4dc7-b736-35c651d34ca3","ios":"levelo://app?vid=11e75439-0608-4dc7-b736-35c651d34ca3"},"vehicle_type_id":"4","last_reported":1708459679,"current_range_meters":7200,"station_id":"ce4bgih2rcd13ifvqba0","pricing_plan_id":"cebpf4jnsgd1na2vs0mg"},{"bike_id":"e6139b7f-670a-41ab-8806-9cde33513ac9","system_id":"levelo_inurba_marseille","lat":43.29068,"lon":5.37158,"is_reserved":false,"is_disabled":false,"rental_uris":{"android":"levelo://app?vid=e6139b7f-670a-41ab-8806-9cde33513ac9","ios":"levelo://app?vid=e6139b7f-670a-41ab-8806-9cde33513ac9"},"vehicle_type_id":"4","last_reported":1708459679,"current_range_meters":0,"station_id":"ce4bh5p2rcd13ifvqe4g","pricing_plan_id":"cebpf4jnsgd1na2vs0mg"},{"bike_id":"b8019874-8cdc-46f8-b265-a34c353b356f","system_id":"levelo_inurba_marseille","lat":43.302008,"lon":5.394694,"is_reserved":false,"is_disabled":false,"rental_uris":{"android":"levelo://app?vid=b8019874-8cdc-46f8-b265-a34c353b356f","ios":"levelo://app?vid=b8019874-8cdc-46f8-b265-a34c353b356f"},"vehicle_type_id":"4","last_reported":1708459679,"current_range_meters":26000,"station_id":"ce4bh0p2rcd13ifvqd70","pricing_plan_id":"cebpf4jnsgd1na2vs0mg"},{"bike_id":"7f279f12-3499-4fef-b290-a949e61fd1ee","system_id":"levelo_inurba_marseille","lat":43.302008,"lon":5.394694,"is_reserved":false,"is_disabled":false,"rental_uris":{"android":"levelo://app?vid=7f279f12-3499-4fef-b290-a949e61fd1ee","ios":"levelo://app?vid=7f279f12-3499-4fef-b290-a949e61fd1ee"},"vehicle_type_id":"4","last_reported":1708459679,"current_range_meters":1200,"station_id":"ce4bh0p2rcd13ifvqd70","pricing_plan_id":"cebpf4jnsgd1na2vs0mg"},{"bike_id":"b76c365a-7aa7-4768-8949-64e2130dfa09","system_id":"levelo_inurba_marseille","lat":43.302008,"lon":5.394694,"is_reserved":false,"is_disabled":false,"rental_uris":{"android":"levelo://app?vid=b76c365a-7aa7-4768-8949-64e2130dfa09","ios":"levelo://app?vid=b76c365a-7aa7-4768-8949-64e2130dfa09"},"vehicle_type_id":"4","last_reported":1708459679,"current_range_meters":25200,"station_id":"ce4bh0p2rcd13ifvqd70","pricing_plan_id":"cebpf4jnsgd1na2vs0mg"},{"bike_id":"c1f65b97-9c61-469d-9aa4-6563f8210b26","system_id":"levelo_inurba_marseille","lat":43.302008,"lon":5.394694,"is_reserved":false,"is_disabled":false,"rental_uris":{"android":"levelo://app?vid=c1f65b97-9c61-469d-9aa4-6563f8210b26","ios":"levelo://app?vid=c1f65b97-9c61-469d-9aa4-6563f8210b26"},"vehicle_type_id":"4","last_reported":1708459679,"current_range_meters":10800,"station_id":"ce4bh0p2rcd13ifvqd70","pricing_plan_id":"cebpf4jnsgd1na2vs0mg"},{"bike_id":"20bc340f-40b8-42ba-ac8d-08dd3d7db221","system_id":"levelo_inurba_marseille","lat":43.302008,"lon":5.394694,"is_reserved":false,"is_disabled":false,"rental_uris":{"android":"levelo://app?vid=20bc340f-40b8-42ba-ac8d-08dd3d7db221","ios":"levelo://app?vid=20bc340f-40b8-42ba-ac8d-08dd3d7db221"},"vehicle_type_id":"4","last_reported":1708459679,"current_range_meters":29600,"station_id":"ce4bh0p2rcd13ifvqd70","pricing_plan_id":"cebpf4jnsgd1na2vs0mg"},{"bike_id":"fc562063-eb3a-40bb-a4c0-3f3d1f226cfc","system_id":"levelo_inurba_marseille","lat":43.302008,"lon":5.394694,"is_reserved":false,"is_disabled":false,"rental_uris":{"android":"levelo://app?vid=fc562063-eb3a-40bb-a4c0-3f3d1f226cfc","ios":"levelo://app?vid=fc562063-eb3a-40bb-a4c0-3f3d1f226cfc"},"vehicle_type_id":"4","last_reported":1708459679,"current_range_meters":24800,"station_id":"ce4bh0p2rcd13ifvqd70","pricing_plan_id":"cebpf4jnsgd1na2vs0mg"},{"bike_id":"abff4a3f-811f-4675-8d9c-d5fe6e6e18a3","system_id":"levelo_inurba_marseille","lat":43.290624,"lon":5.359245,"is_reserved":false,"is_disabled":false,"rental_uris":{"android":"levelo://app?vid=abff4a3f-811f-4675-8d9c-d5fe6e6e18a3","ios":"levelo://app?vid=abff4a3f-811f-4675-8d9c-d5fe6e6e18a3"},"vehicle_type_id":"4","last_reported":1708459679,"current_range_meters":0,"station_id":"ce4bha92rcd13ifvqeg0","pricing_plan_id":"cebpf4jnsgd1na2vs0mg"},{"bike_id":"7b82f3d4-4b3c-4c54-9784-2ffc4347110c","system_id":"levelo_inurba_marseille","lat":43.290624,"lon":5.359245,"is_reserved":false,"is_disabled":false,"rental_uris":{"android":"levelo://app?vid=7b82f3d4-4b3c-4c54-9784-2ffc4347110c","ios":"levelo://app?vid=7b82f3d4-4b3c-4c54-9784-2ffc4347110c"},"vehicle_type_id":"4","last_reported":1708459679,"current_range_meters":19200,"station_id":"ce4bha92rcd13ifvqeg0","pricing_plan_id":"cebpf4jnsgd1na2vs0mg"},{"bike_id":"0959b3c1-686d-4c14-a9e7-d1bb7eda1d4a","system_id":"levelo_inurba_marseille","lat":43.290631,"lon":5.359244,"is_reserved":false,"is_disabled":false,"rental_uris":{"android":"levelo://app?vid=0959b3c1-686d-4c14-a9e7-d1bb7eda1d4a","ios":"levelo://app?vid=0959b3c1-686d-4c14-a9e7-d1bb7eda1d4a"},"vehicle_type_id":"4","last_reported":1708459679,"current_range_meters":13200,"station_id":"ce4bha92rcd13ifvqeg0","pricing_plan_id":"cebpf4jnsgd1na2vs0mg"},{"bike_id":"d072e81a-e5de-42ef-a6fd-d6c16349536d","system_id":"levelo_inurba_marseille","lat":43.290624,"lon":5.359245,"is_reserved":false,"is_disabled":false,"rental_uris":{"android":"levelo://app?vid=d072e81a-e5de-42ef-a6fd-d6c16349536d","ios":"levelo://app?vid=d072e81a-e5de-42ef-a6fd-d6c16349536d"},"vehicle_type_id":"4","last_reported":1708459679,"current_range_meters":23600,"station_id":"ce4bha92rcd13ifvqeg0","pricing_plan_id":"cebpf4jnsgd1na2vs0mg"},{"bike_id":"700ab34c-9be5-4aba-9ef1-c33896cfb3b6","system_id":"levelo_inurba_marseille","lat":43.290631,"lon":5.359244,"is_reserved":false,"is_disabled":false,"rental_uris":{"android":"levelo://app?vid=700ab34c-9be5-4aba-9ef1-c33896cfb3b6","ios":"levelo://app?vid=700ab34c-9be5-4aba-9ef1-c33896cfb3b6"},"vehicle_type_id":"4","last_reported":1708459679,"current_range_meters":8000,"station_id":"ce4bha92rcd13ifvqeg0","pricing_plan_id":"cebpf4jnsgd1na2vs0mg"},{"bike_id":"4fbc440b-2b73-4f21-8bba-ccea346765e0","system_id":"levelo_inurba_marseille","lat":43.294288,"lon":5.386248,"is_reserved":false,"is_disabled":false,"rental_uris":{"android":"levelo://app?vid=4fbc440b-2b73-4f21-8bba-ccea346765e0","ios":"levelo://app?vid=4fbc440b-2b73-4f21-8bba-ccea346765e0"},"vehicle_type_id":"4","last_reported":1708459679,"current_range_meters":10000,"station_id":"ce4bh2h2rcd13ifvqdh0","pricing_plan_id":"cebpf4jnsgd1na2vs0mg"},{"bike_id":"7282281d-8b02-465b-89bd-8e2fbba0a9b3","system_id":"levelo_inurba_marseille","lat":43.29424,"lon":5.38618,"is_reserved":false,"is_disabled":false,"rental_uris":{"android":"levelo://app?vid=7282281d-8b02-465b-89bd-8e2fbba0a9b3","ios":"levelo://app?vid=7282281d-8b02-465b-89bd-8e2fbba0a9b3"},"vehicle_type_id":"4","last_reported":1708459679,"current_range_meters":1200,"station_id":"ce4bh2h2rcd13ifvqdh0","pricing_plan_id":"cebpf4jnsgd1na2vs0mg"},{"bike_id":"a4f5a9e1-aa22-4948-9d3a-20493a7c9964","system_id":"levelo_inurba_marseille","lat":43.294153,"lon":5.386305,"is_reserved":false,"is_disabled":false,"rental_uris":{"android":"levelo://app?vid=a4f5a9e1-aa22-4948-9d3a-20493a7c9964","ios":"levelo://app?vid=a4f5a9e1-aa22-4948-9d3a-20493a7c9964"},"vehicle_type_id":"4","last_reported":1708459679,"current_range_meters":2800,"station_id":"ce4bh2h2rcd13ifvqdh0","pricing_plan_id":"cebpf4jnsgd1na2vs0mg"},{"bike_id":"54a858ad-1b77-4a11-be07-775f73315aff","system_id":"levelo_inurba_marseille","lat":43.29423,"lon":5.3862,"is_reserved":false,"is_disabled":false,"rental_uris":{"android":"levelo://app?vid=54a858ad-1b77-4a11-be07-775f73315aff","ios":"levelo://app?vid=54a858ad-1b77-4a11-be07-775f73315aff"},"vehicle_type_id":"4","last_reported":1708459679,"current_range_meters":6000,"station_id":"ce4bh2h2rcd13ifvqdh0","pricing_plan_id":"cebpf4jnsgd1na2vs0mg"},{"bike_id":"36f8d55a-bd64-4613-aebd-28d504312f9f","system_id":"levelo_inurba_marseille","lat":43.29425,"lon":5.38624,"is_reserved":false,"is_disabled":false,"rental_uris":{"android":"levelo://app?vid=36f8d55a-bd64-4613-aebd-28d504312f9f","ios":"levelo://app?vid=36f8d55a-bd64-4613-aebd-28d504312f9f"},"vehicle_type_id":"4","last_reported":1708459679,"current_range_meters":22400,"station_id":"ce4bh2h2rcd13ifvqdh0","pricing_plan_id":"cebpf4jnsgd1na2vs0mg"},{"bike_id":"845f1768-61d3-4a48-9b21-bce5cb743465","system_id":"levelo_inurba_marseille","lat":43.29424,"lon":5.38628,"is_reserved":false,"is_disabled":false,"rental_uris":{"android":"levelo://app?vid=845f1768-61d3-4a48-9b21-bce5cb743465","ios":"levelo://app?vid=845f1768-61d3-4a48-9b21-bce5cb743465"},"vehicle_type_id":"4","last_reported":1708459679,"current_range_meters":0,"station_id":"ce4bh2h2rcd13ifvqdh0","pricing_plan_id":"cebpf4jnsgd1na2vs0mg"},{"bike_id":"f9b9363a-7103-4b92-9158-6a2d2e433e98","system_id":"levelo_inurba_marseille","lat":43.294153,"lon":5.386305,"is_reserved":false,"is_disabled":false,"rental_uris":{"android":"levelo://app?vid=f9b9363a-7103-4b92-9158-6a2d2e433e98","ios":"levelo://app?vid=f9b9363a-7103-4b92-9158-6a2d2e433e98"},"vehicle_type_id":"4","last_reported":1708459679,"current_range_meters":24800,"station_id":"ce4bh2h2rcd13ifvqdh0","pricing_plan_id":"cebpf4jnsgd1na2vs0mg"},{"bike_id":"32460105-5833-4e67-a671-b5b491b43784","system_id":"levelo_inurba_marseille","lat":43.294153,"lon":5.386305,"is_reserved":false,"is_disabled":false,"rental_uris":{"android":"levelo://app?vid=32460105-5833-4e67-a671-b5b491b43784","ios":"levelo://app?vid=32460105-5833-4e67-a671-b5b491b43784"},"vehicle_type_id":"4","last_reported":1708459679,"current_range_meters":11200,"station_id":"ce4bh2h2rcd13ifvqdh0","pricing_plan_id":"cebpf4jnsgd1na2vs0mg"},{"bike_id":"cab739b2-ff10-48d1-930c-9a302712067a","system_id":"levelo_inurba_marseille","lat":43.294153,"lon":5.386305,"is_reserved":false,"is_disabled":false,"rental_uris":{"android":"levelo://app?vid=cab739b2-ff10-48d1-930c-9a302712067a","ios":"levelo://app?vid=cab739b2-ff10-48d1-930c-9a302712067a"},"vehicle_type_id":"4","last_reported":1708459679,"current_range_meters":20400,"station_id":"ce4bh2h2rcd13ifvqdh0","pricing_plan_id":"cebpf4jnsgd1na2vs0mg"},{"bike_id":"28fcb6f6-86b5-4f22-9824-bd6ab244b9c2","system_id":"levelo_inurba_marseille","lat":43.2942,"lon":5.38625,"is_reserved":false,"is_disabled":false,"rental_uris":{"android":"levelo://app?vid=28fcb6f6-86b5-4f22-9824-bd6ab244b9c2","ios":"levelo://app?vid=28fcb6f6-86b5-4f22-9824-bd6ab244b9c2"},"vehicle_type_id":"4","last_reported":1708459679,"current_range_meters":3200,"station_id":"ce4bh2h2rcd13ifvqdh0","pricing_plan_id":"cebpf4jnsgd1na2vs0mg"},{"bike_id":"1d028265-abf0-4414-b84b-579aeb010eea","system_id":"levelo_inurba_marseille","lat":43.29419,"lon":5.38624,"is_reserved":false,"is_disabled":false,"rental_uris":{"android":"levelo://app?vid=1d028265-abf0-4414-b84b-579aeb010eea","ios":"levelo://app?vid=1d028265-abf0-4414-b84b-579aeb010eea"},"vehicle_type_id":"4","last_reported":1708459679,"current_range_meters":24800,"station_id":"ce4bh2h2rcd13ifvqdh0","pricing_plan_id":"cebpf4jnsgd1na2vs0mg"},{"bike_id":"a3938a4e-5203-462e-a63a-a95d67de13ab","system_id":"levelo_inurba_marseille","lat":43.294153,"lon":5.386305,"is_reserved":false,"is_disabled":false,"rental_uris":{"android":"levelo://app?vid=a3938a4e-5203-462e-a63a-a95d67de13ab","ios":"levelo://app?vid=a3938a4e-5203-462e-a63a-a95d67de13ab"},"vehicle_type_id":"4","last_reported":1708459679,"current_range_meters":0,"station_id":"ce4bh2h2rcd13ifvqdh0","pricing_plan_id":"cebpf4jnsgd1na2vs0mg"},{"bike_id":"06897156-ae11-4780-ad8c-3337154b91c7","system_id":"levelo_inurba_marseille","lat":43.2942,"lon":5.38627,"is_reserved":false,"is_disabled":false,"rental_uris":{"android":"levelo://app?vid=06897156-ae11-4780-ad8c-3337154b91c7","ios":"levelo://app?vid=06897156-ae11-4780-ad8c-3337154b91c7"},"vehicle_type_id":"4","last_reported":1708459679,"current_range_meters":20000,"station_id":"ce4bh2h2rcd13ifvqdh0","pricing_plan_id":"cebpf4jnsgd1na2vs0mg"},{"bike_id":"c7a002ec-4ed9-465a-9b03-4309d606c548","system_id":"levelo_inurba_marseille","lat":43.29416,"lon":5.38623,"is_reserved":false,"is_disabled":false,"rental_uris":{"android":"levelo://app?vid=c7a002ec-4ed9-465a-9b03-4309d606c548","ios":"levelo://app?vid=c7a002ec-4ed9-465a-9b03-4309d606c548"},"vehicle_type_id":"4","last_reported":1708459679,"current_range_meters":9200,"station_id":"ce4bh2h2rcd13ifvqdh0","pricing_plan_id":"cebpf4jnsgd1na2vs0mg"},{"bike_id":"42a896a7-0e97-476b-b7d1-7f1cea13b5a9","system_id":"levelo_inurba_marseille","lat":43.290319,"lon":5.375732,"is_reserved":false,"is_disabled":false,"rental_uris":{"android":"levelo://app?vid=42a896a7-0e97-476b-b7d1-7f1cea13b5a9","ios":"levelo://app?vid=42a896a7-0e97-476b-b7d1-7f1cea13b5a9"},"vehicle_type_id":"4","last_reported":1708459679,"current_range_meters":2000,"station_id":"ce4bh692rcd13ifvqe90","pricing_plan_id":"cebpf4jnsgd1na2vs0mg"},{"bike_id":"adf275c2-a739-462c-8090-ca64582d0597","system_id":"levelo_inurba_marseille","lat":43.29416,"lon":5.38625,"is_reserved":false,"is_disabled":false,"rental_uris":{"android":"levelo://app?vid=adf275c2-a739-462c-8090-ca64582d0597","ios":"levelo://app?vid=adf275c2-a739-462c-8090-ca64582d0597"},"vehicle_type_id":"4","last_reported":1708459679,"current_range_meters":1600,"station_id":"ce4bh2h2rcd13ifvqdh0","pricing_plan_id":"cebpf4jnsgd1na2vs0mg"},{"bike_id":"8f41fbad-e925-4585-a25f-14a72580bfc5","system_id":"levelo_inurba_marseille","lat":43.29416,"lon":5.38629,"is_reserved":false,"is_disabled":false,"rental_uris":{"android":"levelo://app?vid=8f41fbad-e925-4585-a25f-14a72580bfc5","ios":"levelo://app?vid=8f41fbad-e925-4585-a25f-14a72580bfc5"},"vehicle_type_id":"4","last_reported":1708459679,"current_range_meters":6800,"station_id":"ce4bh2h2rcd13ifvqdh0","pricing_plan_id":"cebpf4jnsgd1na2vs0mg"},{"bike_id":"b7876aae-eb18-4bac-b904-1e1a0a1ddb50","system_id":"levelo_inurba_marseille","lat":43.289468,"lon":5.363719,"is_reserved":false,"is_disabled":false,"rental_uris":{"android":"levelo://app?vid=b7876aae-eb18-4bac-b904-1e1a0a1ddb50","ios":"levelo://app?vid=b7876aae-eb18-4bac-b904-1e1a0a1ddb50"},"vehicle_type_id":"4","last_reported":1708459679,"current_range_meters":16000,"station_id":"ce4bhc92rcd13ifvqetg","pricing_plan_id":"cebpf4jnsgd1na2vs0mg"},{"bike_id":"51113752-a90e-41da-b880-2ff983bd46d7","system_id":"levelo_inurba_marseille","lat":43.294162,"lon":5.386292,"is_reserved":false,"is_disabled":false,"rental_uris":{"android":"levelo://app?vid=51113752-a90e-41da-b880-2ff983bd46d7","ios":"levelo://app?vid=51113752-a90e-41da-b880-2ff983bd46d7"},"vehicle_type_id":"4","last_reported":1708459679,"current_range_meters":0,"station_id":"ce4bh2h2rcd13ifvqdh0","pricing_plan_id":"cebpf4jnsgd1na2vs0mg"},{"bike_id":"47c1b792-a7b1-4447-af48-19e417ddf0ae","system_id":"levelo_inurba_marseille","lat":43.295169,"lon":5.390426,"is_reserved":false,"is_disabled":false,"rental_uris":{"android":"levelo://app?vid=47c1b792-a7b1-4447-af48-19e417ddf0ae","ios":"levelo://app?vid=47c1b792-a7b1-4447-af48-19e417ddf0ae"},"vehicle_type_id":"4","last_reported":1708459679,"current_range_meters":24400,"station_id":"ce4bh3p2rcd13ifvqdp0","pricing_plan_id":"cebpf4jnsgd1na2vs0mg"},{"bike_id":"1d43233c-17b6-4748-a648-5e023fcc1d42","system_id":"levelo_inurba_marseille","lat":43.28939,"lon":5.36632,"is_reserved":false,"is_disabled":false,"rental_uris":{"android":"levelo://app?vid=1d43233c-17b6-4748-a648-5e023fcc1d42","ios":"levelo://app?vid=1d43233c-17b6-4748-a648-5e023fcc1d42"},"vehicle_type_id":"4","last_reported":1708459679,"current_range_meters":15600,"station_id":"ce4bhap2rcd13ifvqek0","pricing_plan_id":"cebpf4jnsgd1na2vs0mg"},{"bike_id":"b694226f-e4a0-4e7a-8ff6-cfb41bed8bd2","system_id":"levelo_inurba_marseille","lat":43.28937,"lon":5.36626,"is_reserved":false,"is_disabled":false,"rental_uris":{"android":"levelo://app?vid=b694226f-e4a0-4e7a-8ff6-cfb41bed8bd2","ios":"levelo://app?vid=b694226f-e4a0-4e7a-8ff6-cfb41bed8bd2"},"vehicle_type_id":"4","last_reported":1708459679,"current_range_meters":29600,"station_id":"ce4bhap2rcd13ifvqek0","pricing_plan_id":"cebpf4jnsgd1na2vs0mg"},{"bike_id":"4b699efa-efd0-4163-b9f4-43dfdc983a33","system_id":"levelo_inurba_marseille","lat":43.289468,"lon":5.363719,"is_reserved":false,"is_disabled":false,"rental_uris":{"android":"levelo://app?vid=4b699efa-efd0-4163-b9f4-43dfdc983a33","ios":"levelo://app?vid=4b699efa-efd0-4163-b9f4-43dfdc983a33"},"vehicle_type_id":"4","last_reported":1708459679,"current_range_meters":4800,"station_id":"ce4bhc92rcd13ifvqetg","pricing_plan_id":"cebpf4jnsgd1na2vs0mg"},{"bike_id":"7c18b512-9266-4550-a631-ea3ef3db2119","system_id":"levelo_inurba_marseille","lat":43.289184,"lon":5.366408,"is_reserved":false,"is_disabled":false,"rental_uris":{"android":"levelo://app?vid=7c18b512-9266-4550-a631-ea3ef3db2119","ios":"levelo://app?vid=7c18b512-9266-4550-a631-ea3ef3db2119"},"vehicle_type_id":"4","last_reported":1708459679,"current_range_meters":2000,"station_id":"ce4bhap2rcd13ifvqek0","pricing_plan_id":"cebpf4jnsgd1na2vs0mg"},{"bike_id":"4b442917-8bdb-4e12-8092-641e177c619a","system_id":"levelo_inurba_marseille","lat":43.290203,"lon":5.37552,"is_reserved":false,"is_disabled":false,"rental_uris":{"android":"levelo://app?vid=4b442917-8bdb-4e12-8092-641e177c619a","ios":"levelo://app?vid=4b442917-8bdb-4e12-8092-641e177c619a"},"vehicle_type_id":"4","last_reported":1708459679,"current_range_meters":0,"station_id":"ce4bh692rcd13ifvqe90","pricing_plan_id":"cebpf4jnsgd1na2vs0mg"},{"bike_id":"a26f8d98-8830-4f56-a5d0-84ce0fd65ee7","system_id":"levelo_inurba_marseille","lat":43.302008,"lon":5.394694,"is_reserved":false,"is_disabled":false,"rental_uris":{"android":"levelo://app?vid=a26f8d98-8830-4f56-a5d0-84ce0fd65ee7","ios":"levelo://app?vid=a26f8d98-8830-4f56-a5d0-84ce0fd65ee7"},"vehicle_type_id":"4","last_reported":1708459679,"current_range_meters":14000,"station_id":"ce4bh0p2rcd13ifvqd70","pricing_plan_id":"cebpf4jnsgd1na2vs0mg"},{"bike_id":"44820202-426c-41fd-8f7b-1146d06a615e","system_id":"levelo_inurba_marseille","lat":43.29284,"lon":5.384607,"is_reserved":false,"is_disabled":false,"rental_uris":{"android":"levelo://app?vid=44820202-426c-41fd-8f7b-1146d06a615e","ios":"levelo://app?vid=44820202-426c-41fd-8f7b-1146d06a615e"},"vehicle_type_id":"4","last_reported":1708459679,"current_range_meters":5200,"station_id":"ce4bh692rcd13ifvqea0","pricing_plan_id":"cebpf4jnsgd1na2vs0mg"},{"bike_id":"3365b2e8-0990-4c2a-b107-1fc765fa4caa","system_id":"levelo_inurba_marseille","lat":43.29272,"lon":5.38438,"is_reserved":false,"is_disabled":false,"rental_uris":{"android":"levelo://app?vid=3365b2e8-0990-4c2a-b107-1fc765fa4caa","ios":"levelo://app?vid=3365b2e8-0990-4c2a-b107-1fc765fa4caa"},"vehicle_type_id":"4","last_reported":1708459679,"current_range_meters":10000,"station_id":"ce4bh692rcd13ifvqea0","pricing_plan_id":"cebpf4jnsgd1na2vs0mg"},{"bike_id":"3df7843d-e670-45a3-b768-8a7b4937bdf2","system_id":"levelo_inurba_marseille","lat":43.292701,"lon":5.384401,"is_reserved":false,"is_disabled":false,"rental_uris":{"android":"levelo://app?vid=3df7843d-e670-45a3-b768-8a7b4937bdf2","ios":"levelo://app?vid=3df7843d-e670-45a3-b768-8a7b4937bdf2"},"vehicle_type_id":"4","last_reported":1708459679,"current_range_meters":800,"station_id":"ce4bh692rcd13ifvqea0","pricing_plan_id":"cebpf4jnsgd1na2vs0mg"},{"bike_id":"bae31b14-0ee2-4b7e-8457-225af4855ee4","system_id":"levelo_inurba_marseille","lat":43.292705,"lon":5.384427,"is_reserved":false,"is_disabled":false,"rental_uris":{"android":"levelo://app?vid=bae31b14-0ee2-4b7e-8457-225af4855ee4","ios":"levelo://app?vid=bae31b14-0ee2-4b7e-8457-225af4855ee4"},"vehicle_type_id":"4","last_reported":1708459679,"current_range_meters":0,"station_id":"ce4bh692rcd13ifvqea0","pricing_plan_id":"cebpf4jnsgd1na2vs0mg"},{"bike_id":"7f371267-7ed6-4052-8974-47647d6272f6","system_id":"levelo_inurba_marseille","lat":43.292686,"lon":5.384426,"is_reserved":false,"is_disabled":false,"rental_uris":{"android":"levelo://app?vid=7f371267-7ed6-4052-8974-47647d6272f6","ios":"levelo://app?vid=7f371267-7ed6-4052-8974-47647d6272f6"},"vehicle_type_id":"4","last_reported":1708459679,"current_range_meters":26000,"station_id":"ce4bh692rcd13ifvqea0","pricing_plan_id":"cebpf4jnsgd1na2vs0mg"},{"bike_id":"ca8d8174-35c3-4d23-851e-0c5cd6cde000","system_id":"levelo_inurba_marseille","lat":43.292677,"lon":5.38443,"is_reserved":false,"is_disabled":false,"rental_uris":{"android":"levelo://app?vid=ca8d8174-35c3-4d23-851e-0c5cd6cde000","ios":"levelo://app?vid=ca8d8174-35c3-4d23-851e-0c5cd6cde000"},"vehicle_type_id":"4","last_reported":1708459679,"current_range_meters":0,"station_id":"ce4bh692rcd13ifvqea0","pricing_plan_id":"cebpf4jnsgd1na2vs0mg"},{"bike_id":"ce98a232-f2df-4caa-ac44-5e4c1af2de41","system_id":"levelo_inurba_marseille","lat":43.29269,"lon":5.38446,"is_reserved":false,"is_disabled":false,"rental_uris":{"android":"levelo://app?vid=ce98a232-f2df-4caa-ac44-5e4c1af2de41","ios":"levelo://app?vid=ce98a232-f2df-4caa-ac44-5e4c1af2de41"},"vehicle_type_id":"4","last_reported":1708459679,"current_range_meters":4400,"station_id":"ce4bh692rcd13ifvqea0","pricing_plan_id":"cebpf4jnsgd1na2vs0mg"},{"bike_id":"afa12bf0-8e2c-4712-9030-5ecfcfe5ca6c","system_id":"levelo_inurba_marseille","lat":43.304274,"lon":5.397513,"is_reserved":false,"is_disabled":false,"rental_uris":{"android":"levelo://app?vid=afa12bf0-8e2c-4712-9030-5ecfcfe5ca6c","ios":"levelo://app?vid=afa12bf0-8e2c-4712-9030-5ecfcfe5ca6c"},"vehicle_type_id":"4","last_reported":1708459679,"current_range_meters":14400,"station_id":"ce4bh092rcd13ifvqd20","pricing_plan_id":"cebpf4jnsgd1na2vs0mg"},{"bike_id":"ab84cd81-44ab-47b7-9ce2-e6e1f3fe0fdf","system_id":"levelo_inurba_marseille","lat":43.292642,"lon":5.384254,"is_reserved":false,"is_disabled":false,"rental_uris":{"android":"levelo://app?vid=ab84cd81-44ab-47b7-9ce2-e6e1f3fe0fdf","ios":"levelo://app?vid=ab84cd81-44ab-47b7-9ce2-e6e1f3fe0fdf"},"vehicle_type_id":"4","last_reported":1708459679,"current_range_meters":16400,"station_id":"ce4bh692rcd13ifvqea0","pricing_plan_id":"cebpf4jnsgd1na2vs0mg"},{"bike_id":"05dd82d8-32dd-49b9-8f3f-4085e4b57e45","system_id":"levelo_inurba_marseille","lat":43.292642,"lon":5.384254,"is_reserved":false,"is_disabled":false,"rental_uris":{"android":"levelo://app?vid=05dd82d8-32dd-49b9-8f3f-4085e4b57e45","ios":"levelo://app?vid=05dd82d8-32dd-49b9-8f3f-4085e4b57e45"},"vehicle_type_id":"4","last_reported":1708459679,"current_range_meters":24000,"station_id":"ce4bh692rcd13ifvqea0","pricing_plan_id":"cebpf4jnsgd1na2vs0mg"},{"bike_id":"876a2874-ef5c-494d-81a1-7a05ffb17095","system_id":"levelo_inurba_marseille","lat":43.292642,"lon":5.384254,"is_reserved":false,"is_disabled":false,"rental_uris":{"android":"levelo://app?vid=876a2874-ef5c-494d-81a1-7a05ffb17095","ios":"levelo://app?vid=876a2874-ef5c-494d-81a1-7a05ffb17095"},"vehicle_type_id":"4","last_reported":1708459679,"current_range_meters":14000,"station_id":"ce4bh692rcd13ifvqea0","pricing_plan_id":"cebpf4jnsgd1na2vs0mg"},{"bike_id":"ed377c52-3a8c-44fa-819b-c38f0daec16d","system_id":"levelo_inurba_marseille","lat":43.29265,"lon":5.38447,"is_reserved":false,"is_disabled":false,"rental_uris":{"android":"levelo://app?vid=ed377c52-3a8c-44fa-819b-c38f0daec16d","ios":"levelo://app?vid=ed377c52-3a8c-44fa-819b-c38f0daec16d"},"vehicle_type_id":"4","last_reported":1708459679,"current_range_meters":0,"station_id":"ce4bh692rcd13ifvqea0","pricing_plan_id":"cebpf4jnsgd1na2vs0mg"},{"bike_id":"4327bf60-ac9e-4531-9318-4b67551072a0","system_id":"levelo_inurba_marseille","lat":43.304274,"lon":5.397513,"is_reserved":false,"is_disabled":false,"rental_uris":{"android":"levelo://app?vid=4327bf60-ac9e-4531-9318-4b67551072a0","ios":"levelo://app?vid=4327bf60-ac9e-4531-9318-4b67551072a0"},"vehicle_type_id":"4","last_reported":1708459679,"current_range_meters":28000,"station_id":"ce4bh092rcd13ifvqd20","pricing_plan_id":"cebpf4jnsgd1na2vs0mg"},{"bike_id":"6b8df521-25e6-4bdb-b239-5dcbb85f9bbb","system_id":"levelo_inurba_marseille","lat":43.292623,"lon":5.384474,"is_reserved":false,"is_disabled":false,"rental_uris":{"android":"levelo://app?vid=6b8df521-25e6-4bdb-b239-5dcbb85f9bbb","ios":"levelo://app?vid=6b8df521-25e6-4bdb-b239-5dcbb85f9bbb"},"vehicle_type_id":"4","last_reported":1708459679,"current_range_meters":6400,"station_id":"ce4bh692rcd13ifvqea0","pricing_plan_id":"cebpf4jnsgd1na2vs0mg"},{"bike_id":"77ebddb2-e905-4b16-84ae-779bb176bf9d","system_id":"levelo_inurba_marseille","lat":43.29258,"lon":5.38441,"is_reserved":false,"is_disabled":false,"rental_uris":{"android":"levelo://app?vid=77ebddb2-e905-4b16-84ae-779bb176bf9d","ios":"levelo://app?vid=77ebddb2-e905-4b16-84ae-779bb176bf9d"},"vehicle_type_id":"4","last_reported":1708459679,"current_range_meters":0,"station_id":"ce4bh692rcd13ifvqea0","pricing_plan_id":"cebpf4jnsgd1na2vs0mg"},{"bike_id":"b921c74b-63a3-432a-8995-402c6dcee1b3","system_id":"levelo_inurba_marseille","lat":43.292642,"lon":5.384254,"is_reserved":false,"is_disabled":false,"rental_uris":{"android":"levelo://app?vid=b921c74b-63a3-432a-8995-402c6dcee1b3","ios":"levelo://app?vid=b921c74b-63a3-432a-8995-402c6dcee1b3"},"vehicle_type_id":"4","last_reported":1708459679,"current_range_meters":7200,"station_id":"ce4bh692rcd13ifvqea0","pricing_plan_id":"cebpf4jnsgd1na2vs0mg"},{"bike_id":"64c8a977-e817-4529-bbbf-d54830de4873","system_id":"levelo_inurba_marseille","lat":43.29103,"lon":5.38085,"is_reserved":false,"is_disabled":false,"rental_uris":{"android":"levelo://app?vid=64c8a977-e817-4529-bbbf-d54830de4873","ios":"levelo://app?vid=64c8a977-e817-4529-bbbf-d54830de4873"},"vehicle_type_id":"4","last_reported":1708459679,"current_range_meters":12000,"station_id":"","pricing_plan_id":"cebpf4jnsgd1na2vs0mg"},{"bike_id":"dd207336-93f9-4dfb-ae88-818881db7b3a","system_id":"levelo_inurba_marseille","lat":43.290995,"lon":5.381361,"is_reserved":false,"is_disabled":false,"rental_uris":{"android":"levelo://app?vid=dd207336-93f9-4dfb-ae88-818881db7b3a","ios":"levelo://app?vid=dd207336-93f9-4dfb-ae88-818881db7b3a"},"vehicle_type_id":"4","last_reported":1708459679,"current_range_meters":5600,"station_id":"ce4bh512rcd13ifvqe2g","pricing_plan_id":"cebpf4jnsgd1na2vs0mg"},{"bike_id":"6703f306-f7e7-41b6-afa9-43fa3ec4826c","system_id":"levelo_inurba_marseille","lat":43.29789,"lon":5.39334,"is_reserved":false,"is_disabled":false,"rental_uris":{"android":"levelo://app?vid=6703f306-f7e7-41b6-afa9-43fa3ec4826c","ios":"levelo://app?vid=6703f306-f7e7-41b6-afa9-43fa3ec4826c"},"vehicle_type_id":"4","last_reported":1708459679,"current_range_meters":5600,"station_id":"chh1huq6cuj3fo74tm60","pricing_plan_id":"cebpf4jnsgd1na2vs0mg"},{"bike_id":"9c40386f-55ee-49cd-a8b3-29cba79c3b3d","system_id":"levelo_inurba_marseille","lat":43.29784,"lon":5.39329,"is_reserved":false,"is_disabled":false,"rental_uris":{"android":"levelo://app?vid=9c40386f-55ee-49cd-a8b3-29cba79c3b3d","ios":"levelo://app?vid=9c40386f-55ee-49cd-a8b3-29cba79c3b3d"},"vehicle_type_id":"4","last_reported":1708459679,"current_range_meters":15200,"station_id":"chh1huq6cuj3fo74tm60","pricing_plan_id":"cebpf4jnsgd1na2vs0mg"},{"bike_id":"61995278-75bf-426c-87a8-af273b0b7276","system_id":"levelo_inurba_marseille","lat":43.2979,"lon":5.393377,"is_reserved":false,"is_disabled":false,"rental_uris":{"android":"levelo://app?vid=61995278-75bf-426c-87a8-af273b0b7276","ios":"levelo://app?vid=61995278-75bf-426c-87a8-af273b0b7276"},"vehicle_type_id":"4","last_reported":1708459679,"current_range_meters":26800,"station_id":"chh1huq6cuj3fo74tm60","pricing_plan_id":"cebpf4jnsgd1na2vs0mg"},{"bike_id":"73e9c814-3e10-4cff-b075-ab4ca91587cb","system_id":"levelo_inurba_marseille","lat":43.297845,"lon":5.39334,"is_reserved":false,"is_disabled":false,"rental_uris":{"android":"levelo://app?vid=73e9c814-3e10-4cff-b075-ab4ca91587cb","ios":"levelo://app?vid=73e9c814-3e10-4cff-b075-ab4ca91587cb"},"vehicle_type_id":"4","last_reported":1708459679,"current_range_meters":10800,"station_id":"chh1huq6cuj3fo74tm60","pricing_plan_id":"cebpf4jnsgd1na2vs0mg"},{"bike_id":"548bfde2-3722-4ede-8228-1fdfbe8a4414","system_id":"levelo_inurba_marseille","lat":43.297815,"lon":5.393548,"is_reserved":false,"is_disabled":false,"rental_uris":{"android":"levelo://app?vid=548bfde2-3722-4ede-8228-1fdfbe8a4414","ios":"levelo://app?vid=548bfde2-3722-4ede-8228-1fdfbe8a4414"},"vehicle_type_id":"4","last_reported":1708459679,"current_range_meters":1600,"station_id":"chh1huq6cuj3fo74tm60","pricing_plan_id":"cebpf4jnsgd1na2vs0mg"},{"bike_id":"11a93470-ba28-46ab-99c4-a0d2b137a56a","system_id":"levelo_inurba_marseille","lat":43.29785,"lon":5.39342,"is_reserved":false,"is_disabled":false,"rental_uris":{"android":"levelo://app?vid=11a93470-ba28-46ab-99c4-a0d2b137a56a","ios":"levelo://app?vid=11a93470-ba28-46ab-99c4-a0d2b137a56a"},"vehicle_type_id":"4","last_reported":1708459679,"current_range_meters":1200,"station_id":"chh1huq6cuj3fo74tm60","pricing_plan_id":"cebpf4jnsgd1na2vs0mg"},{"bike_id":"f17527b1-768b-4b71-bc75-d7aa73abd970","system_id":"levelo_inurba_marseille","lat":43.295169,"lon":5.390426,"is_reserved":false,"is_disabled":false,"rental_uris":{"android":"levelo://app?vid=f17527b1-768b-4b71-bc75-d7aa73abd970","ios":"levelo://app?vid=f17527b1-768b-4b71-bc75-d7aa73abd970"},"vehicle_type_id":"4","last_reported":1708459679,"current_range_meters":0,"station_id":"ce4bh3p2rcd13ifvqdp0","pricing_plan_id":"cebpf4jnsgd1na2vs0mg"},{"bike_id":"3b593a2d-3831-4d86-a542-8b3e4bb17009","system_id":"levelo_inurba_marseille","lat":43.297815,"lon":5.393548,"is_reserved":false,"is_disabled":false,"rental_uris":{"android":"levelo://app?vid=3b593a2d-3831-4d86-a542-8b3e4bb17009","ios":"levelo://app?vid=3b593a2d-3831-4d86-a542-8b3e4bb17009"},"vehicle_type_id":"4","last_reported":1708459679,"current_range_meters":11600,"station_id":"chh1huq6cuj3fo74tm60","pricing_plan_id":"cebpf4jnsgd1na2vs0mg"},{"bike_id":"d879b9ed-680d-4f43-a0b0-59142860b41d","system_id":"levelo_inurba_marseille","lat":43.295169,"lon":5.390426,"is_reserved":false,"is_disabled":false,"rental_uris":{"android":"levelo://app?vid=d879b9ed-680d-4f43-a0b0-59142860b41d","ios":"levelo://app?vid=d879b9ed-680d-4f43-a0b0-59142860b41d"},"vehicle_type_id":"4","last_reported":1708459679,"current_range_meters":27600,"station_id":"ce4bh3p2rcd13ifvqdp0","pricing_plan_id":"cebpf4jnsgd1na2vs0mg"},{"bike_id":"0c66d45f-e5b6-46b6-b48d-4c2e169469d5","system_id":"levelo_inurba_marseille","lat":43.330442,"lon":5.389148,"is_reserved":false,"is_disabled":false,"rental_uris":{"android":"levelo://app?vid=0c66d45f-e5b6-46b6-b48d-4c2e169469d5","ios":"levelo://app?vid=0c66d45f-e5b6-46b6-b48d-4c2e169469d5"},"vehicle_type_id":"4","last_reported":1708459679,"current_range_meters":18800,"station_id":"ce4bhr92rcd13ifvqhrg","pricing_plan_id":"cebpf4jnsgd1na2vs0mg"},{"bike_id":"e092d2e3-df5a-469e-88f9-f31dcc05708c","system_id":"levelo_inurba_marseille","lat":43.295169,"lon":5.390426,"is_reserved":false,"is_disabled":false,"rental_uris":{"android":"levelo://app?vid=e092d2e3-df5a-469e-88f9-f31dcc05708c","ios":"levelo://app?vid=e092d2e3-df5a-469e-88f9-f31dcc05708c"},"vehicle_type_id":"4","last_reported":1708459679,"current_range_meters":27200,"station_id":"ce4bh3p2rcd13ifvqdp0","pricing_plan_id":"cebpf4jnsgd1na2vs0mg"},{"bike_id":"b855f4e0-242e-4f60-a12e-d72ff0cb4970","system_id":"levelo_inurba_marseille","lat":43.295169,"lon":5.390426,"is_reserved":false,"is_disabled":false,"rental_uris":{"android":"levelo://app?vid=b855f4e0-242e-4f60-a12e-d72ff0cb4970","ios":"levelo://app?vid=b855f4e0-242e-4f60-a12e-d72ff0cb4970"},"vehicle_type_id":"4","last_reported":1708459679,"current_range_meters":20800,"station_id":"ce4bh3p2rcd13ifvqdp0","pricing_plan_id":"cebpf4jnsgd1na2vs0mg"},{"bike_id":"4012e222-27fb-4df6-ab75-3051f919d866","system_id":"levelo_inurba_marseille","lat":43.295169,"lon":5.390426,"is_reserved":false,"is_disabled":false,"rental_uris":{"android":"levelo://app?vid=4012e222-27fb-4df6-ab75-3051f919d866","ios":"levelo://app?vid=4012e222-27fb-4df6-ab75-3051f919d866"},"vehicle_type_id":"4","last_reported":1708459679,"current_range_meters":22400,"station_id":"ce4bh3p2rcd13ifvqdp0","pricing_plan_id":"cebpf4jnsgd1na2vs0mg"},{"bike_id":"5d2c44cc-09bc-44e8-be6a-fb2baef2bfa5","system_id":"levelo_inurba_marseille","lat":43.295169,"lon":5.390426,"is_reserved":false,"is_disabled":false,"rental_uris":{"android":"levelo://app?vid=5d2c44cc-09bc-44e8-be6a-fb2baef2bfa5","ios":"levelo://app?vid=5d2c44cc-09bc-44e8-be6a-fb2baef2bfa5"},"vehicle_type_id":"4","last_reported":1708459679,"current_range_meters":11600,"station_id":"ce4bh3p2rcd13ifvqdp0","pricing_plan_id":"cebpf4jnsgd1na2vs0mg"},{"bike_id":"a4f2e61f-fb62-4278-b6f8-aa1032f104d0","system_id":"levelo_inurba_marseille","lat":43.330442,"lon":5.389148,"is_reserved":false,"is_disabled":false,"rental_uris":{"android":"levelo://app?vid=a4f2e61f-fb62-4278-b6f8-aa1032f104d0","ios":"levelo://app?vid=a4f2e61f-fb62-4278-b6f8-aa1032f104d0"},"vehicle_type_id":"4","last_reported":1708459679,"current_range_meters":30400,"station_id":"ce4bhr92rcd13ifvqhrg","pricing_plan_id":"cebpf4jnsgd1na2vs0mg"},{"bike_id":"b124f330-af79-4e08-bcbe-ef6d3048f514","system_id":"levelo_inurba_marseille","lat":43.330442,"lon":5.389148,"is_reserved":false,"is_disabled":false,"rental_uris":{"android":"levelo://app?vid=b124f330-af79-4e08-bcbe-ef6d3048f514","ios":"levelo://app?vid=b124f330-af79-4e08-bcbe-ef6d3048f514"},"vehicle_type_id":"4","last_reported":1708459679,"current_range_meters":11600,"station_id":"ce4bhr92rcd13ifvqhrg","pricing_plan_id":"cebpf4jnsgd1na2vs0mg"},{"bike_id":"16f4aba6-3de4-4bff-bb1c-a20fc66d0e6d","system_id":"levelo_inurba_marseille","lat":43.295169,"lon":5.390426,"is_reserved":false,"is_disabled":false,"rental_uris":{"android":"levelo://app?vid=16f4aba6-3de4-4bff-bb1c-a20fc66d0e6d","ios":"levelo://app?vid=16f4aba6-3de4-4bff-bb1c-a20fc66d0e6d"},"vehicle_type_id":"4","last_reported":1708459679,"current_range_meters":4000,"station_id":"ce4bh3p2rcd13ifvqdp0","pricing_plan_id":"cebpf4jnsgd1na2vs0mg"},{"bike_id":"c9b566e7-c8e1-4da9-bdb8-6fa93dd6affd","system_id":"levelo_inurba_marseille","lat":43.295169,"lon":5.390426,"is_reserved":false,"is_disabled":false,"rental_uris":{"android":"levelo://app?vid=c9b566e7-c8e1-4da9-bdb8-6fa93dd6affd","ios":"levelo://app?vid=c9b566e7-c8e1-4da9-bdb8-6fa93dd6affd"},"vehicle_type_id":"4","last_reported":1708459679,"current_range_meters":10800,"station_id":"ce4bh3p2rcd13ifvqdp0","pricing_plan_id":"cebpf4jnsgd1na2vs0mg"},{"bike_id":"9adb7d8c-1a3e-401d-8170-bca66d7b94f6","system_id":"levelo_inurba_marseille","lat":43.295169,"lon":5.390426,"is_reserved":false,"is_disabled":false,"rental_uris":{"android":"levelo://app?vid=9adb7d8c-1a3e-401d-8170-bca66d7b94f6","ios":"levelo://app?vid=9adb7d8c-1a3e-401d-8170-bca66d7b94f6"},"vehicle_type_id":"4","last_reported":1708459679,"current_range_meters":23200,"station_id":"ce4bh3p2rcd13ifvqdp0","pricing_plan_id":"cebpf4jnsgd1na2vs0mg"},{"bike_id":"a92c8767-460e-4c99-9f3a-8a6eb937ac2b","system_id":"levelo_inurba_marseille","lat":43.295169,"lon":5.390426,"is_reserved":false,"is_disabled":false,"rental_uris":{"android":"levelo://app?vid=a92c8767-460e-4c99-9f3a-8a6eb937ac2b","ios":"levelo://app?vid=a92c8767-460e-4c99-9f3a-8a6eb937ac2b"},"vehicle_type_id":"4","last_reported":1708459679,"current_range_meters":8400,"station_id":"ce4bh3p2rcd13ifvqdp0","pricing_plan_id":"cebpf4jnsgd1na2vs0mg"},{"bike_id":"59a0bb38-8063-4d53-a014-4c1875eaaaa0","system_id":"levelo_inurba_marseille","lat":43.2886,"lon":5.3588,"is_reserved":false,"is_disabled":false,"rental_uris":{"android":"levelo://app?vid=59a0bb38-8063-4d53-a014-4c1875eaaaa0","ios":"levelo://app?vid=59a0bb38-8063-4d53-a014-4c1875eaaaa0"},"vehicle_type_id":"4","last_reported":1708459679,"current_range_meters":20000,"station_id":"","pricing_plan_id":"cebpf4jnsgd1na2vs0mg"},{"bike_id":"9d8e6e39-7b6d-476d-a681-3f4ab3709dc3","system_id":"levelo_inurba_marseille","lat":43.28856,"lon":5.358371,"is_reserved":false,"is_disabled":false,"rental_uris":{"android":"levelo://app?vid=9d8e6e39-7b6d-476d-a681-3f4ab3709dc3","ios":"levelo://app?vid=9d8e6e39-7b6d-476d-a681-3f4ab3709dc3"},"vehicle_type_id":"4","last_reported":1708459679,"current_range_meters":0,"station_id":"ce4bhb12rcd13ifvqem0","pricing_plan_id":"cebpf4jnsgd1na2vs0mg"},{"bike_id":"578a0353-9712-4729-952c-585c16d29e60","system_id":"levelo_inurba_marseille","lat":43.28856,"lon":5.358371,"is_reserved":false,"is_disabled":false,"rental_uris":{"android":"levelo://app?vid=578a0353-9712-4729-952c-585c16d29e60","ios":"levelo://app?vid=578a0353-9712-4729-952c-585c16d29e60"},"vehicle_type_id":"4","last_reported":1708459679,"current_range_meters":31600,"station_id":"ce4bhb12rcd13ifvqem0","pricing_plan_id":"cebpf4jnsgd1na2vs0mg"},{"bike_id":"c1468d7e-1f6b-4a4b-baf6-7dbfd34e7699","system_id":"levelo_inurba_marseille","lat":43.28856,"lon":5.358371,"is_reserved":false,"is_disabled":false,"rental_uris":{"android":"levelo://app?vid=c1468d7e-1f6b-4a4b-baf6-7dbfd34e7699","ios":"levelo://app?vid=c1468d7e-1f6b-4a4b-baf6-7dbfd34e7699"},"vehicle_type_id":"4","last_reported":1708459679,"current_range_meters":0,"station_id":"ce4bhb12rcd13ifvqem0","pricing_plan_id":"cebpf4jnsgd1na2vs0mg"},{"bike_id":"4c1e26da-1daa-47cb-a1b0-68f224959241","system_id":"levelo_inurba_marseille","lat":43.28856,"lon":5.358371,"is_reserved":false,"is_disabled":false,"rental_uris":{"android":"levelo://app?vid=4c1e26da-1daa-47cb-a1b0-68f224959241","ios":"levelo://app?vid=4c1e26da-1daa-47cb-a1b0-68f224959241"},"vehicle_type_id":"4","last_reported":1708459679,"current_range_meters":31200,"station_id":"ce4bhb12rcd13ifvqem0","pricing_plan_id":"cebpf4jnsgd1na2vs0mg"},{"bike_id":"4cdc7c66-a8e9-46bc-8b00-ade4932aeceb","system_id":"levelo_inurba_marseille","lat":43.28856,"lon":5.358371,"is_reserved":false,"is_disabled":false,"rental_uris":{"android":"levelo://app?vid=4cdc7c66-a8e9-46bc-8b00-ade4932aeceb","ios":"levelo://app?vid=4cdc7c66-a8e9-46bc-8b00-ade4932aeceb"},"vehicle_type_id":"4","last_reported":1708459679,"current_range_meters":0,"station_id":"ce4bhb12rcd13ifvqem0","pricing_plan_id":"cebpf4jnsgd1na2vs0mg"},{"bike_id":"7deb327a-8ec1-4ef5-bc5c-705ae6bbb03e","system_id":"levelo_inurba_marseille","lat":43.28856,"lon":5.358371,"is_reserved":false,"is_disabled":false,"rental_uris":{"android":"levelo://app?vid=7deb327a-8ec1-4ef5-bc5c-705ae6bbb03e","ios":"levelo://app?vid=7deb327a-8ec1-4ef5-bc5c-705ae6bbb03e"},"vehicle_type_id":"4","last_reported":1708459679,"current_range_meters":12400,"station_id":"ce4bhb12rcd13ifvqem0","pricing_plan_id":"cebpf4jnsgd1na2vs0mg"},{"bike_id":"17fa40a9-c008-40c3-8c55-8bf0f7bfa052","system_id":"levelo_inurba_marseille","lat":43.312609,"lon":5.401662,"is_reserved":false,"is_disabled":false,"rental_uris":{"android":"levelo://app?vid=17fa40a9-c008-40c3-8c55-8bf0f7bfa052","ios":"levelo://app?vid=17fa40a9-c008-40c3-8c55-8bf0f7bfa052"},"vehicle_type_id":"4","last_reported":1708459679,"current_range_meters":8000,"station_id":"ce4bh092rcd13ifvqd30","pricing_plan_id":"cebpf4jnsgd1na2vs0mg"},{"bike_id":"bec82039-cc62-4300-b183-3d33bcf980ef","system_id":"levelo_inurba_marseille","lat":43.313291,"lon":5.396838,"is_reserved":false,"is_disabled":false,"rental_uris":{"android":"levelo://app?vid=bec82039-cc62-4300-b183-3d33bcf980ef","ios":"levelo://app?vid=bec82039-cc62-4300-b183-3d33bcf980ef"},"vehicle_type_id":"4","last_reported":1708459679,"current_range_meters":6000,"station_id":"ce4bgvp2rcd13ifvqcu0","pricing_plan_id":"cebpf4jnsgd1na2vs0mg"},{"bike_id":"d70e5a3e-0393-4b8d-b6ed-e215b1d2851f","system_id":"levelo_inurba_marseille","lat":43.312609,"lon":5.401662,"is_reserved":false,"is_disabled":false,"rental_uris":{"android":"levelo://app?vid=d70e5a3e-0393-4b8d-b6ed-e215b1d2851f","ios":"levelo://app?vid=d70e5a3e-0393-4b8d-b6ed-e215b1d2851f"},"vehicle_type_id":"4","last_reported":1708459679,"current_range_meters":9600,"station_id":"ce4bh092rcd13ifvqd30","pricing_plan_id":"cebpf4jnsgd1na2vs0mg"},{"bike_id":"672af493-05ad-4417-a2af-b42054a8c83c","system_id":"levelo_inurba_marseille","lat":43.312609,"lon":5.401662,"is_reserved":false,"is_disabled":false,"rental_uris":{"android":"levelo://app?vid=672af493-05ad-4417-a2af-b42054a8c83c","ios":"levelo://app?vid=672af493-05ad-4417-a2af-b42054a8c83c"},"vehicle_type_id":"4","last_reported":1708459679,"current_range_meters":26400,"station_id":"ce4bh092rcd13ifvqd30","pricing_plan_id":"cebpf4jnsgd1na2vs0mg"},{"bike_id":"a1b3d539-33d5-4ed4-ab44-8001749e5b82","system_id":"levelo_inurba_marseille","lat":43.312609,"lon":5.401662,"is_reserved":false,"is_disabled":false,"rental_uris":{"android":"levelo://app?vid=a1b3d539-33d5-4ed4-ab44-8001749e5b82","ios":"levelo://app?vid=a1b3d539-33d5-4ed4-ab44-8001749e5b82"},"vehicle_type_id":"4","last_reported":1708459679,"current_range_meters":5200,"station_id":"ce4bh092rcd13ifvqd30","pricing_plan_id":"cebpf4jnsgd1na2vs0mg"},{"bike_id":"bee98f28-a687-44a1-a0fc-44985e86dc27","system_id":"levelo_inurba_marseille","lat":43.337421,"lon":5.374555,"is_reserved":false,"is_disabled":false,"rental_uris":{"android":"levelo://app?vid=bee98f28-a687-44a1-a0fc-44985e86dc27","ios":"levelo://app?vid=bee98f28-a687-44a1-a0fc-44985e86dc27"},"vehicle_type_id":"4","last_reported":1708459679,"current_range_meters":10800,"station_id":"","pricing_plan_id":"cebpf4jnsgd1na2vs0mg"},{"bike_id":"4e62f32a-2c8a-4791-9449-de28cfa118f6","system_id":"levelo_inurba_marseille","lat":43.30936,"lon":5.4014,"is_reserved":false,"is_disabled":false,"rental_uris":{"android":"levelo://app?vid=4e62f32a-2c8a-4791-9449-de28cfa118f6","ios":"levelo://app?vid=4e62f32a-2c8a-4791-9449-de28cfa118f6"},"vehicle_type_id":"4","last_reported":1708459679,"current_range_meters":0,"station_id":"ce4bgvp2rcd13ifvqct0","pricing_plan_id":"cebpf4jnsgd1na2vs0mg"},{"bike_id":"a33ce4bd-6390-428e-8b2f-fcdadfd52b7f","system_id":"levelo_inurba_marseille","lat":43.309371,"lon":5.401449,"is_reserved":false,"is_disabled":false,"rental_uris":{"android":"levelo://app?vid=a33ce4bd-6390-428e-8b2f-fcdadfd52b7f","ios":"levelo://app?vid=a33ce4bd-6390-428e-8b2f-fcdadfd52b7f"},"vehicle_type_id":"4","last_reported":1708459679,"current_range_meters":18800,"station_id":"ce4bgvp2rcd13ifvqct0","pricing_plan_id":"cebpf4jnsgd1na2vs0mg"},{"bike_id":"be2269ac-9e97-4cba-829f-5b4176152953","system_id":"levelo_inurba_marseille","lat":43.312609,"lon":5.401662,"is_reserved":false,"is_disabled":false,"rental_uris":{"android":"levelo://app?vid=be2269ac-9e97-4cba-829f-5b4176152953","ios":"levelo://app?vid=be2269ac-9e97-4cba-829f-5b4176152953"},"vehicle_type_id":"4","last_reported":1708459679,"current_range_meters":1600,"station_id":"ce4bh092rcd13ifvqd30","pricing_plan_id":"cebpf4jnsgd1na2vs0mg"},{"bike_id":"6a2b7330-9a83-4705-bf85-f8b9cdd5dce9","system_id":"levelo_inurba_marseille","lat":43.309371,"lon":5.401449,"is_reserved":false,"is_disabled":false,"rental_uris":{"android":"levelo://app?vid=6a2b7330-9a83-4705-bf85-f8b9cdd5dce9","ios":"levelo://app?vid=6a2b7330-9a83-4705-bf85-f8b9cdd5dce9"},"vehicle_type_id":"4","last_reported":1708459679,"current_range_meters":0,"station_id":"ce4bgvp2rcd13ifvqct0","pricing_plan_id":"cebpf4jnsgd1na2vs0mg"},{"bike_id":"254db809-d603-4868-be95-eb61ba19bc37","system_id":"levelo_inurba_marseille","lat":43.337474,"lon":5.374622,"is_reserved":false,"is_disabled":false,"rental_uris":{"android":"levelo://app?vid=254db809-d603-4868-be95-eb61ba19bc37","ios":"levelo://app?vid=254db809-d603-4868-be95-eb61ba19bc37"},"vehicle_type_id":"4","last_reported":1708459679,"current_range_meters":24400,"station_id":"","pricing_plan_id":"cebpf4jnsgd1na2vs0mg"},{"bike_id":"8032f488-736d-4f91-b5b8-9c785931ead9","system_id":"levelo_inurba_marseille","lat":43.309371,"lon":5.401449,"is_reserved":false,"is_disabled":false,"rental_uris":{"android":"levelo://app?vid=8032f488-736d-4f91-b5b8-9c785931ead9","ios":"levelo://app?vid=8032f488-736d-4f91-b5b8-9c785931ead9"},"vehicle_type_id":"4","last_reported":1708459679,"current_range_meters":14000,"station_id":"ce4bgvp2rcd13ifvqct0","pricing_plan_id":"cebpf4jnsgd1na2vs0mg"},{"bike_id":"e75b5b35-9d60-44b2-ace0-a6b67ad4cb52","system_id":"levelo_inurba_marseille","lat":43.309314,"lon":5.401466,"is_reserved":false,"is_disabled":false,"rental_uris":{"android":"levelo://app?vid=e75b5b35-9d60-44b2-ace0-a6b67ad4cb52","ios":"levelo://app?vid=e75b5b35-9d60-44b2-ace0-a6b67ad4cb52"},"vehicle_type_id":"4","last_reported":1708459679,"current_range_meters":0,"station_id":"ce4bgvp2rcd13ifvqct0","pricing_plan_id":"cebpf4jnsgd1na2vs0mg"},{"bike_id":"b1c83910-604f-4632-ba4e-8963b40857c4","system_id":"levelo_inurba_marseille","lat":43.309371,"lon":5.401449,"is_reserved":false,"is_disabled":false,"rental_uris":{"android":"levelo://app?vid=b1c83910-604f-4632-ba4e-8963b40857c4","ios":"levelo://app?vid=b1c83910-604f-4632-ba4e-8963b40857c4"},"vehicle_type_id":"4","last_reported":1708459679,"current_range_meters":18400,"station_id":"ce4bgvp2rcd13ifvqct0","pricing_plan_id":"cebpf4jnsgd1na2vs0mg"},{"bike_id":"938244b9-1005-4f5e-b0d4-d779eb11add7","system_id":"levelo_inurba_marseille","lat":43.306412,"lon":5.401035,"is_reserved":false,"is_disabled":false,"rental_uris":{"android":"levelo://app?vid=938244b9-1005-4f5e-b0d4-d779eb11add7","ios":"levelo://app?vid=938244b9-1005-4f5e-b0d4-d779eb11add7"},"vehicle_type_id":"4","last_reported":1708459679,"current_range_meters":30400,"station_id":"ce4bh112rcd13ifvqda0","pricing_plan_id":"cebpf4jnsgd1na2vs0mg"},{"bike_id":"83f7c712-864f-4e23-ab7c-2bb172a1e363","system_id":"levelo_inurba_marseille","lat":43.309371,"lon":5.401449,"is_reserved":false,"is_disabled":false,"rental_uris":{"android":"levelo://app?vid=83f7c712-864f-4e23-ab7c-2bb172a1e363","ios":"levelo://app?vid=83f7c712-864f-4e23-ab7c-2bb172a1e363"},"vehicle_type_id":"4","last_reported":1708459679,"current_range_meters":22400,"station_id":"ce4bgvp2rcd13ifvqct0","pricing_plan_id":"cebpf4jnsgd1na2vs0mg"},{"bike_id":"b8f377bf-2acd-4ac3-bea5-e9c9dfe8f8f1","system_id":"levelo_inurba_marseille","lat":43.30642,"lon":5.401031,"is_reserved":false,"is_disabled":false,"rental_uris":{"android":"levelo://app?vid=b8f377bf-2acd-4ac3-bea5-e9c9dfe8f8f1","ios":"levelo://app?vid=b8f377bf-2acd-4ac3-bea5-e9c9dfe8f8f1"},