{"last_updated":1765905334,"ttl":60,"version":"2.2","data":{"bikes":[{"bike_id":"73e36d11-8aa0-4023-b049-838b3c443243","system_id":"levelo_inurba_marseille","lat":43.27911,"lon":5.39589,"is_reserved":false,"is_disabled":false,"rental_uris":{"android":"levelo://app?vid=73e36d11-8aa0-4023-b049-838b3c443243","ios":"levelo://app?vid=73e36d11-8aa0-4023-b049-838b3c443243"},"vehicle_type_id":"4","last_reported":1765905334,"current_range_meters":2800,"station_id":"ce4bhf92rcd13ifvqf40","pricing_plan_id":"cebpf4jnsgd1na2vs0mg"},{"bike_id":"a6bfd9b2-7f15-426c-b73b-e405e8711977","system_id":"levelo_inurba_marseille","lat":43.31021,"lon":5.37508,"is_reserved":false,"is_disabled":false,"rental_uris":{"android":"levelo://app?vid=a6bfd9b2-7f15-426c-b73b-e405e8711977","ios":"levelo://app?vid=a6bfd9b2-7f15-426c-b73b-e405e8711977"},"vehicle_type_id":"4","last_reported":1765905334,"current_range_meters":2800,"station_id":"","pricing_plan_id":"cebpf4jnsgd1na2vs0mg"},{"bike_id":"295e9031-cb5e-44bc-915c-a5e562249fd4","system_id":"levelo_inurba_marseille","lat":43.255034,"lon":5.376485,"is_reserved":false,"is_disabled":false,"rental_uris":{"android":"levelo://app?vid=295e9031-cb5e-44bc-915c-a5e562249fd4","ios":"levelo://app?vid=295e9031-cb5e-44bc-915c-a5e562249fd4"},"vehicle_type_id":"4","last_reported":1765905334,"current_range_meters":2800,"station_id":"ce4bhh12rcd13ifvqff0","pricing_plan_id":"cebpf4jnsgd1na2vs0mg"},{"bike_id":"db437e1c-68a8-4d71-856f-a23bc6f6da94","system_id":"levelo_inurba_marseille","lat":43.29195,"lon":5.39315,"is_reserved":false,"is_disabled":false,"rental_uris":{"android":"levelo://app?vid=db437e1c-68a8-4d71-856f-a23bc6f6da94","ios":"levelo://app?vid=db437e1c-68a8-4d71-856f-a23bc6f6da94"},"vehicle_type_id":"4","last_reported":1765905334,"current_range_meters":2800,"station_id":"ce4bh192rcd13ifvqdd0","pricing_plan_id":"cebpf4jnsgd1na2vs0mg"},{"bike_id":"badd8d20-9209-4436-9c1f-a017c0e70e8a","system_id":"levelo_inurba_marseille","lat":43.3256,"lon":5.39321,"is_reserved":false,"is_disabled":false,"rental_uris":{"android":"levelo://app?vid=badd8d20-9209-4436-9c1f-a017c0e70e8a","ios":"levelo://app?vid=badd8d20-9209-4436-9c1f-a017c0e70e8a"},"vehicle_type_id":"4","last_reported":1765905334,"current_range_meters":2800,"station_id":"","pricing_plan_id":"cebpf4jnsgd1na2vs0mg"},{"bike_id":"684cbc28-303b-4ec4-a3f6-148a14484654","system_id":"levelo_inurba_marseille","lat":43.27969,"lon":5.38723,"is_reserved":false,"is_disabled":false,"rental_uris":{"android":"levelo://app?vid=684cbc28-303b-4ec4-a3f6-148a14484654","ios":"levelo://app?vid=684cbc28-303b-4ec4-a3f6-148a14484654"},"vehicle_type_id":"4","last_reported":1765905334,"current_range_meters":2800,"station_id":"ce4bhg12rcd13ifvqf80","pricing_plan_id":"cebpf4jnsgd1na2vs0mg"},{"bike_id":"00890b21-cd12-47d8-9045-1c0ccff2284d","system_id":"levelo_inurba_marseille","lat":43.28612,"lon":5.35102,"is_reserved":false,"is_disabled":false,"rental_uris":{"android":"levelo://app?vid=00890b21-cd12-47d8-9045-1c0ccff2284d","ios":"levelo://app?vid=00890b21-cd12-47d8-9045-1c0ccff2284d"},"vehicle_type_id":"4","last_reported":1765905334,"current_range_meters":2800,"station_id":"ce4bhch2rcd13ifvqeug","pricing_plan_id":"cebpf4jnsgd1na2vs0mg"},{"bike_id":"f133b704-e089-4480-b738-4b128175ccb9","system_id":"levelo_inurba_marseille","lat":43.29261,"lon":5.38434,"is_reserved":false,"is_disabled":false,"rental_uris":{"android":"levelo://app?vid=f133b704-e089-4480-b738-4b128175ccb9","ios":"levelo://app?vid=f133b704-e089-4480-b738-4b128175ccb9"},"vehicle_type_id":"4","last_reported":1765905334,"current_range_meters":2800,"station_id":"ce4bh692rcd13ifvqea0","pricing_plan_id":"cebpf4jnsgd1na2vs0mg"},{"bike_id":"d2738338-e9cb-407f-ac64-72f07b0afcdf","system_id":"levelo_inurba_marseille","lat":43.301378,"lon":5.387775,"is_reserved":false,"is_disabled":false,"rental_uris":{"android":"levelo://app?vid=d2738338-e9cb-407f-ac64-72f07b0afcdf","ios":"levelo://app?vid=d2738338-e9cb-407f-ac64-72f07b0afcdf"},"vehicle_type_id":"4","last_reported":1765905334,"current_range_meters":2800,"station_id":"ce4bghh2rcd13ifvqb60","pricing_plan_id":"cebpf4jnsgd1na2vs0mg"},{"bike_id":"932a03eb-3c29-44b5-99be-e5a9c2e37645","system_id":"levelo_inurba_marseille","lat":43.28151,"lon":5.42643,"is_reserved":false,"is_disabled":false,"rental_uris":{"android":"levelo://app?vid=932a03eb-3c29-44b5-99be-e5a9c2e37645","ios":"levelo://app?vid=932a03eb-3c29-44b5-99be-e5a9c2e37645"},"vehicle_type_id":"4","last_reported":1765905334,"current_range_meters":2800,"station_id":"ce4bhnh2rcd13ifvqgug","pricing_plan_id":"cebpf4jnsgd1na2vs0mg"},{"bike_id":"97f5625f-aa55-4e12-8644-4660e3b0fc27","system_id":"levelo_inurba_marseille","lat":43.31326,"lon":5.39685,"is_reserved":false,"is_disabled":false,"rental_uris":{"android":"levelo://app?vid=97f5625f-aa55-4e12-8644-4660e3b0fc27","ios":"levelo://app?vid=97f5625f-aa55-4e12-8644-4660e3b0fc27"},"vehicle_type_id":"4","last_reported":1765905334,"current_range_meters":3200,"station_id":"ce4bgvp2rcd13ifvqcu0","pricing_plan_id":"cebpf4jnsgd1na2vs0mg"},{"bike_id":"44361755-fac5-4fd5-87f8-7c5159597664","system_id":"levelo_inurba_marseille","lat":43.29035,"lon":5.37567,"is_reserved":false,"is_disabled":false,"rental_uris":{"android":"levelo://app?vid=44361755-fac5-4fd5-87f8-7c5159597664","ios":"levelo://app?vid=44361755-fac5-4fd5-87f8-7c5159597664"},"vehicle_type_id":"4","last_reported":1765905334,"current_range_meters":3200,"station_id":"ce4bh692rcd13ifvqe90","pricing_plan_id":"cebpf4jnsgd1na2vs0mg"},{"bike_id":"4f6d8ad0-3991-4a51-b3dc-266a2ca4a7fe","system_id":"levelo_inurba_marseille","lat":43.29036,"lon":5.39992,"is_reserved":false,"is_disabled":true,"rental_uris":{"android":"levelo://app?vid=4f6d8ad0-3991-4a51-b3dc-266a2ca4a7fe","ios":"levelo://app?vid=4f6d8ad0-3991-4a51-b3dc-266a2ca4a7fe"},"vehicle_type_id":"4","last_reported":1765905334,"current_range_meters":3600,"station_id":"ce4bh392rcd13ifvqdm0","pricing_plan_id":"cebpf4jnsgd1na2vs0mg"},{"bike_id":"5be8edb7-ce66-4e64-b700-28b1f75ed3a8","system_id":"levelo_inurba_marseille","lat":43.28147,"lon":5.42645,"is_reserved":false,"is_disabled":false,"rental_uris":{"android":"levelo://app?vid=5be8edb7-ce66-4e64-b700-28b1f75ed3a8","ios":"levelo://app?vid=5be8edb7-ce66-4e64-b700-28b1f75ed3a8"},"vehicle_type_id":"4","last_reported":1765905334,"current_range_meters":3600,"station_id":"ce4bhnh2rcd13ifvqgug","pricing_plan_id":"cebpf4jnsgd1na2vs0mg"},{"bike_id":"a3daf621-259e-4189-bcbb-77e1233f9fd8","system_id":"levelo_inurba_marseille","lat":43.24806,"lon":5.37458,"is_reserved":false,"is_disabled":false,"rental_uris":{"android":"levelo://app?vid=a3daf621-259e-4189-bcbb-77e1233f9fd8","ios":"levelo://app?vid=a3daf621-259e-4189-bcbb-77e1233f9fd8"},"vehicle_type_id":"4","last_reported":1765905334,"current_range_meters":3600,"station_id":"ce4bhgh2rcd13ifvqfb0","pricing_plan_id":"cebpf4jnsgd1na2vs0mg"},{"bike_id":"b0fe5393-fed7-4131-b477-a0f577b37311","system_id":"levelo_inurba_marseille","lat":43.2792,"lon":5.395749,"is_reserved":false,"is_disabled":false,"rental_uris":{"android":"levelo://app?vid=b0fe5393-fed7-4131-b477-a0f577b37311","ios":"levelo://app?vid=b0fe5393-fed7-4131-b477-a0f577b37311"},"vehicle_type_id":"4","last_reported":1765905334,"current_range_meters":3600,"station_id":"ce4bhf92rcd13ifvqf40","pricing_plan_id":"cebpf4jnsgd1na2vs0mg"},{"bike_id":"a56aa38d-871e-4b95-a0d7-b0725e3936dd","system_id":"levelo_inurba_marseille","lat":43.253357,"lon":5.421669,"is_reserved":false,"is_disabled":false,"rental_uris":{"android":"levelo://app?vid=a56aa38d-871e-4b95-a0d7-b0725e3936dd","ios":"levelo://app?vid=a56aa38d-871e-4b95-a0d7-b0725e3936dd"},"vehicle_type_id":"4","last_reported":1765905334,"current_range_meters":3600,"station_id":"ce4bhih2rcd13ifvqfs0","pricing_plan_id":"cebpf4jnsgd1na2vs0mg"},{"bike_id":"87c51353-fe61-4491-aa98-9c8dd6f639a6","system_id":"levelo_inurba_marseille","lat":43.28003,"lon":5.40008,"is_reserved":false,"is_disabled":false,"rental_uris":{"android":"levelo://app?vid=87c51353-fe61-4491-aa98-9c8dd6f639a6","ios":"levelo://app?vid=87c51353-fe61-4491-aa98-9c8dd6f639a6"},"vehicle_type_id":"4","last_reported":1765905334,"current_range_meters":4000,"station_id":"ce4bho92rcd13ifvqh4g","pricing_plan_id":"cebpf4jnsgd1na2vs0mg"},{"bike_id":"37b1c28b-5a7b-4347-8982-0f4ce362dff6","system_id":"levelo_inurba_marseille","lat":43.26564,"lon":5.39005,"is_reserved":false,"is_disabled":false,"rental_uris":{"android":"levelo://app?vid=37b1c28b-5a7b-4347-8982-0f4ce362dff6","ios":"levelo://app?vid=37b1c28b-5a7b-4347-8982-0f4ce362dff6"},"vehicle_type_id":"4","last_reported":1765905334,"current_range_meters":4000,"station_id":"ce4bhe12rcd13ifvqf30","pricing_plan_id":"cebpf4jnsgd1na2vs0mg"},{"bike_id":"3d377d63-bcdc-4502-bce1-42dd8224a61e","system_id":"levelo_inurba_marseille","lat":43.27998,"lon":5.40003,"is_reserved":false,"is_disabled":false,"rental_uris":{"android":"levelo://app?vid=3d377d63-bcdc-4502-bce1-42dd8224a61e","ios":"levelo://app?vid=3d377d63-bcdc-4502-bce1-42dd8224a61e"},"vehicle_type_id":"4","last_reported":1765905334,"current_range_meters":4000,"station_id":"ce4bho92rcd13ifvqh4g","pricing_plan_id":"cebpf4jnsgd1na2vs0mg"},{"bike_id":"4dac32bf-f9db-4af3-88e0-f924fb123f80","system_id":"levelo_inurba_marseille","lat":43.286853,"lon":5.373874,"is_reserved":false,"is_disabled":false,"rental_uris":{"android":"levelo://app?vid=4dac32bf-f9db-4af3-88e0-f924fb123f80","ios":"levelo://app?vid=4dac32bf-f9db-4af3-88e0-f924fb123f80"},"vehicle_type_id":"4","last_reported":1765905334,"current_range_meters":4000,"station_id":"","pricing_plan_id":"cebpf4jnsgd1na2vs0mg"},{"bike_id":"e96e9526-7770-48ce-8a7c-4a7c37d3d145","system_id":"levelo_inurba_marseille","lat":43.301435,"lon":5.380861,"is_reserved":false,"is_disabled":false,"rental_uris":{"android":"levelo://app?vid=e96e9526-7770-48ce-8a7c-4a7c37d3d145","ios":"levelo://app?vid=e96e9526-7770-48ce-8a7c-4a7c37d3d145"},"vehicle_type_id":"4","last_reported":1765905334,"current_range_meters":4000,"station_id":"ce4bgjp2rcd13ifvqbh0","pricing_plan_id":"cebpf4jnsgd1na2vs0mg"},{"bike_id":"3d9e06fb-a0a7-45f6-8445-98143457fd3a","system_id":"levelo_inurba_marseille","lat":43.2737,"lon":5.36256,"is_reserved":false,"is_disabled":false,"rental_uris":{"android":"levelo://app?vid=3d9e06fb-a0a7-45f6-8445-98143457fd3a","ios":"levelo://app?vid=3d9e06fb-a0a7-45f6-8445-98143457fd3a"},"vehicle_type_id":"4","last_reported":1765905334,"current_range_meters":4400,"station_id":"ce4bhbh2rcd13ifvqeo0","pricing_plan_id":"cebpf4jnsgd1na2vs0mg"},{"bike_id":"1f69e745-88ea-4f31-8cc2-884456adc1f0","system_id":"levelo_inurba_marseille","lat":43.27327,"lon":5.39075,"is_reserved":false,"is_disabled":false,"rental_uris":{"android":"levelo://app?vid=1f69e745-88ea-4f31-8cc2-884456adc1f0","ios":"levelo://app?vid=1f69e745-88ea-4f31-8cc2-884456adc1f0"},"vehicle_type_id":"4","last_reported":1765905334,"current_range_meters":4400,"station_id":"ce4bhgp2rcd13ifvqfe0","pricing_plan_id":"cebpf4jnsgd1na2vs0mg"},{"bike_id":"66e10194-8e2d-4634-89ad-d66d649b5e60","system_id":"levelo_inurba_marseille","lat":43.28473,"lon":5.48401,"is_reserved":false,"is_disabled":false,"rental_uris":{"android":"levelo://app?vid=66e10194-8e2d-4634-89ad-d66d649b5e60","ios":"levelo://app?vid=66e10194-8e2d-4634-89ad-d66d649b5e60"},"vehicle_type_id":"4","last_reported":1765905334,"current_range_meters":4400,"station_id":"","pricing_plan_id":"cebpf4jnsgd1na2vs0mg"},{"bike_id":"b6a68830-a28e-40f6-beb8-1055ff761679","system_id":"levelo_inurba_marseille","lat":43.27317,"lon":5.39075,"is_reserved":false,"is_disabled":false,"rental_uris":{"android":"levelo://app?vid=b6a68830-a28e-40f6-beb8-1055ff761679","ios":"levelo://app?vid=b6a68830-a28e-40f6-beb8-1055ff761679"},"vehicle_type_id":"4","last_reported":1765905334,"current_range_meters":4800,"station_id":"ce4bhgp2rcd13ifvqfe0","pricing_plan_id":"cebpf4jnsgd1na2vs0mg"},{"bike_id":"d8686634-4cf6-4949-8ee1-5b315579515a","system_id":"levelo_inurba_marseille","lat":43.2844,"lon":5.39205,"is_reserved":false,"is_disabled":false,"rental_uris":{"android":"levelo://app?vid=d8686634-4cf6-4949-8ee1-5b315579515a","ios":"levelo://app?vid=d8686634-4cf6-4949-8ee1-5b315579515a"},"vehicle_type_id":"4","last_reported":1765905334,"current_range_meters":4800,"station_id":"ce4bhoh2rcd13ifvqh5g","pricing_plan_id":"cebpf4jnsgd1na2vs0mg"},{"bike_id":"62b5493a-160c-4fb7-aa51-dca76fc870db","system_id":"levelo_inurba_marseille","lat":43.2841,"lon":5.34983,"is_reserved":false,"is_disabled":false,"rental_uris":{"android":"levelo://app?vid=62b5493a-160c-4fb7-aa51-dca76fc870db","ios":"levelo://app?vid=62b5493a-160c-4fb7-aa51-dca76fc870db"},"vehicle_type_id":"4","last_reported":1765905334,"current_range_meters":4800,"station_id":"ce4bhbh2rcd13ifvqepg","pricing_plan_id":"cebpf4jnsgd1na2vs0mg"},{"bike_id":"ee7a455f-6829-4373-ba58-24b1b4957639","system_id":"levelo_inurba_marseille","lat":43.27806,"lon":5.40707,"is_reserved":false,"is_disabled":false,"rental_uris":{"android":"levelo://app?vid=ee7a455f-6829-4373-ba58-24b1b4957639","ios":"levelo://app?vid=ee7a455f-6829-4373-ba58-24b1b4957639"},"vehicle_type_id":"4","last_reported":1765905334,"current_range_meters":4800,"station_id":"ce4bhnh2rcd13ifvqgtg","pricing_plan_id":"cebpf4jnsgd1na2vs0mg"},{"bike_id":"af60ad45-1773-4b17-8cbf-b5714f9a120e","system_id":"levelo_inurba_marseille","lat":43.337666,"lon":5.374436,"is_reserved":false,"is_disabled":false,"rental_uris":{"android":"levelo://app?vid=af60ad45-1773-4b17-8cbf-b5714f9a120e","ios":"levelo://app?vid=af60ad45-1773-4b17-8cbf-b5714f9a120e"},"vehicle_type_id":"4","last_reported":1765905334,"current_range_meters":5600,"station_id":"","pricing_plan_id":"cebpf4jnsgd1na2vs0mg"},{"bike_id":"67f9d5df-911a-4568-b98c-94ab49410e17","system_id":"levelo_inurba_marseille","lat":43.25577,"lon":5.38229,"is_reserved":false,"is_disabled":false,"rental_uris":{"android":"levelo://app?vid=67f9d5df-911a-4568-b98c-94ab49410e17","ios":"levelo://app?vid=67f9d5df-911a-4568-b98c-94ab49410e17"},"vehicle_type_id":"4","last_reported":1765905334,"current_range_meters":5600,"station_id":"ce4bhih2rcd13ifvqfs0","pricing_plan_id":"cebpf4jnsgd1na2vs0mg"},{"bike_id":"6fe3060f-17ee-4243-91a2-653d74d75a11","system_id":"levelo_inurba_marseille","lat":43.2253,"lon":5.34837,"is_reserved":false,"is_disabled":false,"rental_uris":{"android":"levelo://app?vid=6fe3060f-17ee-4243-91a2-653d74d75a11","ios":"levelo://app?vid=6fe3060f-17ee-4243-91a2-653d74d75a11"},"vehicle_type_id":"4","last_reported":1765905334,"current_range_meters":5600,"station_id":"","pricing_plan_id":"cebpf4jnsgd1na2vs0mg"},{"bike_id":"5cfcac19-e885-4209-96ab-a70a0192b25a","system_id":"levelo_inurba_marseille","lat":43.33768,"lon":5.37427,"is_reserved":false,"is_disabled":false,"rental_uris":{"android":"levelo://app?vid=5cfcac19-e885-4209-96ab-a70a0192b25a","ios":"levelo://app?vid=5cfcac19-e885-4209-96ab-a70a0192b25a"},"vehicle_type_id":"4","last_reported":1765905334,"current_range_meters":5600,"station_id":"","pricing_plan_id":"cebpf4jnsgd1na2vs0mg"},{"bike_id":"1de969ca-660f-4931-89a3-6c0682bb78e3","system_id":"levelo_inurba_marseille","lat":43.28461,"lon":5.35884,"is_reserved":false,"is_disabled":false,"rental_uris":{"android":"levelo://app?vid=1de969ca-660f-4931-89a3-6c0682bb78e3","ios":"levelo://app?vid=1de969ca-660f-4931-89a3-6c0682bb78e3"},"vehicle_type_id":"4","last_reported":1765905334,"current_range_meters":5600,"station_id":"ce4bhah2rcd13ifvqei0","pricing_plan_id":"cebpf4jnsgd1na2vs0mg"},{"bike_id":"05163ec5-df2e-400d-a0db-5ffb3e4d281e","system_id":"levelo_inurba_marseille","lat":43.283428,"lon":5.381086,"is_reserved":false,"is_disabled":false,"rental_uris":{"android":"levelo://app?vid=05163ec5-df2e-400d-a0db-5ffb3e4d281e","ios":"levelo://app?vid=05163ec5-df2e-400d-a0db-5ffb3e4d281e"},"vehicle_type_id":"4","last_reported":1765905334,"current_range_meters":5600,"station_id":"ce4bhh92rcd13ifvqfi0","pricing_plan_id":"cebpf4jnsgd1na2vs0mg"},{"bike_id":"d2824214-3abf-43c6-9175-15082714a100","system_id":"levelo_inurba_marseille","lat":43.29912,"lon":5.38154,"is_reserved":false,"is_disabled":false,"rental_uris":{"android":"levelo://app?vid=d2824214-3abf-43c6-9175-15082714a100","ios":"levelo://app?vid=d2824214-3abf-43c6-9175-15082714a100"},"vehicle_type_id":"4","last_reported":1765905334,"current_range_meters":6000,"station_id":"ce4bgj12rcd13ifvqbc0","pricing_plan_id":"cebpf4jnsgd1na2vs0mg"},{"bike_id":"0300703c-eb70-486d-8dcb-3ab8dd70d6cc","system_id":"levelo_inurba_marseille","lat":43.28536,"lon":5.44104,"is_reserved":false,"is_disabled":false,"rental_uris":{"android":"levelo://app?vid=0300703c-eb70-486d-8dcb-3ab8dd70d6cc","ios":"levelo://app?vid=0300703c-eb70-486d-8dcb-3ab8dd70d6cc"},"vehicle_type_id":"4","last_reported":1765905334,"current_range_meters":6000,"station_id":"st_d3j3df2ikq2c7380ej80","pricing_plan_id":"cebpf4jnsgd1na2vs0mg"},{"bike_id":"aac3a556-eab0-4156-bc9c-29564664e6f5","system_id":"levelo_inurba_marseille","lat":43.337725,"lon":5.374316,"is_reserved":false,"is_disabled":false,"rental_uris":{"android":"levelo://app?vid=aac3a556-eab0-4156-bc9c-29564664e6f5","ios":"levelo://app?vid=aac3a556-eab0-4156-bc9c-29564664e6f5"},"vehicle_type_id":"4","last_reported":1765905334,"current_range_meters":6000,"station_id":"","pricing_plan_id":"cebpf4jnsgd1na2vs0mg"},{"bike_id":"b5d63cab-7292-4c85-8075-cef67fadeb9d","system_id":"levelo_inurba_marseille","lat":43.28486,"lon":5.48382,"is_reserved":false,"is_disabled":false,"rental_uris":{"android":"levelo://app?vid=b5d63cab-7292-4c85-8075-cef67fadeb9d","ios":"levelo://app?vid=b5d63cab-7292-4c85-8075-cef67fadeb9d"},"vehicle_type_id":"4","last_reported":1765905334,"current_range_meters":6000,"station_id":"st_d3svhcjqgbts73a3dn0g","pricing_plan_id":"cebpf4jnsgd1na2vs0mg"},{"bike_id":"a613a717-96a3-4acb-9729-59a3a8cc0b12","system_id":"levelo_inurba_marseille","lat":43.28664,"lon":5.36345,"is_reserved":false,"is_disabled":false,"rental_uris":{"android":"levelo://app?vid=a613a717-96a3-4acb-9729-59a3a8cc0b12","ios":"levelo://app?vid=a613a717-96a3-4acb-9729-59a3a8cc0b12"},"vehicle_type_id":"4","last_reported":1765905334,"current_range_meters":6000,"station_id":"ce4bhah2rcd13ifvqej0","pricing_plan_id":"cebpf4jnsgd1na2vs0mg"},{"bike_id":"0224f08a-bd8a-4dcc-9ae0-e6df47d6d7f2","system_id":"levelo_inurba_marseille","lat":43.337444,"lon":5.374475,"is_reserved":false,"is_disabled":false,"rental_uris":{"android":"levelo://app?vid=0224f08a-bd8a-4dcc-9ae0-e6df47d6d7f2","ios":"levelo://app?vid=0224f08a-bd8a-4dcc-9ae0-e6df47d6d7f2"},"vehicle_type_id":"4","last_reported":1765905334,"current_range_meters":6000,"station_id":"","pricing_plan_id":"cebpf4jnsgd1na2vs0mg"},{"bike_id":"66e72652-43cb-4e4d-a18a-409505be96d1","system_id":"levelo_inurba_marseille","lat":43.30112,"lon":5.37779,"is_reserved":false,"is_disabled":false,"rental_uris":{"android":"levelo://app?vid=66e72652-43cb-4e4d-a18a-409505be96d1","ios":"levelo://app?vid=66e72652-43cb-4e4d-a18a-409505be96d1"},"vehicle_type_id":"4","last_reported":1765905334,"current_range_meters":6400,"station_id":"","pricing_plan_id":"cebpf4jnsgd1na2vs0mg"},{"bike_id":"d3c83fe0-d981-40bd-809a-723ce3ba3f18","system_id":"levelo_inurba_marseille","lat":43.31564,"lon":5.3667,"is_reserved":false,"is_disabled":false,"rental_uris":{"android":"levelo://app?vid=d3c83fe0-d981-40bd-809a-723ce3ba3f18","ios":"levelo://app?vid=d3c83fe0-d981-40bd-809a-723ce3ba3f18"},"vehicle_type_id":"4","last_reported":1765905334,"current_range_meters":6400,"station_id":"","pricing_plan_id":"cebpf4jnsgd1na2vs0mg"},{"bike_id":"b619e79e-7985-4a28-9d70-8757c91c23fc","system_id":"levelo_inurba_marseille","lat":43.29817,"lon":5.44063,"is_reserved":false,"is_disabled":false,"rental_uris":{"android":"levelo://app?vid=b619e79e-7985-4a28-9d70-8757c91c23fc","ios":"levelo://app?vid=b619e79e-7985-4a28-9d70-8757c91c23fc"},"vehicle_type_id":"4","last_reported":1765905334,"current_range_meters":6400,"station_id":"st_d3jp68qikq2c7381ktn0","pricing_plan_id":"cebpf4jnsgd1na2vs0mg"},{"bike_id":"b81a0b7a-02f4-470c-9117-cd21db29d5e9","system_id":"levelo_inurba_marseille","lat":43.29612,"lon":5.37692,"is_reserved":false,"is_disabled":false,"rental_uris":{"android":"levelo://app?vid=b81a0b7a-02f4-470c-9117-cd21db29d5e9","ios":"levelo://app?vid=b81a0b7a-02f4-470c-9117-cd21db29d5e9"},"vehicle_type_id":"4","last_reported":1765905334,"current_range_meters":6800,"station_id":"ce4bgi92rcd13ifvqb90","pricing_plan_id":"cebpf4jnsgd1na2vs0mg"},{"bike_id":"9e4dd912-a97f-43b3-8aaf-19452fba5cd3","system_id":"levelo_inurba_marseille","lat":43.2917,"lon":5.37156,"is_reserved":false,"is_disabled":false,"rental_uris":{"android":"levelo://app?vid=9e4dd912-a97f-43b3-8aaf-19452fba5cd3","ios":"levelo://app?vid=9e4dd912-a97f-43b3-8aaf-19452fba5cd3"},"vehicle_type_id":"4","last_reported":1765905334,"current_range_meters":6800,"station_id":"ce4bha92rcd13ifvqeh0","pricing_plan_id":"cebpf4jnsgd1na2vs0mg"},{"bike_id":"966ee9b8-6cc6-4ddb-a687-fdc2139f50ef","system_id":"levelo_inurba_marseille","lat":43.288567,"lon":5.358491,"is_reserved":false,"is_disabled":false,"rental_uris":{"android":"levelo://app?vid=966ee9b8-6cc6-4ddb-a687-fdc2139f50ef","ios":"levelo://app?vid=966ee9b8-6cc6-4ddb-a687-fdc2139f50ef"},"vehicle_type_id":"4","last_reported":1765905334,"current_range_meters":6800,"station_id":"ce4bhb12rcd13ifvqem0","pricing_plan_id":"cebpf4jnsgd1na2vs0mg"},{"bike_id":"48a6e230-e450-44fa-a3dc-bcee340cd370","system_id":"levelo_inurba_marseille","lat":43.28153,"lon":5.42642,"is_reserved":false,"is_disabled":false,"rental_uris":{"android":"levelo://app?vid=48a6e230-e450-44fa-a3dc-bcee340cd370","ios":"levelo://app?vid=48a6e230-e450-44fa-a3dc-bcee340cd370"},"vehicle_type_id":"4","last_reported":1765905334,"current_range_meters":6800,"station_id":"ce4bhnh2rcd13ifvqgug","pricing_plan_id":"cebpf4jnsgd1na2vs0mg"},{"bike_id":"0e49c737-64fa-42df-b477-b17639740d5d","system_id":"levelo_inurba_marseille","lat":43.2119,"lon":5.35073,"is_reserved":false,"is_disabled":false,"rental_uris":{"android":"levelo://app?vid=0e49c737-64fa-42df-b477-b17639740d5d","ios":"levelo://app?vid=0e49c737-64fa-42df-b477-b17639740d5d"},"vehicle_type_id":"4","last_reported":1765905334,"current_range_meters":6800,"station_id":"","pricing_plan_id":"cebpf4jnsgd1na2vs0mg"},{"bike_id":"14d178f6-1213-4847-93c9-179ecd4554c3","system_id":"levelo_inurba_marseille","lat":43.2815,"lon":5.42644,"is_reserved":false,"is_disabled":false,"rental_uris":{"android":"levelo://app?vid=14d178f6-1213-4847-93c9-179ecd4554c3","ios":"levelo://app?vid=14d178f6-1213-4847-93c9-179ecd4554c3"},"vehicle_type_id":"4","last_reported":1765905334,"current_range_meters":7200,"station_id":"ce4bhnh2rcd13ifvqgug","pricing_plan_id":"cebpf4jnsgd1na2vs0mg"},{"bike_id":"8b4ec205-81bb-4fe4-a25a-8d4a5ee131ee","system_id":"levelo_inurba_marseille","lat":43.2481,"lon":5.374611,"is_reserved":false,"is_disabled":false,"rental_uris":{"android":"levelo://app?vid=8b4ec205-81bb-4fe4-a25a-8d4a5ee131ee","ios":"levelo://app?vid=8b4ec205-81bb-4fe4-a25a-8d4a5ee131ee"},"vehicle_type_id":"4","last_reported":1765905334,"current_range_meters":7200,"station_id":"ce4bh0p2rcd13ifvqd70","pricing_plan_id":"cebpf4jnsgd1na2vs0mg"},{"bike_id":"dcf86aea-2e35-4fc9-b06f-cfd052d91d73","system_id":"levelo_inurba_marseille","lat":43.21191,"lon":5.35076,"is_reserved":false,"is_disabled":false,"rental_uris":{"android":"levelo://app?vid=dcf86aea-2e35-4fc9-b06f-cfd052d91d73","ios":"levelo://app?vid=dcf86aea-2e35-4fc9-b06f-cfd052d91d73"},"vehicle_type_id":"4","last_reported":1765905334,"current_range_meters":7200,"station_id":"st_cvj6sg6p6f1abm77japg","pricing_plan_id":"cebpf4jnsgd1na2vs0mg"},{"bike_id":"5e7e082d-c949-4efd-b442-be6d0cf3943e","system_id":"levelo_inurba_marseille","lat":43.24539,"lon":5.39999,"is_reserved":false,"is_disabled":false,"rental_uris":{"android":"levelo://app?vid=5e7e082d-c949-4efd-b442-be6d0cf3943e","ios":"levelo://app?vid=5e7e082d-c949-4efd-b442-be6d0cf3943e"},"vehicle_type_id":"4","last_reported":1765905334,"current_range_meters":7200,"station_id":"","pricing_plan_id":"cebpf4jnsgd1na2vs0mg"},{"bike_id":"e080d691-4951-43e9-9ffd-9277319373bb","system_id":"levelo_inurba_marseille","lat":43.316035,"lon":5.379218,"is_reserved":false,"is_disabled":false,"rental_uris":{"android":"levelo://app?vid=e080d691-4951-43e9-9ffd-9277319373bb","ios":"levelo://app?vid=e080d691-4951-43e9-9ffd-9277319373bb"},"vehicle_type_id":"4","last_reported":1765905334,"current_range_meters":7200,"station_id":"","pricing_plan_id":"cebpf4jnsgd1na2vs0mg"},{"bike_id":"559f2688-429d-47c2-bc34-d534672abaf5","system_id":"levelo_inurba_marseille","lat":43.28729,"lon":5.37952,"is_reserved":false,"is_disabled":false,"rental_uris":{"android":"levelo://app?vid=559f2688-429d-47c2-bc34-d534672abaf5","ios":"levelo://app?vid=559f2688-429d-47c2-bc34-d534672abaf5"},"vehicle_type_id":"4","last_reported":1765905334,"current_range_meters":7200,"station_id":"ce4bh9p2rcd13ifvqec0","pricing_plan_id":"cebpf4jnsgd1na2vs0mg"},{"bike_id":"9916aee8-38ee-4718-8ab5-188be146fb87","system_id":"levelo_inurba_marseille","lat":43.30117,"lon":5.36492,"is_reserved":false,"is_disabled":false,"rental_uris":{"android":"levelo://app?vid=9916aee8-38ee-4718-8ab5-188be146fb87","ios":"levelo://app?vid=9916aee8-38ee-4718-8ab5-188be146fb87"},"vehicle_type_id":"4","last_reported":1765905334,"current_range_meters":7200,"station_id":"","pricing_plan_id":"cebpf4jnsgd1na2vs0mg"},{"bike_id":"7c36070f-bddc-40ed-a333-875a2d58c60c","system_id":"levelo_inurba_marseille","lat":43.26507,"lon":5.39436,"is_reserved":false,"is_disabled":false,"rental_uris":{"android":"levelo://app?vid=7c36070f-bddc-40ed-a333-875a2d58c60c","ios":"levelo://app?vid=7c36070f-bddc-40ed-a333-875a2d58c60c"},"vehicle_type_id":"4","last_reported":1765905334,"current_range_meters":7200,"station_id":"","pricing_plan_id":"cebpf4jnsgd1na2vs0mg"},{"bike_id":"4e6b3c9a-0d64-4429-9baf-20868e591e41","system_id":"levelo_inurba_marseille","lat":43.2861,"lon":5.39868,"is_reserved":false,"is_disabled":false,"rental_uris":{"android":"levelo://app?vid=4e6b3c9a-0d64-4429-9baf-20868e591e41","ios":"levelo://app?vid=4e6b3c9a-0d64-4429-9baf-20868e591e41"},"vehicle_type_id":"4","last_reported":1765905334,"current_range_meters":8000,"station_id":"st_d4a7ka997mjs738ck50g","pricing_plan_id":"cebpf4jnsgd1na2vs0mg"},{"bike_id":"16fae092-02ae-4d6e-b01e-74cb2da3b295","system_id":"levelo_inurba_marseille","lat":43.23153,"lon":5.43701,"is_reserved":false,"is_disabled":false,"rental_uris":{"android":"levelo://app?vid=16fae092-02ae-4d6e-b01e-74cb2da3b295","ios":"levelo://app?vid=16fae092-02ae-4d6e-b01e-74cb2da3b295"},"vehicle_type_id":"4","last_reported":1765905334,"current_range_meters":8000,"station_id":"ce4bhmp2rcd13ifvqgog","pricing_plan_id":"cebpf4jnsgd1na2vs0mg"},{"bike_id":"9c50bbdd-84c0-4eaa-ae31-ee7d09cb554b","system_id":"levelo_inurba_marseille","lat":43.23778,"lon":5.36641,"is_reserved":false,"is_disabled":false,"rental_uris":{"android":"levelo://app?vid=9c50bbdd-84c0-4eaa-ae31-ee7d09cb554b","ios":"levelo://app?vid=9c50bbdd-84c0-4eaa-ae31-ee7d09cb554b"},"vehicle_type_id":"4","last_reported":1765905334,"current_range_meters":8000,"station_id":"st_d3nk18o9ro0c73en2l3g","pricing_plan_id":"cebpf4jnsgd1na2vs0mg"},{"bike_id":"a0250cd9-047b-4dcb-96a7-b1959783fdaf","system_id":"levelo_inurba_marseille","lat":43.33739,"lon":5.37424,"is_reserved":false,"is_disabled":false,"rental_uris":{"android":"levelo://app?vid=a0250cd9-047b-4dcb-96a7-b1959783fdaf","ios":"levelo://app?vid=a0250cd9-047b-4dcb-96a7-b1959783fdaf"},"vehicle_type_id":"4","last_reported":1765905334,"current_range_meters":8000,"station_id":"","pricing_plan_id":"cebpf4jnsgd1na2vs0mg"},{"bike_id":"ae7030ab-2ef4-43fe-969b-2771e6ce928f","system_id":"levelo_inurba_marseille","lat":43.28001,"lon":5.41656,"is_reserved":false,"is_disabled":false,"rental_uris":{"android":"levelo://app?vid=ae7030ab-2ef4-43fe-969b-2771e6ce928f","ios":"levelo://app?vid=ae7030ab-2ef4-43fe-969b-2771e6ce928f"},"vehicle_type_id":"4","last_reported":1765905334,"current_range_meters":8000,"station_id":"ce4bho12rcd13ifvqh1g","pricing_plan_id":"cebpf4jnsgd1na2vs0mg"},{"bike_id":"7f405358-7499-46b4-a486-b3649db67178","system_id":"levelo_inurba_marseille","lat":43.267848,"lon":5.395158,"is_reserved":false,"is_disabled":false,"rental_uris":{"android":"levelo://app?vid=7f405358-7499-46b4-a486-b3649db67178","ios":"levelo://app?vid=7f405358-7499-46b4-a486-b3649db67178"},"vehicle_type_id":"4","last_reported":1765905334,"current_range_meters":8000,"station_id":"ce4bhh12rcd13ifvqfg0","pricing_plan_id":"cebpf4jnsgd1na2vs0mg"},{"bike_id":"82e637bb-058b-4bf2-9ea3-310d36ef8181","system_id":"levelo_inurba_marseille","lat":43.28149,"lon":5.42646,"is_reserved":false,"is_disabled":false,"rental_uris":{"android":"levelo://app?vid=82e637bb-058b-4bf2-9ea3-310d36ef8181","ios":"levelo://app?vid=82e637bb-058b-4bf2-9ea3-310d36ef8181"},"vehicle_type_id":"4","last_reported":1765905334,"current_range_meters":8000,"station_id":"ce4bhnh2rcd13ifvqgug","pricing_plan_id":"cebpf4jnsgd1na2vs0mg"},{"bike_id":"0d50a869-2f57-4541-a2ea-5d91ec2f8945","system_id":"levelo_inurba_marseille","lat":43.301369,"lon":5.387783,"is_reserved":false,"is_disabled":false,"rental_uris":{"android":"levelo://app?vid=0d50a869-2f57-4541-a2ea-5d91ec2f8945","ios":"levelo://app?vid=0d50a869-2f57-4541-a2ea-5d91ec2f8945"},"vehicle_type_id":"4","last_reported":1765905334,"current_range_meters":8000,"station_id":"ce4bghh2rcd13ifvqb60","pricing_plan_id":"cebpf4jnsgd1na2vs0mg"},{"bike_id":"a4aee318-5efc-4e15-abf7-943f61584d47","system_id":"levelo_inurba_marseille","lat":43.29275,"lon":5.38375,"is_reserved":false,"is_disabled":false,"rental_uris":{"android":"levelo://app?vid=a4aee318-5efc-4e15-abf7-943f61584d47","ios":"levelo://app?vid=a4aee318-5efc-4e15-abf7-943f61584d47"},"vehicle_type_id":"4","last_reported":1765905334,"current_range_meters":8000,"station_id":"ce4bh692rcd13ifvqea0","pricing_plan_id":"cebpf4jnsgd1na2vs0mg"},{"bike_id":"f9e14766-119a-4cc9-814a-3510e7849c5d","system_id":"levelo_inurba_marseille","lat":43.2848,"lon":5.48387,"is_reserved":false,"is_disabled":false,"rental_uris":{"android":"levelo://app?vid=f9e14766-119a-4cc9-814a-3510e7849c5d","ios":"levelo://app?vid=f9e14766-119a-4cc9-814a-3510e7849c5d"},"vehicle_type_id":"4","last_reported":1765905334,"current_range_meters":8000,"station_id":"st_d3svhcjqgbts73a3dn0g","pricing_plan_id":"cebpf4jnsgd1na2vs0mg"},{"bike_id":"850184bc-d4cf-4521-b35e-4473cd72a028","system_id":"levelo_inurba_marseille","lat":43.29089,"lon":5.38121,"is_reserved":false,"is_disabled":false,"rental_uris":{"android":"levelo://app?vid=850184bc-d4cf-4521-b35e-4473cd72a028","ios":"levelo://app?vid=850184bc-d4cf-4521-b35e-4473cd72a028"},"vehicle_type_id":"4","last_reported":1765905334,"current_range_meters":8400,"station_id":"","pricing_plan_id":"cebpf4jnsgd1na2vs0mg"},{"bike_id":"cebaf77e-1099-40d7-b9cd-0dba43cce68b","system_id":"levelo_inurba_marseille","lat":43.30332,"lon":5.40419,"is_reserved":false,"is_disabled":false,"rental_uris":{"android":"levelo://app?vid=cebaf77e-1099-40d7-b9cd-0dba43cce68b","ios":"levelo://app?vid=cebaf77e-1099-40d7-b9cd-0dba43cce68b"},"vehicle_type_id":"4","last_reported":1765905334,"current_range_meters":8400,"station_id":"ce4bh012rcd13ifvqd10","pricing_plan_id":"cebpf4jnsgd1na2vs0mg"},{"bike_id":"a59fef70-c689-483c-8d85-5fd358f8f5fe","system_id":"levelo_inurba_marseille","lat":43.2846,"lon":5.38752,"is_reserved":false,"is_disabled":false,"rental_uris":{"android":"levelo://app?vid=a59fef70-c689-483c-8d85-5fd358f8f5fe","ios":"levelo://app?vid=a59fef70-c689-483c-8d85-5fd358f8f5fe"},"vehicle_type_id":"4","last_reported":1765905334,"current_range_meters":8800,"station_id":"","pricing_plan_id":"cebpf4jnsgd1na2vs0mg"},{"bike_id":"b91f029e-a2ef-4475-b7d7-00ea5c223a70","system_id":"levelo_inurba_marseille","lat":43.30326,"lon":5.40429,"is_reserved":false,"is_disabled":false,"rental_uris":{"android":"levelo://app?vid=b91f029e-a2ef-4475-b7d7-00ea5c223a70","ios":"levelo://app?vid=b91f029e-a2ef-4475-b7d7-00ea5c223a70"},"vehicle_type_id":"4","last_reported":1765905334,"current_range_meters":8800,"station_id":"ce4bh012rcd13ifvqd10","pricing_plan_id":"cebpf4jnsgd1na2vs0mg"},{"bike_id":"5aedbbdb-5d44-48ce-b102-316ef9b1bff5","system_id":"levelo_inurba_marseille","lat":43.2655,"lon":5.37288,"is_reserved":false,"is_disabled":false,"rental_uris":{"android":"levelo://app?vid=5aedbbdb-5d44-48ce-b102-316ef9b1bff5","ios":"levelo://app?vid=5aedbbdb-5d44-48ce-b102-316ef9b1bff5"},"vehicle_type_id":"4","last_reported":1765905334,"current_range_meters":8800,"station_id":"ce4bhg12rcd13ifvqf70","pricing_plan_id":"cebpf4jnsgd1na2vs0mg"},{"bike_id":"e3c3671f-5679-4d91-8c2d-7b0529a7a190","system_id":"levelo_inurba_marseille","lat":43.29634,"lon":5.40597,"is_reserved":false,"is_disabled":false,"rental_uris":{"android":"levelo://app?vid=e3c3671f-5679-4d91-8c2d-7b0529a7a190","ios":"levelo://app?vid=e3c3671f-5679-4d91-8c2d-7b0529a7a190"},"vehicle_type_id":"4","last_reported":1765905334,"current_range_meters":8800,"station_id":"ce4bh0h2rcd13ifvqd60","pricing_plan_id":"cebpf4jnsgd1na2vs0mg"},{"bike_id":"cb220af6-3384-4e68-a547-6711940974c5","system_id":"levelo_inurba_marseille","lat":43.26214,"lon":5.37429,"is_reserved":false,"is_disabled":false,"rental_uris":{"android":"levelo://app?vid=cb220af6-3384-4e68-a547-6711940974c5","ios":"levelo://app?vid=cb220af6-3384-4e68-a547-6711940974c5"},"vehicle_type_id":"4","last_reported":1765905334,"current_range_meters":8800,"station_id":"ce4bhgp2rcd13ifvqfc0","pricing_plan_id":"cebpf4jnsgd1na2vs0mg"},{"bike_id":"8d712679-a7fb-4bab-9d7c-efd2ec62250a","system_id":"levelo_inurba_marseille","lat":43.28928,"lon":5.36389,"is_reserved":false,"is_disabled":false,"rental_uris":{"android":"levelo://app?vid=8d712679-a7fb-4bab-9d7c-efd2ec62250a","ios":"levelo://app?vid=8d712679-a7fb-4bab-9d7c-efd2ec62250a"},"vehicle_type_id":"4","last_reported":1765905334,"current_range_meters":8800,"station_id":"ce4bhc92rcd13ifvqetg","pricing_plan_id":"cebpf4jnsgd1na2vs0mg"},{"bike_id":"0a112413-49dd-493c-81e5-70e85e975d67","system_id":"levelo_inurba_marseille","lat":43.266762,"lon":5.382647,"is_reserved":false,"is_disabled":false,"rental_uris":{"android":"levelo://app?vid=0a112413-49dd-493c-81e5-70e85e975d67","ios":"levelo://app?vid=0a112413-49dd-493c-81e5-70e85e975d67"},"vehicle_type_id":"4","last_reported":1765905334,"current_range_meters":8800,"station_id":"ce4bhg92rcd13ifvqf90","pricing_plan_id":"cebpf4jnsgd1na2vs0mg"},{"bike_id":"ce0bf138-ff78-49b4-af86-2f9a0041a17f","system_id":"levelo_inurba_marseille","lat":43.27915,"lon":5.3957,"is_reserved":false,"is_disabled":false,"rental_uris":{"android":"levelo://app?vid=ce0bf138-ff78-49b4-af86-2f9a0041a17f","ios":"levelo://app?vid=ce0bf138-ff78-49b4-af86-2f9a0041a17f"},"vehicle_type_id":"4","last_reported":1765905334,"current_range_meters":9200,"station_id":"ce4bhf92rcd13ifvqf40","pricing_plan_id":"cebpf4jnsgd1na2vs0mg"},{"bike_id":"7a3e6838-9d3e-4c76-bcee-bdbba33b8ca3","system_id":"levelo_inurba_marseille","lat":43.28483,"lon":5.48399,"is_reserved":false,"is_disabled":false,"rental_uris":{"android":"levelo://app?vid=7a3e6838-9d3e-4c76-bcee-bdbba33b8ca3","ios":"levelo://app?vid=7a3e6838-9d3e-4c76-bcee-bdbba33b8ca3"},"vehicle_type_id":"4","last_reported":1765905334,"current_range_meters":9200,"station_id":"st_d3svhcjqgbts73a3dn0g","pricing_plan_id":"cebpf4jnsgd1na2vs0mg"},{"bike_id":"75c8558a-d30e-4b7f-9f3a-41f78715b89f","system_id":"levelo_inurba_marseille","lat":43.26494,"lon":5.39542,"is_reserved":false,"is_disabled":false,"rental_uris":{"android":"levelo://app?vid=75c8558a-d30e-4b7f-9f3a-41f78715b89f","ios":"levelo://app?vid=75c8558a-d30e-4b7f-9f3a-41f78715b89f"},"vehicle_type_id":"4","last_reported":1765905334,"current_range_meters":9200,"station_id":"ce4bhi12rcd13ifvqfq0","pricing_plan_id":"cebpf4jnsgd1na2vs0mg"},{"bike_id":"cac87912-c676-4b2a-bd7b-433323e0f09c","system_id":"levelo_inurba_marseille","lat":43.28533,"lon":5.44099,"is_reserved":false,"is_disabled":false,"rental_uris":{"android":"levelo://app?vid=cac87912-c676-4b2a-bd7b-433323e0f09c","ios":"levelo://app?vid=cac87912-c676-4b2a-bd7b-433323e0f09c"},"vehicle_type_id":"4","last_reported":1765905334,"current_range_meters":9600,"station_id":"st_d3j3df2ikq2c7380ej80","pricing_plan_id":"cebpf4jnsgd1na2vs0mg"},{"bike_id":"187e95dd-1ca0-44dd-bfaf-b9ad8a869387","system_id":"levelo_inurba_marseille","lat":43.31432,"lon":5.37428,"is_reserved":false,"is_disabled":false,"rental_uris":{"android":"levelo://app?vid=187e95dd-1ca0-44dd-bfaf-b9ad8a869387","ios":"levelo://app?vid=187e95dd-1ca0-44dd-bfaf-b9ad8a869387"},"vehicle_type_id":"4","last_reported":1765905334,"current_range_meters":9600,"station_id":"","pricing_plan_id":"cebpf4jnsgd1na2vs0mg"},{"bike_id":"bdedb51b-c0c7-4e81-8046-2d1b2001a496","system_id":"levelo_inurba_marseille","lat":43.29536,"lon":5.38544,"is_reserved":false,"is_disabled":true,"rental_uris":{"android":"levelo://app?vid=bdedb51b-c0c7-4e81-8046-2d1b2001a496","ios":"levelo://app?vid=bdedb51b-c0c7-4e81-8046-2d1b2001a496"},"vehicle_type_id":"4","last_reported":1765905334,"current_range_meters":9600,"station_id":"ce4bgih2rcd13ifvqba0","pricing_plan_id":"cebpf4jnsgd1na2vs0mg"},{"bike_id":"9b173e86-3ede-4973-b8cb-b42ea2c91907","system_id":"levelo_inurba_marseille","lat":43.310213,"lon":5.393437,"is_reserved":false,"is_disabled":false,"rental_uris":{"android":"levelo://app?vid=9b173e86-3ede-4973-b8cb-b42ea2c91907","ios":"levelo://app?vid=9b173e86-3ede-4973-b8cb-b42ea2c91907"},"vehicle_type_id":"4","last_reported":1765905334,"current_range_meters":9600,"station_id":"","pricing_plan_id":"cebpf4jnsgd1na2vs0mg"},{"bike_id":"5f5e146e-f6a2-44ca-bb10-4f6726b38b35","system_id":"levelo_inurba_marseille","lat":43.3047,"lon":5.398756,"is_reserved":false,"is_disabled":false,"rental_uris":{"android":"levelo://app?vid=5f5e146e-f6a2-44ca-bb10-4f6726b38b35","ios":"levelo://app?vid=5f5e146e-f6a2-44ca-bb10-4f6726b38b35"},"vehicle_type_id":"4","last_reported":1765905334,"current_range_meters":9600,"station_id":"ce4bh112rcd13ifvqda0","pricing_plan_id":"cebpf4jnsgd1na2vs0mg"},{"bike_id":"de703928-a818-43ad-b2be-d85e3a5f72c8","system_id":"levelo_inurba_marseille","lat":43.28471,"lon":5.48405,"is_reserved":false,"is_disabled":false,"rental_uris":{"android":"levelo://app?vid=de703928-a818-43ad-b2be-d85e3a5f72c8","ios":"levelo://app?vid=de703928-a818-43ad-b2be-d85e3a5f72c8"},"vehicle_type_id":"4","last_reported":1765905334,"current_range_meters":9600,"station_id":"st_d3svhcjqgbts73a3dn0g","pricing_plan_id":"cebpf4jnsgd1na2vs0mg"},{"bike_id":"ba63d727-0bb0-4968-918c-07e0f5c5ff47","system_id":"levelo_inurba_marseille","lat":43.28685,"lon":5.38666,"is_reserved":false,"is_disabled":false,"rental_uris":{"android":"levelo://app?vid=ba63d727-0bb0-4968-918c-07e0f5c5ff47","ios":"levelo://app?vid=ba63d727-0bb0-4968-918c-07e0f5c5ff47"},"vehicle_type_id":"4","last_reported":1765905334,"current_range_meters":9600,"station_id":"ce4bh492rcd13ifvqdug","pricing_plan_id":"cebpf4jnsgd1na2vs0mg"},{"bike_id":"08e06d6d-9496-4403-b8a2-10349ecf84a3","system_id":"levelo_inurba_marseille","lat":43.30118,"lon":5.43131,"is_reserved":false,"is_disabled":false,"rental_uris":{"android":"levelo://app?vid=08e06d6d-9496-4403-b8a2-10349ecf84a3","ios":"levelo://app?vid=08e06d6d-9496-4403-b8a2-10349ecf84a3"},"vehicle_type_id":"4","last_reported":1765905334,"current_range_meters":10000,"station_id":"st_d3js3co5814s73ftftug","pricing_plan_id":"cebpf4jnsgd1na2vs0mg"},{"bike_id":"6df4c56c-c6f5-4fb1-84fc-9f50cb5ef178","system_id":"levelo_inurba_marseille","lat":43.23196,"lon":5.35554,"is_reserved":false,"is_disabled":true,"rental_uris":{"android":"levelo://app?vid=6df4c56c-c6f5-4fb1-84fc-9f50cb5ef178","ios":"levelo://app?vid=6df4c56c-c6f5-4fb1-84fc-9f50cb5ef178"},"vehicle_type_id":"4","last_reported":1765905334,"current_range_meters":10000,"station_id":"ce4bhu92rcd13ifvqi70","pricing_plan_id":"cebpf4jnsgd1na2vs0mg"},{"bike_id":"9f0f320a-9e34-4af8-8f6f-7a4152825910","system_id":"levelo_inurba_marseille","lat":43.30125,"lon":5.43103,"is_reserved":false,"is_disabled":false,"rental_uris":{"android":"levelo://app?vid=9f0f320a-9e34-4af8-8f6f-7a4152825910","ios":"levelo://app?vid=9f0f320a-9e34-4af8-8f6f-7a4152825910"},"vehicle_type_id":"4","last_reported":1765905334,"current_range_meters":10000,"station_id":"st_d3js3co5814s73ftftug","pricing_plan_id":"cebpf4jnsgd1na2vs0mg"},{"bike_id":"46b9da8e-600f-4b77-a964-111e9eafd3fa","system_id":"levelo_inurba_marseille","lat":43.26451,"lon":5.37367,"is_reserved":false,"is_disabled":false,"rental_uris":{"android":"levelo://app?vid=46b9da8e-600f-4b77-a964-111e9eafd3fa","ios":"levelo://app?vid=46b9da8e-600f-4b77-a964-111e9eafd3fa"},"vehicle_type_id":"4","last_reported":1765905334,"current_range_meters":10000,"station_id":"","pricing_plan_id":"cebpf4jnsgd1na2vs0mg"},{"bike_id":"892fb5cf-6b67-499f-b4bc-7ca512fa2668","system_id":"levelo_inurba_marseille","lat":43.27945,"lon":5.41048,"is_reserved":false,"is_disabled":false,"rental_uris":{"android":"levelo://app?vid=892fb5cf-6b67-499f-b4bc-7ca512fa2668","ios":"levelo://app?vid=892fb5cf-6b67-499f-b4bc-7ca512fa2668"},"vehicle_type_id":"4","last_reported":1765905334,"current_range_meters":10000,"station_id":"ce4bhnp2rcd13ifvqh0g","pricing_plan_id":"cebpf4jnsgd1na2vs0mg"},{"bike_id":"4f2c2ae9-cceb-4f6c-925d-23d363970b60","system_id":"levelo_inurba_marseille","lat":43.27608,"lon":5.36114,"is_reserved":false,"is_disabled":false,"rental_uris":{"android":"levelo://app?vid=4f2c2ae9-cceb-4f6c-925d-23d363970b60","ios":"levelo://app?vid=4f2c2ae9-cceb-4f6c-925d-23d363970b60"},"vehicle_type_id":"4","last_reported":1765905334,"current_range_meters":10000,"station_id":"ce4bgj92rcd13ifvqbe0","pricing_plan_id":"cebpf4jnsgd1na2vs0mg"},{"bike_id":"dbd4ee99-e250-413d-bdce-471d46749382","system_id":"levelo_inurba_marseille","lat":43.30558,"lon":5.36684,"is_reserved":false,"is_disabled":false,"rental_uris":{"android":"levelo://app?vid=dbd4ee99-e250-413d-bdce-471d46749382","ios":"levelo://app?vid=dbd4ee99-e250-413d-bdce-471d46749382"},"vehicle_type_id":"4","last_reported":1765905334,"current_range_meters":10000,"station_id":"ce4bgrp2rcd13ifvqc9g","pricing_plan_id":"cebpf4jnsgd1na2vs0mg"},{"bike_id":"5af242e8-7e04-4d52-adb3-be60671fad57","system_id":"levelo_inurba_marseille","lat":43.30144,"lon":5.43108,"is_reserved":false,"is_disabled":false,"rental_uris":{"android":"levelo://app?vid=5af242e8-7e04-4d52-adb3-be60671fad57","ios":"levelo://app?vid=5af242e8-7e04-4d52-adb3-be60671fad57"},"vehicle_type_id":"4","last_reported":1765905334,"current_range_meters":10000,"station_id":"st_d3js3co5814s73ftftug","pricing_plan_id":"cebpf4jnsgd1na2vs0mg"},{"bike_id":"469adce4-4005-46db-8078-121f20b4b7bd","system_id":"levelo_inurba_marseille","lat":43.28146,"lon":5.42654,"is_reserved":false,"is_disabled":false,"rental_uris":{"android":"levelo://app?vid=469adce4-4005-46db-8078-121f20b4b7bd","ios":"levelo://app?vid=469adce4-4005-46db-8078-121f20b4b7bd"},"vehicle_type_id":"4","last_reported":1765905334,"current_range_meters":10000,"station_id":"ce4bhnh2rcd13ifvqgug","pricing_plan_id":"cebpf4jnsgd1na2vs0mg"},{"bike_id":"c4099e76-a2f4-48a3-89a9-a2a40410a4f8","system_id":"levelo_inurba_marseille","lat":43.2983,"lon":5.44072,"is_reserved":false,"is_disabled":false,"rental_uris":{"android":"levelo://app?vid=c4099e76-a2f4-48a3-89a9-a2a40410a4f8","ios":"levelo://app?vid=c4099e76-a2f4-48a3-89a9-a2a40410a4f8"},"vehicle_type_id":"4","last_reported":1765905334,"current_range_meters":10000,"station_id":"","pricing_plan_id":"cebpf4jnsgd1na2vs0mg"},{"bike_id":"ae7f323e-34dc-4130-baaf-dab8d8213b63","system_id":"levelo_inurba_marseille","lat":43.287174,"lon":5.360799,"is_reserved":false,"is_disabled":false,"rental_uris":{"android":"levelo://app?vid=ae7f323e-34dc-4130-baaf-dab8d8213b63","ios":"levelo://app?vid=ae7f323e-34dc-4130-baaf-dab8d8213b63"},"vehicle_type_id":"4","last_reported":1765905334,"current_range_meters":10800,"station_id":"cki0cbj6b192h4jlfktg","pricing_plan_id":"cebpf4jnsgd1na2vs0mg"},{"bike_id":"fd7fe341-e9e1-43e0-9282-b94a778a6675","system_id":"levelo_inurba_marseille","lat":43.337444,"lon":5.374475,"is_reserved":false,"is_disabled":false,"rental_uris":{"android":"levelo://app?vid=fd7fe341-e9e1-43e0-9282-b94a778a6675","ios":"levelo://app?vid=fd7fe341-e9e1-43e0-9282-b94a778a6675"},"vehicle_type_id":"4","last_reported":1765905334,"current_range_meters":10800,"station_id":"","pricing_plan_id":"cebpf4jnsgd1na2vs0mg"},{"bike_id":"f0607238-9fab-432e-a6c6-c5acd6257feb","system_id":"levelo_inurba_marseille","lat":43.30353,"lon":5.39294,"is_reserved":false,"is_disabled":true,"rental_uris":{"android":"levelo://app?vid=f0607238-9fab-432e-a6c6-c5acd6257feb","ios":"levelo://app?vid=f0607238-9fab-432e-a6c6-c5acd6257feb"},"vehicle_type_id":"4","last_reported":1765905334,"current_range_meters":10800,"station_id":"","pricing_plan_id":"cebpf4jnsgd1na2vs0mg"},{"bike_id":"5f09d180-0bd0-4d7d-8a15-8e4bf90acbf6","system_id":"levelo_inurba_marseille","lat":43.307473,"lon":5.42442,"is_reserved":false,"is_disabled":false,"rental_uris":{"android":"levelo://app?vid=5f09d180-0bd0-4d7d-8a15-8e4bf90acbf6","ios":"levelo://app?vid=5f09d180-0bd0-4d7d-8a15-8e4bf90acbf6"},"vehicle_type_id":"4","last_reported":1765905334,"current_range_meters":10800,"station_id":"st_cvj6ca6bvosntc0bfgr0","pricing_plan_id":"cebpf4jnsgd1na2vs0mg"},{"bike_id":"c2dbecdc-0ef9-48e5-a6d6-1106c2dfe04a","system_id":"levelo_inurba_marseille","lat":43.274902,"lon":5.424391,"is_reserved":false,"is_disabled":false,"rental_uris":{"android":"levelo://app?vid=c2dbecdc-0ef9-48e5-a6d6-1106c2dfe04a","ios":"levelo://app?vid=c2dbecdc-0ef9-48e5-a6d6-1106c2dfe04a"},"vehicle_type_id":"4","last_reported":1765905334,"current_range_meters":10800,"station_id":"ce4bhn92rcd13ifvqgrg","pricing_plan_id":"cebpf4jnsgd1na2vs0mg"},{"bike_id":"f5d9a9b3-558f-4d87-a4a3-2e93dcd5a3b9","system_id":"levelo_inurba_marseille","lat":43.28486,"lon":5.48388,"is_reserved":false,"is_disabled":false,"rental_uris":{"android":"levelo://app?vid=f5d9a9b3-558f-4d87-a4a3-2e93dcd5a3b9","ios":"levelo://app?vid=f5d9a9b3-558f-4d87-a4a3-2e93dcd5a3b9"},"vehicle_type_id":"4","last_reported":1765905334,"current_range_meters":10800,"station_id":"st_d3svhcjqgbts73a3dn0g","pricing_plan_id":"cebpf4jnsgd1na2vs0mg"},{"bike_id":"4c546835-c3c6-4a98-b5da-d36afe2b1210","system_id":"levelo_inurba_marseille","lat":43.32058,"lon":5.41542,"is_reserved":false,"is_disabled":false,"rental_uris":{"android":"levelo://app?vid=4c546835-c3c6-4a98-b5da-d36afe2b1210","ios":"levelo://app?vid=4c546835-c3c6-4a98-b5da-d36afe2b1210"},"vehicle_type_id":"4","last_reported":1765905334,"current_range_meters":10800,"station_id":"ce4bhq92rcd13ifvqhkg","pricing_plan_id":"cebpf4jnsgd1na2vs0mg"},{"bike_id":"516b3289-2209-47cd-8852-dcc2c8e7a52a","system_id":"levelo_inurba_marseille","lat":43.28657,"lon":5.36358,"is_reserved":false,"is_disabled":false,"rental_uris":{"android":"levelo://app?vid=516b3289-2209-47cd-8852-dcc2c8e7a52a","ios":"levelo://app?vid=516b3289-2209-47cd-8852-dcc2c8e7a52a"},"vehicle_type_id":"4","last_reported":1765905334,"current_range_meters":10800,"station_id":"ce4bhah2rcd13ifvqej0","pricing_plan_id":"cebpf4jnsgd1na2vs0mg"},{"bike_id":"e1b2c0b1-913d-4fb7-a799-7d190a1ad5e0","system_id":"levelo_inurba_marseille","lat":43.29684,"lon":5.37282,"is_reserved":false,"is_disabled":false,"rental_uris":{"android":"levelo://app?vid=e1b2c0b1-913d-4fb7-a799-7d190a1ad5e0","ios":"levelo://app?vid=e1b2c0b1-913d-4fb7-a799-7d190a1ad5e0"},"vehicle_type_id":"4","last_reported":1765905334,"current_range_meters":10800,"station_id":"ce4bgk12rcd13ifvqbj0","pricing_plan_id":"cebpf4jnsgd1na2vs0mg"},{"bike_id":"b959cc19-b00a-4f78-bf9b-f737abeb0c3b","system_id":"levelo_inurba_marseille","lat":43.29465,"lon":5.38297,"is_reserved":false,"is_disabled":false,"rental_uris":{"android":"levelo://app?vid=b959cc19-b00a-4f78-bf9b-f737abeb0c3b","ios":"levelo://app?vid=b959cc19-b00a-4f78-bf9b-f737abeb0c3b"},"vehicle_type_id":"4","last_reported":1765905334,"current_range_meters":10800,"station_id":"","pricing_plan_id":"cebpf4jnsgd1na2vs0mg"},{"bike_id":"e3000209-1574-4c5d-80ff-67e8bb27ee44","system_id":"levelo_inurba_marseille","lat":43.26566,"lon":5.39012,"is_reserved":false,"is_disabled":false,"rental_uris":{"android":"levelo://app?vid=e3000209-1574-4c5d-80ff-67e8bb27ee44","ios":"levelo://app?vid=e3000209-1574-4c5d-80ff-67e8bb27ee44"},"vehicle_type_id":"4","last_reported":1765905334,"current_range_meters":11200,"station_id":"ce4bhe12rcd13ifvqf30","pricing_plan_id":"cebpf4jnsgd1na2vs0mg"},{"bike_id":"47fe3e79-aab6-4e8f-b1d6-0e4abaf0f630","system_id":"levelo_inurba_marseille","lat":43.286609,"lon":5.363502,"is_reserved":false,"is_disabled":false,"rental_uris":{"android":"levelo://app?vid=47fe3e79-aab6-4e8f-b1d6-0e4abaf0f630","ios":"levelo://app?vid=47fe3e79-aab6-4e8f-b1d6-0e4abaf0f630"},"vehicle_type_id":"4","last_reported":1765905334,"current_range_meters":11200,"station_id":"","pricing_plan_id":"cebpf4jnsgd1na2vs0mg"},{"bike_id":"dc9b6e3f-8e79-47b2-8319-e45dd942c044","system_id":"levelo_inurba_marseille","lat":43.29563,"lon":5.37521,"is_reserved":false,"is_disabled":false,"rental_uris":{"android":"levelo://app?vid=dc9b6e3f-8e79-47b2-8319-e45dd942c044","ios":"levelo://app?vid=dc9b6e3f-8e79-47b2-8319-e45dd942c044"},"vehicle_type_id":"4","last_reported":1765905334,"current_range_meters":11200,"station_id":"ce4bgh92rcd13ifvqb50","pricing_plan_id":"cebpf4jnsgd1na2vs0mg"},{"bike_id":"d1246ca9-e144-40ce-b023-1b8ac3185da6","system_id":"levelo_inurba_marseille","lat":43.25113,"lon":5.40323,"is_reserved":false,"is_disabled":false,"rental_uris":{"android":"levelo://app?vid=d1246ca9-e144-40ce-b023-1b8ac3185da6","ios":"levelo://app?vid=d1246ca9-e144-40ce-b023-1b8ac3185da6"},"vehicle_type_id":"4","last_reported":1765905334,"current_range_meters":11200,"station_id":"ce4bhlh2rcd13ifvqgig","pricing_plan_id":"cebpf4jnsgd1na2vs0mg"},{"bike_id":"2ef24484-8e4e-49c0-a3a9-f83b77f53191","system_id":"levelo_inurba_marseille","lat":43.27054,"lon":5.42265,"is_reserved":false,"is_disabled":true,"rental_uris":{"android":"levelo://app?vid=2ef24484-8e4e-49c0-a3a9-f83b77f53191","ios":"levelo://app?vid=2ef24484-8e4e-49c0-a3a9-f83b77f53191"},"vehicle_type_id":"4","last_reported":1765905334,"current_range_meters":11200,"station_id":"ce4bhk92rcd13ifvqgb0","pricing_plan_id":"cebpf4jnsgd1na2vs0mg"},{"bike_id":"bc74ef6c-60c8-4f6c-abb8-03b7a515cf09","system_id":"levelo_inurba_marseille","lat":43.31585,"lon":5.37305,"is_reserved":false,"is_disabled":false,"rental_uris":{"android":"levelo://app?vid=bc74ef6c-60c8-4f6c-abb8-03b7a515cf09","ios":"levelo://app?vid=bc74ef6c-60c8-4f6c-abb8-03b7a515cf09"},"vehicle_type_id":"4","last_reported":1765905334,"current_range_meters":11200,"station_id":"","pricing_plan_id":"cebpf4jnsgd1na2vs0mg"},{"bike_id":"c4720230-1e7c-4c90-9042-61275b632179","system_id":"levelo_inurba_marseille","lat":43.27061,"lon":5.38314,"is_reserved":false,"is_disabled":false,"rental_uris":{"android":"levelo://app?vid=c4720230-1e7c-4c90-9042-61275b632179","ios":"levelo://app?vid=c4720230-1e7c-4c90-9042-61275b632179"},"vehicle_type_id":"4","last_reported":1765905334,"current_range_meters":11200,"station_id":"st_d3n2fo6cfp8s73cte1j0","pricing_plan_id":"cebpf4jnsgd1na2vs0mg"},{"bike_id":"b830ac81-40a7-4130-87cf-d78f5d9094cc","system_id":"levelo_inurba_marseille","lat":43.29634,"lon":5.40594,"is_reserved":false,"is_disabled":false,"rental_uris":{"android":"levelo://app?vid=b830ac81-40a7-4130-87cf-d78f5d9094cc","ios":"levelo://app?vid=b830ac81-40a7-4130-87cf-d78f5d9094cc"},"vehicle_type_id":"4","last_reported":1765905334,"current_range_meters":11200,"station_id":"ce4bh0h2rcd13ifvqd60","pricing_plan_id":"cebpf4jnsgd1na2vs0mg"},{"bike_id":"7769c10d-d2ab-4c4e-9e93-13c944dd66b6","system_id":"levelo_inurba_marseille","lat":43.2836,"lon":5.3863,"is_reserved":false,"is_disabled":false,"rental_uris":{"android":"levelo://app?vid=7769c10d-d2ab-4c4e-9e93-13c944dd66b6","ios":"levelo://app?vid=7769c10d-d2ab-4c4e-9e93-13c944dd66b6"},"vehicle_type_id":"4","last_reported":1765905334,"current_range_meters":11200,"station_id":"ce4bh492rcd13ifvqdvg","pricing_plan_id":"cebpf4jnsgd1na2vs0mg"},{"bike_id":"30373659-1302-4bf2-b36d-72447b8a5e72","system_id":"levelo_inurba_marseille","lat":43.28698,"lon":5.3795,"is_reserved":false,"is_disabled":false,"rental_uris":{"android":"levelo://app?vid=30373659-1302-4bf2-b36d-72447b8a5e72","ios":"levelo://app?vid=30373659-1302-4bf2-b36d-72447b8a5e72"},"vehicle_type_id":"4","last_reported":1765905334,"current_range_meters":11200,"station_id":"","pricing_plan_id":"cebpf4jnsgd1na2vs0mg"},{"bike_id":"4f8ad109-8352-4f43-a7a6-267abdf04ef1","system_id":"levelo_inurba_marseille","lat":43.2792,"lon":5.39563,"is_reserved":false,"is_disabled":false,"rental_uris":{"android":"levelo://app?vid=4f8ad109-8352-4f43-a7a6-267abdf04ef1","ios":"levelo://app?vid=4f8ad109-8352-4f43-a7a6-267abdf04ef1"},"vehicle_type_id":"4","last_reported":1765905334,"current_range_meters":11600,"station_id":"ce4bhf92rcd13ifvqf40","pricing_plan_id":"cebpf4jnsgd1na2vs0mg"},{"bike_id":"278f5688-debb-459b-84be-5e82aa472a33","system_id":"levelo_inurba_marseille","lat":43.28935,"lon":5.39626,"is_reserved":false,"is_disabled":false,"rental_uris":{"android":"levelo://app?vid=278f5688-debb-459b-84be-5e82aa472a33","ios":"levelo://app?vid=278f5688-debb-459b-84be-5e82aa472a33"},"vehicle_type_id":"4","last_reported":1765905334,"current_range_meters":11600,"station_id":"ce4bh3h2rcd13ifvqdn0","pricing_plan_id":"cebpf4jnsgd1na2vs0mg"},{"bike_id":"2833047e-5d18-4b3c-9479-5d7320904cd9","system_id":"levelo_inurba_marseille","lat":43.28532,"lon":5.4409,"is_reserved":false,"is_disabled":false,"rental_uris":{"android":"levelo://app?vid=2833047e-5d18-4b3c-9479-5d7320904cd9","ios":"levelo://app?vid=2833047e-5d18-4b3c-9479-5d7320904cd9"},"vehicle_type_id":"4","last_reported":1765905334,"current_range_meters":11600,"station_id":"st_d3j3df2ikq2c7380ej80","pricing_plan_id":"cebpf4jnsgd1na2vs0mg"},{"bike_id":"e1bcc35a-6222-4a59-9fc9-f339f90545b5","system_id":"levelo_inurba_marseille","lat":43.27615,"lon":5.36108,"is_reserved":false,"is_disabled":false,"rental_uris":{"android":"levelo://app?vid=e1bcc35a-6222-4a59-9fc9-f339f90545b5","ios":"levelo://app?vid=e1bcc35a-6222-4a59-9fc9-f339f90545b5"},"vehicle_type_id":"4","last_reported":1765905334,"current_range_meters":11600,"station_id":"ce4bgj92rcd13ifvqbe0","pricing_plan_id":"cebpf4jnsgd1na2vs0mg"},{"bike_id":"4c1c7053-1690-46ae-b248-e8260967b03f","system_id":"levelo_inurba_marseille","lat":43.316791,"lon":5.375612,"is_reserved":false,"is_disabled":false,"rental_uris":{"android":"levelo://app?vid=4c1c7053-1690-46ae-b248-e8260967b03f","ios":"levelo://app?vid=4c1c7053-1690-46ae-b248-e8260967b03f"},"vehicle_type_id":"4","last_reported":1765905334,"current_range_meters":12000,"station_id":"","pricing_plan_id":"cebpf4jnsgd1na2vs0mg"},{"bike_id":"d6f90051-adc4-44d1-a726-3c1a90bf2e04","system_id":"levelo_inurba_marseille","lat":43.2823,"lon":5.34901,"is_reserved":false,"is_disabled":false,"rental_uris":{"android":"levelo://app?vid=d6f90051-adc4-44d1-a726-3c1a90bf2e04","ios":"levelo://app?vid=d6f90051-adc4-44d1-a726-3c1a90bf2e04"},"vehicle_type_id":"4","last_reported":1765905334,"current_range_meters":12000,"station_id":"","pricing_plan_id":"cebpf4jnsgd1na2vs0mg"},{"bike_id":"d3a2e4e7-6aac-4366-981a-52d89642477a","system_id":"levelo_inurba_marseille","lat":43.30301,"lon":5.3778,"is_reserved":false,"is_disabled":true,"rental_uris":{"android":"levelo://app?vid=d3a2e4e7-6aac-4366-981a-52d89642477a","ios":"levelo://app?vid=d3a2e4e7-6aac-4366-981a-52d89642477a"},"vehicle_type_id":"4","last_reported":1765905334,"current_range_meters":12000,"station_id":"","pricing_plan_id":"cebpf4jnsgd1na2vs0mg"},{"bike_id":"8656c753-9790-4cfa-a655-c18ee82f72e4","system_id":"levelo_inurba_marseille","lat":43.27173,"lon":5.41004,"is_reserved":false,"is_disabled":false,"rental_uris":{"android":"levelo://app?vid=8656c753-9790-4cfa-a655-c18ee82f72e4","ios":"levelo://app?vid=8656c753-9790-4cfa-a655-c18ee82f72e4"},"vehicle_type_id":"4","last_reported":1765905334,"current_range_meters":12000,"station_id":"ce4bhl12rcd13ifvqgf0","pricing_plan_id":"cebpf4jnsgd1na2vs0mg"},{"bike_id":"801ff7fc-190e-4f76-8b01-1fa268c683da","system_id":"levelo_inurba_marseille","lat":43.2494,"lon":5.40495,"is_reserved":false,"is_disabled":false,"rental_uris":{"android":"levelo://app?vid=801ff7fc-190e-4f76-8b01-1fa268c683da","ios":"levelo://app?vid=801ff7fc-190e-4f76-8b01-1fa268c683da"},"vehicle_type_id":"4","last_reported":1765905334,"current_range_meters":12000,"station_id":"st_d2ngiaodas8pm72gd1h0","pricing_plan_id":"cebpf4jnsgd1na2vs0mg"},{"bike_id":"b283ec03-577a-4a6a-8dd6-5661f55ba312","system_id":"levelo_inurba_marseille","lat":43.296304,"lon":5.377172,"is_reserved":false,"is_disabled":false,"rental_uris":{"android":"levelo://app?vid=b283ec03-577a-4a6a-8dd6-5661f55ba312","ios":"levelo://app?vid=b283ec03-577a-4a6a-8dd6-5661f55ba312"},"vehicle_type_id":"4","last_reported":1765905334,"current_range_meters":12000,"station_id":"ce4bgi92rcd13ifvqb90","pricing_plan_id":"cebpf4jnsgd1na2vs0mg"},{"bike_id":"71508078-6838-4792-8f86-6d1edd517671","system_id":"levelo_inurba_marseille","lat":43.28545,"lon":5.441,"is_reserved":false,"is_disabled":false,"rental_uris":{"android":"levelo://app?vid=71508078-6838-4792-8f86-6d1edd517671","ios":"levelo://app?vid=71508078-6838-4792-8f86-6d1edd517671"},"vehicle_type_id":"4","last_reported":1765905334,"current_range_meters":12400,"station_id":"st_d3j3df2ikq2c7380ej80","pricing_plan_id":"cebpf4jnsgd1na2vs0mg"},{"bike_id":"65ef1610-5e5b-4ae4-92ec-9a2a1dd20a47","system_id":"levelo_inurba_marseille","lat":43.25331,"lon":5.42171,"is_reserved":false,"is_disabled":false,"rental_uris":{"android":"levelo://app?vid=65ef1610-5e5b-4ae4-92ec-9a2a1dd20a47","ios":"levelo://app?vid=65ef1610-5e5b-4ae4-92ec-9a2a1dd20a47"},"vehicle_type_id":"4","last_reported":1765905334,"current_range_meters":12400,"station_id":"st_d2m65c5bi1j21697t3ng","pricing_plan_id":"cebpf4jnsgd1na2vs0mg"},{"bike_id":"9ebcaad2-2e19-4608-9c02-cecea313b5ae","system_id":"levelo_inurba_marseille","lat":43.2463,"lon":5.43136,"is_reserved":false,"is_disabled":false,"rental_uris":{"android":"levelo://app?vid=9ebcaad2-2e19-4608-9c02-cecea313b5ae","ios":"levelo://app?vid=9ebcaad2-2e19-4608-9c02-cecea313b5ae"},"vehicle_type_id":"4","last_reported":1765905334,"current_range_meters":12400,"station_id":"st_d2m6c4gdas8pm72e190g","pricing_plan_id":"cebpf4jnsgd1na2vs0mg"},{"bike_id":"094e6f42-8188-456e-b536-25ce771d7e44","system_id":"levelo_inurba_marseille","lat":43.241664,"lon":5.363884,"is_reserved":false,"is_disabled":false,"rental_uris":{"android":"levelo://app?vid=094e6f42-8188-456e-b536-25ce771d7e44","ios":"levelo://app?vid=094e6f42-8188-456e-b536-25ce771d7e44"},"vehicle_type_id":"4","last_reported":1765905334,"current_range_meters":12400,"station_id":"cpo36qri1sfpv3e86is0","pricing_plan_id":"cebpf4jnsgd1na2vs0mg"},{"bike_id":"d5ffc4f1-2854-4cf9-b015-482eeb792830","system_id":"levelo_inurba_marseille","lat":43.30244,"lon":5.40035,"is_reserved":false,"is_disabled":false,"rental_uris":{"android":"levelo://app?vid=d5ffc4f1-2854-4cf9-b015-482eeb792830","ios":"levelo://app?vid=d5ffc4f1-2854-4cf9-b015-482eeb792830"},"vehicle_type_id":"4","last_reported":1765905334,"current_range_meters":12400,"station_id":"ce4bgvh2rcd13ifvqcs0","pricing_plan_id":"cebpf4jnsgd1na2vs0mg"},{"bike_id":"ec025ddd-e46a-46ed-b97d-7c73102604e0","system_id":"levelo_inurba_marseille","lat":43.27316,"lon":5.39075,"is_reserved":false,"is_disabled":true,"rental_uris":{"android":"levelo://app?vid=ec025ddd-e46a-46ed-b97d-7c73102604e0","ios":"levelo://app?vid=ec025ddd-e46a-46ed-b97d-7c73102604e0"},"vehicle_type_id":"4","last_reported":1765905334,"current_range_meters":12400,"station_id":"ce4bhgp2rcd13ifvqfe0","pricing_plan_id":"cebpf4jnsgd1na2vs0mg"},{"bike_id":"2baf383b-6381-419d-bee0-bdbabee5e0e0","system_id":"levelo_inurba_marseille","lat":43.22929,"lon":5.35371,"is_reserved":false,"is_disabled":false,"rental_uris":{"android":"levelo://app?vid=2baf383b-6381-419d-bee0-bdbabee5e0e0","ios":"levelo://app?vid=2baf383b-6381-419d-bee0-bdbabee5e0e0"},"vehicle_type_id":"4","last_reported":1765905334,"current_range_meters":12400,"station_id":"cpo3532slgdg3j2ikp40","pricing_plan_id":"cebpf4jnsgd1na2vs0mg"},{"bike_id":"547f0283-a68f-4948-976e-37559ac104bd","system_id":"levelo_inurba_marseille","lat":43.298679,"lon":5.397182,"is_reserved":false,"is_disabled":false,"rental_uris":{"android":"levelo://app?vid=547f0283-a68f-4948-976e-37559ac104bd","ios":"levelo://app?vid=547f0283-a68f-4948-976e-37559ac104bd"},"vehicle_type_id":"4","last_reported":1765905334,"current_range_meters":12400,"station_id":"ce4bh0h2rcd13ifvqd50","pricing_plan_id":"cebpf4jnsgd1na2vs0mg"},{"bike_id":"5dac6ce7-9bc8-405c-a597-ab37f1e95174","system_id":"levelo_inurba_marseille","lat":43.31048,"lon":5.37161,"is_reserved":false,"is_disabled":false,"rental_uris":{"android":"levelo://app?vid=5dac6ce7-9bc8-405c-a597-ab37f1e95174","ios":"levelo://app?vid=5dac6ce7-9bc8-405c-a597-ab37f1e95174"},"vehicle_type_id":"4","last_reported":1765905334,"current_range_meters":12800,"station_id":"st_d4kl2rp97mjs73e7tdfg","pricing_plan_id":"cebpf4jnsgd1na2vs0mg"},{"bike_id":"0bd2d304-ee4f-4da2-861b-a3ef0b385397","system_id":"levelo_inurba_marseille","lat":43.25337,"lon":5.42162,"is_reserved":false,"is_disabled":false,"rental_uris":{"android":"levelo://app?vid=0bd2d304-ee4f-4da2-861b-a3ef0b385397","ios":"levelo://app?vid=0bd2d304-ee4f-4da2-861b-a3ef0b385397"},"vehicle_type_id":"4","last_reported":1765905334,"current_range_meters":12800,"station_id":"st_d2m65c5bi1j21697t3ng","pricing_plan_id":"cebpf4jnsgd1na2vs0mg"},{"bike_id":"5b9b0249-af26-48bc-a6fd-72f489db67a9","system_id":"levelo_inurba_marseille","lat":43.32353,"lon":5.36704,"is_reserved":false,"is_disabled":false,"rental_uris":{"android":"levelo://app?vid=5b9b0249-af26-48bc-a6fd-72f489db67a9","ios":"levelo://app?vid=5b9b0249-af26-48bc-a6fd-72f489db67a9"},"vehicle_type_id":"4","last_reported":1765905334,"current_range_meters":12800,"station_id":"ce4bhsh2rcd13ifvqi2g","pricing_plan_id":"cebpf4jnsgd1na2vs0mg"},{"bike_id":"b32e4917-4651-4915-accd-6ad72ebf913f","system_id":"levelo_inurba_marseille","lat":43.29138,"lon":5.3601,"is_reserved":false,"is_disabled":true,"rental_uris":{"android":"levelo://app?vid=b32e4917-4651-4915-accd-6ad72ebf913f","ios":"levelo://app?vid=b32e4917-4651-4915-accd-6ad72ebf913f"},"vehicle_type_id":"4","last_reported":1765905334,"current_range_meters":12800,"station_id":"ce4bha92rcd13ifvqeg0","pricing_plan_id":"cebpf4jnsgd1na2vs0mg"},{"bike_id":"50434642-f9bc-48a5-9aa9-e1c1ac067a3f","system_id":"levelo_inurba_marseille","lat":43.24802,"lon":5.37458,"is_reserved":false,"is_disabled":false,"rental_uris":{"android":"levelo://app?vid=50434642-f9bc-48a5-9aa9-e1c1ac067a3f","ios":"levelo://app?vid=50434642-f9bc-48a5-9aa9-e1c1ac067a3f"},"vehicle_type_id":"4","last_reported":1765905334,"current_range_meters":12800,"station_id":"ce4bhgh2rcd13ifvqfb0","pricing_plan_id":"cebpf4jnsgd1na2vs0mg"},{"bike_id":"c1194b9b-db42-4126-88b9-65f173328220","system_id":"levelo_inurba_marseille","lat":43.292222,"lon":5.36007,"is_reserved":false,"is_disabled":false,"rental_uris":{"android":"levelo://app?vid=c1194b9b-db42-4126-88b9-65f173328220","ios":"levelo://app?vid=c1194b9b-db42-4126-88b9-65f173328220"},"vehicle_type_id":"4","last_reported":1765905334,"current_range_meters":12800,"station_id":"ce4bhbh2rcd13ifvqeqg","pricing_plan_id":"cebpf4jnsgd1na2vs0mg"},{"bike_id":"e2cbb5e6-3f9d-4a3d-a899-57d885f29ddd","system_id":"levelo_inurba_marseille","lat":43.337444,"lon":5.374475,"is_reserved":false,"is_disabled":false,"rental_uris":{"android":"levelo://app?vid=e2cbb5e6-3f9d-4a3d-a899-57d885f29ddd","ios":"levelo://app?vid=e2cbb5e6-3f9d-4a3d-a899-57d885f29ddd"},"vehicle_type_id":"4","last_reported":1765905334,"current_range_meters":13600,"station_id":"","pricing_plan_id":"cebpf4jnsgd1na2vs0mg"},{"bike_id":"d87e554b-4a08-4088-a188-9c4ffef03894","system_id":"levelo_inurba_marseille","lat":43.24071,"lon":5.37764,"is_reserved":false,"is_disabled":false,"rental_uris":{"android":"levelo://app?vid=d87e554b-4a08-4088-a188-9c4ffef03894","ios":"levelo://app?vid=d87e554b-4a08-4088-a188-9c4ffef03894"},"vehicle_type_id":"4","last_reported":1765905334,"current_range_meters":13600,"station_id":"ce4bhnp2rcd13ifvqgvg","pricing_plan_id":"cebpf4jnsgd1na2vs0mg"},{"bike_id":"87e9abee-3f79-409c-b0b0-a1237614b2ac","system_id":"levelo_inurba_marseille","lat":43.29168,"lon":5.37166,"is_reserved":false,"is_disabled":false,"rental_uris":{"android":"levelo://app?vid=87e9abee-3f79-409c-b0b0-a1237614b2ac","ios":"levelo://app?vid=87e9abee-3f79-409c-b0b0-a1237614b2ac"},"vehicle_type_id":"4","last_reported":1765905334,"current_range_meters":13600,"station_id":"ce4bha92rcd13ifvqeh0","pricing_plan_id":"cebpf4jnsgd1na2vs0mg"},{"bike_id":"651b29d3-4f51-4bd5-bf59-d7b9bcb7f108","system_id":"levelo_inurba_marseille","lat":43.25353,"lon":5.42164,"is_reserved":false,"is_disabled":true,"rental_uris":{"android":"levelo://app?vid=651b29d3-4f51-4bd5-bf59-d7b9bcb7f108","ios":"levelo://app?vid=651b29d3-4f51-4bd5-bf59-d7b9bcb7f108"},"vehicle_type_id":"4","last_reported":1765905334,"current_range_meters":13600,"station_id":"st_d2m65c5bi1j21697t3ng","pricing_plan_id":"cebpf4jnsgd1na2vs0mg"},{"bike_id":"2f55b60b-9e1e-48dc-bbbb-c371d55361ae","system_id":"levelo_inurba_marseille","lat":43.24638,"lon":5.38882,"is_reserved":false,"is_disabled":false,"rental_uris":{"android":"levelo://app?vid=2f55b60b-9e1e-48dc-bbbb-c371d55361ae","ios":"levelo://app?vid=2f55b60b-9e1e-48dc-bbbb-c371d55361ae"},"vehicle_type_id":"4","last_reported":1765905334,"current_range_meters":13600,"station_id":"ce4bhg12rcd13ifvqf60","pricing_plan_id":"cebpf4jnsgd1na2vs0mg"},{"bike_id":"f13507cb-dd7b-49a8-9e65-015b8f41659d","system_id":"levelo_inurba_marseille","lat":43.276246,"lon":5.361035,"is_reserved":false,"is_disabled":false,"rental_uris":{"android":"levelo://app?vid=f13507cb-dd7b-49a8-9e65-015b8f41659d","ios":"levelo://app?vid=f13507cb-dd7b-49a8-9e65-015b8f41659d"},"vehicle_type_id":"4","last_reported":1765905334,"current_range_meters":13600,"station_id":"ce4bgj92rcd13ifvqbe0","pricing_plan_id":"cebpf4jnsgd1na2vs0mg"},{"bike_id":"37c64312-bacf-418e-938c-ab682523f7de","system_id":"levelo_inurba_marseille","lat":43.285343,"lon":5.441037,"is_reserved":false,"is_disabled":false,"rental_uris":{"android":"levelo://app?vid=37c64312-bacf-418e-938c-ab682523f7de","ios":"levelo://app?vid=37c64312-bacf-418e-938c-ab682523f7de"},"vehicle_type_id":"4","last_reported":1765905334,"current_range_meters":13600,"station_id":"st_d3j3df2ikq2c7380ej80","pricing_plan_id":"cebpf4jnsgd1na2vs0mg"},{"bike_id":"2ab2710b-733d-44fe-a9f8-fe4cbf8606c7","system_id":"levelo_inurba_marseille","lat":43.33526,"lon":5.37477,"is_reserved":false,"is_disabled":false,"rental_uris":{"android":"levelo://app?vid=2ab2710b-733d-44fe-a9f8-fe4cbf8606c7","ios":"levelo://app?vid=2ab2710b-733d-44fe-a9f8-fe4cbf8606c7"},"vehicle_type_id":"4","last_reported":1765905334,"current_range_meters":13600,"station_id":"st_d46tts09ee8s73dlu43g","pricing_plan_id":"cebpf4jnsgd1na2vs0mg"},{"bike_id":"1d5764f2-48ea-43d0-ac5c-0974d25e9715","system_id":"levelo_inurba_marseille","lat":43.29067,"lon":5.37156,"is_reserved":false,"is_disabled":false,"rental_uris":{"android":"levelo://app?vid=1d5764f2-48ea-43d0-ac5c-0974d25e9715","ios":"levelo://app?vid=1d5764f2-48ea-43d0-ac5c-0974d25e9715"},"vehicle_type_id":"4","last_reported":1765905334,"current_range_meters":13600,"station_id":"ce4bh5p2rcd13ifvqe4g","pricing_plan_id":"cebpf4jnsgd1na2vs0mg"},{"bike_id":"c17ad589-1460-4874-a676-f09f39ff205d","system_id":"levelo_inurba_marseille","lat":43.31228,"lon":5.36858,"is_reserved":false,"is_disabled":false,"rental_uris":{"android":"levelo://app?vid=c17ad589-1460-4874-a676-f09f39ff205d","ios":"levelo://app?vid=c17ad589-1460-4874-a676-f09f39ff205d"},"vehicle_type_id":"4","last_reported":1765905334,"current_range_meters":13600,"station_id":"ce4bgl92rcd13ifvqbq0","pricing_plan_id":"cebpf4jnsgd1na2vs0mg"},{"bike_id":"8c2c2ce3-73da-4ebf-ba92-d3797395fcb1","system_id":"levelo_inurba_marseille","lat":43.24625,"lon":5.43148,"is_reserved":false,"is_disabled":true,"rental_uris":{"android":"levelo://app?vid=8c2c2ce3-73da-4ebf-ba92-d3797395fcb1","ios":"levelo://app?vid=8c2c2ce3-73da-4ebf-ba92-d3797395fcb1"},"vehicle_type_id":"4","last_reported":1765905334,"current_range_meters":14000,"station_id":"st_d2m6c4gdas8pm72e190g","pricing_plan_id":"cebpf4jnsgd1na2vs0mg"},{"bike_id":"f4886904-6deb-4beb-a9d6-1248dc761900","system_id":"levelo_inurba_marseille","lat":43.30413,"lon":5.41286,"is_reserved":false,"is_disabled":false,"rental_uris":{"android":"levelo://app?vid=f4886904-6deb-4beb-a9d6-1248dc761900","ios":"levelo://app?vid=f4886904-6deb-4beb-a9d6-1248dc761900"},"vehicle_type_id":"4","last_reported":1765905334,"current_range_meters":14000,"station_id":"ce4bhop2rcd13ifvqh8g","pricing_plan_id":"cebpf4jnsgd1na2vs0mg"},{"bike_id":"a31179ec-1454-43bd-9cf5-1ccef65aa74f","system_id":"levelo_inurba_marseille","lat":43.30134,"lon":5.38783,"is_reserved":false,"is_disabled":false,"rental_uris":{"android":"levelo://app?vid=a31179ec-1454-43bd-9cf5-1ccef65aa74f","ios":"levelo://app?vid=a31179ec-1454-43bd-9cf5-1ccef65aa74f"},"vehicle_type_id":"4","last_reported":1765905334,"current_range_meters":14000,"station_id":"ce4bghh2rcd13ifvqb60","pricing_plan_id":"cebpf4jnsgd1na2vs0mg"},{"bike_id":"d58cb00c-a06a-4889-a533-917770d8e4fc","system_id":"levelo_inurba_marseille","lat":43.27177,"lon":5.40975,"is_reserved":false,"is_disabled":false,"rental_uris":{"android":"levelo://app?vid=d58cb00c-a06a-4889-a533-917770d8e4fc","ios":"levelo://app?vid=d58cb00c-a06a-4889-a533-917770d8e4fc"},"vehicle_type_id":"4","last_reported":1765905334,"current_range_meters":14000,"station_id":"ce4bhl12rcd13ifvqgf0","pricing_plan_id":"cebpf4jnsgd1na2vs0mg"},{"bike_id":"f96d197e-d68e-4b9e-b261-84222baa54d9","system_id":"levelo_inurba_marseille","lat":43.2378,"lon":5.36638,"is_reserved":false,"is_disabled":false,"rental_uris":{"android":"levelo://app?vid=f96d197e-d68e-4b9e-b261-84222baa54d9","ios":"levelo://app?vid=f96d197e-d68e-4b9e-b261-84222baa54d9"},"vehicle_type_id":"4","last_reported":1765905334,"current_range_meters":14000,"station_id":"st_d3nk18o9ro0c73en2l3g","pricing_plan_id":"cebpf4jnsgd1na2vs0mg"},{"bike_id":"33583a3e-eb6f-4736-a38d-d228e9cd63c0","system_id":"levelo_inurba_marseille","lat":43.29814,"lon":5.44069,"is_reserved":false,"is_disabled":false,"rental_uris":{"android":"levelo://app?vid=33583a3e-eb6f-4736-a38d-d228e9cd63c0","ios":"levelo://app?vid=33583a3e-eb6f-4736-a38d-d228e9cd63c0"},"vehicle_type_id":"4","last_reported":1765905334,"current_range_meters":14000,"station_id":"","pricing_plan_id":"cebpf4jnsgd1na2vs0mg"},{"bike_id":"73622435-c5fd-4005-8594-c94cc5b0c5e3","system_id":"levelo_inurba_marseille","lat":43.29523,"lon":5.39025,"is_reserved":false,"is_disabled":true,"rental_uris":{"android":"levelo://app?vid=73622435-c5fd-4005-8594-c94cc5b0c5e3","ios":"levelo://app?vid=73622435-c5fd-4005-8594-c94cc5b0c5e3"},"vehicle_type_id":"4","last_reported":1765905334,"current_range_meters":14000,"station_id":"ce4bh3p2rcd13ifvqdp0","pricing_plan_id":"cebpf4jnsgd1na2vs0mg"},{"bike_id":"19b66638-3211-46a9-8beb-4f12406d7672","system_id":"levelo_inurba_marseille","lat":43.27283,"lon":5.41078,"is_reserved":false,"is_disabled":false,"rental_uris":{"android":"levelo://app?vid=19b66638-3211-46a9-8beb-4f12406d7672","ios":"levelo://app?vid=19b66638-3211-46a9-8beb-4f12406d7672"},"vehicle_type_id":"4","last_reported":1765905334,"current_range_meters":14000,"station_id":"","pricing_plan_id":"cebpf4jnsgd1na2vs0mg"},{"bike_id":"486c0964-2d36-4a09-bd4e-308eb84dc832","system_id":"levelo_inurba_marseille","lat":43.29903,"lon":5.37457,"is_reserved":false,"is_disabled":false,"rental_uris":{"android":"levelo://app?vid=486c0964-2d36-4a09-bd4e-308eb84dc832","ios":"levelo://app?vid=486c0964-2d36-4a09-bd4e-308eb84dc832"},"vehicle_type_id":"4","last_reported":1765905334,"current_range_meters":14000,"station_id":"ce4bgjh2rcd13ifvqbg0","pricing_plan_id":"cebpf4jnsgd1na2vs0mg"},{"bike_id":"669745ba-9551-4801-a98e-966b1791f035","system_id":"levelo_inurba_marseille","lat":43.302295,"lon":5.404414,"is_reserved":false,"is_disabled":false,"rental_uris":{"android":"levelo://app?vid=669745ba-9551-4801-a98e-966b1791f035","ios":"levelo://app?vid=669745ba-9551-4801-a98e-966b1791f035"},"vehicle_type_id":"4","last_reported":1765905334,"current_range_meters":14000,"station_id":"ce4bh012rcd13ifvqd10","pricing_plan_id":"cebpf4jnsgd1na2vs0mg"},{"bike_id":"8880f1d3-d54e-47a4-9312-44bc22d58c2b","system_id":"levelo_inurba_marseille","lat":43.301444,"lon":5.380715,"is_reserved":false,"is_disabled":false,"rental_uris":{"android":"levelo://app?vid=8880f1d3-d54e-47a4-9312-44bc22d58c2b","ios":"levelo://app?vid=8880f1d3-d54e-47a4-9312-44bc22d58c2b"},"vehicle_type_id":"4","last_reported":1765905334,"current_range_meters":14000,"station_id":"ce4bho12rcd13ifvqh1g","pricing_plan_id":"cebpf4jnsgd1na2vs0mg"},{"bike_id":"ddb7d15d-3f99-4d7a-aae0-1a9d45669c33","system_id":"levelo_inurba_marseille","lat":43.23149,"lon":5.437,"is_reserved":false,"is_disabled":true,"rental_uris":{"android":"levelo://app?vid=ddb7d15d-3f99-4d7a-aae0-1a9d45669c33","ios":"levelo://app?vid=ddb7d15d-3f99-4d7a-aae0-1a9d45669c33"},"vehicle_type_id":"4","last_reported":1765905334,"current_range_meters":14400,"station_id":"ce4bhmp2rcd13ifvqgog","pricing_plan_id":"cebpf4jnsgd1na2vs0mg"},{"bike_id":"b972c994-16b3-47fe-974f-b887645957a5","system_id":"levelo_inurba_marseille","lat":43.265576,"lon":5.372854,"is_reserved":false,"is_disabled":false,"rental_uris":{"android":"levelo://app?vid=b972c994-16b3-47fe-974f-b887645957a5","ios":"levelo://app?vid=b972c994-16b3-47fe-974f-b887645957a5"},"vehicle_type_id":"4","last_reported":1765905334,"current_range_meters":14400,"station_id":"ce4bhih2rcd13ifvqfr0","pricing_plan_id":"cebpf4jnsgd1na2vs0mg"},{"bike_id":"08c2cb85-1479-4e46-88ae-b513f2a37221","system_id":"levelo_inurba_marseille","lat":43.31494,"lon":5.37299,"is_reserved":false,"is_disabled":false,"rental_uris":{"android":"levelo://app?vid=08c2cb85-1479-4e46-88ae-b513f2a37221","ios":"levelo://app?vid=08c2cb85-1479-4e46-88ae-b513f2a37221"},"vehicle_type_id":"4","last_reported":1765905334,"current_range_meters":14400,"station_id":"ce4bgt12rcd13ifvqcd0","pricing_plan_id":"cebpf4jnsgd1na2vs0mg"},{"bike_id":"2a20b8b2-7b6c-4d47-af0d-49e9748fec04","system_id":"levelo_inurba_marseille","lat":43.29796,"lon":5.38086,"is_reserved":false,"is_disabled":false,"rental_uris":{"android":"levelo://app?vid=2a20b8b2-7b6c-4d47-af0d-49e9748fec04","ios":"levelo://app?vid=2a20b8b2-7b6c-4d47-af0d-49e9748fec04"},"vehicle_type_id":"4","last_reported":1765905334,"current_range_meters":14800,"station_id":"ce4bgip2rcd13ifvqbb0","pricing_plan_id":"cebpf4jnsgd1na2vs0mg"},{"bike_id":"d624ea1e-42c8-428b-8145-fda7a530b4e9","system_id":"levelo_inurba_marseille","lat":43.28607,"lon":5.39866,"is_reserved":false,"is_disabled":false,"rental_uris":{"android":"levelo://app?vid=d624ea1e-42c8-428b-8145-fda7a530b4e9","ios":"levelo://app?vid=d624ea1e-42c8-428b-8145-fda7a530b4e9"},"vehicle_type_id":"4","last_reported":1765905334,"current_range_meters":14800,"station_id":"st_d4a7ka997mjs738ck50g","pricing_plan_id":"cebpf4jnsgd1na2vs0mg"},{"bike_id":"ea58dec7-4b56-4d77-ae50-501046c3668d","system_id":"levelo_inurba_marseille","lat":43.28984,"lon":5.37844,"is_reserved":false,"is_disabled":false,"rental_uris":{"android":"levelo://app?vid=ea58dec7-4b56-4d77-ae50-501046c3668d","ios":"levelo://app?vid=ea58dec7-4b56-4d77-ae50-501046c3668d"},"vehicle_type_id":"4","last_reported":1765905334,"current_range_meters":14800,"station_id":"ce4bh9p2rcd13ifvqed0","pricing_plan_id":"cebpf4jnsgd1na2vs0mg"},{"bike_id":"b87f237b-bed1-4605-8614-65c124626701","system_id":"levelo_inurba_marseille","lat":43.31382,"lon":5.36659,"is_reserved":false,"is_disabled":false,"rental_uris":{"android":"levelo://app?vid=b87f237b-bed1-4605-8614-65c124626701","ios":"levelo://app?vid=b87f237b-bed1-4605-8614-65c124626701"},"vehicle_type_id":"4","last_reported":1765905334,"current_range_meters":14800,"station_id":"","pricing_plan_id":"cebpf4jnsgd1na2vs0mg"},{"bike_id":"a46445b0-0e05-4854-90e8-7e9116d714dc","system_id":"levelo_inurba_marseille","lat":43.337634,"lon":5.37441,"is_reserved":false,"is_disabled":false,"rental_uris":{"android":"levelo://app?vid=a46445b0-0e05-4854-90e8-7e9116d714dc","ios":"levelo://app?vid=a46445b0-0e05-4854-90e8-7e9116d714dc"},"vehicle_type_id":"4","last_reported":1765905334,"current_range_meters":14800,"station_id":"","pricing_plan_id":"cebpf4jnsgd1na2vs0mg"},{"bike_id":"1985a16d-974e-4764-a075-1c51a005d839","system_id":"levelo_inurba_marseille","lat":43.298157,"lon":5.440715,"is_reserved":false,"is_disabled":false,"rental_uris":{"android":"levelo://app?vid=1985a16d-974e-4764-a075-1c51a005d839","ios":"levelo://app?vid=1985a16d-974e-4764-a075-1c51a005d839"},"vehicle_type_id":"4","last_reported":1765905334,"current_range_meters":14800,"station_id":"st_d3jp68qikq2c7381ktn0","pricing_plan_id":"cebpf4jnsgd1na2vs0mg"},{"bike_id":"e631d3af-f3d4-492e-b1b3-d40925ecadd8","system_id":"levelo_inurba_marseille","lat":43.280716,"lon":5.396567,"is_reserved":false,"is_disabled":true,"rental_uris":{"android":"levelo://app?vid=e631d3af-f3d4-492e-b1b3-d40925ecadd8","ios":"levelo://app?vid=e631d3af-f3d4-492e-b1b3-d40925ecadd8"},"vehicle_type_id":"4","last_reported":1765905334,"current_range_meters":14800,"station_id":"ce4bho12rcd13ifvqh2g","pricing_plan_id":"cebpf4jnsgd1na2vs0mg"},{"bike_id":"5560bc30-feb5-441e-bb0e-aa8412fb304f","system_id":"levelo_inurba_marseille","lat":43.2677,"lon":5.39315,"is_reserved":false,"is_disabled":false,"rental_uris":{"android":"levelo://app?vid=5560bc30-feb5-441e-bb0e-aa8412fb304f","ios":"levelo://app?vid=5560bc30-feb5-441e-bb0e-aa8412fb304f"},"vehicle_type_id":"4","last_reported":1765905334,"current_range_meters":14800,"station_id":"","pricing_plan_id":"cebpf4jnsgd1na2vs0mg"},{"bike_id":"30e8c1d4-8f98-4f2a-9837-de8ef1192e2d","system_id":"levelo_inurba_marseille","lat":43.23182,"lon":5.39987,"is_reserved":false,"is_disabled":false,"rental_uris":{"android":"levelo://app?vid=30e8c1d4-8f98-4f2a-9837-de8ef1192e2d","ios":"levelo://app?vid=30e8c1d4-8f98-4f2a-9837-de8ef1192e2d"},"vehicle_type_id":"4","last_reported":1765905334,"current_range_meters":14800,"station_id":"ce4bhn12rcd13ifvqgqg","pricing_plan_id":"cebpf4jnsgd1na2vs0mg"},{"bike_id":"5756fb0c-4ae7-4449-b02c-a67bd8ece115","system_id":"levelo_inurba_marseille","lat":43.31267,"lon":5.40175,"is_reserved":false,"is_disabled":false,"rental_uris":{"android":"levelo://app?vid=5756fb0c-4ae7-4449-b02c-a67bd8ece115","ios":"levelo://app?vid=5756fb0c-4ae7-4449-b02c-a67bd8ece115"},"vehicle_type_id":"4","last_reported":1765905334,"current_range_meters":14800,"station_id":"ce4bh092rcd13ifvqd30","pricing_plan_id":"cebpf4jnsgd1na2vs0mg"},{"bike_id":"3be6df1b-51be-4bab-b238-b8512f979ed2","system_id":"levelo_inurba_marseille","lat":43.3149,"lon":5.37307,"is_reserved":false,"is_disabled":false,"rental_uris":{"android":"levelo://app?vid=3be6df1b-51be-4bab-b238-b8512f979ed2","ios":"levelo://app?vid=3be6df1b-51be-4bab-b238-b8512f979ed2"},"vehicle_type_id":"4","last_reported":1765905334,"current_range_meters":14800,"station_id":"ce4bgt12rcd13ifvqcd0","pricing_plan_id":"cebpf4jnsgd1na2vs0mg"},{"bike_id":"c48521ef-dca4-498a-aeb7-a4a5664a0a1c","system_id":"levelo_inurba_marseille","lat":43.29799,"lon":5.40397,"is_reserved":false,"is_disabled":false,"rental_uris":{"android":"levelo://app?vid=c48521ef-dca4-498a-aeb7-a4a5664a0a1c","ios":"levelo://app?vid=c48521ef-dca4-498a-aeb7-a4a5664a0a1c"},"vehicle_type_id":"4","last_reported":1765905334,"current_range_meters":14800,"station_id":"ce4bh112rcd13ifvqd90","pricing_plan_id":"cebpf4jnsgd1na2vs0mg"},{"bike_id":"1761dee6-2fc9-43ea-a081-e6bc83df43e8","system_id":"levelo_inurba_marseille","lat":43.31714,"lon":5.37662,"is_reserved":false,"is_disabled":false,"rental_uris":{"android":"levelo://app?vid=1761dee6-2fc9-43ea-a081-e6bc83df43e8","ios":"levelo://app?vid=1761dee6-2fc9-43ea-a081-e6bc83df43e8"},"vehicle_type_id":"4","last_reported":1765905334,"current_range_meters":15200,"station_id":"","pricing_plan_id":"cebpf4jnsgd1na2vs0mg"},{"bike_id":"c2f02f53-0170-42c0-ac90-ce97acecee21","system_id":"levelo_inurba_marseille","lat":43.31062,"lon":5.38342,"is_reserved":false,"is_disabled":false,"rental_uris":{"android":"levelo://app?vid=c2f02f53-0170-42c0-ac90-ce97acecee21","ios":"levelo://app?vid=c2f02f53-0170-42c0-ac90-ce97acecee21"},"vehicle_type_id":"4","last_reported":1765905334,"current_range_meters":15200,"station_id":"ce4bgv92rcd13ifvqcr0","pricing_plan_id":"cebpf4jnsgd1na2vs0mg"},{"bike_id":"6d36fb15-8615-484e-8944-32c2cdccb0f3","system_id":"levelo_inurba_marseille","lat":43.296311,"lon":5.371728,"is_reserved":false,"is_disabled":false,"rental_uris":{"android":"levelo://app?vid=6d36fb15-8615-484e-8944-32c2cdccb0f3","ios":"levelo://app?vid=6d36fb15-8615-484e-8944-32c2cdccb0f3"},"vehicle_type_id":"4","last_reported":1765905334,"current_range_meters":15200,"station_id":"ce4bgnh2rcd13ifvqc0g","pricing_plan_id":"cebpf4jnsgd1na2vs0mg"},{"bike_id":"29a5cb6a-a46c-4ea0-a272-7a2d51ec0f87","system_id":"levelo_inurba_marseille","lat":43.29301,"lon":5.3717,"is_reserved":false,"is_disabled":false,"rental_uris":{"android":"levelo://app?vid=29a5cb6a-a46c-4ea0-a272-7a2d51ec0f87","ios":"levelo://app?vid=29a5cb6a-a46c-4ea0-a272-7a2d51ec0f87"},"vehicle_type_id":"4","last_reported":1765905334,"current_range_meters":15200,"station_id":"ce4bgh92rcd13ifvqb40","pricing_plan_id":"cebpf4jnsgd1na2vs0mg"},{"bike_id":"4fa41bf2-a255-4eea-86fc-52affbe7875d","system_id":"levelo_inurba_marseille","lat":43.26193,"lon":5.3747,"is_reserved":false,"is_disabled":false,"rental_uris":{"android":"levelo://app?vid=4fa41bf2-a255-4eea-86fc-52affbe7875d","ios":"levelo://app?vid=4fa41bf2-a255-4eea-86fc-52affbe7875d"},"vehicle_type_id":"4","last_reported":1765905334,"current_range_meters":15200,"station_id":"ce4bhgp2rcd13ifvqfc0","pricing_plan_id":"cebpf4jnsgd1na2vs0mg"},{"bike_id":"4824a2bb-7351-4049-8fb9-1f8b55445bbe","system_id":"levelo_inurba_marseille","lat":43.24172,"lon":5.36398,"is_reserved":false,"is_disabled":false,"rental_uris":{"android":"levelo://app?vid=4824a2bb-7351-4049-8fb9-1f8b55445bbe","ios":"levelo://app?vid=4824a2bb-7351-4049-8fb9-1f8b55445bbe"},"vehicle_type_id":"4","last_reported":1765905334,"current_range_meters":15200,"station_id":"cpo36qri1sfpv3e86is0","pricing_plan_id":"cebpf4jnsgd1na2vs0mg"},{"bike_id":"ebd8bf1b-f660-4eb5-8ea2-2aef2922fbd8","system_id":"levelo_inurba_marseille","lat":43.24546,"lon":5.39523,"is_reserved":false,"is_disabled":true,"rental_uris":{"android":"levelo://app?vid=ebd8bf1b-f660-4eb5-8ea2-2aef2922fbd8","ios":"levelo://app?vid=ebd8bf1b-f660-4eb5-8ea2-2aef2922fbd8"},"vehicle_type_id":"4","last_reported":1765905334,"current_range_meters":15200,"station_id":"ce4bhlp2rcd13ifvqgjg","pricing_plan_id":"cebpf4jnsgd1na2vs0mg"},{"bike_id":"2d9be9df-3d9b-45f9-8822-775a0a71b6a1","system_id":"levelo_inurba_marseille","lat":43.28149,"lon":5.42625,"is_reserved":false,"is_disabled":false,"rental_uris":{"android":"levelo://app?vid=2d9be9df-3d9b-45f9-8822-775a0a71b6a1","ios":"levelo://app?vid=2d9be9df-3d9b-45f9-8822-775a0a71b6a1"},"vehicle_type_id":"4","last_reported":1765905334,"current_range_meters":15200,"station_id":"ce4bhnh2rcd13ifvqgug","pricing_plan_id":"cebpf4jnsgd1na2vs0mg"},{"bike_id":"8c7465bb-38d0-4c5c-a95d-c15db3e1fefe","system_id":"levelo_inurba_marseille","lat":43.31979,"lon":5.38179,"is_reserved":false,"is_disabled":false,"rental_uris":{"android":"levelo://app?vid=8c7465bb-38d0-4c5c-a95d-c15db3e1fefe","ios":"levelo://app?vid=8c7465bb-38d0-4c5c-a95d-c15db3e1fefe"},"vehicle_type_id":"4","last_reported":1765905334,"current_range_meters":15200,"station_id":"ce4bhr12rcd13ifvqhpg","pricing_plan_id":"cebpf4jnsgd1na2vs0mg"},{"bike_id":"69a3f27d-33d6-4b77-9e0c-63f2a86521a6","system_id":"levelo_inurba_marseille","lat":43.29003,"lon":5.35598,"is_reserved":false,"is_disabled":false,"rental_uris":{"android":"levelo://app?vid=69a3f27d-33d6-4b77-9e0c-63f2a86521a6","ios":"levelo://app?vid=69a3f27d-33d6-4b77-9e0c-63f2a86521a6"},"vehicle_type_id":"4","last_reported":1765905334,"current_range_meters":15200,"station_id":"ce4bhb92rcd13ifvqen0","pricing_plan_id":"cebpf4jnsgd1na2vs0mg"},{"bike_id":"43e98a42-00ee-44db-bbb8-0326349684be","system_id":"levelo_inurba_marseille","lat":43.31704,"lon":5.43705,"is_reserved":false,"is_disabled":false,"rental_uris":{"android":"levelo://app?vid=43e98a42-00ee-44db-bbb8-0326349684be","ios":"levelo://app?vid=43e98a42-00ee-44db-bbb8-0326349684be"},"vehicle_type_id":"4","last_reported":1765905334,"current_range_meters":15200,"station_id":"ce4bhp92rcd13ifvqhcg","pricing_plan_id":"cebpf4jnsgd1na2vs0mg"},{"bike_id":"979f4c85-8156-4019-bafb-9c83c977c9c5","system_id":"levelo_inurba_marseille","lat":43.29304,"lon":5.37449,"is_reserved":false,"is_disabled":false,"rental_uris":{"android":"levelo://app?vid=979f4c85-8156-4019-bafb-9c83c977c9c5","ios":"levelo://app?vid=979f4c85-8156-4019-bafb-9c83c977c9c5"},"vehicle_type_id":"4","last_reported":1765905334,"current_range_meters":15200,"station_id":"ce4bgi12rcd13ifvqb70","pricing_plan_id":"cebpf4jnsgd1na2vs0mg"},{"bike_id":"94a56acd-7506-4a3f-9a34-90a1919006ef","system_id":"levelo_inurba_marseille","lat":43.30884,"lon":5.37183,"is_reserved":false,"is_disabled":false,"rental_uris":{"android":"levelo://app?vid=94a56acd-7506-4a3f-9a34-90a1919006ef","ios":"levelo://app?vid=94a56acd-7506-4a3f-9a34-90a1919006ef"},"vehicle_type_id":"4","last_reported":1765905334,"current_range_meters":16000,"station_id":"ce4bguh2rcd13ifvqckg","pricing_plan_id":"cebpf4jnsgd1na2vs0mg"},{"bike_id":"63388b1a-3470-4c94-a050-28c0a98fc38d","system_id":"levelo_inurba_marseille","lat":43.2981,"lon":5.44054,"is_reserved":false,"is_disabled":false,"rental_uris":{"android":"levelo://app?vid=63388b1a-3470-4c94-a050-28c0a98fc38d","ios":"levelo://app?vid=63388b1a-3470-4c94-a050-28c0a98fc38d"},"vehicle_type_id":"4","last_reported":1765905334,"current_range_meters":16000,"station_id":"st_d3jp68qikq2c7381ktn0","pricing_plan_id":"cebpf4jnsgd1na2vs0mg"},{"bike_id":"2e2d5abd-a5ef-410b-b72e-d38d80e78f52","system_id":"levelo_inurba_marseille","lat":43.30123,"lon":5.43115,"is_reserved":false,"is_disabled":false,"rental_uris":{"android":"levelo://app?vid=2e2d5abd-a5ef-410b-b72e-d38d80e78f52","ios":"levelo://app?vid=2e2d5abd-a5ef-410b-b72e-d38d80e78f52"},"vehicle_type_id":"4","last_reported":1765905334,"current_range_meters":16000,"station_id":"st_d3js3co5814s73ftftug","pricing_plan_id":"cebpf4jnsgd1na2vs0mg"},{"bike_id":"66189eac-fc71-4ab6-a5d1-301a0606e30a","system_id":"levelo_inurba_marseille","lat":43.29375,"lon":5.37853,"is_reserved":false,"is_disabled":true,"rental_uris":{"android":"levelo://app?vid=66189eac-fc71-4ab6-a5d1-301a0606e30a","ios":"levelo://app?vid=66189eac-fc71-4ab6-a5d1-301a0606e30a"},"vehicle_type_id":"4","last_reported":1765905334,"current_range_meters":16000,"station_id":"ce4bgjh2rcd13ifvqbf0","pricing_plan_id":"cebpf4jnsgd1na2vs0mg"},{"bike_id":"6c7631b2-9bb1-45d3-abcd-6fdb69c6f423","system_id":"levelo_inurba_marseille","lat":43.32473,"lon":5.36561,"is_reserved":false,"is_disabled":false,"rental_uris":{"android":"levelo://app?vid=6c7631b2-9bb1-45d3-abcd-6fdb69c6f423","ios":"levelo://app?vid=6c7631b2-9bb1-45d3-abcd-6fdb69c6f423"},"vehicle_type_id":"4","last_reported":1765905334,"current_range_meters":16000,"station_id":"ce4bhs12rcd13ifvqhvg","pricing_plan_id":"cebpf4jnsgd1na2vs0mg"},{"bike_id":"5c805cb6-0254-4377-b58e-f00e3fa0772d","system_id":"levelo_inurba_marseille","lat":43.27565,"lon":5.38419,"is_reserved":false,"is_disabled":false,"rental_uris":{"android":"levelo://app?vid=5c805cb6-0254-4377-b58e-f00e3fa0772d","ios":"levelo://app?vid=5c805cb6-0254-4377-b58e-f00e3fa0772d"},"vehicle_type_id":"4","last_reported":1765905334,"current_range_meters":16000,"station_id":"ce4bhh92rcd13ifvqfi0","pricing_plan_id":"cebpf4jnsgd1na2vs0mg"},{"bike_id":"603aa11f-33b9-468b-8dd2-ef023838b369","system_id":"levelo_inurba_marseille","lat":43.29063,"lon":5.37166,"is_reserved":false,"is_disabled":false,"rental_uris":{"android":"levelo://app?vid=603aa11f-33b9-468b-8dd2-ef023838b369","ios":"levelo://app?vid=603aa11f-33b9-468b-8dd2-ef023838b369"},"vehicle_type_id":"4","last_reported":1765905334,"current_range_meters":16000,"station_id":"ce4bh5p2rcd13ifvqe4g","pricing_plan_id":"cebpf4jnsgd1na2vs0mg"},{"bike_id":"499df733-f5bf-42c1-9351-5f6973a6c881","system_id":"levelo_inurba_marseille","lat":43.24642,"lon":5.38895,"is_reserved":false,"is_disabled":false,"rental_uris":{"android":"levelo://app?vid=499df733-f5bf-42c1-9351-5f6973a6c881","ios":"levelo://app?vid=499df733-f5bf-42c1-9351-5f6973a6c881"},"vehicle_type_id":"4","last_reported":1765905334,"current_range_meters":16400,"station_id":"ce4bhg12rcd13ifvqf60","pricing_plan_id":"cebpf4jnsgd1na2vs0mg"},{"bike_id":"325f0ac2-d292-4c5b-acba-55502e937e17","system_id":"levelo_inurba_marseille","lat":43.298046,"lon":5.440712,"is_reserved":false,"is_disabled":false,"rental_uris":{"android":"levelo://app?vid=325f0ac2-d292-4c5b-acba-55502e937e17","ios":"levelo://app?vid=325f0ac2-d292-4c5b-acba-55502e937e17"},"vehicle_type_id":"4","last_reported":1765905334,"current_range_meters":16400,"station_id":"st_d3jp68qikq2c7381ktn0","pricing_plan_id":"cebpf4jnsgd1na2vs0mg"},{"bike_id":"a3cf6e32-8a5b-405a-8e1a-e62fc2a41c92","system_id":"levelo_inurba_marseille","lat":43.2802,"lon":5.42134,"is_reserved":false,"is_disabled":false,"rental_uris":{"android":"levelo://app?vid=a3cf6e32-8a5b-405a-8e1a-e62fc2a41c92","ios":"levelo://app?vid=a3cf6e32-8a5b-405a-8e1a-e62fc2a41c92"},"vehicle_type_id":"4","last_reported":1765905334,"current_range_meters":16400,"station_id":"","pricing_plan_id":"cebpf4jnsgd1na2vs0mg"},{"bike_id":"ee49364c-3ad7-437b-9b29-c52035c6d428","system_id":"levelo_inurba_marseille","lat":43.31331,"lon":5.36718,"is_reserved":false,"is_disabled":false,"rental_uris":{"android":"levelo://app?vid=ee49364c-3ad7-437b-9b29-c52035c6d428","ios":"levelo://app?vid=ee49364c-3ad7-437b-9b29-c52035c6d428"},"vehicle_type_id":"4","last_reported":1765905334,"current_range_meters":16400,"station_id":"ce4bgr92rcd13ifvqc6g","pricing_plan_id":"cebpf4jnsgd1na2vs0mg"},{"bike_id":"67c7e79a-224b-4b44-989d-014bf008ff29","system_id":"levelo_inurba_marseille","lat":43.33727,"lon":5.3918,"is_reserved":false,"is_disabled":false,"rental_uris":{"android":"levelo://app?vid=67c7e79a-224b-4b44-989d-014bf008ff29","ios":"levelo://app?vid=67c7e79a-224b-4b44-989d-014bf008ff29"},"vehicle_type_id":"4","last_reported":1765905334,"current_range_meters":16400,"station_id":"ce4bhr92rcd13ifvqhsg","pricing_plan_id":"cebpf4jnsgd1na2vs0mg"},{"bike_id":"8e42f5bd-0a55-4d3c-9096-d82a20a55cfc","system_id":"levelo_inurba_marseille","lat":43.286,"lon":5.38356,"is_reserved":false,"is_disabled":false,"rental_uris":{"android":"levelo://app?vid=8e42f5bd-0a55-4d3c-9096-d82a20a55cfc","ios":"levelo://app?vid=8e42f5bd-0a55-4d3c-9096-d82a20a55cfc"},"vehicle_type_id":"4","last_reported":1765905334,"current_range_meters":16400,"station_id":"","pricing_plan_id":"cebpf4jnsgd1na2vs0mg"},{"bike_id":"47386b70-d1a6-403d-bcde-2b22b9b9b4a4","system_id":"levelo_inurba_marseille","lat":43.29184,"lon":5.39309,"is_reserved":false,"is_disabled":true,"rental_uris":{"android":"levelo://app?vid=47386b70-d1a6-403d-bcde-2b22b9b9b4a4","ios":"levelo://app?vid=47386b70-d1a6-403d-bcde-2b22b9b9b4a4"},"vehicle_type_id":"4","last_reported":1765905334,"current_range_meters":16400,"station_id":"ce4bh192rcd13ifvqdd0","pricing_plan_id":"cebpf4jnsgd1na2vs0mg"},{"bike_id":"7ff35f83-1e74-47b1-b306-a75e8d53470a","system_id":"levelo_inurba_marseille","lat":43.30136,"lon":5.43168,"is_reserved":false,"is_disabled":false,"rental_uris":{"android":"levelo://app?vid=7ff35f83-1e74-47b1-b306-a75e8d53470a","ios":"levelo://app?vid=7ff35f83-1e74-47b1-b306-a75e8d53470a"},"vehicle_type_id":"4","last_reported":1765905334,"current_range_meters":16400,"station_id":"st_d3js3co5814s73ftftug","pricing_plan_id":"cebpf4jnsgd1na2vs0mg"},{"bike_id":"3559ec2a-d4fa-4a99-8ad6-95237c097e66","system_id":"levelo_inurba_marseille","lat":43.31167,"lon":5.36833,"is_reserved":false,"is_disabled":false,"rental_uris":{"android":"levelo://app?vid=3559ec2a-d4fa-4a99-8ad6-95237c097e66","ios":"levelo://app?vid=3559ec2a-d4fa-4a99-8ad6-95237c097e66"},"vehicle_type_id":"4","last_reported":1765905334,"current_range_meters":16400,"station_id":"","pricing_plan_id":"cebpf4jnsgd1na2vs0mg"},{"bike_id":"2f59ba95-bc31-4a05-85e8-6b1fc1aaf571","system_id":"levelo_inurba_marseille","lat":43.29024,"lon":5.38644,"is_reserved":false,"is_disabled":false,"rental_uris":{"android":"levelo://app?vid=2f59ba95-bc31-4a05-85e8-6b1fc1aaf571","ios":"levelo://app?vid=2f59ba95-bc31-4a05-85e8-6b1fc1aaf571"},"vehicle_type_id":"4","last_reported":1765905334,"current_range_meters":16400,"station_id":"ce4bh4p2rcd13ifvqe0g","pricing_plan_id":"cebpf4jnsgd1na2vs0mg"},{"bike_id":"837c0228-0757-4f05-83d3-09e9488d15ff","system_id":"levelo_inurba_marseille","lat":43.28478,"lon":5.38415,"is_reserved":false,"is_disabled":false,"rental_uris":{"android":"levelo://app?vid=837c0228-0757-4f05-83d3-09e9488d15ff","ios":"levelo://app?vid=837c0228-0757-4f05-83d3-09e9488d15ff"},"vehicle_type_id":"4","last_reported":1765905334,"current_range_meters":16400,"station_id":"ce4bh512rcd13ifvqe3g","pricing_plan_id":"cebpf4jnsgd1na2vs0mg"},{"bike_id":"552a8dd4-3395-49d7-842b-91ae00222121","system_id":"levelo_inurba_marseille","lat":43.23178,"lon":5.39981,"is_reserved":false,"is_disabled":false,"rental_uris":{"android":"levelo://app?vid=552a8dd4-3395-49d7-842b-91ae00222121","ios":"levelo://app?vid=552a8dd4-3395-49d7-842b-91ae00222121"},"vehicle_type_id":"4","last_reported":1765905334,"current_range_meters":16400,"station_id":"ce4bhn12rcd13ifvqgqg","pricing_plan_id":"cebpf4jnsgd1na2vs0mg"},{"bike_id":"aaa4ac45-e2ba-4936-9a87-c60e707fc0d9","system_id":"levelo_inurba_marseille","lat":43.27995,"lon":5.41669,"is_reserved":false,"is_disabled":false,"rental_uris":{"android":"levelo://app?vid=aaa4ac45-e2ba-4936-9a87-c60e707fc0d9","ios":"levelo://app?vid=aaa4ac45-e2ba-4936-9a87-c60e707fc0d9"},"vehicle_type_id":"4","last_reported":1765905334,"current_range_meters":16400,"station_id":"ce4bho12rcd13ifvqh1g","pricing_plan_id":"cebpf4jnsgd1na2vs0mg"},{"bike_id":"a0ee95ce-867d-48c9-96f3-364b3cf22de1","system_id":"levelo_inurba_marseille","lat":43.301903,"lon":5.36602,"is_reserved":false,"is_disabled":false,"rental_uris":{"android":"levelo://app?vid=a0ee95ce-867d-48c9-96f3-364b3cf22de1","ios":"levelo://app?vid=a0ee95ce-867d-48c9-96f3-364b3cf22de1"},"vehicle_type_id":"4","last_reported":1765905334,"current_range_meters":16400,"station_id":"ce4bgrh2rcd13ifvqc8g","pricing_plan_id":"cebpf4jnsgd1na2vs0mg"},{"bike_id":"2f48a76a-f4e0-44e8-b1db-59ee514aacb8","system_id":"levelo_inurba_marseille","lat":43.29908,"lon":5.37459,"is_reserved":false,"is_disabled":false,"rental_uris":{"android":"levelo://app?vid=2f48a76a-f4e0-44e8-b1db-59ee514aacb8","ios":"levelo://app?vid=2f48a76a-f4e0-44e8-b1db-59ee514aacb8"},"vehicle_type_id":"4","last_reported":1765905334,"current_range_meters":16800,"station_id":"ce4bgjh2rcd13ifvqbg0","pricing_plan_id":"cebpf4jnsgd1na2vs0mg"},{"bike_id":"aae25742-9eeb-49ec-a8e5-f2b92e66260e","system_id":"levelo_inurba_marseille","lat":43.28479,"lon":5.48394,"is_reserved":false,"is_disabled":false,"rental_uris":{"android":"levelo://app?vid=aae25742-9eeb-49ec-a8e5-f2b92e66260e","ios":"levelo://app?vid=aae25742-9eeb-49ec-a8e5-f2b92e66260e"},"vehicle_type_id":"4","last_reported":1765905334,"current_range_meters":16800,"station_id":"st_d3svhcjqgbts73a3dn0g","pricing_plan_id":"cebpf4jnsgd1na2vs0mg"},{"bike_id":"cd57cb40-bda6-437f-8e7c-06364cef0754","system_id":"levelo_inurba_marseille","lat":43.30082,"lon":5.39098,"is_reserved":false,"is_disabled":false,"rental_uris":{"android":"levelo://app?vid=cd57cb40-bda6-437f-8e7c-06364cef0754","ios":"levelo://app?vid=cd57cb40-bda6-437f-8e7c-06364cef0754"},"vehicle_type_id":"4","last_reported":1765905334,"current_range_meters":16800,"station_id":"ce4bh192rcd13ifvqdb0","pricing_plan_id":"cebpf4jnsgd1na2vs0mg"},{"bike_id":"adb9b3da-84de-467e-9e1c-f9c94394d4ee","system_id":"levelo_inurba_marseille","lat":43.30438,"lon":5.38872,"is_reserved":false,"is_disabled":false,"rental_uris":{"android":"levelo://app?vid=adb9b3da-84de-467e-9e1c-f9c94394d4ee","ios":"levelo://app?vid=adb9b3da-84de-467e-9e1c-f9c94394d4ee"},"vehicle_type_id":"4","last_reported":1765905334,"current_range_meters":16800,"station_id":"ce4bgk12rcd13ifvqbi0","pricing_plan_id":"cebpf4jnsgd1na2vs0mg"},{"bike_id":"50a5b016-cf9a-497e-8e9c-2f2d39e2c6a3","system_id":"levelo_inurba_marseille","lat":43.32098,"lon":5.36781,"is_reserved":false,"is_disabled":false,"rental_uris":{"android":"levelo://app?vid=50a5b016-cf9a-497e-8e9c-2f2d39e2c6a3","ios":"levelo://app?vid=50a5b016-cf9a-497e-8e9c-2f2d39e2c6a3"},"vehicle_type_id":"4","last_reported":1765905334,"current_range_meters":16800,"station_id":"ce4bhrh2rcd13ifvqhug","pricing_plan_id":"cebpf4jnsgd1na2vs0mg"},{"bike_id":"e920912a-6e5c-46f9-83a9-646062293022","system_id":"levelo_inurba_marseille","lat":43.2822,"lon":5.39075,"is_reserved":false,"is_disabled":false,"rental_uris":{"android":"levelo://app?vid=e920912a-6e5c-46f9-83a9-646062293022","ios":"levelo://app?vid=e920912a-6e5c-46f9-83a9-646062293022"},"vehicle_type_id":"4","last_reported":1765905334,"current_range_meters":16800,"station_id":"ce4bhn92rcd13ifvqgsg","pricing_plan_id":"cebpf4jnsgd1na2vs0mg"},{"bike_id":"4515132a-3268-4b1c-81eb-02cb63ec18dc","system_id":"levelo_inurba_marseille","lat":43.33154,"lon":5.37697,"is_reserved":false,"is_disabled":false,"rental_uris":{"android":"levelo://app?vid=4515132a-3268-4b1c-81eb-02cb63ec18dc","ios":"levelo://app?vid=4515132a-3268-4b1c-81eb-02cb63ec18dc"},"vehicle_type_id":"4","last_reported":1765905334,"current_range_meters":16800,"station_id":"st_d46cu089ee8s73dldbu0","pricing_plan_id":"cebpf4jnsgd1na2vs0mg"},{"bike_id":"a5f85ed1-5432-4565-9d3f-00675e2bbf99","system_id":"levelo_inurba_marseille","lat":43.301683,"lon":5.380981,"is_reserved":false,"is_disabled":true,"rental_uris":{"android":"levelo://app?vid=a5f85ed1-5432-4565-9d3f-00675e2bbf99","ios":"levelo://app?vid=a5f85ed1-5432-4565-9d3f-00675e2bbf99"},"vehicle_type_id":"4","last_reported":1765905334,"current_range_meters":16800,"station_id":"ce4bgjp2rcd13ifvqbh0","pricing_plan_id":"cebpf4jnsgd1na2vs0mg"},{"bike_id":"5542e50a-0abd-4334-b9c8-d3ed3aed793c","system_id":"levelo_inurba_marseille","lat":43.30442,"lon":5.37101,"is_reserved":false,"is_disabled":false,"rental_uris":{"android":"levelo://app?vid=5542e50a-0abd-4334-b9c8-d3ed3aed793c","ios":"levelo://app?vid=5542e50a-0abd-4334-b9c8-d3ed3aed793c"},"vehicle_type_id":"4","last_reported":1765905334,"current_range_meters":17200,"station_id":"","pricing_plan_id":"cebpf4jnsgd1na2vs0mg"},{"bike_id":"2f7c6246-bfb0-4e2a-84b0-84ba2febec6a","system_id":"levelo_inurba_marseille","lat":43.28425,"lon":5.34981,"is_reserved":false,"is_disabled":false,"rental_uris":{"android":"levelo://app?vid=2f7c6246-bfb0-4e2a-84b0-84ba2febec6a","ios":"levelo://app?vid=2f7c6246-bfb0-4e2a-84b0-84ba2febec6a"},"vehicle_type_id":"4","last_reported":1765905334,"current_range_meters":17200,"station_id":"ce4bhbh2rcd13ifvqepg","pricing_plan_id":"cebpf4jnsgd1na2vs0mg"},{"bike_id":"d0e47d82-46b1-4391-9c6a-cf32785e1c0d","system_id":"levelo_inurba_marseille","lat":43.28482,"lon":5.38475,"is_reserved":false,"is_disabled":false,"rental_uris":{"android":"levelo://app?vid=d0e47d82-46b1-4391-9c6a-cf32785e1c0d","ios":"levelo://app?vid=d0e47d82-46b1-4391-9c6a-cf32785e1c0d"},"vehicle_type_id":"4","last_reported":1765905334,"current_range_meters":17200,"station_id":"ce4bh512rcd13ifvqe3g","pricing_plan_id":"cebpf4jnsgd1na2vs0mg"},