{"last_updated":1766128448,"ttl":60,"version":"2.2","data":{"bikes":[{"bike_id":"73b791d2-6f8a-4c76-a940-4605611964e2","system_id":"levelo_inurba_marseille","lat":43.27365,"lon":5.36249,"is_reserved":false,"is_disabled":false,"rental_uris":{"android":"levelo://app?vid=73b791d2-6f8a-4c76-a940-4605611964e2","ios":"levelo://app?vid=73b791d2-6f8a-4c76-a940-4605611964e2"},"vehicle_type_id":"4","last_reported":1766128448,"current_range_meters":2800,"station_id":"ce4bhbh2rcd13ifvqeo0","pricing_plan_id":"cebpf4jnsgd1na2vs0mg"},{"bike_id":"0b8ed324-0846-4be1-8827-b5d8db7fa9ab","system_id":"levelo_inurba_marseille","lat":43.28527,"lon":5.44101,"is_reserved":false,"is_disabled":true,"rental_uris":{"android":"levelo://app?vid=0b8ed324-0846-4be1-8827-b5d8db7fa9ab","ios":"levelo://app?vid=0b8ed324-0846-4be1-8827-b5d8db7fa9ab"},"vehicle_type_id":"4","last_reported":1766128448,"current_range_meters":2800,"station_id":"st_d3j3df2ikq2c7380ej80","pricing_plan_id":"cebpf4jnsgd1na2vs0mg"},{"bike_id":"51fa6799-b2ee-4fb9-a6f9-08e96132c6f6","system_id":"levelo_inurba_marseille","lat":43.28954,"lon":5.36396,"is_reserved":false,"is_disabled":false,"rental_uris":{"android":"levelo://app?vid=51fa6799-b2ee-4fb9-a6f9-08e96132c6f6","ios":"levelo://app?vid=51fa6799-b2ee-4fb9-a6f9-08e96132c6f6"},"vehicle_type_id":"4","last_reported":1766128448,"current_range_meters":3200,"station_id":"ce4bhc92rcd13ifvqetg","pricing_plan_id":"cebpf4jnsgd1na2vs0mg"},{"bike_id":"88031236-6a40-4d32-a503-adc00e8f1b31","system_id":"levelo_inurba_marseille","lat":43.33767,"lon":5.374479,"is_reserved":false,"is_disabled":false,"rental_uris":{"android":"levelo://app?vid=88031236-6a40-4d32-a503-adc00e8f1b31","ios":"levelo://app?vid=88031236-6a40-4d32-a503-adc00e8f1b31"},"vehicle_type_id":"4","last_reported":1766128448,"current_range_meters":3600,"station_id":"","pricing_plan_id":"cebpf4jnsgd1na2vs0mg"},{"bike_id":"f9902b54-359a-4a2d-9dab-8d982ebd9f4d","system_id":"levelo_inurba_marseille","lat":43.288417,"lon":5.360906,"is_reserved":false,"is_disabled":false,"rental_uris":{"android":"levelo://app?vid=f9902b54-359a-4a2d-9dab-8d982ebd9f4d","ios":"levelo://app?vid=f9902b54-359a-4a2d-9dab-8d982ebd9f4d"},"vehicle_type_id":"4","last_reported":1766128448,"current_range_meters":3600,"station_id":"","pricing_plan_id":"cebpf4jnsgd1na2vs0mg"},{"bike_id":"cc178787-4e27-477e-85ac-bb874f1df1de","system_id":"levelo_inurba_marseille","lat":43.27332,"lon":5.41085,"is_reserved":false,"is_disabled":false,"rental_uris":{"android":"levelo://app?vid=cc178787-4e27-477e-85ac-bb874f1df1de","ios":"levelo://app?vid=cc178787-4e27-477e-85ac-bb874f1df1de"},"vehicle_type_id":"4","last_reported":1766128448,"current_range_meters":3600,"station_id":"","pricing_plan_id":"cebpf4jnsgd1na2vs0mg"},{"bike_id":"00ff8c41-7704-4434-9eea-68842155334e","system_id":"levelo_inurba_marseille","lat":43.2993,"lon":5.36546,"is_reserved":false,"is_disabled":false,"rental_uris":{"android":"levelo://app?vid=00ff8c41-7704-4434-9eea-68842155334e","ios":"levelo://app?vid=00ff8c41-7704-4434-9eea-68842155334e"},"vehicle_type_id":"4","last_reported":1766128448,"current_range_meters":3600,"station_id":"ce4bgm92rcd13ifvqbr0","pricing_plan_id":"cebpf4jnsgd1na2vs0mg"},{"bike_id":"a1ac0ba7-1483-464e-9caa-755fc64f46a4","system_id":"levelo_inurba_marseille","lat":43.24065,"lon":5.37823,"is_reserved":false,"is_disabled":false,"rental_uris":{"android":"levelo://app?vid=a1ac0ba7-1483-464e-9caa-755fc64f46a4","ios":"levelo://app?vid=a1ac0ba7-1483-464e-9caa-755fc64f46a4"},"vehicle_type_id":"4","last_reported":1766128448,"current_range_meters":3600,"station_id":"","pricing_plan_id":"cebpf4jnsgd1na2vs0mg"},{"bike_id":"263ea138-c96c-491a-87fd-1c0a3a41274b","system_id":"levelo_inurba_marseille","lat":43.290226,"lon":5.381305,"is_reserved":false,"is_disabled":false,"rental_uris":{"android":"levelo://app?vid=263ea138-c96c-491a-87fd-1c0a3a41274b","ios":"levelo://app?vid=263ea138-c96c-491a-87fd-1c0a3a41274b"},"vehicle_type_id":"4","last_reported":1766128448,"current_range_meters":4000,"station_id":"ce4bh4p2rcd13ifvqe1g","pricing_plan_id":"cebpf4jnsgd1na2vs0mg"},{"bike_id":"2734d6e7-0375-4f56-8446-04dd5477c707","system_id":"levelo_inurba_marseille","lat":43.27661,"lon":5.38917,"is_reserved":false,"is_disabled":false,"rental_uris":{"android":"levelo://app?vid=2734d6e7-0375-4f56-8446-04dd5477c707","ios":"levelo://app?vid=2734d6e7-0375-4f56-8446-04dd5477c707"},"vehicle_type_id":"4","last_reported":1766128448,"current_range_meters":4000,"station_id":"ce4bhi12rcd13ifvqfo0","pricing_plan_id":"cebpf4jnsgd1na2vs0mg"},{"bike_id":"718b2211-3725-4a62-b19b-57eba450ac56","system_id":"levelo_inurba_marseille","lat":43.240763,"lon":5.377559,"is_reserved":false,"is_disabled":false,"rental_uris":{"android":"levelo://app?vid=718b2211-3725-4a62-b19b-57eba450ac56","ios":"levelo://app?vid=718b2211-3725-4a62-b19b-57eba450ac56"},"vehicle_type_id":"4","last_reported":1766128448,"current_range_meters":4000,"station_id":"ce4bhnp2rcd13ifvqgvg","pricing_plan_id":"cebpf4jnsgd1na2vs0mg"},{"bike_id":"c7e5daf3-a6b0-4ffc-8e95-134c47362fa1","system_id":"levelo_inurba_marseille","lat":43.30135,"lon":5.36868,"is_reserved":false,"is_disabled":false,"rental_uris":{"android":"levelo://app?vid=c7e5daf3-a6b0-4ffc-8e95-134c47362fa1","ios":"levelo://app?vid=c7e5daf3-a6b0-4ffc-8e95-134c47362fa1"},"vehicle_type_id":"4","last_reported":1766128448,"current_range_meters":4000,"station_id":"","pricing_plan_id":"cebpf4jnsgd1na2vs0mg"},{"bike_id":"6ffdae3b-a52e-467d-9cfc-11d3b3e8193c","system_id":"levelo_inurba_marseille","lat":43.24075,"lon":5.37761,"is_reserved":false,"is_disabled":false,"rental_uris":{"android":"levelo://app?vid=6ffdae3b-a52e-467d-9cfc-11d3b3e8193c","ios":"levelo://app?vid=6ffdae3b-a52e-467d-9cfc-11d3b3e8193c"},"vehicle_type_id":"4","last_reported":1766128448,"current_range_meters":4000,"station_id":"ce4bhnp2rcd13ifvqgvg","pricing_plan_id":"cebpf4jnsgd1na2vs0mg"},{"bike_id":"ec9d8cfa-7177-4a22-b722-be96750525bd","system_id":"levelo_inurba_marseille","lat":43.28865,"lon":5.42523,"is_reserved":false,"is_disabled":false,"rental_uris":{"android":"levelo://app?vid=ec9d8cfa-7177-4a22-b722-be96750525bd","ios":"levelo://app?vid=ec9d8cfa-7177-4a22-b722-be96750525bd"},"vehicle_type_id":"4","last_reported":1766128448,"current_range_meters":4000,"station_id":"st_d3b462108ojc7389ooeg","pricing_plan_id":"cebpf4jnsgd1na2vs0mg"},{"bike_id":"d235767a-3e44-44c9-893e-7ebda15e5a64","system_id":"levelo_inurba_marseille","lat":43.25401,"lon":5.38554,"is_reserved":false,"is_disabled":false,"rental_uris":{"android":"levelo://app?vid=d235767a-3e44-44c9-893e-7ebda15e5a64","ios":"levelo://app?vid=d235767a-3e44-44c9-893e-7ebda15e5a64"},"vehicle_type_id":"4","last_reported":1766128448,"current_range_meters":4400,"station_id":"","pricing_plan_id":"cebpf4jnsgd1na2vs0mg"},{"bike_id":"07102bbf-8e43-4cc8-abfb-b7bffaf00185","system_id":"levelo_inurba_marseille","lat":43.293853,"lon":5.362751,"is_reserved":false,"is_disabled":false,"rental_uris":{"android":"levelo://app?vid=07102bbf-8e43-4cc8-abfb-b7bffaf00185","ios":"levelo://app?vid=07102bbf-8e43-4cc8-abfb-b7bffaf00185"},"vehicle_type_id":"4","last_reported":1766128448,"current_range_meters":4400,"station_id":"","pricing_plan_id":"cebpf4jnsgd1na2vs0mg"},{"bike_id":"50e6eefe-8aea-4054-ab8f-87d6e301ff34","system_id":"levelo_inurba_marseille","lat":43.242998,"lon":5.438436,"is_reserved":false,"is_disabled":false,"rental_uris":{"android":"levelo://app?vid=50e6eefe-8aea-4054-ab8f-87d6e301ff34","ios":"levelo://app?vid=50e6eefe-8aea-4054-ab8f-87d6e301ff34"},"vehicle_type_id":"4","last_reported":1766128448,"current_range_meters":4400,"station_id":"","pricing_plan_id":"cebpf4jnsgd1na2vs0mg"},{"bike_id":"d2bcf7e6-9e6c-48c1-8c64-5337f19dad07","system_id":"levelo_inurba_marseille","lat":43.22872,"lon":5.39956,"is_reserved":false,"is_disabled":false,"rental_uris":{"android":"levelo://app?vid=d2bcf7e6-9e6c-48c1-8c64-5337f19dad07","ios":"levelo://app?vid=d2bcf7e6-9e6c-48c1-8c64-5337f19dad07"},"vehicle_type_id":"4","last_reported":1766128448,"current_range_meters":4400,"station_id":"","pricing_plan_id":"cebpf4jnsgd1na2vs0mg"},{"bike_id":"fdb18b9b-3b90-486e-b306-62bb1a73300b","system_id":"levelo_inurba_marseille","lat":43.2466,"lon":5.38148,"is_reserved":false,"is_disabled":false,"rental_uris":{"android":"levelo://app?vid=fdb18b9b-3b90-486e-b306-62bb1a73300b","ios":"levelo://app?vid=fdb18b9b-3b90-486e-b306-62bb1a73300b"},"vehicle_type_id":"4","last_reported":1766128448,"current_range_meters":4800,"station_id":"ce4bhih2rcd13ifvqfr0","pricing_plan_id":"cebpf4jnsgd1na2vs0mg"},{"bike_id":"c931bffa-178c-46cf-a70c-e1fac70d3e5e","system_id":"levelo_inurba_marseille","lat":43.29282,"lon":5.36867,"is_reserved":false,"is_disabled":false,"rental_uris":{"android":"levelo://app?vid=c931bffa-178c-46cf-a70c-e1fac70d3e5e","ios":"levelo://app?vid=c931bffa-178c-46cf-a70c-e1fac70d3e5e"},"vehicle_type_id":"4","last_reported":1766128448,"current_range_meters":4800,"station_id":"ce4bhbp2rcd13ifvqesg","pricing_plan_id":"cebpf4jnsgd1na2vs0mg"},{"bike_id":"2ffc2897-117c-473e-923b-4a2502cbc2ab","system_id":"levelo_inurba_marseille","lat":43.29282,"lon":5.40134,"is_reserved":false,"is_disabled":false,"rental_uris":{"android":"levelo://app?vid=2ffc2897-117c-473e-923b-4a2502cbc2ab","ios":"levelo://app?vid=2ffc2897-117c-473e-923b-4a2502cbc2ab"},"vehicle_type_id":"4","last_reported":1766128448,"current_range_meters":4800,"station_id":"ce4bh312rcd13ifvqdk0","pricing_plan_id":"cebpf4jnsgd1na2vs0mg"},{"bike_id":"d5dd2e1f-6caa-403c-b144-e678f4b6bd63","system_id":"levelo_inurba_marseille","lat":43.32104,"lon":5.36765,"is_reserved":false,"is_disabled":false,"rental_uris":{"android":"levelo://app?vid=d5dd2e1f-6caa-403c-b144-e678f4b6bd63","ios":"levelo://app?vid=d5dd2e1f-6caa-403c-b144-e678f4b6bd63"},"vehicle_type_id":"4","last_reported":1766128448,"current_range_meters":4800,"station_id":"ce4bhrh2rcd13ifvqhug","pricing_plan_id":"cebpf4jnsgd1na2vs0mg"},{"bike_id":"c4a0a763-a197-4df7-8090-1012ff3d291c","system_id":"levelo_inurba_marseille","lat":43.26556,"lon":5.37289,"is_reserved":false,"is_disabled":false,"rental_uris":{"android":"levelo://app?vid=c4a0a763-a197-4df7-8090-1012ff3d291c","ios":"levelo://app?vid=c4a0a763-a197-4df7-8090-1012ff3d291c"},"vehicle_type_id":"4","last_reported":1766128448,"current_range_meters":5600,"station_id":"ce4bhg12rcd13ifvqf70","pricing_plan_id":"cebpf4jnsgd1na2vs0mg"},{"bike_id":"b6974cac-17ff-404a-846c-ff0003a98209","system_id":"levelo_inurba_marseille","lat":43.24065,"lon":5.37755,"is_reserved":false,"is_disabled":false,"rental_uris":{"android":"levelo://app?vid=b6974cac-17ff-404a-846c-ff0003a98209","ios":"levelo://app?vid=b6974cac-17ff-404a-846c-ff0003a98209"},"vehicle_type_id":"4","last_reported":1766128448,"current_range_meters":5600,"station_id":"ce4bhnp2rcd13ifvqgvg","pricing_plan_id":"cebpf4jnsgd1na2vs0mg"},{"bike_id":"d88f83fc-7a24-4804-9301-839b1ae399e9","system_id":"levelo_inurba_marseille","lat":43.29525,"lon":5.37842,"is_reserved":false,"is_disabled":false,"rental_uris":{"android":"levelo://app?vid=d88f83fc-7a24-4804-9301-839b1ae399e9","ios":"levelo://app?vid=d88f83fc-7a24-4804-9301-839b1ae399e9"},"vehicle_type_id":"4","last_reported":1766128448,"current_range_meters":5600,"station_id":"","pricing_plan_id":"cebpf4jnsgd1na2vs0mg"},{"bike_id":"a9adc8bf-52f1-4c31-a2de-42743dd086bf","system_id":"levelo_inurba_marseille","lat":43.33723,"lon":5.3748,"is_reserved":false,"is_disabled":false,"rental_uris":{"android":"levelo://app?vid=a9adc8bf-52f1-4c31-a2de-42743dd086bf","ios":"levelo://app?vid=a9adc8bf-52f1-4c31-a2de-42743dd086bf"},"vehicle_type_id":"4","last_reported":1766128448,"current_range_meters":5600,"station_id":"","pricing_plan_id":"cebpf4jnsgd1na2vs0mg"},{"bike_id":"7d91a4d4-d184-4041-af53-a554b1c5f567","system_id":"levelo_inurba_marseille","lat":43.29741,"lon":5.37673,"is_reserved":false,"is_disabled":false,"rental_uris":{"android":"levelo://app?vid=7d91a4d4-d184-4041-af53-a554b1c5f567","ios":"levelo://app?vid=7d91a4d4-d184-4041-af53-a554b1c5f567"},"vehicle_type_id":"4","last_reported":1766128448,"current_range_meters":5600,"station_id":"ce4bgkh2rcd13ifvqbl0","pricing_plan_id":"cebpf4jnsgd1na2vs0mg"},{"bike_id":"a96e8f12-6904-4a45-aa16-0c9b2d30b482","system_id":"levelo_inurba_marseille","lat":43.31551,"lon":5.36895,"is_reserved":false,"is_disabled":false,"rental_uris":{"android":"levelo://app?vid=a96e8f12-6904-4a45-aa16-0c9b2d30b482","ios":"levelo://app?vid=a96e8f12-6904-4a45-aa16-0c9b2d30b482"},"vehicle_type_id":"4","last_reported":1766128448,"current_range_meters":5600,"station_id":"","pricing_plan_id":"cebpf4jnsgd1na2vs0mg"},{"bike_id":"00fd2dcb-6faf-4c7a-8c99-525909084655","system_id":"levelo_inurba_marseille","lat":43.28162,"lon":5.42635,"is_reserved":false,"is_disabled":true,"rental_uris":{"android":"levelo://app?vid=00fd2dcb-6faf-4c7a-8c99-525909084655","ios":"levelo://app?vid=00fd2dcb-6faf-4c7a-8c99-525909084655"},"vehicle_type_id":"4","last_reported":1766128448,"current_range_meters":6000,"station_id":"ce4bhnh2rcd13ifvqgug","pricing_plan_id":"cebpf4jnsgd1na2vs0mg"},{"bike_id":"33b451a0-a441-4300-869b-39a18ae89cae","system_id":"levelo_inurba_marseille","lat":43.30259,"lon":5.40087,"is_reserved":false,"is_disabled":false,"rental_uris":{"android":"levelo://app?vid=33b451a0-a441-4300-869b-39a18ae89cae","ios":"levelo://app?vid=33b451a0-a441-4300-869b-39a18ae89cae"},"vehicle_type_id":"4","last_reported":1766128448,"current_range_meters":6000,"station_id":"ce4bgvh2rcd13ifvqcs0","pricing_plan_id":"cebpf4jnsgd1na2vs0mg"},{"bike_id":"c77ed1c3-96ae-45e5-a4d4-21b6a72cf6a6","system_id":"levelo_inurba_marseille","lat":43.31345,"lon":5.39714,"is_reserved":false,"is_disabled":true,"rental_uris":{"android":"levelo://app?vid=c77ed1c3-96ae-45e5-a4d4-21b6a72cf6a6","ios":"levelo://app?vid=c77ed1c3-96ae-45e5-a4d4-21b6a72cf6a6"},"vehicle_type_id":"4","last_reported":1766128448,"current_range_meters":6400,"station_id":"ce4bgvp2rcd13ifvqcu0","pricing_plan_id":"cebpf4jnsgd1na2vs0mg"},{"bike_id":"135034e9-a9ba-448f-8fb7-1a6ab7b9598e","system_id":"levelo_inurba_marseille","lat":43.2656,"lon":5.37268,"is_reserved":false,"is_disabled":true,"rental_uris":{"android":"levelo://app?vid=135034e9-a9ba-448f-8fb7-1a6ab7b9598e","ios":"levelo://app?vid=135034e9-a9ba-448f-8fb7-1a6ab7b9598e"},"vehicle_type_id":"4","last_reported":1766128448,"current_range_meters":6400,"station_id":"ce4bhg12rcd13ifvqf70","pricing_plan_id":"cebpf4jnsgd1na2vs0mg"},{"bike_id":"3cde007c-a409-4597-91e7-ca2461274ad1","system_id":"levelo_inurba_marseille","lat":43.26568,"lon":5.40199,"is_reserved":false,"is_disabled":false,"rental_uris":{"android":"levelo://app?vid=3cde007c-a409-4597-91e7-ca2461274ad1","ios":"levelo://app?vid=3cde007c-a409-4597-91e7-ca2461274ad1"},"vehicle_type_id":"4","last_reported":1766128448,"current_range_meters":6400,"station_id":"","pricing_plan_id":"cebpf4jnsgd1na2vs0mg"},{"bike_id":"c6d46fa6-4244-47db-bf38-73e3be416caa","system_id":"levelo_inurba_marseille","lat":43.292534,"lon":5.376176,"is_reserved":false,"is_disabled":false,"rental_uris":{"android":"levelo://app?vid=c6d46fa6-4244-47db-bf38-73e3be416caa","ios":"levelo://app?vid=c6d46fa6-4244-47db-bf38-73e3be416caa"},"vehicle_type_id":"4","last_reported":1766128448,"current_range_meters":6400,"station_id":"ce4bgi12rcd13ifvqb80","pricing_plan_id":"cebpf4jnsgd1na2vs0mg"},{"bike_id":"bd9f5726-57b9-4211-811f-03f39d31409a","system_id":"levelo_inurba_marseille","lat":43.26365,"lon":5.41082,"is_reserved":false,"is_disabled":false,"rental_uris":{"android":"levelo://app?vid=bd9f5726-57b9-4211-811f-03f39d31409a","ios":"levelo://app?vid=bd9f5726-57b9-4211-811f-03f39d31409a"},"vehicle_type_id":"4","last_reported":1766128448,"current_range_meters":6400,"station_id":"st_d4e5ca6na9uc73bfl5fg","pricing_plan_id":"cebpf4jnsgd1na2vs0mg"},{"bike_id":"81508f0a-e327-4705-ae72-228165570b37","system_id":"levelo_inurba_marseille","lat":43.25095,"lon":5.38941,"is_reserved":false,"is_disabled":false,"rental_uris":{"android":"levelo://app?vid=81508f0a-e327-4705-ae72-228165570b37","ios":"levelo://app?vid=81508f0a-e327-4705-ae72-228165570b37"},"vehicle_type_id":"4","last_reported":1766128448,"current_range_meters":6800,"station_id":"","pricing_plan_id":"cebpf4jnsgd1na2vs0mg"},{"bike_id":"da18a3b0-ce97-43eb-b181-936e440b40e5","system_id":"levelo_inurba_marseille","lat":43.31695,"lon":5.40387,"is_reserved":false,"is_disabled":false,"rental_uris":{"android":"levelo://app?vid=da18a3b0-ce97-43eb-b181-936e440b40e5","ios":"levelo://app?vid=da18a3b0-ce97-43eb-b181-936e440b40e5"},"vehicle_type_id":"4","last_reported":1766128448,"current_range_meters":6800,"station_id":"","pricing_plan_id":"cebpf4jnsgd1na2vs0mg"},{"bike_id":"6ea1c15e-5b74-4575-9f55-3622c6e19603","system_id":"levelo_inurba_marseille","lat":43.28838,"lon":5.35893,"is_reserved":false,"is_disabled":false,"rental_uris":{"android":"levelo://app?vid=6ea1c15e-5b74-4575-9f55-3622c6e19603","ios":"levelo://app?vid=6ea1c15e-5b74-4575-9f55-3622c6e19603"},"vehicle_type_id":"4","last_reported":1766128448,"current_range_meters":7200,"station_id":"ce4bhb12rcd13ifvqem0","pricing_plan_id":"cebpf4jnsgd1na2vs0mg"},{"bike_id":"7269d091-ddac-4db0-8508-7fa2778f9131","system_id":"levelo_inurba_marseille","lat":43.33748,"lon":5.37436,"is_reserved":false,"is_disabled":false,"rental_uris":{"android":"levelo://app?vid=7269d091-ddac-4db0-8508-7fa2778f9131","ios":"levelo://app?vid=7269d091-ddac-4db0-8508-7fa2778f9131"},"vehicle_type_id":"4","last_reported":1766128448,"current_range_meters":7200,"station_id":"","pricing_plan_id":"cebpf4jnsgd1na2vs0mg"},{"bike_id":"9282d5a7-0e9c-4010-ae8a-61b36e696bbc","system_id":"levelo_inurba_marseille","lat":43.25339,"lon":5.42174,"is_reserved":false,"is_disabled":false,"rental_uris":{"android":"levelo://app?vid=9282d5a7-0e9c-4010-ae8a-61b36e696bbc","ios":"levelo://app?vid=9282d5a7-0e9c-4010-ae8a-61b36e696bbc"},"vehicle_type_id":"4","last_reported":1766128448,"current_range_meters":7200,"station_id":"st_d2m65c5bi1j21697t3ng","pricing_plan_id":"cebpf4jnsgd1na2vs0mg"},{"bike_id":"55793fee-0b48-4ea8-8b3c-24460bf017fa","system_id":"levelo_inurba_marseille","lat":43.30157,"lon":5.38089,"is_reserved":false,"is_disabled":false,"rental_uris":{"android":"levelo://app?vid=55793fee-0b48-4ea8-8b3c-24460bf017fa","ios":"levelo://app?vid=55793fee-0b48-4ea8-8b3c-24460bf017fa"},"vehicle_type_id":"4","last_reported":1766128448,"current_range_meters":7200,"station_id":"ce4bgjp2rcd13ifvqbh0","pricing_plan_id":"cebpf4jnsgd1na2vs0mg"},{"bike_id":"43f8c405-568b-40a3-a67a-99619c5e63c0","system_id":"levelo_inurba_marseille","lat":43.30537,"lon":5.38428,"is_reserved":false,"is_disabled":false,"rental_uris":{"android":"levelo://app?vid=43f8c405-568b-40a3-a67a-99619c5e63c0","ios":"levelo://app?vid=43f8c405-568b-40a3-a67a-99619c5e63c0"},"vehicle_type_id":"4","last_reported":1766128448,"current_range_meters":7200,"station_id":"ce4bgg92rcd13ifvqb30","pricing_plan_id":"cebpf4jnsgd1na2vs0mg"},{"bike_id":"48e30a46-3a61-4ed5-93c8-2b0ee8661bac","system_id":"levelo_inurba_marseille","lat":43.30192,"lon":5.38086,"is_reserved":false,"is_disabled":false,"rental_uris":{"android":"levelo://app?vid=48e30a46-3a61-4ed5-93c8-2b0ee8661bac","ios":"levelo://app?vid=48e30a46-3a61-4ed5-93c8-2b0ee8661bac"},"vehicle_type_id":"4","last_reported":1766128448,"current_range_meters":7200,"station_id":"","pricing_plan_id":"cebpf4jnsgd1na2vs0mg"},{"bike_id":"f7ebab7c-96ee-4ff2-8e1e-3a8d23205c84","system_id":"levelo_inurba_marseille","lat":43.26564,"lon":5.40327,"is_reserved":false,"is_disabled":false,"rental_uris":{"android":"levelo://app?vid=f7ebab7c-96ee-4ff2-8e1e-3a8d23205c84","ios":"levelo://app?vid=f7ebab7c-96ee-4ff2-8e1e-3a8d23205c84"},"vehicle_type_id":"4","last_reported":1766128448,"current_range_meters":7200,"station_id":"ce4bhmp2rcd13ifvqgng","pricing_plan_id":"cebpf4jnsgd1na2vs0mg"},{"bike_id":"f87a7598-e6b9-4feb-a6e3-d98d4acd6941","system_id":"levelo_inurba_marseille","lat":43.24174,"lon":5.36407,"is_reserved":false,"is_disabled":false,"rental_uris":{"android":"levelo://app?vid=f87a7598-e6b9-4feb-a6e3-d98d4acd6941","ios":"levelo://app?vid=f87a7598-e6b9-4feb-a6e3-d98d4acd6941"},"vehicle_type_id":"4","last_reported":1766128448,"current_range_meters":7200,"station_id":"cpo36qri1sfpv3e86is0","pricing_plan_id":"cebpf4jnsgd1na2vs0mg"},{"bike_id":"7ba54602-568d-42aa-bd74-9550f527b3b9","system_id":"levelo_inurba_marseille","lat":43.288393,"lon":5.358485,"is_reserved":false,"is_disabled":false,"rental_uris":{"android":"levelo://app?vid=7ba54602-568d-42aa-bd74-9550f527b3b9","ios":"levelo://app?vid=7ba54602-568d-42aa-bd74-9550f527b3b9"},"vehicle_type_id":"4","last_reported":1766128448,"current_range_meters":7200,"station_id":"ce4bhb12rcd13ifvqem0","pricing_plan_id":"cebpf4jnsgd1na2vs0mg"},{"bike_id":"467517c8-ed87-4e02-bef8-4ed63963538d","system_id":"levelo_inurba_marseille","lat":43.2718,"lon":5.40994,"is_reserved":false,"is_disabled":true,"rental_uris":{"android":"levelo://app?vid=467517c8-ed87-4e02-bef8-4ed63963538d","ios":"levelo://app?vid=467517c8-ed87-4e02-bef8-4ed63963538d"},"vehicle_type_id":"4","last_reported":1766128448,"current_range_meters":8000,"station_id":"ce4bhl12rcd13ifvqgf0","pricing_plan_id":"cebpf4jnsgd1na2vs0mg"},{"bike_id":"f65ad8d4-940c-4c44-8c2a-cd0c3cfcfbed","system_id":"levelo_inurba_marseille","lat":43.26682,"lon":5.38278,"is_reserved":false,"is_disabled":false,"rental_uris":{"android":"levelo://app?vid=f65ad8d4-940c-4c44-8c2a-cd0c3cfcfbed","ios":"levelo://app?vid=f65ad8d4-940c-4c44-8c2a-cd0c3cfcfbed"},"vehicle_type_id":"4","last_reported":1766128448,"current_range_meters":8000,"station_id":"ce4bhg92rcd13ifvqf90","pricing_plan_id":"cebpf4jnsgd1na2vs0mg"},{"bike_id":"40c51ff6-bcdf-4189-b2f9-53259a9dc236","system_id":"levelo_inurba_marseille","lat":43.28306,"lon":5.38919,"is_reserved":false,"is_disabled":true,"rental_uris":{"android":"levelo://app?vid=40c51ff6-bcdf-4189-b2f9-53259a9dc236","ios":"levelo://app?vid=40c51ff6-bcdf-4189-b2f9-53259a9dc236"},"vehicle_type_id":"4","last_reported":1766128448,"current_range_meters":8000,"station_id":"","pricing_plan_id":"cebpf4jnsgd1na2vs0mg"},{"bike_id":"2ec5c199-d849-42ff-a952-332855cece2d","system_id":"levelo_inurba_marseille","lat":43.30157,"lon":5.38079,"is_reserved":false,"is_disabled":false,"rental_uris":{"android":"levelo://app?vid=2ec5c199-d849-42ff-a952-332855cece2d","ios":"levelo://app?vid=2ec5c199-d849-42ff-a952-332855cece2d"},"vehicle_type_id":"4","last_reported":1766128448,"current_range_meters":8000,"station_id":"ce4bgjp2rcd13ifvqbh0","pricing_plan_id":"cebpf4jnsgd1na2vs0mg"},{"bike_id":"7ca36e65-29f2-4389-9847-4bff73ecf20a","system_id":"levelo_inurba_marseille","lat":43.32342,"lon":5.3673,"is_reserved":false,"is_disabled":false,"rental_uris":{"android":"levelo://app?vid=7ca36e65-29f2-4389-9847-4bff73ecf20a","ios":"levelo://app?vid=7ca36e65-29f2-4389-9847-4bff73ecf20a"},"vehicle_type_id":"4","last_reported":1766128448,"current_range_meters":8000,"station_id":"ce4bhsh2rcd13ifvqi2g","pricing_plan_id":"cebpf4jnsgd1na2vs0mg"},{"bike_id":"85f73172-657d-4c07-87c0-f885714ec732","system_id":"levelo_inurba_marseille","lat":43.28696,"lon":5.37387,"is_reserved":false,"is_disabled":false,"rental_uris":{"android":"levelo://app?vid=85f73172-657d-4c07-87c0-f885714ec732","ios":"levelo://app?vid=85f73172-657d-4c07-87c0-f885714ec732"},"vehicle_type_id":"4","last_reported":1766128448,"current_range_meters":8000,"station_id":"ce4bh3p2rcd13ifvqdq0","pricing_plan_id":"cebpf4jnsgd1na2vs0mg"},{"bike_id":"9a3d7d62-61d2-4eda-b573-080611517549","system_id":"levelo_inurba_marseille","lat":43.28616,"lon":5.35094,"is_reserved":false,"is_disabled":false,"rental_uris":{"android":"levelo://app?vid=9a3d7d62-61d2-4eda-b573-080611517549","ios":"levelo://app?vid=9a3d7d62-61d2-4eda-b573-080611517549"},"vehicle_type_id":"4","last_reported":1766128448,"current_range_meters":8000,"station_id":"ce4bhch2rcd13ifvqeug","pricing_plan_id":"cebpf4jnsgd1na2vs0mg"},{"bike_id":"c63ccd62-9e0a-4e66-92ab-9a7e6a0ecf3e","system_id":"levelo_inurba_marseille","lat":43.28989,"lon":5.39061,"is_reserved":false,"is_disabled":false,"rental_uris":{"android":"levelo://app?vid=c63ccd62-9e0a-4e66-92ab-9a7e6a0ecf3e","ios":"levelo://app?vid=c63ccd62-9e0a-4e66-92ab-9a7e6a0ecf3e"},"vehicle_type_id":"4","last_reported":1766128448,"current_range_meters":8000,"station_id":"","pricing_plan_id":"cebpf4jnsgd1na2vs0mg"},{"bike_id":"a995a60a-c8a4-454d-a12f-523b7a8e58ae","system_id":"levelo_inurba_marseille","lat":43.27502,"lon":5.4246,"is_reserved":false,"is_disabled":false,"rental_uris":{"android":"levelo://app?vid=a995a60a-c8a4-454d-a12f-523b7a8e58ae","ios":"levelo://app?vid=a995a60a-c8a4-454d-a12f-523b7a8e58ae"},"vehicle_type_id":"4","last_reported":1766128448,"current_range_meters":8000,"station_id":"ce4bhn92rcd13ifvqgrg","pricing_plan_id":"cebpf4jnsgd1na2vs0mg"},{"bike_id":"09575982-d1ce-48f3-97ed-c290bec651a2","system_id":"levelo_inurba_marseille","lat":43.2852,"lon":5.44105,"is_reserved":false,"is_disabled":false,"rental_uris":{"android":"levelo://app?vid=09575982-d1ce-48f3-97ed-c290bec651a2","ios":"levelo://app?vid=09575982-d1ce-48f3-97ed-c290bec651a2"},"vehicle_type_id":"4","last_reported":1766128448,"current_range_meters":8000,"station_id":"st_d3j3df2ikq2c7380ej80","pricing_plan_id":"cebpf4jnsgd1na2vs0mg"},{"bike_id":"1c783e39-3092-489d-97e8-0a4c367392b3","system_id":"levelo_inurba_marseille","lat":43.306009,"lon":5.372138,"is_reserved":false,"is_disabled":false,"rental_uris":{"android":"levelo://app?vid=1c783e39-3092-489d-97e8-0a4c367392b3","ios":"levelo://app?vid=1c783e39-3092-489d-97e8-0a4c367392b3"},"vehicle_type_id":"4","last_reported":1766128448,"current_range_meters":8400,"station_id":"ce4bgqh2rcd13ifvqc4g","pricing_plan_id":"cebpf4jnsgd1na2vs0mg"},{"bike_id":"6a1e1967-fdaf-4e65-ae26-1571d7f0290c","system_id":"levelo_inurba_marseille","lat":43.337605,"lon":5.374353,"is_reserved":false,"is_disabled":false,"rental_uris":{"android":"levelo://app?vid=6a1e1967-fdaf-4e65-ae26-1571d7f0290c","ios":"levelo://app?vid=6a1e1967-fdaf-4e65-ae26-1571d7f0290c"},"vehicle_type_id":"4","last_reported":1766128448,"current_range_meters":8400,"station_id":"","pricing_plan_id":"cebpf4jnsgd1na2vs0mg"},{"bike_id":"21e5fd9f-e5d4-4aeb-929a-a23be3e8819d","system_id":"levelo_inurba_marseille","lat":43.30917,"lon":5.40142,"is_reserved":false,"is_disabled":false,"rental_uris":{"android":"levelo://app?vid=21e5fd9f-e5d4-4aeb-929a-a23be3e8819d","ios":"levelo://app?vid=21e5fd9f-e5d4-4aeb-929a-a23be3e8819d"},"vehicle_type_id":"4","last_reported":1766128448,"current_range_meters":8400,"station_id":"ce4bgvp2rcd13ifvqct0","pricing_plan_id":"cebpf4jnsgd1na2vs0mg"},{"bike_id":"37acae82-d1d0-450a-bf9a-b56251eaf3bb","system_id":"levelo_inurba_marseille","lat":43.2294,"lon":5.35379,"is_reserved":false,"is_disabled":false,"rental_uris":{"android":"levelo://app?vid=37acae82-d1d0-450a-bf9a-b56251eaf3bb","ios":"levelo://app?vid=37acae82-d1d0-450a-bf9a-b56251eaf3bb"},"vehicle_type_id":"4","last_reported":1766128448,"current_range_meters":8400,"station_id":"cpo3532slgdg3j2ikp40","pricing_plan_id":"cebpf4jnsgd1na2vs0mg"},{"bike_id":"9302250b-f5e6-4d0c-863d-477f53448b1d","system_id":"levelo_inurba_marseille","lat":43.30158,"lon":5.38091,"is_reserved":false,"is_disabled":false,"rental_uris":{"android":"levelo://app?vid=9302250b-f5e6-4d0c-863d-477f53448b1d","ios":"levelo://app?vid=9302250b-f5e6-4d0c-863d-477f53448b1d"},"vehicle_type_id":"4","last_reported":1766128448,"current_range_meters":8400,"station_id":"ce4bgjp2rcd13ifvqbh0","pricing_plan_id":"cebpf4jnsgd1na2vs0mg"},{"bike_id":"ead4c991-44c9-4e28-99a1-c6da940a25f1","system_id":"levelo_inurba_marseille","lat":43.30533,"lon":5.38417,"is_reserved":false,"is_disabled":false,"rental_uris":{"android":"levelo://app?vid=ead4c991-44c9-4e28-99a1-c6da940a25f1","ios":"levelo://app?vid=ead4c991-44c9-4e28-99a1-c6da940a25f1"},"vehicle_type_id":"4","last_reported":1766128448,"current_range_meters":8400,"station_id":"ce4bgg92rcd13ifvqb30","pricing_plan_id":"cebpf4jnsgd1na2vs0mg"},{"bike_id":"cf0e2dfe-8751-4251-bbd3-3ad00be9f3ad","system_id":"levelo_inurba_marseille","lat":43.28483,"lon":5.48408,"is_reserved":false,"is_disabled":false,"rental_uris":{"android":"levelo://app?vid=cf0e2dfe-8751-4251-bbd3-3ad00be9f3ad","ios":"levelo://app?vid=cf0e2dfe-8751-4251-bbd3-3ad00be9f3ad"},"vehicle_type_id":"4","last_reported":1766128448,"current_range_meters":8400,"station_id":"","pricing_plan_id":"cebpf4jnsgd1na2vs0mg"},{"bike_id":"f0552324-7f16-45f2-af53-7d50398c0e4b","system_id":"levelo_inurba_marseille","lat":43.292011,"lon":5.393194,"is_reserved":false,"is_disabled":true,"rental_uris":{"android":"levelo://app?vid=f0552324-7f16-45f2-af53-7d50398c0e4b","ios":"levelo://app?vid=f0552324-7f16-45f2-af53-7d50398c0e4b"},"vehicle_type_id":"4","last_reported":1766128448,"current_range_meters":8400,"station_id":"ce4bh192rcd13ifvqdd0","pricing_plan_id":"cebpf4jnsgd1na2vs0mg"},{"bike_id":"7413a1e2-d316-4ad1-aaa9-9cebc99c4e3b","system_id":"levelo_inurba_marseille","lat":43.273529,"lon":5.422616,"is_reserved":false,"is_disabled":false,"rental_uris":{"android":"levelo://app?vid=7413a1e2-d316-4ad1-aaa9-9cebc99c4e3b","ios":"levelo://app?vid=7413a1e2-d316-4ad1-aaa9-9cebc99c4e3b"},"vehicle_type_id":"4","last_reported":1766128448,"current_range_meters":8400,"station_id":"ce4bhn92rcd13ifvqgrg","pricing_plan_id":"cebpf4jnsgd1na2vs0mg"},{"bike_id":"2b28ce61-ef8f-4f1e-b8d0-0e6e20cf1116","system_id":"levelo_inurba_marseille","lat":43.30145,"lon":5.38085,"is_reserved":false,"is_disabled":false,"rental_uris":{"android":"levelo://app?vid=2b28ce61-ef8f-4f1e-b8d0-0e6e20cf1116","ios":"levelo://app?vid=2b28ce61-ef8f-4f1e-b8d0-0e6e20cf1116"},"vehicle_type_id":"4","last_reported":1766128448,"current_range_meters":8400,"station_id":"ce4bgjp2rcd13ifvqbh0","pricing_plan_id":"cebpf4jnsgd1na2vs0mg"},{"bike_id":"4a614ce4-d61c-499d-8955-0569e02f377b","system_id":"levelo_inurba_marseille","lat":43.275119,"lon":5.372653,"is_reserved":false,"is_disabled":false,"rental_uris":{"android":"levelo://app?vid=4a614ce4-d61c-499d-8955-0569e02f377b","ios":"levelo://app?vid=4a614ce4-d61c-499d-8955-0569e02f377b"},"vehicle_type_id":"4","last_reported":1766128448,"current_range_meters":8800,"station_id":"","pricing_plan_id":"cebpf4jnsgd1na2vs0mg"},{"bike_id":"4aa02506-0c43-4f05-be51-d45db880ee16","system_id":"levelo_inurba_marseille","lat":43.28927,"lon":5.366129,"is_reserved":false,"is_disabled":false,"rental_uris":{"android":"levelo://app?vid=4aa02506-0c43-4f05-be51-d45db880ee16","ios":"levelo://app?vid=4aa02506-0c43-4f05-be51-d45db880ee16"},"vehicle_type_id":"4","last_reported":1766128448,"current_range_meters":8800,"station_id":"ce4bhap2rcd13ifvqek0","pricing_plan_id":"cebpf4jnsgd1na2vs0mg"},{"bike_id":"dd2e8bb0-69ef-4417-8ac7-df4dde3baf88","system_id":"levelo_inurba_marseille","lat":43.29049,"lon":5.39952,"is_reserved":false,"is_disabled":false,"rental_uris":{"android":"levelo://app?vid=dd2e8bb0-69ef-4417-8ac7-df4dde3baf88","ios":"levelo://app?vid=dd2e8bb0-69ef-4417-8ac7-df4dde3baf88"},"vehicle_type_id":"4","last_reported":1766128448,"current_range_meters":8800,"station_id":"ce4bh392rcd13ifvqdm0","pricing_plan_id":"cebpf4jnsgd1na2vs0mg"},{"bike_id":"1e6b9ab6-11b1-4c99-beb7-30b30e8ec0aa","system_id":"levelo_inurba_marseille","lat":43.25322,"lon":5.42162,"is_reserved":false,"is_disabled":false,"rental_uris":{"android":"levelo://app?vid=1e6b9ab6-11b1-4c99-beb7-30b30e8ec0aa","ios":"levelo://app?vid=1e6b9ab6-11b1-4c99-beb7-30b30e8ec0aa"},"vehicle_type_id":"4","last_reported":1766128448,"current_range_meters":8800,"station_id":"st_d2m65c5bi1j21697t3ng","pricing_plan_id":"cebpf4jnsgd1na2vs0mg"},{"bike_id":"2ee4eaaa-95c2-4144-98f4-90e30c4d4bf7","system_id":"levelo_inurba_marseille","lat":43.30145,"lon":5.38079,"is_reserved":false,"is_disabled":false,"rental_uris":{"android":"levelo://app?vid=2ee4eaaa-95c2-4144-98f4-90e30c4d4bf7","ios":"levelo://app?vid=2ee4eaaa-95c2-4144-98f4-90e30c4d4bf7"},"vehicle_type_id":"4","last_reported":1766128448,"current_range_meters":8800,"station_id":"ce4bgjp2rcd13ifvqbh0","pricing_plan_id":"cebpf4jnsgd1na2vs0mg"},{"bike_id":"4ee5cbd7-d314-4a5f-b01c-b41629a1d053","system_id":"levelo_inurba_marseille","lat":43.28037,"lon":5.36949,"is_reserved":false,"is_disabled":false,"rental_uris":{"android":"levelo://app?vid=4ee5cbd7-d314-4a5f-b01c-b41629a1d053","ios":"levelo://app?vid=4ee5cbd7-d314-4a5f-b01c-b41629a1d053"},"vehicle_type_id":"4","last_reported":1766128448,"current_range_meters":8800,"station_id":"ce4bha12rcd13ifvqef0","pricing_plan_id":"cebpf4jnsgd1na2vs0mg"},{"bike_id":"e3545456-9ccd-47b9-9f35-1db0fbdf5c17","system_id":"levelo_inurba_marseille","lat":43.28526,"lon":5.44106,"is_reserved":false,"is_disabled":false,"rental_uris":{"android":"levelo://app?vid=e3545456-9ccd-47b9-9f35-1db0fbdf5c17","ios":"levelo://app?vid=e3545456-9ccd-47b9-9f35-1db0fbdf5c17"},"vehicle_type_id":"4","last_reported":1766128448,"current_range_meters":8800,"station_id":"st_d3j3df2ikq2c7380ej80","pricing_plan_id":"cebpf4jnsgd1na2vs0mg"},{"bike_id":"9ce1842c-18fc-43eb-9262-95f8086e7650","system_id":"levelo_inurba_marseille","lat":43.278258,"lon":5.407244,"is_reserved":false,"is_disabled":false,"rental_uris":{"android":"levelo://app?vid=9ce1842c-18fc-43eb-9262-95f8086e7650","ios":"levelo://app?vid=9ce1842c-18fc-43eb-9262-95f8086e7650"},"vehicle_type_id":"4","last_reported":1766128448,"current_range_meters":9200,"station_id":"ce4bhnh2rcd13ifvqgtg","pricing_plan_id":"cebpf4jnsgd1na2vs0mg"},{"bike_id":"436e467e-3ef8-4484-b12e-82fd46509f97","system_id":"levelo_inurba_marseille","lat":43.232978,"lon":5.443907,"is_reserved":false,"is_disabled":false,"rental_uris":{"android":"levelo://app?vid=436e467e-3ef8-4484-b12e-82fd46509f97","ios":"levelo://app?vid=436e467e-3ef8-4484-b12e-82fd46509f97"},"vehicle_type_id":"4","last_reported":1766128448,"current_range_meters":9200,"station_id":"","pricing_plan_id":"cebpf4jnsgd1na2vs0mg"},{"bike_id":"85f12ccf-5b46-4628-894a-c4095346a940","system_id":"levelo_inurba_marseille","lat":43.27948,"lon":5.41041,"is_reserved":false,"is_disabled":true,"rental_uris":{"android":"levelo://app?vid=85f12ccf-5b46-4628-894a-c4095346a940","ios":"levelo://app?vid=85f12ccf-5b46-4628-894a-c4095346a940"},"vehicle_type_id":"4","last_reported":1766128448,"current_range_meters":9200,"station_id":"ce4bhnp2rcd13ifvqh0g","pricing_plan_id":"cebpf4jnsgd1na2vs0mg"},{"bike_id":"a24ee5b6-572d-4941-9ef3-a9d89c28bd82","system_id":"levelo_inurba_marseille","lat":43.30555,"lon":5.36718,"is_reserved":false,"is_disabled":false,"rental_uris":{"android":"levelo://app?vid=a24ee5b6-572d-4941-9ef3-a9d89c28bd82","ios":"levelo://app?vid=a24ee5b6-572d-4941-9ef3-a9d89c28bd82"},"vehicle_type_id":"4","last_reported":1766128448,"current_range_meters":9200,"station_id":"ce4bgrp2rcd13ifvqc9g","pricing_plan_id":"cebpf4jnsgd1na2vs0mg"},{"bike_id":"97ead070-9949-4124-b67c-52777e5101c0","system_id":"levelo_inurba_marseille","lat":43.30143,"lon":5.37414,"is_reserved":false,"is_disabled":false,"rental_uris":{"android":"levelo://app?vid=97ead070-9949-4124-b67c-52777e5101c0","ios":"levelo://app?vid=97ead070-9949-4124-b67c-52777e5101c0"},"vehicle_type_id":"4","last_reported":1766128448,"current_range_meters":9200,"station_id":"ce4bgs92rcd13ifvqcc0","pricing_plan_id":"cebpf4jnsgd1na2vs0mg"},{"bike_id":"7646bb24-8e97-4ec7-8f0b-3bd06c67dd5d","system_id":"levelo_inurba_marseille","lat":43.310825,"lon":5.424295,"is_reserved":false,"is_disabled":false,"rental_uris":{"android":"levelo://app?vid=7646bb24-8e97-4ec7-8f0b-3bd06c67dd5d","ios":"levelo://app?vid=7646bb24-8e97-4ec7-8f0b-3bd06c67dd5d"},"vehicle_type_id":"4","last_reported":1766128448,"current_range_meters":9200,"station_id":"ce4bhp92rcd13ifvqhag","pricing_plan_id":"cebpf4jnsgd1na2vs0mg"},{"bike_id":"13d3967b-4cfe-47bf-8d35-564fb9330955","system_id":"levelo_inurba_marseille","lat":43.28409,"lon":5.37513,"is_reserved":false,"is_disabled":true,"rental_uris":{"android":"levelo://app?vid=13d3967b-4cfe-47bf-8d35-564fb9330955","ios":"levelo://app?vid=13d3967b-4cfe-47bf-8d35-564fb9330955"},"vehicle_type_id":"4","last_reported":1766128448,"current_range_meters":9200,"station_id":"ce4bh412rcd13ifvqds0","pricing_plan_id":"cebpf4jnsgd1na2vs0mg"},{"bike_id":"4967ee31-7b12-41dd-95bc-934841f68bea","system_id":"levelo_inurba_marseille","lat":43.27916,"lon":5.39573,"is_reserved":false,"is_disabled":false,"rental_uris":{"android":"levelo://app?vid=4967ee31-7b12-41dd-95bc-934841f68bea","ios":"levelo://app?vid=4967ee31-7b12-41dd-95bc-934841f68bea"},"vehicle_type_id":"4","last_reported":1766128448,"current_range_meters":9200,"station_id":"ce4bhf92rcd13ifvqf40","pricing_plan_id":"cebpf4jnsgd1na2vs0mg"},{"bike_id":"c2b60210-c2fc-42df-8a7f-5d2ba9cadabb","system_id":"levelo_inurba_marseille","lat":43.30961,"lon":5.39006,"is_reserved":false,"is_disabled":true,"rental_uris":{"android":"levelo://app?vid=c2b60210-c2fc-42df-8a7f-5d2ba9cadabb","ios":"levelo://app?vid=c2b60210-c2fc-42df-8a7f-5d2ba9cadabb"},"vehicle_type_id":"4","last_reported":1766128448,"current_range_meters":9200,"station_id":"ce4bgup2rcd13ifvqco0","pricing_plan_id":"cebpf4jnsgd1na2vs0mg"},{"bike_id":"f5263347-3c71-41be-b174-7df864a4ff80","system_id":"levelo_inurba_marseille","lat":43.316732,"lon":5.40454,"is_reserved":false,"is_disabled":false,"rental_uris":{"android":"levelo://app?vid=f5263347-3c71-41be-b174-7df864a4ff80","ios":"levelo://app?vid=f5263347-3c71-41be-b174-7df864a4ff80"},"vehicle_type_id":"4","last_reported":1766128448,"current_range_meters":9200,"station_id":"ce4bh012rcd13ifvqd00","pricing_plan_id":"cebpf4jnsgd1na2vs0mg"},{"bike_id":"f2a5954f-7832-41d8-927a-0a1a2e0f9394","system_id":"levelo_inurba_marseille","lat":43.24389,"lon":5.37054,"is_reserved":false,"is_disabled":false,"rental_uris":{"android":"levelo://app?vid=f2a5954f-7832-41d8-927a-0a1a2e0f9394","ios":"levelo://app?vid=f2a5954f-7832-41d8-927a-0a1a2e0f9394"},"vehicle_type_id":"4","last_reported":1766128448,"current_range_meters":9600,"station_id":"ce4bhhh2rcd13ifvqfk0","pricing_plan_id":"cebpf4jnsgd1na2vs0mg"},{"bike_id":"f365ebf1-46c0-4bc0-ae4f-263145122a46","system_id":"levelo_inurba_marseille","lat":43.25007,"lon":5.38935,"is_reserved":false,"is_disabled":false,"rental_uris":{"android":"levelo://app?vid=f365ebf1-46c0-4bc0-ae4f-263145122a46","ios":"levelo://app?vid=f365ebf1-46c0-4bc0-ae4f-263145122a46"},"vehicle_type_id":"4","last_reported":1766128448,"current_range_meters":9600,"station_id":"ce4bhgp2rcd13ifvqfd0","pricing_plan_id":"cebpf4jnsgd1na2vs0mg"},{"bike_id":"1ac3aba1-b647-4c42-905c-766422e7997e","system_id":"levelo_inurba_marseille","lat":43.28342,"lon":5.38104,"is_reserved":false,"is_disabled":false,"rental_uris":{"android":"levelo://app?vid=1ac3aba1-b647-4c42-905c-766422e7997e","ios":"levelo://app?vid=1ac3aba1-b647-4c42-905c-766422e7997e"},"vehicle_type_id":"4","last_reported":1766128448,"current_range_meters":9600,"station_id":"ce4bh412rcd13ifvqdr0","pricing_plan_id":"cebpf4jnsgd1na2vs0mg"},{"bike_id":"0a598fce-978f-4f90-b03f-b8be1902feff","system_id":"levelo_inurba_marseille","lat":43.31295,"lon":5.37816,"is_reserved":false,"is_disabled":false,"rental_uris":{"android":"levelo://app?vid=0a598fce-978f-4f90-b03f-b8be1902feff","ios":"levelo://app?vid=0a598fce-978f-4f90-b03f-b8be1902feff"},"vehicle_type_id":"4","last_reported":1766128448,"current_range_meters":9600,"station_id":"","pricing_plan_id":"cebpf4jnsgd1na2vs0mg"},{"bike_id":"da0c886d-bf9d-46c9-ba41-bfd5ae0eda24","system_id":"levelo_inurba_marseille","lat":43.24156,"lon":5.36404,"is_reserved":false,"is_disabled":false,"rental_uris":{"android":"levelo://app?vid=da0c886d-bf9d-46c9-ba41-bfd5ae0eda24","ios":"levelo://app?vid=da0c886d-bf9d-46c9-ba41-bfd5ae0eda24"},"vehicle_type_id":"4","last_reported":1766128448,"current_range_meters":9600,"station_id":"cpo36qri1sfpv3e86is0","pricing_plan_id":"cebpf4jnsgd1na2vs0mg"},{"bike_id":"ee6f7e5c-24b4-4046-a3ec-072080785116","system_id":"levelo_inurba_marseille","lat":43.21746,"lon":5.34594,"is_reserved":false,"is_disabled":true,"rental_uris":{"android":"levelo://app?vid=ee6f7e5c-24b4-4046-a3ec-072080785116","ios":"levelo://app?vid=ee6f7e5c-24b4-4046-a3ec-072080785116"},"vehicle_type_id":"4","last_reported":1766128448,"current_range_meters":9600,"station_id":"st_cvj6r9ubvosntc0bgbag","pricing_plan_id":"cebpf4jnsgd1na2vs0mg"},{"bike_id":"7c115465-e90a-4c73-afdd-d3a4ea21ea5d","system_id":"levelo_inurba_marseille","lat":43.27932,"lon":5.41098,"is_reserved":false,"is_disabled":false,"rental_uris":{"android":"levelo://app?vid=7c115465-e90a-4c73-afdd-d3a4ea21ea5d","ios":"levelo://app?vid=7c115465-e90a-4c73-afdd-d3a4ea21ea5d"},"vehicle_type_id":"4","last_reported":1766128448,"current_range_meters":9600,"station_id":"ce4bhnp2rcd13ifvqh0g","pricing_plan_id":"cebpf4jnsgd1na2vs0mg"},{"bike_id":"228ed5e4-a793-4f90-a46f-1e70b2793524","system_id":"levelo_inurba_marseille","lat":43.28617,"lon":5.39884,"is_reserved":false,"is_disabled":true,"rental_uris":{"android":"levelo://app?vid=228ed5e4-a793-4f90-a46f-1e70b2793524","ios":"levelo://app?vid=228ed5e4-a793-4f90-a46f-1e70b2793524"},"vehicle_type_id":"4","last_reported":1766128448,"current_range_meters":9600,"station_id":"st_d4a7ka997mjs738ck50g","pricing_plan_id":"cebpf4jnsgd1na2vs0mg"},{"bike_id":"a2567718-7065-491c-9969-b8833fff555a","system_id":"levelo_inurba_marseille","lat":43.25107,"lon":5.40325,"is_reserved":false,"is_disabled":false,"rental_uris":{"android":"levelo://app?vid=a2567718-7065-491c-9969-b8833fff555a","ios":"levelo://app?vid=a2567718-7065-491c-9969-b8833fff555a"},"vehicle_type_id":"4","last_reported":1766128448,"current_range_meters":9600,"station_id":"ce4bhlh2rcd13ifvqgig","pricing_plan_id":"cebpf4jnsgd1na2vs0mg"},{"bike_id":"c5365846-c619-4f12-8c92-97c9f9725a15","system_id":"levelo_inurba_marseille","lat":43.295195,"lon":5.379268,"is_reserved":false,"is_disabled":false,"rental_uris":{"android":"levelo://app?vid=c5365846-c619-4f12-8c92-97c9f9725a15","ios":"levelo://app?vid=c5365846-c619-4f12-8c92-97c9f9725a15"},"vehicle_type_id":"4","last_reported":1766128448,"current_range_meters":9600,"station_id":"","pricing_plan_id":"cebpf4jnsgd1na2vs0mg"},{"bike_id":"5c8be759-0f11-4129-be41-c24cc2ed7a39","system_id":"levelo_inurba_marseille","lat":43.3092,"lon":5.36875,"is_reserved":false,"is_disabled":false,"rental_uris":{"android":"levelo://app?vid=5c8be759-0f11-4129-be41-c24cc2ed7a39","ios":"levelo://app?vid=5c8be759-0f11-4129-be41-c24cc2ed7a39"},"vehicle_type_id":"4","last_reported":1766128448,"current_range_meters":9600,"station_id":"ce4bgn92rcd13ifvqbvg","pricing_plan_id":"cebpf4jnsgd1na2vs0mg"},{"bike_id":"01a22ff4-19c2-4976-a549-24240c0f7d2f","system_id":"levelo_inurba_marseille","lat":43.25326,"lon":5.42162,"is_reserved":false,"is_disabled":false,"rental_uris":{"android":"levelo://app?vid=01a22ff4-19c2-4976-a549-24240c0f7d2f","ios":"levelo://app?vid=01a22ff4-19c2-4976-a549-24240c0f7d2f"},"vehicle_type_id":"4","last_reported":1766128448,"current_range_meters":9600,"station_id":"st_d2m65c5bi1j21697t3ng","pricing_plan_id":"cebpf4jnsgd1na2vs0mg"},{"bike_id":"fade1f76-6248-43fe-aeb9-7f93aeff737b","system_id":"levelo_inurba_marseille","lat":43.2792,"lon":5.39579,"is_reserved":false,"is_disabled":true,"rental_uris":{"android":"levelo://app?vid=fade1f76-6248-43fe-aeb9-7f93aeff737b","ios":"levelo://app?vid=fade1f76-6248-43fe-aeb9-7f93aeff737b"},"vehicle_type_id":"4","last_reported":1766128448,"current_range_meters":9600,"station_id":"ce4bhf92rcd13ifvqf40","pricing_plan_id":"cebpf4jnsgd1na2vs0mg"},{"bike_id":"374a0371-4968-4fe9-88a9-ac5ffa94b236","system_id":"levelo_inurba_marseille","lat":43.3146,"lon":5.45378,"is_reserved":false,"is_disabled":false,"rental_uris":{"android":"levelo://app?vid=374a0371-4968-4fe9-88a9-ac5ffa94b236","ios":"levelo://app?vid=374a0371-4968-4fe9-88a9-ac5ffa94b236"},"vehicle_type_id":"4","last_reported":1766128448,"current_range_meters":9600,"station_id":"","pricing_plan_id":"cebpf4jnsgd1na2vs0mg"},{"bike_id":"1626daf3-5722-4708-8aed-cbc8067f87db","system_id":"levelo_inurba_marseille","lat":43.286233,"lon":5.351071,"is_reserved":false,"is_disabled":false,"rental_uris":{"android":"levelo://app?vid=1626daf3-5722-4708-8aed-cbc8067f87db","ios":"levelo://app?vid=1626daf3-5722-4708-8aed-cbc8067f87db"},"vehicle_type_id":"4","last_reported":1766128448,"current_range_meters":9600,"station_id":"ce4bhch2rcd13ifvqeug","pricing_plan_id":"cebpf4jnsgd1na2vs0mg"},{"bike_id":"a6bb7fde-2db0-447e-8cac-38a0c3844ce6","system_id":"levelo_inurba_marseille","lat":43.27787,"lon":5.3886,"is_reserved":false,"is_disabled":false,"rental_uris":{"android":"levelo://app?vid=a6bb7fde-2db0-447e-8cac-38a0c3844ce6","ios":"levelo://app?vid=a6bb7fde-2db0-447e-8cac-38a0c3844ce6"},"vehicle_type_id":"4","last_reported":1766128448,"current_range_meters":10000,"station_id":"","pricing_plan_id":"cebpf4jnsgd1na2vs0mg"},{"bike_id":"4218c3f6-4764-47cf-93fc-c76838aefb78","system_id":"levelo_inurba_marseille","lat":43.24165,"lon":5.36391,"is_reserved":false,"is_disabled":false,"rental_uris":{"android":"levelo://app?vid=4218c3f6-4764-47cf-93fc-c76838aefb78","ios":"levelo://app?vid=4218c3f6-4764-47cf-93fc-c76838aefb78"},"vehicle_type_id":"4","last_reported":1766128448,"current_range_meters":10000,"station_id":"cpo36qri1sfpv3e86is0","pricing_plan_id":"cebpf4jnsgd1na2vs0mg"},{"bike_id":"d50867a0-a974-4546-a28c-eba4c2e0b399","system_id":"levelo_inurba_marseille","lat":43.231931,"lon":5.355468,"is_reserved":false,"is_disabled":false,"rental_uris":{"android":"levelo://app?vid=d50867a0-a974-4546-a28c-eba4c2e0b399","ios":"levelo://app?vid=d50867a0-a974-4546-a28c-eba4c2e0b399"},"vehicle_type_id":"4","last_reported":1766128448,"current_range_meters":10000,"station_id":"ce4bhu92rcd13ifvqi70","pricing_plan_id":"cebpf4jnsgd1na2vs0mg"},{"bike_id":"1f8bf9e3-c9bd-4c05-9201-34f9580d25af","system_id":"levelo_inurba_marseille","lat":43.2118,"lon":5.35078,"is_reserved":false,"is_disabled":false,"rental_uris":{"android":"levelo://app?vid=1f8bf9e3-c9bd-4c05-9201-34f9580d25af","ios":"levelo://app?vid=1f8bf9e3-c9bd-4c05-9201-34f9580d25af"},"vehicle_type_id":"4","last_reported":1766128448,"current_range_meters":10000,"station_id":"st_cvj6sg6p6f1abm77japg","pricing_plan_id":"cebpf4jnsgd1na2vs0mg"},{"bike_id":"d0dd282f-2c05-49dd-834d-6d93cee6c88a","system_id":"levelo_inurba_marseille","lat":43.30198,"lon":5.36614,"is_reserved":false,"is_disabled":true,"rental_uris":{"android":"levelo://app?vid=d0dd282f-2c05-49dd-834d-6d93cee6c88a","ios":"levelo://app?vid=d0dd282f-2c05-49dd-834d-6d93cee6c88a"},"vehicle_type_id":"4","last_reported":1766128448,"current_range_meters":10000,"station_id":"ce4bgrh2rcd13ifvqc8g","pricing_plan_id":"cebpf4jnsgd1na2vs0mg"},{"bike_id":"eaf0b5a3-bbfe-438d-ac7b-a4db46433dcd","system_id":"levelo_inurba_marseille","lat":43.26954,"lon":5.38636,"is_reserved":false,"is_disabled":false,"rental_uris":{"android":"levelo://app?vid=eaf0b5a3-bbfe-438d-ac7b-a4db46433dcd","ios":"levelo://app?vid=eaf0b5a3-bbfe-438d-ac7b-a4db46433dcd"},"vehicle_type_id":"4","last_reported":1766128448,"current_range_meters":10000,"station_id":"ce4bhh92rcd13ifvqfh0","pricing_plan_id":"cebpf4jnsgd1na2vs0mg"},{"bike_id":"1f056b37-e3f2-4d39-81cb-848d585f8a47","system_id":"levelo_inurba_marseille","lat":43.24139,"lon":5.36438,"is_reserved":false,"is_disabled":false,"rental_uris":{"android":"levelo://app?vid=1f056b37-e3f2-4d39-81cb-848d585f8a47","ios":"levelo://app?vid=1f056b37-e3f2-4d39-81cb-848d585f8a47"},"vehicle_type_id":"4","last_reported":1766128448,"current_range_meters":10000,"station_id":"cpo36qri1sfpv3e86is0","pricing_plan_id":"cebpf4jnsgd1na2vs0mg"},{"bike_id":"3600545b-6af9-4527-916c-36a9c126b47e","system_id":"levelo_inurba_marseille","lat":43.30142,"lon":5.37431,"is_reserved":false,"is_disabled":false,"rental_uris":{"android":"levelo://app?vid=3600545b-6af9-4527-916c-36a9c126b47e","ios":"levelo://app?vid=3600545b-6af9-4527-916c-36a9c126b47e"},"vehicle_type_id":"4","last_reported":1766128448,"current_range_meters":10800,"station_id":"ce4bgs92rcd13ifvqcc0","pricing_plan_id":"cebpf4jnsgd1na2vs0mg"},{"bike_id":"9f6c9975-15d6-48de-a383-d85662191ef8","system_id":"levelo_inurba_marseille","lat":43.2119,"lon":5.350703,"is_reserved":false,"is_disabled":false,"rental_uris":{"android":"levelo://app?vid=9f6c9975-15d6-48de-a383-d85662191ef8","ios":"levelo://app?vid=9f6c9975-15d6-48de-a383-d85662191ef8"},"vehicle_type_id":"4","last_reported":1766128448,"current_range_meters":10800,"station_id":"st_cvj6sg6p6f1abm77japg","pricing_plan_id":"cebpf4jnsgd1na2vs0mg"},{"bike_id":"33fb061b-cc0a-44e2-a90b-8eab16db9143","system_id":"levelo_inurba_marseille","lat":43.27961,"lon":5.41054,"is_reserved":false,"is_disabled":false,"rental_uris":{"android":"levelo://app?vid=33fb061b-cc0a-44e2-a90b-8eab16db9143","ios":"levelo://app?vid=33fb061b-cc0a-44e2-a90b-8eab16db9143"},"vehicle_type_id":"4","last_reported":1766128448,"current_range_meters":10800,"station_id":"ce4bhnp2rcd13ifvqh0g","pricing_plan_id":"cebpf4jnsgd1na2vs0mg"},{"bike_id":"f07708a6-82af-4792-a815-0ab5057b5c95","system_id":"levelo_inurba_marseille","lat":43.30636,"lon":5.40074,"is_reserved":false,"is_disabled":false,"rental_uris":{"android":"levelo://app?vid=f07708a6-82af-4792-a815-0ab5057b5c95","ios":"levelo://app?vid=f07708a6-82af-4792-a815-0ab5057b5c95"},"vehicle_type_id":"4","last_reported":1766128448,"current_range_meters":10800,"station_id":"ce4bh112rcd13ifvqda0","pricing_plan_id":"cebpf4jnsgd1na2vs0mg"},{"bike_id":"91dc96a9-ec51-4128-814e-ce3aa80480d3","system_id":"levelo_inurba_marseille","lat":43.30043,"lon":5.38075,"is_reserved":false,"is_disabled":false,"rental_uris":{"android":"levelo://app?vid=91dc96a9-ec51-4128-814e-ce3aa80480d3","ios":"levelo://app?vid=91dc96a9-ec51-4128-814e-ce3aa80480d3"},"vehicle_type_id":"4","last_reported":1766128448,"current_range_meters":10800,"station_id":"","pricing_plan_id":"cebpf4jnsgd1na2vs0mg"},{"bike_id":"b35bf390-3731-42ac-9e87-33947aeb4efc","system_id":"levelo_inurba_marseille","lat":43.32772,"lon":5.39223,"is_reserved":false,"is_disabled":false,"rental_uris":{"android":"levelo://app?vid=b35bf390-3731-42ac-9e87-33947aeb4efc","ios":"levelo://app?vid=b35bf390-3731-42ac-9e87-33947aeb4efc"},"vehicle_type_id":"4","last_reported":1766128448,"current_range_meters":10800,"station_id":"","pricing_plan_id":"cebpf4jnsgd1na2vs0mg"},{"bike_id":"56055c29-d1fb-47ce-9452-ce663cc953fd","system_id":"levelo_inurba_marseille","lat":43.31323,"lon":5.39703,"is_reserved":false,"is_disabled":false,"rental_uris":{"android":"levelo://app?vid=56055c29-d1fb-47ce-9452-ce663cc953fd","ios":"levelo://app?vid=56055c29-d1fb-47ce-9452-ce663cc953fd"},"vehicle_type_id":"4","last_reported":1766128448,"current_range_meters":10800,"station_id":"ce4bgvp2rcd13ifvqcu0","pricing_plan_id":"cebpf4jnsgd1na2vs0mg"},{"bike_id":"52f275a8-c86e-47e7-94d9-64f50bc0051b","system_id":"levelo_inurba_marseille","lat":43.30937,"lon":5.40154,"is_reserved":false,"is_disabled":false,"rental_uris":{"android":"levelo://app?vid=52f275a8-c86e-47e7-94d9-64f50bc0051b","ios":"levelo://app?vid=52f275a8-c86e-47e7-94d9-64f50bc0051b"},"vehicle_type_id":"4","last_reported":1766128448,"current_range_meters":10800,"station_id":"ce4bgvp2rcd13ifvqct0","pricing_plan_id":"cebpf4jnsgd1na2vs0mg"},{"bike_id":"5af53c2e-3d97-499f-9892-e2ccad8d47f5","system_id":"levelo_inurba_marseille","lat":43.241734,"lon":5.397125,"is_reserved":false,"is_disabled":false,"rental_uris":{"android":"levelo://app?vid=5af53c2e-3d97-499f-9892-e2ccad8d47f5","ios":"levelo://app?vid=5af53c2e-3d97-499f-9892-e2ccad8d47f5"},"vehicle_type_id":"4","last_reported":1766128448,"current_range_meters":10800,"station_id":"ce4bhn12rcd13ifvqgpg","pricing_plan_id":"cebpf4jnsgd1na2vs0mg"},{"bike_id":"17a49efb-d179-4b85-b20c-4afe87c0613f","system_id":"levelo_inurba_marseille","lat":43.310469,"lon":5.371744,"is_reserved":false,"is_disabled":true,"rental_uris":{"android":"levelo://app?vid=17a49efb-d179-4b85-b20c-4afe87c0613f","ios":"levelo://app?vid=17a49efb-d179-4b85-b20c-4afe87c0613f"},"vehicle_type_id":"4","last_reported":1766128448,"current_range_meters":10800,"station_id":"st_d4kl2rp97mjs73e7tdfg","pricing_plan_id":"cebpf4jnsgd1na2vs0mg"},{"bike_id":"3165b46a-3493-4d35-8deb-2335a6e8b422","system_id":"levelo_inurba_marseille","lat":43.25332,"lon":5.42173,"is_reserved":false,"is_disabled":false,"rental_uris":{"android":"levelo://app?vid=3165b46a-3493-4d35-8deb-2335a6e8b422","ios":"levelo://app?vid=3165b46a-3493-4d35-8deb-2335a6e8b422"},"vehicle_type_id":"4","last_reported":1766128448,"current_range_meters":10800,"station_id":"st_d2m65c5bi1j21697t3ng","pricing_plan_id":"cebpf4jnsgd1na2vs0mg"},{"bike_id":"305412fd-41fd-4f48-b0ce-d25b5a7eb63f","system_id":"levelo_inurba_marseille","lat":43.345902,"lon":5.381948,"is_reserved":false,"is_disabled":false,"rental_uris":{"android":"levelo://app?vid=305412fd-41fd-4f48-b0ce-d25b5a7eb63f","ios":"levelo://app?vid=305412fd-41fd-4f48-b0ce-d25b5a7eb63f"},"vehicle_type_id":"4","last_reported":1766128448,"current_range_meters":11200,"station_id":"","pricing_plan_id":"cebpf4jnsgd1na2vs0mg"},{"bike_id":"cf5eb2c1-c87d-4ae3-9256-41d8d82f1276","system_id":"levelo_inurba_marseille","lat":43.29235,"lon":5.36051,"is_reserved":false,"is_disabled":false,"rental_uris":{"android":"levelo://app?vid=cf5eb2c1-c87d-4ae3-9256-41d8d82f1276","ios":"levelo://app?vid=cf5eb2c1-c87d-4ae3-9256-41d8d82f1276"},"vehicle_type_id":"4","last_reported":1766128448,"current_range_meters":11200,"station_id":"ce4bhbh2rcd13ifvqeqg","pricing_plan_id":"cebpf4jnsgd1na2vs0mg"},{"bike_id":"413557ff-13d9-40fb-81ee-6ad5e7d92bea","system_id":"levelo_inurba_marseille","lat":43.21186,"lon":5.3507,"is_reserved":false,"is_disabled":false,"rental_uris":{"android":"levelo://app?vid=413557ff-13d9-40fb-81ee-6ad5e7d92bea","ios":"levelo://app?vid=413557ff-13d9-40fb-81ee-6ad5e7d92bea"},"vehicle_type_id":"4","last_reported":1766128448,"current_range_meters":11200,"station_id":"st_cvj6sg6p6f1abm77japg","pricing_plan_id":"cebpf4jnsgd1na2vs0mg"},{"bike_id":"dfbce69e-f6e8-4b7d-b65d-85deba113350","system_id":"levelo_inurba_marseille","lat":43.28271,"lon":5.3505,"is_reserved":false,"is_disabled":false,"rental_uris":{"android":"levelo://app?vid=dfbce69e-f6e8-4b7d-b65d-85deba113350","ios":"levelo://app?vid=dfbce69e-f6e8-4b7d-b65d-85deba113350"},"vehicle_type_id":"4","last_reported":1766128448,"current_range_meters":11200,"station_id":"ce4bhbp2rcd13ifvqerg","pricing_plan_id":"cebpf4jnsgd1na2vs0mg"},{"bike_id":"f3a4c2fd-c27a-4ca6-bbe5-3949d2a88808","system_id":"levelo_inurba_marseille","lat":43.28584,"lon":5.43,"is_reserved":false,"is_disabled":false,"rental_uris":{"android":"levelo://app?vid=f3a4c2fd-c27a-4ca6-bbe5-3949d2a88808","ios":"levelo://app?vid=f3a4c2fd-c27a-4ca6-bbe5-3949d2a88808"},"vehicle_type_id":"4","last_reported":1766128448,"current_range_meters":11200,"station_id":"","pricing_plan_id":"cebpf4jnsgd1na2vs0mg"},{"bike_id":"9b3ad9e9-6c8e-47dd-9f00-d7499ff2fa77","system_id":"levelo_inurba_marseille","lat":43.21201,"lon":5.35088,"is_reserved":false,"is_disabled":false,"rental_uris":{"android":"levelo://app?vid=9b3ad9e9-6c8e-47dd-9f00-d7499ff2fa77","ios":"levelo://app?vid=9b3ad9e9-6c8e-47dd-9f00-d7499ff2fa77"},"vehicle_type_id":"4","last_reported":1766128448,"current_range_meters":11200,"station_id":"st_cvj6sg6p6f1abm77japg","pricing_plan_id":"cebpf4jnsgd1na2vs0mg"},{"bike_id":"bb9e8009-1b63-46b9-8f33-b6e7b8e01577","system_id":"levelo_inurba_marseille","lat":43.27498,"lon":5.42447,"is_reserved":false,"is_disabled":false,"rental_uris":{"android":"levelo://app?vid=bb9e8009-1b63-46b9-8f33-b6e7b8e01577","ios":"levelo://app?vid=bb9e8009-1b63-46b9-8f33-b6e7b8e01577"},"vehicle_type_id":"4","last_reported":1766128448,"current_range_meters":11200,"station_id":"ce4bhn92rcd13ifvqgrg","pricing_plan_id":"cebpf4jnsgd1na2vs0mg"},{"bike_id":"1eba388a-e261-4c07-87f7-71091f855fca","system_id":"levelo_inurba_marseille","lat":43.28223,"lon":5.39066,"is_reserved":false,"is_disabled":false,"rental_uris":{"android":"levelo://app?vid=1eba388a-e261-4c07-87f7-71091f855fca","ios":"levelo://app?vid=1eba388a-e261-4c07-87f7-71091f855fca"},"vehicle_type_id":"4","last_reported":1766128448,"current_range_meters":11600,"station_id":"ce4bhn92rcd13ifvqgsg","pricing_plan_id":"cebpf4jnsgd1na2vs0mg"},{"bike_id":"4a4511f8-e03d-4104-bc90-a58fb016d12a","system_id":"levelo_inurba_marseille","lat":43.31123,"lon":5.37781,"is_reserved":false,"is_disabled":false,"rental_uris":{"android":"levelo://app?vid=4a4511f8-e03d-4104-bc90-a58fb016d12a","ios":"levelo://app?vid=4a4511f8-e03d-4104-bc90-a58fb016d12a"},"vehicle_type_id":"4","last_reported":1766128448,"current_range_meters":11600,"station_id":"ce4bgt92rcd13ifvqcg0","pricing_plan_id":"cebpf4jnsgd1na2vs0mg"},{"bike_id":"b12c4caa-9d88-4cba-acda-9a8c909ff289","system_id":"levelo_inurba_marseille","lat":43.24167,"lon":5.39713,"is_reserved":false,"is_disabled":false,"rental_uris":{"android":"levelo://app?vid=b12c4caa-9d88-4cba-acda-9a8c909ff289","ios":"levelo://app?vid=b12c4caa-9d88-4cba-acda-9a8c909ff289"},"vehicle_type_id":"4","last_reported":1766128448,"current_range_meters":11600,"station_id":"ce4bhn12rcd13ifvqgpg","pricing_plan_id":"cebpf4jnsgd1na2vs0mg"},{"bike_id":"28e7ea25-d676-49ca-8be6-ac1c19bc94ea","system_id":"levelo_inurba_marseille","lat":43.33419,"lon":5.40055,"is_reserved":false,"is_disabled":false,"rental_uris":{"android":"levelo://app?vid=28e7ea25-d676-49ca-8be6-ac1c19bc94ea","ios":"levelo://app?vid=28e7ea25-d676-49ca-8be6-ac1c19bc94ea"},"vehicle_type_id":"4","last_reported":1766128448,"current_range_meters":11600,"station_id":"","pricing_plan_id":"cebpf4jnsgd1na2vs0mg"},{"bike_id":"a8ae125c-44f7-48ad-a212-7a04204e18cd","system_id":"levelo_inurba_marseille","lat":43.3025,"lon":5.40072,"is_reserved":false,"is_disabled":false,"rental_uris":{"android":"levelo://app?vid=a8ae125c-44f7-48ad-a212-7a04204e18cd","ios":"levelo://app?vid=a8ae125c-44f7-48ad-a212-7a04204e18cd"},"vehicle_type_id":"4","last_reported":1766128448,"current_range_meters":11600,"station_id":"ce4bgvh2rcd13ifvqcs0","pricing_plan_id":"cebpf4jnsgd1na2vs0mg"},{"bike_id":"467de831-2f68-4e35-b5b7-2fd9784f5260","system_id":"levelo_inurba_marseille","lat":43.31362,"lon":5.36737,"is_reserved":false,"is_disabled":false,"rental_uris":{"android":"levelo://app?vid=467de831-2f68-4e35-b5b7-2fd9784f5260","ios":"levelo://app?vid=467de831-2f68-4e35-b5b7-2fd9784f5260"},"vehicle_type_id":"4","last_reported":1766128448,"current_range_meters":12000,"station_id":"ce4bgr92rcd13ifvqc6g","pricing_plan_id":"cebpf4jnsgd1na2vs0mg"},{"bike_id":"16435ed7-3230-49ea-9045-19406603f7b6","system_id":"levelo_inurba_marseille","lat":43.29708,"lon":5.36591,"is_reserved":false,"is_disabled":false,"rental_uris":{"android":"levelo://app?vid=16435ed7-3230-49ea-9045-19406603f7b6","ios":"levelo://app?vid=16435ed7-3230-49ea-9045-19406603f7b6"},"vehicle_type_id":"4","last_reported":1766128448,"current_range_meters":12000,"station_id":"ce4bgn12rcd13ifvqbt0","pricing_plan_id":"cebpf4jnsgd1na2vs0mg"},{"bike_id":"3171c4f4-d5a9-4282-9d2c-df19a6022bc8","system_id":"levelo_inurba_marseille","lat":43.29066,"lon":5.35646,"is_reserved":false,"is_disabled":false,"rental_uris":{"android":"levelo://app?vid=3171c4f4-d5a9-4282-9d2c-df19a6022bc8","ios":"levelo://app?vid=3171c4f4-d5a9-4282-9d2c-df19a6022bc8"},"vehicle_type_id":"4","last_reported":1766128448,"current_range_meters":12000,"station_id":"","pricing_plan_id":"cebpf4jnsgd1na2vs0mg"},{"bike_id":"586e8ce6-cc8a-4e68-aeb4-229571c65d56","system_id":"levelo_inurba_marseille","lat":43.314804,"lon":5.373054,"is_reserved":false,"is_disabled":false,"rental_uris":{"android":"levelo://app?vid=586e8ce6-cc8a-4e68-aeb4-229571c65d56","ios":"levelo://app?vid=586e8ce6-cc8a-4e68-aeb4-229571c65d56"},"vehicle_type_id":"4","last_reported":1766128448,"current_range_meters":12000,"station_id":"ce4bgt12rcd13ifvqcd0","pricing_plan_id":"cebpf4jnsgd1na2vs0mg"},{"bike_id":"700442f5-a082-454e-8bc7-ab3bbb77bfce","system_id":"levelo_inurba_marseille","lat":43.26634,"lon":5.37444,"is_reserved":false,"is_disabled":false,"rental_uris":{"android":"levelo://app?vid=700442f5-a082-454e-8bc7-ab3bbb77bfce","ios":"levelo://app?vid=700442f5-a082-454e-8bc7-ab3bbb77bfce"},"vehicle_type_id":"4","last_reported":1766128448,"current_range_meters":12000,"station_id":"","pricing_plan_id":"cebpf4jnsgd1na2vs0mg"},{"bike_id":"8baf18d0-6725-4ba0-9f72-640cffab0f68","system_id":"levelo_inurba_marseille","lat":43.30138,"lon":5.3987,"is_reserved":false,"is_disabled":false,"rental_uris":{"android":"levelo://app?vid=8baf18d0-6725-4ba0-9f72-640cffab0f68","ios":"levelo://app?vid=8baf18d0-6725-4ba0-9f72-640cffab0f68"},"vehicle_type_id":"4","last_reported":1766128448,"current_range_meters":12400,"station_id":"ce4bh0h2rcd13ifvqd40","pricing_plan_id":"cebpf4jnsgd1na2vs0mg"},{"bike_id":"caa296d3-3cc5-4a69-b445-5ef39d3f3433","system_id":"levelo_inurba_marseille","lat":43.28578,"lon":5.3949,"is_reserved":false,"is_disabled":false,"rental_uris":{"android":"levelo://app?vid=caa296d3-3cc5-4a69-b445-5ef39d3f3433","ios":"levelo://app?vid=caa296d3-3cc5-4a69-b445-5ef39d3f3433"},"vehicle_type_id":"4","last_reported":1766128448,"current_range_meters":12400,"station_id":"ce4bh292rcd13ifvqdg0","pricing_plan_id":"cebpf4jnsgd1na2vs0mg"},{"bike_id":"76fb7a73-a5f9-4340-855e-fcbbe13e759a","system_id":"levelo_inurba_marseille","lat":43.31879,"lon":5.39976,"is_reserved":false,"is_disabled":false,"rental_uris":{"android":"levelo://app?vid=76fb7a73-a5f9-4340-855e-fcbbe13e759a","ios":"levelo://app?vid=76fb7a73-a5f9-4340-855e-fcbbe13e759a"},"vehicle_type_id":"4","last_reported":1766128448,"current_range_meters":12400,"station_id":"","pricing_plan_id":"cebpf4jnsgd1na2vs0mg"},{"bike_id":"8f4a549b-344a-4fc6-aab0-739441a53b76","system_id":"levelo_inurba_marseille","lat":43.31091,"lon":5.42433,"is_reserved":false,"is_disabled":false,"rental_uris":{"android":"levelo://app?vid=8f4a549b-344a-4fc6-aab0-739441a53b76","ios":"levelo://app?vid=8f4a549b-344a-4fc6-aab0-739441a53b76"},"vehicle_type_id":"4","last_reported":1766128448,"current_range_meters":12400,"station_id":"ce4bhp92rcd13ifvqhag","pricing_plan_id":"cebpf4jnsgd1na2vs0mg"},{"bike_id":"5c1f0183-cbe5-4a9e-a493-d80ce3862cbd","system_id":"levelo_inurba_marseille","lat":43.32089,"lon":5.36793,"is_reserved":false,"is_disabled":false,"rental_uris":{"android":"levelo://app?vid=5c1f0183-cbe5-4a9e-a493-d80ce3862cbd","ios":"levelo://app?vid=5c1f0183-cbe5-4a9e-a493-d80ce3862cbd"},"vehicle_type_id":"4","last_reported":1766128448,"current_range_meters":12400,"station_id":"ce4bhrh2rcd13ifvqhug","pricing_plan_id":"cebpf4jnsgd1na2vs0mg"},{"bike_id":"d6bc7465-ed58-4731-8353-a1bf1c3037e6","system_id":"levelo_inurba_marseille","lat":43.26566,"lon":5.40314,"is_reserved":false,"is_disabled":false,"rental_uris":{"android":"levelo://app?vid=d6bc7465-ed58-4731-8353-a1bf1c3037e6","ios":"levelo://app?vid=d6bc7465-ed58-4731-8353-a1bf1c3037e6"},"vehicle_type_id":"4","last_reported":1766128448,"current_range_meters":12400,"station_id":"ce4bhmp2rcd13ifvqgng","pricing_plan_id":"cebpf4jnsgd1na2vs0mg"},{"bike_id":"d6888ab2-db65-443c-8d72-10589f53745a","system_id":"levelo_inurba_marseille","lat":43.29509,"lon":5.37492,"is_reserved":false,"is_disabled":true,"rental_uris":{"android":"levelo://app?vid=d6888ab2-db65-443c-8d72-10589f53745a","ios":"levelo://app?vid=d6888ab2-db65-443c-8d72-10589f53745a"},"vehicle_type_id":"4","last_reported":1766128448,"current_range_meters":12400,"station_id":"ce4bgkp2rcd13ifvqbmg","pricing_plan_id":"cebpf4jnsgd1na2vs0mg"},{"bike_id":"112a3beb-d6f4-43ea-8344-cc23d1e71cc1","system_id":"levelo_inurba_marseille","lat":43.2906,"lon":5.37156,"is_reserved":false,"is_disabled":false,"rental_uris":{"android":"levelo://app?vid=112a3beb-d6f4-43ea-8344-cc23d1e71cc1","ios":"levelo://app?vid=112a3beb-d6f4-43ea-8344-cc23d1e71cc1"},"vehicle_type_id":"4","last_reported":1766128448,"current_range_meters":12400,"station_id":"","pricing_plan_id":"cebpf4jnsgd1na2vs0mg"},{"bike_id":"b7b64a96-c9ae-46e0-8768-12fcfeb4b194","system_id":"levelo_inurba_marseille","lat":43.30159,"lon":5.3809,"is_reserved":false,"is_disabled":false,"rental_uris":{"android":"levelo://app?vid=b7b64a96-c9ae-46e0-8768-12fcfeb4b194","ios":"levelo://app?vid=b7b64a96-c9ae-46e0-8768-12fcfeb4b194"},"vehicle_type_id":"4","last_reported":1766128448,"current_range_meters":12400,"station_id":"ce4bgjp2rcd13ifvqbh0","pricing_plan_id":"cebpf4jnsgd1na2vs0mg"},{"bike_id":"c2657a42-26a4-4ae0-b35b-25bd9d22776b","system_id":"levelo_inurba_marseille","lat":43.28717,"lon":5.36074,"is_reserved":false,"is_disabled":false,"rental_uris":{"android":"levelo://app?vid=c2657a42-26a4-4ae0-b35b-25bd9d22776b","ios":"levelo://app?vid=c2657a42-26a4-4ae0-b35b-25bd9d22776b"},"vehicle_type_id":"4","last_reported":1766128448,"current_range_meters":12800,"station_id":"cki0cbj6b192h4jlfktg","pricing_plan_id":"cebpf4jnsgd1na2vs0mg"},{"bike_id":"1c1f01d8-c54a-439c-9e3f-5ded92cedb52","system_id":"levelo_inurba_marseille","lat":43.2378,"lon":5.366338,"is_reserved":false,"is_disabled":false,"rental_uris":{"android":"levelo://app?vid=1c1f01d8-c54a-439c-9e3f-5ded92cedb52","ios":"levelo://app?vid=1c1f01d8-c54a-439c-9e3f-5ded92cedb52"},"vehicle_type_id":"4","last_reported":1766128448,"current_range_meters":12800,"station_id":"st_d3nk18o9ro0c73en2l3g","pricing_plan_id":"cebpf4jnsgd1na2vs0mg"},{"bike_id":"cc2a1c40-f3ab-451b-8812-6fdc50c6702d","system_id":"levelo_inurba_marseille","lat":43.28398,"lon":5.34985,"is_reserved":false,"is_disabled":false,"rental_uris":{"android":"levelo://app?vid=cc2a1c40-f3ab-451b-8812-6fdc50c6702d","ios":"levelo://app?vid=cc2a1c40-f3ab-451b-8812-6fdc50c6702d"},"vehicle_type_id":"4","last_reported":1766128448,"current_range_meters":12800,"station_id":"ce4bhbh2rcd13ifvqepg","pricing_plan_id":"cebpf4jnsgd1na2vs0mg"},{"bike_id":"af783cbc-685b-4b56-93fa-6a6d328c307a","system_id":"levelo_inurba_marseille","lat":43.249916,"lon":5.389413,"is_reserved":false,"is_disabled":false,"rental_uris":{"android":"levelo://app?vid=af783cbc-685b-4b56-93fa-6a6d328c307a","ios":"levelo://app?vid=af783cbc-685b-4b56-93fa-6a6d328c307a"},"vehicle_type_id":"4","last_reported":1766128448,"current_range_meters":12800,"station_id":"ce4bhgp2rcd13ifvqfd0","pricing_plan_id":"cebpf4jnsgd1na2vs0mg"},{"bike_id":"1c79eb29-135e-40c1-8651-901759d4aaa6","system_id":"levelo_inurba_marseille","lat":43.2858,"lon":5.3529,"is_reserved":false,"is_disabled":false,"rental_uris":{"android":"levelo://app?vid=1c79eb29-135e-40c1-8651-901759d4aaa6","ios":"levelo://app?vid=1c79eb29-135e-40c1-8651-901759d4aaa6"},"vehicle_type_id":"4","last_reported":1766128448,"current_range_meters":12800,"station_id":"","pricing_plan_id":"cebpf4jnsgd1na2vs0mg"},{"bike_id":"dcebbb45-765e-44b9-9596-1f8fdae0f25e","system_id":"levelo_inurba_marseille","lat":43.24651,"lon":5.38882,"is_reserved":false,"is_disabled":false,"rental_uris":{"android":"levelo://app?vid=dcebbb45-765e-44b9-9596-1f8fdae0f25e","ios":"levelo://app?vid=dcebbb45-765e-44b9-9596-1f8fdae0f25e"},"vehicle_type_id":"4","last_reported":1766128448,"current_range_meters":12800,"station_id":"ce4bhg12rcd13ifvqf60","pricing_plan_id":"cebpf4jnsgd1na2vs0mg"},{"bike_id":"ec6401bf-06e9-4881-946b-649f2b1df2d1","system_id":"levelo_inurba_marseille","lat":43.25334,"lon":5.42167,"is_reserved":false,"is_disabled":false,"rental_uris":{"android":"levelo://app?vid=ec6401bf-06e9-4881-946b-649f2b1df2d1","ios":"levelo://app?vid=ec6401bf-06e9-4881-946b-649f2b1df2d1"},"vehicle_type_id":"4","last_reported":1766128448,"current_range_meters":12800,"station_id":"st_d2m65c5bi1j21697t3ng","pricing_plan_id":"cebpf4jnsgd1na2vs0mg"},{"bike_id":"8965bd2e-8152-488c-82f6-eca1ad732749","system_id":"levelo_inurba_marseille","lat":43.31289,"lon":5.40169,"is_reserved":false,"is_disabled":false,"rental_uris":{"android":"levelo://app?vid=8965bd2e-8152-488c-82f6-eca1ad732749","ios":"levelo://app?vid=8965bd2e-8152-488c-82f6-eca1ad732749"},"vehicle_type_id":"4","last_reported":1766128448,"current_range_meters":12800,"station_id":"ce4bh092rcd13ifvqd30","pricing_plan_id":"cebpf4jnsgd1na2vs0mg"},{"bike_id":"5474fde9-5ed0-49e3-8fc7-9f89c5c20dfd","system_id":"levelo_inurba_marseille","lat":43.21186,"lon":5.35076,"is_reserved":false,"is_disabled":false,"rental_uris":{"android":"levelo://app?vid=5474fde9-5ed0-49e3-8fc7-9f89c5c20dfd","ios":"levelo://app?vid=5474fde9-5ed0-49e3-8fc7-9f89c5c20dfd"},"vehicle_type_id":"4","last_reported":1766128448,"current_range_meters":12800,"station_id":"st_cvj6sg6p6f1abm77japg","pricing_plan_id":"cebpf4jnsgd1na2vs0mg"},{"bike_id":"51850788-6d18-4067-a22e-183a3dbd8b5e","system_id":"levelo_inurba_marseille","lat":43.28615,"lon":5.35098,"is_reserved":false,"is_disabled":false,"rental_uris":{"android":"levelo://app?vid=51850788-6d18-4067-a22e-183a3dbd8b5e","ios":"levelo://app?vid=51850788-6d18-4067-a22e-183a3dbd8b5e"},"vehicle_type_id":"4","last_reported":1766128448,"current_range_meters":12800,"station_id":"ce4bhch2rcd13ifvqeug","pricing_plan_id":"cebpf4jnsgd1na2vs0mg"},{"bike_id":"689e1e25-96b9-418c-bbe1-0e8f9558c52f","system_id":"levelo_inurba_marseille","lat":43.31364,"lon":5.37701,"is_reserved":false,"is_disabled":false,"rental_uris":{"android":"levelo://app?vid=689e1e25-96b9-418c-bbe1-0e8f9558c52f","ios":"levelo://app?vid=689e1e25-96b9-418c-bbe1-0e8f9558c52f"},"vehicle_type_id":"4","last_reported":1766128448,"current_range_meters":12800,"station_id":"","pricing_plan_id":"cebpf4jnsgd1na2vs0mg"},{"bike_id":"fdde03c4-f3c6-4562-b5d1-e681d3e4b56e","system_id":"levelo_inurba_marseille","lat":43.323619,"lon":5.36738,"is_reserved":false,"is_disabled":false,"rental_uris":{"android":"levelo://app?vid=fdde03c4-f3c6-4562-b5d1-e681d3e4b56e","ios":"levelo://app?vid=fdde03c4-f3c6-4562-b5d1-e681d3e4b56e"},"vehicle_type_id":"4","last_reported":1766128448,"current_range_meters":13600,"station_id":"ce4bhsh2rcd13ifvqi2g","pricing_plan_id":"cebpf4jnsgd1na2vs0mg"},{"bike_id":"84fe17c2-4f29-437a-b239-2e4077e1f0c4","system_id":"levelo_inurba_marseille","lat":43.29227,"lon":5.36069,"is_reserved":false,"is_disabled":false,"rental_uris":{"android":"levelo://app?vid=84fe17c2-4f29-437a-b239-2e4077e1f0c4","ios":"levelo://app?vid=84fe17c2-4f29-437a-b239-2e4077e1f0c4"},"vehicle_type_id":"4","last_reported":1766128448,"current_range_meters":13600,"station_id":"ce4bhbh2rcd13ifvqeqg","pricing_plan_id":"cebpf4jnsgd1na2vs0mg"},{"bike_id":"34432b8d-ee07-4e27-948a-d025d4af86ca","system_id":"levelo_inurba_marseille","lat":43.29514,"lon":5.39382,"is_reserved":false,"is_disabled":false,"rental_uris":{"android":"levelo://app?vid=34432b8d-ee07-4e27-948a-d025d4af86ca","ios":"levelo://app?vid=34432b8d-ee07-4e27-948a-d025d4af86ca"},"vehicle_type_id":"4","last_reported":1766128448,"current_range_meters":13600,"station_id":"ce4bh292rcd13ifvqdf0","pricing_plan_id":"cebpf4jnsgd1na2vs0mg"},{"bike_id":"47b454cd-01f9-4de3-b129-3f7a7abb6370","system_id":"levelo_inurba_marseille","lat":43.292214,"lon":5.360611,"is_reserved":false,"is_disabled":false,"rental_uris":{"android":"levelo://app?vid=47b454cd-01f9-4de3-b129-3f7a7abb6370","ios":"levelo://app?vid=47b454cd-01f9-4de3-b129-3f7a7abb6370"},"vehicle_type_id":"4","last_reported":1766128448,"current_range_meters":13600,"station_id":"ce4bhbh2rcd13ifvqeqg","pricing_plan_id":"cebpf4jnsgd1na2vs0mg"},{"bike_id":"b090b19d-281c-4430-bcc0-abfef338c97d","system_id":"levelo_inurba_marseille","lat":43.29515,"lon":5.394018,"is_reserved":false,"is_disabled":false,"rental_uris":{"android":"levelo://app?vid=b090b19d-281c-4430-bcc0-abfef338c97d","ios":"levelo://app?vid=b090b19d-281c-4430-bcc0-abfef338c97d"},"vehicle_type_id":"4","last_reported":1766128448,"current_range_meters":13600,"station_id":"ce4bh292rcd13ifvqdf0","pricing_plan_id":"cebpf4jnsgd1na2vs0mg"},{"bike_id":"ed0b0efc-7ff2-4ff0-8f38-23867c9755df","system_id":"levelo_inurba_marseille","lat":43.25348,"lon":5.42173,"is_reserved":false,"is_disabled":false,"rental_uris":{"android":"levelo://app?vid=ed0b0efc-7ff2-4ff0-8f38-23867c9755df","ios":"levelo://app?vid=ed0b0efc-7ff2-4ff0-8f38-23867c9755df"},"vehicle_type_id":"4","last_reported":1766128448,"current_range_meters":13600,"station_id":"st_d2m65c5bi1j21697t3ng","pricing_plan_id":"cebpf4jnsgd1na2vs0mg"},{"bike_id":"d674a729-c24a-42f8-8d99-54fc4e699b40","system_id":"levelo_inurba_marseille","lat":43.30795,"lon":5.37655,"is_reserved":false,"is_disabled":false,"rental_uris":{"android":"levelo://app?vid=d674a729-c24a-42f8-8d99-54fc4e699b40","ios":"levelo://app?vid=d674a729-c24a-42f8-8d99-54fc4e699b40"},"vehicle_type_id":"4","last_reported":1766128448,"current_range_meters":13600,"station_id":"ce4bgv92rcd13ifvqcq0","pricing_plan_id":"cebpf4jnsgd1na2vs0mg"},{"bike_id":"29ff8d65-fbca-42c1-b12e-cd4dc579808a","system_id":"levelo_inurba_marseille","lat":43.30151,"lon":5.37407,"is_reserved":false,"is_disabled":false,"rental_uris":{"android":"levelo://app?vid=29ff8d65-fbca-42c1-b12e-cd4dc579808a","ios":"levelo://app?vid=29ff8d65-fbca-42c1-b12e-cd4dc579808a"},"vehicle_type_id":"4","last_reported":1766128448,"current_range_meters":13600,"station_id":"ce4bgs92rcd13ifvqcc0","pricing_plan_id":"cebpf4jnsgd1na2vs0mg"},{"bike_id":"30df60d9-afa1-4ec6-ae98-845c99089db1","system_id":"levelo_inurba_marseille","lat":43.295835,"lon":5.375082,"is_reserved":false,"is_disabled":false,"rental_uris":{"android":"levelo://app?vid=30df60d9-afa1-4ec6-ae98-845c99089db1","ios":"levelo://app?vid=30df60d9-afa1-4ec6-ae98-845c99089db1"},"vehicle_type_id":"4","last_reported":1766128448,"current_range_meters":13600,"station_id":"","pricing_plan_id":"cebpf4jnsgd1na2vs0mg"},{"bike_id":"1b242f74-0031-42b6-9e71-062aba3f7d85","system_id":"levelo_inurba_marseille","lat":43.25361,"lon":5.42193,"is_reserved":false,"is_disabled":false,"rental_uris":{"android":"levelo://app?vid=1b242f74-0031-42b6-9e71-062aba3f7d85","ios":"levelo://app?vid=1b242f74-0031-42b6-9e71-062aba3f7d85"},"vehicle_type_id":"4","last_reported":1766128448,"current_range_meters":13600,"station_id":"st_d2m65c5bi1j21697t3ng","pricing_plan_id":"cebpf4jnsgd1na2vs0mg"},{"bike_id":"9059853e-cbe4-4135-a44d-2e6b73d8c077","system_id":"levelo_inurba_marseille","lat":43.29758,"lon":5.42778,"is_reserved":false,"is_disabled":false,"rental_uris":{"android":"levelo://app?vid=9059853e-cbe4-4135-a44d-2e6b73d8c077","ios":"levelo://app?vid=9059853e-cbe4-4135-a44d-2e6b73d8c077"},"vehicle_type_id":"4","last_reported":1766128448,"current_range_meters":13600,"station_id":"st_d3md5207bmas73dh9klg","pricing_plan_id":"cebpf4jnsgd1na2vs0mg"},{"bike_id":"a8bb7bbc-85dc-488d-8db9-15a263115c98","system_id":"levelo_inurba_marseille","lat":43.290418,"lon":5.399592,"is_reserved":false,"is_disabled":false,"rental_uris":{"android":"levelo://app?vid=a8bb7bbc-85dc-488d-8db9-15a263115c98","ios":"levelo://app?vid=a8bb7bbc-85dc-488d-8db9-15a263115c98"},"vehicle_type_id":"4","last_reported":1766128448,"current_range_meters":13600,"station_id":"ce4bh392rcd13ifvqdm0","pricing_plan_id":"cebpf4jnsgd1na2vs0mg"},{"bike_id":"93bcaa21-af38-4678-bd82-764833dfb40b","system_id":"levelo_inurba_marseille","lat":43.26933,"lon":5.3868,"is_reserved":false,"is_disabled":false,"rental_uris":{"android":"levelo://app?vid=93bcaa21-af38-4678-bd82-764833dfb40b","ios":"levelo://app?vid=93bcaa21-af38-4678-bd82-764833dfb40b"},"vehicle_type_id":"4","last_reported":1766128448,"current_range_meters":13600,"station_id":"ce4bhh92rcd13ifvqfh0","pricing_plan_id":"cebpf4jnsgd1na2vs0mg"},{"bike_id":"d978346a-4426-4e3c-89b3-96a36d544e65","system_id":"levelo_inurba_marseille","lat":43.29309,"lon":5.37168,"is_reserved":false,"is_disabled":false,"rental_uris":{"android":"levelo://app?vid=d978346a-4426-4e3c-89b3-96a36d544e65","ios":"levelo://app?vid=d978346a-4426-4e3c-89b3-96a36d544e65"},"vehicle_type_id":"4","last_reported":1766128448,"current_range_meters":13600,"station_id":"ce4bgh92rcd13ifvqb40","pricing_plan_id":"cebpf4jnsgd1na2vs0mg"},{"bike_id":"24df08af-7a2c-4580-b263-bcb3f62d73e3","system_id":"levelo_inurba_marseille","lat":43.24472,"lon":5.42539,"is_reserved":false,"is_disabled":false,"rental_uris":{"android":"levelo://app?vid=24df08af-7a2c-4580-b263-bcb3f62d73e3","ios":"levelo://app?vid=24df08af-7a2c-4580-b263-bcb3f62d73e3"},"vehicle_type_id":"4","last_reported":1766128448,"current_range_meters":13600,"station_id":"st_d4a3vfp97mjs738cd8kg","pricing_plan_id":"cebpf4jnsgd1na2vs0mg"},{"bike_id":"745a73b2-641e-464c-a252-9945eb0d64e6","system_id":"levelo_inurba_marseille","lat":43.28915,"lon":5.35819,"is_reserved":false,"is_disabled":false,"rental_uris":{"android":"levelo://app?vid=745a73b2-641e-464c-a252-9945eb0d64e6","ios":"levelo://app?vid=745a73b2-641e-464c-a252-9945eb0d64e6"},"vehicle_type_id":"4","last_reported":1766128448,"current_range_meters":13600,"station_id":"","pricing_plan_id":"cebpf4jnsgd1na2vs0mg"},{"bike_id":"eace70d9-abc4-463e-ad30-564a1fb2f71d","system_id":"levelo_inurba_marseille","lat":43.2587,"lon":5.39897,"is_reserved":false,"is_disabled":false,"rental_uris":{"android":"levelo://app?vid=eace70d9-abc4-463e-ad30-564a1fb2f71d","ios":"levelo://app?vid=eace70d9-abc4-463e-ad30-564a1fb2f71d"},"vehicle_type_id":"4","last_reported":1766128448,"current_range_meters":14000,"station_id":"ce4bhl92rcd13ifvqghg","pricing_plan_id":"cebpf4jnsgd1na2vs0mg"},{"bike_id":"128f68df-e6c8-471d-bf6e-3a9c347712de","system_id":"levelo_inurba_marseille","lat":43.29234,"lon":5.40898,"is_reserved":false,"is_disabled":false,"rental_uris":{"android":"levelo://app?vid=128f68df-e6c8-471d-bf6e-3a9c347712de","ios":"levelo://app?vid=128f68df-e6c8-471d-bf6e-3a9c347712de"},"vehicle_type_id":"4","last_reported":1766128448,"current_range_meters":14000,"station_id":"ce4bh192rcd13ifvqdc0","pricing_plan_id":"cebpf4jnsgd1na2vs0mg"},{"bike_id":"05bc787d-b9f6-49a4-8de6-e5ed8ada89fe","system_id":"levelo_inurba_marseille","lat":43.27838,"lon":5.40727,"is_reserved":false,"is_disabled":false,"rental_uris":{"android":"levelo://app?vid=05bc787d-b9f6-49a4-8de6-e5ed8ada89fe","ios":"levelo://app?vid=05bc787d-b9f6-49a4-8de6-e5ed8ada89fe"},"vehicle_type_id":"4","last_reported":1766128448,"current_range_meters":14000,"station_id":"ce4bhnh2rcd13ifvqgtg","pricing_plan_id":"cebpf4jnsgd1na2vs0mg"},{"bike_id":"61ca951e-8592-4e08-979a-2290ac3fe5c2","system_id":"levelo_inurba_marseille","lat":43.25008,"lon":5.3892,"is_reserved":false,"is_disabled":false,"rental_uris":{"android":"levelo://app?vid=61ca951e-8592-4e08-979a-2290ac3fe5c2","ios":"levelo://app?vid=61ca951e-8592-4e08-979a-2290ac3fe5c2"},"vehicle_type_id":"4","last_reported":1766128448,"current_range_meters":14000,"station_id":"ce4bhgp2rcd13ifvqfd0","pricing_plan_id":"cebpf4jnsgd1na2vs0mg"},{"bike_id":"e0effb5a-e8c9-4234-ae32-e89cc890b254","system_id":"levelo_inurba_marseille","lat":43.28879,"lon":5.42512,"is_reserved":false,"is_disabled":false,"rental_uris":{"android":"levelo://app?vid=e0effb5a-e8c9-4234-ae32-e89cc890b254","ios":"levelo://app?vid=e0effb5a-e8c9-4234-ae32-e89cc890b254"},"vehicle_type_id":"4","last_reported":1766128448,"current_range_meters":14000,"station_id":"st_d3b462108ojc7389ooeg","pricing_plan_id":"cebpf4jnsgd1na2vs0mg"},{"bike_id":"67d835a6-21e4-471b-bcce-6e8b660c295a","system_id":"levelo_inurba_marseille","lat":43.286127,"lon":5.35104,"is_reserved":false,"is_disabled":false,"rental_uris":{"android":"levelo://app?vid=67d835a6-21e4-471b-bcce-6e8b660c295a","ios":"levelo://app?vid=67d835a6-21e4-471b-bcce-6e8b660c295a"},"vehicle_type_id":"4","last_reported":1766128448,"current_range_meters":14000,"station_id":"ce4bhch2rcd13ifvqeug","pricing_plan_id":"cebpf4jnsgd1na2vs0mg"},{"bike_id":"1d7a2ca0-8161-4459-b5d5-06113213bda9","system_id":"levelo_inurba_marseille","lat":43.23191,"lon":5.35563,"is_reserved":false,"is_disabled":false,"rental_uris":{"android":"levelo://app?vid=1d7a2ca0-8161-4459-b5d5-06113213bda9","ios":"levelo://app?vid=1d7a2ca0-8161-4459-b5d5-06113213bda9"},"vehicle_type_id":"4","last_reported":1766128448,"current_range_meters":14000,"station_id":"ce4bhu92rcd13ifvqi70","pricing_plan_id":"cebpf4jnsgd1na2vs0mg"},{"bike_id":"90054a0f-7707-4d38-a2c3-d622d9809e49","system_id":"levelo_inurba_marseille","lat":43.29759,"lon":5.42765,"is_reserved":false,"is_disabled":false,"rental_uris":{"android":"levelo://app?vid=90054a0f-7707-4d38-a2c3-d622d9809e49","ios":"levelo://app?vid=90054a0f-7707-4d38-a2c3-d622d9809e49"},"vehicle_type_id":"4","last_reported":1766128448,"current_range_meters":14000,"station_id":"st_d3md5207bmas73dh9klg","pricing_plan_id":"cebpf4jnsgd1na2vs0mg"},{"bike_id":"6ec9a6be-eed9-4adb-a34f-9a64c85ea37b","system_id":"levelo_inurba_marseille","lat":43.30648,"lon":5.37579,"is_reserved":false,"is_disabled":false,"rental_uris":{"android":"levelo://app?vid=6ec9a6be-eed9-4adb-a34f-9a64c85ea37b","ios":"levelo://app?vid=6ec9a6be-eed9-4adb-a34f-9a64c85ea37b"},"vehicle_type_id":"4","last_reported":1766128448,"current_range_meters":14000,"station_id":"","pricing_plan_id":"cebpf4jnsgd1na2vs0mg"},{"bike_id":"3b81abea-7721-42a8-8552-3c07345c4c32","system_id":"levelo_inurba_marseille","lat":43.28264,"lon":5.35065,"is_reserved":false,"is_disabled":false,"rental_uris":{"android":"levelo://app?vid=3b81abea-7721-42a8-8552-3c07345c4c32","ios":"levelo://app?vid=3b81abea-7721-42a8-8552-3c07345c4c32"},"vehicle_type_id":"4","last_reported":1766128448,"current_range_meters":14000,"station_id":"ce4bhbp2rcd13ifvqerg","pricing_plan_id":"cebpf4jnsgd1na2vs0mg"},{"bike_id":"02cb24cc-e062-4b73-80fd-141f91a697f7","system_id":"levelo_inurba_marseille","lat":43.31565,"lon":5.37663,"is_reserved":false,"is_disabled":false,"rental_uris":{"android":"levelo://app?vid=02cb24cc-e062-4b73-80fd-141f91a697f7","ios":"levelo://app?vid=02cb24cc-e062-4b73-80fd-141f91a697f7"},"vehicle_type_id":"4","last_reported":1766128448,"current_range_meters":14000,"station_id":"","pricing_plan_id":"cebpf4jnsgd1na2vs0mg"},{"bike_id":"d3fcd822-177c-4652-bd1b-c4847def5cc0","system_id":"levelo_inurba_marseille","lat":43.30642,"lon":5.40077,"is_reserved":false,"is_disabled":false,"rental_uris":{"android":"levelo://app?vid=d3fcd822-177c-4652-bd1b-c4847def5cc0","ios":"levelo://app?vid=d3fcd822-177c-4652-bd1b-c4847def5cc0"},"vehicle_type_id":"4","last_reported":1766128448,"current_range_meters":14400,"station_id":"ce4bh112rcd13ifvqda0","pricing_plan_id":"cebpf4jnsgd1na2vs0mg"},{"bike_id":"fcae12e9-dde1-430e-95a7-f5567d679aa5","system_id":"levelo_inurba_marseille","lat":43.29263,"lon":5.38433,"is_reserved":false,"is_disabled":true,"rental_uris":{"android":"levelo://app?vid=fcae12e9-dde1-430e-95a7-f5567d679aa5","ios":"levelo://app?vid=fcae12e9-dde1-430e-95a7-f5567d679aa5"},"vehicle_type_id":"4","last_reported":1766128448,"current_range_meters":14400,"station_id":"ce4bh692rcd13ifvqea0","pricing_plan_id":"cebpf4jnsgd1na2vs0mg"},{"bike_id":"41dde568-f7f7-4633-be20-51b0af4553ba","system_id":"levelo_inurba_marseille","lat":43.27908,"lon":5.39587,"is_reserved":false,"is_disabled":false,"rental_uris":{"android":"levelo://app?vid=41dde568-f7f7-4633-be20-51b0af4553ba","ios":"levelo://app?vid=41dde568-f7f7-4633-be20-51b0af4553ba"},"vehicle_type_id":"4","last_reported":1766128448,"current_range_meters":14400,"station_id":"ce4bhf92rcd13ifvqf40","pricing_plan_id":"cebpf4jnsgd1na2vs0mg"},{"bike_id":"340f8d30-ede3-427a-836c-03a47321f603","system_id":"levelo_inurba_marseille","lat":43.26215,"lon":5.40456,"is_reserved":false,"is_disabled":false,"rental_uris":{"android":"levelo://app?vid=340f8d30-ede3-427a-836c-03a47321f603","ios":"levelo://app?vid=340f8d30-ede3-427a-836c-03a47321f603"},"vehicle_type_id":"4","last_reported":1766128448,"current_range_meters":14400,"station_id":"ce4bhmh2rcd13ifvqgmg","pricing_plan_id":"cebpf4jnsgd1na2vs0mg"},{"bike_id":"00a29bb1-88ca-440d-9219-07d673c689ed","system_id":"levelo_inurba_marseille","lat":43.298141,"lon":5.363381,"is_reserved":false,"is_disabled":false,"rental_uris":{"android":"levelo://app?vid=00a29bb1-88ca-440d-9219-07d673c689ed","ios":"levelo://app?vid=00a29bb1-88ca-440d-9219-07d673c689ed"},"vehicle_type_id":"4","last_reported":1766128448,"current_range_meters":14400,"station_id":"","pricing_plan_id":"cebpf4jnsgd1na2vs0mg"},{"bike_id":"f1fe0e05-fe90-40dc-bf1c-51498d3a38bb","system_id":"levelo_inurba_marseille","lat":43.27375,"lon":5.36265,"is_reserved":false,"is_disabled":false,"rental_uris":{"android":"levelo://app?vid=f1fe0e05-fe90-40dc-bf1c-51498d3a38bb","ios":"levelo://app?vid=f1fe0e05-fe90-40dc-bf1c-51498d3a38bb"},"vehicle_type_id":"4","last_reported":1766128448,"current_range_meters":14400,"station_id":"ce4bhbh2rcd13ifvqeo0","pricing_plan_id":"cebpf4jnsgd1na2vs0mg"},{"bike_id":"67486f1b-a40b-4e91-8dc3-2d661fa8d1bb","system_id":"levelo_inurba_marseille","lat":43.2923,"lon":5.36078,"is_reserved":false,"is_disabled":false,"rental_uris":{"android":"levelo://app?vid=67486f1b-a40b-4e91-8dc3-2d661fa8d1bb","ios":"levelo://app?vid=67486f1b-a40b-4e91-8dc3-2d661fa8d1bb"},"vehicle_type_id":"4","last_reported":1766128448,"current_range_meters":14400,"station_id":"ce4bhbh2rcd13ifvqeqg","pricing_plan_id":"cebpf4jnsgd1na2vs0mg"},{"bike_id":"2804a5d3-faa8-4e3b-a458-ce91cd4919af","system_id":"levelo_inurba_marseille","lat":43.29227,"lon":5.36074,"is_reserved":false,"is_disabled":false,"rental_uris":{"android":"levelo://app?vid=2804a5d3-faa8-4e3b-a458-ce91cd4919af","ios":"levelo://app?vid=2804a5d3-faa8-4e3b-a458-ce91cd4919af"},"vehicle_type_id":"4","last_reported":1766128448,"current_range_meters":14400,"station_id":"ce4bhbh2rcd13ifvqeqg","pricing_plan_id":"cebpf4jnsgd1na2vs0mg"},{"bike_id":"d67904e3-d432-4bb6-9c59-13ac7cead46a","system_id":"levelo_inurba_marseille","lat":43.323554,"lon":5.367531,"is_reserved":false,"is_disabled":false,"rental_uris":{"android":"levelo://app?vid=d67904e3-d432-4bb6-9c59-13ac7cead46a","ios":"levelo://app?vid=d67904e3-d432-4bb6-9c59-13ac7cead46a"},"vehicle_type_id":"4","last_reported":1766128448,"current_range_meters":14400,"station_id":"ce4bhsh2rcd13ifvqi2g","pricing_plan_id":"cebpf4jnsgd1na2vs0mg"},{"bike_id":"0e831b8a-ba65-4401-84c3-afd3e8869534","system_id":"levelo_inurba_marseille","lat":43.29621,"lon":5.37144,"is_reserved":false,"is_disabled":false,"rental_uris":{"android":"levelo://app?vid=0e831b8a-ba65-4401-84c3-afd3e8869534","ios":"levelo://app?vid=0e831b8a-ba65-4401-84c3-afd3e8869534"},"vehicle_type_id":"4","last_reported":1766128448,"current_range_meters":14400,"station_id":"ce4bgnh2rcd13ifvqc0g","pricing_plan_id":"cebpf4jnsgd1na2vs0mg"},{"bike_id":"1c3a6625-d109-4468-bf21-fb586a1cd619","system_id":"levelo_inurba_marseille","lat":43.28352,"lon":5.38107,"is_reserved":false,"is_disabled":false,"rental_uris":{"android":"levelo://app?vid=1c3a6625-d109-4468-bf21-fb586a1cd619","ios":"levelo://app?vid=1c3a6625-d109-4468-bf21-fb586a1cd619"},"vehicle_type_id":"4","last_reported":1766128448,"current_range_meters":14400,"station_id":"ce4bh412rcd13ifvqdr0","pricing_plan_id":"cebpf4jnsgd1na2vs0mg"},{"bike_id":"207776d7-b88e-48a6-b74f-2b1aae5e54c7","system_id":"levelo_inurba_marseille","lat":43.268961,"lon":5.387159,"is_reserved":false,"is_disabled":false,"rental_uris":{"android":"levelo://app?vid=207776d7-b88e-48a6-b74f-2b1aae5e54c7","ios":"levelo://app?vid=207776d7-b88e-48a6-b74f-2b1aae5e54c7"},"vehicle_type_id":"4","last_reported":1766128448,"current_range_meters":14800,"station_id":"","pricing_plan_id":"cebpf4jnsgd1na2vs0mg"},{"bike_id":"342831ac-e927-49d6-8b43-22fa72e5bef8","system_id":"levelo_inurba_marseille","lat":43.28038,"lon":5.38691,"is_reserved":false,"is_disabled":false,"rental_uris":{"android":"levelo://app?vid=342831ac-e927-49d6-8b43-22fa72e5bef8","ios":"levelo://app?vid=342831ac-e927-49d6-8b43-22fa72e5bef8"},"vehicle_type_id":"4","last_reported":1766128448,"current_range_meters":14800,"station_id":"","pricing_plan_id":"cebpf4jnsgd1na2vs0mg"},{"bike_id":"17e6a6d7-a83e-4be6-ac4f-a147c0b56fba","system_id":"levelo_inurba_marseille","lat":43.23792,"lon":5.36628,"is_reserved":false,"is_disabled":false,"rental_uris":{"android":"levelo://app?vid=17e6a6d7-a83e-4be6-ac4f-a147c0b56fba","ios":"levelo://app?vid=17e6a6d7-a83e-4be6-ac4f-a147c0b56fba"},"vehicle_type_id":"4","last_reported":1766128448,"current_range_meters":14800,"station_id":"st_d3nk18o9ro0c73en2l3g","pricing_plan_id":"cebpf4jnsgd1na2vs0mg"},{"bike_id":"bcbf2e9e-043a-4574-bcc0-a8f0d26353c7","system_id":"levelo_inurba_marseille","lat":43.290208,"lon":5.381454,"is_reserved":false,"is_disabled":false,"rental_uris":{"android":"levelo://app?vid=bcbf2e9e-043a-4574-bcc0-a8f0d26353c7","ios":"levelo://app?vid=bcbf2e9e-043a-4574-bcc0-a8f0d26353c7"},"vehicle_type_id":"4","last_reported":1766128448,"current_range_meters":15200,"station_id":"ce4bh4p2rcd13ifvqe1g","pricing_plan_id":"cebpf4jnsgd1na2vs0mg"},{"bike_id":"f1c6ef30-df40-4531-b632-19b3b8de3f93","system_id":"levelo_inurba_marseille","lat":43.337444,"lon":5.374475,"is_reserved":false,"is_disabled":false,"rental_uris":{"android":"levelo://app?vid=f1c6ef30-df40-4531-b632-19b3b8de3f93","ios":"levelo://app?vid=f1c6ef30-df40-4531-b632-19b3b8de3f93"},"vehicle_type_id":"4","last_reported":1766128448,"current_range_meters":15200,"station_id":"","pricing_plan_id":"cebpf4jnsgd1na2vs0mg"},{"bike_id":"eb37676f-25c4-4c31-a277-37b24463f2cb","system_id":"levelo_inurba_marseille","lat":43.296794,"lon":5.373059,"is_reserved":false,"is_disabled":false,"rental_uris":{"android":"levelo://app?vid=eb37676f-25c4-4c31-a277-37b24463f2cb","ios":"levelo://app?vid=eb37676f-25c4-4c31-a277-37b24463f2cb"},"vehicle_type_id":"4","last_reported":1766128448,"current_range_meters":15200,"station_id":"ce4bgk12rcd13ifvqbj0","pricing_plan_id":"cebpf4jnsgd1na2vs0mg"},{"bike_id":"3632f2ab-b221-4863-b774-2c55ea753df5","system_id":"levelo_inurba_marseille","lat":43.29808,"lon":5.38054,"is_reserved":false,"is_disabled":false,"rental_uris":{"android":"levelo://app?vid=3632f2ab-b221-4863-b774-2c55ea753df5","ios":"levelo://app?vid=3632f2ab-b221-4863-b774-2c55ea753df5"},"vehicle_type_id":"4","last_reported":1766128448,"current_range_meters":15200,"station_id":"","pricing_plan_id":"cebpf4jnsgd1na2vs0mg"},{"bike_id":"db6b0cc7-b9db-4628-83ce-019dc0f883ff","system_id":"levelo_inurba_marseille","lat":43.26556,"lon":5.39024,"is_reserved":false,"is_disabled":false,"rental_uris":{"android":"levelo://app?vid=db6b0cc7-b9db-4628-83ce-019dc0f883ff","ios":"levelo://app?vid=db6b0cc7-b9db-4628-83ce-019dc0f883ff"},"vehicle_type_id":"4","last_reported":1766128448,"current_range_meters":15200,"station_id":"ce4bhe12rcd13ifvqf30","pricing_plan_id":"cebpf4jnsgd1na2vs0mg"},{"bike_id":"4627b20e-1272-4967-a6bb-d3a2840e7d29","system_id":"levelo_inurba_marseille","lat":43.33157,"lon":5.37679,"is_reserved":false,"is_disabled":false,"rental_uris":{"android":"levelo://app?vid=4627b20e-1272-4967-a6bb-d3a2840e7d29","ios":"levelo://app?vid=4627b20e-1272-4967-a6bb-d3a2840e7d29"},"vehicle_type_id":"4","last_reported":1766128448,"current_range_meters":15200,"station_id":"st_d46cu089ee8s73dldbu0","pricing_plan_id":"cebpf4jnsgd1na2vs0mg"},{"bike_id":"bb67b255-5e37-444f-b7a3-316dd67e2430","system_id":"levelo_inurba_marseille","lat":43.29177,"lon":5.35789,"is_reserved":false,"is_disabled":false,"rental_uris":{"android":"levelo://app?vid=bb67b255-5e37-444f-b7a3-316dd67e2430","ios":"levelo://app?vid=bb67b255-5e37-444f-b7a3-316dd67e2430"},"vehicle_type_id":"4","last_reported":1766128448,"current_range_meters":15200,"station_id":"ce4bgh92rcd13ifvqb40","pricing_plan_id":"cebpf4jnsgd1na2vs0mg"},{"bike_id":"8ddf5f0b-8638-4227-b0ee-efe27c023df6","system_id":"levelo_inurba_marseille","lat":43.308014,"lon":5.381433,"is_reserved":false,"is_disabled":false,"rental_uris":{"android":"levelo://app?vid=8ddf5f0b-8638-4227-b0ee-efe27c023df6","ios":"levelo://app?vid=8ddf5f0b-8638-4227-b0ee-efe27c023df6"},"vehicle_type_id":"4","last_reported":1766128448,"current_range_meters":15200,"station_id":"ce4bgjp2rcd13ifvqbh0","pricing_plan_id":"cebpf4jnsgd1na2vs0mg"},{"bike_id":"657677ff-bd0f-45b9-a985-0cee09b5fde2","system_id":"levelo_inurba_marseille","lat":43.31717,"lon":5.43692,"is_reserved":false,"is_disabled":false,"rental_uris":{"android":"levelo://app?vid=657677ff-bd0f-45b9-a985-0cee09b5fde2","ios":"levelo://app?vid=657677ff-bd0f-45b9-a985-0cee09b5fde2"},"vehicle_type_id":"4","last_reported":1766128448,"current_range_meters":15200,"station_id":"ce4bhp92rcd13ifvqhcg","pricing_plan_id":"cebpf4jnsgd1na2vs0mg"},{"bike_id":"7658ce04-c385-4a5b-b29a-f2a2a963598e","system_id":"levelo_inurba_marseille","lat":43.28716,"lon":5.36092,"is_reserved":false,"is_disabled":false,"rental_uris":{"android":"levelo://app?vid=7658ce04-c385-4a5b-b29a-f2a2a963598e","ios":"levelo://app?vid=7658ce04-c385-4a5b-b29a-f2a2a963598e"},"vehicle_type_id":"4","last_reported":1766128448,"current_range_meters":15200,"station_id":"cki0cbj6b192h4jlfktg","pricing_plan_id":"cebpf4jnsgd1na2vs0mg"},{"bike_id":"539a15a5-ea1f-433a-b280-748c300e9855","system_id":"levelo_inurba_marseille","lat":43.23167,"lon":5.3997,"is_reserved":false,"is_disabled":false,"rental_uris":{"android":"levelo://app?vid=539a15a5-ea1f-433a-b280-748c300e9855","ios":"levelo://app?vid=539a15a5-ea1f-433a-b280-748c300e9855"},"vehicle_type_id":"4","last_reported":1766128448,"current_range_meters":15200,"station_id":"ce4bhn12rcd13ifvqgqg","pricing_plan_id":"cebpf4jnsgd1na2vs0mg"},{"bike_id":"449de3f7-7300-4f32-99ec-8d8d0b74147a","system_id":"levelo_inurba_marseille","lat":43.24989,"lon":5.38944,"is_reserved":false,"is_disabled":false,"rental_uris":{"android":"levelo://app?vid=449de3f7-7300-4f32-99ec-8d8d0b74147a","ios":"levelo://app?vid=449de3f7-7300-4f32-99ec-8d8d0b74147a"},"vehicle_type_id":"4","last_reported":1766128448,"current_range_meters":15200,"station_id":"ce4bhgp2rcd13ifvqfd0","pricing_plan_id":"cebpf4jnsgd1na2vs0mg"},{"bike_id":"320f03a8-c4c7-4d1f-be9f-3d7bc7f5d6b3","system_id":"levelo_inurba_marseille","lat":43.3112,"lon":5.37773,"is_reserved":false,"is_disabled":false,"rental_uris":{"android":"levelo://app?vid=320f03a8-c4c7-4d1f-be9f-3d7bc7f5d6b3","ios":"levelo://app?vid=320f03a8-c4c7-4d1f-be9f-3d7bc7f5d6b3"},"vehicle_type_id":"4","last_reported":1766128448,"current_range_meters":16000,"station_id":"ce4bgt92rcd13ifvqcg0","pricing_plan_id":"cebpf4jnsgd1na2vs0mg"},{"bike_id":"7d04a59d-052f-40a7-8094-4edf07c71710","system_id":"levelo_inurba_marseille","lat":43.2863,"lon":5.35087,"is_reserved":false,"is_disabled":false,"rental_uris":{"android":"levelo://app?vid=7d04a59d-052f-40a7-8094-4edf07c71710","ios":"levelo://app?vid=7d04a59d-052f-40a7-8094-4edf07c71710"},"vehicle_type_id":"4","last_reported":1766128448,"current_range_meters":16000,"station_id":"ce4bhch2rcd13ifvqeug","pricing_plan_id":"cebpf4jnsgd1na2vs0mg"},{"bike_id":"5cfdf108-64c2-4b38-8628-9d012576cd8b","system_id":"levelo_inurba_marseille","lat":43.335405,"lon":5.374705,"is_reserved":false,"is_disabled":false,"rental_uris":{"android":"levelo://app?vid=5cfdf108-64c2-4b38-8628-9d012576cd8b","ios":"levelo://app?vid=5cfdf108-64c2-4b38-8628-9d012576cd8b"},"vehicle_type_id":"4","last_reported":1766128448,"current_range_meters":16000,"station_id":"st_d46tts09ee8s73dlu43g","pricing_plan_id":"cebpf4jnsgd1na2vs0mg"},{"bike_id":"104427cb-6f2b-466d-8f9d-155b22611c5f","system_id":"levelo_inurba_marseille","lat":43.28622,"lon":5.39867,"is_reserved":false,"is_disabled":false,"rental_uris":{"android":"levelo://app?vid=104427cb-6f2b-466d-8f9d-155b22611c5f","ios":"levelo://app?vid=104427cb-6f2b-466d-8f9d-155b22611c5f"},"vehicle_type_id":"4","last_reported":1766128448,"current_range_meters":16000,"station_id":"st_d4a7ka997mjs738ck50g","pricing_plan_id":"cebpf4jnsgd1na2vs0mg"},{"bike_id":"20db6f20-0ae9-495e-a0cc-79a360658a2b","system_id":"levelo_inurba_marseille","lat":43.296261,"lon":5.381514,"is_reserved":false,"is_disabled":false,"rental_uris":{"android":"levelo://app?vid=20db6f20-0ae9-495e-a0cc-79a360658a2b","ios":"levelo://app?vid=20db6f20-0ae9-495e-a0cc-79a360658a2b"},"vehicle_type_id":"4","last_reported":1766128448,"current_range_meters":16000,"station_id":"ce4bgip2rcd13ifvqbb0","pricing_plan_id":"cebpf4jnsgd1na2vs0mg"},{"bike_id":"6c7cdeb8-b2c3-4427-b73a-735e42079b93","system_id":"levelo_inurba_marseille","lat":43.26496,"lon":5.39544,"is_reserved":false,"is_disabled":false,"rental_uris":{"android":"levelo://app?vid=6c7cdeb8-b2c3-4427-b73a-735e42079b93","ios":"levelo://app?vid=6c7cdeb8-b2c3-4427-b73a-735e42079b93"},"vehicle_type_id":"4","last_reported":1766128448,"current_range_meters":16000,"station_id":"ce4bhi12rcd13ifvqfq0","pricing_plan_id":"cebpf4jnsgd1na2vs0mg"},{"bike_id":"62f5c004-1e9f-4d5e-afaa-33b08a7310d9","system_id":"levelo_inurba_marseille","lat":43.273607,"lon":5.393175,"is_reserved":false,"is_disabled":false,"rental_uris":{"android":"levelo://app?vid=62f5c004-1e9f-4d5e-afaa-33b08a7310d9","ios":"levelo://app?vid=62f5c004-1e9f-4d5e-afaa-33b08a7310d9"},"vehicle_type_id":"4","last_reported":1766128448,"current_range_meters":16400,"station_id":"","pricing_plan_id":"cebpf4jnsgd1na2vs0mg"},{"bike_id":"fcd75001-1344-42ec-a013-2f4c6240ace8","system_id":"levelo_inurba_marseille","lat":43.297583,"lon":5.386556,"is_reserved":false,"is_disabled":false,"rental_uris":{"android":"levelo://app?vid=fcd75001-1344-42ec-a013-2f4c6240ace8","ios":"levelo://app?vid=fcd75001-1344-42ec-a013-2f4c6240ace8"},"vehicle_type_id":"4","last_reported":1766128448,"current_range_meters":16400,"station_id":"","pricing_plan_id":"cebpf4jnsgd1na2vs0mg"},{"bike_id":"78357b87-3ed5-450f-8700-bca354b7434f","system_id":"levelo_inurba_marseille","lat":43.29889,"lon":5.39757,"is_reserved":false,"is_disabled":false,"rental_uris":{"android":"levelo://app?vid=78357b87-3ed5-450f-8700-bca354b7434f","ios":"levelo://app?vid=78357b87-3ed5-450f-8700-bca354b7434f"},"vehicle_type_id":"4","last_reported":1766128448,"current_range_meters":16400,"station_id":"ce4bh0h2rcd13ifvqd50","pricing_plan_id":"cebpf4jnsgd1na2vs0mg"},{"bike_id":"99ad97c1-5a83-4b1c-9cf1-08492f7d7210","system_id":"levelo_inurba_marseille","lat":43.29249,"lon":5.409,"is_reserved":false,"is_disabled":false,"rental_uris":{"android":"levelo://app?vid=99ad97c1-5a83-4b1c-9cf1-08492f7d7210","ios":"levelo://app?vid=99ad97c1-5a83-4b1c-9cf1-08492f7d7210"},"vehicle_type_id":"4","last_reported":1766128448,"current_range_meters":16400,"station_id":"ce4bh192rcd13ifvqdc0","pricing_plan_id":"cebpf4jnsgd1na2vs0mg"},{"bike_id":"bcb638ec-1f7a-45bb-913f-62a7a0a453a1","system_id":"levelo_inurba_marseille","lat":43.29853,"lon":5.38564,"is_reserved":false,"is_disabled":false,"rental_uris":{"android":"levelo://app?vid=bcb638ec-1f7a-45bb-913f-62a7a0a453a1","ios":"levelo://app?vid=bcb638ec-1f7a-45bb-913f-62a7a0a453a1"},"vehicle_type_id":"4","last_reported":1766128448,"current_range_meters":16400,"station_id":"","pricing_plan_id":"cebpf4jnsgd1na2vs0mg"},{"bike_id":"cd8ea67b-02ff-44a2-9f1e-0f06c2acc51a","system_id":"levelo_inurba_marseille","lat":43.33129,"lon":5.37659,"is_reserved":false,"is_disabled":false,"rental_uris":{"android":"levelo://app?vid=cd8ea67b-02ff-44a2-9f1e-0f06c2acc51a","ios":"levelo://app?vid=cd8ea67b-02ff-44a2-9f1e-0f06c2acc51a"},"vehicle_type_id":"4","last_reported":1766128448,"current_range_meters":16400,"station_id":"st_d46cu089ee8s73dldbu0","pricing_plan_id":"cebpf4jnsgd1na2vs0mg"},{"bike_id":"5dc013a0-6d5f-425a-8554-3da4042bc007","system_id":"levelo_inurba_marseille","lat":43.22919,"lon":5.35401,"is_reserved":false,"is_disabled":false,"rental_uris":{"android":"levelo://app?vid=5dc013a0-6d5f-425a-8554-3da4042bc007","ios":"levelo://app?vid=5dc013a0-6d5f-425a-8554-3da4042bc007"},"vehicle_type_id":"4","last_reported":1766128448,"current_range_meters":16400,"station_id":"cpo3532slgdg3j2ikp40","pricing_plan_id":"cebpf4jnsgd1na2vs0mg"},{"bike_id":"0d9297ce-f2d0-4d3a-b34b-40c0d18a1dd9","system_id":"levelo_inurba_marseille","lat":43.22924,"lon":5.353779,"is_reserved":false,"is_disabled":true,"rental_uris":{"android":"levelo://app?vid=0d9297ce-f2d0-4d3a-b34b-40c0d18a1dd9","ios":"levelo://app?vid=0d9297ce-f2d0-4d3a-b34b-40c0d18a1dd9"},"vehicle_type_id":"4","last_reported":1766128448,"current_range_meters":16400,"station_id":"cpo3532slgdg3j2ikp40","pricing_plan_id":"cebpf4jnsgd1na2vs0mg"},{"bike_id":"0d303fc7-606f-4943-9629-57c31a744736","system_id":"levelo_inurba_marseille","lat":43.285337,"lon":5.440971,"is_reserved":false,"is_disabled":false,"rental_uris":{"android":"levelo://app?vid=0d303fc7-606f-4943-9629-57c31a744736","ios":"levelo://app?vid=0d303fc7-606f-4943-9629-57c31a744736"},