{"last_updated":1734631966,"ttl":60,"version":"2.2","data":{"bikes":[{"bike_id":"74dc27b5-e2a4-4b1e-9dc3-5894ac4bda0a","system_id":"levelo_inurba_marseille","lat":43.29795,"lon":5.37286,"is_reserved":false,"is_disabled":true,"rental_uris":{"android":"levelo://app?vid=74dc27b5-e2a4-4b1e-9dc3-5894ac4bda0a","ios":"levelo://app?vid=74dc27b5-e2a4-4b1e-9dc3-5894ac4bda0a"},"vehicle_type_id":"4","last_reported":1734631966,"current_range_meters":400,"station_id":"","pricing_plan_id":"cebpf4jnsgd1na2vs0mg"},{"bike_id":"eb156c91-5c91-4664-a66b-8fb17c1b7811","system_id":"levelo_inurba_marseille","lat":43.28444,"lon":5.39189,"is_reserved":false,"is_disabled":true,"rental_uris":{"android":"levelo://app?vid=eb156c91-5c91-4664-a66b-8fb17c1b7811","ios":"levelo://app?vid=eb156c91-5c91-4664-a66b-8fb17c1b7811"},"vehicle_type_id":"4","last_reported":1734631966,"current_range_meters":0,"station_id":"ce4bhoh2rcd13ifvqh5g","pricing_plan_id":"cebpf4jnsgd1na2vs0mg"},{"bike_id":"bfeef66b-9c5c-40e6-bfc6-f080bb8984d3","system_id":"levelo_inurba_marseille","lat":43.29065,"lon":5.37149,"is_reserved":false,"is_disabled":true,"rental_uris":{"android":"levelo://app?vid=bfeef66b-9c5c-40e6-bfc6-f080bb8984d3","ios":"levelo://app?vid=bfeef66b-9c5c-40e6-bfc6-f080bb8984d3"},"vehicle_type_id":"4","last_reported":1734631966,"current_range_meters":0,"station_id":"ce4bh5p2rcd13ifvqe4g","pricing_plan_id":"cebpf4jnsgd1na2vs0mg"},{"bike_id":"26820210-ecc1-45e6-ba91-b125210aa70f","system_id":"levelo_inurba_marseille","lat":43.32365,"lon":5.38879,"is_reserved":false,"is_disabled":false,"rental_uris":{"android":"levelo://app?vid=26820210-ecc1-45e6-ba91-b125210aa70f","ios":"levelo://app?vid=26820210-ecc1-45e6-ba91-b125210aa70f"},"vehicle_type_id":"4","last_reported":1734631966,"current_range_meters":38000,"station_id":"ce4bhqp2rcd13ifvqhog","pricing_plan_id":"cebpf4jnsgd1na2vs0mg"},{"bike_id":"0b3c962c-40d1-4375-b60d-644d72aaacf1","system_id":"levelo_inurba_marseille","lat":43.28012,"lon":5.40403,"is_reserved":false,"is_disabled":true,"rental_uris":{"android":"levelo://app?vid=0b3c962c-40d1-4375-b60d-644d72aaacf1","ios":"levelo://app?vid=0b3c962c-40d1-4375-b60d-644d72aaacf1"},"vehicle_type_id":"4","last_reported":1734631966,"current_range_meters":0,"station_id":"","pricing_plan_id":"cebpf4jnsgd1na2vs0mg"},{"bike_id":"67ab154a-5ebb-400b-8fe1-02ec2579bea3","system_id":"levelo_inurba_marseille","lat":43.31268,"lon":5.40169,"is_reserved":false,"is_disabled":true,"rental_uris":{"android":"levelo://app?vid=67ab154a-5ebb-400b-8fe1-02ec2579bea3","ios":"levelo://app?vid=67ab154a-5ebb-400b-8fe1-02ec2579bea3"},"vehicle_type_id":"4","last_reported":1734631966,"current_range_meters":0,"station_id":"ce4bh092rcd13ifvqd30","pricing_plan_id":"cebpf4jnsgd1na2vs0mg"},{"bike_id":"b3ca4fe4-550c-42a3-b98d-0ca615b243f9","system_id":"levelo_inurba_marseille","lat":43.28726,"lon":5.36083,"is_reserved":false,"is_disabled":false,"rental_uris":{"android":"levelo://app?vid=b3ca4fe4-550c-42a3-b98d-0ca615b243f9","ios":"levelo://app?vid=b3ca4fe4-550c-42a3-b98d-0ca615b243f9"},"vehicle_type_id":"4","last_reported":1734631966,"current_range_meters":22400,"station_id":"cki0cbj6b192h4jlfktg","pricing_plan_id":"cebpf4jnsgd1na2vs0mg"},{"bike_id":"cb4d9404-aa08-4d1c-b2eb-d111c15a049f","system_id":"levelo_inurba_marseille","lat":43.29789,"lon":5.39335,"is_reserved":false,"is_disabled":false,"rental_uris":{"android":"levelo://app?vid=cb4d9404-aa08-4d1c-b2eb-d111c15a049f","ios":"levelo://app?vid=cb4d9404-aa08-4d1c-b2eb-d111c15a049f"},"vehicle_type_id":"4","last_reported":1734631966,"current_range_meters":30000,"station_id":"chh1huq6cuj3fo74tm60","pricing_plan_id":"cebpf4jnsgd1na2vs0mg"},{"bike_id":"85a30fa7-3f3a-4077-8cbd-21bd4ef94402","system_id":"levelo_inurba_marseille","lat":43.28103,"lon":5.37836,"is_reserved":false,"is_disabled":false,"rental_uris":{"android":"levelo://app?vid=85a30fa7-3f3a-4077-8cbd-21bd4ef94402","ios":"levelo://app?vid=85a30fa7-3f3a-4077-8cbd-21bd4ef94402"},"vehicle_type_id":"4","last_reported":1734631966,"current_range_meters":9600,"station_id":"ce4bha12rcd13ifvqee0","pricing_plan_id":"cebpf4jnsgd1na2vs0mg"},{"bike_id":"782a03aa-bba2-4f0e-bcd4-7788bf7311dd","system_id":"levelo_inurba_marseille","lat":43.30208,"lon":5.3946,"is_reserved":false,"is_disabled":false,"rental_uris":{"android":"levelo://app?vid=782a03aa-bba2-4f0e-bcd4-7788bf7311dd","ios":"levelo://app?vid=782a03aa-bba2-4f0e-bcd4-7788bf7311dd"},"vehicle_type_id":"4","last_reported":1734631966,"current_range_meters":9200,"station_id":"ce4bh0p2rcd13ifvqd70","pricing_plan_id":"cebpf4jnsgd1na2vs0mg"},{"bike_id":"71f5eaf4-b4f1-4fb8-9144-1ec41f037546","system_id":"levelo_inurba_marseille","lat":43.25081,"lon":5.39505,"is_reserved":false,"is_disabled":false,"rental_uris":{"android":"levelo://app?vid=71f5eaf4-b4f1-4fb8-9144-1ec41f037546","ios":"levelo://app?vid=71f5eaf4-b4f1-4fb8-9144-1ec41f037546"},"vehicle_type_id":"4","last_reported":1734631966,"current_range_meters":38800,"station_id":"ce4bhm12rcd13ifvqgkg","pricing_plan_id":"cebpf4jnsgd1na2vs0mg"},{"bike_id":"02bf8158-426b-4335-9b97-c473816a1fd2","system_id":"levelo_inurba_marseille","lat":43.25823,"lon":5.39432,"is_reserved":false,"is_disabled":false,"rental_uris":{"android":"levelo://app?vid=02bf8158-426b-4335-9b97-c473816a1fd2","ios":"levelo://app?vid=02bf8158-426b-4335-9b97-c473816a1fd2"},"vehicle_type_id":"4","last_reported":1734631966,"current_range_meters":38800,"station_id":"ce4bhip2rcd13ifvqft0","pricing_plan_id":"cebpf4jnsgd1na2vs0mg"},{"bike_id":"53c5dd90-208e-4b14-9aec-3133385e99e3","system_id":"levelo_inurba_marseille","lat":43.29563,"lon":5.4228,"is_reserved":false,"is_disabled":false,"rental_uris":{"android":"levelo://app?vid=53c5dd90-208e-4b14-9aec-3133385e99e3","ios":"levelo://app?vid=53c5dd90-208e-4b14-9aec-3133385e99e3"},"vehicle_type_id":"4","last_reported":1734631966,"current_range_meters":38800,"station_id":"ce4bhph2rcd13ifvqhdg","pricing_plan_id":"cebpf4jnsgd1na2vs0mg"},{"bike_id":"b8ab8a40-a2b4-425d-a9ba-0fdbe3a77b74","system_id":"levelo_inurba_marseille","lat":43.31848,"lon":5.37481,"is_reserved":false,"is_disabled":false,"rental_uris":{"android":"levelo://app?vid=b8ab8a40-a2b4-425d-a9ba-0fdbe3a77b74","ios":"levelo://app?vid=b8ab8a40-a2b4-425d-a9ba-0fdbe3a77b74"},"vehicle_type_id":"4","last_reported":1734631966,"current_range_meters":26800,"station_id":"","pricing_plan_id":"cebpf4jnsgd1na2vs0mg"},{"bike_id":"41d4d63c-1601-40b8-9c24-4e8eca1ea969","system_id":"levelo_inurba_marseille","lat":43.31712,"lon":5.3779,"is_reserved":false,"is_disabled":false,"rental_uris":{"android":"levelo://app?vid=41d4d63c-1601-40b8-9c24-4e8eca1ea969","ios":"levelo://app?vid=41d4d63c-1601-40b8-9c24-4e8eca1ea969"},"vehicle_type_id":"4","last_reported":1734631966,"current_range_meters":38800,"station_id":"ce4bgth2rcd13ifvqch0","pricing_plan_id":"cebpf4jnsgd1na2vs0mg"},{"bike_id":"182203d6-fe54-44be-81e6-c86c66416f6d","system_id":"levelo_inurba_marseille","lat":43.28415,"lon":5.37511,"is_reserved":false,"is_disabled":true,"rental_uris":{"android":"levelo://app?vid=182203d6-fe54-44be-81e6-c86c66416f6d","ios":"levelo://app?vid=182203d6-fe54-44be-81e6-c86c66416f6d"},"vehicle_type_id":"4","last_reported":1734631966,"current_range_meters":0,"station_id":"ce4bh412rcd13ifvqds0","pricing_plan_id":"cebpf4jnsgd1na2vs0mg"},{"bike_id":"d957f81a-1f9a-4f7d-b684-f191a7c27c65","system_id":"levelo_inurba_marseille","lat":43.29279,"lon":5.37443,"is_reserved":false,"is_disabled":true,"rental_uris":{"android":"levelo://app?vid=d957f81a-1f9a-4f7d-b684-f191a7c27c65","ios":"levelo://app?vid=d957f81a-1f9a-4f7d-b684-f191a7c27c65"},"vehicle_type_id":"4","last_reported":1734631966,"current_range_meters":1200,"station_id":"ce4bgi12rcd13ifvqb70","pricing_plan_id":"cebpf4jnsgd1na2vs0mg"},{"bike_id":"85f27a5d-9af7-4b09-a20c-f802a8f11d6d","system_id":"levelo_inurba_marseille","lat":43.32662,"lon":5.40986,"is_reserved":false,"is_disabled":false,"rental_uris":{"android":"levelo://app?vid=85f27a5d-9af7-4b09-a20c-f802a8f11d6d","ios":"levelo://app?vid=85f27a5d-9af7-4b09-a20c-f802a8f11d6d"},"vehicle_type_id":"4","last_reported":1734631966,"current_range_meters":16800,"station_id":"ce4bhpp2rcd13ifvqhgg","pricing_plan_id":"cebpf4jnsgd1na2vs0mg"},{"bike_id":"d34bdf4f-71bc-4ae4-b273-f3852ddc692a","system_id":"levelo_inurba_marseille","lat":43.33756,"lon":5.37472,"is_reserved":false,"is_disabled":false,"rental_uris":{"android":"levelo://app?vid=d34bdf4f-71bc-4ae4-b273-f3852ddc692a","ios":"levelo://app?vid=d34bdf4f-71bc-4ae4-b273-f3852ddc692a"},"vehicle_type_id":"4","last_reported":1734631966,"current_range_meters":36400,"station_id":"","pricing_plan_id":"cebpf4jnsgd1na2vs0mg"},{"bike_id":"f64d73d0-f96c-4455-a454-0974d8a22425","system_id":"levelo_inurba_marseille","lat":43.30669,"lon":5.36833,"is_reserved":false,"is_disabled":true,"rental_uris":{"android":"levelo://app?vid=f64d73d0-f96c-4455-a454-0974d8a22425","ios":"levelo://app?vid=f64d73d0-f96c-4455-a454-0974d8a22425"},"vehicle_type_id":"4","last_reported":1734631966,"current_range_meters":0,"station_id":"","pricing_plan_id":"cebpf4jnsgd1na2vs0mg"},{"bike_id":"e6f4f512-c3a0-4cb0-a4e2-19fd45dd5ea0","system_id":"levelo_inurba_marseille","lat":43.30635,"lon":5.40092,"is_reserved":false,"is_disabled":false,"rental_uris":{"android":"levelo://app?vid=e6f4f512-c3a0-4cb0-a4e2-19fd45dd5ea0","ios":"levelo://app?vid=e6f4f512-c3a0-4cb0-a4e2-19fd45dd5ea0"},"vehicle_type_id":"4","last_reported":1734631966,"current_range_meters":19200,"station_id":"ce4bh112rcd13ifvqda0","pricing_plan_id":"cebpf4jnsgd1na2vs0mg"},{"bike_id":"2405f6fb-a5d5-46a9-8a55-13511a5f7d44","system_id":"levelo_inurba_marseille","lat":43.27813,"lon":5.40712,"is_reserved":false,"is_disabled":false,"rental_uris":{"android":"levelo://app?vid=2405f6fb-a5d5-46a9-8a55-13511a5f7d44","ios":"levelo://app?vid=2405f6fb-a5d5-46a9-8a55-13511a5f7d44"},"vehicle_type_id":"4","last_reported":1734631966,"current_range_meters":8400,"station_id":"ce4bhnh2rcd13ifvqgtg","pricing_plan_id":"cebpf4jnsgd1na2vs0mg"},{"bike_id":"c7a472ed-6dc3-4cde-83b8-4deb8af0b49b","system_id":"levelo_inurba_marseille","lat":43.24386,"lon":5.37056,"is_reserved":false,"is_disabled":false,"rental_uris":{"android":"levelo://app?vid=c7a472ed-6dc3-4cde-83b8-4deb8af0b49b","ios":"levelo://app?vid=c7a472ed-6dc3-4cde-83b8-4deb8af0b49b"},"vehicle_type_id":"4","last_reported":1734631966,"current_range_meters":24000,"station_id":"ce4bhhh2rcd13ifvqfk0","pricing_plan_id":"cebpf4jnsgd1na2vs0mg"},{"bike_id":"81563e3c-f2e0-4100-87ee-0bdd7cbc96f2","system_id":"levelo_inurba_marseille","lat":43.32326,"lon":5.40619,"is_reserved":false,"is_disabled":false,"rental_uris":{"android":"levelo://app?vid=81563e3c-f2e0-4100-87ee-0bdd7cbc96f2","ios":"levelo://app?vid=81563e3c-f2e0-4100-87ee-0bdd7cbc96f2"},"vehicle_type_id":"4","last_reported":1734631966,"current_range_meters":39200,"station_id":"ce4bhq92rcd13ifvqhjg","pricing_plan_id":"cebpf4jnsgd1na2vs0mg"},{"bike_id":"b042baac-48e3-41d4-beca-2c2cc4a183f1","system_id":"levelo_inurba_marseille","lat":43.23188,"lon":5.3556,"is_reserved":false,"is_disabled":false,"rental_uris":{"android":"levelo://app?vid=b042baac-48e3-41d4-beca-2c2cc4a183f1","ios":"levelo://app?vid=b042baac-48e3-41d4-beca-2c2cc4a183f1"},"vehicle_type_id":"4","last_reported":1734631966,"current_range_meters":38800,"station_id":"ce4bhu92rcd13ifvqi70","pricing_plan_id":"cebpf4jnsgd1na2vs0mg"},{"bike_id":"b0a13592-7cce-4d9c-b407-7810a71613ab","system_id":"levelo_inurba_marseille","lat":43.28727,"lon":5.36079,"is_reserved":false,"is_disabled":false,"rental_uris":{"android":"levelo://app?vid=b0a13592-7cce-4d9c-b407-7810a71613ab","ios":"levelo://app?vid=b0a13592-7cce-4d9c-b407-7810a71613ab"},"vehicle_type_id":"4","last_reported":1734631966,"current_range_meters":38800,"station_id":"cki0cbj6b192h4jlfktg","pricing_plan_id":"cebpf4jnsgd1na2vs0mg"},{"bike_id":"3758c33a-0752-49cb-ba38-c27d1ad63544","system_id":"levelo_inurba_marseille","lat":43.29305,"lon":5.3717,"is_reserved":false,"is_disabled":false,"rental_uris":{"android":"levelo://app?vid=3758c33a-0752-49cb-ba38-c27d1ad63544","ios":"levelo://app?vid=3758c33a-0752-49cb-ba38-c27d1ad63544"},"vehicle_type_id":"4","last_reported":1734631966,"current_range_meters":10000,"station_id":"ce4bgh92rcd13ifvqb40","pricing_plan_id":"cebpf4jnsgd1na2vs0mg"},{"bike_id":"e53b6013-9de8-4c75-a245-0f8148904c08","system_id":"levelo_inurba_marseille","lat":43.26195,"lon":5.37923,"is_reserved":false,"is_disabled":false,"rental_uris":{"android":"levelo://app?vid=e53b6013-9de8-4c75-a245-0f8148904c08","ios":"levelo://app?vid=e53b6013-9de8-4c75-a245-0f8148904c08"},"vehicle_type_id":"4","last_reported":1734631966,"current_range_meters":30400,"station_id":"ce4bhjp2rcd13ifvqg90","pricing_plan_id":"cebpf4jnsgd1na2vs0mg"},{"bike_id":"8c4ecedf-c52e-488a-b2f9-f8570f79cdde","system_id":"levelo_inurba_marseille","lat":43.28077,"lon":5.39633,"is_reserved":false,"is_disabled":false,"rental_uris":{"android":"levelo://app?vid=8c4ecedf-c52e-488a-b2f9-f8570f79cdde","ios":"levelo://app?vid=8c4ecedf-c52e-488a-b2f9-f8570f79cdde"},"vehicle_type_id":"4","last_reported":1734631966,"current_range_meters":24800,"station_id":"ce4bho12rcd13ifvqh2g","pricing_plan_id":"cebpf4jnsgd1na2vs0mg"},{"bike_id":"ce38a0fb-25e0-4ec8-af62-4ec3b612b71f","system_id":"levelo_inurba_marseille","lat":43.275703,"lon":5.384312,"is_reserved":false,"is_disabled":false,"rental_uris":{"android":"levelo://app?vid=ce38a0fb-25e0-4ec8-af62-4ec3b612b71f","ios":"levelo://app?vid=ce38a0fb-25e0-4ec8-af62-4ec3b612b71f"},"vehicle_type_id":"4","last_reported":1734631966,"current_range_meters":29600,"station_id":"ce4bhh92rcd13ifvqfi0","pricing_plan_id":"cebpf4jnsgd1na2vs0mg"},{"bike_id":"23e4904d-90a6-480d-960d-265280934d0f","system_id":"levelo_inurba_marseille","lat":43.30187,"lon":5.36605,"is_reserved":false,"is_disabled":false,"rental_uris":{"android":"levelo://app?vid=23e4904d-90a6-480d-960d-265280934d0f","ios":"levelo://app?vid=23e4904d-90a6-480d-960d-265280934d0f"},"vehicle_type_id":"4","last_reported":1734631966,"current_range_meters":13600,"station_id":"ce4bgrh2rcd13ifvqc8g","pricing_plan_id":"cebpf4jnsgd1na2vs0mg"},{"bike_id":"a3fb0837-9063-4948-91b6-8a9baa324f46","system_id":"levelo_inurba_marseille","lat":43.27839,"lon":5.39216,"is_reserved":false,"is_disabled":false,"rental_uris":{"android":"levelo://app?vid=a3fb0837-9063-4948-91b6-8a9baa324f46","ios":"levelo://app?vid=a3fb0837-9063-4948-91b6-8a9baa324f46"},"vehicle_type_id":"4","last_reported":1734631966,"current_range_meters":16800,"station_id":"ce4bhjp2rcd13ifvqga0","pricing_plan_id":"cebpf4jnsgd1na2vs0mg"},{"bike_id":"45eef7a2-7813-485d-b132-f34196de9793","system_id":"levelo_inurba_marseille","lat":43.28727,"lon":5.36086,"is_reserved":false,"is_disabled":false,"rental_uris":{"android":"levelo://app?vid=45eef7a2-7813-485d-b132-f34196de9793","ios":"levelo://app?vid=45eef7a2-7813-485d-b132-f34196de9793"},"vehicle_type_id":"4","last_reported":1734631966,"current_range_meters":24400,"station_id":"cki0cbj6b192h4jlfktg","pricing_plan_id":"cebpf4jnsgd1na2vs0mg"},{"bike_id":"7d8b4789-db38-4881-a12e-8303c1c118b0","system_id":"levelo_inurba_marseille","lat":43.30318,"lon":5.36668,"is_reserved":false,"is_disabled":false,"rental_uris":{"android":"levelo://app?vid=7d8b4789-db38-4881-a12e-8303c1c118b0","ios":"levelo://app?vid=7d8b4789-db38-4881-a12e-8303c1c118b0"},"vehicle_type_id":"4","last_reported":1734631966,"current_range_meters":30400,"station_id":"","pricing_plan_id":"cebpf4jnsgd1na2vs0mg"},{"bike_id":"abc7d3f9-3610-4846-abac-ecef98d30d10","system_id":"levelo_inurba_marseille","lat":43.29531,"lon":5.3853,"is_reserved":false,"is_disabled":false,"rental_uris":{"android":"levelo://app?vid=abc7d3f9-3610-4846-abac-ecef98d30d10","ios":"levelo://app?vid=abc7d3f9-3610-4846-abac-ecef98d30d10"},"vehicle_type_id":"4","last_reported":1734631966,"current_range_meters":18800,"station_id":"ce4bgih2rcd13ifvqba0","pricing_plan_id":"cebpf4jnsgd1na2vs0mg"},{"bike_id":"0cbdc7df-3ad3-411e-801f-efd40f79c8c9","system_id":"levelo_inurba_marseille","lat":43.28,"lon":5.40006,"is_reserved":false,"is_disabled":false,"rental_uris":{"android":"levelo://app?vid=0cbdc7df-3ad3-411e-801f-efd40f79c8c9","ios":"levelo://app?vid=0cbdc7df-3ad3-411e-801f-efd40f79c8c9"},"vehicle_type_id":"4","last_reported":1734631966,"current_range_meters":8000,"station_id":"ce4bho92rcd13ifvqh4g","pricing_plan_id":"cebpf4jnsgd1na2vs0mg"},{"bike_id":"379b7f0d-2d60-4b9d-a65b-7098986849ae","system_id":"levelo_inurba_marseille","lat":43.31189,"lon":5.38711,"is_reserved":false,"is_disabled":false,"rental_uris":{"android":"levelo://app?vid=379b7f0d-2d60-4b9d-a65b-7098986849ae","ios":"levelo://app?vid=379b7f0d-2d60-4b9d-a65b-7098986849ae"},"vehicle_type_id":"4","last_reported":1734631966,"current_range_meters":24400,"station_id":"ce4bgv12rcd13ifvqcp0","pricing_plan_id":"cebpf4jnsgd1na2vs0mg"},{"bike_id":"ef2e42d7-adfb-4e08-8992-94a17c47e449","system_id":"levelo_inurba_marseille","lat":43.26201,"lon":5.3793,"is_reserved":false,"is_disabled":false,"rental_uris":{"android":"levelo://app?vid=ef2e42d7-adfb-4e08-8992-94a17c47e449","ios":"levelo://app?vid=ef2e42d7-adfb-4e08-8992-94a17c47e449"},"vehicle_type_id":"4","last_reported":1734631966,"current_range_meters":22000,"station_id":"ce4bhjp2rcd13ifvqg90","pricing_plan_id":"cebpf4jnsgd1na2vs0mg"},{"bike_id":"e3abb7e0-9fa8-46b1-a69d-69b2f3b7f2a3","system_id":"levelo_inurba_marseille","lat":43.28101,"lon":5.37842,"is_reserved":false,"is_disabled":false,"rental_uris":{"android":"levelo://app?vid=e3abb7e0-9fa8-46b1-a69d-69b2f3b7f2a3","ios":"levelo://app?vid=e3abb7e0-9fa8-46b1-a69d-69b2f3b7f2a3"},"vehicle_type_id":"4","last_reported":1734631966,"current_range_meters":16000,"station_id":"ce4bha12rcd13ifvqee0","pricing_plan_id":"cebpf4jnsgd1na2vs0mg"},{"bike_id":"6035dc28-1c55-41cb-96ea-be9f8f5d9505","system_id":"levelo_inurba_marseille","lat":43.29194,"lon":5.39333,"is_reserved":false,"is_disabled":false,"rental_uris":{"android":"levelo://app?vid=6035dc28-1c55-41cb-96ea-be9f8f5d9505","ios":"levelo://app?vid=6035dc28-1c55-41cb-96ea-be9f8f5d9505"},"vehicle_type_id":"4","last_reported":1734631966,"current_range_meters":33600,"station_id":"ce4bh192rcd13ifvqdd0","pricing_plan_id":"cebpf4jnsgd1na2vs0mg"},{"bike_id":"63cff5eb-1415-48a9-b127-707db35946f5","system_id":"levelo_inurba_marseille","lat":43.27833,"lon":5.39198,"is_reserved":false,"is_disabled":true,"rental_uris":{"android":"levelo://app?vid=63cff5eb-1415-48a9-b127-707db35946f5","ios":"levelo://app?vid=63cff5eb-1415-48a9-b127-707db35946f5"},"vehicle_type_id":"4","last_reported":1734631966,"current_range_meters":0,"station_id":"ce4bhjp2rcd13ifvqga0","pricing_plan_id":"cebpf4jnsgd1na2vs0mg"},{"bike_id":"6391f2eb-4ee6-4f58-b20e-f8f268180550","system_id":"levelo_inurba_marseille","lat":43.31087,"lon":5.42429,"is_reserved":false,"is_disabled":false,"rental_uris":{"android":"levelo://app?vid=6391f2eb-4ee6-4f58-b20e-f8f268180550","ios":"levelo://app?vid=6391f2eb-4ee6-4f58-b20e-f8f268180550"},"vehicle_type_id":"4","last_reported":1734631966,"current_range_meters":32800,"station_id":"ce4bhp92rcd13ifvqhag","pricing_plan_id":"cebpf4jnsgd1na2vs0mg"},{"bike_id":"ffda3fca-b6ff-4e46-a1b0-89acd0c28db2","system_id":"levelo_inurba_marseille","lat":43.2942,"lon":5.38626,"is_reserved":false,"is_disabled":true,"rental_uris":{"android":"levelo://app?vid=ffda3fca-b6ff-4e46-a1b0-89acd0c28db2","ios":"levelo://app?vid=ffda3fca-b6ff-4e46-a1b0-89acd0c28db2"},"vehicle_type_id":"4","last_reported":1734631966,"current_range_meters":1200,"station_id":"ce4bh2h2rcd13ifvqdh0","pricing_plan_id":"cebpf4jnsgd1na2vs0mg"},{"bike_id":"c5d3dda4-9397-4823-9c8b-ea8eda2ab949","system_id":"levelo_inurba_marseille","lat":43.23964,"lon":5.36637,"is_reserved":false,"is_disabled":false,"rental_uris":{"android":"levelo://app?vid=c5d3dda4-9397-4823-9c8b-ea8eda2ab949","ios":"levelo://app?vid=c5d3dda4-9397-4823-9c8b-ea8eda2ab949"},"vehicle_type_id":"4","last_reported":1734631966,"current_range_meters":38000,"station_id":"ce4bhi12rcd13ifvqfp0","pricing_plan_id":"cebpf4jnsgd1na2vs0mg"},{"bike_id":"7fd59132-6ad1-4566-9810-9e39032f69c5","system_id":"levelo_inurba_marseille","lat":43.291969,"lon":5.393229,"is_reserved":false,"is_disabled":false,"rental_uris":{"android":"levelo://app?vid=7fd59132-6ad1-4566-9810-9e39032f69c5","ios":"levelo://app?vid=7fd59132-6ad1-4566-9810-9e39032f69c5"},"vehicle_type_id":"4","last_reported":1734631966,"current_range_meters":38800,"station_id":"ce4bh192rcd13ifvqdd0","pricing_plan_id":"cebpf4jnsgd1na2vs0mg"},{"bike_id":"1ed2500c-6d93-4829-99f6-330416fef6bc","system_id":"levelo_inurba_marseille","lat":43.30638,"lon":5.40074,"is_reserved":false,"is_disabled":false,"rental_uris":{"android":"levelo://app?vid=1ed2500c-6d93-4829-99f6-330416fef6bc","ios":"levelo://app?vid=1ed2500c-6d93-4829-99f6-330416fef6bc"},"vehicle_type_id":"4","last_reported":1734631966,"current_range_meters":16800,"station_id":"ce4bh112rcd13ifvqda0","pricing_plan_id":"cebpf4jnsgd1na2vs0mg"},{"bike_id":"7094a23c-c35f-45f7-8004-7f866e8eae59","system_id":"levelo_inurba_marseille","lat":43.28174,"lon":5.42621,"is_reserved":false,"is_disabled":true,"rental_uris":{"android":"levelo://app?vid=7094a23c-c35f-45f7-8004-7f866e8eae59","ios":"levelo://app?vid=7094a23c-c35f-45f7-8004-7f866e8eae59"},"vehicle_type_id":"4","last_reported":1734631966,"current_range_meters":800,"station_id":"ce4bhnh2rcd13ifvqgug","pricing_plan_id":"cebpf4jnsgd1na2vs0mg"},{"bike_id":"b11dec3c-37ae-4e5f-a182-7db8571c22d2","system_id":"levelo_inurba_marseille","lat":43.29892,"lon":5.43657,"is_reserved":false,"is_disabled":false,"rental_uris":{"android":"levelo://app?vid=b11dec3c-37ae-4e5f-a182-7db8571c22d2","ios":"levelo://app?vid=b11dec3c-37ae-4e5f-a182-7db8571c22d2"},"vehicle_type_id":"4","last_reported":1734631966,"current_range_meters":36000,"station_id":"ce4bhpp2rcd13ifvqhfg","pricing_plan_id":"cebpf4jnsgd1na2vs0mg"},{"bike_id":"72492ff3-d3e5-4b81-822b-1d3357339451","system_id":"levelo_inurba_marseille","lat":43.290788,"lon":5.399104,"is_reserved":false,"is_disabled":true,"rental_uris":{"android":"levelo://app?vid=72492ff3-d3e5-4b81-822b-1d3357339451","ios":"levelo://app?vid=72492ff3-d3e5-4b81-822b-1d3357339451"},"vehicle_type_id":"4","last_reported":1734631966,"current_range_meters":35200,"station_id":"","pricing_plan_id":"cebpf4jnsgd1na2vs0mg"},{"bike_id":"9d63dce6-02f5-4025-85d6-658c25346b7b","system_id":"levelo_inurba_marseille","lat":43.23183,"lon":5.39988,"is_reserved":false,"is_disabled":false,"rental_uris":{"android":"levelo://app?vid=9d63dce6-02f5-4025-85d6-658c25346b7b","ios":"levelo://app?vid=9d63dce6-02f5-4025-85d6-658c25346b7b"},"vehicle_type_id":"4","last_reported":1734631966,"current_range_meters":16800,"station_id":"ce4bhn12rcd13ifvqgqg","pricing_plan_id":"cebpf4jnsgd1na2vs0mg"},{"bike_id":"7481c62a-d008-4fa5-95e4-2ee0805601e9","system_id":"levelo_inurba_marseille","lat":43.30946,"lon":5.39031,"is_reserved":false,"is_disabled":false,"rental_uris":{"android":"levelo://app?vid=7481c62a-d008-4fa5-95e4-2ee0805601e9","ios":"levelo://app?vid=7481c62a-d008-4fa5-95e4-2ee0805601e9"},"vehicle_type_id":"4","last_reported":1734631966,"current_range_meters":22800,"station_id":"ce4bgup2rcd13ifvqco0","pricing_plan_id":"cebpf4jnsgd1na2vs0mg"},{"bike_id":"c6eac602-9754-4e9d-8972-87c49c925ed4","system_id":"levelo_inurba_marseille","lat":43.27802,"lon":5.40704,"is_reserved":false,"is_disabled":true,"rental_uris":{"android":"levelo://app?vid=c6eac602-9754-4e9d-8972-87c49c925ed4","ios":"levelo://app?vid=c6eac602-9754-4e9d-8972-87c49c925ed4"},"vehicle_type_id":"4","last_reported":1734631966,"current_range_meters":800,"station_id":"ce4bhnh2rcd13ifvqgtg","pricing_plan_id":"cebpf4jnsgd1na2vs0mg"},{"bike_id":"b9ff7013-b9bd-4048-ae9a-ae4943aa6566","system_id":"levelo_inurba_marseille","lat":43.33021,"lon":5.39039,"is_reserved":false,"is_disabled":false,"rental_uris":{"android":"levelo://app?vid=b9ff7013-b9bd-4048-ae9a-ae4943aa6566","ios":"levelo://app?vid=b9ff7013-b9bd-4048-ae9a-ae4943aa6566"},"vehicle_type_id":"4","last_reported":1734631966,"current_range_meters":27200,"station_id":"ce4bhr92rcd13ifvqhrg","pricing_plan_id":"cebpf4jnsgd1na2vs0mg"},{"bike_id":"d4e63b1c-720e-4e2b-b539-957dce492444","system_id":"levelo_inurba_marseille","lat":43.28353,"lon":5.38109,"is_reserved":false,"is_disabled":false,"rental_uris":{"android":"levelo://app?vid=d4e63b1c-720e-4e2b-b539-957dce492444","ios":"levelo://app?vid=d4e63b1c-720e-4e2b-b539-957dce492444"},"vehicle_type_id":"4","last_reported":1734631966,"current_range_meters":28800,"station_id":"ce4bh412rcd13ifvqdr0","pricing_plan_id":"cebpf4jnsgd1na2vs0mg"},{"bike_id":"a03209af-7a58-4dd1-95a0-3214217dbe7b","system_id":"levelo_inurba_marseille","lat":43.30213,"lon":5.39472,"is_reserved":false,"is_disabled":false,"rental_uris":{"android":"levelo://app?vid=a03209af-7a58-4dd1-95a0-3214217dbe7b","ios":"levelo://app?vid=a03209af-7a58-4dd1-95a0-3214217dbe7b"},"vehicle_type_id":"4","last_reported":1734631966,"current_range_meters":20000,"station_id":"ce4bh0p2rcd13ifvqd70","pricing_plan_id":"cebpf4jnsgd1na2vs0mg"},{"bike_id":"c7e490b6-7b86-4df5-b028-b62a723b580a","system_id":"levelo_inurba_marseille","lat":43.26689,"lon":5.38269,"is_reserved":false,"is_disabled":false,"rental_uris":{"android":"levelo://app?vid=c7e490b6-7b86-4df5-b028-b62a723b580a","ios":"levelo://app?vid=c7e490b6-7b86-4df5-b028-b62a723b580a"},"vehicle_type_id":"4","last_reported":1734631966,"current_range_meters":35200,"station_id":"ce4bhg92rcd13ifvqf90","pricing_plan_id":"cebpf4jnsgd1na2vs0mg"},{"bike_id":"370b1eb6-4f45-4760-84c5-106172693f5d","system_id":"levelo_inurba_marseille","lat":43.23961,"lon":5.36627,"is_reserved":false,"is_disabled":false,"rental_uris":{"android":"levelo://app?vid=370b1eb6-4f45-4760-84c5-106172693f5d","ios":"levelo://app?vid=370b1eb6-4f45-4760-84c5-106172693f5d"},"vehicle_type_id":"4","last_reported":1734631966,"current_range_meters":27200,"station_id":"ce4bhi12rcd13ifvqfp0","pricing_plan_id":"cebpf4jnsgd1na2vs0mg"},{"bike_id":"68ad024e-9a2d-4877-8ce5-f9aa96edbd25","system_id":"levelo_inurba_marseille","lat":43.31818,"lon":5.37428,"is_reserved":false,"is_disabled":false,"rental_uris":{"android":"levelo://app?vid=68ad024e-9a2d-4877-8ce5-f9aa96edbd25","ios":"levelo://app?vid=68ad024e-9a2d-4877-8ce5-f9aa96edbd25"},"vehicle_type_id":"4","last_reported":1734631966,"current_range_meters":22400,"station_id":"","pricing_plan_id":"cebpf4jnsgd1na2vs0mg"},{"bike_id":"782bcbf2-b7de-4b04-bebc-aaa0329dd90c","system_id":"levelo_inurba_marseille","lat":43.23206,"lon":5.355547,"is_reserved":false,"is_disabled":false,"rental_uris":{"android":"levelo://app?vid=782bcbf2-b7de-4b04-bebc-aaa0329dd90c","ios":"levelo://app?vid=782bcbf2-b7de-4b04-bebc-aaa0329dd90c"},"vehicle_type_id":"4","last_reported":1734631966,"current_range_meters":38800,"station_id":"ce4bhu92rcd13ifvqi70","pricing_plan_id":"cebpf4jnsgd1na2vs0mg"},{"bike_id":"67e590f7-0feb-4571-9ae2-729bb19e5be9","system_id":"levelo_inurba_marseille","lat":43.2846,"lon":5.35881,"is_reserved":false,"is_disabled":false,"rental_uris":{"android":"levelo://app?vid=67e590f7-0feb-4571-9ae2-729bb19e5be9","ios":"levelo://app?vid=67e590f7-0feb-4571-9ae2-729bb19e5be9"},"vehicle_type_id":"4","last_reported":1734631966,"current_range_meters":19200,"station_id":"ce4bhah2rcd13ifvqei0","pricing_plan_id":"cebpf4jnsgd1na2vs0mg"},{"bike_id":"2fde1f92-3827-4c76-8ad9-2db1a9a74cf3","system_id":"levelo_inurba_marseille","lat":43.295507,"lon":5.374903,"is_reserved":false,"is_disabled":true,"rental_uris":{"android":"levelo://app?vid=2fde1f92-3827-4c76-8ad9-2db1a9a74cf3","ios":"levelo://app?vid=2fde1f92-3827-4c76-8ad9-2db1a9a74cf3"},"vehicle_type_id":"4","last_reported":1734631966,"current_range_meters":0,"station_id":"","pricing_plan_id":"cebpf4jnsgd1na2vs0mg"},{"bike_id":"a0d32bd2-b20b-4f34-bfcb-1a805efb71fc","system_id":"levelo_inurba_marseille","lat":43.27069,"lon":5.42284,"is_reserved":false,"is_disabled":false,"rental_uris":{"android":"levelo://app?vid=a0d32bd2-b20b-4f34-bfcb-1a805efb71fc","ios":"levelo://app?vid=a0d32bd2-b20b-4f34-bfcb-1a805efb71fc"},"vehicle_type_id":"4","last_reported":1734631966,"current_range_meters":36400,"station_id":"ce4bhk92rcd13ifvqgb0","pricing_plan_id":"cebpf4jnsgd1na2vs0mg"},{"bike_id":"96ff88dc-8cf7-4b0f-a345-fa00220da932","system_id":"levelo_inurba_marseille","lat":43.27418,"lon":5.42402,"is_reserved":false,"is_disabled":true,"rental_uris":{"android":"levelo://app?vid=96ff88dc-8cf7-4b0f-a345-fa00220da932","ios":"levelo://app?vid=96ff88dc-8cf7-4b0f-a345-fa00220da932"},"vehicle_type_id":"4","last_reported":1734631966,"current_range_meters":0,"station_id":"","pricing_plan_id":"cebpf4jnsgd1na2vs0mg"},{"bike_id":"1897ad2d-5c02-4d9f-ba4c-937899dfbdc3","system_id":"levelo_inurba_marseille","lat":43.24396,"lon":5.37037,"is_reserved":false,"is_disabled":false,"rental_uris":{"android":"levelo://app?vid=1897ad2d-5c02-4d9f-ba4c-937899dfbdc3","ios":"levelo://app?vid=1897ad2d-5c02-4d9f-ba4c-937899dfbdc3"},"vehicle_type_id":"4","last_reported":1734631966,"current_range_meters":28800,"station_id":"ce4bhhh2rcd13ifvqfk0","pricing_plan_id":"cebpf4jnsgd1na2vs0mg"},{"bike_id":"af8b20b1-6694-4e3a-8a98-da88fc3faa71","system_id":"levelo_inurba_marseille","lat":43.309515,"lon":5.390625,"is_reserved":false,"is_disabled":true,"rental_uris":{"android":"levelo://app?vid=af8b20b1-6694-4e3a-8a98-da88fc3faa71","ios":"levelo://app?vid=af8b20b1-6694-4e3a-8a98-da88fc3faa71"},"vehicle_type_id":"4","last_reported":1734631966,"current_range_meters":0,"station_id":"ce4bgup2rcd13ifvqco0","pricing_plan_id":"cebpf4jnsgd1na2vs0mg"},{"bike_id":"c1a2d2ec-8a9f-40df-b978-a9dabf4c29e4","system_id":"levelo_inurba_marseille","lat":43.26962,"lon":5.40199,"is_reserved":false,"is_disabled":true,"rental_uris":{"android":"levelo://app?vid=c1a2d2ec-8a9f-40df-b978-a9dabf4c29e4","ios":"levelo://app?vid=c1a2d2ec-8a9f-40df-b978-a9dabf4c29e4"},"vehicle_type_id":"4","last_reported":1734631966,"current_range_meters":0,"station_id":"","pricing_plan_id":"cebpf4jnsgd1na2vs0mg"},{"bike_id":"7d3284d5-3f82-4c96-9ecc-ae4492d2655a","system_id":"levelo_inurba_marseille","lat":43.33023,"lon":5.39034,"is_reserved":false,"is_disabled":false,"rental_uris":{"android":"levelo://app?vid=7d3284d5-3f82-4c96-9ecc-ae4492d2655a","ios":"levelo://app?vid=7d3284d5-3f82-4c96-9ecc-ae4492d2655a"},"vehicle_type_id":"4","last_reported":1734631966,"current_range_meters":38800,"station_id":"ce4bhr92rcd13ifvqhrg","pricing_plan_id":"cebpf4jnsgd1na2vs0mg"},{"bike_id":"330bf880-e1f5-4f4a-b329-f0f879268631","system_id":"levelo_inurba_marseille","lat":43.28855,"lon":5.39324,"is_reserved":false,"is_disabled":true,"rental_uris":{"android":"levelo://app?vid=330bf880-e1f5-4f4a-b329-f0f879268631","ios":"levelo://app?vid=330bf880-e1f5-4f4a-b329-f0f879268631"},"vehicle_type_id":"4","last_reported":1734631966,"current_range_meters":19600,"station_id":"ce4bh2p2rcd13ifvqdi0","pricing_plan_id":"cebpf4jnsgd1na2vs0mg"},{"bike_id":"44127e4e-8e84-4a38-89f7-8f4efb63f7a5","system_id":"levelo_inurba_marseille","lat":43.31198,"lon":5.36778,"is_reserved":false,"is_disabled":true,"rental_uris":{"android":"levelo://app?vid=44127e4e-8e84-4a38-89f7-8f4efb63f7a5","ios":"levelo://app?vid=44127e4e-8e84-4a38-89f7-8f4efb63f7a5"},"vehicle_type_id":"4","last_reported":1734631966,"current_range_meters":0,"station_id":"","pricing_plan_id":"cebpf4jnsgd1na2vs0mg"},{"bike_id":"4c5cdf28-9f8a-48e8-9806-9dada88c6695","system_id":"levelo_inurba_marseille","lat":43.28458,"lon":5.35893,"is_reserved":false,"is_disabled":false,"rental_uris":{"android":"levelo://app?vid=4c5cdf28-9f8a-48e8-9806-9dada88c6695","ios":"levelo://app?vid=4c5cdf28-9f8a-48e8-9806-9dada88c6695"},"vehicle_type_id":"4","last_reported":1734631966,"current_range_meters":8000,"station_id":"ce4bhah2rcd13ifvqei0","pricing_plan_id":"cebpf4jnsgd1na2vs0mg"},{"bike_id":"8f8f01b7-3a6e-4e16-8d62-5e2100a0c4e6","system_id":"levelo_inurba_marseille","lat":43.26954,"lon":5.38633,"is_reserved":false,"is_disabled":false,"rental_uris":{"android":"levelo://app?vid=8f8f01b7-3a6e-4e16-8d62-5e2100a0c4e6","ios":"levelo://app?vid=8f8f01b7-3a6e-4e16-8d62-5e2100a0c4e6"},"vehicle_type_id":"4","last_reported":1734631966,"current_range_meters":23200,"station_id":"ce4bhh92rcd13ifvqfh0","pricing_plan_id":"cebpf4jnsgd1na2vs0mg"},{"bike_id":"95e83301-1358-4a08-89a5-d6961b7283c1","system_id":"levelo_inurba_marseille","lat":43.23967,"lon":5.36627,"is_reserved":false,"is_disabled":false,"rental_uris":{"android":"levelo://app?vid=95e83301-1358-4a08-89a5-d6961b7283c1","ios":"levelo://app?vid=95e83301-1358-4a08-89a5-d6961b7283c1"},"vehicle_type_id":"4","last_reported":1734631966,"current_range_meters":32400,"station_id":"ce4bhi12rcd13ifvqfp0","pricing_plan_id":"cebpf4jnsgd1na2vs0mg"},{"bike_id":"672fcf6f-8699-4143-9c5f-2e6d1ee3aa80","system_id":"levelo_inurba_marseille","lat":43.30591,"lon":5.36731,"is_reserved":false,"is_disabled":true,"rental_uris":{"android":"levelo://app?vid=672fcf6f-8699-4143-9c5f-2e6d1ee3aa80","ios":"levelo://app?vid=672fcf6f-8699-4143-9c5f-2e6d1ee3aa80"},"vehicle_type_id":"4","last_reported":1734631966,"current_range_meters":38800,"station_id":"ce4bgrp2rcd13ifvqc9g","pricing_plan_id":"cebpf4jnsgd1na2vs0mg"},{"bike_id":"93ee4838-f5d6-40ad-aee4-1a26370c781b","system_id":"levelo_inurba_marseille","lat":43.30889,"lon":5.39658,"is_reserved":false,"is_disabled":false,"rental_uris":{"android":"levelo://app?vid=93ee4838-f5d6-40ad-aee4-1a26370c781b","ios":"levelo://app?vid=93ee4838-f5d6-40ad-aee4-1a26370c781b"},"vehicle_type_id":"4","last_reported":1734631966,"current_range_meters":16800,"station_id":"ce4bh012rcd13ifvqcv0","pricing_plan_id":"cebpf4jnsgd1na2vs0mg"},{"bike_id":"1a890241-7b32-455c-a0f2-1cb513eef596","system_id":"levelo_inurba_marseille","lat":43.25571,"lon":5.38232,"is_reserved":false,"is_disabled":false,"rental_uris":{"android":"levelo://app?vid=1a890241-7b32-455c-a0f2-1cb513eef596","ios":"levelo://app?vid=1a890241-7b32-455c-a0f2-1cb513eef596"},"vehicle_type_id":"4","last_reported":1734631966,"current_range_meters":18000,"station_id":"ce4bhih2rcd13ifvqfs0","pricing_plan_id":"cebpf4jnsgd1na2vs0mg"},{"bike_id":"defb9ed8-50de-4040-a509-a2d631e09253","system_id":"levelo_inurba_marseille","lat":43.30176,"lon":5.36604,"is_reserved":false,"is_disabled":false,"rental_uris":{"android":"levelo://app?vid=defb9ed8-50de-4040-a509-a2d631e09253","ios":"levelo://app?vid=defb9ed8-50de-4040-a509-a2d631e09253"},"vehicle_type_id":"4","last_reported":1734631966,"current_range_meters":30400,"station_id":"ce4bgrh2rcd13ifvqc8g","pricing_plan_id":"cebpf4jnsgd1na2vs0mg"},{"bike_id":"fa0d4ada-002c-4eee-99f1-47f40e840779","system_id":"levelo_inurba_marseille","lat":43.3233,"lon":5.40612,"is_reserved":false,"is_disabled":false,"rental_uris":{"android":"levelo://app?vid=fa0d4ada-002c-4eee-99f1-47f40e840779","ios":"levelo://app?vid=fa0d4ada-002c-4eee-99f1-47f40e840779"},"vehicle_type_id":"4","last_reported":1734631966,"current_range_meters":39200,"station_id":"ce4bhq92rcd13ifvqhjg","pricing_plan_id":"cebpf4jnsgd1na2vs0mg"},{"bike_id":"1ed431a0-c404-460c-8b06-9b7816088b4f","system_id":"levelo_inurba_marseille","lat":43.32336,"lon":5.40619,"is_reserved":false,"is_disabled":false,"rental_uris":{"android":"levelo://app?vid=1ed431a0-c404-460c-8b06-9b7816088b4f","ios":"levelo://app?vid=1ed431a0-c404-460c-8b06-9b7816088b4f"},"vehicle_type_id":"4","last_reported":1734631966,"current_range_meters":8800,"station_id":"ce4bhq92rcd13ifvqhjg","pricing_plan_id":"cebpf4jnsgd1na2vs0mg"},{"bike_id":"88d0fca1-50cd-440e-a583-785fe0c07914","system_id":"levelo_inurba_marseille","lat":43.28473,"lon":5.37916,"is_reserved":false,"is_disabled":false,"rental_uris":{"android":"levelo://app?vid=88d0fca1-50cd-440e-a583-785fe0c07914","ios":"levelo://app?vid=88d0fca1-50cd-440e-a583-785fe0c07914"},"vehicle_type_id":"4","last_reported":1734631966,"current_range_meters":8000,"station_id":"","pricing_plan_id":"cebpf4jnsgd1na2vs0mg"},{"bike_id":"62159b96-70de-4225-a341-fe8203f1c374","system_id":"levelo_inurba_marseille","lat":43.28945,"lon":5.39636,"is_reserved":false,"is_disabled":true,"rental_uris":{"android":"levelo://app?vid=62159b96-70de-4225-a341-fe8203f1c374","ios":"levelo://app?vid=62159b96-70de-4225-a341-fe8203f1c374"},"vehicle_type_id":"4","last_reported":1734631966,"current_range_meters":37600,"station_id":"ce4bh3h2rcd13ifvqdn0","pricing_plan_id":"cebpf4jnsgd1na2vs0mg"},{"bike_id":"07951805-eb27-4dba-962c-6936e75c0787","system_id":"levelo_inurba_marseille","lat":43.32364,"lon":5.38879,"is_reserved":false,"is_disabled":false,"rental_uris":{"android":"levelo://app?vid=07951805-eb27-4dba-962c-6936e75c0787","ios":"levelo://app?vid=07951805-eb27-4dba-962c-6936e75c0787"},"vehicle_type_id":"4","last_reported":1734631966,"current_range_meters":6000,"station_id":"ce4bhqp2rcd13ifvqhog","pricing_plan_id":"cebpf4jnsgd1na2vs0mg"},{"bike_id":"b7cd2378-a217-42b2-ab0d-f667362cc54e","system_id":"levelo_inurba_marseille","lat":43.29299,"lon":5.37443,"is_reserved":false,"is_disabled":false,"rental_uris":{"android":"levelo://app?vid=b7cd2378-a217-42b2-ab0d-f667362cc54e","ios":"levelo://app?vid=b7cd2378-a217-42b2-ab0d-f667362cc54e"},"vehicle_type_id":"4","last_reported":1734631966,"current_range_meters":39200,"station_id":"ce4bgi12rcd13ifvqb70","pricing_plan_id":"cebpf4jnsgd1na2vs0mg"},{"bike_id":"218a6f05-c850-453d-9a56-d3821e2b7e8c","system_id":"levelo_inurba_marseille","lat":43.29261,"lon":5.38443,"is_reserved":false,"is_disabled":false,"rental_uris":{"android":"levelo://app?vid=218a6f05-c850-453d-9a56-d3821e2b7e8c","ios":"levelo://app?vid=218a6f05-c850-453d-9a56-d3821e2b7e8c"},"vehicle_type_id":"4","last_reported":1734631966,"current_range_meters":10000,"station_id":"ce4bh692rcd13ifvqea0","pricing_plan_id":"cebpf4jnsgd1na2vs0mg"},{"bike_id":"4d6fb150-9ef4-4945-8999-98e47e4c07bc","system_id":"levelo_inurba_marseille","lat":43.30685,"lon":5.36971,"is_reserved":false,"is_disabled":false,"rental_uris":{"android":"levelo://app?vid=4d6fb150-9ef4-4945-8999-98e47e4c07bc","ios":"levelo://app?vid=4d6fb150-9ef4-4945-8999-98e47e4c07bc"},"vehicle_type_id":"4","last_reported":1734631966,"current_range_meters":26800,"station_id":"","pricing_plan_id":"cebpf4jnsgd1na2vs0mg"},{"bike_id":"e0c2eddf-4ba9-4754-b0b5-efd80badee74","system_id":"levelo_inurba_marseille","lat":43.258685,"lon":5.394406,"is_reserved":false,"is_disabled":true,"rental_uris":{"android":"levelo://app?vid=e0c2eddf-4ba9-4754-b0b5-efd80badee74","ios":"levelo://app?vid=e0c2eddf-4ba9-4754-b0b5-efd80badee74"},"vehicle_type_id":"4","last_reported":1734631966,"current_range_meters":0,"station_id":"","pricing_plan_id":"cebpf4jnsgd1na2vs0mg"},{"bike_id":"c8a9df44-c9a1-43c7-addd-475d94f4c5ab","system_id":"levelo_inurba_marseille","lat":43.27334,"lon":5.39092,"is_reserved":false,"is_disabled":true,"rental_uris":{"android":"levelo://app?vid=c8a9df44-c9a1-43c7-addd-475d94f4c5ab","ios":"levelo://app?vid=c8a9df44-c9a1-43c7-addd-475d94f4c5ab"},"vehicle_type_id":"4","last_reported":1734631966,"current_range_meters":0,"station_id":"ce4bhgp2rcd13ifvqfe0","pricing_plan_id":"cebpf4jnsgd1na2vs0mg"},{"bike_id":"5402a831-b534-4a20-80cd-cd4128a18e59","system_id":"levelo_inurba_marseille","lat":43.29518,"lon":5.3902,"is_reserved":false,"is_disabled":false,"rental_uris":{"android":"levelo://app?vid=5402a831-b534-4a20-80cd-cd4128a18e59","ios":"levelo://app?vid=5402a831-b534-4a20-80cd-cd4128a18e59"},"vehicle_type_id":"4","last_reported":1734631966,"current_range_meters":28400,"station_id":"ce4bh3p2rcd13ifvqdp0","pricing_plan_id":"cebpf4jnsgd1na2vs0mg"},{"bike_id":"4f621623-13c3-4e91-92e9-1ed205342968","system_id":"levelo_inurba_marseille","lat":43.30888,"lon":5.3966,"is_reserved":false,"is_disabled":false,"rental_uris":{"android":"levelo://app?vid=4f621623-13c3-4e91-92e9-1ed205342968","ios":"levelo://app?vid=4f621623-13c3-4e91-92e9-1ed205342968"},"vehicle_type_id":"4","last_reported":1734631966,"current_range_meters":35600,"station_id":"ce4bh012rcd13ifvqcv0","pricing_plan_id":"cebpf4jnsgd1na2vs0mg"},{"bike_id":"c4d32138-1613-4589-880b-cbe0df5ee929","system_id":"levelo_inurba_marseille","lat":43.25016,"lon":5.38913,"is_reserved":false,"is_disabled":false,"rental_uris":{"android":"levelo://app?vid=c4d32138-1613-4589-880b-cbe0df5ee929","ios":"levelo://app?vid=c4d32138-1613-4589-880b-cbe0df5ee929"},"vehicle_type_id":"4","last_reported":1734631966,"current_range_meters":38800,"station_id":"ce4bhgp2rcd13ifvqfd0","pricing_plan_id":"cebpf4jnsgd1na2vs0mg"},{"bike_id":"8cceaed3-dfcc-4c73-aae1-f089279c86dc","system_id":"levelo_inurba_marseille","lat":43.30543,"lon":5.36702,"is_reserved":false,"is_disabled":true,"rental_uris":{"android":"levelo://app?vid=8cceaed3-dfcc-4c73-aae1-f089279c86dc","ios":"levelo://app?vid=8cceaed3-dfcc-4c73-aae1-f089279c86dc"},"vehicle_type_id":"4","last_reported":1734631966,"current_range_meters":35200,"station_id":"ce4bgrp2rcd13ifvqc9g","pricing_plan_id":"cebpf4jnsgd1na2vs0mg"},{"bike_id":"df609213-4f03-423d-a027-9336b146a373","system_id":"levelo_inurba_marseille","lat":43.27577,"lon":5.38431,"is_reserved":false,"is_disabled":false,"rental_uris":{"android":"levelo://app?vid=df609213-4f03-423d-a027-9336b146a373","ios":"levelo://app?vid=df609213-4f03-423d-a027-9336b146a373"},"vehicle_type_id":"4","last_reported":1734631966,"current_range_meters":38000,"station_id":"ce4bhh92rcd13ifvqfi0","pricing_plan_id":"cebpf4jnsgd1na2vs0mg"},{"bike_id":"aba4eea1-21a5-4719-aa99-28df366839e7","system_id":"levelo_inurba_marseille","lat":43.286677,"lon":5.36351,"is_reserved":false,"is_disabled":false,"rental_uris":{"android":"levelo://app?vid=aba4eea1-21a5-4719-aa99-28df366839e7","ios":"levelo://app?vid=aba4eea1-21a5-4719-aa99-28df366839e7"},"vehicle_type_id":"4","last_reported":1734631966,"current_range_meters":29600,"station_id":"ce4bhah2rcd13ifvqej0","pricing_plan_id":"cebpf4jnsgd1na2vs0mg"},{"bike_id":"0713692e-a260-408c-8f61-e4b7ea659aae","system_id":"levelo_inurba_marseille","lat":43.26784,"lon":5.39416,"is_reserved":false,"is_disabled":true,"rental_uris":{"android":"levelo://app?vid=0713692e-a260-408c-8f61-e4b7ea659aae","ios":"levelo://app?vid=0713692e-a260-408c-8f61-e4b7ea659aae"},"vehicle_type_id":"4","last_reported":1734631966,"current_range_meters":0,"station_id":"ce4bhh12rcd13ifvqfg0","pricing_plan_id":"cebpf4jnsgd1na2vs0mg"},{"bike_id":"ed70a6cc-e01f-4b41-add9-5a923d151d86","system_id":"levelo_inurba_marseille","lat":43.28105,"lon":5.37835,"is_reserved":false,"is_disabled":false,"rental_uris":{"android":"levelo://app?vid=ed70a6cc-e01f-4b41-add9-5a923d151d86","ios":"levelo://app?vid=ed70a6cc-e01f-4b41-add9-5a923d151d86"},"vehicle_type_id":"4","last_reported":1734631966,"current_range_meters":35200,"station_id":"ce4bha12rcd13ifvqee0","pricing_plan_id":"cebpf4jnsgd1na2vs0mg"},{"bike_id":"b6275950-f469-4e2f-b75e-19cc4edf958f","system_id":"levelo_inurba_marseille","lat":43.281,"lon":5.3785,"is_reserved":false,"is_disabled":false,"rental_uris":{"android":"levelo://app?vid=b6275950-f469-4e2f-b75e-19cc4edf958f","ios":"levelo://app?vid=b6275950-f469-4e2f-b75e-19cc4edf958f"},"vehicle_type_id":"4","last_reported":1734631966,"current_range_meters":31200,"station_id":"ce4bha12rcd13ifvqee0","pricing_plan_id":"cebpf4jnsgd1na2vs0mg"},{"bike_id":"30cf218e-0565-4b4d-b831-6b6e7547fc40","system_id":"levelo_inurba_marseille","lat":43.26808,"lon":5.40276,"is_reserved":false,"is_disabled":true,"rental_uris":{"android":"levelo://app?vid=30cf218e-0565-4b4d-b831-6b6e7547fc40","ios":"levelo://app?vid=30cf218e-0565-4b4d-b831-6b6e7547fc40"},"vehicle_type_id":"4","last_reported":1734631966,"current_range_meters":400,"station_id":"ce501612rcd8frsf0b60","pricing_plan_id":"cebpf4jnsgd1na2vs0mg"},{"bike_id":"cae49f96-6bd5-4eb4-9bc2-69846f8c6523","system_id":"levelo_inurba_marseille","lat":43.28677,"lon":5.3866,"is_reserved":false,"is_disabled":false,"rental_uris":{"android":"levelo://app?vid=cae49f96-6bd5-4eb4-9bc2-69846f8c6523","ios":"levelo://app?vid=cae49f96-6bd5-4eb4-9bc2-69846f8c6523"},"vehicle_type_id":"4","last_reported":1734631966,"current_range_meters":28800,"station_id":"ce4bh492rcd13ifvqdug","pricing_plan_id":"cebpf4jnsgd1na2vs0mg"},{"bike_id":"ca9a80e2-2159-4c5c-8f3c-afef11f8230e","system_id":"levelo_inurba_marseille","lat":43.31081,"lon":5.42435,"is_reserved":false,"is_disabled":false,"rental_uris":{"android":"levelo://app?vid=ca9a80e2-2159-4c5c-8f3c-afef11f8230e","ios":"levelo://app?vid=ca9a80e2-2159-4c5c-8f3c-afef11f8230e"},"vehicle_type_id":"4","last_reported":1734631966,"current_range_meters":38000,"station_id":"ce4bhp92rcd13ifvqhag","pricing_plan_id":"cebpf4jnsgd1na2vs0mg"},{"bike_id":"f458c20a-7a70-474d-b9d0-07827ac4a33e","system_id":"levelo_inurba_marseille","lat":43.23964,"lon":5.36624,"is_reserved":false,"is_disabled":false,"rental_uris":{"android":"levelo://app?vid=f458c20a-7a70-474d-b9d0-07827ac4a33e","ios":"levelo://app?vid=f458c20a-7a70-474d-b9d0-07827ac4a33e"},"vehicle_type_id":"4","last_reported":1734631966,"current_range_meters":38800,"station_id":"ce4bhi12rcd13ifvqfp0","pricing_plan_id":"cebpf4jnsgd1na2vs0mg"},{"bike_id":"73fdfca7-1d8b-4e17-85ad-77c27d8788aa","system_id":"levelo_inurba_marseille","lat":43.2872,"lon":5.37936,"is_reserved":false,"is_disabled":false,"rental_uris":{"android":"levelo://app?vid=73fdfca7-1d8b-4e17-85ad-77c27d8788aa","ios":"levelo://app?vid=73fdfca7-1d8b-4e17-85ad-77c27d8788aa"},"vehicle_type_id":"4","last_reported":1734631966,"current_range_meters":19600,"station_id":"ce4bh9p2rcd13ifvqec0","pricing_plan_id":"cebpf4jnsgd1na2vs0mg"},{"bike_id":"1fbd3b32-8c99-4b84-b080-1bf16dac43f8","system_id":"levelo_inurba_marseille","lat":43.27059,"lon":5.40254,"is_reserved":false,"is_disabled":true,"rental_uris":{"android":"levelo://app?vid=1fbd3b32-8c99-4b84-b080-1bf16dac43f8","ios":"levelo://app?vid=1fbd3b32-8c99-4b84-b080-1bf16dac43f8"},"vehicle_type_id":"4","last_reported":1734631966,"current_range_meters":0,"station_id":"ce4bhk92rcd13ifvqgc0","pricing_plan_id":"cebpf4jnsgd1na2vs0mg"},{"bike_id":"7575b20b-a03e-4095-b227-41818472a023","system_id":"levelo_inurba_marseille","lat":43.28982,"lon":5.3783,"is_reserved":false,"is_disabled":false,"rental_uris":{"android":"levelo://app?vid=7575b20b-a03e-4095-b227-41818472a023","ios":"levelo://app?vid=7575b20b-a03e-4095-b227-41818472a023"},"vehicle_type_id":"4","last_reported":1734631966,"current_range_meters":36800,"station_id":"ce4bh9p2rcd13ifvqed0","pricing_plan_id":"cebpf4jnsgd1na2vs0mg"},{"bike_id":"7ddf5867-922d-4aa1-9e8f-b1e5e5e9b34a","system_id":"levelo_inurba_marseille","lat":43.2925,"lon":5.38439,"is_reserved":false,"is_disabled":false,"rental_uris":{"android":"levelo://app?vid=7ddf5867-922d-4aa1-9e8f-b1e5e5e9b34a","ios":"levelo://app?vid=7ddf5867-922d-4aa1-9e8f-b1e5e5e9b34a"},"vehicle_type_id":"4","last_reported":1734631966,"current_range_meters":38800,"station_id":"ce4bh692rcd13ifvqea0","pricing_plan_id":"cebpf4jnsgd1na2vs0mg"},{"bike_id":"113871aa-256a-4e90-bc59-d096baf4db28","system_id":"levelo_inurba_marseille","lat":43.290197,"lon":5.375928,"is_reserved":false,"is_disabled":false,"rental_uris":{"android":"levelo://app?vid=113871aa-256a-4e90-bc59-d096baf4db28","ios":"levelo://app?vid=113871aa-256a-4e90-bc59-d096baf4db28"},"vehicle_type_id":"4","last_reported":1734631966,"current_range_meters":32000,"station_id":"ce4bh692rcd13ifvqe90","pricing_plan_id":"cebpf4jnsgd1na2vs0mg"},{"bike_id":"17b2d2b0-9855-46b4-a478-0bd9c7277056","system_id":"levelo_inurba_marseille","lat":43.309154,"lon":5.378413,"is_reserved":false,"is_disabled":true,"rental_uris":{"android":"levelo://app?vid=17b2d2b0-9855-46b4-a478-0bd9c7277056","ios":"levelo://app?vid=17b2d2b0-9855-46b4-a478-0bd9c7277056"},"vehicle_type_id":"4","last_reported":1734631966,"current_range_meters":0,"station_id":"","pricing_plan_id":"cebpf4jnsgd1na2vs0mg"},{"bike_id":"69699e7b-91f5-44f7-b494-c278edf9698d","system_id":"levelo_inurba_marseille","lat":43.29524,"lon":5.394043,"is_reserved":false,"is_disabled":false,"rental_uris":{"android":"levelo://app?vid=69699e7b-91f5-44f7-b494-c278edf9698d","ios":"levelo://app?vid=69699e7b-91f5-44f7-b494-c278edf9698d"},"vehicle_type_id":"4","last_reported":1734631966,"current_range_meters":39200,"station_id":"ce4bh292rcd13ifvqdf0","pricing_plan_id":"cebpf4jnsgd1na2vs0mg"},{"bike_id":"fb68ca00-99ef-4182-9f5f-ee5ce0c065a8","system_id":"levelo_inurba_marseille","lat":43.26059,"lon":5.39392,"is_reserved":false,"is_disabled":false,"rental_uris":{"android":"levelo://app?vid=fb68ca00-99ef-4182-9f5f-ee5ce0c065a8","ios":"levelo://app?vid=fb68ca00-99ef-4182-9f5f-ee5ce0c065a8"},"vehicle_type_id":"4","last_reported":1734631966,"current_range_meters":36800,"station_id":"ce4bhh92rcd13ifvqfj0","pricing_plan_id":"cebpf4jnsgd1na2vs0mg"},{"bike_id":"2cd42dd6-cf7c-4cc6-a352-e0f2ba59519b","system_id":"levelo_inurba_marseille","lat":43.29576,"lon":5.36738,"is_reserved":false,"is_disabled":false,"rental_uris":{"android":"levelo://app?vid=2cd42dd6-cf7c-4cc6-a352-e0f2ba59519b","ios":"levelo://app?vid=2cd42dd6-cf7c-4cc6-a352-e0f2ba59519b"},"vehicle_type_id":"4","last_reported":1734631966,"current_range_meters":38000,"station_id":"ce4bgph2rcd13ifvqc2g","pricing_plan_id":"cebpf4jnsgd1na2vs0mg"},{"bike_id":"01ac8352-e33d-4bd4-bb93-d7381b658f36","system_id":"levelo_inurba_marseille","lat":43.32366,"lon":5.38882,"is_reserved":false,"is_disabled":false,"rental_uris":{"android":"levelo://app?vid=01ac8352-e33d-4bd4-bb93-d7381b658f36","ios":"levelo://app?vid=01ac8352-e33d-4bd4-bb93-d7381b658f36"},"vehicle_type_id":"4","last_reported":1734631966,"current_range_meters":14000,"station_id":"ce4bhqp2rcd13ifvqhog","pricing_plan_id":"cebpf4jnsgd1na2vs0mg"},{"bike_id":"947a82a8-cbd7-4818-822c-88a67dc03e7f","system_id":"levelo_inurba_marseille","lat":43.29979,"lon":5.37164,"is_reserved":false,"is_disabled":false,"rental_uris":{"android":"levelo://app?vid=947a82a8-cbd7-4818-822c-88a67dc03e7f","ios":"levelo://app?vid=947a82a8-cbd7-4818-822c-88a67dc03e7f"},"vehicle_type_id":"4","last_reported":1734631966,"current_range_meters":4800,"station_id":"ce4bgr92rcd13ifvqc7g","pricing_plan_id":"cebpf4jnsgd1na2vs0mg"},{"bike_id":"29218885-1c50-43e0-a925-2ca4c134e5a9","system_id":"levelo_inurba_marseille","lat":43.3093,"lon":5.40146,"is_reserved":false,"is_disabled":false,"rental_uris":{"android":"levelo://app?vid=29218885-1c50-43e0-a925-2ca4c134e5a9","ios":"levelo://app?vid=29218885-1c50-43e0-a925-2ca4c134e5a9"},"vehicle_type_id":"4","last_reported":1734631966,"current_range_meters":39200,"station_id":"ce4bgvp2rcd13ifvqct0","pricing_plan_id":"cebpf4jnsgd1na2vs0mg"},{"bike_id":"6d468898-ae2a-4f34-9260-43fa7275423c","system_id":"levelo_inurba_marseille","lat":43.30423,"lon":5.41285,"is_reserved":false,"is_disabled":false,"rental_uris":{"android":"levelo://app?vid=6d468898-ae2a-4f34-9260-43fa7275423c","ios":"levelo://app?vid=6d468898-ae2a-4f34-9260-43fa7275423c"},"vehicle_type_id":"4","last_reported":1734631966,"current_range_meters":30000,"station_id":"ce4bhop2rcd13ifvqh8g","pricing_plan_id":"cebpf4jnsgd1na2vs0mg"},{"bike_id":"848c5c74-77d5-437c-9401-a646ab28aa9c","system_id":"levelo_inurba_marseille","lat":43.25574,"lon":5.38248,"is_reserved":false,"is_disabled":false,"rental_uris":{"android":"levelo://app?vid=848c5c74-77d5-437c-9401-a646ab28aa9c","ios":"levelo://app?vid=848c5c74-77d5-437c-9401-a646ab28aa9c"},"vehicle_type_id":"4","last_reported":1734631966,"current_range_meters":38800,"station_id":"ce4bhih2rcd13ifvqfs0","pricing_plan_id":"cebpf4jnsgd1na2vs0mg"},{"bike_id":"2d849545-ed0b-4988-883a-f9549f157f6c","system_id":"levelo_inurba_marseille","lat":43.307241,"lon":5.392473,"is_reserved":false,"is_disabled":false,"rental_uris":{"android":"levelo://app?vid=2d849545-ed0b-4988-883a-f9549f157f6c","ios":"levelo://app?vid=2d849545-ed0b-4988-883a-f9549f157f6c"},"vehicle_type_id":"4","last_reported":1734631966,"current_range_meters":16400,"station_id":"ce4bgup2rcd13ifvqco0","pricing_plan_id":"cebpf4jnsgd1na2vs0mg"},{"bike_id":"6dd7ced6-a614-45f4-afdd-d21affa34a4d","system_id":"levelo_inurba_marseille","lat":43.28456,"lon":5.35878,"is_reserved":false,"is_disabled":false,"rental_uris":{"android":"levelo://app?vid=6dd7ced6-a614-45f4-afdd-d21affa34a4d","ios":"levelo://app?vid=6dd7ced6-a614-45f4-afdd-d21affa34a4d"},"vehicle_type_id":"4","last_reported":1734631966,"current_range_meters":37600,"station_id":"ce4bhah2rcd13ifvqei0","pricing_plan_id":"cebpf4jnsgd1na2vs0mg"},{"bike_id":"1908cece-809f-4547-a252-1da450c21f63","system_id":"levelo_inurba_marseille","lat":43.27817,"lon":5.40713,"is_reserved":false,"is_disabled":false,"rental_uris":{"android":"levelo://app?vid=1908cece-809f-4547-a252-1da450c21f63","ios":"levelo://app?vid=1908cece-809f-4547-a252-1da450c21f63"},"vehicle_type_id":"4","last_reported":1734631966,"current_range_meters":11600,"station_id":"ce4bhnh2rcd13ifvqgtg","pricing_plan_id":"cebpf4jnsgd1na2vs0mg"},{"bike_id":"0a751186-01f8-453d-9242-0795772b0426","system_id":"levelo_inurba_marseille","lat":43.29269,"lon":5.38443,"is_reserved":false,"is_disabled":false,"rental_uris":{"android":"levelo://app?vid=0a751186-01f8-453d-9242-0795772b0426","ios":"levelo://app?vid=0a751186-01f8-453d-9242-0795772b0426"},"vehicle_type_id":"4","last_reported":1734631966,"current_range_meters":30400,"station_id":"ce4bh692rcd13ifvqea0","pricing_plan_id":"cebpf4jnsgd1na2vs0mg"},{"bike_id":"e6de4f74-4c83-4b63-828e-407f36881c0b","system_id":"levelo_inurba_marseille","lat":43.2926,"lon":5.38452,"is_reserved":false,"is_disabled":false,"rental_uris":{"android":"levelo://app?vid=e6de4f74-4c83-4b63-828e-407f36881c0b","ios":"levelo://app?vid=e6de4f74-4c83-4b63-828e-407f36881c0b"},"vehicle_type_id":"4","last_reported":1734631966,"current_range_meters":16800,"station_id":"ce4bh692rcd13ifvqea0","pricing_plan_id":"cebpf4jnsgd1na2vs0mg"},{"bike_id":"f4ef806d-17a8-4d05-acb7-bcdaf097c6d7","system_id":"levelo_inurba_marseille","lat":43.28992,"lon":5.37824,"is_reserved":false,"is_disabled":true,"rental_uris":{"android":"levelo://app?vid=f4ef806d-17a8-4d05-acb7-bcdaf097c6d7","ios":"levelo://app?vid=f4ef806d-17a8-4d05-acb7-bcdaf097c6d7"},"vehicle_type_id":"4","last_reported":1734631966,"current_range_meters":0,"station_id":"ce4bh9p2rcd13ifvqed0","pricing_plan_id":"cebpf4jnsgd1na2vs0mg"},{"bike_id":"7e77670d-f8cc-44da-9355-fef42fbf70af","system_id":"levelo_inurba_marseille","lat":43.33023,"lon":5.3904,"is_reserved":false,"is_disabled":false,"rental_uris":{"android":"levelo://app?vid=7e77670d-f8cc-44da-9355-fef42fbf70af","ios":"levelo://app?vid=7e77670d-f8cc-44da-9355-fef42fbf70af"},"vehicle_type_id":"4","last_reported":1734631966,"current_range_meters":34800,"station_id":"ce4bhr92rcd13ifvqhrg","pricing_plan_id":"cebpf4jnsgd1na2vs0mg"},{"bike_id":"9b4e8892-0a38-47e0-b669-2cacac85c950","system_id":"levelo_inurba_marseille","lat":43.305766,"lon":5.365434,"is_reserved":false,"is_disabled":true,"rental_uris":{"android":"levelo://app?vid=9b4e8892-0a38-47e0-b669-2cacac85c950","ios":"levelo://app?vid=9b4e8892-0a38-47e0-b669-2cacac85c950"},"vehicle_type_id":"4","last_reported":1734631966,"current_range_meters":0,"station_id":"ce4bgs12rcd13ifvqcag","pricing_plan_id":"cebpf4jnsgd1na2vs0mg"},{"bike_id":"275c8729-7ec6-449e-8a5b-704994a1d376","system_id":"levelo_inurba_marseille","lat":43.29526,"lon":5.38547,"is_reserved":false,"is_disabled":true,"rental_uris":{"android":"levelo://app?vid=275c8729-7ec6-449e-8a5b-704994a1d376","ios":"levelo://app?vid=275c8729-7ec6-449e-8a5b-704994a1d376"},"vehicle_type_id":"4","last_reported":1734631966,"current_range_meters":400,"station_id":"ce4bgih2rcd13ifvqba0","pricing_plan_id":"cebpf4jnsgd1na2vs0mg"},{"bike_id":"d03d3e55-b313-4f91-a0c3-6838be182556","system_id":"levelo_inurba_marseille","lat":43.33021,"lon":5.39043,"is_reserved":false,"is_disabled":false,"rental_uris":{"android":"levelo://app?vid=d03d3e55-b313-4f91-a0c3-6838be182556","ios":"levelo://app?vid=d03d3e55-b313-4f91-a0c3-6838be182556"},"vehicle_type_id":"4","last_reported":1734631966,"current_range_meters":25200,"station_id":"ce4bhr92rcd13ifvqhrg","pricing_plan_id":"cebpf4jnsgd1na2vs0mg"},{"bike_id":"d4a92d73-458f-4633-b078-8b09bedbb320","system_id":"levelo_inurba_marseille","lat":43.31335,"lon":5.39696,"is_reserved":false,"is_disabled":false,"rental_uris":{"android":"levelo://app?vid=d4a92d73-458f-4633-b078-8b09bedbb320","ios":"levelo://app?vid=d4a92d73-458f-4633-b078-8b09bedbb320"},"vehicle_type_id":"4","last_reported":1734631966,"current_range_meters":38000,"station_id":"ce4bgvp2rcd13ifvqcu0","pricing_plan_id":"cebpf4jnsgd1na2vs0mg"},{"bike_id":"47592739-7ad0-4c85-b8fd-a81627a81c6c","system_id":"levelo_inurba_marseille","lat":43.30256,"lon":5.40054,"is_reserved":false,"is_disabled":false,"rental_uris":{"android":"levelo://app?vid=47592739-7ad0-4c85-b8fd-a81627a81c6c","ios":"levelo://app?vid=47592739-7ad0-4c85-b8fd-a81627a81c6c"},"vehicle_type_id":"4","last_reported":1734631966,"current_range_meters":12800,"station_id":"ce4bgvh2rcd13ifvqcs0","pricing_plan_id":"cebpf4jnsgd1na2vs0mg"},{"bike_id":"2a12bde8-ca1e-4ca8-8cbb-8dbf9a638106","system_id":"levelo_inurba_marseille","lat":43.23194,"lon":5.35554,"is_reserved":false,"is_disabled":false,"rental_uris":{"android":"levelo://app?vid=2a12bde8-ca1e-4ca8-8cbb-8dbf9a638106","ios":"levelo://app?vid=2a12bde8-ca1e-4ca8-8cbb-8dbf9a638106"},"vehicle_type_id":"4","last_reported":1734631966,"current_range_meters":28400,"station_id":"ce4bhu92rcd13ifvqi70","pricing_plan_id":"cebpf4jnsgd1na2vs0mg"},{"bike_id":"be478d2c-7107-4aa2-9004-e9c3b6719dfb","system_id":"levelo_inurba_marseille","lat":43.28928,"lon":5.38398,"is_reserved":false,"is_disabled":false,"rental_uris":{"android":"levelo://app?vid=be478d2c-7107-4aa2-9004-e9c3b6719dfb","ios":"levelo://app?vid=be478d2c-7107-4aa2-9004-e9c3b6719dfb"},"vehicle_type_id":"4","last_reported":1734631966,"current_range_meters":38800,"station_id":"ce4bh612rcd13ifvqe6g","pricing_plan_id":"cebpf4jnsgd1na2vs0mg"},{"bike_id":"418228eb-2a62-45c8-81f2-f6645d62bb4d","system_id":"levelo_inurba_marseille","lat":43.31333,"lon":5.39695,"is_reserved":false,"is_disabled":false,"rental_uris":{"android":"levelo://app?vid=418228eb-2a62-45c8-81f2-f6645d62bb4d","ios":"levelo://app?vid=418228eb-2a62-45c8-81f2-f6645d62bb4d"},"vehicle_type_id":"4","last_reported":1734631966,"current_range_meters":26800,"station_id":"ce4bgvp2rcd13ifvqcu0","pricing_plan_id":"cebpf4jnsgd1na2vs0mg"},{"bike_id":"1aa58c86-aa85-4786-acc2-538d9e32dfd6","system_id":"levelo_inurba_marseille","lat":43.29708,"lon":5.37709,"is_reserved":false,"is_disabled":false,"rental_uris":{"android":"levelo://app?vid=1aa58c86-aa85-4786-acc2-538d9e32dfd6","ios":"levelo://app?vid=1aa58c86-aa85-4786-acc2-538d9e32dfd6"},"vehicle_type_id":"4","last_reported":1734631966,"current_range_meters":38800,"station_id":"ce4bgkh2rcd13ifvqbl0","pricing_plan_id":"cebpf4jnsgd1na2vs0mg"},{"bike_id":"c2a0043c-59b5-4f51-b693-8b4b904b8dec","system_id":"levelo_inurba_marseille","lat":43.31077,"lon":5.38354,"is_reserved":false,"is_disabled":false,"rental_uris":{"android":"levelo://app?vid=c2a0043c-59b5-4f51-b693-8b4b904b8dec","ios":"levelo://app?vid=c2a0043c-59b5-4f51-b693-8b4b904b8dec"},"vehicle_type_id":"4","last_reported":1734631966,"current_range_meters":26000,"station_id":"ce4bgv92rcd13ifvqcr0","pricing_plan_id":"cebpf4jnsgd1na2vs0mg"},{"bike_id":"1c7fa751-779c-4b72-bddc-882fcf82f2c6","system_id":"levelo_inurba_marseille","lat":43.30809,"lon":5.38148,"is_reserved":false,"is_disabled":false,"rental_uris":{"android":"levelo://app?vid=1c7fa751-779c-4b72-bddc-882fcf82f2c6","ios":"levelo://app?vid=1c7fa751-779c-4b72-bddc-882fcf82f2c6"},"vehicle_type_id":"4","last_reported":1734631966,"current_range_meters":3600,"station_id":"ce4bgt12rcd13ifvqce0","pricing_plan_id":"cebpf4jnsgd1na2vs0mg"},{"bike_id":"ea98cebc-4f18-4ad2-b42e-35ba846eec27","system_id":"levelo_inurba_marseille","lat":43.29359,"lon":5.37846,"is_reserved":false,"is_disabled":true,"rental_uris":{"android":"levelo://app?vid=ea98cebc-4f18-4ad2-b42e-35ba846eec27","ios":"levelo://app?vid=ea98cebc-4f18-4ad2-b42e-35ba846eec27"},"vehicle_type_id":"4","last_reported":1734631966,"current_range_meters":0,"station_id":"ce4bgjh2rcd13ifvqbf0","pricing_plan_id":"cebpf4jnsgd1na2vs0mg"},{"bike_id":"b002d028-e42c-46e2-93ce-a18a7a90546e","system_id":"levelo_inurba_marseille","lat":43.3228,"lon":5.38268,"is_reserved":false,"is_disabled":false,"rental_uris":{"android":"levelo://app?vid=b002d028-e42c-46e2-93ce-a18a7a90546e","ios":"levelo://app?vid=b002d028-e42c-46e2-93ce-a18a7a90546e"},"vehicle_type_id":"4","last_reported":1734631966,"current_range_meters":22400,"station_id":"ce4bhr12rcd13ifvqhqg","pricing_plan_id":"cebpf4jnsgd1na2vs0mg"},{"bike_id":"8d2d1fc5-8995-4400-8cfc-148fb6ed4a6d","system_id":"levelo_inurba_marseille","lat":43.27494,"lon":5.42459,"is_reserved":false,"is_disabled":true,"rental_uris":{"android":"levelo://app?vid=8d2d1fc5-8995-4400-8cfc-148fb6ed4a6d","ios":"levelo://app?vid=8d2d1fc5-8995-4400-8cfc-148fb6ed4a6d"},"vehicle_type_id":"4","last_reported":1734631966,"current_range_meters":0,"station_id":"ce4bhn92rcd13ifvqgrg","pricing_plan_id":"cebpf4jnsgd1na2vs0mg"},{"bike_id":"38c427a0-efad-4e8a-a8a5-0e4a0fd355fe","system_id":"levelo_inurba_marseille","lat":43.29593,"lon":5.38099,"is_reserved":false,"is_disabled":false,"rental_uris":{"android":"levelo://app?vid=38c427a0-efad-4e8a-a8a5-0e4a0fd355fe","ios":"levelo://app?vid=38c427a0-efad-4e8a-a8a5-0e4a0fd355fe"},"vehicle_type_id":"4","last_reported":1734631966,"current_range_meters":38000,"station_id":"ce4bgl12rcd13ifvqbo0","pricing_plan_id":"cebpf4jnsgd1na2vs0mg"},{"bike_id":"8cf5dce1-141e-48cf-816b-74dc2a4ad579","system_id":"levelo_inurba_marseille","lat":43.29584,"lon":5.37517,"is_reserved":false,"is_disabled":true,"rental_uris":{"android":"levelo://app?vid=8cf5dce1-141e-48cf-816b-74dc2a4ad579","ios":"levelo://app?vid=8cf5dce1-141e-48cf-816b-74dc2a4ad579"},"vehicle_type_id":"4","last_reported":1734631966,"current_range_meters":37600,"station_id":"ce4bgh92rcd13ifvqb50","pricing_plan_id":"cebpf4jnsgd1na2vs0mg"},{"bike_id":"748883b9-6d99-43f9-ba78-b01809c6ca3e","system_id":"levelo_inurba_marseille","lat":43.30534,"lon":5.36537,"is_reserved":false,"is_disabled":false,"rental_uris":{"android":"levelo://app?vid=748883b9-6d99-43f9-ba78-b01809c6ca3e","ios":"levelo://app?vid=748883b9-6d99-43f9-ba78-b01809c6ca3e"},"vehicle_type_id":"4","last_reported":1734631966,"current_range_meters":9600,"station_id":"ce4bgs12rcd13ifvqcag","pricing_plan_id":"cebpf4jnsgd1na2vs0mg"},{"bike_id":"0a9db0dd-3e23-4fa8-a639-b14ae215881c","system_id":"levelo_inurba_marseille","lat":43.28555,"lon":5.39513,"is_reserved":false,"is_disabled":false,"rental_uris":{"android":"levelo://app?vid=0a9db0dd-3e23-4fa8-a639-b14ae215881c","ios":"levelo://app?vid=0a9db0dd-3e23-4fa8-a639-b14ae215881c"},"vehicle_type_id":"4","last_reported":1734631966,"current_range_meters":14400,"station_id":"ce4bh292rcd13ifvqdg0","pricing_plan_id":"cebpf4jnsgd1na2vs0mg"},{"bike_id":"b44f9236-c33f-43b3-ab7e-0f32e9951c9e","system_id":"levelo_inurba_marseille","lat":43.23194,"lon":5.355517,"is_reserved":false,"is_disabled":false,"rental_uris":{"android":"levelo://app?vid=b44f9236-c33f-43b3-ab7e-0f32e9951c9e","ios":"levelo://app?vid=b44f9236-c33f-43b3-ab7e-0f32e9951c9e"},"vehicle_type_id":"4","last_reported":1734631966,"current_range_meters":9600,"station_id":"ce4bhu92rcd13ifvqi70","pricing_plan_id":"cebpf4jnsgd1na2vs0mg"},{"bike_id":"4620dcd9-c3a6-4871-8162-c4a28f6d33ca","system_id":"levelo_inurba_marseille","lat":43.31888,"lon":5.40726,"is_reserved":false,"is_disabled":true,"rental_uris":{"android":"levelo://app?vid=4620dcd9-c3a6-4871-8162-c4a28f6d33ca","ios":"levelo://app?vid=4620dcd9-c3a6-4871-8162-c4a28f6d33ca"},"vehicle_type_id":"4","last_reported":1734631966,"current_range_meters":32800,"station_id":"ce4bhq12rcd13ifvqhig","pricing_plan_id":"cebpf4jnsgd1na2vs0mg"},{"bike_id":"373c0c38-cc4e-45ba-b29d-76c11ae4587d","system_id":"levelo_inurba_marseille","lat":43.3133,"lon":5.39693,"is_reserved":false,"is_disabled":false,"rental_uris":{"android":"levelo://app?vid=373c0c38-cc4e-45ba-b29d-76c11ae4587d","ios":"levelo://app?vid=373c0c38-cc4e-45ba-b29d-76c11ae4587d"},"vehicle_type_id":"4","last_reported":1734631966,"current_range_meters":8400,"station_id":"ce4bgvp2rcd13ifvqcu0","pricing_plan_id":"cebpf4jnsgd1na2vs0mg"},{"bike_id":"bc03db78-13f5-4eb3-8825-1473e4d86c90","system_id":"levelo_inurba_marseille","lat":43.29794,"lon":5.39344,"is_reserved":false,"is_disabled":false,"rental_uris":{"android":"levelo://app?vid=bc03db78-13f5-4eb3-8825-1473e4d86c90","ios":"levelo://app?vid=bc03db78-13f5-4eb3-8825-1473e4d86c90"},"vehicle_type_id":"4","last_reported":1734631966,"current_range_meters":38800,"station_id":"chh1huq6cuj3fo74tm60","pricing_plan_id":"cebpf4jnsgd1na2vs0mg"},{"bike_id":"93af5f4e-c68b-4e9f-b7ab-037b77464f2a","system_id":"levelo_inurba_marseille","lat":43.24676,"lon":5.38147,"is_reserved":false,"is_disabled":false,"rental_uris":{"android":"levelo://app?vid=93af5f4e-c68b-4e9f-b7ab-037b77464f2a","ios":"levelo://app?vid=93af5f4e-c68b-4e9f-b7ab-037b77464f2a"},"vehicle_type_id":"4","last_reported":1734631966,"current_range_meters":38800,"station_id":"ce4bhih2rcd13ifvqfr0","pricing_plan_id":"cebpf4jnsgd1na2vs0mg"},{"bike_id":"b5b3837f-5e02-4def-9495-b31b79600261","system_id":"levelo_inurba_marseille","lat":43.32334,"lon":5.40621,"is_reserved":false,"is_disabled":false,"rental_uris":{"android":"levelo://app?vid=b5b3837f-5e02-4def-9495-b31b79600261","ios":"levelo://app?vid=b5b3837f-5e02-4def-9495-b31b79600261"},"vehicle_type_id":"4","last_reported":1734631966,"current_range_meters":26800,"station_id":"ce4bhq92rcd13ifvqhjg","pricing_plan_id":"cebpf4jnsgd1na2vs0mg"},{"bike_id":"3a14195e-72fa-4e14-b73e-b4317b38a60d","system_id":"levelo_inurba_marseille","lat":43.30275,"lon":5.37705,"is_reserved":false,"is_disabled":false,"rental_uris":{"android":"levelo://app?vid=3a14195e-72fa-4e14-b73e-b4317b38a60d","ios":"levelo://app?vid=3a14195e-72fa-4e14-b73e-b4317b38a60d"},"vehicle_type_id":"4","last_reported":1734631966,"current_range_meters":38800,"station_id":"ce4bguh2rcd13ifvqcj0","pricing_plan_id":"cebpf4jnsgd1na2vs0mg"},{"bike_id":"0f70da87-3837-4a1e-b64f-ed3d553df758","system_id":"levelo_inurba_marseille","lat":43.25497,"lon":5.37653,"is_reserved":false,"is_disabled":false,"rental_uris":{"android":"levelo://app?vid=0f70da87-3837-4a1e-b64f-ed3d553df758","ios":"levelo://app?vid=0f70da87-3837-4a1e-b64f-ed3d553df758"},"vehicle_type_id":"4","last_reported":1734631966,"current_range_meters":30800,"station_id":"ce4bhh12rcd13ifvqff0","pricing_plan_id":"cebpf4jnsgd1na2vs0mg"},{"bike_id":"0ee567dd-8d1f-4513-95d0-49b3aea08c53","system_id":"levelo_inurba_marseille","lat":43.30887,"lon":5.37198,"is_reserved":false,"is_disabled":true,"rental_uris":{"android":"levelo://app?vid=0ee567dd-8d1f-4513-95d0-49b3aea08c53","ios":"levelo://app?vid=0ee567dd-8d1f-4513-95d0-49b3aea08c53"},"vehicle_type_id":"4","last_reported":1734631966,"current_range_meters":28000,"station_id":"ce4bguh2rcd13ifvqckg","pricing_plan_id":"cebpf4jnsgd1na2vs0mg"},{"bike_id":"b52c10f4-1f06-453c-bfdf-7d6729ecfe9c","system_id":"levelo_inurba_marseille","lat":43.23187,"lon":5.39975,"is_reserved":false,"is_disabled":false,"rental_uris":{"android":"levelo://app?vid=b52c10f4-1f06-453c-bfdf-7d6729ecfe9c","ios":"levelo://app?vid=b52c10f4-1f06-453c-bfdf-7d6729ecfe9c"},"vehicle_type_id":"4","last_reported":1734631966,"current_range_meters":38000,"station_id":"ce4bhn12rcd13ifvqgqg","pricing_plan_id":"cebpf4jnsgd1na2vs0mg"},{"bike_id":"31e93727-0c36-4111-9573-55fa6a2c88f2","system_id":"levelo_inurba_marseille","lat":43.29849,"lon":5.36277,"is_reserved":false,"is_disabled":false,"rental_uris":{"android":"levelo://app?vid=31e93727-0c36-4111-9573-55fa6a2c88f2","ios":"levelo://app?vid=31e93727-0c36-4111-9573-55fa6a2c88f2"},"vehicle_type_id":"4","last_reported":1734631966,"current_range_meters":22800,"station_id":"ce4bgpp2rcd13ifvqc3g","pricing_plan_id":"cebpf4jnsgd1na2vs0mg"},{"bike_id":"87ea2282-7236-454a-a021-e08bfe13ea3d","system_id":"levelo_inurba_marseille","lat":43.28028,"lon":5.36943,"is_reserved":false,"is_disabled":false,"rental_uris":{"android":"levelo://app?vid=87ea2282-7236-454a-a021-e08bfe13ea3d","ios":"levelo://app?vid=87ea2282-7236-454a-a021-e08bfe13ea3d"},"vehicle_type_id":"4","last_reported":1734631966,"current_range_meters":39200,"station_id":"ce4bha12rcd13ifvqef0","pricing_plan_id":"cebpf4jnsgd1na2vs0mg"},{"bike_id":"dcbe64cd-9357-420f-b290-dbaf86f13455","system_id":"levelo_inurba_marseille","lat":43.33021,"lon":5.39036,"is_reserved":false,"is_disabled":true,"rental_uris":{"android":"levelo://app?vid=dcbe64cd-9357-420f-b290-dbaf86f13455","ios":"levelo://app?vid=dcbe64cd-9357-420f-b290-dbaf86f13455"},"vehicle_type_id":"4","last_reported":1734631966,"current_range_meters":2000,"station_id":"ce4bhr92rcd13ifvqhrg","pricing_plan_id":"cebpf4jnsgd1na2vs0mg"},{"bike_id":"0913859c-1787-473e-a988-ee0012206ab4","system_id":"levelo_inurba_marseille","lat":43.29227,"lon":5.36068,"is_reserved":false,"is_disabled":false,"rental_uris":{"android":"levelo://app?vid=0913859c-1787-473e-a988-ee0012206ab4","ios":"levelo://app?vid=0913859c-1787-473e-a988-ee0012206ab4"},"vehicle_type_id":"4","last_reported":1734631966,"current_range_meters":38800,"station_id":"ce4bhbh2rcd13ifvqeqg","pricing_plan_id":"cebpf4jnsgd1na2vs0mg"},{"bike_id":"0c6224f2-00c8-4eb9-8799-17b35a24bb3d","system_id":"levelo_inurba_marseille","lat":43.27172,"lon":5.40992,"is_reserved":false,"is_disabled":false,"rental_uris":{"android":"levelo://app?vid=0c6224f2-00c8-4eb9-8799-17b35a24bb3d","ios":"levelo://app?vid=0c6224f2-00c8-4eb9-8799-17b35a24bb3d"},"vehicle_type_id":"4","last_reported":1734631966,"current_range_meters":28400,"station_id":"ce4bhl12rcd13ifvqgf0","pricing_plan_id":"cebpf4jnsgd1na2vs0mg"},{"bike_id":"929f4b0c-5e07-4948-8818-2541f606765c","system_id":"levelo_inurba_marseille","lat":43.348446,"lon":5.378726,"is_reserved":false,"is_disabled":false,"rental_uris":{"android":"levelo://app?vid=929f4b0c-5e07-4948-8818-2541f606765c","ios":"levelo://app?vid=929f4b0c-5e07-4948-8818-2541f606765c"},"vehicle_type_id":"4","last_reported":1734631966,"current_range_meters":30400,"station_id":"","pricing_plan_id":"cebpf4jnsgd1na2vs0mg"},{"bike_id":"2e0a4273-9b64-4eb1-8d1b-b8e55991eb0a","system_id":"levelo_inurba_marseille","lat":43.272583,"lon":5.400717,"is_reserved":false,"is_disabled":false,"rental_uris":{"android":"levelo://app?vid=2e0a4273-9b64-4eb1-8d1b-b8e55991eb0a","ios":"levelo://app?vid=2e0a4273-9b64-4eb1-8d1b-b8e55991eb0a"},"vehicle_type_id":"4","last_reported":1734631966,"current_range_meters":4800,"station_id":"","pricing_plan_id":"cebpf4jnsgd1na2vs0mg"},{"bike_id":"3c8fa5c9-de8f-4837-ad65-0da846e013c3","system_id":"levelo_inurba_marseille","lat":43.31773,"lon":5.39001,"is_reserved":false,"is_disabled":false,"rental_uris":{"android":"levelo://app?vid=3c8fa5c9-de8f-4837-ad65-0da846e013c3","ios":"levelo://app?vid=3c8fa5c9-de8f-4837-ad65-0da846e013c3"},"vehicle_type_id":"4","last_reported":1734631966,"current_range_meters":38400,"station_id":"ce4bhqp2rcd13ifvqhng","pricing_plan_id":"cebpf4jnsgd1na2vs0mg"},{"bike_id":"f957ffa3-7b76-4b18-bb62-81627d313cf8","system_id":"levelo_inurba_marseille","lat":43.23195,"lon":5.35548,"is_reserved":false,"is_disabled":false,"rental_uris":{"android":"levelo://app?vid=f957ffa3-7b76-4b18-bb62-81627d313cf8","ios":"levelo://app?vid=f957ffa3-7b76-4b18-bb62-81627d313cf8"},"vehicle_type_id":"4","last_reported":1734631966,"current_range_meters":33200,"station_id":"ce4bhu92rcd13ifvqi70","pricing_plan_id":"cebpf4jnsgd1na2vs0mg"},{"bike_id":"5f95dcdc-b7ed-4b2d-bb9c-c1b46e433a17","system_id":"levelo_inurba_marseille","lat":43.31314,"lon":5.39695,"is_reserved":false,"is_disabled":false,"rental_uris":{"android":"levelo://app?vid=5f95dcdc-b7ed-4b2d-bb9c-c1b46e433a17","ios":"levelo://app?vid=5f95dcdc-b7ed-4b2d-bb9c-c1b46e433a17"},"vehicle_type_id":"4","last_reported":1734631966,"current_range_meters":7200,"station_id":"ce4bgvp2rcd13ifvqcu0","pricing_plan_id":"cebpf4jnsgd1na2vs0mg"},{"bike_id":"3856eb43-8bcb-4e2e-ad79-a6b6821647a3","system_id":"levelo_inurba_marseille","lat":43.31115,"lon":5.37772,"is_reserved":false,"is_disabled":false,"rental_uris":{"android":"levelo://app?vid=3856eb43-8bcb-4e2e-ad79-a6b6821647a3","ios":"levelo://app?vid=3856eb43-8bcb-4e2e-ad79-a6b6821647a3"},"vehicle_type_id":"4","last_reported":1734631966,"current_range_meters":23200,"station_id":"ce4bgt92rcd13ifvqcg0","pricing_plan_id":"cebpf4jnsgd1na2vs0mg"},{"bike_id":"7395e8a9-768c-40bc-8aa0-9cc1fc304561","system_id":"levelo_inurba_marseille","lat":43.27906,"lon":5.3802,"is_reserved":false,"is_disabled":false,"rental_uris":{"android":"levelo://app?vid=7395e8a9-768c-40bc-8aa0-9cc1fc304561","ios":"levelo://app?vid=7395e8a9-768c-40bc-8aa0-9cc1fc304561"},"vehicle_type_id":"4","last_reported":1734631966,"current_range_meters":26000,"station_id":"ce4bhf92rcd13ifvqf50","pricing_plan_id":"cebpf4jnsgd1na2vs0mg"},{"bike_id":"b48839ca-519e-4f23-8217-25a515550f7c","system_id":"levelo_inurba_marseille","lat":43.30539,"lon":5.3656,"is_reserved":false,"is_disabled":false,"rental_uris":{"android":"levelo://app?vid=b48839ca-519e-4f23-8217-25a515550f7c","ios":"levelo://app?vid=b48839ca-519e-4f23-8217-25a515550f7c"},"vehicle_type_id":"4","last_reported":1734631966,"current_range_meters":30400,"station_id":"ce4bgs12rcd13ifvqcag","pricing_plan_id":"cebpf4jnsgd1na2vs0mg"},{"bike_id":"af317d2d-2f32-4600-92e0-884dcf8d67fe","system_id":"levelo_inurba_marseille","lat":43.28728,"lon":5.37929,"is_reserved":false,"is_disabled":false,"rental_uris":{"android":"levelo://app?vid=af317d2d-2f32-4600-92e0-884dcf8d67fe","ios":"levelo://app?vid=af317d2d-2f32-4600-92e0-884dcf8d67fe"},"vehicle_type_id":"4","last_reported":1734631966,"current_range_meters":32400,"station_id":"ce4bh9p2rcd13ifvqec0","pricing_plan_id":"cebpf4jnsgd1na2vs0mg"},{"bike_id":"c74db8c8-c410-49c5-9f2f-32f849d1937b","system_id":"levelo_inurba_marseille","lat":43.27187,"lon":5.40984,"is_reserved":false,"is_disabled":false,"rental_uris":{"android":"levelo://app?vid=c74db8c8-c410-49c5-9f2f-32f849d1937b","ios":"levelo://app?vid=c74db8c8-c410-49c5-9f2f-32f849d1937b"},"vehicle_type_id":"4","last_reported":1734631966,"current_range_meters":27600,"station_id":"ce4bhl12rcd13ifvqgf0","pricing_plan_id":"cebpf4jnsgd1na2vs0mg"},{"bike_id":"c6fc1f35-949d-4dc4-925e-046f798f5cdb","system_id":"levelo_inurba_marseille","lat":43.30406,"lon":5.41289,"is_reserved":false,"is_disabled":false,"rental_uris":{"android":"levelo://app?vid=c6fc1f35-949d-4dc4-925e-046f798f5cdb","ios":"levelo://app?vid=c6fc1f35-949d-4dc4-925e-046f798f5cdb"},"vehicle_type_id":"4","last_reported":1734631966,"current_range_meters":39200,"station_id":"ce4bhop2rcd13ifvqh8g","pricing_plan_id":"cebpf4jnsgd1na2vs0mg"},{"bike_id":"2ea5ebc2-554f-4583-b0a6-c2d852bdc972","system_id":"levelo_inurba_marseille","lat":43.28109,"lon":5.37845,"is_reserved":false,"is_disabled":false,"rental_uris":{"android":"levelo://app?vid=2ea5ebc2-554f-4583-b0a6-c2d852bdc972","ios":"levelo://app?vid=2ea5ebc2-554f-4583-b0a6-c2d852bdc972"},"vehicle_type_id":"4","last_reported":1734631966,"current_range_meters":17200,"station_id":"ce4bha12rcd13ifvqee0","pricing_plan_id":"cebpf4jnsgd1na2vs0mg"},{"bike_id":"cc91e18c-31a1-4d61-8bec-2d478014f9b7","system_id":"levelo_inurba_marseille","lat":43.27373,"lon":5.36253,"is_reserved":false,"is_disabled":false,"rental_uris":{"android":"levelo://app?vid=cc91e18c-31a1-4d61-8bec-2d478014f9b7","ios":"levelo://app?vid=cc91e18c-31a1-4d61-8bec-2d478014f9b7"},"vehicle_type_id":"4","last_reported":1734631966,"current_range_meters":32800,"station_id":"ce4bhbh2rcd13ifvqeo0","pricing_plan_id":"cebpf4jnsgd1na2vs0mg"},{"bike_id":"05687471-7a8f-41c9-9ee9-693097b792e5","system_id":"levelo_inurba_marseille","lat":43.26682,"lon":5.38269,"is_reserved":false,"is_disabled":false,"rental_uris":{"android":"levelo://app?vid=05687471-7a8f-41c9-9ee9-693097b792e5","ios":"levelo://app?vid=05687471-7a8f-41c9-9ee9-693097b792e5"},"vehicle_type_id":"4","last_reported":1734631966,"current_range_meters":9600,"station_id":"ce4bhg92rcd13ifvqf90","pricing_plan_id":"cebpf4jnsgd1na2vs0mg"},{"bike_id":"494c8398-822e-42ee-a7f1-dfd664d1fba7","system_id":"levelo_inurba_marseille","lat":43.23186,"lon":5.35552,"is_reserved":false,"is_disabled":false,"rental_uris":{"android":"levelo://app?vid=494c8398-822e-42ee-a7f1-dfd664d1fba7","ios":"levelo://app?vid=494c8398-822e-42ee-a7f1-dfd664d1fba7"},"vehicle_type_id":"4","last_reported":1734631966,"current_range_meters":38000,"station_id":"ce4bhu92rcd13ifvqi70","pricing_plan_id":"cebpf4jnsgd1na2vs0mg"},{"bike_id":"3eeef076-36ce-4267-9106-748a65b74fb0","system_id":"levelo_inurba_marseille","lat":43.29534,"lon":5.39044,"is_reserved":false,"is_disabled":false,"rental_uris":{"android":"levelo://app?vid=3eeef076-36ce-4267-9106-748a65b74fb0","ios":"levelo://app?vid=3eeef076-36ce-4267-9106-748a65b74fb0"},"vehicle_type_id":"4","last_reported":1734631966,"current_range_meters":5600,"station_id":"ce4bh3p2rcd13ifvqdp0","pricing_plan_id":"cebpf4jnsgd1na2vs0mg"},{"bike_id":"970c3cae-63eb-4640-97fb-bfcc85f94c35","system_id":"levelo_inurba_marseille","lat":43.30954,"lon":5.39032,"is_reserved":false,"is_disabled":false,"rental_uris":{"android":"levelo://app?vid=970c3cae-63eb-4640-97fb-bfcc85f94c35","ios":"levelo://app?vid=970c3cae-63eb-4640-97fb-bfcc85f94c35"},"vehicle_type_id":"4","last_reported":1734631966,"current_range_meters":35600,"station_id":"ce4bgup2rcd13ifvqco0","pricing_plan_id":"cebpf4jnsgd1na2vs0mg"},{"bike_id":"3c413c58-d255-428b-86c8-72567e764cd9","system_id":"levelo_inurba_marseille","lat":43.2846,"lon":5.35884,"is_reserved":false,"is_disabled":false,"rental_uris":{"android":"levelo://app?vid=3c413c58-d255-428b-86c8-72567e764cd9","ios":"levelo://app?vid=3c413c58-d255-428b-86c8-72567e764cd9"},"vehicle_type_id":"4","last_reported":1734631966,"current_range_meters":17600,"station_id":"ce4bhah2rcd13ifvqei0","pricing_plan_id":"cebpf4jnsgd1na2vs0mg"},{"bike_id":"9d2aefec-f4a3-4a23-a13a-c09b46ffe2e4","system_id":"levelo_inurba_marseille","lat":43.31194,"lon":5.36727,"is_reserved":false,"is_disabled":false,"rental_uris":{"android":"levelo://app?vid=9d2aefec-f4a3-4a23-a13a-c09b46ffe2e4","ios":"levelo://app?vid=9d2aefec-f4a3-4a23-a13a-c09b46ffe2e4"},"vehicle_type_id":"4","last_reported":1734631966,"current_range_meters":29600,"station_id":"","pricing_plan_id":"cebpf4jnsgd1na2vs0mg"},{"bike_id":"5e556f75-f981-46bd-aec5-111dfa2b08fd","system_id":"levelo_inurba_marseille","lat":43.30098,"lon":5.39072,"is_reserved":false,"is_disabled":false,"rental_uris":{"android":"levelo://app?vid=5e556f75-f981-46bd-aec5-111dfa2b08fd","ios":"levelo://app?vid=5e556f75-f981-46bd-aec5-111dfa2b08fd"},"vehicle_type_id":"4","last_reported":1734631966,"current_range_meters":4800,"station_id":"ce4bh192rcd13ifvqdb0","pricing_plan_id":"cebpf4jnsgd1na2vs0mg"},{"bike_id":"794fb0a7-b562-4d31-b641-c26d11a14433","system_id":"levelo_inurba_marseille","lat":43.29001,"lon":5.35614,"is_reserved":false,"is_disabled":false,"rental_uris":{"android":"levelo://app?vid=794fb0a7-b562-4d31-b641-c26d11a14433","ios":"levelo://app?vid=794fb0a7-b562-4d31-b641-c26d11a14433"},"vehicle_type_id":"4","last_reported":1734631966,"current_range_meters":33200,"station_id":"ce4bhb92rcd13ifvqen0","pricing_plan_id":"cebpf4jnsgd1na2vs0mg"},{"bike_id":"41360683-0f69-4c62-8b87-4868ce57f8d5","system_id":"levelo_inurba_marseille","lat":43.31789,"lon":5.37269,"is_reserved":false,"is_disabled":false,"rental_uris":{"android":"levelo://app?vid=41360683-0f69-4c62-8b87-4868ce57f8d5","ios":"levelo://app?vid=41360683-0f69-4c62-8b87-4868ce57f8d5"},"vehicle_type_id":"4","last_reported":1734631966,"current_range_meters":16400,"station_id":"","pricing_plan_id":"cebpf4jnsgd1na2vs0mg"},{"bike_id":"a2eba22b-b0ee-4005-9bf3-576bb458d391","system_id":"levelo_inurba_marseille","lat":43.279651,"lon":5.387544,"is_reserved":false,"is_disabled":true,"rental_uris":{"android":"levelo://app?vid=a2eba22b-b0ee-4005-9bf3-576bb458d391","ios":"levelo://app?vid=a2eba22b-b0ee-4005-9bf3-576bb458d391"},"vehicle_type_id":"4","last_reported":1734631966,"current_range_meters":0,"station_id":"","pricing_plan_id":"cebpf4jnsgd1na2vs0mg"},{"bike_id":"e8f46899-9716-4dec-9dd1-15c7f835306e","system_id":"levelo_inurba_marseille","lat":43.29871,"lon":5.3973,"is_reserved":false,"is_disabled":false,"rental_uris":{"android":"levelo://app?vid=e8f46899-9716-4dec-9dd1-15c7f835306e","ios":"levelo://app?vid=e8f46899-9716-4dec-9dd1-15c7f835306e"},"vehicle_type_id":"4","last_reported":1734631966,"current_range_meters":8800,"station_id":"ce4bh0h2rcd13ifvqd50","pricing_plan_id":"cebpf4jnsgd1na2vs0mg"},{"bike_id":"fcf6f42c-9492-49dd-a9e6-322a50636e12","system_id":"levelo_inurba_marseille","lat":43.31711,"lon":5.3774,"is_reserved":false,"is_disabled":false,"rental_uris":{"android":"levelo://app?vid=fcf6f42c-9492-49dd-a9e6-322a50636e12","ios":"levelo://app?vid=fcf6f42c-9492-49dd-a9e6-322a50636e12"},"vehicle_type_id":"4","last_reported":1734631966,"current_range_meters":15200,"station_id":"ce4bgth2rcd13ifvqch0","pricing_plan_id":"cebpf4jnsgd1na2vs0mg"},{"bike_id":"6e868a60-9f88-474e-adb5-72cc44996f9b","system_id":"levelo_inurba_marseille","lat":43.29534,"lon":5.37499,"is_reserved":false,"is_disabled":true,"rental_uris":{"android":"levelo://app?vid=6e868a60-9f88-474e-adb5-72cc44996f9b","ios":"levelo://app?vid=6e868a60-9f88-474e-adb5-72cc44996f9b"},"vehicle_type_id":"4","last_reported":1734631966,"current_range_meters":0,"station_id":"ce4bgkp2rcd13ifvqbmg","pricing_plan_id":"cebpf4jnsgd1na2vs0mg"},{"bike_id":"faf2f636-dd43-4289-af5f-b52114e55865","system_id":"levelo_inurba_marseille","lat":43.29188,"lon":5.39319,"is_reserved":false,"is_disabled":false,"rental_uris":{"android":"levelo://app?vid=faf2f636-dd43-4289-af5f-b52114e55865","ios":"levelo://app?vid=faf2f636-dd43-4289-af5f-b52114e55865"},"vehicle_type_id":"4","last_reported":1734631966,"current_range_meters":25200,"station_id":"ce4bh192rcd13ifvqdd0","pricing_plan_id":"cebpf4jnsgd1na2vs0mg"},{"bike_id":"dac1e890-1101-442b-bc00-cf32b62a9a46","system_id":"levelo_inurba_marseille","lat":43.29023,"lon":5.38649,"is_reserved":false,"is_disabled":true,"rental_uris":{"android":"levelo://app?vid=dac1e890-1101-442b-bc00-cf32b62a9a46","ios":"levelo://app?vid=dac1e890-1101-442b-bc00-cf32b62a9a46"},"vehicle_type_id":"4","last_reported":1734631966,"current_range_meters":0,"station_id":"ce4bh4p2rcd13ifvqe0g","pricing_plan_id":"cebpf4jnsgd1na2vs0mg"},{"bike_id":"f384362e-dca0-4d89-b509-4071c545130d","system_id":"levelo_inurba_marseille","lat":43.26561,"lon":5.37281,"is_reserved":false,"is_disabled":false,"rental_uris":{"android":"levelo://app?vid=f384362e-dca0-4d89-b509-4071c545130d","ios":"levelo://app?vid=f384362e-dca0-4d89-b509-4071c545130d"},"vehicle_type_id":"4","last_reported":1734631966,"current_range_meters":12800,"station_id":"ce4bhg12rcd13ifvqf70","pricing_plan_id":"cebpf4jnsgd1na2vs0mg"},{"bike_id":"089addf8-f69a-44fc-bb82-328b081893e6","system_id":"levelo_inurba_marseille","lat":43.28704,"lon":5.39992,"is_reserved":false,"is_disabled":false,"rental_uris":{"android":"levelo://app?vid=089addf8-f69a-44fc-bb82-328b081893e6","ios":"levelo://app?vid=089addf8-f69a-44fc-bb82-328b081893e6"},"vehicle_type_id":"4","last_reported":1734631966,"current_range_meters":9600,"station_id":"ce4bho92rcd13ifvqh3g","pricing_plan_id":"cebpf4jnsgd1na2vs0mg"},{"bike_id":"ac7c5f56-daad-496c-965f-9103737000e8","system_id":"levelo_inurba_marseille","lat":43.23973,"lon":5.36629,"is_reserved":false,"is_disabled":false,"rental_uris":{"android":"levelo://app?vid=ac7c5f56-daad-496c-965f-9103737000e8","ios":"levelo://app?vid=ac7c5f56-daad-496c-965f-9103737000e8"},"vehicle_type_id":"4","last_reported":1734631966,"current_range_meters":38800,"station_id":"ce4bhi12rcd13ifvqfp0","pricing_plan_id":"cebpf4jnsgd1na2vs0mg"},{"bike_id":"faed9d38-3eca-4d87-ad5b-fc892a94ac65","system_id":"levelo_inurba_marseille","lat":43.31259,"lon":5.4016,"is_reserved":false,"is_disabled":false,"rental_uris":{"android":"levelo://app?vid=faed9d38-3eca-4d87-ad5b-fc892a94ac65","ios":"levelo://app?vid=faed9d38-3eca-4d87-ad5b-fc892a94ac65"},"vehicle_type_id":"4","last_reported":1734631966,"current_range_meters":38800,"station_id":"ce4bh092rcd13ifvqd30","pricing_plan_id":"cebpf4jnsgd1na2vs0mg"},{"bike_id":"7633ae2b-5564-48f0-8687-222ed04d9f97","system_id":"levelo_inurba_marseille","lat":43.29267,"lon":5.38446,"is_reserved":false,"is_disabled":false,"rental_uris":{"android":"levelo://app?vid=7633ae2b-5564-48f0-8687-222ed04d9f97","ios":"levelo://app?vid=7633ae2b-5564-48f0-8687-222ed04d9f97"},"vehicle_type_id":"4","last_reported":1734631966,"current_range_meters":6400,"station_id":"ce4bh692rcd13ifvqea0","pricing_plan_id":"cebpf4jnsgd1na2vs0mg"},{"bike_id":"0cef6d55-09da-4dff-80ee-facea058c7a5","system_id":"levelo_inurba_marseille","lat":43.30055,"lon":5.36969,"is_reserved":false,"is_disabled":false,"rental_uris":{"android":"levelo://app?vid=0cef6d55-09da-4dff-80ee-facea058c7a5","ios":"levelo://app?vid=0cef6d55-09da-4dff-80ee-facea058c7a5"},"vehicle_type_id":"4","last_reported":1734631966,"current_range_meters":32000,"station_id":"","pricing_plan_id":"cebpf4jnsgd1na2vs0mg"},{"bike_id":"9aa2e452-a952-4887-a12a-c0da4e70ee8d","system_id":"levelo_inurba_marseille","lat":43.29894,"lon":5.43656,"is_reserved":false,"is_disabled":false,"rental_uris":{"android":"levelo://app?vid=9aa2e452-a952-4887-a12a-c0da4e70ee8d","ios":"levelo://app?vid=9aa2e452-a952-4887-a12a-c0da4e70ee8d"},"vehicle_type_id":"4","last_reported":1734631966,"current_range_meters":20400,"station_id":"ce4bhpp2rcd13ifvqhfg","pricing_plan_id":"cebpf4jnsgd1na2vs0mg"},{"bike_id":"1807b102-d76c-4ffd-9b14-4fe475622f37","system_id":"levelo_inurba_marseille","lat":43.29556,"lon":5.42293,"is_reserved":false,"is_disabled":false,"rental_uris":{"android":"levelo://app?vid=1807b102-d76c-4ffd-9b14-4fe475622f37","ios":"levelo://app?vid=1807b102-d76c-4ffd-9b14-4fe475622f37"},"vehicle_type_id":"4","last_reported":1734631966,"current_range_meters":17600,"station_id":"ce4bhph2rcd13ifvqhdg","pricing_plan_id":"cebpf4jnsgd1na2vs0mg"},{"bike_id":"82e871c2-4c51-4d2e-a299-8cecae13269f","system_id":"levelo_inurba_marseille","lat":43.31488,"lon":5.3731,"is_reserved":false,"is_disabled":false,"rental_uris":{"android":"levelo://app?vid=82e871c2-4c51-4d2e-a299-8cecae13269f","ios":"levelo://app?vid=82e871c2-4c51-4d2e-a299-8cecae13269f"},"vehicle_type_id":"4","last_reported":1734631966,"current_range_meters":33600,"station_id":"ce4bgt12rcd13ifvqcd0","pricing_plan_id":"cebpf4jnsgd1na2vs0mg"},{"bike_id":"c43a3caa-be5b-42ef-b51e-c59d303e04f3","system_id":"levelo_inurba_marseille","lat":43.24181,"lon":5.39728,"is_reserved":false,"is_disabled":true,"rental_uris":{"android":"levelo://app?vid=c43a3caa-be5b-42ef-b51e-c59d303e04f3","ios":"levelo://app?vid=c43a3caa-be5b-42ef-b51e-c59d303e04f3"},"vehicle_type_id":"4","last_reported":1734631966,"current_range_meters":0,"station_id":"ce4bhn12rcd13ifvqgpg","pricing_plan_id":"cebpf4jnsgd1na2vs0mg"},{"bike_id":"9c06e09d-ce93-405f-a47b-d0728224451e","system_id":"levelo_inurba_marseille","lat":43.25928,"lon":5.40901,"is_reserved":false,"is_disabled":false,"rental_uris":{"android":"levelo://app?vid=9c06e09d-ce93-405f-a47b-d0728224451e","ios":"levelo://app?vid=9c06e09d-ce93-405f-a47b-d0728224451e"},"vehicle_type_id":"4","last_reported":1734631966,"current_range_meters":37600,"station_id":"ce4bhm92rcd13ifvqglg","pricing_plan_id":"cebpf4jnsgd1na2vs0mg"},{"bike_id":"7b305c6f-361b-46c6-bcc8-6b2d9fd084fa","system_id":"levelo_inurba_marseille","lat":43.28119,"lon":5.4422,"is_reserved":false,"is_disabled":true,"rental_uris":{"android":"levelo://app?vid=7b305c6f-361b-46c6-bcc8-6b2d9fd084fa","ios":"levelo://app?vid=7b305c6f-361b-46c6-bcc8-6b2d9fd084fa"},"vehicle_type_id":"4","last_reported":1734631966,"current_range_meters":0,"station_id":"","pricing_plan_id":"cebpf4jnsgd1na2vs0mg"},{"bike_id":"dbe9307b-464f-4fed-a944-437157b6e7ef","system_id":"levelo_inurba_marseille","lat":43.31113,"lon":5.37762,"is_reserved":false,"is_disabled":false,"rental_uris":{"android":"levelo://app?vid=dbe9307b-464f-4fed-a944-437157b6e7ef","ios":"levelo://app?vid=dbe9307b-464f-4fed-a944-437157b6e7ef"},"vehicle_type_id":"4","last_reported":1734631966,"current_range_meters":37600,"station_id":"ce4bgt92rcd13ifvqcg0","pricing_plan_id":"cebpf4jnsgd1na2vs0mg"},{"bike_id":"f01b13b0-8cb1-4acc-adb1-31022ada7063","system_id":"levelo_inurba_marseille","lat":43.28064,"lon":5.3964,"is_reserved":false,"is_disabled":false,"rental_uris":{"android":"levelo://app?vid=f01b13b0-8cb1-4acc-adb1-31022ada7063","ios":"levelo://app?vid=f01b13b0-8cb1-4acc-adb1-31022ada7063"},"vehicle_type_id":"4","last_reported":1734631966,"current_range_meters":39200,"station_id":"ce4bho12rcd13ifvqh2g","pricing_plan_id":"cebpf4jnsgd1na2vs0mg"},{"bike_id":"c81d12c0-b3b4-4b91-a004-bb72046d4aaa","system_id":"levelo_inurba_marseille","lat":43.299428,"lon":5.375165,"is_reserved":false,"is_disabled":false,"rental_uris":{"android":"levelo://app?vid=c81d12c0-b3b4-4b91-a004-bb72046d4aaa","ios":"levelo://app?vid=c81d12c0-b3b4-4b91-a004-bb72046d4aaa"},"vehicle_type_id":"4","last_reported":1734631966,"current_range_meters":24000,"station_id":"ce4bgjh2rcd13ifvqbg0","pricing_plan_id":"cebpf4jnsgd1na2vs0mg"},{"bike_id":"5708ca14-d455-4fd1-b578-c33494ea5cae","system_id":"levelo_inurba_marseille","lat":43.31762,"lon":5.3901,"is_reserved":false,"is_disabled":false,"rental_uris":{"android":"levelo://app?vid=5708ca14-d455-4fd1-b578-c33494ea5cae","ios":"levelo://app?vid=5708ca14-d455-4fd1-b578-c33494ea5cae"},"vehicle_type_id":"4","last_reported":1734631966,"current_range_meters":39200,"station_id":"ce4bhqp2rcd13ifvqhng","pricing_plan_id":"cebpf4jnsgd1na2vs0mg"},{"bike_id":"58460439-34c4-4ffd-a810-879458f6621a","system_id":"levelo_inurba_marseille","lat":43.23177,"lon":5.39973,"is_reserved":false,"is_disabled":false,"rental_uris":{"android":"levelo://app?vid=58460439-34c4-4ffd-a810-879458f6621a","ios":"levelo://app?vid=58460439-34c4-4ffd-a810-879458f6621a"},"vehicle_type_id":"4","last_reported":1734631966,"current_range_meters":24400,"station_id":"ce4bhn12rcd13ifvqgqg","pricing_plan_id":"cebpf4jnsgd1na2vs0mg"},{"bike_id":"df2bf2aa-dff9-475f-91c3-5688aec4bd4e","system_id":"levelo_inurba_marseille","lat":43.29845,"lon":5.36275,"is_reserved":false,"is_disabled":false,"rental_uris":{"android":"levelo://app?vid=df2bf2aa-dff9-475f-91c3-5688aec4bd4e","ios":"levelo://app?vid=df2bf2aa-dff9-475f-91c3-5688aec4bd4e"},"vehicle_type_id":"4","last_reported":1734631966,"current_range_meters":19200,"station_id":"ce4bgpp2rcd13ifvqc3g","pricing_plan_id":"cebpf4jnsgd1na2vs0mg"},{"bike_id":"77d10735-f2fa-4540-9cdc-117dc74de97c","system_id":"levelo_inurba_marseille","lat":43.29047,"lon":5.39953,"is_reserved":false,"is_disabled":true,"rental_uris":{"android":"levelo://app?vid=77d10735-f2fa-4540-9cdc-117dc74de97c","ios":"levelo://app?vid=77d10735-f2fa-4540-9cdc-117dc74de97c"},"vehicle_type_id":"4","last_reported":1734631966,"current_range_meters":38400,"station_id":"","pricing_plan_id":"cebpf4jnsgd1na2vs0mg"},{"bike_id":"88237930-c70e-4caa-be6f-f0bba643aca6","system_id":"levelo_inurba_marseille","lat":43.29037,"lon":5.37557,"is_reserved":false,"is_disabled":true,"rental_uris":{"android":"levelo://app?vid=88237930-c70e-4caa-be6f-f0bba643aca6","ios":"levelo://app?vid=88237930-c70e-4caa-be6f-f0bba643aca6"},"vehicle_type_id":"4","last_reported":1734631966,"current_range_meters":24400,"station_id":"ce4bh692rcd13ifvqe90","pricing_plan_id":"cebpf4jnsgd1na2vs0mg"},{"bike_id":"2019d6eb-415d-4089-9711-e8582452f1de","system_id":"levelo_inurba_marseille","lat":43.25113,"lon":5.40323,"is_reserved":false,"is_disabled":false,"rental_uris":{"android":"levelo://app?vid=2019d6eb-415d-4089-9711-e8582452f1de","ios":"levelo://app?vid=2019d6eb-415d-4089-9711-e8582452f1de"},"vehicle_type_id":"4","last_reported":1734631966,"current_range_meters":18000,"station_id":"ce4bhlh2rcd13ifvqgig","pricing_plan_id":"cebpf4jnsgd1na2vs0mg"},{"bike_id":"22babcb9-1c5a-4c15-b73a-9f654d9f523c","system_id":"levelo_inurba_marseille","lat":43.2742,"lon":5.39405,"is_reserved":false,"is_disabled":false,"rental_uris":{"android":"levelo://app?vid=22babcb9-1c5a-4c15-b73a-9f654d9f523c","ios":"levelo://app?vid=22babcb9-1c5a-4c15-b73a-9f654d9f523c"},"vehicle_type_id":"4","last_reported":1734631966,"current_range_meters":18800,"station_id":"ce4bhdp2rcd13ifvqf20","pricing_plan_id":"cebpf4jnsgd1na2vs0mg"},{"bike_id":"ff294bb6-daea-4ec9-bd9e-91b7fd33b502","system_id":"levelo_inurba_marseille","lat":43.29524,"lon":5.39405,"is_reserved":false,"is_disabled":false,"rental_uris":{"android":"levelo://app?vid=ff294bb6-daea-4ec9-bd9e-91b7fd33b502","ios":"levelo://app?vid=ff294bb6-daea-4ec9-bd9e-91b7fd33b502"},"vehicle_type_id":"4","last_reported":1734631966,"current_range_meters":38400,"station_id":"ce4bh292rcd13ifvqdf0","pricing_plan_id":"cebpf4jnsgd1na2vs0mg"},{"bike_id":"ccfb67ce-43ed-40ea-9a04-ec1ef1eaa6bf","system_id":"levelo_inurba_marseille","lat":43.25581,"lon":5.38235,"is_reserved":false,"is_disabled":false,"rental_uris":{"android":"levelo://app?vid=ccfb67ce-43ed-40ea-9a04-ec1ef1eaa6bf","ios":"levelo://app?vid=ccfb67ce-43ed-40ea-9a04-ec1ef1eaa6bf"},"vehicle_type_id":"4","last_reported":1734631966,"current_range_meters":38800,"station_id":"ce4bhih2rcd13ifvqfs0","pricing_plan_id":"cebpf4jnsgd1na2vs0mg"},{"bike_id":"2676afe2-801f-4c94-9901-348bd3b213ea","system_id":"levelo_inurba_marseille","lat":43.29558,"lon":5.42281,"is_reserved":false,"is_disabled":true,"rental_uris":{"android":"levelo://app?vid=2676afe2-801f-4c94-9901-348bd3b213ea","ios":"levelo://app?vid=2676afe2-801f-4c94-9901-348bd3b213ea"},"vehicle_type_id":"4","last_reported":1734631966,"current_range_meters":38800,"station_id":"ce4bhph2rcd13ifvqhdg","pricing_plan_id":"cebpf4jnsgd1na2vs0mg"},{"bike_id":"f7e5964c-9c25-4f18-837b-060b04c95bde","system_id":"levelo_inurba_marseille","lat":43.27175,"lon":5.40996,"is_reserved":false,"is_disabled":false,"rental_uris":{"android":"levelo://app?vid=f7e5964c-9c25-4f18-837b-060b04c95bde","ios":"levelo://app?vid=f7e5964c-9c25-4f18-837b-060b04c95bde"},"vehicle_type_id":"4","last_reported":1734631966,"current_range_meters":29600,"station_id":"ce4bhl12rcd13ifvqgf0","pricing_plan_id":"cebpf4jnsgd1na2vs0mg"},{"bike_id":"cdf471f3-b809-4e23-aaae-43416e3184b5","system_id":"levelo_inurba_marseille","lat":43.22933,"lon":5.35376,"is_reserved":false,"is_disabled":false,"rental_uris":{"android":"levelo://app?vid=cdf471f3-b809-4e23-aaae-43416e3184b5","ios":"levelo://app?vid=cdf471f3-b809-4e23-aaae-43416e3184b5"},"vehicle_type_id":"4","last_reported":1734631966,"current_range_meters":12000,"station_id":"cpo3532slgdg3j2ikp40","pricing_plan_id":"cebpf4jnsgd1na2vs0mg"},{"bike_id":"786f634c-2a3c-4e76-bb2b-ec2bf60bab7d","system_id":"levelo_inurba_marseille","lat":43.29003,"lon":5.35621,"is_reserved":false,"is_disabled":false,"rental_uris":{"android":"levelo://app?vid=786f634c-2a3c-4e76-bb2b-ec2bf60bab7d","ios":"levelo://app?vid=786f634c-2a3c-4e76-bb2b-ec2bf60bab7d"},"vehicle_type_id":"4","last_reported":1734631966,"current_range_meters":11200,"station_id":"ce4bhb92rcd13ifvqen0","pricing_plan_id":"cebpf4jnsgd1na2vs0mg"},{"bike_id":"2d2370f9-6889-4402-98a7-cd8b2890d8da","system_id":"levelo_inurba_marseille","lat":43.25496,"lon":5.37669,"is_reserved":false,"is_disabled":false,"rental_uris":{"android":"levelo://app?vid=2d2370f9-6889-4402-98a7-cd8b2890d8da","ios":"levelo://app?vid=2d2370f9-6889-4402-98a7-cd8b2890d8da"},"vehicle_type_id":"4","last_reported":1734631966,"current_range_meters":38800,"station_id":"ce4bhh12rcd13ifvqff0","pricing_plan_id":"cebpf4jnsgd1na2vs0mg"},{"bike_id":"f20aaf65-b74f-4d3b-ba9f-feca160b76b8","system_id":"levelo_inurba_marseille","lat":43.2803,"lon":5.36948,"is_reserved":false,"is_disabled":false,"rental_uris":{"android":"levelo://app?vid=f20aaf65-b74f-4d3b-ba9f-feca160b76b8","ios":"levelo://app?vid=f20aaf65-b74f-4d3b-ba9f-feca160b76b8"},"vehicle_type_id":"4","last_reported":1734631966,"current_range_meters":20400,"station_id":"ce4bha12rcd13ifvqef0","pricing_plan_id":"cebpf4jnsgd1na2vs0mg"},{"bike_id":"4aa9549c-cf58-4c72-bf94-c72f06622e73","system_id":"levelo_inurba_marseille","lat":43.33026,"lon":5.39039,"is_reserved":false,"is_disabled":false,"rental_uris":{"android":"levelo://app?vid=4aa9549c-cf58-4c72-bf94-c72f06622e73","ios":"levelo://app?vid=4aa9549c-cf58-4c72-bf94-c72f06622e73"},"vehicle_type_id":"4","last_reported":1734631966,"current_range_meters":36000,"station_id":"ce4bhr92rcd13ifvqhrg","pricing_plan_id":"cebpf4jnsgd1na2vs0mg"},{"bike_id":"1c4127b9-486f-41b4-8296-37dda68e98bf","system_id":"levelo_inurba_marseille","lat":43.23174,"lon":5.35556,"is_reserved":false,"is_disabled":false,"rental_uris":{"android":"levelo://app?vid=1c4127b9-486f-41b4-8296-37dda68e98bf","ios":"levelo://app?vid=1c4127b9-486f-41b4-8296-37dda68e98bf"},"vehicle_type_id":"4","last_reported":1734631966,"current_range_meters":30800,"station_id":"ce4bhu92rcd13ifvqi70","pricing_plan_id":"cebpf4jnsgd1na2vs0mg"},{"bike_id":"aa6fc902-fe8c-4261-a42a-3b1efb54a8a2","system_id":"levelo_inurba_marseille","lat":43.294201,"lon":5.386081,"is_reserved":false,"is_disabled":false,"rental_uris":{"android":"levelo://app?vid=aa6fc902-fe8c-4261-a42a-3b1efb54a8a2","ios":"levelo://app?vid=aa6fc902-fe8c-4261-a42a-3b1efb54a8a2"},"vehicle_type_id":"4","last_reported":1734631966,"current_range_meters":14000,"station_id":"ce4bh2h2rcd13ifvqdh0","pricing_plan_id":"cebpf4jnsgd1na2vs0mg"},{"bike_id":"61e14a9c-4483-4c27-af51-60c96e305718","system_id":"levelo_inurba_marseille","lat":43.29215,"lon":5.36074,"is_reserved":false,"is_disabled":false,"rental_uris":{"android":"levelo://app?vid=61e14a9c-4483-4c27-af51-60c96e305718","ios":"levelo://app?vid=61e14a9c-4483-4c27-af51-60c96e305718"},"vehicle_type_id":"4","last_reported":1734631966,"current_range_meters":9600,"station_id":"ce4bhbh2rcd13ifvqeqg","pricing_plan_id":"cebpf4jnsgd1na2vs0mg"},{"bike_id":"be9b3e15-aa8c-4749-964d-fdb88f0b6ce5","system_id":"levelo_inurba_marseille","lat":43.26503,"lon":5.39533,"is_reserved":false,"is_disabled":false,"rental_uris":{"android":"levelo://app?vid=be9b3e15-aa8c-4749-964d-fdb88f0b6ce5","ios":"levelo://app?vid=be9b3e15-aa8c-4749-964d-fdb88f0b6ce5"},"vehicle_type_id":"4","last_reported":1734631966,"current_range_meters":27200,"station_id":"ce4bhi12rcd13ifvqfq0","pricing_plan_id":"cebpf4jnsgd1na2vs0mg"},{"bike_id":"86eb6351-0780-415a-9d54-82a6230eac5f","system_id":"levelo_inurba_marseille","lat":43.31321,"lon":5.39687,"is_reserved":false,"is_disabled":false,"rental_uris":{"android":"levelo://app?vid=86eb6351-0780-415a-9d54-82a6230eac5f","ios":"levelo://app?vid=86eb6351-0780-415a-9d54-82a6230eac5f"},"vehicle_type_id":"4","last_reported":1734631966,"current_range_meters":30800,"station_id":"ce4bgvp2rcd13ifvqcu0","pricing_plan_id":"cebpf4jnsgd1na2vs0mg"},{"bike_id":"2268ad11-716a-42db-8687-2242cb765319","system_id":"levelo_inurba_marseille","lat":43.29276,"lon":5.36843,"is_reserved":false,"is_disabled":false,"rental_uris":{"android":"levelo://app?vid=2268ad11-716a-42db-8687-2242cb765319","ios":"levelo://app?vid=2268ad11-716a-42db-8687-2242cb765319"},"vehicle_type_id":"4","last_reported":1734631966,"current_range_meters":29600,"station_id":"ce4bhbp2rcd13ifvqesg","pricing_plan_id":"cebpf4jnsgd1na2vs0mg"},{"bike_id":"435450a2-1d6d-46d0-a7eb-adacb3462658","system_id":"levelo_inurba_marseille","lat":43.28721,"lon":5.36106,"is_reserved":false,"is_disabled":false,"rental_uris":{"android":"levelo://app?vid=435450a2-1d6d-46d0-a7eb-adacb3462658","ios":"levelo://app?vid=435450a2-1d6d-46d0-a7eb-adacb3462658"},"vehicle_type_id":"4","last_reported":1734631966,"current_range_meters":20400,"station_id":"cki0cbj6b192h4jlfktg","pricing_plan_id":"cebpf4jnsgd1na2vs0mg"},{"bike_id":"48b0b97f-3efa-4686-8235-f5f3853251b6","system_id":"levelo_inurba_marseille","lat":43.232,"lon":5.39939,"is_reserved":false,"is_disabled":false,"rental_uris":{"android":"levelo://app?vid=48b0b97f-3efa-4686-8235-f5f3853251b6","ios":"levelo://app?vid=48b0b97f-3efa-4686-8235-f5f3853251b6"},"vehicle_type_id":"4","last_reported":1734631966,"current_range_meters":19200,"station_id":"","pricing_plan_id":"cebpf4jnsgd1na2vs0mg"},