{"last_updated":1744189891,"ttl":60,"version":"2.2","data":{"bikes":[{"bike_id":"0fbdf58d-4917-4d24-8b4b-9c66b7b96e08","system_id":"levelo_inurba_marseille","lat":43.31756,"lon":5.39872,"is_reserved":false,"is_disabled":false,"rental_uris":{"android":"levelo://app?vid=0fbdf58d-4917-4d24-8b4b-9c66b7b96e08","ios":"levelo://app?vid=0fbdf58d-4917-4d24-8b4b-9c66b7b96e08"},"vehicle_type_id":"4","last_reported":1744189892,"current_range_meters":3200,"station_id":"","pricing_plan_id":"cebpf4jnsgd1na2vs0mg"},{"bike_id":"01c10d9c-6749-4cb0-95a9-9e7a13065362","system_id":"levelo_inurba_marseille","lat":43.25929,"lon":5.4087,"is_reserved":false,"is_disabled":true,"rental_uris":{"android":"levelo://app?vid=01c10d9c-6749-4cb0-95a9-9e7a13065362","ios":"levelo://app?vid=01c10d9c-6749-4cb0-95a9-9e7a13065362"},"vehicle_type_id":"4","last_reported":1744189892,"current_range_meters":3600,"station_id":"ce4bhm92rcd13ifvqglg","pricing_plan_id":"cebpf4jnsgd1na2vs0mg"},{"bike_id":"52a3a737-d744-44aa-901d-daf29012d3d4","system_id":"levelo_inurba_marseille","lat":43.30909,"lon":5.37067,"is_reserved":false,"is_disabled":false,"rental_uris":{"android":"levelo://app?vid=52a3a737-d744-44aa-901d-daf29012d3d4","ios":"levelo://app?vid=52a3a737-d744-44aa-901d-daf29012d3d4"},"vehicle_type_id":"4","last_reported":1744189892,"current_range_meters":3600,"station_id":"","pricing_plan_id":"cebpf4jnsgd1na2vs0mg"},{"bike_id":"140843da-0edb-46c3-ad5b-c32ab706b8ed","system_id":"levelo_inurba_marseille","lat":43.241877,"lon":5.397195,"is_reserved":false,"is_disabled":false,"rental_uris":{"android":"levelo://app?vid=140843da-0edb-46c3-ad5b-c32ab706b8ed","ios":"levelo://app?vid=140843da-0edb-46c3-ad5b-c32ab706b8ed"},"vehicle_type_id":"4","last_reported":1744189892,"current_range_meters":4000,"station_id":"ce4bhn12rcd13ifvqgpg","pricing_plan_id":"cebpf4jnsgd1na2vs0mg"},{"bike_id":"17448e3a-2772-4a86-809a-b6620b9255b3","system_id":"levelo_inurba_marseille","lat":43.2979,"lon":5.37107,"is_reserved":false,"is_disabled":false,"rental_uris":{"android":"levelo://app?vid=17448e3a-2772-4a86-809a-b6620b9255b3","ios":"levelo://app?vid=17448e3a-2772-4a86-809a-b6620b9255b3"},"vehicle_type_id":"4","last_reported":1744189892,"current_range_meters":3600,"station_id":"ce4bgop2rcd13ifvqc1g","pricing_plan_id":"cebpf4jnsgd1na2vs0mg"},{"bike_id":"fe15bbb3-41d5-44a5-be9a-d99b3ed36373","system_id":"levelo_inurba_marseille","lat":43.28462,"lon":5.39192,"is_reserved":false,"is_disabled":false,"rental_uris":{"android":"levelo://app?vid=fe15bbb3-41d5-44a5-be9a-d99b3ed36373","ios":"levelo://app?vid=fe15bbb3-41d5-44a5-be9a-d99b3ed36373"},"vehicle_type_id":"4","last_reported":1744189892,"current_range_meters":4400,"station_id":"ce4bhoh2rcd13ifvqh5g","pricing_plan_id":"cebpf4jnsgd1na2vs0mg"},{"bike_id":"f39be6f5-2f69-4c37-b021-559d20b299a4","system_id":"levelo_inurba_marseille","lat":43.29995,"lon":5.37639,"is_reserved":false,"is_disabled":false,"rental_uris":{"android":"levelo://app?vid=f39be6f5-2f69-4c37-b021-559d20b299a4","ios":"levelo://app?vid=f39be6f5-2f69-4c37-b021-559d20b299a4"},"vehicle_type_id":"4","last_reported":1744189892,"current_range_meters":4400,"station_id":"","pricing_plan_id":"cebpf4jnsgd1na2vs0mg"},{"bike_id":"ecef8e9e-03dc-4612-b74e-b978f92e2873","system_id":"levelo_inurba_marseille","lat":43.30113,"lon":5.3908,"is_reserved":false,"is_disabled":true,"rental_uris":{"android":"levelo://app?vid=ecef8e9e-03dc-4612-b74e-b978f92e2873","ios":"levelo://app?vid=ecef8e9e-03dc-4612-b74e-b978f92e2873"},"vehicle_type_id":"4","last_reported":1744189892,"current_range_meters":4800,"station_id":"ce4bh192rcd13ifvqdb0","pricing_plan_id":"cebpf4jnsgd1na2vs0mg"},{"bike_id":"49da642c-b70c-4589-ad3f-4e9443c79eaf","system_id":"levelo_inurba_marseille","lat":43.31171,"lon":5.38714,"is_reserved":false,"is_disabled":false,"rental_uris":{"android":"levelo://app?vid=49da642c-b70c-4589-ad3f-4e9443c79eaf","ios":"levelo://app?vid=49da642c-b70c-4589-ad3f-4e9443c79eaf"},"vehicle_type_id":"4","last_reported":1744189892,"current_range_meters":4800,"station_id":"ce4bgv12rcd13ifvqcp0","pricing_plan_id":"cebpf4jnsgd1na2vs0mg"},{"bike_id":"4149bf1f-87dd-4535-b3c8-292d5ca859e5","system_id":"levelo_inurba_marseille","lat":43.316999,"lon":5.376991,"is_reserved":false,"is_disabled":false,"rental_uris":{"android":"levelo://app?vid=4149bf1f-87dd-4535-b3c8-292d5ca859e5","ios":"levelo://app?vid=4149bf1f-87dd-4535-b3c8-292d5ca859e5"},"vehicle_type_id":"4","last_reported":1744189892,"current_range_meters":7200,"station_id":"ce4bgth2rcd13ifvqch0","pricing_plan_id":"cebpf4jnsgd1na2vs0mg"},{"bike_id":"8ec6d79c-36b9-4900-8b36-f13bd20cf27a","system_id":"levelo_inurba_marseille","lat":43.26793,"lon":5.3941,"is_reserved":false,"is_disabled":false,"rental_uris":{"android":"levelo://app?vid=8ec6d79c-36b9-4900-8b36-f13bd20cf27a","ios":"levelo://app?vid=8ec6d79c-36b9-4900-8b36-f13bd20cf27a"},"vehicle_type_id":"4","last_reported":1744189892,"current_range_meters":6000,"station_id":"ce4bhh12rcd13ifvqfg0","pricing_plan_id":"cebpf4jnsgd1na2vs0mg"},{"bike_id":"dc73f117-e03b-4495-af0c-079610199aaf","system_id":"levelo_inurba_marseille","lat":43.23155,"lon":5.43719,"is_reserved":false,"is_disabled":false,"rental_uris":{"android":"levelo://app?vid=dc73f117-e03b-4495-af0c-079610199aaf","ios":"levelo://app?vid=dc73f117-e03b-4495-af0c-079610199aaf"},"vehicle_type_id":"4","last_reported":1744189892,"current_range_meters":4400,"station_id":"ce4bhmp2rcd13ifvqgog","pricing_plan_id":"cebpf4jnsgd1na2vs0mg"},{"bike_id":"3576b946-70b3-456f-a60a-d98e227f015c","system_id":"levelo_inurba_marseille","lat":43.30121,"lon":5.38203,"is_reserved":false,"is_disabled":false,"rental_uris":{"android":"levelo://app?vid=3576b946-70b3-456f-a60a-d98e227f015c","ios":"levelo://app?vid=3576b946-70b3-456f-a60a-d98e227f015c"},"vehicle_type_id":"4","last_reported":1744189892,"current_range_meters":5600,"station_id":"","pricing_plan_id":"cebpf4jnsgd1na2vs0mg"},{"bike_id":"b0e70e48-f0ae-4e70-acf1-d92ac7d0b960","system_id":"levelo_inurba_marseille","lat":43.23144,"lon":5.43717,"is_reserved":false,"is_disabled":false,"rental_uris":{"android":"levelo://app?vid=b0e70e48-f0ae-4e70-acf1-d92ac7d0b960","ios":"levelo://app?vid=b0e70e48-f0ae-4e70-acf1-d92ac7d0b960"},"vehicle_type_id":"4","last_reported":1744189892,"current_range_meters":5600,"station_id":"ce4bhmp2rcd13ifvqgog","pricing_plan_id":"cebpf4jnsgd1na2vs0mg"},{"bike_id":"3d5f838b-efd6-4189-86bd-102c4c8368d7","system_id":"levelo_inurba_marseille","lat":43.25946,"lon":5.40862,"is_reserved":false,"is_disabled":false,"rental_uris":{"android":"levelo://app?vid=3d5f838b-efd6-4189-86bd-102c4c8368d7","ios":"levelo://app?vid=3d5f838b-efd6-4189-86bd-102c4c8368d7"},"vehicle_type_id":"4","last_reported":1744189892,"current_range_meters":5600,"station_id":"ce4bhm92rcd13ifvqglg","pricing_plan_id":"cebpf4jnsgd1na2vs0mg"},{"bike_id":"494b5f27-48a4-441e-96f5-f39ac6242e4d","system_id":"levelo_inurba_marseille","lat":43.31124,"lon":5.37772,"is_reserved":false,"is_disabled":false,"rental_uris":{"android":"levelo://app?vid=494b5f27-48a4-441e-96f5-f39ac6242e4d","ios":"levelo://app?vid=494b5f27-48a4-441e-96f5-f39ac6242e4d"},"vehicle_type_id":"4","last_reported":1744189892,"current_range_meters":5600,"station_id":"ce4bgt92rcd13ifvqcg0","pricing_plan_id":"cebpf4jnsgd1na2vs0mg"},{"bike_id":"f964bcbd-12dd-4237-85bf-93d4562a7095","system_id":"levelo_inurba_marseille","lat":43.31105,"lon":5.37762,"is_reserved":false,"is_disabled":false,"rental_uris":{"android":"levelo://app?vid=f964bcbd-12dd-4237-85bf-93d4562a7095","ios":"levelo://app?vid=f964bcbd-12dd-4237-85bf-93d4562a7095"},"vehicle_type_id":"4","last_reported":1744189892,"current_range_meters":5600,"station_id":"ce4bgt92rcd13ifvqcg0","pricing_plan_id":"cebpf4jnsgd1na2vs0mg"},{"bike_id":"61faeab7-d3b1-42ea-8185-a6bb834269b2","system_id":"levelo_inurba_marseille","lat":43.27144,"lon":5.41455,"is_reserved":false,"is_disabled":false,"rental_uris":{"android":"levelo://app?vid=61faeab7-d3b1-42ea-8185-a6bb834269b2","ios":"levelo://app?vid=61faeab7-d3b1-42ea-8185-a6bb834269b2"},"vehicle_type_id":"4","last_reported":1744189892,"current_range_meters":5600,"station_id":"","pricing_plan_id":"cebpf4jnsgd1na2vs0mg"},{"bike_id":"456b79bb-81b6-42d9-a52b-1ca6c839f098","system_id":"levelo_inurba_marseille","lat":43.30414,"lon":5.41281,"is_reserved":false,"is_disabled":true,"rental_uris":{"android":"levelo://app?vid=456b79bb-81b6-42d9-a52b-1ca6c839f098","ios":"levelo://app?vid=456b79bb-81b6-42d9-a52b-1ca6c839f098"},"vehicle_type_id":"4","last_reported":1744189892,"current_range_meters":5600,"station_id":"ce4bhop2rcd13ifvqh8g","pricing_plan_id":"cebpf4jnsgd1na2vs0mg"},{"bike_id":"2e9000dc-6400-4918-a994-dd60039ca96d","system_id":"levelo_inurba_marseille","lat":43.32005,"lon":5.38204,"is_reserved":false,"is_disabled":true,"rental_uris":{"android":"levelo://app?vid=2e9000dc-6400-4918-a994-dd60039ca96d","ios":"levelo://app?vid=2e9000dc-6400-4918-a994-dd60039ca96d"},"vehicle_type_id":"4","last_reported":1744189892,"current_range_meters":5600,"station_id":"ce4bhr12rcd13ifvqhpg","pricing_plan_id":"cebpf4jnsgd1na2vs0mg"},{"bike_id":"10fc07ea-6030-44b7-8566-32aa71628a30","system_id":"levelo_inurba_marseille","lat":43.28616,"lon":5.37074,"is_reserved":false,"is_disabled":false,"rental_uris":{"android":"levelo://app?vid=10fc07ea-6030-44b7-8566-32aa71628a30","ios":"levelo://app?vid=10fc07ea-6030-44b7-8566-32aa71628a30"},"vehicle_type_id":"4","last_reported":1744189892,"current_range_meters":6000,"station_id":"ce4bht12rcd13ifvqi60","pricing_plan_id":"cebpf4jnsgd1na2vs0mg"},{"bike_id":"eeaaf0e5-8e50-4d63-98d5-250a49546479","system_id":"levelo_inurba_marseille","lat":43.29551,"lon":5.37506,"is_reserved":false,"is_disabled":false,"rental_uris":{"android":"levelo://app?vid=eeaaf0e5-8e50-4d63-98d5-250a49546479","ios":"levelo://app?vid=eeaaf0e5-8e50-4d63-98d5-250a49546479"},"vehicle_type_id":"4","last_reported":1744189892,"current_range_meters":6000,"station_id":"ce4bgkp2rcd13ifvqbmg","pricing_plan_id":"cebpf4jnsgd1na2vs0mg"},{"bike_id":"3dacb78c-23e8-43c0-b367-cfdc8b13b4d5","system_id":"levelo_inurba_marseille","lat":43.25909,"lon":5.40873,"is_reserved":false,"is_disabled":false,"rental_uris":{"android":"levelo://app?vid=3dacb78c-23e8-43c0-b367-cfdc8b13b4d5","ios":"levelo://app?vid=3dacb78c-23e8-43c0-b367-cfdc8b13b4d5"},"vehicle_type_id":"4","last_reported":1744189892,"current_range_meters":6000,"station_id":"ce4bhm92rcd13ifvqglg","pricing_plan_id":"cebpf4jnsgd1na2vs0mg"},{"bike_id":"16817800-3a2b-4c2f-9e50-a859de8eef35","system_id":"levelo_inurba_marseille","lat":43.259353,"lon":5.409076,"is_reserved":false,"is_disabled":false,"rental_uris":{"android":"levelo://app?vid=16817800-3a2b-4c2f-9e50-a859de8eef35","ios":"levelo://app?vid=16817800-3a2b-4c2f-9e50-a859de8eef35"},"vehicle_type_id":"4","last_reported":1744189892,"current_range_meters":6000,"station_id":"ce4bhm92rcd13ifvqglg","pricing_plan_id":"cebpf4jnsgd1na2vs0mg"},{"bike_id":"8ce08b29-cdba-4354-aaad-640a8cc15b0d","system_id":"levelo_inurba_marseille","lat":43.30349,"lon":5.41877,"is_reserved":false,"is_disabled":false,"rental_uris":{"android":"levelo://app?vid=8ce08b29-cdba-4354-aaad-640a8cc15b0d","ios":"levelo://app?vid=8ce08b29-cdba-4354-aaad-640a8cc15b0d"},"vehicle_type_id":"4","last_reported":1744189892,"current_range_meters":6000,"station_id":"ce4bhop2rcd13ifvqh7g","pricing_plan_id":"cebpf4jnsgd1na2vs0mg"},{"bike_id":"2bb7d187-ed0f-4817-bad9-d63befccfa11","system_id":"levelo_inurba_marseille","lat":43.29054,"lon":5.40043,"is_reserved":false,"is_disabled":false,"rental_uris":{"android":"levelo://app?vid=2bb7d187-ed0f-4817-bad9-d63befccfa11","ios":"levelo://app?vid=2bb7d187-ed0f-4817-bad9-d63befccfa11"},"vehicle_type_id":"4","last_reported":1744189892,"current_range_meters":6400,"station_id":"","pricing_plan_id":"cebpf4jnsgd1na2vs0mg"},{"bike_id":"894f4562-0236-4dd6-91d8-f358173f377f","system_id":"levelo_inurba_marseille","lat":43.29288,"lon":5.37455,"is_reserved":false,"is_disabled":false,"rental_uris":{"android":"levelo://app?vid=894f4562-0236-4dd6-91d8-f358173f377f","ios":"levelo://app?vid=894f4562-0236-4dd6-91d8-f358173f377f"},"vehicle_type_id":"4","last_reported":1744189892,"current_range_meters":6400,"station_id":"ce4bgi12rcd13ifvqb70","pricing_plan_id":"cebpf4jnsgd1na2vs0mg"},{"bike_id":"74b78a6e-275c-47e0-b1ed-2ccf34bd59b9","system_id":"levelo_inurba_marseille","lat":43.301679,"lon":5.366317,"is_reserved":false,"is_disabled":false,"rental_uris":{"android":"levelo://app?vid=74b78a6e-275c-47e0-b1ed-2ccf34bd59b9","ios":"levelo://app?vid=74b78a6e-275c-47e0-b1ed-2ccf34bd59b9"},"vehicle_type_id":"4","last_reported":1744189892,"current_range_meters":6400,"station_id":"ce4bgrh2rcd13ifvqc8g","pricing_plan_id":"cebpf4jnsgd1na2vs0mg"},{"bike_id":"82f28cf6-556c-431d-a12b-bd3ce5fc2f28","system_id":"levelo_inurba_marseille","lat":43.27494,"lon":5.37759,"is_reserved":false,"is_disabled":false,"rental_uris":{"android":"levelo://app?vid=82f28cf6-556c-431d-a12b-bd3ce5fc2f28","ios":"levelo://app?vid=82f28cf6-556c-431d-a12b-bd3ce5fc2f28"},"vehicle_type_id":"4","last_reported":1744189892,"current_range_meters":6400,"station_id":"","pricing_plan_id":"cebpf4jnsgd1na2vs0mg"},{"bike_id":"b4a68dcf-0913-4ff3-85d2-420ac2ef646a","system_id":"levelo_inurba_marseille","lat":43.29915,"lon":5.37484,"is_reserved":false,"is_disabled":false,"rental_uris":{"android":"levelo://app?vid=b4a68dcf-0913-4ff3-85d2-420ac2ef646a","ios":"levelo://app?vid=b4a68dcf-0913-4ff3-85d2-420ac2ef646a"},"vehicle_type_id":"4","last_reported":1744189892,"current_range_meters":6400,"station_id":"ce4bgjh2rcd13ifvqbg0","pricing_plan_id":"cebpf4jnsgd1na2vs0mg"},{"bike_id":"5a5e8f1a-bec8-4f9b-9022-ff6006b6bdf3","system_id":"levelo_inurba_marseille","lat":43.26225,"lon":5.40458,"is_reserved":false,"is_disabled":false,"rental_uris":{"android":"levelo://app?vid=5a5e8f1a-bec8-4f9b-9022-ff6006b6bdf3","ios":"levelo://app?vid=5a5e8f1a-bec8-4f9b-9022-ff6006b6bdf3"},"vehicle_type_id":"4","last_reported":1744189892,"current_range_meters":7200,"station_id":"ce4bhmh2rcd13ifvqgmg","pricing_plan_id":"cebpf4jnsgd1na2vs0mg"},{"bike_id":"70810d3e-9936-4863-b211-84f880613e88","system_id":"levelo_inurba_marseille","lat":43.31282,"lon":5.37317,"is_reserved":false,"is_disabled":false,"rental_uris":{"android":"levelo://app?vid=70810d3e-9936-4863-b211-84f880613e88","ios":"levelo://app?vid=70810d3e-9936-4863-b211-84f880613e88"},"vehicle_type_id":"4","last_reported":1744189892,"current_range_meters":7200,"station_id":"","pricing_plan_id":"cebpf4jnsgd1na2vs0mg"},{"bike_id":"ec41b842-c84f-4ab1-894c-fc6101e00efb","system_id":"levelo_inurba_marseille","lat":43.31711,"lon":5.40306,"is_reserved":false,"is_disabled":false,"rental_uris":{"android":"levelo://app?vid=ec41b842-c84f-4ab1-894c-fc6101e00efb","ios":"levelo://app?vid=ec41b842-c84f-4ab1-894c-fc6101e00efb"},"vehicle_type_id":"4","last_reported":1744189892,"current_range_meters":7200,"station_id":"","pricing_plan_id":"cebpf4jnsgd1na2vs0mg"},{"bike_id":"ffe06810-5584-4421-889d-508aad74984f","system_id":"levelo_inurba_marseille","lat":43.26193,"lon":5.374673,"is_reserved":false,"is_disabled":false,"rental_uris":{"android":"levelo://app?vid=ffe06810-5584-4421-889d-508aad74984f","ios":"levelo://app?vid=ffe06810-5584-4421-889d-508aad74984f"},"vehicle_type_id":"4","last_reported":1744189892,"current_range_meters":7200,"station_id":"ce4bhgp2rcd13ifvqfc0","pricing_plan_id":"cebpf4jnsgd1na2vs0mg"},{"bike_id":"9319ab38-4118-461c-b20a-bab1476b6d09","system_id":"levelo_inurba_marseille","lat":43.25972,"lon":5.40876,"is_reserved":false,"is_disabled":false,"rental_uris":{"android":"levelo://app?vid=9319ab38-4118-461c-b20a-bab1476b6d09","ios":"levelo://app?vid=9319ab38-4118-461c-b20a-bab1476b6d09"},"vehicle_type_id":"4","last_reported":1744189892,"current_range_meters":8000,"station_id":"ce4bhm92rcd13ifvqglg","pricing_plan_id":"cebpf4jnsgd1na2vs0mg"},{"bike_id":"edf7b4a7-49c1-4066-8211-bcac9342379a","system_id":"levelo_inurba_marseille","lat":43.27621,"lon":5.36108,"is_reserved":false,"is_disabled":false,"rental_uris":{"android":"levelo://app?vid=edf7b4a7-49c1-4066-8211-bcac9342379a","ios":"levelo://app?vid=edf7b4a7-49c1-4066-8211-bcac9342379a"},"vehicle_type_id":"4","last_reported":1744189892,"current_range_meters":8000,"station_id":"ce4bgj92rcd13ifvqbe0","pricing_plan_id":"cebpf4jnsgd1na2vs0mg"},{"bike_id":"3d0cae43-5b75-4aac-b7cb-471ce1151dd5","system_id":"levelo_inurba_marseille","lat":43.33053,"lon":5.39522,"is_reserved":false,"is_disabled":false,"rental_uris":{"android":"levelo://app?vid=3d0cae43-5b75-4aac-b7cb-471ce1151dd5","ios":"levelo://app?vid=3d0cae43-5b75-4aac-b7cb-471ce1151dd5"},"vehicle_type_id":"4","last_reported":1744189892,"current_range_meters":8000,"station_id":"","pricing_plan_id":"cebpf4jnsgd1na2vs0mg"},{"bike_id":"b20e9b96-9326-44a6-a232-b0c3da687017","system_id":"levelo_inurba_marseille","lat":43.30731,"lon":5.42444,"is_reserved":false,"is_disabled":false,"rental_uris":{"android":"levelo://app?vid=b20e9b96-9326-44a6-a232-b0c3da687017","ios":"levelo://app?vid=b20e9b96-9326-44a6-a232-b0c3da687017"},"vehicle_type_id":"4","last_reported":1744189892,"current_range_meters":8000,"station_id":"st_cvj6ca6bvosntc0bfgr0","pricing_plan_id":"cebpf4jnsgd1na2vs0mg"},{"bike_id":"5e6ad826-38da-4531-b4ba-2eda8622ede3","system_id":"levelo_inurba_marseille","lat":43.31105,"lon":5.40469,"is_reserved":false,"is_disabled":false,"rental_uris":{"android":"levelo://app?vid=5e6ad826-38da-4531-b4ba-2eda8622ede3","ios":"levelo://app?vid=5e6ad826-38da-4531-b4ba-2eda8622ede3"},"vehicle_type_id":"4","last_reported":1744189892,"current_range_meters":8000,"station_id":"","pricing_plan_id":"cebpf4jnsgd1na2vs0mg"},{"bike_id":"7cbc3abb-d96e-46ad-87a3-e0fdd1126f87","system_id":"levelo_inurba_marseille","lat":43.31395,"lon":5.38516,"is_reserved":false,"is_disabled":false,"rental_uris":{"android":"levelo://app?vid=7cbc3abb-d96e-46ad-87a3-e0fdd1126f87","ios":"levelo://app?vid=7cbc3abb-d96e-46ad-87a3-e0fdd1126f87"},"vehicle_type_id":"4","last_reported":1744189892,"current_range_meters":8400,"station_id":"ce4bgt92rcd13ifvqcf0","pricing_plan_id":"cebpf4jnsgd1na2vs0mg"},{"bike_id":"c66c407c-5ccf-45cc-a555-c6bcb901a357","system_id":"levelo_inurba_marseille","lat":43.31382,"lon":5.38508,"is_reserved":false,"is_disabled":false,"rental_uris":{"android":"levelo://app?vid=c66c407c-5ccf-45cc-a555-c6bcb901a357","ios":"levelo://app?vid=c66c407c-5ccf-45cc-a555-c6bcb901a357"},"vehicle_type_id":"4","last_reported":1744189892,"current_range_meters":8400,"station_id":"ce4bgt92rcd13ifvqcf0","pricing_plan_id":"cebpf4jnsgd1na2vs0mg"},{"bike_id":"0aa02c49-cbb3-4907-a588-f754056f3ba8","system_id":"levelo_inurba_marseille","lat":43.30794,"lon":5.38065,"is_reserved":false,"is_disabled":true,"rental_uris":{"android":"levelo://app?vid=0aa02c49-cbb3-4907-a588-f754056f3ba8","ios":"levelo://app?vid=0aa02c49-cbb3-4907-a588-f754056f3ba8"},"vehicle_type_id":"4","last_reported":1744189892,"current_range_meters":8400,"station_id":"ce4bgt12rcd13ifvqce0","pricing_plan_id":"cebpf4jnsgd1na2vs0mg"},{"bike_id":"ca1cb9af-e981-4da8-ae84-4ca0779eecf9","system_id":"levelo_inurba_marseille","lat":43.3152,"lon":5.37298,"is_reserved":false,"is_disabled":false,"rental_uris":{"android":"levelo://app?vid=ca1cb9af-e981-4da8-ae84-4ca0779eecf9","ios":"levelo://app?vid=ca1cb9af-e981-4da8-ae84-4ca0779eecf9"},"vehicle_type_id":"4","last_reported":1744189892,"current_range_meters":8400,"station_id":"ce4bgt12rcd13ifvqcd0","pricing_plan_id":"cebpf4jnsgd1na2vs0mg"},{"bike_id":"9e79e8f3-dfc4-45d1-8e7f-9b34c7f69aba","system_id":"levelo_inurba_marseille","lat":43.25916,"lon":5.40881,"is_reserved":false,"is_disabled":false,"rental_uris":{"android":"levelo://app?vid=9e79e8f3-dfc4-45d1-8e7f-9b34c7f69aba","ios":"levelo://app?vid=9e79e8f3-dfc4-45d1-8e7f-9b34c7f69aba"},"vehicle_type_id":"4","last_reported":1744189892,"current_range_meters":8400,"station_id":"ce4bhm92rcd13ifvqglg","pricing_plan_id":"cebpf4jnsgd1na2vs0mg"},{"bike_id":"68d1cc33-0218-451e-8e10-d32225c21263","system_id":"levelo_inurba_marseille","lat":43.23167,"lon":5.4369,"is_reserved":false,"is_disabled":true,"rental_uris":{"android":"levelo://app?vid=68d1cc33-0218-451e-8e10-d32225c21263","ios":"levelo://app?vid=68d1cc33-0218-451e-8e10-d32225c21263"},"vehicle_type_id":"4","last_reported":1744189892,"current_range_meters":8400,"station_id":"ce4bhmp2rcd13ifvqgog","pricing_plan_id":"cebpf4jnsgd1na2vs0mg"},{"bike_id":"e0ddec79-bccf-492b-bfd6-46048fa2475d","system_id":"levelo_inurba_marseille","lat":43.32333,"lon":5.36711,"is_reserved":false,"is_disabled":false,"rental_uris":{"android":"levelo://app?vid=e0ddec79-bccf-492b-bfd6-46048fa2475d","ios":"levelo://app?vid=e0ddec79-bccf-492b-bfd6-46048fa2475d"},"vehicle_type_id":"4","last_reported":1744189892,"current_range_meters":8400,"station_id":"ce4bhsh2rcd13ifvqi2g","pricing_plan_id":"cebpf4jnsgd1na2vs0mg"},{"bike_id":"82209d15-f379-449a-ae72-80f997a62a1a","system_id":"levelo_inurba_marseille","lat":43.29299,"lon":5.40199,"is_reserved":false,"is_disabled":true,"rental_uris":{"android":"levelo://app?vid=82209d15-f379-449a-ae72-80f997a62a1a","ios":"levelo://app?vid=82209d15-f379-449a-ae72-80f997a62a1a"},"vehicle_type_id":"4","last_reported":1744189892,"current_range_meters":8400,"station_id":"","pricing_plan_id":"cebpf4jnsgd1na2vs0mg"},{"bike_id":"2316a27d-e8bc-4c82-90fe-4120ccb0ef4b","system_id":"levelo_inurba_marseille","lat":43.2315,"lon":5.43725,"is_reserved":false,"is_disabled":false,"rental_uris":{"android":"levelo://app?vid=2316a27d-e8bc-4c82-90fe-4120ccb0ef4b","ios":"levelo://app?vid=2316a27d-e8bc-4c82-90fe-4120ccb0ef4b"},"vehicle_type_id":"4","last_reported":1744189892,"current_range_meters":8800,"station_id":"ce4bhmp2rcd13ifvqgog","pricing_plan_id":"cebpf4jnsgd1na2vs0mg"},{"bike_id":"1ca7d0c4-b7aa-4350-ad9f-4e24c2ba029a","system_id":"levelo_inurba_marseille","lat":43.30384,"lon":5.42507,"is_reserved":false,"is_disabled":true,"rental_uris":{"android":"levelo://app?vid=1ca7d0c4-b7aa-4350-ad9f-4e24c2ba029a","ios":"levelo://app?vid=1ca7d0c4-b7aa-4350-ad9f-4e24c2ba029a"},"vehicle_type_id":"4","last_reported":1744189892,"current_range_meters":9200,"station_id":"ce4bhoh2rcd13ifvqh6g","pricing_plan_id":"cebpf4jnsgd1na2vs0mg"},{"bike_id":"9fce7fb9-26b6-4832-9f96-ea1b75c489f0","system_id":"levelo_inurba_marseille","lat":43.23199,"lon":5.35562,"is_reserved":false,"is_disabled":false,"rental_uris":{"android":"levelo://app?vid=9fce7fb9-26b6-4832-9f96-ea1b75c489f0","ios":"levelo://app?vid=9fce7fb9-26b6-4832-9f96-ea1b75c489f0"},"vehicle_type_id":"4","last_reported":1744189892,"current_range_meters":9200,"station_id":"ce4bhu92rcd13ifvqi70","pricing_plan_id":"cebpf4jnsgd1na2vs0mg"},{"bike_id":"80663e12-6b64-446d-88c9-20255bde1a8a","system_id":"levelo_inurba_marseille","lat":43.30902,"lon":5.39636,"is_reserved":false,"is_disabled":true,"rental_uris":{"android":"levelo://app?vid=80663e12-6b64-446d-88c9-20255bde1a8a","ios":"levelo://app?vid=80663e12-6b64-446d-88c9-20255bde1a8a"},"vehicle_type_id":"4","last_reported":1744189892,"current_range_meters":9200,"station_id":"ce4bh012rcd13ifvqcv0","pricing_plan_id":"cebpf4jnsgd1na2vs0mg"},{"bike_id":"a566336b-6133-47a6-ad7f-74f32862e29a","system_id":"levelo_inurba_marseille","lat":43.30385,"lon":5.42472,"is_reserved":false,"is_disabled":false,"rental_uris":{"android":"levelo://app?vid=a566336b-6133-47a6-ad7f-74f32862e29a","ios":"levelo://app?vid=a566336b-6133-47a6-ad7f-74f32862e29a"},"vehicle_type_id":"4","last_reported":1744189892,"current_range_meters":9200,"station_id":"ce4bhoh2rcd13ifvqh6g","pricing_plan_id":"cebpf4jnsgd1na2vs0mg"},{"bike_id":"ae8acc12-d36d-43ae-9b5c-d788c29ead74","system_id":"levelo_inurba_marseille","lat":43.24809,"lon":5.3746,"is_reserved":false,"is_disabled":false,"rental_uris":{"android":"levelo://app?vid=ae8acc12-d36d-43ae-9b5c-d788c29ead74","ios":"levelo://app?vid=ae8acc12-d36d-43ae-9b5c-d788c29ead74"},"vehicle_type_id":"4","last_reported":1744189892,"current_range_meters":9200,"station_id":"ce4bhgh2rcd13ifvqfb0","pricing_plan_id":"cebpf4jnsgd1na2vs0mg"},{"bike_id":"93dc05e7-18be-495e-81f8-226ded3af89f","system_id":"levelo_inurba_marseille","lat":43.297152,"lon":5.376964,"is_reserved":false,"is_disabled":true,"rental_uris":{"android":"levelo://app?vid=93dc05e7-18be-495e-81f8-226ded3af89f","ios":"levelo://app?vid=93dc05e7-18be-495e-81f8-226ded3af89f"},"vehicle_type_id":"4","last_reported":1744189892,"current_range_meters":9200,"station_id":"ce4bgkh2rcd13ifvqbl0","pricing_plan_id":"cebpf4jnsgd1na2vs0mg"},{"bike_id":"08f9c0c8-8b33-4578-8a03-20f44d582241","system_id":"levelo_inurba_marseille","lat":43.30604,"lon":5.37157,"is_reserved":false,"is_disabled":false,"rental_uris":{"android":"levelo://app?vid=08f9c0c8-8b33-4578-8a03-20f44d582241","ios":"levelo://app?vid=08f9c0c8-8b33-4578-8a03-20f44d582241"},"vehicle_type_id":"4","last_reported":1744189892,"current_range_meters":9200,"station_id":"","pricing_plan_id":"cebpf4jnsgd1na2vs0mg"},{"bike_id":"b2cee8e0-4c9e-4848-bd0c-91de02906d6a","system_id":"levelo_inurba_marseille","lat":43.27948,"lon":5.41072,"is_reserved":false,"is_disabled":true,"rental_uris":{"android":"levelo://app?vid=b2cee8e0-4c9e-4848-bd0c-91de02906d6a","ios":"levelo://app?vid=b2cee8e0-4c9e-4848-bd0c-91de02906d6a"},"vehicle_type_id":"4","last_reported":1744189892,"current_range_meters":9200,"station_id":"ce4bhnp2rcd13ifvqh0g","pricing_plan_id":"cebpf4jnsgd1na2vs0mg"},{"bike_id":"b397701f-0d3d-44bf-ab3e-3ccc7e74fb2e","system_id":"levelo_inurba_marseille","lat":43.26448,"lon":5.422753,"is_reserved":false,"is_disabled":false,"rental_uris":{"android":"levelo://app?vid=b397701f-0d3d-44bf-ab3e-3ccc7e74fb2e","ios":"levelo://app?vid=b397701f-0d3d-44bf-ab3e-3ccc7e74fb2e"},"vehicle_type_id":"4","last_reported":1744189892,"current_range_meters":9200,"station_id":"","pricing_plan_id":"cebpf4jnsgd1na2vs0mg"},{"bike_id":"ad212075-aa88-4f52-8b77-40fff53ff563","system_id":"levelo_inurba_marseille","lat":43.30383,"lon":5.42478,"is_reserved":false,"is_disabled":false,"rental_uris":{"android":"levelo://app?vid=ad212075-aa88-4f52-8b77-40fff53ff563","ios":"levelo://app?vid=ad212075-aa88-4f52-8b77-40fff53ff563"},"vehicle_type_id":"4","last_reported":1744189892,"current_range_meters":9200,"station_id":"ce4bhoh2rcd13ifvqh6g","pricing_plan_id":"cebpf4jnsgd1na2vs0mg"},{"bike_id":"b86eab0d-277a-44aa-b0d6-f413fa90aac6","system_id":"levelo_inurba_marseille","lat":43.28427,"lon":5.37535,"is_reserved":false,"is_disabled":true,"rental_uris":{"android":"levelo://app?vid=b86eab0d-277a-44aa-b0d6-f413fa90aac6","ios":"levelo://app?vid=b86eab0d-277a-44aa-b0d6-f413fa90aac6"},"vehicle_type_id":"4","last_reported":1744189892,"current_range_meters":9600,"station_id":"ce4bh412rcd13ifvqds0","pricing_plan_id":"cebpf4jnsgd1na2vs0mg"},{"bike_id":"915f4854-f7be-4221-a2bb-9d72e19c110c","system_id":"levelo_inurba_marseille","lat":43.23966,"lon":5.36631,"is_reserved":false,"is_disabled":false,"rental_uris":{"android":"levelo://app?vid=915f4854-f7be-4221-a2bb-9d72e19c110c","ios":"levelo://app?vid=915f4854-f7be-4221-a2bb-9d72e19c110c"},"vehicle_type_id":"4","last_reported":1744189892,"current_range_meters":9600,"station_id":"ce4bhi12rcd13ifvqfp0","pricing_plan_id":"cebpf4jnsgd1na2vs0mg"},{"bike_id":"acfb7a54-46b5-42e8-8cc0-d278a87704a2","system_id":"levelo_inurba_marseille","lat":43.26232,"lon":5.4046,"is_reserved":false,"is_disabled":false,"rental_uris":{"android":"levelo://app?vid=acfb7a54-46b5-42e8-8cc0-d278a87704a2","ios":"levelo://app?vid=acfb7a54-46b5-42e8-8cc0-d278a87704a2"},"vehicle_type_id":"4","last_reported":1744189892,"current_range_meters":9600,"station_id":"ce4bhmh2rcd13ifvqgmg","pricing_plan_id":"cebpf4jnsgd1na2vs0mg"},{"bike_id":"0c9c295b-1889-421d-854d-7086fb6a360f","system_id":"levelo_inurba_marseille","lat":43.30315,"lon":5.36897,"is_reserved":false,"is_disabled":false,"rental_uris":{"android":"levelo://app?vid=0c9c295b-1889-421d-854d-7086fb6a360f","ios":"levelo://app?vid=0c9c295b-1889-421d-854d-7086fb6a360f"},"vehicle_type_id":"4","last_reported":1744189892,"current_range_meters":9600,"station_id":"ce4bgqh2rcd13ifvqc5g","pricing_plan_id":"cebpf4jnsgd1na2vs0mg"},{"bike_id":"9b0c5f0b-a383-484f-a24d-79869bc2dc3d","system_id":"levelo_inurba_marseille","lat":43.308888,"lon":5.371902,"is_reserved":false,"is_disabled":false,"rental_uris":{"android":"levelo://app?vid=9b0c5f0b-a383-484f-a24d-79869bc2dc3d","ios":"levelo://app?vid=9b0c5f0b-a383-484f-a24d-79869bc2dc3d"},"vehicle_type_id":"4","last_reported":1744189892,"current_range_meters":10000,"station_id":"ce4bguh2rcd13ifvqckg","pricing_plan_id":"cebpf4jnsgd1na2vs0mg"},{"bike_id":"894923f7-24a8-4f05-8d0c-1af4b4d3211a","system_id":"levelo_inurba_marseille","lat":43.30328,"lon":5.39195,"is_reserved":false,"is_disabled":true,"rental_uris":{"android":"levelo://app?vid=894923f7-24a8-4f05-8d0c-1af4b4d3211a","ios":"levelo://app?vid=894923f7-24a8-4f05-8d0c-1af4b4d3211a"},"vehicle_type_id":"4","last_reported":1744189892,"current_range_meters":10000,"station_id":"ce4bgkh2rcd13ifvqbk0","pricing_plan_id":"cebpf4jnsgd1na2vs0mg"},{"bike_id":"ce0fd5b8-478f-4f08-869c-935a7a4c659f","system_id":"levelo_inurba_marseille","lat":43.33286,"lon":5.3797,"is_reserved":false,"is_disabled":false,"rental_uris":{"android":"levelo://app?vid=ce0fd5b8-478f-4f08-869c-935a7a4c659f","ios":"levelo://app?vid=ce0fd5b8-478f-4f08-869c-935a7a4c659f"},"vehicle_type_id":"4","last_reported":1744189892,"current_range_meters":10000,"station_id":"","pricing_plan_id":"cebpf4jnsgd1na2vs0mg"},{"bike_id":"5ae25533-40b9-4fe8-ab86-3f0cd94d133a","system_id":"levelo_inurba_marseille","lat":43.31083,"lon":5.42433,"is_reserved":false,"is_disabled":false,"rental_uris":{"android":"levelo://app?vid=5ae25533-40b9-4fe8-ab86-3f0cd94d133a","ios":"levelo://app?vid=5ae25533-40b9-4fe8-ab86-3f0cd94d133a"},"vehicle_type_id":"4","last_reported":1744189892,"current_range_meters":10000,"station_id":"ce4bhp92rcd13ifvqhag","pricing_plan_id":"cebpf4jnsgd1na2vs0mg"},{"bike_id":"e144898c-5060-45a5-8ca9-26fb817c2301","system_id":"levelo_inurba_marseille","lat":43.31273,"lon":5.36851,"is_reserved":false,"is_disabled":false,"rental_uris":{"android":"levelo://app?vid=e144898c-5060-45a5-8ca9-26fb817c2301","ios":"levelo://app?vid=e144898c-5060-45a5-8ca9-26fb817c2301"},"vehicle_type_id":"4","last_reported":1744189892,"current_range_meters":10000,"station_id":"ce4bgl92rcd13ifvqbq0","pricing_plan_id":"cebpf4jnsgd1na2vs0mg"},{"bike_id":"012e7a50-1197-4bdf-bd4d-79e45f914126","system_id":"levelo_inurba_marseille","lat":43.281586,"lon":5.426544,"is_reserved":false,"is_disabled":true,"rental_uris":{"android":"levelo://app?vid=012e7a50-1197-4bdf-bd4d-79e45f914126","ios":"levelo://app?vid=012e7a50-1197-4bdf-bd4d-79e45f914126"},"vehicle_type_id":"4","last_reported":1744189892,"current_range_meters":10000,"station_id":"ce4bhnh2rcd13ifvqgug","pricing_plan_id":"cebpf4jnsgd1na2vs0mg"},{"bike_id":"4e29081b-d0c4-4cfa-b5ca-e0e28d0631ce","system_id":"levelo_inurba_marseille","lat":43.24655,"lon":5.38893,"is_reserved":false,"is_disabled":true,"rental_uris":{"android":"levelo://app?vid=4e29081b-d0c4-4cfa-b5ca-e0e28d0631ce","ios":"levelo://app?vid=4e29081b-d0c4-4cfa-b5ca-e0e28d0631ce"},"vehicle_type_id":"4","last_reported":1744189892,"current_range_meters":10800,"station_id":"ce4bhg12rcd13ifvqf60","pricing_plan_id":"cebpf4jnsgd1na2vs0mg"},{"bike_id":"1180a7b1-52e4-45a6-a35d-3a6133d07906","system_id":"levelo_inurba_marseille","lat":43.30147,"lon":5.37418,"is_reserved":false,"is_disabled":false,"rental_uris":{"android":"levelo://app?vid=1180a7b1-52e4-45a6-a35d-3a6133d07906","ios":"levelo://app?vid=1180a7b1-52e4-45a6-a35d-3a6133d07906"},"vehicle_type_id":"4","last_reported":1744189892,"current_range_meters":10800,"station_id":"ce4bgs92rcd13ifvqcc0","pricing_plan_id":"cebpf4jnsgd1na2vs0mg"},{"bike_id":"e24c6fd3-f9cb-40c7-9e57-dd2c20540e9b","system_id":"levelo_inurba_marseille","lat":43.31722,"lon":5.42403,"is_reserved":false,"is_disabled":false,"rental_uris":{"android":"levelo://app?vid=e24c6fd3-f9cb-40c7-9e57-dd2c20540e9b","ios":"levelo://app?vid=e24c6fd3-f9cb-40c7-9e57-dd2c20540e9b"},"vehicle_type_id":"4","last_reported":1744189892,"current_range_meters":10800,"station_id":"ce4bhp92rcd13ifvqhbg","pricing_plan_id":"cebpf4jnsgd1na2vs0mg"},{"bike_id":"38c43302-d0f3-42c8-89fb-a9374ff631e5","system_id":"levelo_inurba_marseille","lat":43.30555,"lon":5.36527,"is_reserved":false,"is_disabled":false,"rental_uris":{"android":"levelo://app?vid=38c43302-d0f3-42c8-89fb-a9374ff631e5","ios":"levelo://app?vid=38c43302-d0f3-42c8-89fb-a9374ff631e5"},"vehicle_type_id":"4","last_reported":1744189892,"current_range_meters":10800,"station_id":"ce4bgs12rcd13ifvqcag","pricing_plan_id":"cebpf4jnsgd1na2vs0mg"},{"bike_id":"58e8190f-cded-4bd0-8488-a02552cd7e3b","system_id":"levelo_inurba_marseille","lat":43.30559,"lon":5.36528,"is_reserved":false,"is_disabled":false,"rental_uris":{"android":"levelo://app?vid=58e8190f-cded-4bd0-8488-a02552cd7e3b","ios":"levelo://app?vid=58e8190f-cded-4bd0-8488-a02552cd7e3b"},"vehicle_type_id":"4","last_reported":1744189892,"current_range_meters":10800,"station_id":"ce4bgs12rcd13ifvqcag","pricing_plan_id":"cebpf4jnsgd1na2vs0mg"},{"bike_id":"75ce6aac-0c64-439b-bfff-705ea259870c","system_id":"levelo_inurba_marseille","lat":43.30288,"lon":5.36901,"is_reserved":false,"is_disabled":false,"rental_uris":{"android":"levelo://app?vid=75ce6aac-0c64-439b-bfff-705ea259870c","ios":"levelo://app?vid=75ce6aac-0c64-439b-bfff-705ea259870c"},"vehicle_type_id":"4","last_reported":1744189892,"current_range_meters":11200,"station_id":"ce4bgqh2rcd13ifvqc5g","pricing_plan_id":"cebpf4jnsgd1na2vs0mg"},{"bike_id":"0d49b47f-468c-4650-8e32-89e6f15bee24","system_id":"levelo_inurba_marseille","lat":43.24175,"lon":5.39707,"is_reserved":false,"is_disabled":false,"rental_uris":{"android":"levelo://app?vid=0d49b47f-468c-4650-8e32-89e6f15bee24","ios":"levelo://app?vid=0d49b47f-468c-4650-8e32-89e6f15bee24"},"vehicle_type_id":"4","last_reported":1744189892,"current_range_meters":11600,"station_id":"ce4bhn12rcd13ifvqgpg","pricing_plan_id":"cebpf4jnsgd1na2vs0mg"},{"bike_id":"1e099cf5-9456-4ac3-8d36-9153ce8a87f2","system_id":"levelo_inurba_marseille","lat":43.29569,"lon":5.3996,"is_reserved":false,"is_disabled":true,"rental_uris":{"android":"levelo://app?vid=1e099cf5-9456-4ac3-8d36-9153ce8a87f2","ios":"levelo://app?vid=1e099cf5-9456-4ac3-8d36-9153ce8a87f2"},"vehicle_type_id":"4","last_reported":1744189892,"current_range_meters":12000,"station_id":"ce4bh312rcd13ifvqdj0","pricing_plan_id":"cebpf4jnsgd1na2vs0mg"},{"bike_id":"5b84fe32-5d41-4512-becc-229fb464140c","system_id":"levelo_inurba_marseille","lat":43.296065,"lon":5.377045,"is_reserved":false,"is_disabled":false,"rental_uris":{"android":"levelo://app?vid=5b84fe32-5d41-4512-becc-229fb464140c","ios":"levelo://app?vid=5b84fe32-5d41-4512-becc-229fb464140c"},"vehicle_type_id":"4","last_reported":1744189892,"current_range_meters":16400,"station_id":"ce4bgi92rcd13ifvqb90","pricing_plan_id":"cebpf4jnsgd1na2vs0mg"},{"bike_id":"f03c477b-574b-41a2-8215-28e0a35c0c45","system_id":"levelo_inurba_marseille","lat":43.30539,"lon":5.36702,"is_reserved":false,"is_disabled":false,"rental_uris":{"android":"levelo://app?vid=f03c477b-574b-41a2-8215-28e0a35c0c45","ios":"levelo://app?vid=f03c477b-574b-41a2-8215-28e0a35c0c45"},"vehicle_type_id":"4","last_reported":1744189892,"current_range_meters":12000,"station_id":"ce4bgrp2rcd13ifvqc9g","pricing_plan_id":"cebpf4jnsgd1na2vs0mg"},{"bike_id":"57df0568-2fe5-4c79-880e-3352251432ca","system_id":"levelo_inurba_marseille","lat":43.30192,"lon":5.36619,"is_reserved":false,"is_disabled":false,"rental_uris":{"android":"levelo://app?vid=57df0568-2fe5-4c79-880e-3352251432ca","ios":"levelo://app?vid=57df0568-2fe5-4c79-880e-3352251432ca"},"vehicle_type_id":"4","last_reported":1744189892,"current_range_meters":12000,"station_id":"ce4bgrh2rcd13ifvqc8g","pricing_plan_id":"cebpf4jnsgd1na2vs0mg"},{"bike_id":"9606db2e-535e-46e3-bea5-fc8333eadf73","system_id":"levelo_inurba_marseille","lat":43.30213,"lon":5.39469,"is_reserved":false,"is_disabled":false,"rental_uris":{"android":"levelo://app?vid=9606db2e-535e-46e3-bea5-fc8333eadf73","ios":"levelo://app?vid=9606db2e-535e-46e3-bea5-fc8333eadf73"},"vehicle_type_id":"4","last_reported":1744189892,"current_range_meters":14400,"station_id":"ce4bh0p2rcd13ifvqd70","pricing_plan_id":"cebpf4jnsgd1na2vs0mg"},{"bike_id":"e82d3cbf-6990-4eca-9743-6a7db542c284","system_id":"levelo_inurba_marseille","lat":43.32344,"lon":5.40601,"is_reserved":false,"is_disabled":false,"rental_uris":{"android":"levelo://app?vid=e82d3cbf-6990-4eca-9743-6a7db542c284","ios":"levelo://app?vid=e82d3cbf-6990-4eca-9743-6a7db542c284"},"vehicle_type_id":"4","last_reported":1744189892,"current_range_meters":12400,"station_id":"ce4bhq92rcd13ifvqhjg","pricing_plan_id":"cebpf4jnsgd1na2vs0mg"},{"bike_id":"47a0986d-2003-43d3-b9ab-db4eaeafcfee","system_id":"levelo_inurba_marseille","lat":43.31885,"lon":5.40733,"is_reserved":false,"is_disabled":false,"rental_uris":{"android":"levelo://app?vid=47a0986d-2003-43d3-b9ab-db4eaeafcfee","ios":"levelo://app?vid=47a0986d-2003-43d3-b9ab-db4eaeafcfee"},"vehicle_type_id":"4","last_reported":1744189892,"current_range_meters":12400,"station_id":"ce4bhq12rcd13ifvqhig","pricing_plan_id":"cebpf4jnsgd1na2vs0mg"},{"bike_id":"17e70037-35d3-4c5d-840c-bc45b5945631","system_id":"levelo_inurba_marseille","lat":43.29563,"lon":5.42292,"is_reserved":false,"is_disabled":false,"rental_uris":{"android":"levelo://app?vid=17e70037-35d3-4c5d-840c-bc45b5945631","ios":"levelo://app?vid=17e70037-35d3-4c5d-840c-bc45b5945631"},"vehicle_type_id":"4","last_reported":1744189892,"current_range_meters":12400,"station_id":"ce4bhph2rcd13ifvqhdg","pricing_plan_id":"cebpf4jnsgd1na2vs0mg"},{"bike_id":"7fff8c27-8ed9-45cc-89d2-617e852a7eee","system_id":"levelo_inurba_marseille","lat":43.24077,"lon":5.37768,"is_reserved":false,"is_disabled":false,"rental_uris":{"android":"levelo://app?vid=7fff8c27-8ed9-45cc-89d2-617e852a7eee","ios":"levelo://app?vid=7fff8c27-8ed9-45cc-89d2-617e852a7eee"},"vehicle_type_id":"4","last_reported":1744189892,"current_range_meters":12400,"station_id":"ce4bhnp2rcd13ifvqgvg","pricing_plan_id":"cebpf4jnsgd1na2vs0mg"},{"bike_id":"9e4d1adc-43f2-4b57-9a1d-27c7f288a4b7","system_id":"levelo_inurba_marseille","lat":43.28698,"lon":5.38686,"is_reserved":false,"is_disabled":false,"rental_uris":{"android":"levelo://app?vid=9e4d1adc-43f2-4b57-9a1d-27c7f288a4b7","ios":"levelo://app?vid=9e4d1adc-43f2-4b57-9a1d-27c7f288a4b7"},"vehicle_type_id":"4","last_reported":1744189892,"current_range_meters":12800,"station_id":"ce4bh492rcd13ifvqdug","pricing_plan_id":"cebpf4jnsgd1na2vs0mg"},{"bike_id":"cc23f386-e027-4abe-bbdd-5e252c76d169","system_id":"levelo_inurba_marseille","lat":43.23144,"lon":5.43715,"is_reserved":false,"is_disabled":false,"rental_uris":{"android":"levelo://app?vid=cc23f386-e027-4abe-bbdd-5e252c76d169","ios":"levelo://app?vid=cc23f386-e027-4abe-bbdd-5e252c76d169"},"vehicle_type_id":"4","last_reported":1744189892,"current_range_meters":12800,"station_id":"ce4bhmp2rcd13ifvqgog","pricing_plan_id":"cebpf4jnsgd1na2vs0mg"},{"bike_id":"739a9bd0-b90f-42ad-bc9f-adc460f320e8","system_id":"levelo_inurba_marseille","lat":43.32322,"lon":5.36687,"is_reserved":false,"is_disabled":false,"rental_uris":{"android":"levelo://app?vid=739a9bd0-b90f-42ad-bc9f-adc460f320e8","ios":"levelo://app?vid=739a9bd0-b90f-42ad-bc9f-adc460f320e8"},"vehicle_type_id":"4","last_reported":1744189892,"current_range_meters":12800,"station_id":"ce4bhsh2rcd13ifvqi2g","pricing_plan_id":"cebpf4jnsgd1na2vs0mg"},{"bike_id":"01aeceb7-263d-401e-91e5-263edb335270","system_id":"levelo_inurba_marseille","lat":43.29092,"lon":5.38141,"is_reserved":false,"is_disabled":false,"rental_uris":{"android":"levelo://app?vid=01aeceb7-263d-401e-91e5-263edb335270","ios":"levelo://app?vid=01aeceb7-263d-401e-91e5-263edb335270"},"vehicle_type_id":"4","last_reported":1744189892,"current_range_meters":13600,"station_id":"ce4bh512rcd13ifvqe2g","pricing_plan_id":"cebpf4jnsgd1na2vs0mg"},{"bike_id":"5f30a5a4-de9f-499e-b151-b811ebb3b43a","system_id":"levelo_inurba_marseille","lat":43.31064,"lon":5.38344,"is_reserved":false,"is_disabled":true,"rental_uris":{"android":"levelo://app?vid=5f30a5a4-de9f-499e-b151-b811ebb3b43a","ios":"levelo://app?vid=5f30a5a4-de9f-499e-b151-b811ebb3b43a"},"vehicle_type_id":"4","last_reported":1744189892,"current_range_meters":13600,"station_id":"ce4bgv92rcd13ifvqcr0","pricing_plan_id":"cebpf4jnsgd1na2vs0mg"},{"bike_id":"f59c962d-e3aa-411f-b6eb-24802869fd2c","system_id":"levelo_inurba_marseille","lat":43.21756,"lon":5.34634,"is_reserved":false,"is_disabled":false,"rental_uris":{"android":"levelo://app?vid=f59c962d-e3aa-411f-b6eb-24802869fd2c","ios":"levelo://app?vid=f59c962d-e3aa-411f-b6eb-24802869fd2c"},"vehicle_type_id":"4","last_reported":1744189892,"current_range_meters":13600,"station_id":"st_cvj6r9ubvosntc0bgbag","pricing_plan_id":"cebpf4jnsgd1na2vs0mg"},{"bike_id":"62a970a8-ceb5-4ee9-a4d6-92537ea34f4b","system_id":"levelo_inurba_marseille","lat":43.28473,"lon":5.38429,"is_reserved":false,"is_disabled":false,"rental_uris":{"android":"levelo://app?vid=62a970a8-ceb5-4ee9-a4d6-92537ea34f4b","ios":"levelo://app?vid=62a970a8-ceb5-4ee9-a4d6-92537ea34f4b"},"vehicle_type_id":"4","last_reported":1744189892,"current_range_meters":13600,"station_id":"ce4bh512rcd13ifvqe3g","pricing_plan_id":"cebpf4jnsgd1na2vs0mg"},{"bike_id":"05ebd012-a397-44d6-8d3a-b4fd8a759a09","system_id":"levelo_inurba_marseille","lat":43.30793,"lon":5.43519,"is_reserved":false,"is_disabled":false,"rental_uris":{"android":"levelo://app?vid=05ebd012-a397-44d6-8d3a-b4fd8a759a09","ios":"levelo://app?vid=05ebd012-a397-44d6-8d3a-b4fd8a759a09"},"vehicle_type_id":"4","last_reported":1744189892,"current_range_meters":13600,"station_id":"ce4bhph2rcd13ifvqheg","pricing_plan_id":"cebpf4jnsgd1na2vs0mg"},{"bike_id":"fa7032a6-af17-4b49-b301-3ae08c5baa65","system_id":"levelo_inurba_marseille","lat":43.22938,"lon":5.35376,"is_reserved":false,"is_disabled":false,"rental_uris":{"android":"levelo://app?vid=fa7032a6-af17-4b49-b301-3ae08c5baa65","ios":"levelo://app?vid=fa7032a6-af17-4b49-b301-3ae08c5baa65"},"vehicle_type_id":"4","last_reported":1744189892,"current_range_meters":14000,"station_id":"cpo3532slgdg3j2ikp40","pricing_plan_id":"cebpf4jnsgd1na2vs0mg"},{"bike_id":"8aca47b8-dcba-4e10-a490-7acd73bde0df","system_id":"levelo_inurba_marseille","lat":43.3058,"lon":5.36537,"is_reserved":false,"is_disabled":false,"rental_uris":{"android":"levelo://app?vid=8aca47b8-dcba-4e10-a490-7acd73bde0df","ios":"levelo://app?vid=8aca47b8-dcba-4e10-a490-7acd73bde0df"},"vehicle_type_id":"4","last_reported":1744189892,"current_range_meters":14000,"station_id":"ce4bgs12rcd13ifvqcag","pricing_plan_id":"cebpf4jnsgd1na2vs0mg"},{"bike_id":"5bba3b51-3f48-485e-858d-5e9c31198157","system_id":"levelo_inurba_marseille","lat":43.29044,"lon":5.37573,"is_reserved":false,"is_disabled":false,"rental_uris":{"android":"levelo://app?vid=5bba3b51-3f48-485e-858d-5e9c31198157","ios":"levelo://app?vid=5bba3b51-3f48-485e-858d-5e9c31198157"},"vehicle_type_id":"4","last_reported":1744189892,"current_range_meters":14000,"station_id":"ce4bh692rcd13ifvqe90","pricing_plan_id":"cebpf4jnsgd1na2vs0mg"},{"bike_id":"b37944fb-f9c1-4c8e-ac3a-9da227afb433","system_id":"levelo_inurba_marseille","lat":43.308028,"lon":5.381584,"is_reserved":false,"is_disabled":true,"rental_uris":{"android":"levelo://app?vid=b37944fb-f9c1-4c8e-ac3a-9da227afb433","ios":"levelo://app?vid=b37944fb-f9c1-4c8e-ac3a-9da227afb433"},"vehicle_type_id":"4","last_reported":1744189892,"current_range_meters":14000,"station_id":"ce4bgt12rcd13ifvqce0","pricing_plan_id":"cebpf4jnsgd1na2vs0mg"},{"bike_id":"b3014d67-1beb-4a0f-a0f5-829e0d2a4492","system_id":"levelo_inurba_marseille","lat":43.217618,"lon":5.346365,"is_reserved":false,"is_disabled":false,"rental_uris":{"android":"levelo://app?vid=b3014d67-1beb-4a0f-a0f5-829e0d2a4492","ios":"levelo://app?vid=b3014d67-1beb-4a0f-a0f5-829e0d2a4492"},"vehicle_type_id":"4","last_reported":1744189892,"current_range_meters":14000,"station_id":"ce4bhu92rcd13ifvqi70","pricing_plan_id":"cebpf4jnsgd1na2vs0mg"},{"bike_id":"3a54aeb8-c965-4b7c-afae-7941433d9352","system_id":"levelo_inurba_marseille","lat":43.30137,"lon":5.37416,"is_reserved":false,"is_disabled":false,"rental_uris":{"android":"levelo://app?vid=3a54aeb8-c965-4b7c-afae-7941433d9352","ios":"levelo://app?vid=3a54aeb8-c965-4b7c-afae-7941433d9352"},"vehicle_type_id":"4","last_reported":1744189892,"current_range_meters":14400,"station_id":"ce4bgs92rcd13ifvqcc0","pricing_plan_id":"cebpf4jnsgd1na2vs0mg"},{"bike_id":"edf92683-0c32-4b77-9509-d6f3456c71e1","system_id":"levelo_inurba_marseille","lat":43.30615,"lon":5.39352,"is_reserved":false,"is_disabled":true,"rental_uris":{"android":"levelo://app?vid=edf92683-0c32-4b77-9509-d6f3456c71e1","ios":"levelo://app?vid=edf92683-0c32-4b77-9509-d6f3456c71e1"},"vehicle_type_id":"4","last_reported":1744189892,"current_range_meters":14400,"station_id":"ce4bh0p2rcd13ifvqd80","pricing_plan_id":"cebpf4jnsgd1na2vs0mg"},{"bike_id":"fffc178c-b4db-4f6f-920a-58995a6e33c6","system_id":"levelo_inurba_marseille","lat":43.25585,"lon":5.38236,"is_reserved":false,"is_disabled":false,"rental_uris":{"android":"levelo://app?vid=fffc178c-b4db-4f6f-920a-58995a6e33c6","ios":"levelo://app?vid=fffc178c-b4db-4f6f-920a-58995a6e33c6"},"vehicle_type_id":"4","last_reported":1744189892,"current_range_meters":14800,"station_id":"ce4bhih2rcd13ifvqfs0","pricing_plan_id":"cebpf4jnsgd1na2vs0mg"},{"bike_id":"94c68350-1b37-475a-9f1e-a11669e1e16e","system_id":"levelo_inurba_marseille","lat":43.33045,"lon":5.39055,"is_reserved":false,"is_disabled":false,"rental_uris":{"android":"levelo://app?vid=94c68350-1b37-475a-9f1e-a11669e1e16e","ios":"levelo://app?vid=94c68350-1b37-475a-9f1e-a11669e1e16e"},"vehicle_type_id":"4","last_reported":1744189892,"current_range_meters":14800,"station_id":"ce4bhr92rcd13ifvqhrg","pricing_plan_id":"cebpf4jnsgd1na2vs0mg"},{"bike_id":"aa6306d2-65ab-42a2-9b0d-ef5604f971de","system_id":"levelo_inurba_marseille","lat":43.30466,"lon":5.37904,"is_reserved":false,"is_disabled":false,"rental_uris":{"android":"levelo://app?vid=aa6306d2-65ab-42a2-9b0d-ef5604f971de","ios":"levelo://app?vid=aa6306d2-65ab-42a2-9b0d-ef5604f971de"},"vehicle_type_id":"4","last_reported":1744189892,"current_range_meters":14800,"station_id":"ce4bgup2rcd13ifvqcn0","pricing_plan_id":"cebpf4jnsgd1na2vs0mg"},{"bike_id":"60312bc4-ab7f-4863-abfa-660692d20204","system_id":"levelo_inurba_marseille","lat":43.2895,"lon":5.36638,"is_reserved":false,"is_disabled":false,"rental_uris":{"android":"levelo://app?vid=60312bc4-ab7f-4863-abfa-660692d20204","ios":"levelo://app?vid=60312bc4-ab7f-4863-abfa-660692d20204"},"vehicle_type_id":"4","last_reported":1744189892,"current_range_meters":14800,"station_id":"ce4bhap2rcd13ifvqek0","pricing_plan_id":"cebpf4jnsgd1na2vs0mg"},{"bike_id":"53fb0077-3a65-43ca-a501-d7c36dc0627d","system_id":"levelo_inurba_marseille","lat":43.31774,"lon":5.38819,"is_reserved":false,"is_disabled":false,"rental_uris":{"android":"levelo://app?vid=53fb0077-3a65-43ca-a501-d7c36dc0627d","ios":"levelo://app?vid=53fb0077-3a65-43ca-a501-d7c36dc0627d"},"vehicle_type_id":"4","last_reported":1744189892,"current_range_meters":15200,"station_id":"","pricing_plan_id":"cebpf4jnsgd1na2vs0mg"},{"bike_id":"45b2122b-0a27-4d9e-8685-0e6fb9b646fd","system_id":"levelo_inurba_marseille","lat":43.30203,"lon":5.36626,"is_reserved":false,"is_disabled":true,"rental_uris":{"android":"levelo://app?vid=45b2122b-0a27-4d9e-8685-0e6fb9b646fd","ios":"levelo://app?vid=45b2122b-0a27-4d9e-8685-0e6fb9b646fd"},"vehicle_type_id":"4","last_reported":1744189892,"current_range_meters":15200,"station_id":"ce4bgrh2rcd13ifvqc8g","pricing_plan_id":"cebpf4jnsgd1na2vs0mg"},{"bike_id":"b4b93a64-d083-4ab2-bbd0-53609c602fb5","system_id":"levelo_inurba_marseille","lat":43.30927,"lon":5.40144,"is_reserved":false,"is_disabled":true,"rental_uris":{"android":"levelo://app?vid=b4b93a64-d083-4ab2-bbd0-53609c602fb5","ios":"levelo://app?vid=b4b93a64-d083-4ab2-bbd0-53609c602fb5"},"vehicle_type_id":"4","last_reported":1744189892,"current_range_meters":15200,"station_id":"ce4bgvp2rcd13ifvqct0","pricing_plan_id":"cebpf4jnsgd1na2vs0mg"},{"bike_id":"52dfef30-eef0-4dd6-a138-a48c8dcc2c3a","system_id":"levelo_inurba_marseille","lat":43.3041,"lon":5.42787,"is_reserved":false,"is_disabled":true,"rental_uris":{"android":"levelo://app?vid=52dfef30-eef0-4dd6-a138-a48c8dcc2c3a","ios":"levelo://app?vid=52dfef30-eef0-4dd6-a138-a48c8dcc2c3a"},"vehicle_type_id":"4","last_reported":1744189892,"current_range_meters":15200,"station_id":"","pricing_plan_id":"cebpf4jnsgd1na2vs0mg"},{"bike_id":"f147c6df-27ae-4e7a-90c0-6893ba89129c","system_id":"levelo_inurba_marseille","lat":43.30575,"lon":5.36536,"is_reserved":false,"is_disabled":false,"rental_uris":{"android":"levelo://app?vid=f147c6df-27ae-4e7a-90c0-6893ba89129c","ios":"levelo://app?vid=f147c6df-27ae-4e7a-90c0-6893ba89129c"},"vehicle_type_id":"4","last_reported":1744189892,"current_range_meters":15200,"station_id":"ce4bgs12rcd13ifvqcag","pricing_plan_id":"cebpf4jnsgd1na2vs0mg"},{"bike_id":"6278194a-3064-41bd-8565-b8ff44b1552d","system_id":"levelo_inurba_marseille","lat":43.295342,"lon":5.385499,"is_reserved":false,"is_disabled":true,"rental_uris":{"android":"levelo://app?vid=6278194a-3064-41bd-8565-b8ff44b1552d","ios":"levelo://app?vid=6278194a-3064-41bd-8565-b8ff44b1552d"},"vehicle_type_id":"4","last_reported":1744189892,"current_range_meters":15200,"station_id":"ce4bgih2rcd13ifvqba0","pricing_plan_id":"cebpf4jnsgd1na2vs0mg"},{"bike_id":"d44ff2b9-417e-4368-bebb-1fc974db3122","system_id":"levelo_inurba_marseille","lat":43.33657,"lon":5.39762,"is_reserved":false,"is_disabled":true,"rental_uris":{"android":"levelo://app?vid=d44ff2b9-417e-4368-bebb-1fc974db3122","ios":"levelo://app?vid=d44ff2b9-417e-4368-bebb-1fc974db3122"},"vehicle_type_id":"4","last_reported":1744189892,"current_range_meters":15200,"station_id":"","pricing_plan_id":"cebpf4jnsgd1na2vs0mg"},{"bike_id":"0c0682ef-602c-4853-944b-e80ee191e508","system_id":"levelo_inurba_marseille","lat":43.30537,"lon":5.36697,"is_reserved":false,"is_disabled":false,"rental_uris":{"android":"levelo://app?vid=0c0682ef-602c-4853-944b-e80ee191e508","ios":"levelo://app?vid=0c0682ef-602c-4853-944b-e80ee191e508"},"vehicle_type_id":"4","last_reported":1744189892,"current_range_meters":15200,"station_id":"ce4bgrp2rcd13ifvqc9g","pricing_plan_id":"cebpf4jnsgd1na2vs0mg"},{"bike_id":"7bd3f7de-3a74-4fff-b4c6-181d8b119e52","system_id":"levelo_inurba_marseille","lat":43.29794,"lon":5.40417,"is_reserved":false,"is_disabled":true,"rental_uris":{"android":"levelo://app?vid=7bd3f7de-3a74-4fff-b4c6-181d8b119e52","ios":"levelo://app?vid=7bd3f7de-3a74-4fff-b4c6-181d8b119e52"},"vehicle_type_id":"4","last_reported":1744189892,"current_range_meters":16000,"station_id":"ce4bh112rcd13ifvqd90","pricing_plan_id":"cebpf4jnsgd1na2vs0mg"},{"bike_id":"e84071ce-606c-45f5-95a0-800bda100742","system_id":"levelo_inurba_marseille","lat":43.28466,"lon":5.35889,"is_reserved":false,"is_disabled":false,"rental_uris":{"android":"levelo://app?vid=e84071ce-606c-45f5-95a0-800bda100742","ios":"levelo://app?vid=e84071ce-606c-45f5-95a0-800bda100742"},"vehicle_type_id":"4","last_reported":1744189892,"current_range_meters":17200,"station_id":"ce4bhah2rcd13ifvqei0","pricing_plan_id":"cebpf4jnsgd1na2vs0mg"},{"bike_id":"c1c63035-c83b-4419-8cbf-133778d95125","system_id":"levelo_inurba_marseille","lat":43.29826,"lon":5.39354,"is_reserved":false,"is_disabled":true,"rental_uris":{"android":"levelo://app?vid=c1c63035-c83b-4419-8cbf-133778d95125","ios":"levelo://app?vid=c1c63035-c83b-4419-8cbf-133778d95125"},"vehicle_type_id":"4","last_reported":1744189892,"current_range_meters":16000,"station_id":"chh1huq6cuj3fo74tm60","pricing_plan_id":"cebpf4jnsgd1na2vs0mg"},{"bike_id":"9206592d-57f9-4c68-ae5b-56c9e508a929","system_id":"levelo_inurba_marseille","lat":43.27066,"lon":5.42276,"is_reserved":false,"is_disabled":false,"rental_uris":{"android":"levelo://app?vid=9206592d-57f9-4c68-ae5b-56c9e508a929","ios":"levelo://app?vid=9206592d-57f9-4c68-ae5b-56c9e508a929"},"vehicle_type_id":"4","last_reported":1744189892,"current_range_meters":16000,"station_id":"ce4bhk92rcd13ifvqgb0","pricing_plan_id":"cebpf4jnsgd1na2vs0mg"},{"bike_id":"813ce873-b5fc-4013-af5d-0340358e40ff","system_id":"levelo_inurba_marseille","lat":43.28409,"lon":5.37507,"is_reserved":false,"is_disabled":false,"rental_uris":{"android":"levelo://app?vid=813ce873-b5fc-4013-af5d-0340358e40ff","ios":"levelo://app?vid=813ce873-b5fc-4013-af5d-0340358e40ff"},"vehicle_type_id":"4","last_reported":1744189892,"current_range_meters":16400,"station_id":"ce4bh412rcd13ifvqds0","pricing_plan_id":"cebpf4jnsgd1na2vs0mg"},{"bike_id":"71a3919b-8525-4f47-a6df-5e0d6eec871b","system_id":"levelo_inurba_marseille","lat":43.32344,"lon":5.40623,"is_reserved":false,"is_disabled":false,"rental_uris":{"android":"levelo://app?vid=71a3919b-8525-4f47-a6df-5e0d6eec871b","ios":"levelo://app?vid=71a3919b-8525-4f47-a6df-5e0d6eec871b"},"vehicle_type_id":"4","last_reported":1744189892,"current_range_meters":16400,"station_id":"ce4bhq92rcd13ifvqhjg","pricing_plan_id":"cebpf4jnsgd1na2vs0mg"},{"bike_id":"5e26c3e5-4260-44ac-b9df-498e393a1d1a","system_id":"levelo_inurba_marseille","lat":43.28355,"lon":5.38085,"is_reserved":false,"is_disabled":false,"rental_uris":{"android":"levelo://app?vid=5e26c3e5-4260-44ac-b9df-498e393a1d1a","ios":"levelo://app?vid=5e26c3e5-4260-44ac-b9df-498e393a1d1a"},"vehicle_type_id":"4","last_reported":1744189892,"current_range_meters":16800,"station_id":"ce4bh412rcd13ifvqdr0","pricing_plan_id":"cebpf4jnsgd1na2vs0mg"},{"bike_id":"201f8064-43e9-44e6-9e18-e4b83fdd6d05","system_id":"levelo_inurba_marseille","lat":43.31528,"lon":5.38039,"is_reserved":false,"is_disabled":false,"rental_uris":{"android":"levelo://app?vid=201f8064-43e9-44e6-9e18-e4b83fdd6d05","ios":"levelo://app?vid=201f8064-43e9-44e6-9e18-e4b83fdd6d05"},"vehicle_type_id":"4","last_reported":1744189892,"current_range_meters":16800,"station_id":"ce4bhsp2rcd13ifvqi50","pricing_plan_id":"cebpf4jnsgd1na2vs0mg"},{"bike_id":"b84b1d45-729e-47db-8c7e-e88abe2948fb","system_id":"levelo_inurba_marseille","lat":43.31717,"lon":5.42411,"is_reserved":false,"is_disabled":false,"rental_uris":{"android":"levelo://app?vid=b84b1d45-729e-47db-8c7e-e88abe2948fb","ios":"levelo://app?vid=b84b1d45-729e-47db-8c7e-e88abe2948fb"},"vehicle_type_id":"4","last_reported":1744189892,"current_range_meters":16800,"station_id":"ce4bhp92rcd13ifvqhbg","pricing_plan_id":"cebpf4jnsgd1na2vs0mg"},{"bike_id":"73bd3de3-6170-4866-a17f-888d0bec371a","system_id":"levelo_inurba_marseille","lat":43.32541,"lon":5.41425,"is_reserved":false,"is_disabled":false,"rental_uris":{"android":"levelo://app?vid=73bd3de3-6170-4866-a17f-888d0bec371a","ios":"levelo://app?vid=73bd3de3-6170-4866-a17f-888d0bec371a"},"vehicle_type_id":"4","last_reported":1744189892,"current_range_meters":16800,"station_id":"ce4bhq12rcd13ifvqhhg","pricing_plan_id":"cebpf4jnsgd1na2vs0mg"},{"bike_id":"cfc377f5-fad9-4d72-b4e2-cfcd9a7558bf","system_id":"levelo_inurba_marseille","lat":43.27219,"lon":5.39182,"is_reserved":false,"is_disabled":false,"rental_uris":{"android":"levelo://app?vid=cfc377f5-fad9-4d72-b4e2-cfcd9a7558bf","ios":"levelo://app?vid=cfc377f5-fad9-4d72-b4e2-cfcd9a7558bf"},"vehicle_type_id":"4","last_reported":1744189892,"current_range_meters":17200,"station_id":"ce4bhhp2rcd13ifvqfm0","pricing_plan_id":"cebpf4jnsgd1na2vs0mg"},{"bike_id":"81bef8a2-0324-43da-b6be-f4eda231aba9","system_id":"levelo_inurba_marseille","lat":43.28932,"lon":5.3665,"is_reserved":false,"is_disabled":false,"rental_uris":{"android":"levelo://app?vid=81bef8a2-0324-43da-b6be-f4eda231aba9","ios":"levelo://app?vid=81bef8a2-0324-43da-b6be-f4eda231aba9"},"vehicle_type_id":"4","last_reported":1744189892,"current_range_meters":17200,"station_id":"ce4bgjh2rcd13ifvqbf0","pricing_plan_id":"cebpf4jnsgd1na2vs0mg"},{"bike_id":"dfdc8419-8f83-4b81-a64d-e6f436c6016c","system_id":"levelo_inurba_marseille","lat":43.25964,"lon":5.40889,"is_reserved":false,"is_disabled":false,"rental_uris":{"android":"levelo://app?vid=dfdc8419-8f83-4b81-a64d-e6f436c6016c","ios":"levelo://app?vid=dfdc8419-8f83-4b81-a64d-e6f436c6016c"},"vehicle_type_id":"4","last_reported":1744189892,"current_range_meters":17200,"station_id":"ce4bhm92rcd13ifvqglg","pricing_plan_id":"cebpf4jnsgd1na2vs0mg"},{"bike_id":"54525f9c-6729-406c-8f5a-fce95e931823","system_id":"levelo_inurba_marseille","lat":43.30403,"lon":5.37775,"is_reserved":false,"is_disabled":true,"rental_uris":{"android":"levelo://app?vid=54525f9c-6729-406c-8f5a-fce95e931823","ios":"levelo://app?vid=54525f9c-6729-406c-8f5a-fce95e931823"},"vehicle_type_id":"4","last_reported":1744189892,"current_range_meters":17200,"station_id":"","pricing_plan_id":"cebpf4jnsgd1na2vs0mg"},{"bike_id":"dbce60b7-1570-4430-a000-541958689538","system_id":"levelo_inurba_marseille","lat":43.25577,"lon":5.38239,"is_reserved":false,"is_disabled":false,"rental_uris":{"android":"levelo://app?vid=dbce60b7-1570-4430-a000-541958689538","ios":"levelo://app?vid=dbce60b7-1570-4430-a000-541958689538"},"vehicle_type_id":"4","last_reported":1744189892,"current_range_meters":17200,"station_id":"ce4bhih2rcd13ifvqfs0","pricing_plan_id":"cebpf4jnsgd1na2vs0mg"},{"bike_id":"42c1fdc6-38af-4ea1-a910-702e15d5a9b4","system_id":"levelo_inurba_marseille","lat":43.30869,"lon":5.39996,"is_reserved":false,"is_disabled":true,"rental_uris":{"android":"levelo://app?vid=42c1fdc6-38af-4ea1-a910-702e15d5a9b4","ios":"levelo://app?vid=42c1fdc6-38af-4ea1-a910-702e15d5a9b4"},"vehicle_type_id":"4","last_reported":1744189892,"current_range_meters":17200,"station_id":"","pricing_plan_id":"cebpf4jnsgd1na2vs0mg"},{"bike_id":"7eebb475-ffe0-45bd-be36-e7eab6ca1391","system_id":"levelo_inurba_marseille","lat":43.293614,"lon":5.387796,"is_reserved":false,"is_disabled":false,"rental_uris":{"android":"levelo://app?vid=7eebb475-ffe0-45bd-be36-e7eab6ca1391","ios":"levelo://app?vid=7eebb475-ffe0-45bd-be36-e7eab6ca1391"},"vehicle_type_id":"4","last_reported":1744189892,"current_range_meters":17200,"station_id":"ce4bh192rcd13ifvqdd0","pricing_plan_id":"cebpf4jnsgd1na2vs0mg"},{"bike_id":"c0e57d31-80fc-4e29-953a-52c3cd3eb49c","system_id":"levelo_inurba_marseille","lat":43.32498,"lon":5.36561,"is_reserved":false,"is_disabled":false,"rental_uris":{"android":"levelo://app?vid=c0e57d31-80fc-4e29-953a-52c3cd3eb49c","ios":"levelo://app?vid=c0e57d31-80fc-4e29-953a-52c3cd3eb49c"},"vehicle_type_id":"4","last_reported":1744189892,"current_range_meters":17200,"station_id":"ce4bhs12rcd13ifvqhvg","pricing_plan_id":"cebpf4jnsgd1na2vs0mg"},{"bike_id":"d3a30278-1fc8-438b-a6b9-b6523acb13c6","system_id":"levelo_inurba_marseille","lat":43.31257,"lon":5.36866,"is_reserved":false,"is_disabled":false,"rental_uris":{"android":"levelo://app?vid=d3a30278-1fc8-438b-a6b9-b6523acb13c6","ios":"levelo://app?vid=d3a30278-1fc8-438b-a6b9-b6523acb13c6"},"vehicle_type_id":"4","last_reported":1744189892,"current_range_meters":17200,"station_id":"ce4bgl92rcd13ifvqbq0","pricing_plan_id":"cebpf4jnsgd1na2vs0mg"},{"bike_id":"9b707f39-8a91-47a1-afe5-0c6d90ae57f5","system_id":"levelo_inurba_marseille","lat":43.30539,"lon":5.36526,"is_reserved":false,"is_disabled":false,"rental_uris":{"android":"levelo://app?vid=9b707f39-8a91-47a1-afe5-0c6d90ae57f5","ios":"levelo://app?vid=9b707f39-8a91-47a1-afe5-0c6d90ae57f5"},"vehicle_type_id":"4","last_reported":1744189892,"current_range_meters":17200,"station_id":"ce4bgs12rcd13ifvqcag","pricing_plan_id":"cebpf4jnsgd1na2vs0mg"},{"bike_id":"c55184d3-fbbd-4f0a-a6fc-c4d88e36e900","system_id":"levelo_inurba_marseille","lat":43.30536,"lon":5.36526,"is_reserved":false,"is_disabled":false,"rental_uris":{"android":"levelo://app?vid=c55184d3-fbbd-4f0a-a6fc-c4d88e36e900","ios":"levelo://app?vid=c55184d3-fbbd-4f0a-a6fc-c4d88e36e900"},"vehicle_type_id":"4","last_reported":1744189892,"current_range_meters":17200,"station_id":"ce4bgs12rcd13ifvqcag","pricing_plan_id":"cebpf4jnsgd1na2vs0mg"},{"bike_id":"33c6f353-0166-4c8c-af82-a2e0d1d8c75d","system_id":"levelo_inurba_marseille","lat":43.33008,"lon":5.43842,"is_reserved":false,"is_disabled":false,"rental_uris":{"android":"levelo://app?vid=33c6f353-0166-4c8c-af82-a2e0d1d8c75d","ios":"levelo://app?vid=33c6f353-0166-4c8c-af82-a2e0d1d8c75d"},"vehicle_type_id":"4","last_reported":1744189892,"current_range_meters":17200,"station_id":"","pricing_plan_id":"cebpf4jnsgd1na2vs0mg"},{"bike_id":"09bddc24-4c9d-460f-8967-e90ee5c88b43","system_id":"levelo_inurba_marseille","lat":43.31348,"lon":5.39714,"is_reserved":false,"is_disabled":true,"rental_uris":{"android":"levelo://app?vid=09bddc24-4c9d-460f-8967-e90ee5c88b43","ios":"levelo://app?vid=09bddc24-4c9d-460f-8967-e90ee5c88b43"},"vehicle_type_id":"4","last_reported":1744189892,"current_range_meters":17200,"station_id":"ce4bgvp2rcd13ifvqcu0","pricing_plan_id":"cebpf4jnsgd1na2vs0mg"},{"bike_id":"875883da-a830-4c1a-8530-93fae3774448","system_id":"levelo_inurba_marseille","lat":43.30547,"lon":5.36549,"is_reserved":false,"is_disabled":false,"rental_uris":{"android":"levelo://app?vid=875883da-a830-4c1a-8530-93fae3774448","ios":"levelo://app?vid=875883da-a830-4c1a-8530-93fae3774448"},"vehicle_type_id":"4","last_reported":1744189892,"current_range_meters":17600,"station_id":"ce4bgs12rcd13ifvqcag","pricing_plan_id":"cebpf4jnsgd1na2vs0mg"},{"bike_id":"7d26dd58-fa81-459e-8f81-a55b8206dea7","system_id":"levelo_inurba_marseille","lat":43.26231,"lon":5.40419,"is_reserved":false,"is_disabled":false,"rental_uris":{"android":"levelo://app?vid=7d26dd58-fa81-459e-8f81-a55b8206dea7","ios":"levelo://app?vid=7d26dd58-fa81-459e-8f81-a55b8206dea7"},"vehicle_type_id":"4","last_reported":1744189892,"current_range_meters":17600,"station_id":"ce4bhmh2rcd13ifvqgmg","pricing_plan_id":"cebpf4jnsgd1na2vs0mg"},{"bike_id":"29fa4859-90f2-49bc-b9c2-fc4f3f694348","system_id":"levelo_inurba_marseille","lat":43.28168,"lon":5.42653,"is_reserved":false,"is_disabled":false,"rental_uris":{"android":"levelo://app?vid=29fa4859-90f2-49bc-b9c2-fc4f3f694348","ios":"levelo://app?vid=29fa4859-90f2-49bc-b9c2-fc4f3f694348"},"vehicle_type_id":"4","last_reported":1744189892,"current_range_meters":18000,"station_id":"ce4bhnh2rcd13ifvqgug","pricing_plan_id":"cebpf4jnsgd1na2vs0mg"},{"bike_id":"72fbc3fe-6ac3-4fdc-adab-40ce366d0135","system_id":"levelo_inurba_marseille","lat":43.30295,"lon":5.36905,"is_reserved":false,"is_disabled":false,"rental_uris":{"android":"levelo://app?vid=72fbc3fe-6ac3-4fdc-adab-40ce366d0135","ios":"levelo://app?vid=72fbc3fe-6ac3-4fdc-adab-40ce366d0135"},"vehicle_type_id":"4","last_reported":1744189892,"current_range_meters":18000,"station_id":"ce4bgqh2rcd13ifvqc5g","pricing_plan_id":"cebpf4jnsgd1na2vs0mg"},{"bike_id":"1a3cd0ab-ec77-41b3-982c-74e5093499a8","system_id":"levelo_inurba_marseille","lat":43.30434,"lon":5.38904,"is_reserved":false,"is_disabled":true,"rental_uris":{"android":"levelo://app?vid=1a3cd0ab-ec77-41b3-982c-74e5093499a8","ios":"levelo://app?vid=1a3cd0ab-ec77-41b3-982c-74e5093499a8"},"vehicle_type_id":"4","last_reported":1744189892,"current_range_meters":18000,"station_id":"ce4bgk12rcd13ifvqbi0","pricing_plan_id":"cebpf4jnsgd1na2vs0mg"},{"bike_id":"556294df-206b-482d-afd9-d732553cb5ff","system_id":"levelo_inurba_marseille","lat":43.2952,"lon":5.38547,"is_reserved":false,"is_disabled":false,"rental_uris":{"android":"levelo://app?vid=556294df-206b-482d-afd9-d732553cb5ff","ios":"levelo://app?vid=556294df-206b-482d-afd9-d732553cb5ff"},"vehicle_type_id":"4","last_reported":1744189892,"current_range_meters":18000,"station_id":"ce4bgih2rcd13ifvqba0","pricing_plan_id":"cebpf4jnsgd1na2vs0mg"},{"bike_id":"4991589d-bcb1-4bfb-8d3e-5c59c6458a3d","system_id":"levelo_inurba_marseille","lat":43.34415,"lon":5.38056,"is_reserved":false,"is_disabled":false,"rental_uris":{"android":"levelo://app?vid=4991589d-bcb1-4bfb-8d3e-5c59c6458a3d","ios":"levelo://app?vid=4991589d-bcb1-4bfb-8d3e-5c59c6458a3d"},"vehicle_type_id":"4","last_reported":1744189892,"current_range_meters":18800,"station_id":"","pricing_plan_id":"cebpf4jnsgd1na2vs0mg"},{"bike_id":"2266e28a-3682-42fa-9e4c-1a32918aee75","system_id":"levelo_inurba_marseille","lat":43.272,"lon":5.39176,"is_reserved":false,"is_disabled":false,"rental_uris":{"android":"levelo://app?vid=2266e28a-3682-42fa-9e4c-1a32918aee75","ios":"levelo://app?vid=2266e28a-3682-42fa-9e4c-1a32918aee75"},"vehicle_type_id":"4","last_reported":1744189892,"current_range_meters":18800,"station_id":"ce4bhhp2rcd13ifvqfm0","pricing_plan_id":"cebpf4jnsgd1na2vs0mg"},{"bike_id":"fdc1a058-4502-4fe3-9690-e1b8950e9c89","system_id":"levelo_inurba_marseille","lat":43.3055,"lon":5.36705,"is_reserved":false,"is_disabled":false,"rental_uris":{"android":"levelo://app?vid=fdc1a058-4502-4fe3-9690-e1b8950e9c89","ios":"levelo://app?vid=fdc1a058-4502-4fe3-9690-e1b8950e9c89"},"vehicle_type_id":"4","last_reported":1744189892,"current_range_meters":18800,"station_id":"ce4bgrp2rcd13ifvqc9g","pricing_plan_id":"cebpf4jnsgd1na2vs0mg"},{"bike_id":"4d859361-9206-4e0a-863d-3fa446c32435","system_id":"levelo_inurba_marseille","lat":43.24999,"lon":5.38939,"is_reserved":false,"is_disabled":false,"rental_uris":{"android":"levelo://app?vid=4d859361-9206-4e0a-863d-3fa446c32435","ios":"levelo://app?vid=4d859361-9206-4e0a-863d-3fa446c32435"},"vehicle_type_id":"4","last_reported":1744189892,"current_range_meters":18800,"station_id":"ce4bhgp2rcd13ifvqfd0","pricing_plan_id":"cebpf4jnsgd1na2vs0mg"},{"bike_id":"ee3c03b2-9a4c-4654-a28e-7388f571d9cb","system_id":"levelo_inurba_marseille","lat":43.31995,"lon":5.38133,"is_reserved":false,"is_disabled":true,"rental_uris":{"android":"levelo://app?vid=ee3c03b2-9a4c-4654-a28e-7388f571d9cb","ios":"levelo://app?vid=ee3c03b2-9a4c-4654-a28e-7388f571d9cb"},"vehicle_type_id":"4","last_reported":1744189892,"current_range_meters":19200,"station_id":"ce4bhr12rcd13ifvqhpg","pricing_plan_id":"cebpf4jnsgd1na2vs0mg"},{"bike_id":"e3c3a051-8134-4ed3-913b-374aa217874c","system_id":"levelo_inurba_marseille","lat":43.2559,"lon":5.40455,"is_reserved":false,"is_disabled":false,"rental_uris":{"android":"levelo://app?vid=e3c3a051-8134-4ed3-913b-374aa217874c","ios":"levelo://app?vid=e3c3a051-8134-4ed3-913b-374aa217874c"},"vehicle_type_id":"4","last_reported":1744189892,"current_range_meters":19200,"station_id":"","pricing_plan_id":"cebpf4jnsgd1na2vs0mg"},{"bike_id":"a1d31b68-22ae-427c-a361-76c698230638","system_id":"levelo_inurba_marseille","lat":43.24171,"lon":5.3971,"is_reserved":false,"is_disabled":false,"rental_uris":{"android":"levelo://app?vid=a1d31b68-22ae-427c-a361-76c698230638","ios":"levelo://app?vid=a1d31b68-22ae-427c-a361-76c698230638"},"vehicle_type_id":"4","last_reported":1744189892,"current_range_meters":19200,"station_id":"ce4bhn12rcd13ifvqgpg","pricing_plan_id":"cebpf4jnsgd1na2vs0mg"},{"bike_id":"2ab54020-df93-4f6b-8cd1-9b0e84795bda","system_id":"levelo_inurba_marseille","lat":43.306,"lon":5.36694,"is_reserved":false,"is_disabled":false,"rental_uris":{"android":"levelo://app?vid=2ab54020-df93-4f6b-8cd1-9b0e84795bda","ios":"levelo://app?vid=2ab54020-df93-4f6b-8cd1-9b0e84795bda"},"vehicle_type_id":"4","last_reported":1744189892,"current_range_meters":19200,"station_id":"","pricing_plan_id":"cebpf4jnsgd1na2vs0mg"},{"bike_id":"600aff3c-d6d9-47d1-a6ea-813390aae2ad","system_id":"levelo_inurba_marseille","lat":43.3088,"lon":5.37199,"is_reserved":false,"is_disabled":true,"rental_uris":{"android":"levelo://app?vid=600aff3c-d6d9-47d1-a6ea-813390aae2ad","ios":"levelo://app?vid=600aff3c-d6d9-47d1-a6ea-813390aae2ad"},"vehicle_type_id":"4","last_reported":1744189892,"current_range_meters":19200,"station_id":"ce4bguh2rcd13ifvqckg","pricing_plan_id":"cebpf4jnsgd1na2vs0mg"},{"bike_id":"6f98403f-9bae-4e4b-8ef4-f740a909b545","system_id":"levelo_inurba_marseille","lat":43.29049,"lon":5.35917,"is_reserved":false,"is_disabled":true,"rental_uris":{"android":"levelo://app?vid=6f98403f-9bae-4e4b-8ef4-f740a909b545","ios":"levelo://app?vid=6f98403f-9bae-4e4b-8ef4-f740a909b545"},"vehicle_type_id":"4","last_reported":1744189892,"current_range_meters":19200,"station_id":"ce4bha92rcd13ifvqeg0","pricing_plan_id":"cebpf4jnsgd1na2vs0mg"},{"bike_id":"7fdabec5-a302-4325-baf7-e267db476a4f","system_id":"levelo_inurba_marseille","lat":43.29889,"lon":5.39748,"is_reserved":false,"is_disabled":true,"rental_uris":{"android":"levelo://app?vid=7fdabec5-a302-4325-baf7-e267db476a4f","ios":"levelo://app?vid=7fdabec5-a302-4325-baf7-e267db476a4f"},"vehicle_type_id":"4","last_reported":1744189892,"current_range_meters":19600,"station_id":"ce4bh0h2rcd13ifvqd50","pricing_plan_id":"cebpf4jnsgd1na2vs0mg"},{"bike_id":"ed32de37-66e8-4fe8-b613-74f9e5810cd6","system_id":"levelo_inurba_marseille","lat":43.311987,"lon":5.373501,"is_reserved":false,"is_disabled":false,"rental_uris":{"android":"levelo://app?vid=ed32de37-66e8-4fe8-b613-74f9e5810cd6","ios":"levelo://app?vid=ed32de37-66e8-4fe8-b613-74f9e5810cd6"},"vehicle_type_id":"4","last_reported":1744189892,"current_range_meters":19600,"station_id":"","pricing_plan_id":"cebpf4jnsgd1na2vs0mg"},{"bike_id":"0ce0317b-4600-4219-b71c-6b0d5ae3a6ef","system_id":"levelo_inurba_marseille","lat":43.25925,"lon":5.40858,"is_reserved":false,"is_disabled":false,"rental_uris":{"android":"levelo://app?vid=0ce0317b-4600-4219-b71c-6b0d5ae3a6ef","ios":"levelo://app?vid=0ce0317b-4600-4219-b71c-6b0d5ae3a6ef"},"vehicle_type_id":"4","last_reported":1744189892,"current_range_meters":19600,"station_id":"ce4bhm92rcd13ifvqglg","pricing_plan_id":"cebpf4jnsgd1na2vs0mg"},{"bike_id":"35648edf-5b72-4c83-a25a-28f9cda4c923","system_id":"levelo_inurba_marseille","lat":43.29422,"lon":5.3862,"is_reserved":false,"is_disabled":false,"rental_uris":{"android":"levelo://app?vid=35648edf-5b72-4c83-a25a-28f9cda4c923","ios":"levelo://app?vid=35648edf-5b72-4c83-a25a-28f9cda4c923"},"vehicle_type_id":"4","last_reported":1744189892,"current_range_meters":19600,"station_id":"ce4bh2h2rcd13ifvqdh0","pricing_plan_id":"cebpf4jnsgd1na2vs0mg"},{"bike_id":"704e5eef-3bc8-49e5-92ea-4e27530f0ac9","system_id":"levelo_inurba_marseille","lat":43.26558,"lon":5.37287,"is_reserved":false,"is_disabled":false,"rental_uris":{"android":"levelo://app?vid=704e5eef-3bc8-49e5-92ea-4e27530f0ac9","ios":"levelo://app?vid=704e5eef-3bc8-49e5-92ea-4e27530f0ac9"},"vehicle_type_id":"4","last_reported":1744189892,"current_range_meters":19600,"station_id":"ce4bhg12rcd13ifvqf70","pricing_plan_id":"cebpf4jnsgd1na2vs0mg"},{"bike_id":"602e51f2-da81-4272-85cf-31c8731c65e8","system_id":"levelo_inurba_marseille","lat":43.29902,"lon":5.4367,"is_reserved":false,"is_disabled":false,"rental_uris":{"android":"levelo://app?vid=602e51f2-da81-4272-85cf-31c8731c65e8","ios":"levelo://app?vid=602e51f2-da81-4272-85cf-31c8731c65e8"},"vehicle_type_id":"4","last_reported":1744189892,"current_range_meters":19600,"station_id":"ce4bhpp2rcd13ifvqhfg","pricing_plan_id":"cebpf4jnsgd1na2vs0mg"},{"bike_id":"0af41378-490b-4082-a76f-6598e96ab451","system_id":"levelo_inurba_marseille","lat":43.24241,"lon":5.39773,"is_reserved":false,"is_disabled":false,"rental_uris":{"android":"levelo://app?vid=0af41378-490b-4082-a76f-6598e96ab451","ios":"levelo://app?vid=0af41378-490b-4082-a76f-6598e96ab451"},"vehicle_type_id":"4","last_reported":1744189892,"current_range_meters":20000,"station_id":"ce4bhn12rcd13ifvqgpg","pricing_plan_id":"cebpf4jnsgd1na2vs0mg"},{"bike_id":"ffa5d5ed-a086-4f86-b677-df68ddd7ba17","system_id":"levelo_inurba_marseille","lat":43.30945,"lon":5.39025,"is_reserved":false,"is_disabled":false,"rental_uris":{"android":"levelo://app?vid=ffa5d5ed-a086-4f86-b677-df68ddd7ba17","ios":"levelo://app?vid=ffa5d5ed-a086-4f86-b677-df68ddd7ba17"},"vehicle_type_id":"4","last_reported":1744189892,"current_range_meters":20000,"station_id":"ce4bgup2rcd13ifvqco0","pricing_plan_id":"cebpf4jnsgd1na2vs0mg"},{"bike_id":"4acb889b-5f66-4948-b1cd-9b3fb8452ac6","system_id":"levelo_inurba_marseille","lat":43.27376,"lon":5.36261,"is_reserved":false,"is_disabled":false,"rental_uris":{"android":"levelo://app?vid=4acb889b-5f66-4948-b1cd-9b3fb8452ac6","ios":"levelo://app?vid=4acb889b-5f66-4948-b1cd-9b3fb8452ac6"},"vehicle_type_id":"4","last_reported":1744189892,"current_range_meters":20000,"station_id":"ce4bhbh2rcd13ifvqeo0","pricing_plan_id":"cebpf4jnsgd1na2vs0mg"},{"bike_id":"ef291804-1477-432e-b153-82ea15725418","system_id":"levelo_inurba_marseille","lat":43.33754,"lon":5.3745,"is_reserved":false,"is_disabled":false,"rental_uris":{"android":"levelo://app?vid=ef291804-1477-432e-b153-82ea15725418","ios":"levelo://app?vid=ef291804-1477-432e-b153-82ea15725418"},"vehicle_type_id":"4","last_reported":1744189892,"current_range_meters":20000,"station_id":"","pricing_plan_id":"cebpf4jnsgd1na2vs0mg"},{"bike_id":"e580c4ac-c01d-48a6-81eb-3b7f1e5dee38","system_id":"levelo_inurba_marseille","lat":43.31891,"lon":5.40748,"is_reserved":false,"is_disabled":false,"rental_uris":{"android":"levelo://app?vid=e580c4ac-c01d-48a6-81eb-3b7f1e5dee38","ios":"levelo://app?vid=e580c4ac-c01d-48a6-81eb-3b7f1e5dee38"},"vehicle_type_id":"4","last_reported":1744189892,"current_range_meters":20000,"station_id":"ce4bhq12rcd13ifvqhig","pricing_plan_id":"cebpf4jnsgd1na2vs0mg"},{"bike_id":"322304d1-7d02-4c63-ab56-b472942145f1","system_id":"levelo_inurba_marseille","lat":43.32653,"lon":5.40953,"is_reserved":false,"is_disabled":false,"rental_uris":{"android":"levelo://app?vid=322304d1-7d02-4c63-ab56-b472942145f1","ios":"levelo://app?vid=322304d1-7d02-4c63-ab56-b472942145f1"},"vehicle_type_id":"4","last_reported":1744189892,"current_range_meters":20000,"station_id":"ce4bhpp2rcd13ifvqhgg","pricing_plan_id":"cebpf4jnsgd1na2vs0mg"},{"bike_id":"c51ff168-1417-4963-901e-87fddeb1f856","system_id":"levelo_inurba_marseille","lat":43.33765,"lon":5.37447,"is_reserved":false,"is_disabled":false,"rental_uris":{"android":"levelo://app?vid=c51ff168-1417-4963-901e-87fddeb1f856","ios":"levelo://app?vid=c51ff168-1417-4963-901e-87fddeb1f856"},"vehicle_type_id":"4","last_reported":1744189892,"current_range_meters":20000,"station_id":"","pricing_plan_id":"cebpf4jnsgd1na2vs0mg"},{"bike_id":"8a2677fc-ea26-43e9-84a6-1cbaf2e60a93","system_id":"levelo_inurba_marseille","lat":43.31332,"lon":5.39695,"is_reserved":false,"is_disabled":false,"rental_uris":{"android":"levelo://app?vid=8a2677fc-ea26-43e9-84a6-1cbaf2e60a93","ios":"levelo://app?vid=8a2677fc-ea26-43e9-84a6-1cbaf2e60a93"},"vehicle_type_id":"4","last_reported":1744189892,"current_range_meters":20000,"station_id":"ce4bgvp2rcd13ifvqcu0","pricing_plan_id":"cebpf4jnsgd1na2vs0mg"},{"bike_id":"39d569f2-804d-4c1f-93cb-ffdd8bba0563","system_id":"levelo_inurba_marseille","lat":43.30566,"lon":5.38468,"is_reserved":false,"is_disabled":true,"rental_uris":{"android":"levelo://app?vid=39d569f2-804d-4c1f-93cb-ffdd8bba0563","ios":"levelo://app?vid=39d569f2-804d-4c1f-93cb-ffdd8bba0563"},"vehicle_type_id":"4","last_reported":1744189892,"current_range_meters":20400,"station_id":"","pricing_plan_id":"cebpf4jnsgd1na2vs0mg"},{"bike_id":"231aaa88-1e79-4a74-a543-651d8fd5a027","system_id":"levelo_inurba_marseille","lat":43.33084,"lon":5.40502,"is_reserved":false,"is_disabled":false,"rental_uris":{"android":"levelo://app?vid=231aaa88-1e79-4a74-a543-651d8fd5a027","ios":"levelo://app?vid=231aaa88-1e79-4a74-a543-651d8fd5a027"},"vehicle_type_id":"4","last_reported":1744189892,"current_range_meters":20400,"station_id":"","pricing_plan_id":"cebpf4jnsgd1na2vs0mg"},{"bike_id":"d3431357-be25-45f5-8e59-772acd73a5a5","system_id":"levelo_inurba_marseille","lat":43.24997,"lon":5.38937,"is_reserved":false,"is_disabled":false,"rental_uris":{"android":"levelo://app?vid=d3431357-be25-45f5-8e59-772acd73a5a5","ios":"levelo://app?vid=d3431357-be25-45f5-8e59-772acd73a5a5"},"vehicle_type_id":"4","last_reported":1744189892,"current_range_meters":20400,"station_id":"ce4bhgp2rcd13ifvqfd0","pricing_plan_id":"cebpf4jnsgd1na2vs0mg"},{"bike_id":"88b473cb-adb9-4741-8ed4-e8e06f68fbe5","system_id":"levelo_inurba_marseille","lat":43.25575,"lon":5.38229,"is_reserved":false,"is_disabled":false,"rental_uris":{"android":"levelo://app?vid=88b473cb-adb9-4741-8ed4-e8e06f68fbe5","ios":"levelo://app?vid=88b473cb-adb9-4741-8ed4-e8e06f68fbe5"},"vehicle_type_id":"4","last_reported":1744189892,"current_range_meters":20400,"station_id":"ce4bhih2rcd13ifvqfs0","pricing_plan_id":"cebpf4jnsgd1na2vs0mg"},{"bike_id":"7850e2dc-93fa-4054-baad-745997674d81","system_id":"levelo_inurba_marseille","lat":43.29554,"lon":5.42278,"is_reserved":false,"is_disabled":false,"rental_uris":{"android":"levelo://app?vid=7850e2dc-93fa-4054-baad-745997674d81","ios":"levelo://app?vid=7850e2dc-93fa-4054-baad-745997674d81"},"vehicle_type_id":"4","last_reported":1744189892,"current_range_meters":20400,"station_id":"ce4bhph2rcd13ifvqhdg","pricing_plan_id":"cebpf4jnsgd1na2vs0mg"},{"bike_id":"2b54a496-5bb2-42c4-bb01-6f1e5c2215a7","system_id":"levelo_inurba_marseille","lat":43.30807,"lon":5.37668,"is_reserved":false,"is_disabled":true,"rental_uris":{"android":"levelo://app?vid=2b54a496-5bb2-42c4-bb01-6f1e5c2215a7","ios":"levelo://app?vid=2b54a496-5bb2-42c4-bb01-6f1e5c2215a7"},"vehicle_type_id":"4","last_reported":1744189892,"current_range_meters":20400,"station_id":"ce4bgv92rcd13ifvqcq0","pricing_plan_id":"cebpf4jnsgd1na2vs0mg"},{"bike_id":"01e8afc9-b963-4a9d-8f00-0de96c1dfc93","system_id":"levelo_inurba_marseille","lat":43.24169,"lon":5.36404,"is_reserved":false,"is_disabled":false,"rental_uris":{"android":"levelo://app?vid=01e8afc9-b963-4a9d-8f00-0de96c1dfc93","ios":"levelo://app?vid=01e8afc9-b963-4a9d-8f00-0de96c1dfc93"},"vehicle_type_id":"4","last_reported":1744189892,"current_range_meters":20400,"station_id":"cpo36qri1sfpv3e86is0","pricing_plan_id":"cebpf4jnsgd1na2vs0mg"},{"bike_id":"d7f54590-0468-416a-9dcf-c7d72f44c6ad","system_id":"levelo_inurba_marseille","lat":43.29557,"lon":5.37527,"is_reserved":false,"is_disabled":false,"rental_uris":{"android":"levelo://app?vid=d7f54590-0468-416a-9dcf-c7d72f44c6ad","ios":"levelo://app?vid=d7f54590-0468-416a-9dcf-c7d72f44c6ad"},"vehicle_type_id":"4","last_reported":1744189892,"current_range_meters":20800,"station_id":"ce4bgh92rcd13ifvqb50","pricing_plan_id":"cebpf4jnsgd1na2vs0mg"},{"bike_id":"795e2112-4d49-4633-a166-f4ebb854448b","system_id":"levelo_inurba_marseille","lat":43.29921,"lon":5.3748,"is_reserved":false,"is_disabled":false,"rental_uris":{"android":"levelo://app?vid=795e2112-4d49-4633-a166-f4ebb854448b","ios":"levelo://app?vid=795e2112-4d49-4633-a166-f4ebb854448b"},"vehicle_type_id":"4","last_reported":1744189892,"current_range_meters":20800,"station_id":"ce4bgjh2rcd13ifvqbg0","pricing_plan_id":"cebpf4jnsgd1na2vs0mg"},{"bike_id":"7b09db34-a4bb-4535-a52b-7af3d25469b7","system_id":"levelo_inurba_marseille","lat":43.30652,"lon":5.40079,"is_reserved":false,"is_disabled":false,"rental_uris":{"android":"levelo://app?vid=7b09db34-a4bb-4535-a52b-7af3d25469b7","ios":"levelo://app?vid=7b09db34-a4bb-4535-a52b-7af3d25469b7"},"vehicle_type_id":"4","last_reported":1744189892,"current_range_meters":20800,"station_id":"ce4bh112rcd13ifvqda0","pricing_plan_id":"cebpf4jnsgd1na2vs0mg"},{"bike_id":"6c63e1cd-38d4-4380-9c7d-06de55597b25","system_id":"levelo_inurba_marseille","lat":43.23159,"lon":5.4372,"is_reserved":false,"is_disabled":false,"rental_uris":{"android":"levelo://app?vid=6c63e1cd-38d4-4380-9c7d-06de55597b25","ios":"levelo://app?vid=6c63e1cd-38d4-4380-9c7d-06de55597b25"},"vehicle_type_id":"4","last_reported":1744189892,"current_range_meters":21600,"station_id":"ce4bhmp2rcd13ifvqgog","pricing_plan_id":"cebpf4jnsgd1na2vs0mg"},{"bike_id":"1006b375-f33b-4d86-9c2d-a03b2c58365f","system_id":"levelo_inurba_marseille","lat":43.29277,"lon":5.3761,"is_reserved":false,"is_disabled":false,"rental_uris":{"android":"levelo://app?vid=1006b375-f33b-4d86-9c2d-a03b2c58365f","ios":"levelo://app?vid=1006b375-f33b-4d86-9c2d-a03b2c58365f"},"vehicle_type_id":"4","last_reported":1744189892,"current_range_meters":21600,"station_id":"ce4bgi12rcd13ifvqb80","pricing_plan_id":"cebpf4jnsgd1na2vs0mg"},{"bike_id":"0283608e-5631-4128-a841-d317e898aab9","system_id":"levelo_inurba_marseille","lat":43.30545,"lon":5.36701,"is_reserved":false,"is_disabled":false,"rental_uris":{"android":"levelo://app?vid=0283608e-5631-4128-a841-d317e898aab9","ios":"levelo://app?vid=0283608e-5631-4128-a841-d317e898aab9"},"vehicle_type_id":"4","last_reported":1744189892,"current_range_meters":21600,"station_id":"ce4bgrp2rcd13ifvqc9g","pricing_plan_id":"cebpf4jnsgd1na2vs0mg"},{"bike_id":"beb19d91-81b5-41b9-b15a-a8918371a429","system_id":"levelo_inurba_marseille","lat":43.26229,"lon":5.40447,"is_reserved":false,"is_disabled":false,"rental_uris":{"android":"levelo://app?vid=beb19d91-81b5-41b9-b15a-a8918371a429","ios":"levelo://app?vid=beb19d91-81b5-41b9-b15a-a8918371a429"},"vehicle_type_id":"4","last_reported":1744189892,"current_range_meters":21600,"station_id":"ce4bhmh2rcd13ifvqgmg","pricing_plan_id":"cebpf4jnsgd1na2vs0mg"},{"bike_id":"d64648ad-988e-4859-9e47-00782dbc6c22","system_id":"levelo_inurba_marseille","lat":43.2318,"lon":5.43713,"is_reserved":false,"is_disabled":false,"rental_uris":{"android":"levelo://app?vid=d64648ad-988e-4859-9e47-00782dbc6c22","ios":"levelo://app?vid=d64648ad-988e-4859-9e47-00782dbc6c22"},"vehicle_type_id":"4","last_reported":1744189892,"current_range_meters":21600,"station_id":"ce4bhmp2rcd13ifvqgog","pricing_plan_id":"cebpf4jnsgd1na2vs0mg"},{"bike_id":"694ae6a8-dce5-407b-b879-65b5af1fbe80","system_id":"levelo_inurba_marseille","lat":43.28513,"lon":5.38592,"is_reserved":false,"is_disabled":false,"rental_uris":{"android":"levelo://app?vid=694ae6a8-dce5-407b-b879-65b5af1fbe80","ios":"levelo://app?vid=694ae6a8-dce5-407b-b879-65b5af1fbe80"},"vehicle_type_id":"4","last_reported":1744189892,"current_range_meters":21600,"station_id":"ce4bh8p2rcd13ifvqeb0","pricing_plan_id":"cebpf4jnsgd1na2vs0mg"},{"bike_id":"398bb198-1c39-41b4-9c90-92e8eb80d230","system_id":"levelo_inurba_marseille","lat":43.30636,"lon":5.39349,"is_reserved":false,"is_disabled":true,"rental_uris":{"android":"levelo://app?vid=398bb198-1c39-41b4-9c90-92e8eb80d230","ios":"levelo://app?vid=398bb198-1c39-41b4-9c90-92e8eb80d230"},"vehicle_type_id":"4","last_reported":1744189892,"current_range_meters":21600,"station_id":"ce4bh0p2rcd13ifvqd80","pricing_plan_id":"cebpf4jnsgd1na2vs0mg"},{"bike_id":"b5e4438f-d942-444d-8724-ea5468be5782","system_id":"levelo_inurba_marseille","lat":43.28153,"lon":5.4265,"is_reserved":false,"is_disabled":false,"rental_uris":{"android":"levelo://app?vid=b5e4438f-d942-444d-8724-ea5468be5782","ios":"levelo://app?vid=b5e4438f-d942-444d-8724-ea5468be5782"},"vehicle_type_id":"4","last_reported":1744189892,"current_range_meters":21600,"station_id":"ce4bhnh2rcd13ifvqgug","pricing_plan_id":"cebpf4jnsgd1na2vs0mg"},{"bike_id":"9dd4623a-1856-4da1-b6f2-575f4b7a0640","system_id":"levelo_inurba_marseille","lat":43.23157,"lon":5.43711,"is_reserved":false,"is_disabled":false,"rental_uris":{"android":"levelo://app?vid=9dd4623a-1856-4da1-b6f2-575f4b7a0640","ios":"levelo://app?vid=9dd4623a-1856-4da1-b6f2-575f4b7a0640"},"vehicle_type_id":"4","last_reported":1744189892,"current_range_meters":21600,"station_id":"ce4bhmp2rcd13ifvqgog","pricing_plan_id":"cebpf4jnsgd1na2vs0mg"},{"bike_id":"36883057-499b-458b-9f5f-5bf3c0f09345","system_id":"levelo_inurba_marseille","lat":43.305367,"lon":5.366999,"is_reserved":false,"is_disabled":false,"rental_uris":{"android":"levelo://app?vid=36883057-499b-458b-9f5f-5bf3c0f09345","ios":"levelo://app?vid=36883057-499b-458b-9f5f-5bf3c0f09345"},"vehicle_type_id":"4","last_reported":1744189892,"current_range_meters":21600,"station_id":"ce4bgrp2rcd13ifvqc9g","pricing_plan_id":"cebpf4jnsgd1na2vs0mg"},{"bike_id":"1ffe3d85-0a1b-477b-9b5c-743eceb1513b","system_id":"levelo_inurba_marseille","lat":43.306642,"lon":5.400702,"is_reserved":false,"is_disabled":false,"rental_uris":{"android":"levelo://app?vid=1ffe3d85-0a1b-477b-9b5c-743eceb1513b","ios":"levelo://app?vid=1ffe3d85-0a1b-477b-9b5c-743eceb1513b"},"vehicle_type_id":"4","last_reported":1744189892,"current_range_meters":21600,"station_id":"ce4bh112rcd13ifvqda0","pricing_plan_id":"cebpf4jnsgd1na2vs0mg"},{"bike_id":"ecc595b4-4dc4-4695-a577-8ff75f5e5dea","system_id":"levelo_inurba_marseille","lat":43.27209,"lon":5.39178,"is_reserved":false,"is_disabled":false,"rental_uris":{"android":"levelo://app?vid=ecc595b4-4dc4-4695-a577-8ff75f5e5dea","ios":"levelo://app?vid=ecc595b4-4dc4-4695-a577-8ff75f5e5dea"},"vehicle_type_id":"4","last_reported":1744189892,"current_range_meters":21600,"station_id":"ce4bhhp2rcd13ifvqfm0","pricing_plan_id":"cebpf4jnsgd1na2vs0mg"},{"bike_id":"950c8068-285d-4991-9af4-efc8aa26c384","system_id":"levelo_inurba_marseille","lat":43.29848,"lon":5.36277,"is_reserved":false,"is_disabled":false,"rental_uris":{"android":"levelo://app?vid=950c8068-285d-4991-9af4-efc8aa26c384","ios":"levelo://app?vid=950c8068-285d-4991-9af4-efc8aa26c384"},"vehicle_type_id":"4","last_reported":1744189892,"current_range_meters":21600,"station_id":"ce4bgpp2rcd13ifvqc3g","pricing_plan_id":"cebpf4jnsgd1na2vs0mg"},{"bike_id":"fa399542-243e-4d1f-bddc-f382feb81957","system_id":"levelo_inurba_marseille","lat":43.32665,"lon":5.41004,"is_reserved":false,"is_disabled":false,"rental_uris":{"android":"levelo://app?vid=fa399542-243e-4d1f-bddc-f382feb81957","ios":"levelo://app?vid=fa399542-243e-4d1f-bddc-f382feb81957"},"vehicle_type_id":"4","last_reported":1744189892,"current_range_meters":22000,"station_id":"ce4bhpp2rcd13ifvqhgg","pricing_plan_id":"cebpf4jnsgd1na2vs0mg"},{"bike_id":"8aa2d037-dd5d-432c-aee8-c7a5a1444baa","system_id":"levelo_inurba_marseille","lat":43.30509,"lon":5.37909,"is_reserved":false,"is_disabled":false,"rental_uris":{"android":"levelo://app?vid=8aa2d037-dd5d-432c-aee8-c7a5a1444baa","ios":"levelo://app?vid=8aa2d037-dd5d-432c-aee8-c7a5a1444baa"},"vehicle_type_id":"4","last_reported":1744189892,"current_range_meters":22000,"station_id":"ce4bgup2rcd13ifvqcn0","pricing_plan_id":"cebpf4jnsgd1na2vs0mg"},{"bike_id":"872eb5cd-f642-4091-be84-d58b0bf7e732","system_id":"levelo_inurba_marseille","lat":43.26789,"lon":5.39424,"is_reserved":false,"is_disabled":false,"rental_uris":{"android":"levelo://app?vid=872eb5cd-f642-4091-be84-d58b0bf7e732","ios":"levelo://app?vid=872eb5cd-f642-4091-be84-d58b0bf7e732"},"vehicle_type_id":"4","last_reported":1744189892,"current_range_meters":22000,"station_id":"ce4bhh12rcd13ifvqfg0","pricing_plan_id":"cebpf4jnsgd1na2vs0mg"},{"bike_id":"0f50bf07-976b-488f-8955-5ca81ae2d9af","system_id":"levelo_inurba_marseille","lat":43.30965,"lon":5.39058,"is_reserved":false,"is_disabled":false,"rental_uris":{"android":"levelo://app?vid=0f50bf07-976b-488f-8955-5ca81ae2d9af","ios":"levelo://app?vid=0f50bf07-976b-488f-8955-5ca81ae2d9af"},"vehicle_type_id":"4","last_reported":1744189892,"current_range_meters":22000,"station_id":"ce4bgup2rcd13ifvqco0","pricing_plan_id":"cebpf4jnsgd1na2vs0mg"},{"bike_id":"01630ea0-5332-433a-a16e-6f3673dfcb0c","system_id":"levelo_inurba_marseille","lat":43.24176,"lon":5.39743,"is_reserved":false,"is_disabled":false,"rental_uris":{"android":"levelo://app?vid=01630ea0-5332-433a-a16e-6f3673dfcb0c","ios":"levelo://app?vid=01630ea0-5332-433a-a16e-6f3673dfcb0c"},"vehicle_type_id":"4","last_reported":1744189892,"current_range_meters":22400,"station_id":"ce4bhn12rcd13ifvqgpg","pricing_plan_id":"cebpf4jnsgd1na2vs0mg"},{"bike_id":"6e668670-6544-461f-9577-fdc751e4bb8d","system_id":"levelo_inurba_marseille","lat":43.31348,"lon":5.36726,"is_reserved":false,"is_disabled":false,"rental_uris":{"android":"levelo://app?vid=6e668670-6544-461f-9577-fdc751e4bb8d","ios":"levelo://app?vid=6e668670-6544-461f-9577-fdc751e4bb8d"},"vehicle_type_id":"4","last_reported":1744189892,"current_range_meters":22400,"station_id":"ce4bgr92rcd13ifvqc6g","pricing_plan_id":"cebpf4jnsgd1na2vs0mg"},{"bike_id":"9d3e76f9-45fd-46f8-afa5-526c6449db0f","system_id":"levelo_inurba_marseille","lat":43.3248,"lon":5.36568,"is_reserved":false,"is_disabled":false,"rental_uris":{"android":"levelo://app?vid=9d3e76f9-45fd-46f8-afa5-526c6449db0f","ios":"levelo://app?vid=9d3e76f9-45fd-46f8-afa5-526c6449db0f"},"vehicle_type_id":"4","last_reported":1744189892,"current_range_meters":22400,"station_id":"ce4bhs12rcd13ifvqhvg","pricing_plan_id":"cebpf4jnsgd1na2vs0mg"},{"bike_id":"b97f44e4-cd97-45cd-88e6-c776de603dca","system_id":"levelo_inurba_marseille","lat":43.29366,"lon":5.37837,"is_reserved":false,"is_disabled":false,"rental_uris":{"android":"levelo://app?vid=b97f44e4-cd97-45cd-88e6-c776de603dca","ios":"levelo://app?vid=b97f44e4-cd97-45cd-88e6-c776de603dca"},"vehicle_type_id":"4","last_reported":1744189892,"current_range_meters":22400,"station_id":"ce4bgjh2rcd13ifvqbf0","pricing_plan_id":"cebpf4jnsgd1na2vs0mg"},{"bike_id":"e41008e5-d0f7-4c15-8b24-2cc0ef9083fa","system_id":"levelo_inurba_marseille","lat":43.30425,"lon":5.38893,"is_reserved":false,"is_disabled":false,"rental_uris":{"android":"levelo://app?vid=e41008e5-d0f7-4c15-8b24-2cc0ef9083fa","ios":"levelo://app?vid=e41008e5-d0f7-4c15-8b24-2cc0ef9083fa"},"vehicle_type_id":"4","last_reported":1744189892,"current_range_meters":22400,"station_id":"ce4bgk12rcd13ifvqbi0","pricing_plan_id":"cebpf4jnsgd1na2vs0mg"},{"bike_id":"72a00ed5-0598-41be-ac79-894149e24468","system_id":"levelo_inurba_marseille","lat":43.25015,"lon":5.38943,"is_reserved":false,"is_disabled":false,"rental_uris":{"android":"levelo://app?vid=72a00ed5-0598-41be-ac79-894149e24468","ios":"levelo://app?vid=72a00ed5-0598-41be-ac79-894149e24468"},"vehicle_type_id":"4","last_reported":1744189892,"current_range_meters":22800,"station_id":"ce4bhgp2rcd13ifvqfd0","pricing_plan_id":"cebpf4jnsgd1na2vs0mg"},{"bike_id":"593cc697-220e-4df3-9f2b-b1793070fa32","system_id":"levelo_inurba_marseille","lat":43.305674,"lon":5.365244,"is_reserved":false,"is_disabled":true,"rental_uris":{"android":"levelo://app?vid=593cc697-220e-4df3-9f2b-b1793070fa32","ios":"levelo://app?vid=593cc697-220e-4df3-9f2b-b1793070fa32"},"vehicle_type_id":"4","last_reported":1744189892,"current_range_meters":22800,"station_id":"ce4bgs12rcd13ifvqcag","pricing_plan_id":"cebpf4jnsgd1na2vs0mg"},{"bike_id":"1f0e0054-66e5-41d7-80d5-be35261af9da","system_id":"levelo_inurba_marseille","lat":43.33026,"lon":5.39042,"is_reserved":false,"is_disabled":false,"rental_uris":{"android":"levelo://app?vid=1f0e0054-66e5-41d7-80d5-be35261af9da","ios":"levelo://app?vid=1f0e0054-66e5-41d7-80d5-be35261af9da"},"vehicle_type_id":"4","last_reported":1744189892,"current_range_meters":22800,"station_id":"ce4bhr92rcd13ifvqhrg","pricing_plan_id":"cebpf4jnsgd1na2vs0mg"},{"bike_id":"e67a7ade-aeec-429e-b3c4-95248dfb4c74","system_id":"levelo_inurba_marseille","lat":43.29038,"lon":5.37561,"is_reserved":false,"is_disabled":false,"rental_uris":{"android":"levelo://app?vid=e67a7ade-aeec-429e-b3c4-95248dfb4c74","ios":"levelo://app?vid=e67a7ade-aeec-429e-b3c4-95248dfb4c74"},"vehicle_type_id":"4","last_reported":1744189892,"current_range_meters":22800,"station_id":"ce4bh692rcd13ifvqe90","pricing_plan_id":"cebpf4jnsgd1na2vs0mg"},{"bike_id":"248e6f2f-2e1e-4e0a-bdb3-badd9dc01398","system_id":"levelo_inurba_marseille","lat":43.28029,"lon":5.40874,"is_reserved":false,"is_disabled":false,"rental_uris":{"android":"levelo://app?vid=248e6f2f-2e1e-4e0a-bdb3-badd9dc01398","ios":"levelo://app?vid=248e6f2f-2e1e-4e0a-bdb3-badd9dc01398"},"vehicle_type_id":"4","last_reported":1744189892,"current_range_meters":22800,"station_id":"","pricing_plan_id":"cebpf4jnsgd1na2vs0mg"},{"bike_id":"307ca3dc-502e-47c4-8e67-591c766d3653","system_id":"levelo_inurba_marseille","lat":43.29561,"lon":5.37518,"is_reserved":false,"is_disabled":false,"rental_uris":{"android":"levelo://app?vid=307ca3dc-502e-47c4-8e67-591c766d3653","ios":"levelo://app?vid=307ca3dc-502e-47c4-8e67-591c766d3653"},"vehicle_type_id":"4","last_reported":1744189892,"current_range_meters":22800,"station_id":"ce4bgh92rcd13ifvqb50","pricing_plan_id":"cebpf4jnsgd1na2vs0mg"},{"bike_id":"19a78bfc-d7ad-4762-aec6-4c599c037b06","system_id":"levelo_inurba_marseille","lat":43.24168,"lon":5.39728,"is_reserved":false,"is_disabled":false,"rental_uris":{"android":"levelo://app?vid=19a78bfc-d7ad-4762-aec6-4c599c037b06","ios":"levelo://app?vid=19a78bfc-d7ad-4762-aec6-4c599c037b06"},"vehicle_type_id":"4","last_reported":1744189892,"current_range_meters":22800,"station_id":"ce4bhn12rcd13ifvqgpg","pricing_plan_id":"cebpf4jnsgd1na2vs0mg"},{"bike_id":"eab6cbfa-cb8e-47d7-b0d6-226ab7facec7","system_id":"levelo_inurba_marseille","lat":43.31719,"lon":5.424,"is_reserved":false,"is_disabled":true,"rental_uris":{"android":"levelo://app?vid=eab6cbfa-cb8e-47d7-b0d6-226ab7facec7","ios":"levelo://app?vid=eab6cbfa-cb8e-47d7-b0d6-226ab7facec7"},"vehicle_type_id":"4","last_reported":1744189892,"current_range_meters":22800,"station_id":"ce4bhp92rcd13ifvqhbg","pricing_plan_id":"cebpf4jnsgd1na2vs0mg"},{"bike_id":"50deb72e-5960-4e77-b6ad-907fdfa7b57d","system_id":"levelo_inurba_marseille","lat":43.29548,"lon":5.37489,"is_reserved":false,"is_disabled":true,"rental_uris":{"android":"levelo://app?vid=50deb72e-5960-4e77-b6ad-907fdfa7b57d","ios":"levelo://app?vid=50deb72e-5960-4e77-b6ad-907fdfa7b57d"},"vehicle_type_id":"4","last_reported":1744189892,"current_range_meters":22800,"station_id":"ce4bgkp2rcd13ifvqbmg","pricing_plan_id":"cebpf4jnsgd1na2vs0mg"},{"bike_id":"d5e984d3-343e-4e16-bd54-bc3ebbd48639","system_id":"levelo_inurba_marseille","lat":43.30103,"lon":5.38768,"is_reserved":false,"is_disabled":true,"rental_uris":{"android":"levelo://app?vid=d5e984d3-343e-4e16-bd54-bc3ebbd48639","ios":"levelo://app?vid=d5e984d3-343e-4e16-bd54-bc3ebbd48639"},"vehicle_type_id":"4","last_reported":1744189892,"current_range_meters":23200,"station_id":"ce4bghh2rcd13ifvqb60","pricing_plan_id":"cebpf4jnsgd1na2vs0mg"},{"bike_id":"07d5ee94-fd4b-4391-8456-f4d271cfd373","system_id":"levelo_inurba_marseille","lat":43.31336,"lon":5.36641,"is_reserved":false,"is_disabled":false,"rental_uris":{"android":"levelo://app?vid=07d5ee94-fd4b-4391-8456-f4d271cfd373","ios":"levelo://app?vid=07d5ee94-fd4b-4391-8456-f4d271cfd373"},"vehicle_type_id":"4","last_reported":1744189892,"current_range_meters":23200,"station_id":"ce4bgr92rcd13ifvqc6g","pricing_plan_id":"cebpf4jnsgd1na2vs0mg"},{"bike_id":"5cb27746-4db8-4218-b2da-136729588c53","system_id":"levelo_inurba_marseille","lat":43.272099,"lon":5.391819,"is_reserved":false,"is_disabled":false,"rental_uris":{"android":"levelo://app?vid=5cb27746-4db8-4218-b2da-136729588c53","ios":"levelo://app?vid=5cb27746-4db8-4218-b2da-136729588c53"},"vehicle_type_id":"4","last_reported":1744189892,"current_range_meters":22800,"station_id":"ce4bhg92rcd13ifvqf90","pricing_plan_id":"cebpf4jnsgd1na2vs0mg"},{"bike_id":"509b175b-3c7c-49aa-9e2c-ce922a8006af","system_id":"levelo_inurba_marseille","lat":43.23163,"lon":5.43745,"is_reserved":false,"is_disabled":false,"rental_uris":{"android":"levelo://app?vid=509b175b-3c7c-49aa-9e2c-ce922a8006af","ios":"levelo://app?vid=509b175b-3c7c-49aa-9e2c-ce922a8006af"},"vehicle_type_id":"4","last_reported":1744189892,"current_range_meters":23200,"station_id":"ce4bhmp2rcd13ifvqgog","pricing_plan_id":"cebpf4jnsgd1na2vs0mg"},{"bike_id":"247a0edf-1964-4141-9707-d12e0ca78b53","system_id":"levelo_inurba_marseille","lat":43.305422,"lon":5.365582,"is_reserved":false,"is_disabled":false,"rental_uris":{"android":"levelo://app?vid=247a0edf-1964-4141-9707-d12e0ca78b53","ios":"levelo://app?vid=247a0edf-1964-4141-9707-d12e0ca78b53"},"vehicle_type_id":"4","last_reported":1744189892,"current_range_meters":23200,"station_id":"ce4bgs12rcd13ifvqcag","pricing_plan_id":"cebpf4jnsgd1na2vs0mg"},{"bike_id":"9484f65c-fffc-4f99-ac57-cfbd0276f9d0","system_id":"levelo_inurba_marseille","lat":43.31353,"lon":5.36715,"is_reserved":false,"is_disabled":false,"rental_uris":{"android":"levelo://app?vid=9484f65c-fffc-4f99-ac57-cfbd0276f9d0","ios":"levelo://app?vid=9484f65c-fffc-4f99-ac57-cfbd0276f9d0"},"vehicle_type_id":"4","last_reported":1744189892,"current_range_meters":23200,"station_id":"ce4bgr92rcd13ifvqc6g","pricing_plan_id":"cebpf4jnsgd1na2vs0mg"},{"bike_id":"e2c7d61d-28b9-4eae-9531-c9da5c27e6c3","system_id":"levelo_inurba_marseille","lat":43.32908,"lon":5.42647,"is_reserved":false,"is_disabled":true,"rental_uris":{"android":"levelo://app?vid=e2c7d61d-28b9-4eae-9531-c9da5c27e6c3","ios":"levelo://app?vid=e2c7d61d-28b9-4eae-9531-c9da5c27e6c3"},"vehicle_type_id":"4","last_reported":1744189892,"current_range_meters":23200,"station_id":"","pricing_plan_id":"cebpf4jnsgd1na2vs0mg"},{"bike_id":"3cafc5bc-a11b-4af7-bed0-d49d49feb8ea","system_id":"levelo_inurba_marseille","lat":43.31364,"lon":5.38496,"is_reserved":false,"is_disabled":false,"rental_uris":{"android":"levelo://app?vid=3cafc5bc-a11b-4af7-bed0-d49d49feb8ea","ios":"levelo://app?vid=3cafc5bc-a11b-4af7-bed0-d49d49feb8ea"},"vehicle_type_id":"4","last_reported":1744189892,"current_range_meters":23200,"station_id":"ce4bgt92rcd13ifvqcf0","pricing_plan_id":"cebpf4jnsgd1na2vs0mg"},{"bike_id":"6d2011ec-21bc-4290-8476-c750a23772a7","system_id":"levelo_inurba_marseille","lat":43.30553,"lon":5.36566,"is_reserved":false,"is_disabled":true,"rental_uris":{"android":"levelo://app?vid=6d2011ec-21bc-4290-8476-c750a23772a7","ios":"levelo://app?vid=6d2011ec-21bc-4290-8476-c750a23772a7"},"vehicle_type_id":"4","last_reported":1744189892,"current_range_meters":23200,"station_id":"ce4bgs12rcd13ifvqcag","pricing_plan_id":"cebpf4jnsgd1na2vs0mg"},{"bike_id":"182650a6-9433-4951-80ba-44b6e3878dab","system_id":"levelo_inurba_marseille","lat":43.30548,"lon":5.38445,"is_reserved":false,"is_disabled":true,"rental_uris":{"android":"levelo://app?vid=182650a6-9433-4951-80ba-44b6e3878dab","ios":"levelo://app?vid=182650a6-9433-4951-80ba-44b6e3878dab"},"vehicle_type_id":"4","last_reported":1744189892,"current_range_meters":23200,"station_id":"ce4bgg92rcd13ifvqb30","pricing_plan_id":"cebpf4jnsgd1na2vs0mg"},{"bike_id":"d906626f-b9d3-4e69-82de-a58a46650656","system_id":"levelo_inurba_marseille","lat":43.30132,"lon":5.37409,"is_reserved":false,"is_disabled":false,"rental_uris":{"android":"levelo://app?vid=d906626f-b9d3-4e69-82de-a58a46650656","ios":"levelo://app?vid=d906626f-b9d3-4e69-82de-a58a46650656"},"vehicle_type_id":"4","last_reported":1744189892,"current_range_meters":23200,"station_id":"ce4bgs92rcd13ifvqcc0","pricing_plan_id":"cebpf4jnsgd1na2vs0mg"},{"bike_id":"f9fde33d-3e05-4f24-9670-2ad2d1cacdc1","system_id":"levelo_inurba_marseille","lat":43.28827,"lon":5.372965,"is_reserved":false,"is_disabled":true,"rental_uris":{"android":"levelo://app?vid=f9fde33d-3e05-4f24-9670-2ad2d1cacdc1","ios":"levelo://app?vid=f9fde33d-3e05-4f24-9670-2ad2d1cacdc1"},"vehicle_type_id":"4","last_reported":1744189892,"current_range_meters":24000,"station_id":"","pricing_plan_id":"cebpf4jnsgd1na2vs0mg"},{"bike_id":"86c09796-436c-4277-9510-d181add87a25","system_id":"levelo_inurba_marseille","lat":43.31248,"lon":5.36847,"is_reserved":false,"is_disabled":false,"rental_uris":{"android":"levelo://app?vid=86c09796-436c-4277-9510-d181add87a25","ios":"levelo://app?vid=86c09796-436c-4277-9510-d181add87a25"},"vehicle_type_id":"4","last_reported":1744189892,"current_range_meters":24000,"station_id":"ce4bgl92rcd13ifvqbq0","pricing_plan_id":"cebpf4jnsgd1na2vs0mg"},{"bike_id":"8fc16c75-e604-4c52-a312-42360968884c","system_id":"levelo_inurba_marseille","lat":43.27944,"lon":5.41052,"is_reserved":false,"is_disabled":false,"rental_uris":{"android":"levelo://app?vid=8fc16c75-e604-4c52-a312-42360968884c","ios":"levelo://app?vid=8fc16c75-e604-4c52-a312-42360968884c"},"vehicle_type_id":"4","last_reported":1744189892,"current_range_meters":24000,"station_id":"ce4bhnp2rcd13ifvqh0g","pricing_plan_id":"cebpf4jnsgd1na2vs0mg"},{"bike_id":"5a3a6f88-3562-47f7-a54a-ee68e4cdafc2","system_id":"levelo_inurba_marseille","lat":43.30896,"lon":5.36855,"is_reserved":false,"is_disabled":false,"rental_uris":{"android":"levelo://app?vid=5a3a6f88-3562-47f7-a54a-ee68e4cdafc2","ios":"levelo://app?vid=5a3a6f88-3562-47f7-a54a-ee68e4cdafc2"},"vehicle_type_id":"4","last_reported":1744189892,"current_range_meters":24000,"station_id":"ce4bgn92rcd13ifvqbvg","pricing_plan_id":"cebpf4jnsgd1na2vs0mg"},