{"last_updated":1729458512,"ttl":60,"version":"2.2","data":{"bikes":[{"bike_id":"9184e00a-b6ec-4bae-bf55-7db7d1efed40","system_id":"levelo_inurba_marseille","lat":43.28358,"lon":5.38612,"is_reserved":false,"is_disabled":false,"rental_uris":{"android":"levelo://app?vid=9184e00a-b6ec-4bae-bf55-7db7d1efed40","ios":"levelo://app?vid=9184e00a-b6ec-4bae-bf55-7db7d1efed40"},"vehicle_type_id":"4","last_reported":1729458512,"current_range_meters":10000,"station_id":"ce4bh492rcd13ifvqdvg","pricing_plan_id":"cebpf4jnsgd1na2vs0mg"},{"bike_id":"dc93bb9b-0ec8-42bf-bfa8-9ae4300b412b","system_id":"levelo_inurba_marseille","lat":43.28488,"lon":5.38548,"is_reserved":false,"is_disabled":false,"rental_uris":{"android":"levelo://app?vid=dc93bb9b-0ec8-42bf-bfa8-9ae4300b412b","ios":"levelo://app?vid=dc93bb9b-0ec8-42bf-bfa8-9ae4300b412b"},"vehicle_type_id":"4","last_reported":1729458512,"current_range_meters":10000,"station_id":"ce4bh8p2rcd13ifvqeb0","pricing_plan_id":"cebpf4jnsgd1na2vs0mg"},{"bike_id":"f2cf55f4-aa83-4a41-8c86-05d88bb3727e","system_id":"levelo_inurba_marseille","lat":43.3113,"lon":5.37752,"is_reserved":false,"is_disabled":false,"rental_uris":{"android":"levelo://app?vid=f2cf55f4-aa83-4a41-8c86-05d88bb3727e","ios":"levelo://app?vid=f2cf55f4-aa83-4a41-8c86-05d88bb3727e"},"vehicle_type_id":"4","last_reported":1729458512,"current_range_meters":21600,"station_id":"ce4bgt92rcd13ifvqcg0","pricing_plan_id":"cebpf4jnsgd1na2vs0mg"},{"bike_id":"2aae6609-bf72-4b69-8776-85ccbbd9b0e5","system_id":"levelo_inurba_marseille","lat":43.22927,"lon":5.35375,"is_reserved":false,"is_disabled":false,"rental_uris":{"android":"levelo://app?vid=2aae6609-bf72-4b69-8776-85ccbbd9b0e5","ios":"levelo://app?vid=2aae6609-bf72-4b69-8776-85ccbbd9b0e5"},"vehicle_type_id":"4","last_reported":1729458512,"current_range_meters":38400,"station_id":"cpo3532slgdg3j2ikp40","pricing_plan_id":"cebpf4jnsgd1na2vs0mg"},{"bike_id":"138f2d49-214b-48e8-9db4-98a6dc22aa3c","system_id":"levelo_inurba_marseille","lat":43.28431,"lon":5.39188,"is_reserved":false,"is_disabled":false,"rental_uris":{"android":"levelo://app?vid=138f2d49-214b-48e8-9db4-98a6dc22aa3c","ios":"levelo://app?vid=138f2d49-214b-48e8-9db4-98a6dc22aa3c"},"vehicle_type_id":"4","last_reported":1729458512,"current_range_meters":25600,"station_id":"ce4bhoh2rcd13ifvqh5g","pricing_plan_id":"cebpf4jnsgd1na2vs0mg"},{"bike_id":"685a354f-ff49-4ca8-a6ba-515d8049af7f","system_id":"levelo_inurba_marseille","lat":43.27617,"lon":5.36112,"is_reserved":false,"is_disabled":false,"rental_uris":{"android":"levelo://app?vid=685a354f-ff49-4ca8-a6ba-515d8049af7f","ios":"levelo://app?vid=685a354f-ff49-4ca8-a6ba-515d8049af7f"},"vehicle_type_id":"4","last_reported":1729458512,"current_range_meters":38800,"station_id":"ce4bgj92rcd13ifvqbe0","pricing_plan_id":"cebpf4jnsgd1na2vs0mg"},{"bike_id":"c26a172e-a0ff-4214-bbea-24c50739bea4","system_id":"levelo_inurba_marseille","lat":43.31117,"lon":5.37763,"is_reserved":false,"is_disabled":false,"rental_uris":{"android":"levelo://app?vid=c26a172e-a0ff-4214-bbea-24c50739bea4","ios":"levelo://app?vid=c26a172e-a0ff-4214-bbea-24c50739bea4"},"vehicle_type_id":"4","last_reported":1729458512,"current_range_meters":38800,"station_id":"ce4bgt92rcd13ifvqcg0","pricing_plan_id":"cebpf4jnsgd1na2vs0mg"},{"bike_id":"c5e3e1df-1a2a-44f0-be91-b1d1b57c457b","system_id":"levelo_inurba_marseille","lat":43.29709,"lon":5.36615,"is_reserved":false,"is_disabled":false,"rental_uris":{"android":"levelo://app?vid=c5e3e1df-1a2a-44f0-be91-b1d1b57c457b","ios":"levelo://app?vid=c5e3e1df-1a2a-44f0-be91-b1d1b57c457b"},"vehicle_type_id":"4","last_reported":1729458512,"current_range_meters":38800,"station_id":"ce4bgn12rcd13ifvqbt0","pricing_plan_id":"cebpf4jnsgd1na2vs0mg"},{"bike_id":"921931b1-5cdf-46b7-9243-9a8cf25a811b","system_id":"levelo_inurba_marseille","lat":43.31754,"lon":5.39021,"is_reserved":false,"is_disabled":false,"rental_uris":{"android":"levelo://app?vid=921931b1-5cdf-46b7-9243-9a8cf25a811b","ios":"levelo://app?vid=921931b1-5cdf-46b7-9243-9a8cf25a811b"},"vehicle_type_id":"4","last_reported":1729458512,"current_range_meters":29600,"station_id":"ce4bhqp2rcd13ifvqhng","pricing_plan_id":"cebpf4jnsgd1na2vs0mg"},{"bike_id":"afed1fa8-c2df-4e79-b5a8-2ea4c66dfad8","system_id":"levelo_inurba_marseille","lat":43.29307,"lon":5.37169,"is_reserved":false,"is_disabled":false,"rental_uris":{"android":"levelo://app?vid=afed1fa8-c2df-4e79-b5a8-2ea4c66dfad8","ios":"levelo://app?vid=afed1fa8-c2df-4e79-b5a8-2ea4c66dfad8"},"vehicle_type_id":"4","last_reported":1729458512,"current_range_meters":11200,"station_id":"ce4bgh92rcd13ifvqb40","pricing_plan_id":"cebpf4jnsgd1na2vs0mg"},{"bike_id":"7a6ba3d7-846e-45d3-92b4-25ce5cda8a53","system_id":"levelo_inurba_marseille","lat":43.3371,"lon":5.39188,"is_reserved":false,"is_disabled":false,"rental_uris":{"android":"levelo://app?vid=7a6ba3d7-846e-45d3-92b4-25ce5cda8a53","ios":"levelo://app?vid=7a6ba3d7-846e-45d3-92b4-25ce5cda8a53"},"vehicle_type_id":"4","last_reported":1729458512,"current_range_meters":35200,"station_id":"ce4bhr92rcd13ifvqhsg","pricing_plan_id":"cebpf4jnsgd1na2vs0mg"},{"bike_id":"29dc69ab-e0fe-4b96-9cff-bca8448603d4","system_id":"levelo_inurba_marseille","lat":43.31759,"lon":5.39019,"is_reserved":false,"is_disabled":false,"rental_uris":{"android":"levelo://app?vid=29dc69ab-e0fe-4b96-9cff-bca8448603d4","ios":"levelo://app?vid=29dc69ab-e0fe-4b96-9cff-bca8448603d4"},"vehicle_type_id":"4","last_reported":1729458512,"current_range_meters":26000,"station_id":"ce4bhqp2rcd13ifvqhng","pricing_plan_id":"cebpf4jnsgd1na2vs0mg"},{"bike_id":"e8bfb2e9-6e95-4178-92fa-4adfe6334c3f","system_id":"levelo_inurba_marseille","lat":43.28077,"lon":5.39661,"is_reserved":false,"is_disabled":false,"rental_uris":{"android":"levelo://app?vid=e8bfb2e9-6e95-4178-92fa-4adfe6334c3f","ios":"levelo://app?vid=e8bfb2e9-6e95-4178-92fa-4adfe6334c3f"},"vehicle_type_id":"4","last_reported":1729458512,"current_range_meters":8000,"station_id":"ce4bho12rcd13ifvqh2g","pricing_plan_id":"cebpf4jnsgd1na2vs0mg"},{"bike_id":"b5b1494f-9fa3-417e-bc80-0d223074cefd","system_id":"levelo_inurba_marseille","lat":43.32369,"lon":5.38886,"is_reserved":false,"is_disabled":false,"rental_uris":{"android":"levelo://app?vid=b5b1494f-9fa3-417e-bc80-0d223074cefd","ios":"levelo://app?vid=b5b1494f-9fa3-417e-bc80-0d223074cefd"},"vehicle_type_id":"4","last_reported":1729458512,"current_range_meters":30800,"station_id":"ce4bhqp2rcd13ifvqhog","pricing_plan_id":"cebpf4jnsgd1na2vs0mg"},{"bike_id":"38fa35c0-6fb1-42fa-ade0-9a80de10af00","system_id":"levelo_inurba_marseille","lat":43.28275,"lon":5.35072,"is_reserved":false,"is_disabled":false,"rental_uris":{"android":"levelo://app?vid=38fa35c0-6fb1-42fa-ade0-9a80de10af00","ios":"levelo://app?vid=38fa35c0-6fb1-42fa-ade0-9a80de10af00"},"vehicle_type_id":"4","last_reported":1729458512,"current_range_meters":38800,"station_id":"ce4bhbp2rcd13ifvqerg","pricing_plan_id":"cebpf4jnsgd1na2vs0mg"},{"bike_id":"107b7fa0-2250-4d9c-b76c-3a6cd5a97d78","system_id":"levelo_inurba_marseille","lat":43.2512,"lon":5.40334,"is_reserved":false,"is_disabled":false,"rental_uris":{"android":"levelo://app?vid=107b7fa0-2250-4d9c-b76c-3a6cd5a97d78","ios":"levelo://app?vid=107b7fa0-2250-4d9c-b76c-3a6cd5a97d78"},"vehicle_type_id":"4","last_reported":1729458512,"current_range_meters":16800,"station_id":"ce4bhlh2rcd13ifvqgig","pricing_plan_id":"cebpf4jnsgd1na2vs0mg"},{"bike_id":"061c6e28-82c3-4625-b74d-9de61e4c5778","system_id":"levelo_inurba_marseille","lat":43.2737,"lon":5.36252,"is_reserved":false,"is_disabled":false,"rental_uris":{"android":"levelo://app?vid=061c6e28-82c3-4625-b74d-9de61e4c5778","ios":"levelo://app?vid=061c6e28-82c3-4625-b74d-9de61e4c5778"},"vehicle_type_id":"4","last_reported":1729458512,"current_range_meters":38800,"station_id":"ce4bhbh2rcd13ifvqeo0","pricing_plan_id":"cebpf4jnsgd1na2vs0mg"},{"bike_id":"16dac4f2-8478-493a-9a10-7049598541d2","system_id":"levelo_inurba_marseille","lat":43.28408,"lon":5.37513,"is_reserved":false,"is_disabled":false,"rental_uris":{"android":"levelo://app?vid=16dac4f2-8478-493a-9a10-7049598541d2","ios":"levelo://app?vid=16dac4f2-8478-493a-9a10-7049598541d2"},"vehicle_type_id":"4","last_reported":1729458512,"current_range_meters":38800,"station_id":"ce4bh412rcd13ifvqds0","pricing_plan_id":"cebpf4jnsgd1na2vs0mg"},{"bike_id":"930058b5-a542-44e1-9a8f-6ff096965cd6","system_id":"levelo_inurba_marseille","lat":43.28414,"lon":5.34972,"is_reserved":false,"is_disabled":false,"rental_uris":{"android":"levelo://app?vid=930058b5-a542-44e1-9a8f-6ff096965cd6","ios":"levelo://app?vid=930058b5-a542-44e1-9a8f-6ff096965cd6"},"vehicle_type_id":"4","last_reported":1729458512,"current_range_meters":26000,"station_id":"ce4bhbh2rcd13ifvqepg","pricing_plan_id":"cebpf4jnsgd1na2vs0mg"},{"bike_id":"0110ffb5-a63d-45d5-b867-2e5bae3721ec","system_id":"levelo_inurba_marseille","lat":43.32662,"lon":5.40991,"is_reserved":false,"is_disabled":false,"rental_uris":{"android":"levelo://app?vid=0110ffb5-a63d-45d5-b867-2e5bae3721ec","ios":"levelo://app?vid=0110ffb5-a63d-45d5-b867-2e5bae3721ec"},"vehicle_type_id":"4","last_reported":1729458512,"current_range_meters":13600,"station_id":"ce4bhpp2rcd13ifvqhgg","pricing_plan_id":"cebpf4jnsgd1na2vs0mg"},{"bike_id":"0ce8f83a-d5c1-499c-9e22-6b391ce9391f","system_id":"levelo_inurba_marseille","lat":43.29627,"lon":5.40595,"is_reserved":false,"is_disabled":false,"rental_uris":{"android":"levelo://app?vid=0ce8f83a-d5c1-499c-9e22-6b391ce9391f","ios":"levelo://app?vid=0ce8f83a-d5c1-499c-9e22-6b391ce9391f"},"vehicle_type_id":"4","last_reported":1729458512,"current_range_meters":16000,"station_id":"ce4bh0h2rcd13ifvqd60","pricing_plan_id":"cebpf4jnsgd1na2vs0mg"},{"bike_id":"cffc72a1-9762-4ffa-83d6-8b9856072bf4","system_id":"levelo_inurba_marseille","lat":43.31717,"lon":5.42404,"is_reserved":false,"is_disabled":false,"rental_uris":{"android":"levelo://app?vid=cffc72a1-9762-4ffa-83d6-8b9856072bf4","ios":"levelo://app?vid=cffc72a1-9762-4ffa-83d6-8b9856072bf4"},"vehicle_type_id":"4","last_reported":1729458512,"current_range_meters":29600,"station_id":"ce4bhp92rcd13ifvqhbg","pricing_plan_id":"cebpf4jnsgd1na2vs0mg"},{"bike_id":"bda848a9-9c0f-4e86-b399-a0580de506e0","system_id":"levelo_inurba_marseille","lat":43.276182,"lon":5.361012,"is_reserved":false,"is_disabled":false,"rental_uris":{"android":"levelo://app?vid=bda848a9-9c0f-4e86-b399-a0580de506e0","ios":"levelo://app?vid=bda848a9-9c0f-4e86-b399-a0580de506e0"},"vehicle_type_id":"4","last_reported":1729458512,"current_range_meters":38800,"station_id":"ce4bgj92rcd13ifvqbe0","pricing_plan_id":"cebpf4jnsgd1na2vs0mg"},{"bike_id":"37a4f9f2-5f27-41f6-8e49-92d6bbb82296","system_id":"levelo_inurba_marseille","lat":43.23193,"lon":5.35556,"is_reserved":false,"is_disabled":false,"rental_uris":{"android":"levelo://app?vid=37a4f9f2-5f27-41f6-8e49-92d6bbb82296","ios":"levelo://app?vid=37a4f9f2-5f27-41f6-8e49-92d6bbb82296"},"vehicle_type_id":"4","last_reported":1729458512,"current_range_meters":37600,"station_id":"ce4bhu92rcd13ifvqi70","pricing_plan_id":"cebpf4jnsgd1na2vs0mg"},{"bike_id":"e1967d5c-6489-4288-b6b9-65fd91de494e","system_id":"levelo_inurba_marseille","lat":43.31165,"lon":5.38722,"is_reserved":false,"is_disabled":false,"rental_uris":{"android":"levelo://app?vid=e1967d5c-6489-4288-b6b9-65fd91de494e","ios":"levelo://app?vid=e1967d5c-6489-4288-b6b9-65fd91de494e"},"vehicle_type_id":"4","last_reported":1729458512,"current_range_meters":38000,"station_id":"ce4bgv12rcd13ifvqcp0","pricing_plan_id":"cebpf4jnsgd1na2vs0mg"},{"bike_id":"5cd96af5-3e17-42ae-9025-24dfef705577","system_id":"levelo_inurba_marseille","lat":43.29203,"lon":5.39316,"is_reserved":false,"is_disabled":false,"rental_uris":{"android":"levelo://app?vid=5cd96af5-3e17-42ae-9025-24dfef705577","ios":"levelo://app?vid=5cd96af5-3e17-42ae-9025-24dfef705577"},"vehicle_type_id":"4","last_reported":1729458512,"current_range_meters":6000,"station_id":"ce4bh192rcd13ifvqdd0","pricing_plan_id":"cebpf4jnsgd1na2vs0mg"},{"bike_id":"dc37fd46-5084-46a0-9174-3c99fcea243a","system_id":"levelo_inurba_marseille","lat":43.27547,"lon":5.38458,"is_reserved":false,"is_disabled":false,"rental_uris":{"android":"levelo://app?vid=dc37fd46-5084-46a0-9174-3c99fcea243a","ios":"levelo://app?vid=dc37fd46-5084-46a0-9174-3c99fcea243a"},"vehicle_type_id":"4","last_reported":1729458512,"current_range_meters":6800,"station_id":"ce4bhh92rcd13ifvqfi0","pricing_plan_id":"cebpf4jnsgd1na2vs0mg"},{"bike_id":"2a7d19b4-0a2b-429f-b4de-c6b211592f48","system_id":"levelo_inurba_marseille","lat":43.31327,"lon":5.39688,"is_reserved":false,"is_disabled":false,"rental_uris":{"android":"levelo://app?vid=2a7d19b4-0a2b-429f-b4de-c6b211592f48","ios":"levelo://app?vid=2a7d19b4-0a2b-429f-b4de-c6b211592f48"},"vehicle_type_id":"4","last_reported":1729458512,"current_range_meters":36000,"station_id":"ce4bgvp2rcd13ifvqcu0","pricing_plan_id":"cebpf4jnsgd1na2vs0mg"},{"bike_id":"befb068b-7b18-4dbe-9d54-7889699e7dea","system_id":"levelo_inurba_marseille","lat":43.22924,"lon":5.35379,"is_reserved":false,"is_disabled":false,"rental_uris":{"android":"levelo://app?vid=befb068b-7b18-4dbe-9d54-7889699e7dea","ios":"levelo://app?vid=befb068b-7b18-4dbe-9d54-7889699e7dea"},"vehicle_type_id":"4","last_reported":1729458512,"current_range_meters":38800,"station_id":"cpo3532slgdg3j2ikp40","pricing_plan_id":"cebpf4jnsgd1na2vs0mg"},{"bike_id":"5b47cbfd-3740-4a35-b9bd-478cf093a87d","system_id":"levelo_inurba_marseille","lat":43.23962,"lon":5.36636,"is_reserved":false,"is_disabled":false,"rental_uris":{"android":"levelo://app?vid=5b47cbfd-3740-4a35-b9bd-478cf093a87d","ios":"levelo://app?vid=5b47cbfd-3740-4a35-b9bd-478cf093a87d"},"vehicle_type_id":"4","last_reported":1729458512,"current_range_meters":26000,"station_id":"ce4bhi12rcd13ifvqfp0","pricing_plan_id":"cebpf4jnsgd1na2vs0mg"},{"bike_id":"9cdd8dd9-b29f-454d-ae53-de682a959e62","system_id":"levelo_inurba_marseille","lat":43.32366,"lon":5.38888,"is_reserved":false,"is_disabled":false,"rental_uris":{"android":"levelo://app?vid=9cdd8dd9-b29f-454d-ae53-de682a959e62","ios":"levelo://app?vid=9cdd8dd9-b29f-454d-ae53-de682a959e62"},"vehicle_type_id":"4","last_reported":1729458512,"current_range_meters":38800,"station_id":"ce4bhqp2rcd13ifvqhog","pricing_plan_id":"cebpf4jnsgd1na2vs0mg"},{"bike_id":"6a239e90-1da0-443e-a751-9621878cc664","system_id":"levelo_inurba_marseille","lat":43.28428,"lon":5.34986,"is_reserved":false,"is_disabled":false,"rental_uris":{"android":"levelo://app?vid=6a239e90-1da0-443e-a751-9621878cc664","ios":"levelo://app?vid=6a239e90-1da0-443e-a751-9621878cc664"},"vehicle_type_id":"4","last_reported":1729458512,"current_range_meters":37600,"station_id":"ce4bhbh2rcd13ifvqepg","pricing_plan_id":"cebpf4jnsgd1na2vs0mg"},{"bike_id":"8eaf8508-89f1-498a-9556-72f73ce566a4","system_id":"levelo_inurba_marseille","lat":43.301819,"lon":5.366103,"is_reserved":false,"is_disabled":false,"rental_uris":{"android":"levelo://app?vid=8eaf8508-89f1-498a-9556-72f73ce566a4","ios":"levelo://app?vid=8eaf8508-89f1-498a-9556-72f73ce566a4"},"vehicle_type_id":"4","last_reported":1729458512,"current_range_meters":10800,"station_id":"ce4bgrh2rcd13ifvqc8g","pricing_plan_id":"cebpf4jnsgd1na2vs0mg"},{"bike_id":"58342ce2-48b6-4554-b620-09ec4681a912","system_id":"levelo_inurba_marseille","lat":43.23962,"lon":5.36623,"is_reserved":false,"is_disabled":false,"rental_uris":{"android":"levelo://app?vid=58342ce2-48b6-4554-b620-09ec4681a912","ios":"levelo://app?vid=58342ce2-48b6-4554-b620-09ec4681a912"},"vehicle_type_id":"4","last_reported":1729458512,"current_range_meters":38400,"station_id":"ce4bhi12rcd13ifvqfp0","pricing_plan_id":"cebpf4jnsgd1na2vs0mg"},{"bike_id":"a6378d02-3d98-4550-8f3c-a450cb6bd4d6","system_id":"levelo_inurba_marseille","lat":43.30925,"lon":5.39057,"is_reserved":false,"is_disabled":false,"rental_uris":{"android":"levelo://app?vid=a6378d02-3d98-4550-8f3c-a450cb6bd4d6","ios":"levelo://app?vid=a6378d02-3d98-4550-8f3c-a450cb6bd4d6"},"vehicle_type_id":"4","last_reported":1729458512,"current_range_meters":28000,"station_id":"ce4bgqh2rcd13ifvqc4g","pricing_plan_id":"cebpf4jnsgd1na2vs0mg"},{"bike_id":"ab25e50e-031e-49b2-92c3-bc31c1e4e638","system_id":"levelo_inurba_marseille","lat":43.27983,"lon":5.41667,"is_reserved":false,"is_disabled":false,"rental_uris":{"android":"levelo://app?vid=ab25e50e-031e-49b2-92c3-bc31c1e4e638","ios":"levelo://app?vid=ab25e50e-031e-49b2-92c3-bc31c1e4e638"},"vehicle_type_id":"4","last_reported":1729458512,"current_range_meters":6800,"station_id":"ce4bho12rcd13ifvqh1g","pricing_plan_id":"cebpf4jnsgd1na2vs0mg"},{"bike_id":"17c2e2b5-4d41-40ee-9ac7-27f2fafea751","system_id":"levelo_inurba_marseille","lat":43.28038,"lon":5.36944,"is_reserved":false,"is_disabled":false,"rental_uris":{"android":"levelo://app?vid=17c2e2b5-4d41-40ee-9ac7-27f2fafea751","ios":"levelo://app?vid=17c2e2b5-4d41-40ee-9ac7-27f2fafea751"},"vehicle_type_id":"4","last_reported":1729458512,"current_range_meters":28800,"station_id":"ce4bha12rcd13ifvqef0","pricing_plan_id":"cebpf4jnsgd1na2vs0mg"},{"bike_id":"57dd0012-e7c2-43e3-90a1-087125ac63fa","system_id":"levelo_inurba_marseille","lat":43.33753,"lon":5.37454,"is_reserved":false,"is_disabled":false,"rental_uris":{"android":"levelo://app?vid=57dd0012-e7c2-43e3-90a1-087125ac63fa","ios":"levelo://app?vid=57dd0012-e7c2-43e3-90a1-087125ac63fa"},"vehicle_type_id":"4","last_reported":1729458512,"current_range_meters":33600,"station_id":"","pricing_plan_id":"cebpf4jnsgd1na2vs0mg"},{"bike_id":"ad1c3d3d-b4cc-42d4-beb2-2f2573d3d2dd","system_id":"levelo_inurba_marseille","lat":43.31072,"lon":5.38348,"is_reserved":false,"is_disabled":false,"rental_uris":{"android":"levelo://app?vid=ad1c3d3d-b4cc-42d4-beb2-2f2573d3d2dd","ios":"levelo://app?vid=ad1c3d3d-b4cc-42d4-beb2-2f2573d3d2dd"},"vehicle_type_id":"4","last_reported":1729458512,"current_range_meters":38800,"station_id":"ce4bgv92rcd13ifvqcr0","pricing_plan_id":"cebpf4jnsgd1na2vs0mg"},{"bike_id":"0a6df673-e856-4343-b24f-084796475cea","system_id":"levelo_inurba_marseille","lat":43.31483,"lon":5.37292,"is_reserved":false,"is_disabled":false,"rental_uris":{"android":"levelo://app?vid=0a6df673-e856-4343-b24f-084796475cea","ios":"levelo://app?vid=0a6df673-e856-4343-b24f-084796475cea"},"vehicle_type_id":"4","last_reported":1729458512,"current_range_meters":33200,"station_id":"ce4bgt12rcd13ifvqcd0","pricing_plan_id":"cebpf4jnsgd1na2vs0mg"},{"bike_id":"acc80eec-b7f4-4a87-8f02-9235715cbd20","system_id":"levelo_inurba_marseille","lat":43.310678,"lon":5.383585,"is_reserved":false,"is_disabled":false,"rental_uris":{"android":"levelo://app?vid=acc80eec-b7f4-4a87-8f02-9235715cbd20","ios":"levelo://app?vid=acc80eec-b7f4-4a87-8f02-9235715cbd20"},"vehicle_type_id":"4","last_reported":1729458512,"current_range_meters":28000,"station_id":"ce4bgv92rcd13ifvqcr0","pricing_plan_id":"cebpf4jnsgd1na2vs0mg"},{"bike_id":"495d773a-77c3-4538-91d4-69a5f6ca5507","system_id":"levelo_inurba_marseille","lat":43.27367,"lon":5.36261,"is_reserved":false,"is_disabled":false,"rental_uris":{"android":"levelo://app?vid=495d773a-77c3-4538-91d4-69a5f6ca5507","ios":"levelo://app?vid=495d773a-77c3-4538-91d4-69a5f6ca5507"},"vehicle_type_id":"4","last_reported":1729458512,"current_range_meters":39200,"station_id":"ce4bhbh2rcd13ifvqeo0","pricing_plan_id":"cebpf4jnsgd1na2vs0mg"},{"bike_id":"de844c16-40e6-4c87-b431-094cac638790","system_id":"levelo_inurba_marseille","lat":43.30086,"lon":5.39079,"is_reserved":false,"is_disabled":false,"rental_uris":{"android":"levelo://app?vid=de844c16-40e6-4c87-b431-094cac638790","ios":"levelo://app?vid=de844c16-40e6-4c87-b431-094cac638790"},"vehicle_type_id":"4","last_reported":1729458512,"current_range_meters":20800,"station_id":"ce4bh192rcd13ifvqdb0","pricing_plan_id":"cebpf4jnsgd1na2vs0mg"},{"bike_id":"0c8d62df-ce7f-4d2a-93d3-2a0c7123f00e","system_id":"levelo_inurba_marseille","lat":43.27898,"lon":5.38004,"is_reserved":false,"is_disabled":false,"rental_uris":{"android":"levelo://app?vid=0c8d62df-ce7f-4d2a-93d3-2a0c7123f00e","ios":"levelo://app?vid=0c8d62df-ce7f-4d2a-93d3-2a0c7123f00e"},"vehicle_type_id":"4","last_reported":1729458512,"current_range_meters":20800,"station_id":"ce4bhf92rcd13ifvqf50","pricing_plan_id":"cebpf4jnsgd1na2vs0mg"},{"bike_id":"5cfbc1a6-134e-45b7-94aa-5539d074af8a","system_id":"levelo_inurba_marseille","lat":43.31227,"lon":5.36859,"is_reserved":false,"is_disabled":false,"rental_uris":{"android":"levelo://app?vid=5cfbc1a6-134e-45b7-94aa-5539d074af8a","ios":"levelo://app?vid=5cfbc1a6-134e-45b7-94aa-5539d074af8a"},"vehicle_type_id":"4","last_reported":1729458512,"current_range_meters":37600,"station_id":"ce4bgl92rcd13ifvqbq0","pricing_plan_id":"cebpf4jnsgd1na2vs0mg"},{"bike_id":"edd10a18-8a97-4cdf-9449-9c6ee4c57b29","system_id":"levelo_inurba_marseille","lat":43.27569,"lon":5.38428,"is_reserved":false,"is_disabled":false,"rental_uris":{"android":"levelo://app?vid=edd10a18-8a97-4cdf-9449-9c6ee4c57b29","ios":"levelo://app?vid=edd10a18-8a97-4cdf-9449-9c6ee4c57b29"},"vehicle_type_id":"4","last_reported":1729458512,"current_range_meters":35600,"station_id":"ce4bhh92rcd13ifvqfi0","pricing_plan_id":"cebpf4jnsgd1na2vs0mg"},{"bike_id":"51ac8eaf-1d97-467d-a840-30a1e9b3fa99","system_id":"levelo_inurba_marseille","lat":43.27962,"lon":5.38751,"is_reserved":false,"is_disabled":false,"rental_uris":{"android":"levelo://app?vid=51ac8eaf-1d97-467d-a840-30a1e9b3fa99","ios":"levelo://app?vid=51ac8eaf-1d97-467d-a840-30a1e9b3fa99"},"vehicle_type_id":"4","last_reported":1729458512,"current_range_meters":3600,"station_id":"ce4bhg12rcd13ifvqf80","pricing_plan_id":"cebpf4jnsgd1na2vs0mg"},{"bike_id":"e36e8b70-cdbc-4b6c-9fe9-c4fbf657cc2e","system_id":"levelo_inurba_marseille","lat":43.31318,"lon":5.39701,"is_reserved":false,"is_disabled":false,"rental_uris":{"android":"levelo://app?vid=e36e8b70-cdbc-4b6c-9fe9-c4fbf657cc2e","ios":"levelo://app?vid=e36e8b70-cdbc-4b6c-9fe9-c4fbf657cc2e"},"vehicle_type_id":"4","last_reported":1729458512,"current_range_meters":25200,"station_id":"ce4bgvp2rcd13ifvqcu0","pricing_plan_id":"cebpf4jnsgd1na2vs0mg"},{"bike_id":"bf6b57fc-4872-420f-a3f7-fe294bcf43f7","system_id":"levelo_inurba_marseille","lat":43.29257,"lon":5.40912,"is_reserved":false,"is_disabled":false,"rental_uris":{"android":"levelo://app?vid=bf6b57fc-4872-420f-a3f7-fe294bcf43f7","ios":"levelo://app?vid=bf6b57fc-4872-420f-a3f7-fe294bcf43f7"},"vehicle_type_id":"4","last_reported":1729458512,"current_range_meters":38800,"station_id":"ce4bh192rcd13ifvqdc0","pricing_plan_id":"cebpf4jnsgd1na2vs0mg"},{"bike_id":"913aada5-52c1-4fc7-86e3-23805d203706","system_id":"levelo_inurba_marseille","lat":43.26784,"lon":5.39414,"is_reserved":false,"is_disabled":false,"rental_uris":{"android":"levelo://app?vid=913aada5-52c1-4fc7-86e3-23805d203706","ios":"levelo://app?vid=913aada5-52c1-4fc7-86e3-23805d203706"},"vehicle_type_id":"4","last_reported":1729458512,"current_range_meters":36000,"station_id":"ce4bhh12rcd13ifvqfg0","pricing_plan_id":"cebpf4jnsgd1na2vs0mg"},{"bike_id":"2e72f5fe-cb0b-4ab1-a594-665d9aaedd43","system_id":"levelo_inurba_marseille","lat":43.28484,"lon":5.38552,"is_reserved":false,"is_disabled":false,"rental_uris":{"android":"levelo://app?vid=2e72f5fe-cb0b-4ab1-a594-665d9aaedd43","ios":"levelo://app?vid=2e72f5fe-cb0b-4ab1-a594-665d9aaedd43"},"vehicle_type_id":"4","last_reported":1729458512,"current_range_meters":38800,"station_id":"ce4bh8p2rcd13ifvqeb0","pricing_plan_id":"cebpf4jnsgd1na2vs0mg"},{"bike_id":"cd0dce23-200f-416c-916b-7be9d153fea3","system_id":"levelo_inurba_marseille","lat":43.26066,"lon":5.38552,"is_reserved":false,"is_disabled":false,"rental_uris":{"android":"levelo://app?vid=cd0dce23-200f-416c-916b-7be9d153fea3","ios":"levelo://app?vid=cd0dce23-200f-416c-916b-7be9d153fea3"},"vehicle_type_id":"4","last_reported":1729458512,"current_range_meters":18000,"station_id":"","pricing_plan_id":"cebpf4jnsgd1na2vs0mg"},{"bike_id":"53928c67-9a1e-42ca-af09-1851b26aa73d","system_id":"levelo_inurba_marseille","lat":43.28403,"lon":5.37509,"is_reserved":false,"is_disabled":false,"rental_uris":{"android":"levelo://app?vid=53928c67-9a1e-42ca-af09-1851b26aa73d","ios":"levelo://app?vid=53928c67-9a1e-42ca-af09-1851b26aa73d"},"vehicle_type_id":"4","last_reported":1729458512,"current_range_meters":37600,"station_id":"ce4bh412rcd13ifvqds0","pricing_plan_id":"cebpf4jnsgd1na2vs0mg"},{"bike_id":"23115ac6-aff5-45af-87d0-ffdacdb28fd5","system_id":"levelo_inurba_marseille","lat":43.22929,"lon":5.35379,"is_reserved":false,"is_disabled":false,"rental_uris":{"android":"levelo://app?vid=23115ac6-aff5-45af-87d0-ffdacdb28fd5","ios":"levelo://app?vid=23115ac6-aff5-45af-87d0-ffdacdb28fd5"},"vehicle_type_id":"4","last_reported":1729458512,"current_range_meters":38800,"station_id":"cpo3532slgdg3j2ikp40","pricing_plan_id":"cebpf4jnsgd1na2vs0mg"},{"bike_id":"3549b9cd-7ff1-4c46-9c64-820428b25e35","system_id":"levelo_inurba_marseille","lat":43.295868,"lon":5.400291,"is_reserved":false,"is_disabled":false,"rental_uris":{"android":"levelo://app?vid=3549b9cd-7ff1-4c46-9c64-820428b25e35","ios":"levelo://app?vid=3549b9cd-7ff1-4c46-9c64-820428b25e35"},"vehicle_type_id":"4","last_reported":1729458512,"current_range_meters":24400,"station_id":"","pricing_plan_id":"cebpf4jnsgd1na2vs0mg"},{"bike_id":"4baa99ae-2e1a-436a-bb1d-886404f1cc4d","system_id":"levelo_inurba_marseille","lat":43.28278,"lon":5.35062,"is_reserved":false,"is_disabled":false,"rental_uris":{"android":"levelo://app?vid=4baa99ae-2e1a-436a-bb1d-886404f1cc4d","ios":"levelo://app?vid=4baa99ae-2e1a-436a-bb1d-886404f1cc4d"},"vehicle_type_id":"4","last_reported":1729458512,"current_range_meters":38800,"station_id":"ce4bhbp2rcd13ifvqerg","pricing_plan_id":"cebpf4jnsgd1na2vs0mg"},{"bike_id":"f0cfec0e-7cdf-4c0b-9b7d-8fc3c33f3f22","system_id":"levelo_inurba_marseille","lat":43.25086,"lon":5.39522,"is_reserved":false,"is_disabled":false,"rental_uris":{"android":"levelo://app?vid=f0cfec0e-7cdf-4c0b-9b7d-8fc3c33f3f22","ios":"levelo://app?vid=f0cfec0e-7cdf-4c0b-9b7d-8fc3c33f3f22"},"vehicle_type_id":"4","last_reported":1729458512,"current_range_meters":5600,"station_id":"ce4bhm12rcd13ifvqgkg","pricing_plan_id":"cebpf4jnsgd1na2vs0mg"},{"bike_id":"d2ed21ab-f26c-44a4-8553-50f749746248","system_id":"levelo_inurba_marseille","lat":43.24803,"lon":5.37458,"is_reserved":false,"is_disabled":false,"rental_uris":{"android":"levelo://app?vid=d2ed21ab-f26c-44a4-8553-50f749746248","ios":"levelo://app?vid=d2ed21ab-f26c-44a4-8553-50f749746248"},"vehicle_type_id":"4","last_reported":1729458512,"current_range_meters":3200,"station_id":"ce4bhgh2rcd13ifvqfb0","pricing_plan_id":"cebpf4jnsgd1na2vs0mg"},{"bike_id":"5fb83cb5-1b9e-44dc-ad82-fe8e448bfa99","system_id":"levelo_inurba_marseille","lat":43.32112,"lon":5.36772,"is_reserved":false,"is_disabled":false,"rental_uris":{"android":"levelo://app?vid=5fb83cb5-1b9e-44dc-ad82-fe8e448bfa99","ios":"levelo://app?vid=5fb83cb5-1b9e-44dc-ad82-fe8e448bfa99"},"vehicle_type_id":"4","last_reported":1729458512,"current_range_meters":38400,"station_id":"ce4bhrh2rcd13ifvqhug","pricing_plan_id":"cebpf4jnsgd1na2vs0mg"},{"bike_id":"ce664f76-069e-4d26-848b-5bba883a0f8f","system_id":"levelo_inurba_marseille","lat":43.28403,"lon":5.37522,"is_reserved":false,"is_disabled":false,"rental_uris":{"android":"levelo://app?vid=ce664f76-069e-4d26-848b-5bba883a0f8f","ios":"levelo://app?vid=ce664f76-069e-4d26-848b-5bba883a0f8f"},"vehicle_type_id":"4","last_reported":1729458512,"current_range_meters":38800,"station_id":"ce4bh412rcd13ifvqds0","pricing_plan_id":"cebpf4jnsgd1na2vs0mg"},{"bike_id":"1c46af18-9fa9-4b20-aa2c-36f4cc2ac30e","system_id":"levelo_inurba_marseille","lat":43.29964,"lon":5.38535,"is_reserved":false,"is_disabled":false,"rental_uris":{"android":"levelo://app?vid=1c46af18-9fa9-4b20-aa2c-36f4cc2ac30e","ios":"levelo://app?vid=1c46af18-9fa9-4b20-aa2c-36f4cc2ac30e"},"vehicle_type_id":"4","last_reported":1729458512,"current_range_meters":37600,"station_id":"ce4bgv12rcd13ifvqcp0","pricing_plan_id":"cebpf4jnsgd1na2vs0mg"},{"bike_id":"397aa16f-9086-4144-b23e-c12febf82b55","system_id":"levelo_inurba_marseille","lat":43.30204,"lon":5.39468,"is_reserved":false,"is_disabled":false,"rental_uris":{"android":"levelo://app?vid=397aa16f-9086-4144-b23e-c12febf82b55","ios":"levelo://app?vid=397aa16f-9086-4144-b23e-c12febf82b55"},"vehicle_type_id":"4","last_reported":1729458512,"current_range_meters":38800,"station_id":"ce4bh0p2rcd13ifvqd70","pricing_plan_id":"cebpf4jnsgd1na2vs0mg"},{"bike_id":"d94abd10-f1f2-4572-ab8e-169add889ea4","system_id":"levelo_inurba_marseille","lat":43.28035,"lon":5.36934,"is_reserved":false,"is_disabled":false,"rental_uris":{"android":"levelo://app?vid=d94abd10-f1f2-4572-ab8e-169add889ea4","ios":"levelo://app?vid=d94abd10-f1f2-4572-ab8e-169add889ea4"},"vehicle_type_id":"4","last_reported":1729458512,"current_range_meters":30000,"station_id":"ce4bha12rcd13ifvqef0","pricing_plan_id":"cebpf4jnsgd1na2vs0mg"},{"bike_id":"28cf6995-f40e-413a-bb6c-faa2a779d004","system_id":"levelo_inurba_marseille","lat":43.30795,"lon":5.38147,"is_reserved":false,"is_disabled":false,"rental_uris":{"android":"levelo://app?vid=28cf6995-f40e-413a-bb6c-faa2a779d004","ios":"levelo://app?vid=28cf6995-f40e-413a-bb6c-faa2a779d004"},"vehicle_type_id":"4","last_reported":1729458512,"current_range_meters":26000,"station_id":"ce4bgt12rcd13ifvqce0","pricing_plan_id":"cebpf4jnsgd1na2vs0mg"},{"bike_id":"3936565c-18a4-450b-9552-bdc1ba21cf35","system_id":"levelo_inurba_marseille","lat":43.34141,"lon":5.40907,"is_reserved":false,"is_disabled":false,"rental_uris":{"android":"levelo://app?vid=3936565c-18a4-450b-9552-bdc1ba21cf35","ios":"levelo://app?vid=3936565c-18a4-450b-9552-bdc1ba21cf35"},"vehicle_type_id":"4","last_reported":1729458512,"current_range_meters":36400,"station_id":"ce4bhqh2rcd13ifvqhlg","pricing_plan_id":"cebpf4jnsgd1na2vs0mg"},{"bike_id":"d06a881c-f80d-48b8-9719-6afcceb956d7","system_id":"levelo_inurba_marseille","lat":43.33023,"lon":5.39037,"is_reserved":false,"is_disabled":false,"rental_uris":{"android":"levelo://app?vid=d06a881c-f80d-48b8-9719-6afcceb956d7","ios":"levelo://app?vid=d06a881c-f80d-48b8-9719-6afcceb956d7"},"vehicle_type_id":"4","last_reported":1729458512,"current_range_meters":38800,"station_id":"ce4bhr92rcd13ifvqhrg","pricing_plan_id":"cebpf4jnsgd1na2vs0mg"},{"bike_id":"1e18c599-6c40-4c34-805b-3e674da0ddd0","system_id":"levelo_inurba_marseille","lat":43.2841,"lon":5.3499,"is_reserved":false,"is_disabled":false,"rental_uris":{"android":"levelo://app?vid=1e18c599-6c40-4c34-805b-3e674da0ddd0","ios":"levelo://app?vid=1e18c599-6c40-4c34-805b-3e674da0ddd0"},"vehicle_type_id":"4","last_reported":1729458512,"current_range_meters":38800,"station_id":"ce4bhbh2rcd13ifvqepg","pricing_plan_id":"cebpf4jnsgd1na2vs0mg"},{"bike_id":"766da900-471d-42f5-8cfa-8db494f945d7","system_id":"levelo_inurba_marseille","lat":43.28922,"lon":5.46045,"is_reserved":false,"is_disabled":false,"rental_uris":{"android":"levelo://app?vid=766da900-471d-42f5-8cfa-8db494f945d7","ios":"levelo://app?vid=766da900-471d-42f5-8cfa-8db494f945d7"},"vehicle_type_id":"4","last_reported":1729458512,"current_range_meters":23200,"station_id":"","pricing_plan_id":"cebpf4jnsgd1na2vs0mg"},{"bike_id":"36e3023c-d0b0-43c6-8ec6-0c97d78dbe93","system_id":"levelo_inurba_marseille","lat":43.25002,"lon":5.38923,"is_reserved":false,"is_disabled":false,"rental_uris":{"android":"levelo://app?vid=36e3023c-d0b0-43c6-8ec6-0c97d78dbe93","ios":"levelo://app?vid=36e3023c-d0b0-43c6-8ec6-0c97d78dbe93"},"vehicle_type_id":"4","last_reported":1729458512,"current_range_meters":12000,"station_id":"ce4bhgp2rcd13ifvqfd0","pricing_plan_id":"cebpf4jnsgd1na2vs0mg"},{"bike_id":"2b732e07-d55f-46d2-9872-de0a6a9ddc8d","system_id":"levelo_inurba_marseille","lat":43.27616,"lon":5.36114,"is_reserved":false,"is_disabled":false,"rental_uris":{"android":"levelo://app?vid=2b732e07-d55f-46d2-9872-de0a6a9ddc8d","ios":"levelo://app?vid=2b732e07-d55f-46d2-9872-de0a6a9ddc8d"},"vehicle_type_id":"4","last_reported":1729458512,"current_range_meters":38800,"station_id":"ce4bgj92rcd13ifvqbe0","pricing_plan_id":"cebpf4jnsgd1na2vs0mg"},{"bike_id":"e71d3fcf-5ffb-42f6-ba1e-7e333adab3db","system_id":"levelo_inurba_marseille","lat":43.30886,"lon":5.37189,"is_reserved":false,"is_disabled":false,"rental_uris":{"android":"levelo://app?vid=e71d3fcf-5ffb-42f6-ba1e-7e333adab3db","ios":"levelo://app?vid=e71d3fcf-5ffb-42f6-ba1e-7e333adab3db"},"vehicle_type_id":"4","last_reported":1729458512,"current_range_meters":37600,"station_id":"ce4bguh2rcd13ifvqckg","pricing_plan_id":"cebpf4jnsgd1na2vs0mg"},{"bike_id":"b3bbf2b0-9125-47ab-a50f-c4e0cf55a951","system_id":"levelo_inurba_marseille","lat":43.30138,"lon":5.39865,"is_reserved":false,"is_disabled":false,"rental_uris":{"android":"levelo://app?vid=b3bbf2b0-9125-47ab-a50f-c4e0cf55a951","ios":"levelo://app?vid=b3bbf2b0-9125-47ab-a50f-c4e0cf55a951"},"vehicle_type_id":"4","last_reported":1729458512,"current_range_meters":38800,"station_id":"ce4bh0h2rcd13ifvqd40","pricing_plan_id":"cebpf4jnsgd1na2vs0mg"},{"bike_id":"6e89931a-24ab-4d7b-a2d3-95f19d27cbfd","system_id":"levelo_inurba_marseille","lat":43.29433,"lon":5.39754,"is_reserved":false,"is_disabled":false,"rental_uris":{"android":"levelo://app?vid=6e89931a-24ab-4d7b-a2d3-95f19d27cbfd","ios":"levelo://app?vid=6e89931a-24ab-4d7b-a2d3-95f19d27cbfd"},"vehicle_type_id":"4","last_reported":1729458512,"current_range_meters":2800,"station_id":"ce4bh3h2rcd13ifvqdo0","pricing_plan_id":"cebpf4jnsgd1na2vs0mg"},{"bike_id":"8b5750f9-649c-4473-98b9-96b3cfdc7f74","system_id":"levelo_inurba_marseille","lat":43.2511,"lon":5.40322,"is_reserved":false,"is_disabled":false,"rental_uris":{"android":"levelo://app?vid=8b5750f9-649c-4473-98b9-96b3cfdc7f74","ios":"levelo://app?vid=8b5750f9-649c-4473-98b9-96b3cfdc7f74"},"vehicle_type_id":"4","last_reported":1729458512,"current_range_meters":32800,"station_id":"ce4bhlh2rcd13ifvqgig","pricing_plan_id":"cebpf4jnsgd1na2vs0mg"},{"bike_id":"165b87db-cebb-44e0-91c8-012ba38fa763","system_id":"levelo_inurba_marseille","lat":43.28258,"lon":5.35072,"is_reserved":false,"is_disabled":false,"rental_uris":{"android":"levelo://app?vid=165b87db-cebb-44e0-91c8-012ba38fa763","ios":"levelo://app?vid=165b87db-cebb-44e0-91c8-012ba38fa763"},"vehicle_type_id":"4","last_reported":1729458512,"current_range_meters":38800,"station_id":"ce4bhbp2rcd13ifvqerg","pricing_plan_id":"cebpf4jnsgd1na2vs0mg"},{"bike_id":"6b0b00df-acb0-4528-adb6-b3172252b95b","system_id":"levelo_inurba_marseille","lat":43.28698,"lon":5.37383,"is_reserved":false,"is_disabled":false,"rental_uris":{"android":"levelo://app?vid=6b0b00df-acb0-4528-adb6-b3172252b95b","ios":"levelo://app?vid=6b0b00df-acb0-4528-adb6-b3172252b95b"},"vehicle_type_id":"4","last_reported":1729458512,"current_range_meters":16000,"station_id":"ce4bh3p2rcd13ifvqdq0","pricing_plan_id":"cebpf4jnsgd1na2vs0mg"},{"bike_id":"e4165dbd-d7e2-49b1-86de-b3128e01e161","system_id":"levelo_inurba_marseille","lat":43.28458,"lon":5.35894,"is_reserved":false,"is_disabled":false,"rental_uris":{"android":"levelo://app?vid=e4165dbd-d7e2-49b1-86de-b3128e01e161","ios":"levelo://app?vid=e4165dbd-d7e2-49b1-86de-b3128e01e161"},"vehicle_type_id":"4","last_reported":1729458512,"current_range_meters":38800,"station_id":"ce4bhah2rcd13ifvqei0","pricing_plan_id":"cebpf4jnsgd1na2vs0mg"},{"bike_id":"2bbf3f7b-7876-479c-b375-c567106e1cb4","system_id":"levelo_inurba_marseille","lat":43.27948,"lon":5.41048,"is_reserved":false,"is_disabled":false,"rental_uris":{"android":"levelo://app?vid=2bbf3f7b-7876-479c-b375-c567106e1cb4","ios":"levelo://app?vid=2bbf3f7b-7876-479c-b375-c567106e1cb4"},"vehicle_type_id":"4","last_reported":1729458512,"current_range_meters":14400,"station_id":"ce4bhnp2rcd13ifvqh0g","pricing_plan_id":"cebpf4jnsgd1na2vs0mg"},{"bike_id":"1104b19b-39e4-4f3f-a954-dd9a3478dd76","system_id":"levelo_inurba_marseille","lat":43.292267,"lon":5.360828,"is_reserved":false,"is_disabled":false,"rental_uris":{"android":"levelo://app?vid=1104b19b-39e4-4f3f-a954-dd9a3478dd76","ios":"levelo://app?vid=1104b19b-39e4-4f3f-a954-dd9a3478dd76"},"vehicle_type_id":"4","last_reported":1729458512,"current_range_meters":29600,"station_id":"ce4bhbh2rcd13ifvqeqg","pricing_plan_id":"cebpf4jnsgd1na2vs0mg"},{"bike_id":"3a90cd5a-8d84-4a1f-9da8-3547bb5d20c1","system_id":"levelo_inurba_marseille","lat":43.2319,"lon":5.35549,"is_reserved":false,"is_disabled":false,"rental_uris":{"android":"levelo://app?vid=3a90cd5a-8d84-4a1f-9da8-3547bb5d20c1","ios":"levelo://app?vid=3a90cd5a-8d84-4a1f-9da8-3547bb5d20c1"},"vehicle_type_id":"4","last_reported":1729458512,"current_range_meters":38800,"station_id":"ce4bhu92rcd13ifvqi70","pricing_plan_id":"cebpf4jnsgd1na2vs0mg"},{"bike_id":"c47ccd47-d873-4fd2-ba35-77b6357180ca","system_id":"levelo_inurba_marseille","lat":43.28108,"lon":5.37844,"is_reserved":false,"is_disabled":false,"rental_uris":{"android":"levelo://app?vid=c47ccd47-d873-4fd2-ba35-77b6357180ca","ios":"levelo://app?vid=c47ccd47-d873-4fd2-ba35-77b6357180ca"},"vehicle_type_id":"4","last_reported":1729458512,"current_range_meters":22400,"station_id":"ce4bha12rcd13ifvqee0","pricing_plan_id":"cebpf4jnsgd1na2vs0mg"},{"bike_id":"4b0e1ae9-90da-4b3c-97a7-9fcaa6ea9192","system_id":"levelo_inurba_marseille","lat":43.28096,"lon":5.37858,"is_reserved":false,"is_disabled":false,"rental_uris":{"android":"levelo://app?vid=4b0e1ae9-90da-4b3c-97a7-9fcaa6ea9192","ios":"levelo://app?vid=4b0e1ae9-90da-4b3c-97a7-9fcaa6ea9192"},"vehicle_type_id":"4","last_reported":1729458512,"current_range_meters":39200,"station_id":"ce4bha12rcd13ifvqee0","pricing_plan_id":"cebpf4jnsgd1na2vs0mg"},{"bike_id":"c03fbd20-86ef-48e9-8de5-9cb4bceff8ae","system_id":"levelo_inurba_marseille","lat":43.31274,"lon":5.40181,"is_reserved":false,"is_disabled":false,"rental_uris":{"android":"levelo://app?vid=c03fbd20-86ef-48e9-8de5-9cb4bceff8ae","ios":"levelo://app?vid=c03fbd20-86ef-48e9-8de5-9cb4bceff8ae"},"vehicle_type_id":"4","last_reported":1729458512,"current_range_meters":30400,"station_id":"ce4bh092rcd13ifvqd30","pricing_plan_id":"cebpf4jnsgd1na2vs0mg"},{"bike_id":"61f6fcba-0270-4e6f-bab2-fc32e0baeaf0","system_id":"levelo_inurba_marseille","lat":43.28101,"lon":5.37845,"is_reserved":false,"is_disabled":false,"rental_uris":{"android":"levelo://app?vid=61f6fcba-0270-4e6f-bab2-fc32e0baeaf0","ios":"levelo://app?vid=61f6fcba-0270-4e6f-bab2-fc32e0baeaf0"},"vehicle_type_id":"4","last_reported":1729458512,"current_range_meters":19600,"station_id":"ce4bha12rcd13ifvqee0","pricing_plan_id":"cebpf4jnsgd1na2vs0mg"},{"bike_id":"7772d39f-5e28-445c-af91-069b0cf63793","system_id":"levelo_inurba_marseille","lat":43.33765,"lon":5.37438,"is_reserved":false,"is_disabled":false,"rental_uris":{"android":"levelo://app?vid=7772d39f-5e28-445c-af91-069b0cf63793","ios":"levelo://app?vid=7772d39f-5e28-445c-af91-069b0cf63793"},"vehicle_type_id":"4","last_reported":1729458512,"current_range_meters":2800,"station_id":"","pricing_plan_id":"cebpf4jnsgd1na2vs0mg"},{"bike_id":"95b66c55-5abd-41c2-9bd2-3e3c73973021","system_id":"levelo_inurba_marseille","lat":43.30261,"lon":5.40067,"is_reserved":false,"is_disabled":false,"rental_uris":{"android":"levelo://app?vid=95b66c55-5abd-41c2-9bd2-3e3c73973021","ios":"levelo://app?vid=95b66c55-5abd-41c2-9bd2-3e3c73973021"},"vehicle_type_id":"4","last_reported":1729458512,"current_range_meters":39200,"station_id":"ce4bgvh2rcd13ifvqcs0","pricing_plan_id":"cebpf4jnsgd1na2vs0mg"},{"bike_id":"3213665e-989c-4d22-9f5a-31c8522597dd","system_id":"levelo_inurba_marseille","lat":43.296,"lon":5.36142,"is_reserved":false,"is_disabled":false,"rental_uris":{"android":"levelo://app?vid=3213665e-989c-4d22-9f5a-31c8522597dd","ios":"levelo://app?vid=3213665e-989c-4d22-9f5a-31c8522597dd"},"vehicle_type_id":"4","last_reported":1729458512,"current_range_meters":13600,"station_id":"","pricing_plan_id":"cebpf4jnsgd1na2vs0mg"},{"bike_id":"c0d3d32e-e5a1-4781-982b-6fe954b368b7","system_id":"levelo_inurba_marseille","lat":43.28718,"lon":5.36086,"is_reserved":false,"is_disabled":false,"rental_uris":{"android":"levelo://app?vid=c0d3d32e-e5a1-4781-982b-6fe954b368b7","ios":"levelo://app?vid=c0d3d32e-e5a1-4781-982b-6fe954b368b7"},"vehicle_type_id":"4","last_reported":1729458512,"current_range_meters":30400,"station_id":"cki0cbj6b192h4jlfktg","pricing_plan_id":"cebpf4jnsgd1na2vs0mg"},{"bike_id":"534a178b-f6cc-4249-9fbb-9d655d8b76d4","system_id":"levelo_inurba_marseille","lat":43.30214,"lon":5.39477,"is_reserved":false,"is_disabled":false,"rental_uris":{"android":"levelo://app?vid=534a178b-f6cc-4249-9fbb-9d655d8b76d4","ios":"levelo://app?vid=534a178b-f6cc-4249-9fbb-9d655d8b76d4"},"vehicle_type_id":"4","last_reported":1729458512,"current_range_meters":3200,"station_id":"ce4bh0p2rcd13ifvqd70","pricing_plan_id":"cebpf4jnsgd1na2vs0mg"},{"bike_id":"9a2117f0-c5b0-4dc2-891b-026a24af23f1","system_id":"levelo_inurba_marseille","lat":43.3105,"lon":5.40092,"is_reserved":false,"is_disabled":false,"rental_uris":{"android":"levelo://app?vid=9a2117f0-c5b0-4dc2-891b-026a24af23f1","ios":"levelo://app?vid=9a2117f0-c5b0-4dc2-891b-026a24af23f1"},"vehicle_type_id":"4","last_reported":1729458512,"current_range_meters":34000,"station_id":"","pricing_plan_id":"cebpf4jnsgd1na2vs0mg"},{"bike_id":"150b2076-fa3d-4436-b76f-3b9f9d8be659","system_id":"levelo_inurba_marseille","lat":43.33605,"lon":5.41024,"is_reserved":false,"is_disabled":false,"rental_uris":{"android":"levelo://app?vid=150b2076-fa3d-4436-b76f-3b9f9d8be659","ios":"levelo://app?vid=150b2076-fa3d-4436-b76f-3b9f9d8be659"},"vehicle_type_id":"4","last_reported":1729458512,"current_range_meters":3200,"station_id":"ce4bhqh2rcd13ifvqhmg","pricing_plan_id":"cebpf4jnsgd1na2vs0mg"},{"bike_id":"1325b51d-d72b-4fdd-b738-264435a6d6a4","system_id":"levelo_inurba_marseille","lat":43.29265,"lon":5.3845,"is_reserved":false,"is_disabled":false,"rental_uris":{"android":"levelo://app?vid=1325b51d-d72b-4fdd-b738-264435a6d6a4","ios":"levelo://app?vid=1325b51d-d72b-4fdd-b738-264435a6d6a4"},"vehicle_type_id":"4","last_reported":1729458512,"current_range_meters":23200,"station_id":"ce4bh3p2rcd13ifvqdq0","pricing_plan_id":"cebpf4jnsgd1na2vs0mg"},{"bike_id":"d66150e9-d1c2-4a05-8f92-d04325a11ea1","system_id":"levelo_inurba_marseille","lat":43.27421,"lon":5.39414,"is_reserved":false,"is_disabled":false,"rental_uris":{"android":"levelo://app?vid=d66150e9-d1c2-4a05-8f92-d04325a11ea1","ios":"levelo://app?vid=d66150e9-d1c2-4a05-8f92-d04325a11ea1"},"vehicle_type_id":"4","last_reported":1729458512,"current_range_meters":30400,"station_id":"ce4bhdp2rcd13ifvqf20","pricing_plan_id":"cebpf4jnsgd1na2vs0mg"},{"bike_id":"c6e72ce8-73cb-4ad9-ae1c-d9a049f9b024","system_id":"levelo_inurba_marseille","lat":43.26945,"lon":5.40248,"is_reserved":false,"is_disabled":false,"rental_uris":{"android":"levelo://app?vid=c6e72ce8-73cb-4ad9-ae1c-d9a049f9b024","ios":"levelo://app?vid=c6e72ce8-73cb-4ad9-ae1c-d9a049f9b024"},"vehicle_type_id":"4","last_reported":1729458512,"current_range_meters":38000,"station_id":"cjm6bp8fraef2m0cb0m0","pricing_plan_id":"cebpf4jnsgd1na2vs0mg"},{"bike_id":"ac69515a-2b4c-4f03-b511-e10ff5d0241f","system_id":"levelo_inurba_marseille","lat":43.30887,"lon":5.37188,"is_reserved":false,"is_disabled":false,"rental_uris":{"android":"levelo://app?vid=ac69515a-2b4c-4f03-b511-e10ff5d0241f","ios":"levelo://app?vid=ac69515a-2b4c-4f03-b511-e10ff5d0241f"},"vehicle_type_id":"4","last_reported":1729458512,"current_range_meters":16000,"station_id":"ce4bguh2rcd13ifvqckg","pricing_plan_id":"cebpf4jnsgd1na2vs0mg"},{"bike_id":"28d92b0f-31be-485b-b607-bb4ae4ef5b5f","system_id":"levelo_inurba_marseille","lat":43.30296,"lon":5.36896,"is_reserved":false,"is_disabled":false,"rental_uris":{"android":"levelo://app?vid=28d92b0f-31be-485b-b607-bb4ae4ef5b5f","ios":"levelo://app?vid=28d92b0f-31be-485b-b607-bb4ae4ef5b5f"},"vehicle_type_id":"4","last_reported":1729458512,"current_range_meters":38800,"station_id":"ce4bgqh2rcd13ifvqc5g","pricing_plan_id":"cebpf4jnsgd1na2vs0mg"},{"bike_id":"836dc57c-4fbc-47b4-b795-4de826fbae87","system_id":"levelo_inurba_marseille","lat":43.284607,"lon":5.358919,"is_reserved":false,"is_disabled":false,"rental_uris":{"android":"levelo://app?vid=836dc57c-4fbc-47b4-b795-4de826fbae87","ios":"levelo://app?vid=836dc57c-4fbc-47b4-b795-4de826fbae87"},"vehicle_type_id":"4","last_reported":1729458512,"current_range_meters":36400,"station_id":"","pricing_plan_id":"cebpf4jnsgd1na2vs0mg"},{"bike_id":"12bd3036-1eeb-409e-83a9-f84f7c98205c","system_id":"levelo_inurba_marseille","lat":43.276215,"lon":5.361058,"is_reserved":false,"is_disabled":false,"rental_uris":{"android":"levelo://app?vid=12bd3036-1eeb-409e-83a9-f84f7c98205c","ios":"levelo://app?vid=12bd3036-1eeb-409e-83a9-f84f7c98205c"},"vehicle_type_id":"4","last_reported":1729458512,"current_range_meters":28400,"station_id":"ce4bgj92rcd13ifvqbe0","pricing_plan_id":"cebpf4jnsgd1na2vs0mg"},{"bike_id":"615a7b9b-e8d1-4cb2-b926-2eb364cb53b0","system_id":"levelo_inurba_marseille","lat":43.27841,"lon":5.39208,"is_reserved":false,"is_disabled":false,"rental_uris":{"android":"levelo://app?vid=615a7b9b-e8d1-4cb2-b926-2eb364cb53b0","ios":"levelo://app?vid=615a7b9b-e8d1-4cb2-b926-2eb364cb53b0"},"vehicle_type_id":"4","last_reported":1729458512,"current_range_meters":36000,"station_id":"ce4bhjp2rcd13ifvqga0","pricing_plan_id":"cebpf4jnsgd1na2vs0mg"},{"bike_id":"b0e24c63-793a-4dc3-99e1-7494a931facb","system_id":"levelo_inurba_marseille","lat":43.28409,"lon":5.37523,"is_reserved":false,"is_disabled":false,"rental_uris":{"android":"levelo://app?vid=b0e24c63-793a-4dc3-99e1-7494a931facb","ios":"levelo://app?vid=b0e24c63-793a-4dc3-99e1-7494a931facb"},"vehicle_type_id":"4","last_reported":1729458512,"current_range_meters":32000,"station_id":"ce4bh412rcd13ifvqds0","pricing_plan_id":"cebpf4jnsgd1na2vs0mg"},{"bike_id":"302c0a5a-1cd1-45a3-ad08-0fe5af673bcd","system_id":"levelo_inurba_marseille","lat":43.29572,"lon":5.39982,"is_reserved":false,"is_disabled":false,"rental_uris":{"android":"levelo://app?vid=302c0a5a-1cd1-45a3-ad08-0fe5af673bcd","ios":"levelo://app?vid=302c0a5a-1cd1-45a3-ad08-0fe5af673bcd"},"vehicle_type_id":"4","last_reported":1729458512,"current_range_meters":31200,"station_id":"ce4bh312rcd13ifvqdj0","pricing_plan_id":"cebpf4jnsgd1na2vs0mg"},{"bike_id":"eaaa5fbc-63f7-46b3-b6d4-fd6dc86ad4e8","system_id":"levelo_inurba_marseille","lat":43.23955,"lon":5.36627,"is_reserved":false,"is_disabled":false,"rental_uris":{"android":"levelo://app?vid=eaaa5fbc-63f7-46b3-b6d4-fd6dc86ad4e8","ios":"levelo://app?vid=eaaa5fbc-63f7-46b3-b6d4-fd6dc86ad4e8"},"vehicle_type_id":"4","last_reported":1729458512,"current_range_meters":38800,"station_id":"ce4bhi12rcd13ifvqfp0","pricing_plan_id":"cebpf4jnsgd1na2vs0mg"},{"bike_id":"2a8cfce5-93d5-4a5e-832b-148482060dca","system_id":"levelo_inurba_marseille","lat":43.32365,"lon":5.38885,"is_reserved":false,"is_disabled":false,"rental_uris":{"android":"levelo://app?vid=2a8cfce5-93d5-4a5e-832b-148482060dca","ios":"levelo://app?vid=2a8cfce5-93d5-4a5e-832b-148482060dca"},"vehicle_type_id":"4","last_reported":1729458512,"current_range_meters":24800,"station_id":"ce4bhqp2rcd13ifvqhog","pricing_plan_id":"cebpf4jnsgd1na2vs0mg"},{"bike_id":"115e3db0-037e-43f4-8fed-cc520aa5d554","system_id":"levelo_inurba_marseille","lat":43.31359,"lon":5.38491,"is_reserved":false,"is_disabled":false,"rental_uris":{"android":"levelo://app?vid=115e3db0-037e-43f4-8fed-cc520aa5d554","ios":"levelo://app?vid=115e3db0-037e-43f4-8fed-cc520aa5d554"},"vehicle_type_id":"4","last_reported":1729458512,"current_range_meters":16000,"station_id":"ce4bgt92rcd13ifvqcf0","pricing_plan_id":"cebpf4jnsgd1na2vs0mg"},{"bike_id":"b2c1343a-3efb-4af2-8d17-530273fb49cc","system_id":"levelo_inurba_marseille","lat":43.33603,"lon":5.41033,"is_reserved":false,"is_disabled":false,"rental_uris":{"android":"levelo://app?vid=b2c1343a-3efb-4af2-8d17-530273fb49cc","ios":"levelo://app?vid=b2c1343a-3efb-4af2-8d17-530273fb49cc"},"vehicle_type_id":"4","last_reported":1729458512,"current_range_meters":13600,"station_id":"ce4bhqh2rcd13ifvqhmg","pricing_plan_id":"cebpf4jnsgd1na2vs0mg"},{"bike_id":"af95ced9-5b43-46e2-bfd7-64cf80b53320","system_id":"levelo_inurba_marseille","lat":43.31331,"lon":5.39698,"is_reserved":false,"is_disabled":false,"rental_uris":{"android":"levelo://app?vid=af95ced9-5b43-46e2-bfd7-64cf80b53320","ios":"levelo://app?vid=af95ced9-5b43-46e2-bfd7-64cf80b53320"},"vehicle_type_id":"4","last_reported":1729458512,"current_range_meters":30400,"station_id":"ce4bgvp2rcd13ifvqcu0","pricing_plan_id":"cebpf4jnsgd1na2vs0mg"},{"bike_id":"9cb0d92f-3b5d-4604-bbb8-cf8f5daee3e0","system_id":"levelo_inurba_marseille","lat":43.24648,"lon":5.38894,"is_reserved":false,"is_disabled":false,"rental_uris":{"android":"levelo://app?vid=9cb0d92f-3b5d-4604-bbb8-cf8f5daee3e0","ios":"levelo://app?vid=9cb0d92f-3b5d-4604-bbb8-cf8f5daee3e0"},"vehicle_type_id":"4","last_reported":1729458512,"current_range_meters":19200,"station_id":"ce4bhg12rcd13ifvqf60","pricing_plan_id":"cebpf4jnsgd1na2vs0mg"},{"bike_id":"f92702f4-1925-42de-b63a-eca126eb2b7e","system_id":"levelo_inurba_marseille","lat":43.3025,"lon":5.40045,"is_reserved":false,"is_disabled":false,"rental_uris":{"android":"levelo://app?vid=f92702f4-1925-42de-b63a-eca126eb2b7e","ios":"levelo://app?vid=f92702f4-1925-42de-b63a-eca126eb2b7e"},"vehicle_type_id":"4","last_reported":1729458512,"current_range_meters":36400,"station_id":"ce4bgvh2rcd13ifvqcs0","pricing_plan_id":"cebpf4jnsgd1na2vs0mg"},{"bike_id":"af00502d-b5af-402e-bab9-2b06b78e3677","system_id":"levelo_inurba_marseille","lat":43.31123,"lon":5.37756,"is_reserved":false,"is_disabled":false,"rental_uris":{"android":"levelo://app?vid=af00502d-b5af-402e-bab9-2b06b78e3677","ios":"levelo://app?vid=af00502d-b5af-402e-bab9-2b06b78e3677"},"vehicle_type_id":"4","last_reported":1729458512,"current_range_meters":7200,"station_id":"ce4bgt92rcd13ifvqcg0","pricing_plan_id":"cebpf4jnsgd1na2vs0mg"},{"bike_id":"d863885c-9de8-4c1e-b0fe-4dac0fde31c8","system_id":"levelo_inurba_marseille","lat":43.26194,"lon":5.37451,"is_reserved":false,"is_disabled":false,"rental_uris":{"android":"levelo://app?vid=d863885c-9de8-4c1e-b0fe-4dac0fde31c8","ios":"levelo://app?vid=d863885c-9de8-4c1e-b0fe-4dac0fde31c8"},"vehicle_type_id":"4","last_reported":1729458512,"current_range_meters":36800,"station_id":"ce4bhgp2rcd13ifvqfc0","pricing_plan_id":"cebpf4jnsgd1na2vs0mg"},{"bike_id":"1683d216-d715-408c-8da1-7acbf6f7c18e","system_id":"levelo_inurba_marseille","lat":43.28694,"lon":5.3998,"is_reserved":false,"is_disabled":false,"rental_uris":{"android":"levelo://app?vid=1683d216-d715-408c-8da1-7acbf6f7c18e","ios":"levelo://app?vid=1683d216-d715-408c-8da1-7acbf6f7c18e"},"vehicle_type_id":"4","last_reported":1729458512,"current_range_meters":12400,"station_id":"ce4bho92rcd13ifvqh3g","pricing_plan_id":"cebpf4jnsgd1na2vs0mg"},{"bike_id":"32c8e5bb-2e87-4598-af6c-485bddbbab34","system_id":"levelo_inurba_marseille","lat":43.27961,"lon":5.38801,"is_reserved":false,"is_disabled":false,"rental_uris":{"android":"levelo://app?vid=32c8e5bb-2e87-4598-af6c-485bddbbab34","ios":"levelo://app?vid=32c8e5bb-2e87-4598-af6c-485bddbbab34"},"vehicle_type_id":"4","last_reported":1729458512,"current_range_meters":6800,"station_id":"ce4bhg12rcd13ifvqf80","pricing_plan_id":"cebpf4jnsgd1na2vs0mg"},{"bike_id":"a833175e-1305-4b25-99ef-69e8de6efc8f","system_id":"levelo_inurba_marseille","lat":43.33729,"lon":5.39184,"is_reserved":false,"is_disabled":false,"rental_uris":{"android":"levelo://app?vid=a833175e-1305-4b25-99ef-69e8de6efc8f","ios":"levelo://app?vid=a833175e-1305-4b25-99ef-69e8de6efc8f"},"vehicle_type_id":"4","last_reported":1729458512,"current_range_meters":29600,"station_id":"ce4bhr92rcd13ifvqhsg","pricing_plan_id":"cebpf4jnsgd1na2vs0mg"},{"bike_id":"c45fe0be-d587-41d6-a0e3-3d22e2e72fb2","system_id":"levelo_inurba_marseille","lat":43.30318,"lon":5.40439,"is_reserved":false,"is_disabled":false,"rental_uris":{"android":"levelo://app?vid=c45fe0be-d587-41d6-a0e3-3d22e2e72fb2","ios":"levelo://app?vid=c45fe0be-d587-41d6-a0e3-3d22e2e72fb2"},"vehicle_type_id":"4","last_reported":1729458512,"current_range_meters":8800,"station_id":"ce4bh012rcd13ifvqd10","pricing_plan_id":"cebpf4jnsgd1na2vs0mg"},{"bike_id":"adea3a59-bfe3-4359-9707-8838ade5bc09","system_id":"levelo_inurba_marseille","lat":43.2841,"lon":5.37569,"is_reserved":false,"is_disabled":false,"rental_uris":{"android":"levelo://app?vid=adea3a59-bfe3-4359-9707-8838ade5bc09","ios":"levelo://app?vid=adea3a59-bfe3-4359-9707-8838ade5bc09"},"vehicle_type_id":"4","last_reported":1729458512,"current_range_meters":31200,"station_id":"","pricing_plan_id":"cebpf4jnsgd1na2vs0mg"},{"bike_id":"4cf3e5d8-4f9a-4007-b965-622ecd99339e","system_id":"levelo_inurba_marseille","lat":43.31074,"lon":5.40085,"is_reserved":false,"is_disabled":false,"rental_uris":{"android":"levelo://app?vid=4cf3e5d8-4f9a-4007-b965-622ecd99339e","ios":"levelo://app?vid=4cf3e5d8-4f9a-4007-b965-622ecd99339e"},"vehicle_type_id":"4","last_reported":1729458512,"current_range_meters":7200,"station_id":"","pricing_plan_id":"cebpf4jnsgd1na2vs0mg"},{"bike_id":"3de5f9c6-824d-4fba-b9de-50e1c84c4cf7","system_id":"levelo_inurba_marseille","lat":43.28696,"lon":5.39981,"is_reserved":false,"is_disabled":false,"rental_uris":{"android":"levelo://app?vid=3de5f9c6-824d-4fba-b9de-50e1c84c4cf7","ios":"levelo://app?vid=3de5f9c6-824d-4fba-b9de-50e1c84c4cf7"},"vehicle_type_id":"4","last_reported":1729458512,"current_range_meters":6800,"station_id":"ce4bho92rcd13ifvqh3g","pricing_plan_id":"cebpf4jnsgd1na2vs0mg"},{"bike_id":"71f051d3-8dcd-4d31-a2f4-834d0e8022d4","system_id":"levelo_inurba_marseille","lat":43.309,"lon":5.37194,"is_reserved":false,"is_disabled":false,"rental_uris":{"android":"levelo://app?vid=71f051d3-8dcd-4d31-a2f4-834d0e8022d4","ios":"levelo://app?vid=71f051d3-8dcd-4d31-a2f4-834d0e8022d4"},"vehicle_type_id":"4","last_reported":1729458512,"current_range_meters":2800,"station_id":"ce4bguh2rcd13ifvqckg","pricing_plan_id":"cebpf4jnsgd1na2vs0mg"},{"bike_id":"eb28c191-e5cc-4e35-8818-10ea0b1447e3","system_id":"levelo_inurba_marseille","lat":43.30308,"lon":5.36911,"is_reserved":false,"is_disabled":false,"rental_uris":{"android":"levelo://app?vid=eb28c191-e5cc-4e35-8818-10ea0b1447e3","ios":"levelo://app?vid=eb28c191-e5cc-4e35-8818-10ea0b1447e3"},"vehicle_type_id":"4","last_reported":1729458512,"current_range_meters":38800,"station_id":"ce4bgqh2rcd13ifvqc5g","pricing_plan_id":"cebpf4jnsgd1na2vs0mg"},{"bike_id":"52acb39f-a57f-49d5-959f-057598bc9c4e","system_id":"levelo_inurba_marseille","lat":43.29045,"lon":5.39977,"is_reserved":false,"is_disabled":false,"rental_uris":{"android":"levelo://app?vid=52acb39f-a57f-49d5-959f-057598bc9c4e","ios":"levelo://app?vid=52acb39f-a57f-49d5-959f-057598bc9c4e"},"vehicle_type_id":"4","last_reported":1729458512,"current_range_meters":9200,"station_id":"ce4bh392rcd13ifvqdm0","pricing_plan_id":"cebpf4jnsgd1na2vs0mg"},{"bike_id":"2afa9398-54a2-4161-bdfe-0b17240da32e","system_id":"levelo_inurba_marseille","lat":43.28708,"lon":5.39982,"is_reserved":false,"is_disabled":false,"rental_uris":{"android":"levelo://app?vid=2afa9398-54a2-4161-bdfe-0b17240da32e","ios":"levelo://app?vid=2afa9398-54a2-4161-bdfe-0b17240da32e"},"vehicle_type_id":"4","last_reported":1729458512,"current_range_meters":38800,"station_id":"ce4bho92rcd13ifvqh3g","pricing_plan_id":"cebpf4jnsgd1na2vs0mg"},{"bike_id":"8662eb95-69fb-4f96-bc45-6f001019953c","system_id":"levelo_inurba_marseille","lat":43.28468,"lon":5.35882,"is_reserved":false,"is_disabled":false,"rental_uris":{"android":"levelo://app?vid=8662eb95-69fb-4f96-bc45-6f001019953c","ios":"levelo://app?vid=8662eb95-69fb-4f96-bc45-6f001019953c"},"vehicle_type_id":"4","last_reported":1729458512,"current_range_meters":16800,"station_id":"ce4bhah2rcd13ifvqei0","pricing_plan_id":"cebpf4jnsgd1na2vs0mg"},{"bike_id":"8a0d6472-2930-44bd-9596-ea630755ac34","system_id":"levelo_inurba_marseille","lat":43.28723,"lon":5.36085,"is_reserved":false,"is_disabled":false,"rental_uris":{"android":"levelo://app?vid=8a0d6472-2930-44bd-9596-ea630755ac34","ios":"levelo://app?vid=8a0d6472-2930-44bd-9596-ea630755ac34"},"vehicle_type_id":"4","last_reported":1729458512,"current_range_meters":24000,"station_id":"cki0cbj6b192h4jlfktg","pricing_plan_id":"cebpf4jnsgd1na2vs0mg"},{"bike_id":"d78bf987-94d5-4bce-a097-faca6ea1d530","system_id":"levelo_inurba_marseille","lat":43.31359,"lon":5.36706,"is_reserved":false,"is_disabled":false,"rental_uris":{"android":"levelo://app?vid=d78bf987-94d5-4bce-a097-faca6ea1d530","ios":"levelo://app?vid=d78bf987-94d5-4bce-a097-faca6ea1d530"},"vehicle_type_id":"4","last_reported":1729458512,"current_range_meters":38800,"station_id":"ce4bgr92rcd13ifvqc6g","pricing_plan_id":"cebpf4jnsgd1na2vs0mg"},{"bike_id":"44dbe7b3-d52f-4e77-a683-be6a7d7b31b1","system_id":"levelo_inurba_marseille","lat":43.2707,"lon":5.42282,"is_reserved":false,"is_disabled":false,"rental_uris":{"android":"levelo://app?vid=44dbe7b3-d52f-4e77-a683-be6a7d7b31b1","ios":"levelo://app?vid=44dbe7b3-d52f-4e77-a683-be6a7d7b31b1"},"vehicle_type_id":"4","last_reported":1729458512,"current_range_meters":17600,"station_id":"ce4bhk92rcd13ifvqgb0","pricing_plan_id":"cebpf4jnsgd1na2vs0mg"},{"bike_id":"68930fe5-fab4-4367-897b-7dadef049b5f","system_id":"levelo_inurba_marseille","lat":43.30456,"lon":5.37899,"is_reserved":false,"is_disabled":false,"rental_uris":{"android":"levelo://app?vid=68930fe5-fab4-4367-897b-7dadef049b5f","ios":"levelo://app?vid=68930fe5-fab4-4367-897b-7dadef049b5f"},"vehicle_type_id":"4","last_reported":1729458512,"current_range_meters":38800,"station_id":"ce4bgup2rcd13ifvqcn0","pricing_plan_id":"cebpf4jnsgd1na2vs0mg"},{"bike_id":"931da876-d0ed-4146-82c7-6d132f483c10","system_id":"levelo_inurba_marseille","lat":43.32104,"lon":5.36778,"is_reserved":false,"is_disabled":false,"rental_uris":{"android":"levelo://app?vid=931da876-d0ed-4146-82c7-6d132f483c10","ios":"levelo://app?vid=931da876-d0ed-4146-82c7-6d132f483c10"},"vehicle_type_id":"4","last_reported":1729458512,"current_range_meters":38800,"station_id":"ce4bhrh2rcd13ifvqhug","pricing_plan_id":"cebpf4jnsgd1na2vs0mg"},{"bike_id":"a4705844-1af2-4926-b690-9542bead35e7","system_id":"levelo_inurba_marseille","lat":43.25864,"lon":5.39896,"is_reserved":false,"is_disabled":false,"rental_uris":{"android":"levelo://app?vid=a4705844-1af2-4926-b690-9542bead35e7","ios":"levelo://app?vid=a4705844-1af2-4926-b690-9542bead35e7"},"vehicle_type_id":"4","last_reported":1729458512,"current_range_meters":36000,"station_id":"ce4bhl92rcd13ifvqghg","pricing_plan_id":"cebpf4jnsgd1na2vs0mg"},{"bike_id":"2c262605-a444-40e1-8b27-6a2dcb95d67d","system_id":"levelo_inurba_marseille","lat":43.31757,"lon":5.39011,"is_reserved":false,"is_disabled":false,"rental_uris":{"android":"levelo://app?vid=2c262605-a444-40e1-8b27-6a2dcb95d67d","ios":"levelo://app?vid=2c262605-a444-40e1-8b27-6a2dcb95d67d"},"vehicle_type_id":"4","last_reported":1729458512,"current_range_meters":8800,"station_id":"ce4bhqp2rcd13ifvqhng","pricing_plan_id":"cebpf4jnsgd1na2vs0mg"},{"bike_id":"6eba1120-147e-4bac-b6d9-824faa8df75f","system_id":"levelo_inurba_marseille","lat":43.31331,"lon":5.397,"is_reserved":false,"is_disabled":false,"rental_uris":{"android":"levelo://app?vid=6eba1120-147e-4bac-b6d9-824faa8df75f","ios":"levelo://app?vid=6eba1120-147e-4bac-b6d9-824faa8df75f"},"vehicle_type_id":"4","last_reported":1729458512,"current_range_meters":32400,"station_id":"ce4bgvp2rcd13ifvqcu0","pricing_plan_id":"cebpf4jnsgd1na2vs0mg"},{"bike_id":"69822444-a1c8-4fad-a942-f117269c6331","system_id":"levelo_inurba_marseille","lat":43.287,"lon":5.39989,"is_reserved":false,"is_disabled":false,"rental_uris":{"android":"levelo://app?vid=69822444-a1c8-4fad-a942-f117269c6331","ios":"levelo://app?vid=69822444-a1c8-4fad-a942-f117269c6331"},"vehicle_type_id":"4","last_reported":1729458512,"current_range_meters":35200,"station_id":"ce4bho92rcd13ifvqh3g","pricing_plan_id":"cebpf4jnsgd1na2vs0mg"},{"bike_id":"f99bfc0f-dc2c-4cee-a733-c8a8e7dd8252","system_id":"levelo_inurba_marseille","lat":43.296834,"lon":5.378968,"is_reserved":false,"is_disabled":false,"rental_uris":{"android":"levelo://app?vid=f99bfc0f-dc2c-4cee-a733-c8a8e7dd8252","ios":"levelo://app?vid=f99bfc0f-dc2c-4cee-a733-c8a8e7dd8252"},"vehicle_type_id":"4","last_reported":1729458512,"current_range_meters":2000,"station_id":"ce4bgi92rcd13ifvqb90","pricing_plan_id":"cebpf4jnsgd1na2vs0mg"},{"bike_id":"b5cd4a32-ddd1-4a1e-9b4c-b2d28ec47ac5","system_id":"levelo_inurba_marseille","lat":43.28105,"lon":5.37844,"is_reserved":false,"is_disabled":false,"rental_uris":{"android":"levelo://app?vid=b5cd4a32-ddd1-4a1e-9b4c-b2d28ec47ac5","ios":"levelo://app?vid=b5cd4a32-ddd1-4a1e-9b4c-b2d28ec47ac5"},"vehicle_type_id":"4","last_reported":1729458512,"current_range_meters":37600,"station_id":"ce4bha12rcd13ifvqee0","pricing_plan_id":"cebpf4jnsgd1na2vs0mg"},{"bike_id":"0c1c7708-b979-4d7e-982d-190e9148b9a6","system_id":"levelo_inurba_marseille","lat":43.26675,"lon":5.38264,"is_reserved":false,"is_disabled":false,"rental_uris":{"android":"levelo://app?vid=0c1c7708-b979-4d7e-982d-190e9148b9a6","ios":"levelo://app?vid=0c1c7708-b979-4d7e-982d-190e9148b9a6"},"vehicle_type_id":"4","last_reported":1729458512,"current_range_meters":38000,"station_id":"ce4bhg92rcd13ifvqf90","pricing_plan_id":"cebpf4jnsgd1na2vs0mg"},{"bike_id":"01023417-a489-43a7-963d-cd2b984ae008","system_id":"levelo_inurba_marseille","lat":43.29036,"lon":5.38638,"is_reserved":false,"is_disabled":false,"rental_uris":{"android":"levelo://app?vid=01023417-a489-43a7-963d-cd2b984ae008","ios":"levelo://app?vid=01023417-a489-43a7-963d-cd2b984ae008"},"vehicle_type_id":"4","last_reported":1729458512,"current_range_meters":28400,"station_id":"ce4bh4p2rcd13ifvqe0g","pricing_plan_id":"cebpf4jnsgd1na2vs0mg"},{"bike_id":"6b578d3c-d134-48e2-9662-c2d97d97ea58","system_id":"levelo_inurba_marseille","lat":43.31994,"lon":5.38155,"is_reserved":false,"is_disabled":false,"rental_uris":{"android":"levelo://app?vid=6b578d3c-d134-48e2-9662-c2d97d97ea58","ios":"levelo://app?vid=6b578d3c-d134-48e2-9662-c2d97d97ea58"},"vehicle_type_id":"4","last_reported":1729458512,"current_range_meters":37600,"station_id":"ce4bhr12rcd13ifvqhpg","pricing_plan_id":"cebpf4jnsgd1na2vs0mg"},{"bike_id":"60054e84-c649-49a6-8a62-beec3c569f32","system_id":"levelo_inurba_marseille","lat":43.30213,"lon":5.39474,"is_reserved":false,"is_disabled":false,"rental_uris":{"android":"levelo://app?vid=60054e84-c649-49a6-8a62-beec3c569f32","ios":"levelo://app?vid=60054e84-c649-49a6-8a62-beec3c569f32"},"vehicle_type_id":"4","last_reported":1729458512,"current_range_meters":38800,"station_id":"ce4bh0p2rcd13ifvqd70","pricing_plan_id":"cebpf4jnsgd1na2vs0mg"},{"bike_id":"83341eed-4a77-4ec8-936f-2be77f1d3b59","system_id":"levelo_inurba_marseille","lat":43.30207,"lon":5.39454,"is_reserved":false,"is_disabled":false,"rental_uris":{"android":"levelo://app?vid=83341eed-4a77-4ec8-936f-2be77f1d3b59","ios":"levelo://app?vid=83341eed-4a77-4ec8-936f-2be77f1d3b59"},"vehicle_type_id":"4","last_reported":1729458512,"current_range_meters":36400,"station_id":"ce4bh0p2rcd13ifvqd70","pricing_plan_id":"cebpf4jnsgd1na2vs0mg"},{"bike_id":"89a109d7-365f-4d62-ac8d-53509740ad5d","system_id":"levelo_inurba_marseille","lat":43.23156,"lon":5.43702,"is_reserved":false,"is_disabled":false,"rental_uris":{"android":"levelo://app?vid=89a109d7-365f-4d62-ac8d-53509740ad5d","ios":"levelo://app?vid=89a109d7-365f-4d62-ac8d-53509740ad5d"},"vehicle_type_id":"4","last_reported":1729458512,"current_range_meters":37600,"station_id":"ce4bhmp2rcd13ifvqgog","pricing_plan_id":"cebpf4jnsgd1na2vs0mg"},{"bike_id":"813f8a68-8dee-42ee-821c-e07a4137856f","system_id":"levelo_inurba_marseille","lat":43.27887,"lon":5.38002,"is_reserved":false,"is_disabled":false,"rental_uris":{"android":"levelo://app?vid=813f8a68-8dee-42ee-821c-e07a4137856f","ios":"levelo://app?vid=813f8a68-8dee-42ee-821c-e07a4137856f"},"vehicle_type_id":"4","last_reported":1729458512,"current_range_meters":9200,"station_id":"ce4bhf92rcd13ifvqf50","pricing_plan_id":"cebpf4jnsgd1na2vs0mg"},{"bike_id":"a26636ff-e6a9-465f-8584-c6bc1fb9aacd","system_id":"levelo_inurba_marseille","lat":43.2871,"lon":5.37945,"is_reserved":false,"is_disabled":false,"rental_uris":{"android":"levelo://app?vid=a26636ff-e6a9-465f-8584-c6bc1fb9aacd","ios":"levelo://app?vid=a26636ff-e6a9-465f-8584-c6bc1fb9aacd"},"vehicle_type_id":"4","last_reported":1729458512,"current_range_meters":38800,"station_id":"ce4bh9p2rcd13ifvqec0","pricing_plan_id":"cebpf4jnsgd1na2vs0mg"},{"bike_id":"563e8b6a-b39c-4c88-b0b1-c1b2277ee1d9","system_id":"levelo_inurba_marseille","lat":43.28106,"lon":5.37846,"is_reserved":false,"is_disabled":false,"rental_uris":{"android":"levelo://app?vid=563e8b6a-b39c-4c88-b0b1-c1b2277ee1d9","ios":"levelo://app?vid=563e8b6a-b39c-4c88-b0b1-c1b2277ee1d9"},"vehicle_type_id":"4","last_reported":1729458512,"current_range_meters":21600,"station_id":"ce4bha12rcd13ifvqee0","pricing_plan_id":"cebpf4jnsgd1na2vs0mg"},{"bike_id":"f3b18d4c-688e-4e02-9104-7f1d559134af","system_id":"levelo_inurba_marseille","lat":43.32093,"lon":5.36788,"is_reserved":false,"is_disabled":false,"rental_uris":{"android":"levelo://app?vid=f3b18d4c-688e-4e02-9104-7f1d559134af","ios":"levelo://app?vid=f3b18d4c-688e-4e02-9104-7f1d559134af"},"vehicle_type_id":"4","last_reported":1729458512,"current_range_meters":34800,"station_id":"ce4bhrh2rcd13ifvqhug","pricing_plan_id":"cebpf4jnsgd1na2vs0mg"},{"bike_id":"8ee97442-5f9f-4f16-b15a-1e32c3342e44","system_id":"levelo_inurba_marseille","lat":43.28459,"lon":5.35888,"is_reserved":false,"is_disabled":false,"rental_uris":{"android":"levelo://app?vid=8ee97442-5f9f-4f16-b15a-1e32c3342e44","ios":"levelo://app?vid=8ee97442-5f9f-4f16-b15a-1e32c3342e44"},"vehicle_type_id":"4","last_reported":1729458512,"current_range_meters":23200,"station_id":"ce4bhah2rcd13ifvqei0","pricing_plan_id":"cebpf4jnsgd1na2vs0mg"},{"bike_id":"062124db-4122-4fdd-9a6e-6533ec2073f0","system_id":"levelo_inurba_marseille","lat":43.23172,"lon":5.4373,"is_reserved":false,"is_disabled":false,"rental_uris":{"android":"levelo://app?vid=062124db-4122-4fdd-9a6e-6533ec2073f0","ios":"levelo://app?vid=062124db-4122-4fdd-9a6e-6533ec2073f0"},"vehicle_type_id":"4","last_reported":1729458512,"current_range_meters":11200,"station_id":"ce4bhmp2rcd13ifvqgog","pricing_plan_id":"cebpf4jnsgd1na2vs0mg"},{"bike_id":"cc36c76b-afac-4d90-87ad-c1ef90269180","system_id":"levelo_inurba_marseille","lat":43.25118,"lon":5.40325,"is_reserved":false,"is_disabled":false,"rental_uris":{"android":"levelo://app?vid=cc36c76b-afac-4d90-87ad-c1ef90269180","ios":"levelo://app?vid=cc36c76b-afac-4d90-87ad-c1ef90269180"},"vehicle_type_id":"4","last_reported":1729458512,"current_range_meters":16800,"station_id":"ce4bhlh2rcd13ifvqgig","pricing_plan_id":"cebpf4jnsgd1na2vs0mg"},{"bike_id":"7edb78b4-ac37-4dc6-ba53-f4bc85e5e3ea","system_id":"levelo_inurba_marseille","lat":43.3127,"lon":5.40184,"is_reserved":false,"is_disabled":false,"rental_uris":{"android":"levelo://app?vid=7edb78b4-ac37-4dc6-ba53-f4bc85e5e3ea","ios":"levelo://app?vid=7edb78b4-ac37-4dc6-ba53-f4bc85e5e3ea"},"vehicle_type_id":"4","last_reported":1729458512,"current_range_meters":2000,"station_id":"ce4bh092rcd13ifvqd30","pricing_plan_id":"cebpf4jnsgd1na2vs0mg"},{"bike_id":"f4136449-9460-4030-a711-33bcf5b01ae1","system_id":"levelo_inurba_marseille","lat":43.28675,"lon":5.36343,"is_reserved":false,"is_disabled":false,"rental_uris":{"android":"levelo://app?vid=f4136449-9460-4030-a711-33bcf5b01ae1","ios":"levelo://app?vid=f4136449-9460-4030-a711-33bcf5b01ae1"},"vehicle_type_id":"4","last_reported":1729458512,"current_range_meters":31200,"station_id":"ce4bhah2rcd13ifvqej0","pricing_plan_id":"cebpf4jnsgd1na2vs0mg"},{"bike_id":"3bf2ae1c-49b2-4936-93d0-295eb17bee45","system_id":"levelo_inurba_marseille","lat":43.23063,"lon":5.35488,"is_reserved":false,"is_disabled":false,"rental_uris":{"android":"levelo://app?vid=3bf2ae1c-49b2-4936-93d0-295eb17bee45","ios":"levelo://app?vid=3bf2ae1c-49b2-4936-93d0-295eb17bee45"},"vehicle_type_id":"4","last_reported":1729458512,"current_range_meters":38800,"station_id":"cpo3342slgdg3j2ifvpg","pricing_plan_id":"cebpf4jnsgd1na2vs0mg"},{"bike_id":"a4bf4c37-492b-43fb-8327-d4e18ba08dac","system_id":"levelo_inurba_marseille","lat":43.282724,"lon":5.350668,"is_reserved":false,"is_disabled":false,"rental_uris":{"android":"levelo://app?vid=a4bf4c37-492b-43fb-8327-d4e18ba08dac","ios":"levelo://app?vid=a4bf4c37-492b-43fb-8327-d4e18ba08dac"},"vehicle_type_id":"4","last_reported":1729458512,"current_range_meters":36800,"station_id":"ce4bhbp2rcd13ifvqerg","pricing_plan_id":"cebpf4jnsgd1na2vs0mg"},{"bike_id":"a3b3b3a2-9ae8-4569-8f2c-15c673574ef1","system_id":"levelo_inurba_marseille","lat":43.29876,"lon":5.39743,"is_reserved":false,"is_disabled":false,"rental_uris":{"android":"levelo://app?vid=a3b3b3a2-9ae8-4569-8f2c-15c673574ef1","ios":"levelo://app?vid=a3b3b3a2-9ae8-4569-8f2c-15c673574ef1"},"vehicle_type_id":"4","last_reported":1729458512,"current_range_meters":33200,"station_id":"ce4bh0h2rcd13ifvqd50","pricing_plan_id":"cebpf4jnsgd1na2vs0mg"},{"bike_id":"d130acd9-4eea-4e83-b250-944e2f0568ad","system_id":"levelo_inurba_marseille","lat":43.30415,"lon":5.41282,"is_reserved":false,"is_disabled":false,"rental_uris":{"android":"levelo://app?vid=d130acd9-4eea-4e83-b250-944e2f0568ad","ios":"levelo://app?vid=d130acd9-4eea-4e83-b250-944e2f0568ad"},"vehicle_type_id":"4","last_reported":1729458512,"current_range_meters":3600,"station_id":"ce4bhop2rcd13ifvqh8g","pricing_plan_id":"cebpf4jnsgd1na2vs0mg"},{"bike_id":"666e0536-0420-4706-8e49-6450568c8c72","system_id":"levelo_inurba_marseille","lat":43.28572,"lon":5.39506,"is_reserved":false,"is_disabled":false,"rental_uris":{"android":"levelo://app?vid=666e0536-0420-4706-8e49-6450568c8c72","ios":"levelo://app?vid=666e0536-0420-4706-8e49-6450568c8c72"},"vehicle_type_id":"4","last_reported":1729458512,"current_range_meters":34800,"station_id":"ce4bh292rcd13ifvqdg0","pricing_plan_id":"cebpf4jnsgd1na2vs0mg"},{"bike_id":"ea93ad3b-2f63-4f71-9050-1fa0b897a3ad","system_id":"levelo_inurba_marseille","lat":43.27548,"lon":5.38436,"is_reserved":false,"is_disabled":false,"rental_uris":{"android":"levelo://app?vid=ea93ad3b-2f63-4f71-9050-1fa0b897a3ad","ios":"levelo://app?vid=ea93ad3b-2f63-4f71-9050-1fa0b897a3ad"},"vehicle_type_id":"4","last_reported":1729458512,"current_range_meters":14400,"station_id":"ce4bhh92rcd13ifvqfi0","pricing_plan_id":"cebpf4jnsgd1na2vs0mg"},{"bike_id":"72227f72-be48-4182-8659-01fea53b4691","system_id":"levelo_inurba_marseille","lat":43.28353,"lon":5.38624,"is_reserved":false,"is_disabled":false,"rental_uris":{"android":"levelo://app?vid=72227f72-be48-4182-8659-01fea53b4691","ios":"levelo://app?vid=72227f72-be48-4182-8659-01fea53b4691"},"vehicle_type_id":"4","last_reported":1729458512,"current_range_meters":8800,"station_id":"ce4bh492rcd13ifvqdvg","pricing_plan_id":"cebpf4jnsgd1na2vs0mg"},{"bike_id":"684997cb-a782-4cca-a670-ca233ed67c97","system_id":"levelo_inurba_marseille","lat":43.265655,"lon":5.373444,"is_reserved":false,"is_disabled":false,"rental_uris":{"android":"levelo://app?vid=684997cb-a782-4cca-a670-ca233ed67c97","ios":"levelo://app?vid=684997cb-a782-4cca-a670-ca233ed67c97"},"vehicle_type_id":"4","last_reported":1729458512,"current_range_meters":38800,"station_id":"ce4bhg12rcd13ifvqf70","pricing_plan_id":"cebpf4jnsgd1na2vs0mg"},{"bike_id":"62738b42-4d14-4992-87b3-65556f57f437","system_id":"levelo_inurba_marseille","lat":43.24392,"lon":5.37058,"is_reserved":false,"is_disabled":false,"rental_uris":{"android":"levelo://app?vid=62738b42-4d14-4992-87b3-65556f57f437","ios":"levelo://app?vid=62738b42-4d14-4992-87b3-65556f57f437"},"vehicle_type_id":"4","last_reported":1729458512,"current_range_meters":31200,"station_id":"ce4bhhh2rcd13ifvqfk0","pricing_plan_id":"cebpf4jnsgd1na2vs0mg"},{"bike_id":"3208a7db-b2ba-42d5-b984-b06e7befcf38","system_id":"levelo_inurba_marseille","lat":43.31069,"lon":5.38356,"is_reserved":false,"is_disabled":false,"rental_uris":{"android":"levelo://app?vid=3208a7db-b2ba-42d5-b984-b06e7befcf38","ios":"levelo://app?vid=3208a7db-b2ba-42d5-b984-b06e7befcf38"},"vehicle_type_id":"4","last_reported":1729458512,"current_range_meters":38800,"station_id":"ce4bgv92rcd13ifvqcr0","pricing_plan_id":"cebpf4jnsgd1na2vs0mg"},{"bike_id":"4923bd60-6317-429f-a624-53fa6d504b5e","system_id":"levelo_inurba_marseille","lat":43.282318,"lon":5.40503,"is_reserved":false,"is_disabled":false,"rental_uris":{"android":"levelo://app?vid=4923bd60-6317-429f-a624-53fa6d504b5e","ios":"levelo://app?vid=4923bd60-6317-429f-a624-53fa6d504b5e"},"vehicle_type_id":"4","last_reported":1729458512,"current_range_meters":35600,"station_id":"ce4bho92rcd13ifvqh4g","pricing_plan_id":"cebpf4jnsgd1na2vs0mg"},{"bike_id":"342bb506-8e82-4fe8-8123-2298181f1aa1","system_id":"levelo_inurba_marseille","lat":43.30797,"lon":5.38167,"is_reserved":false,"is_disabled":false,"rental_uris":{"android":"levelo://app?vid=342bb506-8e82-4fe8-8123-2298181f1aa1","ios":"levelo://app?vid=342bb506-8e82-4fe8-8123-2298181f1aa1"},"vehicle_type_id":"4","last_reported":1729458512,"current_range_meters":35200,"station_id":"","pricing_plan_id":"cebpf4jnsgd1na2vs0mg"},{"bike_id":"49f034c7-bcc2-44a1-a2c0-c64d1cae1fa9","system_id":"levelo_inurba_marseille","lat":43.27633,"lon":5.3611,"is_reserved":false,"is_disabled":false,"rental_uris":{"android":"levelo://app?vid=49f034c7-bcc2-44a1-a2c0-c64d1cae1fa9","ios":"levelo://app?vid=49f034c7-bcc2-44a1-a2c0-c64d1cae1fa9"},"vehicle_type_id":"4","last_reported":1729458512,"current_range_meters":38800,"station_id":"ce4bgj92rcd13ifvqbe0","pricing_plan_id":"cebpf4jnsgd1na2vs0mg"},{"bike_id":"fe7a5596-2dd8-4c23-883a-1fe9ebf74f3f","system_id":"levelo_inurba_marseille","lat":43.29054,"lon":5.35906,"is_reserved":false,"is_disabled":false,"rental_uris":{"android":"levelo://app?vid=fe7a5596-2dd8-4c23-883a-1fe9ebf74f3f","ios":"levelo://app?vid=fe7a5596-2dd8-4c23-883a-1fe9ebf74f3f"},"vehicle_type_id":"4","last_reported":1729458512,"current_range_meters":4400,"station_id":"ce4bha92rcd13ifvqeg0","pricing_plan_id":"cebpf4jnsgd1na2vs0mg"},{"bike_id":"7f09bd63-63b5-4c96-8f6f-4f9e976785a4","system_id":"levelo_inurba_marseille","lat":43.27552,"lon":5.38425,"is_reserved":false,"is_disabled":false,"rental_uris":{"android":"levelo://app?vid=7f09bd63-63b5-4c96-8f6f-4f9e976785a4","ios":"levelo://app?vid=7f09bd63-63b5-4c96-8f6f-4f9e976785a4"},"vehicle_type_id":"4","last_reported":1729458512,"current_range_meters":28800,"station_id":"ce4bhh92rcd13ifvqfi0","pricing_plan_id":"cebpf4jnsgd1na2vs0mg"},{"bike_id":"af147441-3a88-422f-b2a6-15f0e9498add","system_id":"levelo_inurba_marseille","lat":43.29515,"lon":5.39401,"is_reserved":false,"is_disabled":false,"rental_uris":{"android":"levelo://app?vid=af147441-3a88-422f-b2a6-15f0e9498add","ios":"levelo://app?vid=af147441-3a88-422f-b2a6-15f0e9498add"},"vehicle_type_id":"4","last_reported":1729458512,"current_range_meters":17600,"station_id":"ce4bh292rcd13ifvqdf0","pricing_plan_id":"cebpf4jnsgd1na2vs0mg"},{"bike_id":"639cf9d6-ef22-4646-a7a7-04edb947934a","system_id":"levelo_inurba_marseille","lat":43.29204,"lon":5.39319,"is_reserved":false,"is_disabled":false,"rental_uris":{"android":"levelo://app?vid=639cf9d6-ef22-4646-a7a7-04edb947934a","ios":"levelo://app?vid=639cf9d6-ef22-4646-a7a7-04edb947934a"},"vehicle_type_id":"4","last_reported":1729458512,"current_range_meters":38800,"station_id":"ce4bh192rcd13ifvqdd0","pricing_plan_id":"cebpf4jnsgd1na2vs0mg"},{"bike_id":"a5f4198d-b10a-4392-bfb6-f2d38359fb82","system_id":"levelo_inurba_marseille","lat":43.23171,"lon":5.4373,"is_reserved":false,"is_disabled":false,"rental_uris":{"android":"levelo://app?vid=a5f4198d-b10a-4392-bfb6-f2d38359fb82","ios":"levelo://app?vid=a5f4198d-b10a-4392-bfb6-f2d38359fb82"},"vehicle_type_id":"4","last_reported":1729458512,"current_range_meters":11600,"station_id":"ce4bhmp2rcd13ifvqgog","pricing_plan_id":"cebpf4jnsgd1na2vs0mg"},{"bike_id":"418bd683-b6c0-4394-90d1-454d0664a04c","system_id":"levelo_inurba_marseille","lat":43.33611,"lon":5.4101,"is_reserved":false,"is_disabled":false,"rental_uris":{"android":"levelo://app?vid=418bd683-b6c0-4394-90d1-454d0664a04c","ios":"levelo://app?vid=418bd683-b6c0-4394-90d1-454d0664a04c"},"vehicle_type_id":"4","last_reported":1729458512,"current_range_meters":38000,"station_id":"ce4bhqh2rcd13ifvqhmg","pricing_plan_id":"cebpf4jnsgd1na2vs0mg"},{"bike_id":"6a117b44-523a-45e6-afdd-1d48e8dd62e0","system_id":"levelo_inurba_marseille","lat":43.28933,"lon":5.39629,"is_reserved":false,"is_disabled":false,"rental_uris":{"android":"levelo://app?vid=6a117b44-523a-45e6-afdd-1d48e8dd62e0","ios":"levelo://app?vid=6a117b44-523a-45e6-afdd-1d48e8dd62e0"},"vehicle_type_id":"4","last_reported":1729458512,"current_range_meters":20800,"station_id":"ce4bh3h2rcd13ifvqdn0","pricing_plan_id":"cebpf4jnsgd1na2vs0mg"},{"bike_id":"97af5e3f-c93d-4cbe-a1a0-24c9e5a133d8","system_id":"levelo_inurba_marseille","lat":43.27664,"lon":5.38916,"is_reserved":false,"is_disabled":false,"rental_uris":{"android":"levelo://app?vid=97af5e3f-c93d-4cbe-a1a0-24c9e5a133d8","ios":"levelo://app?vid=97af5e3f-c93d-4cbe-a1a0-24c9e5a133d8"},"vehicle_type_id":"4","last_reported":1729458512,"current_range_meters":30000,"station_id":"ce4bhi12rcd13ifvqfo0","pricing_plan_id":"cebpf4jnsgd1na2vs0mg"},{"bike_id":"81054c37-140d-4004-8fbb-6023ca4a93e9","system_id":"levelo_inurba_marseille","lat":43.273835,"lon":5.362623,"is_reserved":false,"is_disabled":false,"rental_uris":{"android":"levelo://app?vid=81054c37-140d-4004-8fbb-6023ca4a93e9","ios":"levelo://app?vid=81054c37-140d-4004-8fbb-6023ca4a93e9"},"vehicle_type_id":"4","last_reported":1729458512,"current_range_meters":38800,"station_id":"ce4bhbh2rcd13ifvqeo0","pricing_plan_id":"cebpf4jnsgd1na2vs0mg"},{"bike_id":"f59a9b71-873d-44f4-891e-235d78219f75","system_id":"levelo_inurba_marseille","lat":43.28705,"lon":5.39983,"is_reserved":false,"is_disabled":false,"rental_uris":{"android":"levelo://app?vid=f59a9b71-873d-44f4-891e-235d78219f75","ios":"levelo://app?vid=f59a9b71-873d-44f4-891e-235d78219f75"},"vehicle_type_id":"4","last_reported":1729458512,"current_range_meters":9600,"station_id":"ce4bho92rcd13ifvqh3g","pricing_plan_id":"cebpf4jnsgd1na2vs0mg"},{"bike_id":"fb76c6fd-851f-49ef-b413-62a490a7ca85","system_id":"levelo_inurba_marseille","lat":43.29075,"lon":5.39186,"is_reserved":false,"is_disabled":false,"rental_uris":{"android":"levelo://app?vid=fb76c6fd-851f-49ef-b413-62a490a7ca85","ios":"levelo://app?vid=fb76c6fd-851f-49ef-b413-62a490a7ca85"},"vehicle_type_id":"4","last_reported":1729458512,"current_range_meters":38800,"station_id":"ce4bhmp2rcd13ifvqgog","pricing_plan_id":"cebpf4jnsgd1na2vs0mg"},{"bike_id":"09f6d023-807b-48b8-aeb1-b94eaf409ef5","system_id":"levelo_inurba_marseille","lat":43.30808,"lon":5.38147,"is_reserved":false,"is_disabled":false,"rental_uris":{"android":"levelo://app?vid=09f6d023-807b-48b8-aeb1-b94eaf409ef5","ios":"levelo://app?vid=09f6d023-807b-48b8-aeb1-b94eaf409ef5"},"vehicle_type_id":"4","last_reported":1729458512,"current_range_meters":29600,"station_id":"ce4bgt12rcd13ifvqce0","pricing_plan_id":"cebpf4jnsgd1na2vs0mg"},{"bike_id":"92d49266-4e64-4017-8b59-4b1b0cb8630d","system_id":"levelo_inurba_marseille","lat":43.31702,"lon":5.37764,"is_reserved":false,"is_disabled":false,"rental_uris":{"android":"levelo://app?vid=92d49266-4e64-4017-8b59-4b1b0cb8630d","ios":"levelo://app?vid=92d49266-4e64-4017-8b59-4b1b0cb8630d"},"vehicle_type_id":"4","last_reported":1729458512,"current_range_meters":38800,"station_id":"ce4bgth2rcd13ifvqch0","pricing_plan_id":"cebpf4jnsgd1na2vs0mg"},{"bike_id":"ca9652e1-b360-4039-a82c-ba9272ccce60","system_id":"levelo_inurba_marseille","lat":43.31757,"lon":5.3902,"is_reserved":false,"is_disabled":false,"rental_uris":{"android":"levelo://app?vid=ca9652e1-b360-4039-a82c-ba9272ccce60","ios":"levelo://app?vid=ca9652e1-b360-4039-a82c-ba9272ccce60"},"vehicle_type_id":"4","last_reported":1729458512,"current_range_meters":36400,"station_id":"ce4bhqp2rcd13ifvqhng","pricing_plan_id":"cebpf4jnsgd1na2vs0mg"},{"bike_id":"14d62cba-7ac8-4347-a3e7-df640ccb9e67","system_id":"levelo_inurba_marseille","lat":43.27374,"lon":5.36253,"is_reserved":false,"is_disabled":false,"rental_uris":{"android":"levelo://app?vid=14d62cba-7ac8-4347-a3e7-df640ccb9e67","ios":"levelo://app?vid=14d62cba-7ac8-4347-a3e7-df640ccb9e67"},"vehicle_type_id":"4","last_reported":1729458512,"current_range_meters":28000,"station_id":"ce4bhbh2rcd13ifvqeo0","pricing_plan_id":"cebpf4jnsgd1na2vs0mg"},{"bike_id":"4881d9a4-a477-421a-a7fd-7c7ccd2627fd","system_id":"levelo_inurba_marseille","lat":43.24663,"lon":5.38168,"is_reserved":false,"is_disabled":false,"rental_uris":{"android":"levelo://app?vid=4881d9a4-a477-421a-a7fd-7c7ccd2627fd","ios":"levelo://app?vid=4881d9a4-a477-421a-a7fd-7c7ccd2627fd"},"vehicle_type_id":"4","last_reported":1729458512,"current_range_meters":11200,"station_id":"ce4bhih2rcd13ifvqfr0","pricing_plan_id":"cebpf4jnsgd1na2vs0mg"},{"bike_id":"0c76e86e-401c-46ad-a4d9-6a511692ed21","system_id":"levelo_inurba_marseille","lat":43.2872,"lon":5.3608,"is_reserved":false,"is_disabled":false,"rental_uris":{"android":"levelo://app?vid=0c76e86e-401c-46ad-a4d9-6a511692ed21","ios":"levelo://app?vid=0c76e86e-401c-46ad-a4d9-6a511692ed21"},"vehicle_type_id":"4","last_reported":1729458512,"current_range_meters":39200,"station_id":"cki0cbj6b192h4jlfktg","pricing_plan_id":"cebpf4jnsgd1na2vs0mg"},{"bike_id":"8c489d6a-8c5d-4ace-8ce1-8ade01fdb678","system_id":"levelo_inurba_marseille","lat":43.26686,"lon":5.38276,"is_reserved":false,"is_disabled":false,"rental_uris":{"android":"levelo://app?vid=8c489d6a-8c5d-4ace-8ce1-8ade01fdb678","ios":"levelo://app?vid=8c489d6a-8c5d-4ace-8ce1-8ade01fdb678"},"vehicle_type_id":"4","last_reported":1729458512,"current_range_meters":38800,"station_id":"ce4bhg92rcd13ifvqf90","pricing_plan_id":"cebpf4jnsgd1na2vs0mg"},{"bike_id":"af0aa725-b4b9-4ab2-8d85-0b309e2be15b","system_id":"levelo_inurba_marseille","lat":43.29027,"lon":5.38131,"is_reserved":false,"is_disabled":false,"rental_uris":{"android":"levelo://app?vid=af0aa725-b4b9-4ab2-8d85-0b309e2be15b","ios":"levelo://app?vid=af0aa725-b4b9-4ab2-8d85-0b309e2be15b"},"vehicle_type_id":"4","last_reported":1729458512,"current_range_meters":38000,"station_id":"ce4bh4p2rcd13ifvqe1g","pricing_plan_id":"cebpf4jnsgd1na2vs0mg"},{"bike_id":"70c63d4e-abbb-4a08-9a63-c8ca9d05919c","system_id":"levelo_inurba_marseille","lat":43.284576,"lon":5.39217,"is_reserved":false,"is_disabled":false,"rental_uris":{"android":"levelo://app?vid=70c63d4e-abbb-4a08-9a63-c8ca9d05919c","ios":"levelo://app?vid=70c63d4e-abbb-4a08-9a63-c8ca9d05919c"},"vehicle_type_id":"4","last_reported":1729458512,"current_range_meters":8400,"station_id":"ce4bhoh2rcd13ifvqh5g","pricing_plan_id":"cebpf4jnsgd1na2vs0mg"},{"bike_id":"330d9e00-72c2-48cb-9f82-64a1aecc264a","system_id":"levelo_inurba_marseille","lat":43.27553,"lon":5.38424,"is_reserved":false,"is_disabled":false,"rental_uris":{"android":"levelo://app?vid=330d9e00-72c2-48cb-9f82-64a1aecc264a","ios":"levelo://app?vid=330d9e00-72c2-48cb-9f82-64a1aecc264a"},"vehicle_type_id":"4","last_reported":1729458512,"current_range_meters":32000,"station_id":"ce4bhh92rcd13ifvqfi0","pricing_plan_id":"cebpf4jnsgd1na2vs0mg"},{"bike_id":"09c742b9-67aa-44f1-b833-7cf3d42021e8","system_id":"levelo_inurba_marseille","lat":43.2558,"lon":5.38235,"is_reserved":false,"is_disabled":false,"rental_uris":{"android":"levelo://app?vid=09c742b9-67aa-44f1-b833-7cf3d42021e8","ios":"levelo://app?vid=09c742b9-67aa-44f1-b833-7cf3d42021e8"},"vehicle_type_id":"4","last_reported":1729458512,"current_range_meters":36000,"station_id":"ce4bhih2rcd13ifvqfs0","pricing_plan_id":"cebpf4jnsgd1na2vs0mg"},{"bike_id":"1f29e96e-683e-467b-bb06-4f743ae4dcdf","system_id":"levelo_inurba_marseille","lat":43.31491,"lon":5.37309,"is_reserved":false,"is_disabled":false,"rental_uris":{"android":"levelo://app?vid=1f29e96e-683e-467b-bb06-4f743ae4dcdf","ios":"levelo://app?vid=1f29e96e-683e-467b-bb06-4f743ae4dcdf"},"vehicle_type_id":"4","last_reported":1729458512,"current_range_meters":26800,"station_id":"ce4bgt12rcd13ifvqcd0","pricing_plan_id":"cebpf4jnsgd1na2vs0mg"},{"bike_id":"5fac0cab-b534-4c4c-9546-1f735202e4db","system_id":"levelo_inurba_marseille","lat":43.28041,"lon":5.36945,"is_reserved":false,"is_disabled":false,"rental_uris":{"android":"levelo://app?vid=5fac0cab-b534-4c4c-9546-1f735202e4db","ios":"levelo://app?vid=5fac0cab-b534-4c4c-9546-1f735202e4db"},"vehicle_type_id":"4","last_reported":1729458512,"current_range_meters":32000,"station_id":"ce4bha12rcd13ifvqef0","pricing_plan_id":"cebpf4jnsgd1na2vs0mg"},{"bike_id":"78054b3e-f16a-4a39-ad3b-ecb9b322513d","system_id":"levelo_inurba_marseille","lat":43.2737,"lon":5.3626,"is_reserved":false,"is_disabled":false,"rental_uris":{"android":"levelo://app?vid=78054b3e-f16a-4a39-ad3b-ecb9b322513d","ios":"levelo://app?vid=78054b3e-f16a-4a39-ad3b-ecb9b322513d"},"vehicle_type_id":"4","last_reported":1729458512,"current_range_meters":38800,"station_id":"ce4bhbh2rcd13ifvqeo0","pricing_plan_id":"cebpf4jnsgd1na2vs0mg"},{"bike_id":"21703487-f7bb-4c38-a735-ce0308b31ccf","system_id":"levelo_inurba_marseille","lat":43.29865,"lon":5.3973,"is_reserved":false,"is_disabled":false,"rental_uris":{"android":"levelo://app?vid=21703487-f7bb-4c38-a735-ce0308b31ccf","ios":"levelo://app?vid=21703487-f7bb-4c38-a735-ce0308b31ccf"},"vehicle_type_id":"4","last_reported":1729458512,"current_range_meters":25600,"station_id":"ce4bh0h2rcd13ifvqd50","pricing_plan_id":"cebpf4jnsgd1na2vs0mg"},{"bike_id":"a4988356-8192-430a-8cc6-0d4d4957e38b","system_id":"levelo_inurba_marseille","lat":43.30794,"lon":5.43522,"is_reserved":false,"is_disabled":false,"rental_uris":{"android":"levelo://app?vid=a4988356-8192-430a-8cc6-0d4d4957e38b","ios":"levelo://app?vid=a4988356-8192-430a-8cc6-0d4d4957e38b"},"vehicle_type_id":"4","last_reported":1729458512,"current_range_meters":20000,"station_id":"ce4bhph2rcd13ifvqheg","pricing_plan_id":"cebpf4jnsgd1na2vs0mg"},{"bike_id":"304e116c-22b7-4fec-8df3-5316f5ceb0f4","system_id":"levelo_inurba_marseille","lat":43.33729,"lon":5.3919,"is_reserved":false,"is_disabled":false,"rental_uris":{"android":"levelo://app?vid=304e116c-22b7-4fec-8df3-5316f5ceb0f4","ios":"levelo://app?vid=304e116c-22b7-4fec-8df3-5316f5ceb0f4"},"vehicle_type_id":"4","last_reported":1729458512,"current_range_meters":38800,"station_id":"ce4bhr92rcd13ifvqhsg","pricing_plan_id":"cebpf4jnsgd1na2vs0mg"},{"bike_id":"54e71ec7-7ea0-4c56-aff1-902c4c15f330","system_id":"levelo_inurba_marseille","lat":43.314915,"lon":5.373084,"is_reserved":false,"is_disabled":false,"rental_uris":{"android":"levelo://app?vid=54e71ec7-7ea0-4c56-aff1-902c4c15f330","ios":"levelo://app?vid=54e71ec7-7ea0-4c56-aff1-902c4c15f330"},"vehicle_type_id":"4","last_reported":1729458512,"current_range_meters":38800,"station_id":"ce4bgt12rcd13ifvqcd0","pricing_plan_id":"cebpf4jnsgd1na2vs0mg"},{"bike_id":"ee928846-3417-46dd-9ca9-ee659ef56b2d","system_id":"levelo_inurba_marseille","lat":43.28851,"lon":5.39322,"is_reserved":false,"is_disabled":false,"rental_uris":{"android":"levelo://app?vid=ee928846-3417-46dd-9ca9-ee659ef56b2d","ios":"levelo://app?vid=ee928846-3417-46dd-9ca9-ee659ef56b2d"},"vehicle_type_id":"4","last_reported":1729458512,"current_range_meters":14000,"station_id":"ce4bh2p2rcd13ifvqdi0","pricing_plan_id":"cebpf4jnsgd1na2vs0mg"},{"bike_id":"35444db1-d71f-4df4-b56c-cd1c0619e499","system_id":"levelo_inurba_marseille","lat":43.28456,"lon":5.35886,"is_reserved":false,"is_disabled":false,"rental_uris":{"android":"levelo://app?vid=35444db1-d71f-4df4-b56c-cd1c0619e499","ios":"levelo://app?vid=35444db1-d71f-4df4-b56c-cd1c0619e499"},"vehicle_type_id":"4","last_reported":1729458512,"current_range_meters":38800,"station_id":"ce4bhah2rcd13ifvqei0","pricing_plan_id":"cebpf4jnsgd1na2vs0mg"},{"bike_id":"8682c74e-eb4a-4a10-81a7-668f58678ba5","system_id":"levelo_inurba_marseille","lat":43.31119,"lon":5.37758,"is_reserved":false,"is_disabled":false,"rental_uris":{"android":"levelo://app?vid=8682c74e-eb4a-4a10-81a7-668f58678ba5","ios":"levelo://app?vid=8682c74e-eb4a-4a10-81a7-668f58678ba5"},"vehicle_type_id":"4","last_reported":1729458512,"current_range_meters":30000,"station_id":"ce4bgt92rcd13ifvqcg0","pricing_plan_id":"cebpf4jnsgd1na2vs0mg"},{"bike_id":"c2a1a3f1-69a1-4926-92aa-70f9feb4505e","system_id":"levelo_inurba_marseille","lat":43.31542,"lon":5.38034,"is_reserved":false,"is_disabled":false,"rental_uris":{"android":"levelo://app?vid=c2a1a3f1-69a1-4926-92aa-70f9feb4505e","ios":"levelo://app?vid=c2a1a3f1-69a1-4926-92aa-70f9feb4505e"},"vehicle_type_id":"4","last_reported":1729458512,"current_range_meters":38800,"station_id":"ce4bhsp2rcd13ifvqi50","pricing_plan_id":"cebpf4jnsgd1na2vs0mg"},{"bike_id":"be50e200-7523-4429-ad85-273908308ab7","system_id":"levelo_inurba_marseille","lat":43.23962,"lon":5.36623,"is_reserved":false,"is_disabled":false,"rental_uris":{"android":"levelo://app?vid=be50e200-7523-4429-ad85-273908308ab7","ios":"levelo://app?vid=be50e200-7523-4429-ad85-273908308ab7"},"vehicle_type_id":"4","last_reported":1729458512,"current_range_meters":38800,"station_id":"ce4bhi12rcd13ifvqfp0","pricing_plan_id":"cebpf4jnsgd1na2vs0mg"},{"bike_id":"513e3b19-d94c-4fbd-a1c5-c3226b509c4e","system_id":"levelo_inurba_marseille","lat":43.2738,"lon":5.36254,"is_reserved":false,"is_disabled":false,"rental_uris":{"android":"levelo://app?vid=513e3b19-d94c-4fbd-a1c5-c3226b509c4e","ios":"levelo://app?vid=513e3b19-d94c-4fbd-a1c5-c3226b509c4e"},"vehicle_type_id":"4","last_reported":1729458512,"current_range_meters":38800,"station_id":"ce4bhbh2rcd13ifvqeo0","pricing_plan_id":"cebpf4jnsgd1na2vs0mg"},{"bike_id":"cd7fbf5c-ade2-45e7-9827-0d1a20efb903","system_id":"levelo_inurba_marseille","lat":43.27207,"lon":5.3919,"is_reserved":false,"is_disabled":false,"rental_uris":{"android":"levelo://app?vid=cd7fbf5c-ade2-45e7-9827-0d1a20efb903","ios":"levelo://app?vid=cd7fbf5c-ade2-45e7-9827-0d1a20efb903"},"vehicle_type_id":"4","last_reported":1729458512,"current_range_meters":26000,"station_id":"ce4bhhp2rcd13ifvqfm0","pricing_plan_id":"cebpf4jnsgd1na2vs0mg"},{"bike_id":"18bc1f48-905d-4d2d-86f8-88e34df522af","system_id":"levelo_inurba_marseille","lat":43.31367,"lon":5.38494,"is_reserved":false,"is_disabled":false,"rental_uris":{"android":"levelo://app?vid=18bc1f48-905d-4d2d-86f8-88e34df522af","ios":"levelo://app?vid=18bc1f48-905d-4d2d-86f8-88e34df522af"},"vehicle_type_id":"4","last_reported":1729458512,"current_range_meters":39200,"station_id":"ce4bgt92rcd13ifvqcf0","pricing_plan_id":"cebpf4jnsgd1na2vs0mg"},{"bike_id":"f58e4b96-c7e9-4015-9e79-f0c1cc9953b2","system_id":"levelo_inurba_marseille","lat":43.29048,"lon":5.39989,"is_reserved":false,"is_disabled":false,"rental_uris":{"android":"levelo://app?vid=f58e4b96-c7e9-4015-9e79-f0c1cc9953b2","ios":"levelo://app?vid=f58e4b96-c7e9-4015-9e79-f0c1cc9953b2"},"vehicle_type_id":"4","last_reported":1729458512,"current_range_meters":17200,"station_id":"ce4bh392rcd13ifvqdm0","pricing_plan_id":"cebpf4jnsgd1na2vs0mg"},{"bike_id":"0bff5395-d4f2-4747-b0cf-5661c7151d44","system_id":"levelo_inurba_marseille","lat":43.29883,"lon":5.39731,"is_reserved":false,"is_disabled":false,"rental_uris":{"android":"levelo://app?vid=0bff5395-d4f2-4747-b0cf-5661c7151d44","ios":"levelo://app?vid=0bff5395-d4f2-4747-b0cf-5661c7151d44"},"vehicle_type_id":"4","last_reported":1729458512,"current_range_meters":39200,"station_id":"ce4bh0h2rcd13ifvqd50","pricing_plan_id":"cebpf4jnsgd1na2vs0mg"},{"bike_id":"09907c22-dfda-45de-9b95-04e49f35ec94","system_id":"levelo_inurba_marseille","lat":43.28072,"lon":5.39655,"is_reserved":false,"is_disabled":false,"rental_uris":{"android":"levelo://app?vid=09907c22-dfda-45de-9b95-04e49f35ec94","ios":"levelo://app?vid=09907c22-dfda-45de-9b95-04e49f35ec94"},"vehicle_type_id":"4","last_reported":1729458512,"current_range_meters":36000,"station_id":"ce4bho12rcd13ifvqh2g","pricing_plan_id":"cebpf4jnsgd1na2vs0mg"},{"bike_id":"3e8ddb22-4460-4520-968d-55be8203f96f","system_id":"levelo_inurba_marseille","lat":43.31269,"lon":5.40171,"is_reserved":false,"is_disabled":false,"rental_uris":{"android":"levelo://app?vid=3e8ddb22-4460-4520-968d-55be8203f96f","ios":"levelo://app?vid=3e8ddb22-4460-4520-968d-55be8203f96f"},"vehicle_type_id":"4","last_reported":1729458512,"current_range_meters":18000,"station_id":"ce4bh092rcd13ifvqd30","pricing_plan_id":"cebpf4jnsgd1na2vs0mg"},{"bike_id":"acbdbbb0-3c91-4690-891d-ebbd9f21d687","system_id":"levelo_inurba_marseille","lat":43.32658,"lon":5.40995,"is_reserved":false,"is_disabled":false,"rental_uris":{"android":"levelo://app?vid=acbdbbb0-3c91-4690-891d-ebbd9f21d687","ios":"levelo://app?vid=acbdbbb0-3c91-4690-891d-ebbd9f21d687"},"vehicle_type_id":"4","last_reported":1729458512,"current_range_meters":35200,"station_id":"ce4bhpp2rcd13ifvqhgg","pricing_plan_id":"cebpf4jnsgd1na2vs0mg"},{"bike_id":"cada901f-4905-4864-aa0a-3c02c41fdc4e","system_id":"levelo_inurba_marseille","lat":43.30882,"lon":5.39656,"is_reserved":false,"is_disabled":false,"rental_uris":{"android":"levelo://app?vid=cada901f-4905-4864-aa0a-3c02c41fdc4e","ios":"levelo://app?vid=cada901f-4905-4864-aa0a-3c02c41fdc4e"},"vehicle_type_id":"4","last_reported":1729458512,"current_range_meters":25600,"station_id":"ce4bh012rcd13ifvqcv0","pricing_plan_id":"cebpf4jnsgd1na2vs0mg"},{"bike_id":"14b98f22-96fa-41c1-b6e3-f795aedeae15","system_id":"levelo_inurba_marseille","lat":43.25093,"lon":5.39519,"is_reserved":false,"is_disabled":false,"rental_uris":{"android":"levelo://app?vid=14b98f22-96fa-41c1-b6e3-f795aedeae15","ios":"levelo://app?vid=14b98f22-96fa-41c1-b6e3-f795aedeae15"},"vehicle_type_id":"4","last_reported":1729458512,"current_range_meters":13600,"station_id":"ce4bhm12rcd13ifvqgkg","pricing_plan_id":"cebpf4jnsgd1na2vs0mg"},{"bike_id":"21fee09b-0a46-442f-92a1-a137010f1342","system_id":"levelo_inurba_marseille","lat":43.31063,"lon":5.38341,"is_reserved":false,"is_disabled":false,"rental_uris":{"android":"levelo://app?vid=21fee09b-0a46-442f-92a1-a137010f1342","ios":"levelo://app?vid=21fee09b-0a46-442f-92a1-a137010f1342"},"vehicle_type_id":"4","last_reported":1729458512,"current_range_meters":38800,"station_id":"ce4bgv92rcd13ifvqcr0","pricing_plan_id":"cebpf4jnsgd1na2vs0mg"},{"bike_id":"7b5cb3ea-286e-4dec-afa6-f9929c52e1c8","system_id":"levelo_inurba_marseille","lat":43.31185,"lon":5.38715,"is_reserved":false,"is_disabled":false,"rental_uris":{"android":"levelo://app?vid=7b5cb3ea-286e-4dec-afa6-f9929c52e1c8","ios":"levelo://app?vid=7b5cb3ea-286e-4dec-afa6-f9929c52e1c8"},"vehicle_type_id":"4","last_reported":1729458512,"current_range_meters":38800,"station_id":"ce4bgv12rcd13ifvqcp0","pricing_plan_id":"cebpf4jnsgd1na2vs0mg"},{"bike_id":"096af689-c88a-4c98-bb8c-8b232119fe89","system_id":"levelo_inurba_marseille","lat":43.30801,"lon":5.3816,"is_reserved":false,"is_disabled":false,"rental_uris":{"android":"levelo://app?vid=096af689-c88a-4c98-bb8c-8b232119fe89","ios":"levelo://app?vid=096af689-c88a-4c98-bb8c-8b232119fe89"},"vehicle_type_id":"4","last_reported":1729458512,"current_range_meters":36800,"station_id":"ce4bgt12rcd13ifvqce0","pricing_plan_id":"cebpf4jnsgd1na2vs0mg"},{"bike_id":"a643b9fa-d33b-4956-a113-b91db84f2dc1","system_id":"levelo_inurba_marseille","lat":43.30612,"lon":5.37217,"is_reserved":false,"is_disabled":false,"rental_uris":{"android":"levelo://app?vid=a643b9fa-d33b-4956-a113-b91db84f2dc1","ios":"levelo://app?vid=a643b9fa-d33b-4956-a113-b91db84f2dc1"},"vehicle_type_id":"4","last_reported":1729458512,"current_range_meters":23200,"station_id":"ce4bgqh2rcd13ifvqc4g","pricing_plan_id":"cebpf4jnsgd1na2vs0mg"},{"bike_id":"d73805a7-096f-49e2-8ef6-f1ec3dfaa020","system_id":"levelo_inurba_marseille","lat":43.31999,"lon":5.38156,"is_reserved":false,"is_disabled":false,"rental_uris":{"android":"levelo://app?vid=d73805a7-096f-49e2-8ef6-f1ec3dfaa020","ios":"levelo://app?vid=d73805a7-096f-49e2-8ef6-f1ec3dfaa020"},"vehicle_type_id":"4","last_reported":1729458512,"current_range_meters":24400,"station_id":"ce4bhr12rcd13ifvqhpg","pricing_plan_id":"cebpf4jnsgd1na2vs0mg"},{"bike_id":"36da26ae-b76a-4a6b-9bf5-12c2ed855cb6","system_id":"levelo_inurba_marseille","lat":43.30247,"lon":5.40072,"is_reserved":false,"is_disabled":false,"rental_uris":{"android":"levelo://app?vid=36da26ae-b76a-4a6b-9bf5-12c2ed855cb6","ios":"levelo://app?vid=36da26ae-b76a-4a6b-9bf5-12c2ed855cb6"},"vehicle_type_id":"4","last_reported":1729458512,"current_range_meters":33200,"station_id":"ce4bgvh2rcd13ifvqcs0","pricing_plan_id":"cebpf4jnsgd1na2vs0mg"},{"bike_id":"e3d720de-f87c-4953-bf0b-b39a4a054b01","system_id":"levelo_inurba_marseille","lat":43.287,"lon":5.39979,"is_reserved":false,"is_disabled":false,"rental_uris":{"android":"levelo://app?vid=e3d720de-f87c-4953-bf0b-b39a4a054b01","ios":"levelo://app?vid=e3d720de-f87c-4953-bf0b-b39a4a054b01"},"vehicle_type_id":"4","last_reported":1729458512,"current_range_meters":33200,"station_id":"ce4bho92rcd13ifvqh3g","pricing_plan_id":"cebpf4jnsgd1na2vs0mg"},{"bike_id":"1ab8aaa9-0ad9-4303-866e-905360d691a9","system_id":"levelo_inurba_marseille","lat":43.23193,"lon":5.35557,"is_reserved":false,"is_disabled":false,"rental_uris":{"android":"levelo://app?vid=1ab8aaa9-0ad9-4303-866e-905360d691a9","ios":"levelo://app?vid=1ab8aaa9-0ad9-4303-866e-905360d691a9"},"vehicle_type_id":"4","last_reported":1729458512,"current_range_meters":30400,"station_id":"ce4bhu92rcd13ifvqi70","pricing_plan_id":"cebpf4jnsgd1na2vs0mg"},{"bike_id":"aec4114d-2cf9-40df-a06b-3baf7ca2892c","system_id":"levelo_inurba_marseille","lat":43.2293,"lon":5.35382,"is_reserved":false,"is_disabled":false,"rental_uris":{"android":"levelo://app?vid=aec4114d-2cf9-40df-a06b-3baf7ca2892c","ios":"levelo://app?vid=aec4114d-2cf9-40df-a06b-3baf7ca2892c"},"vehicle_type_id":"4","last_reported":1729458512,"current_range_meters":38400,"station_id":"cpo3532slgdg3j2ikp40","pricing_plan_id":"cebpf4jnsgd1na2vs0mg"},{"bike_id":"af1c8c48-136e-4f5c-bb81-d663360023f0","system_id":"levelo_inurba_marseille","lat":43.28618,"lon":5.35095,"is_reserved":false,"is_disabled":false,"rental_uris":{"android":"levelo://app?vid=af1c8c48-136e-4f5c-bb81-d663360023f0","ios":"levelo://app?vid=af1c8c48-136e-4f5c-bb81-d663360023f0"},"vehicle_type_id":"4","last_reported":1729458512,"current_range_meters":27200,"station_id":"ce4bhch2rcd13ifvqeug","pricing_plan_id":"cebpf4jnsgd1na2vs0mg"},{"bike_id":"e41d381d-47c8-44a6-a135-578c6264ea22","system_id":"levelo_inurba_marseille","lat":43.23139,"lon":5.4371,"is_reserved":false,"is_disabled":false,"rental_uris":{"android":"levelo://app?vid=e41d381d-47c8-44a6-a135-578c6264ea22","ios":"levelo://app?vid=e41d381d-47c8-44a6-a135-578c6264ea22"},"vehicle_type_id":"4","last_reported":1729458512,"current_range_meters":3200,"station_id":"ce4bhmp2rcd13ifvqgog","pricing_plan_id":"cebpf4jnsgd1na2vs0mg"},{"bike_id":"3dc584f0-42e5-4f6a-97e7-0051268f66af","system_id":"levelo_inurba_marseille","lat":43.28402,"lon":5.37514,"is_reserved":false,"is_disabled":false,"rental_uris":{"android":"levelo://app?vid=3dc584f0-42e5-4f6a-97e7-0051268f66af","ios":"levelo://app?vid=3dc584f0-42e5-4f6a-97e7-0051268f66af"},"vehicle_type_id":"4","last_reported":1729458512,"current_range_meters":36400,"station_id":"ce4bh412rcd13ifvqds0","pricing_plan_id":"cebpf4jnsgd1na2vs0mg"},{"bike_id":"9dbe91bb-00d5-4310-a4ed-118e33d56452","system_id":"levelo_inurba_marseille","lat":43.23117,"lon":5.43708,"is_reserved":false,"is_disabled":false,"rental_uris":{"android":"levelo://app?vid=9dbe91bb-00d5-4310-a4ed-118e33d56452","ios":"levelo://app?vid=9dbe91bb-00d5-4310-a4ed-118e33d56452"},"vehicle_type_id":"4","last_reported":1729458512,"current_range_meters":24400,"station_id":"ce4bhmp2rcd13ifvqgog","pricing_plan_id":"cebpf4jnsgd1na2vs0mg"},{"bike_id":"be26af89-d5a9-426e-9196-4fb10a42df4f","system_id":"levelo_inurba_marseille","lat":43.27376,"lon":5.36255,"is_reserved":false,"is_disabled":false,"rental_uris":{"android":"levelo://app?vid=be26af89-d5a9-426e-9196-4fb10a42df4f","ios":"levelo://app?vid=be26af89-d5a9-426e-9196-4fb10a42df4f"},"vehicle_type_id":"4","last_reported":1729458512,"current_range_meters":38800,"station_id":"ce4bhbh2rcd13ifvqeo0","pricing_plan_id":"cebpf4jnsgd1na2vs0mg"},