{"last_updated":1750522290,"ttl":60,"version":"2.2","data":{"bikes":[{"bike_id":"3da29fb8-fc97-44c6-b9ac-31dd456b2fd4","system_id":"levelo_inurba_marseille","lat":43.33771,"lon":5.37424,"is_reserved":false,"is_disabled":true,"rental_uris":{"android":"levelo://app?vid=3da29fb8-fc97-44c6-b9ac-31dd456b2fd4","ios":"levelo://app?vid=3da29fb8-fc97-44c6-b9ac-31dd456b2fd4"},"vehicle_type_id":"4","last_reported":1750522290,"current_range_meters":0,"station_id":"","pricing_plan_id":"cebpf4jnsgd1na2vs0mg"},{"bike_id":"01861ad8-a8d7-4be6-816e-651927c87584","system_id":"levelo_inurba_marseille","lat":43.33751,"lon":5.37456,"is_reserved":false,"is_disabled":true,"rental_uris":{"android":"levelo://app?vid=01861ad8-a8d7-4be6-816e-651927c87584","ios":"levelo://app?vid=01861ad8-a8d7-4be6-816e-651927c87584"},"vehicle_type_id":"4","last_reported":1750522290,"current_range_meters":0,"station_id":"","pricing_plan_id":"cebpf4jnsgd1na2vs0mg"},{"bike_id":"62a493c7-4534-4419-ad43-0582de34a72a","system_id":"levelo_inurba_marseille","lat":43.21366,"lon":5.355183,"is_reserved":false,"is_disabled":true,"rental_uris":{"android":"levelo://app?vid=62a493c7-4534-4419-ad43-0582de34a72a","ios":"levelo://app?vid=62a493c7-4534-4419-ad43-0582de34a72a"},"vehicle_type_id":"4","last_reported":1750522290,"current_range_meters":0,"station_id":"","pricing_plan_id":"cebpf4jnsgd1na2vs0mg"},{"bike_id":"a85d1cbd-d782-40f2-9935-1c4c0af36539","system_id":"levelo_inurba_marseille","lat":43.292701,"lon":5.38442,"is_reserved":false,"is_disabled":true,"rental_uris":{"android":"levelo://app?vid=a85d1cbd-d782-40f2-9935-1c4c0af36539","ios":"levelo://app?vid=a85d1cbd-d782-40f2-9935-1c4c0af36539"},"vehicle_type_id":"4","last_reported":1750522290,"current_range_meters":0,"station_id":"","pricing_plan_id":"cebpf4jnsgd1na2vs0mg"},{"bike_id":"d6609b4f-333b-43c1-9ebe-8726f5e76e88","system_id":"levelo_inurba_marseille","lat":43.337444,"lon":5.374475,"is_reserved":false,"is_disabled":true,"rental_uris":{"android":"levelo://app?vid=d6609b4f-333b-43c1-9ebe-8726f5e76e88","ios":"levelo://app?vid=d6609b4f-333b-43c1-9ebe-8726f5e76e88"},"vehicle_type_id":"4","last_reported":1750522290,"current_range_meters":0,"station_id":"","pricing_plan_id":"cebpf4jnsgd1na2vs0mg"},{"bike_id":"ebf2b0f2-73a9-4b39-b5b1-d0bf6e18e671","system_id":"levelo_inurba_marseille","lat":43.31746,"lon":5.37441,"is_reserved":false,"is_disabled":true,"rental_uris":{"android":"levelo://app?vid=ebf2b0f2-73a9-4b39-b5b1-d0bf6e18e671","ios":"levelo://app?vid=ebf2b0f2-73a9-4b39-b5b1-d0bf6e18e671"},"vehicle_type_id":"4","last_reported":1750522290,"current_range_meters":0,"station_id":"","pricing_plan_id":"cebpf4jnsgd1na2vs0mg"},{"bike_id":"4cede4cf-7ca9-4e47-9559-f20c44cea124","system_id":"levelo_inurba_marseille","lat":43.24548,"lon":5.37297,"is_reserved":false,"is_disabled":true,"rental_uris":{"android":"levelo://app?vid=4cede4cf-7ca9-4e47-9559-f20c44cea124","ios":"levelo://app?vid=4cede4cf-7ca9-4e47-9559-f20c44cea124"},"vehicle_type_id":"4","last_reported":1750522290,"current_range_meters":0,"station_id":"","pricing_plan_id":"cebpf4jnsgd1na2vs0mg"},{"bike_id":"45bbf0a9-fb71-4554-b265-a4213254df71","system_id":"levelo_inurba_marseille","lat":43.291958,"lon":5.357966,"is_reserved":false,"is_disabled":true,"rental_uris":{"android":"levelo://app?vid=45bbf0a9-fb71-4554-b265-a4213254df71","ios":"levelo://app?vid=45bbf0a9-fb71-4554-b265-a4213254df71"},"vehicle_type_id":"4","last_reported":1750522290,"current_range_meters":0,"station_id":"ce4bgip2rcd13ifvqbb0","pricing_plan_id":"cebpf4jnsgd1na2vs0mg"},{"bike_id":"e7327e1b-0cd8-4243-b05e-133ead377666","system_id":"levelo_inurba_marseille","lat":43.29919,"lon":5.38143,"is_reserved":false,"is_disabled":true,"rental_uris":{"android":"levelo://app?vid=e7327e1b-0cd8-4243-b05e-133ead377666","ios":"levelo://app?vid=e7327e1b-0cd8-4243-b05e-133ead377666"},"vehicle_type_id":"4","last_reported":1750522290,"current_range_meters":0,"station_id":"ce4bgj12rcd13ifvqbc0","pricing_plan_id":"cebpf4jnsgd1na2vs0mg"},{"bike_id":"9642d9be-fb57-425a-a704-61103299951d","system_id":"levelo_inurba_marseille","lat":43.299197,"lon":5.374837,"is_reserved":false,"is_disabled":true,"rental_uris":{"android":"levelo://app?vid=9642d9be-fb57-425a-a704-61103299951d","ios":"levelo://app?vid=9642d9be-fb57-425a-a704-61103299951d"},"vehicle_type_id":"4","last_reported":1750522290,"current_range_meters":0,"station_id":"ce4bgjh2rcd13ifvqbg0","pricing_plan_id":"cebpf4jnsgd1na2vs0mg"},{"bike_id":"8c05aa9a-7b85-4dfc-990e-6379a4334262","system_id":"levelo_inurba_marseille","lat":43.30213,"lon":5.39471,"is_reserved":false,"is_disabled":true,"rental_uris":{"android":"levelo://app?vid=8c05aa9a-7b85-4dfc-990e-6379a4334262","ios":"levelo://app?vid=8c05aa9a-7b85-4dfc-990e-6379a4334262"},"vehicle_type_id":"4","last_reported":1750522290,"current_range_meters":0,"station_id":"ce4bh0p2rcd13ifvqd70","pricing_plan_id":"cebpf4jnsgd1na2vs0mg"},{"bike_id":"b30c915c-528d-46f8-9962-619925e86cb1","system_id":"levelo_inurba_marseille","lat":43.2941,"lon":5.38608,"is_reserved":false,"is_disabled":true,"rental_uris":{"android":"levelo://app?vid=b30c915c-528d-46f8-9962-619925e86cb1","ios":"levelo://app?vid=b30c915c-528d-46f8-9962-619925e86cb1"},"vehicle_type_id":"4","last_reported":1750522290,"current_range_meters":0,"station_id":"ce4bh2h2rcd13ifvqdh0","pricing_plan_id":"cebpf4jnsgd1na2vs0mg"},{"bike_id":"01b5cb23-8e5e-4a18-a008-9c59c2ef8aba","system_id":"levelo_inurba_marseille","lat":43.29439,"lon":5.39734,"is_reserved":false,"is_disabled":false,"rental_uris":{"android":"levelo://app?vid=01b5cb23-8e5e-4a18-a008-9c59c2ef8aba","ios":"levelo://app?vid=01b5cb23-8e5e-4a18-a008-9c59c2ef8aba"},"vehicle_type_id":"4","last_reported":1750522290,"current_range_meters":0,"station_id":"ce4bh3h2rcd13ifvqdo0","pricing_plan_id":"cebpf4jnsgd1na2vs0mg"},{"bike_id":"d8c754d0-d45a-413a-8cef-540f138ff59e","system_id":"levelo_inurba_marseille","lat":43.28343,"lon":5.38094,"is_reserved":false,"is_disabled":true,"rental_uris":{"android":"levelo://app?vid=d8c754d0-d45a-413a-8cef-540f138ff59e","ios":"levelo://app?vid=d8c754d0-d45a-413a-8cef-540f138ff59e"},"vehicle_type_id":"4","last_reported":1750522290,"current_range_meters":0,"station_id":"ce4bh412rcd13ifvqdr0","pricing_plan_id":"cebpf4jnsgd1na2vs0mg"},{"bike_id":"35bc6483-bec0-469a-a513-4a108d13ddb0","system_id":"levelo_inurba_marseille","lat":43.28037,"lon":5.36942,"is_reserved":false,"is_disabled":true,"rental_uris":{"android":"levelo://app?vid=35bc6483-bec0-469a-a513-4a108d13ddb0","ios":"levelo://app?vid=35bc6483-bec0-469a-a513-4a108d13ddb0"},"vehicle_type_id":"4","last_reported":1750522290,"current_range_meters":0,"station_id":"ce4bha12rcd13ifvqef0","pricing_plan_id":"cebpf4jnsgd1na2vs0mg"},{"bike_id":"ce42beef-76a1-4732-9a19-7bce63501831","system_id":"levelo_inurba_marseille","lat":43.28461,"lon":5.35899,"is_reserved":false,"is_disabled":true,"rental_uris":{"android":"levelo://app?vid=ce42beef-76a1-4732-9a19-7bce63501831","ios":"levelo://app?vid=ce42beef-76a1-4732-9a19-7bce63501831"},"vehicle_type_id":"4","last_reported":1750522290,"current_range_meters":0,"station_id":"ce4bhah2rcd13ifvqei0","pricing_plan_id":"cebpf4jnsgd1na2vs0mg"},{"bike_id":"cbda4ece-51c5-4050-93f8-0062bd40686e","system_id":"levelo_inurba_marseille","lat":43.28669,"lon":5.36357,"is_reserved":false,"is_disabled":true,"rental_uris":{"android":"levelo://app?vid=cbda4ece-51c5-4050-93f8-0062bd40686e","ios":"levelo://app?vid=cbda4ece-51c5-4050-93f8-0062bd40686e"},"vehicle_type_id":"4","last_reported":1750522290,"current_range_meters":0,"station_id":"ce4bhah2rcd13ifvqej0","pricing_plan_id":"cebpf4jnsgd1na2vs0mg"},{"bike_id":"06496b93-73c5-4fab-8c1d-7400b58abc5b","system_id":"levelo_inurba_marseille","lat":43.28859,"lon":5.35861,"is_reserved":false,"is_disabled":true,"rental_uris":{"android":"levelo://app?vid=06496b93-73c5-4fab-8c1d-7400b58abc5b","ios":"levelo://app?vid=06496b93-73c5-4fab-8c1d-7400b58abc5b"},"vehicle_type_id":"4","last_reported":1750522290,"current_range_meters":0,"station_id":"ce4bhb12rcd13ifvqem0","pricing_plan_id":"cebpf4jnsgd1na2vs0mg"},{"bike_id":"d7b0c1e3-93dc-4976-8649-72e807f123f2","system_id":"levelo_inurba_marseille","lat":43.27376,"lon":5.3626,"is_reserved":false,"is_disabled":true,"rental_uris":{"android":"levelo://app?vid=d7b0c1e3-93dc-4976-8649-72e807f123f2","ios":"levelo://app?vid=d7b0c1e3-93dc-4976-8649-72e807f123f2"},"vehicle_type_id":"4","last_reported":1750522290,"current_range_meters":0,"station_id":"ce4bhbh2rcd13ifvqeo0","pricing_plan_id":"cebpf4jnsgd1na2vs0mg"},{"bike_id":"3f4b68cb-ca21-42db-bbb0-dd633f485a05","system_id":"levelo_inurba_marseille","lat":43.27372,"lon":5.36251,"is_reserved":false,"is_disabled":true,"rental_uris":{"android":"levelo://app?vid=3f4b68cb-ca21-42db-bbb0-dd633f485a05","ios":"levelo://app?vid=3f4b68cb-ca21-42db-bbb0-dd633f485a05"},"vehicle_type_id":"4","last_reported":1750522290,"current_range_meters":0,"station_id":"ce4bhbh2rcd13ifvqeo0","pricing_plan_id":"cebpf4jnsgd1na2vs0mg"},{"bike_id":"d7f85473-05f5-4990-91de-9cf4b5dfb4ba","system_id":"levelo_inurba_marseille","lat":43.26204,"lon":5.37447,"is_reserved":false,"is_disabled":true,"rental_uris":{"android":"levelo://app?vid=d7f85473-05f5-4990-91de-9cf4b5dfb4ba","ios":"levelo://app?vid=d7f85473-05f5-4990-91de-9cf4b5dfb4ba"},"vehicle_type_id":"4","last_reported":1750522290,"current_range_meters":0,"station_id":"ce4bhgp2rcd13ifvqfc0","pricing_plan_id":"cebpf4jnsgd1na2vs0mg"},{"bike_id":"411fb330-0e6d-486b-84f4-aa9daa0da215","system_id":"levelo_inurba_marseille","lat":43.25581,"lon":5.38244,"is_reserved":false,"is_disabled":true,"rental_uris":{"android":"levelo://app?vid=411fb330-0e6d-486b-84f4-aa9daa0da215","ios":"levelo://app?vid=411fb330-0e6d-486b-84f4-aa9daa0da215"},"vehicle_type_id":"4","last_reported":1750522290,"current_range_meters":0,"station_id":"ce4bhih2rcd13ifvqfs0","pricing_plan_id":"cebpf4jnsgd1na2vs0mg"},{"bike_id":"3f27bdff-75f2-4af4-b9cc-e9ad5e7ac209","system_id":"levelo_inurba_marseille","lat":43.27957,"lon":5.41058,"is_reserved":false,"is_disabled":true,"rental_uris":{"android":"levelo://app?vid=3f27bdff-75f2-4af4-b9cc-e9ad5e7ac209","ios":"levelo://app?vid=3f27bdff-75f2-4af4-b9cc-e9ad5e7ac209"},"vehicle_type_id":"4","last_reported":1750522290,"current_range_meters":0,"station_id":"ce4bhnp2rcd13ifvqh0g","pricing_plan_id":"cebpf4jnsgd1na2vs0mg"},{"bike_id":"66abaf4a-5b7b-4006-89be-f7c6a494265a","system_id":"levelo_inurba_marseille","lat":43.30461,"lon":5.37902,"is_reserved":false,"is_disabled":true,"rental_uris":{"android":"levelo://app?vid=66abaf4a-5b7b-4006-89be-f7c6a494265a","ios":"levelo://app?vid=66abaf4a-5b7b-4006-89be-f7c6a494265a"},"vehicle_type_id":"4","last_reported":1750522290,"current_range_meters":400,"station_id":"ce4bgup2rcd13ifvqcn0","pricing_plan_id":"cebpf4jnsgd1na2vs0mg"},{"bike_id":"342a28df-ae80-4462-9997-d46da6473900","system_id":"levelo_inurba_marseille","lat":43.29875,"lon":5.38918,"is_reserved":false,"is_disabled":true,"rental_uris":{"android":"levelo://app?vid=342a28df-ae80-4462-9997-d46da6473900","ios":"levelo://app?vid=342a28df-ae80-4462-9997-d46da6473900"},"vehicle_type_id":"4","last_reported":1750522290,"current_range_meters":400,"station_id":"ce4bh392rcd13ifvqdl0","pricing_plan_id":"cebpf4jnsgd1na2vs0mg"},{"bike_id":"cb7ea226-af97-451b-80b5-79f8a3eece3e","system_id":"levelo_inurba_marseille","lat":43.28965,"lon":5.37819,"is_reserved":false,"is_disabled":true,"rental_uris":{"android":"levelo://app?vid=cb7ea226-af97-451b-80b5-79f8a3eece3e","ios":"levelo://app?vid=cb7ea226-af97-451b-80b5-79f8a3eece3e"},"vehicle_type_id":"4","last_reported":1750522290,"current_range_meters":400,"station_id":"ce4bh9p2rcd13ifvqed0","pricing_plan_id":"cebpf4jnsgd1na2vs0mg"},{"bike_id":"a00a549a-29a9-4d2f-ab19-edab17404657","system_id":"levelo_inurba_marseille","lat":43.28421,"lon":5.3498,"is_reserved":false,"is_disabled":true,"rental_uris":{"android":"levelo://app?vid=a00a549a-29a9-4d2f-ab19-edab17404657","ios":"levelo://app?vid=a00a549a-29a9-4d2f-ab19-edab17404657"},"vehicle_type_id":"4","last_reported":1750522290,"current_range_meters":400,"station_id":"ce4bhbh2rcd13ifvqepg","pricing_plan_id":"cebpf4jnsgd1na2vs0mg"},{"bike_id":"b25e4a84-d94f-48d0-b271-d0af61067693","system_id":"levelo_inurba_marseille","lat":43.262113,"lon":5.374483,"is_reserved":false,"is_disabled":true,"rental_uris":{"android":"levelo://app?vid=b25e4a84-d94f-48d0-b271-d0af61067693","ios":"levelo://app?vid=b25e4a84-d94f-48d0-b271-d0af61067693"},"vehicle_type_id":"4","last_reported":1750522290,"current_range_meters":400,"station_id":"ce4bhgp2rcd13ifvqfc0","pricing_plan_id":"cebpf4jnsgd1na2vs0mg"},{"bike_id":"036891b1-821b-461c-b5d4-5c80c7a4a93b","system_id":"levelo_inurba_marseille","lat":43.29961,"lon":5.385,"is_reserved":false,"is_disabled":true,"rental_uris":{"android":"levelo://app?vid=036891b1-821b-461c-b5d4-5c80c7a4a93b","ios":"levelo://app?vid=036891b1-821b-461c-b5d4-5c80c7a4a93b"},"vehicle_type_id":"4","last_reported":1750522290,"current_range_meters":800,"station_id":"ce4bgj92rcd13ifvqbd0","pricing_plan_id":"cebpf4jnsgd1na2vs0mg"},{"bike_id":"05e51855-0442-479b-98e5-ba9c6499bab0","system_id":"levelo_inurba_marseille","lat":43.23139,"lon":5.43731,"is_reserved":false,"is_disabled":true,"rental_uris":{"android":"levelo://app?vid=05e51855-0442-479b-98e5-ba9c6499bab0","ios":"levelo://app?vid=05e51855-0442-479b-98e5-ba9c6499bab0"},"vehicle_type_id":"4","last_reported":1750522290,"current_range_meters":800,"station_id":"ce4bhmp2rcd13ifvqgog","pricing_plan_id":"cebpf4jnsgd1na2vs0mg"},{"bike_id":"43f3207d-2a05-4f3a-81fd-4b72a345e0b7","system_id":"levelo_inurba_marseille","lat":43.28085,"lon":5.36657,"is_reserved":false,"is_disabled":true,"rental_uris":{"android":"levelo://app?vid=43f3207d-2a05-4f3a-81fd-4b72a345e0b7","ios":"levelo://app?vid=43f3207d-2a05-4f3a-81fd-4b72a345e0b7"},"vehicle_type_id":"4","last_reported":1750522290,"current_range_meters":1200,"station_id":"","pricing_plan_id":"cebpf4jnsgd1na2vs0mg"},{"bike_id":"b41aa3e8-aa73-45e7-9d5c-4891f7d25422","system_id":"levelo_inurba_marseille","lat":43.29682,"lon":5.37287,"is_reserved":false,"is_disabled":true,"rental_uris":{"android":"levelo://app?vid=b41aa3e8-aa73-45e7-9d5c-4891f7d25422","ios":"levelo://app?vid=b41aa3e8-aa73-45e7-9d5c-4891f7d25422"},"vehicle_type_id":"4","last_reported":1750522290,"current_range_meters":1200,"station_id":"ce4bgk12rcd13ifvqbj0","pricing_plan_id":"cebpf4jnsgd1na2vs0mg"},{"bike_id":"2c2c19f8-deb3-4f17-9c10-6b538d13d04a","system_id":"levelo_inurba_marseille","lat":43.27375,"lon":5.3626,"is_reserved":false,"is_disabled":true,"rental_uris":{"android":"levelo://app?vid=2c2c19f8-deb3-4f17-9c10-6b538d13d04a","ios":"levelo://app?vid=2c2c19f8-deb3-4f17-9c10-6b538d13d04a"},"vehicle_type_id":"4","last_reported":1750522290,"current_range_meters":1200,"station_id":"ce4bhbh2rcd13ifvqeo0","pricing_plan_id":"cebpf4jnsgd1na2vs0mg"},{"bike_id":"dfc95747-906b-4839-aed9-6182ee5bbcee","system_id":"levelo_inurba_marseille","lat":43.27922,"lon":5.395867,"is_reserved":false,"is_disabled":true,"rental_uris":{"android":"levelo://app?vid=dfc95747-906b-4839-aed9-6182ee5bbcee","ios":"levelo://app?vid=dfc95747-906b-4839-aed9-6182ee5bbcee"},"vehicle_type_id":"4","last_reported":1750522290,"current_range_meters":1200,"station_id":"ce4bhf92rcd13ifvqf40","pricing_plan_id":"cebpf4jnsgd1na2vs0mg"},{"bike_id":"92c2bdf1-2fbc-4923-988c-f5bd8a547c0b","system_id":"levelo_inurba_marseille","lat":43.2694,"lon":5.40245,"is_reserved":false,"is_disabled":true,"rental_uris":{"android":"levelo://app?vid=92c2bdf1-2fbc-4923-988c-f5bd8a547c0b","ios":"levelo://app?vid=92c2bdf1-2fbc-4923-988c-f5bd8a547c0b"},"vehicle_type_id":"4","last_reported":1750522290,"current_range_meters":1200,"station_id":"cjm6bp8fraef2m0cb0m0","pricing_plan_id":"cebpf4jnsgd1na2vs0mg"},{"bike_id":"fcc0d248-6487-4fae-8ee7-f277a38f3302","system_id":"levelo_inurba_marseille","lat":43.21196,"lon":5.35072,"is_reserved":false,"is_disabled":true,"rental_uris":{"android":"levelo://app?vid=fcc0d248-6487-4fae-8ee7-f277a38f3302","ios":"levelo://app?vid=fcc0d248-6487-4fae-8ee7-f277a38f3302"},"vehicle_type_id":"4","last_reported":1750522290,"current_range_meters":1200,"station_id":"st_cvj6sg6p6f1abm77japg","pricing_plan_id":"cebpf4jnsgd1na2vs0mg"},{"bike_id":"8a3ad5e7-b1c0-4107-a9a8-16bf07399bb2","system_id":"levelo_inurba_marseille","lat":43.26211,"lon":5.37446,"is_reserved":false,"is_disabled":true,"rental_uris":{"android":"levelo://app?vid=8a3ad5e7-b1c0-4107-a9a8-16bf07399bb2","ios":"levelo://app?vid=8a3ad5e7-b1c0-4107-a9a8-16bf07399bb2"},"vehicle_type_id":"4","last_reported":1750522290,"current_range_meters":1600,"station_id":"ce4bhgp2rcd13ifvqfc0","pricing_plan_id":"cebpf4jnsgd1na2vs0mg"},{"bike_id":"69ceda50-46ca-49cd-bdd1-5962d080c9f2","system_id":"levelo_inurba_marseille","lat":43.278167,"lon":5.40713,"is_reserved":false,"is_disabled":true,"rental_uris":{"android":"levelo://app?vid=69ceda50-46ca-49cd-bdd1-5962d080c9f2","ios":"levelo://app?vid=69ceda50-46ca-49cd-bdd1-5962d080c9f2"},"vehicle_type_id":"4","last_reported":1750522290,"current_range_meters":1600,"station_id":"ce4bhnh2rcd13ifvqgtg","pricing_plan_id":"cebpf4jnsgd1na2vs0mg"},{"bike_id":"e8b2899a-4211-4f31-b803-6ec5b4d26202","system_id":"levelo_inurba_marseille","lat":43.27589,"lon":5.39707,"is_reserved":false,"is_disabled":true,"rental_uris":{"android":"levelo://app?vid=e8b2899a-4211-4f31-b803-6ec5b4d26202","ios":"levelo://app?vid=e8b2899a-4211-4f31-b803-6ec5b4d26202"},"vehicle_type_id":"4","last_reported":1750522290,"current_range_meters":2000,"station_id":"","pricing_plan_id":"cebpf4jnsgd1na2vs0mg"},{"bike_id":"3a741cc1-f7a6-493f-95ba-be87a563075a","system_id":"levelo_inurba_marseille","lat":43.30141,"lon":5.3878,"is_reserved":false,"is_disabled":false,"rental_uris":{"android":"levelo://app?vid=3a741cc1-f7a6-493f-95ba-be87a563075a","ios":"levelo://app?vid=3a741cc1-f7a6-493f-95ba-be87a563075a"},"vehicle_type_id":"4","last_reported":1750522290,"current_range_meters":2000,"station_id":"ce4bghh2rcd13ifvqb60","pricing_plan_id":"cebpf4jnsgd1na2vs0mg"},{"bike_id":"11b0cb80-062d-4c17-a03b-8a256168cc4c","system_id":"levelo_inurba_marseille","lat":43.29273,"lon":5.3685,"is_reserved":false,"is_disabled":true,"rental_uris":{"android":"levelo://app?vid=11b0cb80-062d-4c17-a03b-8a256168cc4c","ios":"levelo://app?vid=11b0cb80-062d-4c17-a03b-8a256168cc4c"},"vehicle_type_id":"4","last_reported":1750522290,"current_range_meters":2000,"station_id":"ce4bhbp2rcd13ifvqesg","pricing_plan_id":"cebpf4jnsgd1na2vs0mg"},{"bike_id":"8125d1ba-ad61-4e14-832f-0d1fcc5a8e07","system_id":"levelo_inurba_marseille","lat":43.273123,"lon":5.390831,"is_reserved":false,"is_disabled":true,"rental_uris":{"android":"levelo://app?vid=8125d1ba-ad61-4e14-832f-0d1fcc5a8e07","ios":"levelo://app?vid=8125d1ba-ad61-4e14-832f-0d1fcc5a8e07"},"vehicle_type_id":"4","last_reported":1750522290,"current_range_meters":2000,"station_id":"ce4bhgp2rcd13ifvqfe0","pricing_plan_id":"cebpf4jnsgd1na2vs0mg"},{"bike_id":"91a6cd8a-ddd9-4b8f-a4f6-9365e3ea37e3","system_id":"levelo_inurba_marseille","lat":43.26955,"lon":5.38626,"is_reserved":false,"is_disabled":true,"rental_uris":{"android":"levelo://app?vid=91a6cd8a-ddd9-4b8f-a4f6-9365e3ea37e3","ios":"levelo://app?vid=91a6cd8a-ddd9-4b8f-a4f6-9365e3ea37e3"},"vehicle_type_id":"4","last_reported":1750522290,"current_range_meters":2000,"station_id":"ce4bhh92rcd13ifvqfh0","pricing_plan_id":"cebpf4jnsgd1na2vs0mg"},{"bike_id":"35cb0325-70f2-4890-bc7f-a374885a6065","system_id":"levelo_inurba_marseille","lat":43.24521,"lon":5.37294,"is_reserved":false,"is_disabled":false,"rental_uris":{"android":"levelo://app?vid=35cb0325-70f2-4890-bc7f-a374885a6065","ios":"levelo://app?vid=35cb0325-70f2-4890-bc7f-a374885a6065"},"vehicle_type_id":"4","last_reported":1750522290,"current_range_meters":2800,"station_id":"","pricing_plan_id":"cebpf4jnsgd1na2vs0mg"},{"bike_id":"cd471efb-0a5d-4e5e-9d6c-c3a1624998d9","system_id":"levelo_inurba_marseille","lat":43.298831,"lon":5.389033,"is_reserved":false,"is_disabled":false,"rental_uris":{"android":"levelo://app?vid=cd471efb-0a5d-4e5e-9d6c-c3a1624998d9","ios":"levelo://app?vid=cd471efb-0a5d-4e5e-9d6c-c3a1624998d9"},"vehicle_type_id":"4","last_reported":1750522290,"current_range_meters":2800,"station_id":"ce4bh392rcd13ifvqdl0","pricing_plan_id":"cebpf4jnsgd1na2vs0mg"},{"bike_id":"9e874061-40e1-4f4f-b082-0dcc4e7f76ea","system_id":"levelo_inurba_marseille","lat":43.24646,"lon":5.38892,"is_reserved":false,"is_disabled":false,"rental_uris":{"android":"levelo://app?vid=9e874061-40e1-4f4f-b082-0dcc4e7f76ea","ios":"levelo://app?vid=9e874061-40e1-4f4f-b082-0dcc4e7f76ea"},"vehicle_type_id":"4","last_reported":1750522290,"current_range_meters":2800,"station_id":"ce4bhg12rcd13ifvqf60","pricing_plan_id":"cebpf4jnsgd1na2vs0mg"},{"bike_id":"4b758bae-ce84-4641-a183-04f650d2b3b8","system_id":"levelo_inurba_marseille","lat":43.27211,"lon":5.39188,"is_reserved":false,"is_disabled":false,"rental_uris":{"android":"levelo://app?vid=4b758bae-ce84-4641-a183-04f650d2b3b8","ios":"levelo://app?vid=4b758bae-ce84-4641-a183-04f650d2b3b8"},"vehicle_type_id":"4","last_reported":1750522290,"current_range_meters":2800,"station_id":"ce4bhhp2rcd13ifvqfm0","pricing_plan_id":"cebpf4jnsgd1na2vs0mg"},{"bike_id":"0df11b1b-6a05-4dae-9790-df7e3f8cdeef","system_id":"levelo_inurba_marseille","lat":43.246632,"lon":5.381725,"is_reserved":false,"is_disabled":false,"rental_uris":{"android":"levelo://app?vid=0df11b1b-6a05-4dae-9790-df7e3f8cdeef","ios":"levelo://app?vid=0df11b1b-6a05-4dae-9790-df7e3f8cdeef"},"vehicle_type_id":"4","last_reported":1750522290,"current_range_meters":2800,"station_id":"ce4bhih2rcd13ifvqfr0","pricing_plan_id":"cebpf4jnsgd1na2vs0mg"},{"bike_id":"b42c9c7d-24a0-4e80-b028-71afd665efc8","system_id":"levelo_inurba_marseille","lat":43.30133,"lon":5.39858,"is_reserved":false,"is_disabled":false,"rental_uris":{"android":"levelo://app?vid=b42c9c7d-24a0-4e80-b028-71afd665efc8","ios":"levelo://app?vid=b42c9c7d-24a0-4e80-b028-71afd665efc8"},"vehicle_type_id":"4","last_reported":1750522290,"current_range_meters":3200,"station_id":"ce4bh0h2rcd13ifvqd40","pricing_plan_id":"cebpf4jnsgd1na2vs0mg"},{"bike_id":"4bd96227-74d9-4893-a092-1cad77df98e2","system_id":"levelo_inurba_marseille","lat":43.27912,"lon":5.38006,"is_reserved":false,"is_disabled":false,"rental_uris":{"android":"levelo://app?vid=4bd96227-74d9-4893-a092-1cad77df98e2","ios":"levelo://app?vid=4bd96227-74d9-4893-a092-1cad77df98e2"},"vehicle_type_id":"4","last_reported":1750522290,"current_range_meters":3200,"station_id":"ce4bhf92rcd13ifvqf50","pricing_plan_id":"cebpf4jnsgd1na2vs0mg"},{"bike_id":"09256c68-1cf4-4a53-89da-3f9b86dbbdde","system_id":"levelo_inurba_marseille","lat":43.25106,"lon":5.40354,"is_reserved":false,"is_disabled":false,"rental_uris":{"android":"levelo://app?vid=09256c68-1cf4-4a53-89da-3f9b86dbbdde","ios":"levelo://app?vid=09256c68-1cf4-4a53-89da-3f9b86dbbdde"},"vehicle_type_id":"4","last_reported":1750522290,"current_range_meters":3200,"station_id":"ce4bhlh2rcd13ifvqgig","pricing_plan_id":"cebpf4jnsgd1na2vs0mg"},{"bike_id":"96bd5d92-00e7-4281-9981-7e74503ae6b0","system_id":"levelo_inurba_marseille","lat":43.29265,"lon":5.37627,"is_reserved":false,"is_disabled":false,"rental_uris":{"android":"levelo://app?vid=96bd5d92-00e7-4281-9981-7e74503ae6b0","ios":"levelo://app?vid=96bd5d92-00e7-4281-9981-7e74503ae6b0"},"vehicle_type_id":"4","last_reported":1750522290,"current_range_meters":3600,"station_id":"ce4bgi12rcd13ifvqb80","pricing_plan_id":"cebpf4jnsgd1na2vs0mg"},{"bike_id":"0e5465df-ae4e-49ad-964b-ea8d1cfcceef","system_id":"levelo_inurba_marseille","lat":43.30298,"lon":5.3688,"is_reserved":false,"is_disabled":false,"rental_uris":{"android":"levelo://app?vid=0e5465df-ae4e-49ad-964b-ea8d1cfcceef","ios":"levelo://app?vid=0e5465df-ae4e-49ad-964b-ea8d1cfcceef"},"vehicle_type_id":"4","last_reported":1750522290,"current_range_meters":3600,"station_id":"ce4bgqh2rcd13ifvqc5g","pricing_plan_id":"cebpf4jnsgd1na2vs0mg"},{"bike_id":"32d6fe3f-085a-48fa-8275-34fd80c46a6c","system_id":"levelo_inurba_marseille","lat":43.28487,"lon":5.38419,"is_reserved":false,"is_disabled":false,"rental_uris":{"android":"levelo://app?vid=32d6fe3f-085a-48fa-8275-34fd80c46a6c","ios":"levelo://app?vid=32d6fe3f-085a-48fa-8275-34fd80c46a6c"},"vehicle_type_id":"4","last_reported":1750522290,"current_range_meters":3600,"station_id":"ce4bh512rcd13ifvqe3g","pricing_plan_id":"cebpf4jnsgd1na2vs0mg"},{"bike_id":"65102670-7917-42f9-8cba-ddc63d5cff36","system_id":"levelo_inurba_marseille","lat":43.2657,"lon":5.3901,"is_reserved":false,"is_disabled":false,"rental_uris":{"android":"levelo://app?vid=65102670-7917-42f9-8cba-ddc63d5cff36","ios":"levelo://app?vid=65102670-7917-42f9-8cba-ddc63d5cff36"},"vehicle_type_id":"4","last_reported":1750522290,"current_range_meters":3600,"station_id":"ce4bhe12rcd13ifvqf30","pricing_plan_id":"cebpf4jnsgd1na2vs0mg"},{"bike_id":"4154f77b-dc7c-4916-abb1-8dc7a7680681","system_id":"levelo_inurba_marseille","lat":43.254934,"lon":5.376462,"is_reserved":false,"is_disabled":false,"rental_uris":{"android":"levelo://app?vid=4154f77b-dc7c-4916-abb1-8dc7a7680681","ios":"levelo://app?vid=4154f77b-dc7c-4916-abb1-8dc7a7680681"},"vehicle_type_id":"4","last_reported":1750522290,"current_range_meters":3600,"station_id":"ce4bhh12rcd13ifvqff0","pricing_plan_id":"cebpf4jnsgd1na2vs0mg"},{"bike_id":"ed3536b1-1e52-4e0c-b01a-b89b443ddd88","system_id":"levelo_inurba_marseille","lat":43.2693,"lon":5.38916,"is_reserved":false,"is_disabled":false,"rental_uris":{"android":"levelo://app?vid=ed3536b1-1e52-4e0c-b01a-b89b443ddd88","ios":"levelo://app?vid=ed3536b1-1e52-4e0c-b01a-b89b443ddd88"},"vehicle_type_id":"4","last_reported":1750522290,"current_range_meters":3600,"station_id":"ce4bhhh2rcd13ifvqfl0","pricing_plan_id":"cebpf4jnsgd1na2vs0mg"},{"bike_id":"4281fef5-1166-400e-b9eb-6f0f941f4389","system_id":"levelo_inurba_marseille","lat":43.27208,"lon":5.39178,"is_reserved":false,"is_disabled":false,"rental_uris":{"android":"levelo://app?vid=4281fef5-1166-400e-b9eb-6f0f941f4389","ios":"levelo://app?vid=4281fef5-1166-400e-b9eb-6f0f941f4389"},"vehicle_type_id":"4","last_reported":1750522290,"current_range_meters":3600,"station_id":"ce4bhhp2rcd13ifvqfm0","pricing_plan_id":"cebpf4jnsgd1na2vs0mg"},{"bike_id":"d4152bdd-4c81-4631-ae1a-73a2df4c24ba","system_id":"levelo_inurba_marseille","lat":43.27957,"lon":5.3868,"is_reserved":false,"is_disabled":false,"rental_uris":{"android":"levelo://app?vid=d4152bdd-4c81-4631-ae1a-73a2df4c24ba","ios":"levelo://app?vid=d4152bdd-4c81-4631-ae1a-73a2df4c24ba"},"vehicle_type_id":"4","last_reported":1750522290,"current_range_meters":4000,"station_id":"ce4bhg12rcd13ifvqf80","pricing_plan_id":"cebpf4jnsgd1na2vs0mg"},{"bike_id":"428fcb0b-c3aa-4119-aa12-cd281cc585d2","system_id":"levelo_inurba_marseille","lat":43.27901,"lon":5.42277,"is_reserved":false,"is_disabled":false,"rental_uris":{"android":"levelo://app?vid=428fcb0b-c3aa-4119-aa12-cd281cc585d2","ios":"levelo://app?vid=428fcb0b-c3aa-4119-aa12-cd281cc585d2"},"vehicle_type_id":"4","last_reported":1750522290,"current_range_meters":4400,"station_id":"","pricing_plan_id":"cebpf4jnsgd1na2vs0mg"},{"bike_id":"c8f97663-355e-41f3-b27e-e50d67139c11","system_id":"levelo_inurba_marseille","lat":43.26494,"lon":5.39546,"is_reserved":false,"is_disabled":false,"rental_uris":{"android":"levelo://app?vid=c8f97663-355e-41f3-b27e-e50d67139c11","ios":"levelo://app?vid=c8f97663-355e-41f3-b27e-e50d67139c11"},"vehicle_type_id":"4","last_reported":1750522290,"current_range_meters":4400,"station_id":"ce4bhi12rcd13ifvqfq0","pricing_plan_id":"cebpf4jnsgd1na2vs0mg"},{"bike_id":"4ecadb10-cccd-4178-a7d8-dd9fe7b6d391","system_id":"levelo_inurba_marseille","lat":43.29384,"lon":5.40166,"is_reserved":false,"is_disabled":false,"rental_uris":{"android":"levelo://app?vid=4ecadb10-cccd-4178-a7d8-dd9fe7b6d391","ios":"levelo://app?vid=4ecadb10-cccd-4178-a7d8-dd9fe7b6d391"},"vehicle_type_id":"4","last_reported":1750522290,"current_range_meters":4800,"station_id":"","pricing_plan_id":"cebpf4jnsgd1na2vs0mg"},{"bike_id":"f543f1e4-27a1-49e6-988f-59800da5e4e6","system_id":"levelo_inurba_marseille","lat":43.28662,"lon":5.36358,"is_reserved":false,"is_disabled":false,"rental_uris":{"android":"levelo://app?vid=f543f1e4-27a1-49e6-988f-59800da5e4e6","ios":"levelo://app?vid=f543f1e4-27a1-49e6-988f-59800da5e4e6"},"vehicle_type_id":"4","last_reported":1750522290,"current_range_meters":4800,"station_id":"ce4bhah2rcd13ifvqej0","pricing_plan_id":"cebpf4jnsgd1na2vs0mg"},{"bike_id":"c9ffd78e-86bf-468e-b8b0-920257334174","system_id":"levelo_inurba_marseille","lat":43.286133,"lon":5.351052,"is_reserved":false,"is_disabled":false,"rental_uris":{"android":"levelo://app?vid=c9ffd78e-86bf-468e-b8b0-920257334174","ios":"levelo://app?vid=c9ffd78e-86bf-468e-b8b0-920257334174"},"vehicle_type_id":"4","last_reported":1750522290,"current_range_meters":4800,"station_id":"ce4bhch2rcd13ifvqeug","pricing_plan_id":"cebpf4jnsgd1na2vs0mg"},{"bike_id":"fbe532e7-2f52-46dc-822c-1466686be8c5","system_id":"levelo_inurba_marseille","lat":43.300903,"lon":5.405422,"is_reserved":false,"is_disabled":false,"rental_uris":{"android":"levelo://app?vid=fbe532e7-2f52-46dc-822c-1466686be8c5","ios":"levelo://app?vid=fbe532e7-2f52-46dc-822c-1466686be8c5"},"vehicle_type_id":"4","last_reported":1750522290,"current_range_meters":5600,"station_id":"","pricing_plan_id":"cebpf4jnsgd1na2vs0mg"},{"bike_id":"f184897c-c47f-40ec-8002-f22615c36806","system_id":"levelo_inurba_marseille","lat":43.30257,"lon":5.40078,"is_reserved":false,"is_disabled":false,"rental_uris":{"android":"levelo://app?vid=f184897c-c47f-40ec-8002-f22615c36806","ios":"levelo://app?vid=f184897c-c47f-40ec-8002-f22615c36806"},"vehicle_type_id":"4","last_reported":1750522290,"current_range_meters":5600,"station_id":"ce4bgvh2rcd13ifvqcs0","pricing_plan_id":"cebpf4jnsgd1na2vs0mg"},{"bike_id":"b461f96f-1e5d-4ccf-ae2c-49b383fb1de4","system_id":"levelo_inurba_marseille","lat":43.29025,"lon":5.38634,"is_reserved":false,"is_disabled":false,"rental_uris":{"android":"levelo://app?vid=b461f96f-1e5d-4ccf-ae2c-49b383fb1de4","ios":"levelo://app?vid=b461f96f-1e5d-4ccf-ae2c-49b383fb1de4"},"vehicle_type_id":"4","last_reported":1750522290,"current_range_meters":5600,"station_id":"ce4bh4p2rcd13ifvqe0g","pricing_plan_id":"cebpf4jnsgd1na2vs0mg"},{"bike_id":"5028aa57-c288-476c-91f2-4043f4428e28","system_id":"levelo_inurba_marseille","lat":43.27941,"lon":5.41047,"is_reserved":false,"is_disabled":false,"rental_uris":{"android":"levelo://app?vid=5028aa57-c288-476c-91f2-4043f4428e28","ios":"levelo://app?vid=5028aa57-c288-476c-91f2-4043f4428e28"},"vehicle_type_id":"4","last_reported":1750522290,"current_range_meters":5600,"station_id":"ce4bhnp2rcd13ifvqh0g","pricing_plan_id":"cebpf4jnsgd1na2vs0mg"},{"bike_id":"4a440fe5-a47d-4d11-ae5a-8c44abe4d810","system_id":"levelo_inurba_marseille","lat":43.27614,"lon":5.36104,"is_reserved":false,"is_disabled":false,"rental_uris":{"android":"levelo://app?vid=4a440fe5-a47d-4d11-ae5a-8c44abe4d810","ios":"levelo://app?vid=4a440fe5-a47d-4d11-ae5a-8c44abe4d810"},"vehicle_type_id":"4","last_reported":1750522290,"current_range_meters":6000,"station_id":"ce4bgj92rcd13ifvqbe0","pricing_plan_id":"cebpf4jnsgd1na2vs0mg"},{"bike_id":"538c0a98-de26-4dfd-9cbe-fa7ddc8b55f0","system_id":"levelo_inurba_marseille","lat":43.28417,"lon":5.34989,"is_reserved":false,"is_disabled":false,"rental_uris":{"android":"levelo://app?vid=538c0a98-de26-4dfd-9cbe-fa7ddc8b55f0","ios":"levelo://app?vid=538c0a98-de26-4dfd-9cbe-fa7ddc8b55f0"},"vehicle_type_id":"4","last_reported":1750522290,"current_range_meters":6000,"station_id":"ce4bhbh2rcd13ifvqepg","pricing_plan_id":"cebpf4jnsgd1na2vs0mg"},{"bike_id":"4a5dc185-23fd-4867-a2be-06e861852fa1","system_id":"levelo_inurba_marseille","lat":43.26188,"lon":5.37469,"is_reserved":false,"is_disabled":false,"rental_uris":{"android":"levelo://app?vid=4a5dc185-23fd-4867-a2be-06e861852fa1","ios":"levelo://app?vid=4a5dc185-23fd-4867-a2be-06e861852fa1"},"vehicle_type_id":"4","last_reported":1750522290,"current_range_meters":6000,"station_id":"ce4bhgp2rcd13ifvqfc0","pricing_plan_id":"cebpf4jnsgd1na2vs0mg"},{"bike_id":"3f795226-2aea-46fd-9ae1-10723133cdcb","system_id":"levelo_inurba_marseille","lat":43.28156,"lon":5.42642,"is_reserved":false,"is_disabled":false,"rental_uris":{"android":"levelo://app?vid=3f795226-2aea-46fd-9ae1-10723133cdcb","ios":"levelo://app?vid=3f795226-2aea-46fd-9ae1-10723133cdcb"},"vehicle_type_id":"4","last_reported":1750522290,"current_range_meters":6000,"station_id":"ce4bhnh2rcd13ifvqgug","pricing_plan_id":"cebpf4jnsgd1na2vs0mg"},{"bike_id":"dc6bfcf4-1c76-42e1-8247-440287128cbf","system_id":"levelo_inurba_marseille","lat":43.30426,"lon":5.39757,"is_reserved":false,"is_disabled":false,"rental_uris":{"android":"levelo://app?vid=dc6bfcf4-1c76-42e1-8247-440287128cbf","ios":"levelo://app?vid=dc6bfcf4-1c76-42e1-8247-440287128cbf"},"vehicle_type_id":"4","last_reported":1750522290,"current_range_meters":6400,"station_id":"ce4bh092rcd13ifvqd20","pricing_plan_id":"cebpf4jnsgd1na2vs0mg"},{"bike_id":"7a85352a-b35a-42de-bebf-dfc97112645f","system_id":"levelo_inurba_marseille","lat":43.279,"lon":5.38023,"is_reserved":false,"is_disabled":false,"rental_uris":{"android":"levelo://app?vid=7a85352a-b35a-42de-bebf-dfc97112645f","ios":"levelo://app?vid=7a85352a-b35a-42de-bebf-dfc97112645f"},"vehicle_type_id":"4","last_reported":1750522290,"current_range_meters":6400,"station_id":"ce4bhf92rcd13ifvqf50","pricing_plan_id":"cebpf4jnsgd1na2vs0mg"},{"bike_id":"1efbad94-14ba-411f-9935-293abfa4f949","system_id":"levelo_inurba_marseille","lat":43.26194,"lon":5.37451,"is_reserved":false,"is_disabled":false,"rental_uris":{"android":"levelo://app?vid=1efbad94-14ba-411f-9935-293abfa4f949","ios":"levelo://app?vid=1efbad94-14ba-411f-9935-293abfa4f949"},"vehicle_type_id":"4","last_reported":1750522290,"current_range_meters":6400,"station_id":"ce4bhgp2rcd13ifvqfc0","pricing_plan_id":"cebpf4jnsgd1na2vs0mg"},{"bike_id":"5804f430-666b-4e3c-a25d-4ec9a337c43b","system_id":"levelo_inurba_marseille","lat":43.25869,"lon":5.39899,"is_reserved":false,"is_disabled":false,"rental_uris":{"android":"levelo://app?vid=5804f430-666b-4e3c-a25d-4ec9a337c43b","ios":"levelo://app?vid=5804f430-666b-4e3c-a25d-4ec9a337c43b"},"vehicle_type_id":"4","last_reported":1750522290,"current_range_meters":6400,"station_id":"ce4bhl92rcd13ifvqghg","pricing_plan_id":"cebpf4jnsgd1na2vs0mg"},{"bike_id":"e13d9b56-5458-4287-be47-2fa69aa09168","system_id":"levelo_inurba_marseille","lat":43.28444,"lon":5.39209,"is_reserved":false,"is_disabled":false,"rental_uris":{"android":"levelo://app?vid=e13d9b56-5458-4287-be47-2fa69aa09168","ios":"levelo://app?vid=e13d9b56-5458-4287-be47-2fa69aa09168"},"vehicle_type_id":"4","last_reported":1750522290,"current_range_meters":6400,"station_id":"ce4bhoh2rcd13ifvqh5g","pricing_plan_id":"cebpf4jnsgd1na2vs0mg"},{"bike_id":"040977a8-13c0-45f8-878b-41dbebdc1a7e","system_id":"levelo_inurba_marseille","lat":43.29898,"lon":5.4369,"is_reserved":false,"is_disabled":false,"rental_uris":{"android":"levelo://app?vid=040977a8-13c0-45f8-878b-41dbebdc1a7e","ios":"levelo://app?vid=040977a8-13c0-45f8-878b-41dbebdc1a7e"},"vehicle_type_id":"4","last_reported":1750522290,"current_range_meters":6800,"station_id":"ce4bhpp2rcd13ifvqhfg","pricing_plan_id":"cebpf4jnsgd1na2vs0mg"},{"bike_id":"732f5210-b403-4ff2-ac3a-9ddcc26ff0a2","system_id":"levelo_inurba_marseille","lat":43.23193,"lon":5.35552,"is_reserved":false,"is_disabled":false,"rental_uris":{"android":"levelo://app?vid=732f5210-b403-4ff2-ac3a-9ddcc26ff0a2","ios":"levelo://app?vid=732f5210-b403-4ff2-ac3a-9ddcc26ff0a2"},"vehicle_type_id":"4","last_reported":1750522290,"current_range_meters":6800,"station_id":"ce4bhu92rcd13ifvqi70","pricing_plan_id":"cebpf4jnsgd1na2vs0mg"},{"bike_id":"68b0a320-aa97-4c77-a84d-bdcdfc4e0ab5","system_id":"levelo_inurba_marseille","lat":43.24155,"lon":5.36402,"is_reserved":false,"is_disabled":false,"rental_uris":{"android":"levelo://app?vid=68b0a320-aa97-4c77-a84d-bdcdfc4e0ab5","ios":"levelo://app?vid=68b0a320-aa97-4c77-a84d-bdcdfc4e0ab5"},"vehicle_type_id":"4","last_reported":1750522290,"current_range_meters":6800,"station_id":"cpo36qri1sfpv3e86is0","pricing_plan_id":"cebpf4jnsgd1na2vs0mg"},{"bike_id":"71425484-200f-470c-a3f2-05c0271df589","system_id":"levelo_inurba_marseille","lat":43.2979,"lon":5.38098,"is_reserved":false,"is_disabled":false,"rental_uris":{"android":"levelo://app?vid=71425484-200f-470c-a3f2-05c0271df589","ios":"levelo://app?vid=71425484-200f-470c-a3f2-05c0271df589"},"vehicle_type_id":"4","last_reported":1750522290,"current_range_meters":7200,"station_id":"ce4bgip2rcd13ifvqbb0","pricing_plan_id":"cebpf4jnsgd1na2vs0mg"},{"bike_id":"7779995d-7b9c-4f16-9683-e3ec350cab26","system_id":"levelo_inurba_marseille","lat":43.26785,"lon":5.3942,"is_reserved":false,"is_disabled":false,"rental_uris":{"android":"levelo://app?vid=7779995d-7b9c-4f16-9683-e3ec350cab26","ios":"levelo://app?vid=7779995d-7b9c-4f16-9683-e3ec350cab26"},"vehicle_type_id":"4","last_reported":1750522290,"current_range_meters":7200,"station_id":"ce4bhh12rcd13ifvqfg0","pricing_plan_id":"cebpf4jnsgd1na2vs0mg"},{"bike_id":"eb708a20-d1b9-4d97-9e32-c1ba7d416bea","system_id":"levelo_inurba_marseille","lat":43.2306,"lon":5.35516,"is_reserved":false,"is_disabled":false,"rental_uris":{"android":"levelo://app?vid=eb708a20-d1b9-4d97-9e32-c1ba7d416bea","ios":"levelo://app?vid=eb708a20-d1b9-4d97-9e32-c1ba7d416bea"},"vehicle_type_id":"4","last_reported":1750522290,"current_range_meters":7200,"station_id":"cpo3342slgdg3j2ifvpg","pricing_plan_id":"cebpf4jnsgd1na2vs0mg"},{"bike_id":"c595d0e1-c778-4abe-9c79-a9dd74f54e27","system_id":"levelo_inurba_marseille","lat":43.24482,"lon":5.37224,"is_reserved":false,"is_disabled":false,"rental_uris":{"android":"levelo://app?vid=c595d0e1-c778-4abe-9c79-a9dd74f54e27","ios":"levelo://app?vid=c595d0e1-c778-4abe-9c79-a9dd74f54e27"},"vehicle_type_id":"4","last_reported":1750522290,"current_range_meters":8000,"station_id":"","pricing_plan_id":"cebpf4jnsgd1na2vs0mg"},{"bike_id":"42e67665-d739-4ea1-b26b-6793615a1fe8","system_id":"levelo_inurba_marseille","lat":43.27616,"lon":5.3611,"is_reserved":false,"is_disabled":false,"rental_uris":{"android":"levelo://app?vid=42e67665-d739-4ea1-b26b-6793615a1fe8","ios":"levelo://app?vid=42e67665-d739-4ea1-b26b-6793615a1fe8"},"vehicle_type_id":"4","last_reported":1750522290,"current_range_meters":8000,"station_id":"ce4bgj92rcd13ifvqbe0","pricing_plan_id":"cebpf4jnsgd1na2vs0mg"},{"bike_id":"d01f803c-747c-4e03-ae93-f95fc6365199","system_id":"levelo_inurba_marseille","lat":43.29785,"lon":5.37107,"is_reserved":false,"is_disabled":false,"rental_uris":{"android":"levelo://app?vid=d01f803c-747c-4e03-ae93-f95fc6365199","ios":"levelo://app?vid=d01f803c-747c-4e03-ae93-f95fc6365199"},"vehicle_type_id":"4","last_reported":1750522290,"current_range_meters":8000,"station_id":"ce4bgop2rcd13ifvqc1g","pricing_plan_id":"cebpf4jnsgd1na2vs0mg"},{"bike_id":"ea8bec81-d35e-4430-a3ff-94df16a12a15","system_id":"levelo_inurba_marseille","lat":43.28976,"lon":5.37832,"is_reserved":false,"is_disabled":false,"rental_uris":{"android":"levelo://app?vid=ea8bec81-d35e-4430-a3ff-94df16a12a15","ios":"levelo://app?vid=ea8bec81-d35e-4430-a3ff-94df16a12a15"},"vehicle_type_id":"4","last_reported":1750522290,"current_range_meters":8000,"station_id":"ce4bh9p2rcd13ifvqed0","pricing_plan_id":"cebpf4jnsgd1na2vs0mg"},{"bike_id":"982349af-a4b7-41c8-872a-5039230d7fe0","system_id":"levelo_inurba_marseille","lat":43.25822,"lon":5.39436,"is_reserved":false,"is_disabled":false,"rental_uris":{"android":"levelo://app?vid=982349af-a4b7-41c8-872a-5039230d7fe0","ios":"levelo://app?vid=982349af-a4b7-41c8-872a-5039230d7fe0"},"vehicle_type_id":"4","last_reported":1750522290,"current_range_meters":8000,"station_id":"ce4bhip2rcd13ifvqft0","pricing_plan_id":"cebpf4jnsgd1na2vs0mg"},{"bike_id":"bdd060cb-94c3-4fbf-94d9-5ff93139ad2b","system_id":"levelo_inurba_marseille","lat":43.30807,"lon":5.43526,"is_reserved":false,"is_disabled":false,"rental_uris":{"android":"levelo://app?vid=bdd060cb-94c3-4fbf-94d9-5ff93139ad2b","ios":"levelo://app?vid=bdd060cb-94c3-4fbf-94d9-5ff93139ad2b"},"vehicle_type_id":"4","last_reported":1750522290,"current_range_meters":8000,"station_id":"ce4bhph2rcd13ifvqheg","pricing_plan_id":"cebpf4jnsgd1na2vs0mg"},{"bike_id":"cc554f2f-8737-4971-881e-eff8120e96eb","system_id":"levelo_inurba_marseille","lat":43.32365,"lon":5.36748,"is_reserved":false,"is_disabled":false,"rental_uris":{"android":"levelo://app?vid=cc554f2f-8737-4971-881e-eff8120e96eb","ios":"levelo://app?vid=cc554f2f-8737-4971-881e-eff8120e96eb"},"vehicle_type_id":"4","last_reported":1750522290,"current_range_meters":8000,"station_id":"ce4bhsh2rcd13ifvqi2g","pricing_plan_id":"cebpf4jnsgd1na2vs0mg"},{"bike_id":"16dc22db-6c10-4dc2-ab7b-cc4c6596d23d","system_id":"levelo_inurba_marseille","lat":43.225075,"lon":5.347879,"is_reserved":false,"is_disabled":false,"rental_uris":{"android":"levelo://app?vid=16dc22db-6c10-4dc2-ab7b-cc4c6596d23d","ios":"levelo://app?vid=16dc22db-6c10-4dc2-ab7b-cc4c6596d23d"},"vehicle_type_id":"4","last_reported":1750522290,"current_range_meters":8000,"station_id":"st_cvj5dfep6f1abm77gieg","pricing_plan_id":"cebpf4jnsgd1na2vs0mg"},{"bike_id":"ad2b6ce2-b4b9-4a37-b42a-723cc2ac3f44","system_id":"levelo_inurba_marseille","lat":43.258606,"lon":5.399017,"is_reserved":false,"is_disabled":false,"rental_uris":{"android":"levelo://app?vid=ad2b6ce2-b4b9-4a37-b42a-723cc2ac3f44","ios":"levelo://app?vid=ad2b6ce2-b4b9-4a37-b42a-723cc2ac3f44"},"vehicle_type_id":"4","last_reported":1750522290,"current_range_meters":8400,"station_id":"ce4bhl92rcd13ifvqghg","pricing_plan_id":"cebpf4jnsgd1na2vs0mg"},{"bike_id":"c679fd72-06b6-4f0e-a502-2e9bea523cd9","system_id":"levelo_inurba_marseille","lat":43.24186,"lon":5.36394,"is_reserved":false,"is_disabled":false,"rental_uris":{"android":"levelo://app?vid=c679fd72-06b6-4f0e-a502-2e9bea523cd9","ios":"levelo://app?vid=c679fd72-06b6-4f0e-a502-2e9bea523cd9"},"vehicle_type_id":"4","last_reported":1750522290,"current_range_meters":8400,"station_id":"cpo36qri1sfpv3e86is0","pricing_plan_id":"cebpf4jnsgd1na2vs0mg"},{"bike_id":"199c2831-e081-4bc0-9b94-19503817091d","system_id":"levelo_inurba_marseille","lat":43.24907,"lon":5.40658,"is_reserved":false,"is_disabled":false,"rental_uris":{"android":"levelo://app?vid=199c2831-e081-4bc0-9b94-19503817091d","ios":"levelo://app?vid=199c2831-e081-4bc0-9b94-19503817091d"},"vehicle_type_id":"4","last_reported":1750522290,"current_range_meters":8800,"station_id":"","pricing_plan_id":"cebpf4jnsgd1na2vs0mg"},{"bike_id":"389259aa-b89a-4781-8a15-8ef5d209ad5a","system_id":"levelo_inurba_marseille","lat":43.28978,"lon":5.37827,"is_reserved":false,"is_disabled":false,"rental_uris":{"android":"levelo://app?vid=389259aa-b89a-4781-8a15-8ef5d209ad5a","ios":"levelo://app?vid=389259aa-b89a-4781-8a15-8ef5d209ad5a"},"vehicle_type_id":"4","last_reported":1750522290,"current_range_meters":8800,"station_id":"ce4bh9p2rcd13ifvqed0","pricing_plan_id":"cebpf4jnsgd1na2vs0mg"},{"bike_id":"9d1732bd-cd5c-49dc-a753-9b1f08ef90e0","system_id":"levelo_inurba_marseille","lat":43.26194,"lon":5.37476,"is_reserved":false,"is_disabled":false,"rental_uris":{"android":"levelo://app?vid=9d1732bd-cd5c-49dc-a753-9b1f08ef90e0","ios":"levelo://app?vid=9d1732bd-cd5c-49dc-a753-9b1f08ef90e0"},"vehicle_type_id":"4","last_reported":1750522290,"current_range_meters":8800,"station_id":"ce4bhgp2rcd13ifvqfc0","pricing_plan_id":"cebpf4jnsgd1na2vs0mg"},{"bike_id":"323ee9f8-d5c6-4c11-a504-232679f8a58a","system_id":"levelo_inurba_marseille","lat":43.25104,"lon":5.40325,"is_reserved":false,"is_disabled":false,"rental_uris":{"android":"levelo://app?vid=323ee9f8-d5c6-4c11-a504-232679f8a58a","ios":"levelo://app?vid=323ee9f8-d5c6-4c11-a504-232679f8a58a"},"vehicle_type_id":"4","last_reported":1750522290,"current_range_meters":8800,"station_id":"ce4bhlh2rcd13ifvqgig","pricing_plan_id":"cebpf4jnsgd1na2vs0mg"},{"bike_id":"c420ed28-f0f9-407a-98ad-386c48b0f509","system_id":"levelo_inurba_marseille","lat":43.31884,"lon":5.40739,"is_reserved":false,"is_disabled":false,"rental_uris":{"android":"levelo://app?vid=c420ed28-f0f9-407a-98ad-386c48b0f509","ios":"levelo://app?vid=c420ed28-f0f9-407a-98ad-386c48b0f509"},"vehicle_type_id":"4","last_reported":1750522290,"current_range_meters":8800,"station_id":"ce4bhq12rcd13ifvqhig","pricing_plan_id":"cebpf4jnsgd1na2vs0mg"},{"bike_id":"c646b072-2ebf-48ef-938d-86d8785b74ec","system_id":"levelo_inurba_marseille","lat":43.24165,"lon":5.36407,"is_reserved":false,"is_disabled":false,"rental_uris":{"android":"levelo://app?vid=c646b072-2ebf-48ef-938d-86d8785b74ec","ios":"levelo://app?vid=c646b072-2ebf-48ef-938d-86d8785b74ec"},"vehicle_type_id":"4","last_reported":1750522290,"current_range_meters":8800,"station_id":"cpo36qri1sfpv3e86is0","pricing_plan_id":"cebpf4jnsgd1na2vs0mg"},{"bike_id":"8300812b-c3f4-4460-a462-0c10590e5460","system_id":"levelo_inurba_marseille","lat":43.32973,"lon":5.40554,"is_reserved":false,"is_disabled":false,"rental_uris":{"android":"levelo://app?vid=8300812b-c3f4-4460-a462-0c10590e5460","ios":"levelo://app?vid=8300812b-c3f4-4460-a462-0c10590e5460"},"vehicle_type_id":"4","last_reported":1750522290,"current_range_meters":9200,"station_id":"","pricing_plan_id":"cebpf4jnsgd1na2vs0mg"},{"bike_id":"83e0933c-f1d4-42c9-8da5-8ac14b7076b7","system_id":"levelo_inurba_marseille","lat":43.25587,"lon":5.38236,"is_reserved":false,"is_disabled":false,"rental_uris":{"android":"levelo://app?vid=83e0933c-f1d4-42c9-8da5-8ac14b7076b7","ios":"levelo://app?vid=83e0933c-f1d4-42c9-8da5-8ac14b7076b7"},"vehicle_type_id":"4","last_reported":1750522290,"current_range_meters":9200,"station_id":"ce4bhih2rcd13ifvqfs0","pricing_plan_id":"cebpf4jnsgd1na2vs0mg"},{"bike_id":"d4dbf191-855e-45bd-9530-9bec30d1654f","system_id":"levelo_inurba_marseille","lat":43.27055,"lon":5.40262,"is_reserved":false,"is_disabled":false,"rental_uris":{"android":"levelo://app?vid=d4dbf191-855e-45bd-9530-9bec30d1654f","ios":"levelo://app?vid=d4dbf191-855e-45bd-9530-9bec30d1654f"},"vehicle_type_id":"4","last_reported":1750522290,"current_range_meters":9200,"station_id":"ce4bhk92rcd13ifvqgc0","pricing_plan_id":"cebpf4jnsgd1na2vs0mg"},{"bike_id":"3e054cd5-c12f-4552-839e-9c4646f05d5a","system_id":"levelo_inurba_marseille","lat":43.30376,"lon":5.42492,"is_reserved":false,"is_disabled":false,"rental_uris":{"android":"levelo://app?vid=3e054cd5-c12f-4552-839e-9c4646f05d5a","ios":"levelo://app?vid=3e054cd5-c12f-4552-839e-9c4646f05d5a"},"vehicle_type_id":"4","last_reported":1750522290,"current_range_meters":9200,"station_id":"ce4bhoh2rcd13ifvqh6g","pricing_plan_id":"cebpf4jnsgd1na2vs0mg"},{"bike_id":"4e625f3d-a095-4ffb-a2cb-79e8eac501f8","system_id":"levelo_inurba_marseille","lat":43.32647,"lon":5.41012,"is_reserved":false,"is_disabled":false,"rental_uris":{"android":"levelo://app?vid=4e625f3d-a095-4ffb-a2cb-79e8eac501f8","ios":"levelo://app?vid=4e625f3d-a095-4ffb-a2cb-79e8eac501f8"},"vehicle_type_id":"4","last_reported":1750522290,"current_range_meters":9200,"station_id":"ce4bhpp2rcd13ifvqhgg","pricing_plan_id":"cebpf4jnsgd1na2vs0mg"},{"bike_id":"80446519-e877-4809-9114-1064a19d50ec","system_id":"levelo_inurba_marseille","lat":43.2801,"lon":5.36971,"is_reserved":false,"is_disabled":false,"rental_uris":{"android":"levelo://app?vid=80446519-e877-4809-9114-1064a19d50ec","ios":"levelo://app?vid=80446519-e877-4809-9114-1064a19d50ec"},"vehicle_type_id":"4","last_reported":1750522290,"current_range_meters":9600,"station_id":"ce4bha12rcd13ifvqef0","pricing_plan_id":"cebpf4jnsgd1na2vs0mg"},{"bike_id":"b43dd87e-b296-4299-8374-eb747fb46bf2","system_id":"levelo_inurba_marseille","lat":43.262098,"lon":5.37443,"is_reserved":false,"is_disabled":false,"rental_uris":{"android":"levelo://app?vid=b43dd87e-b296-4299-8374-eb747fb46bf2","ios":"levelo://app?vid=b43dd87e-b296-4299-8374-eb747fb46bf2"},"vehicle_type_id":"4","last_reported":1750522290,"current_range_meters":9600,"station_id":"ce4bhgp2rcd13ifvqfc0","pricing_plan_id":"cebpf4jnsgd1na2vs0mg"},{"bike_id":"4c7f0a88-98fa-4c22-9ee0-fe0aece5ffe2","system_id":"levelo_inurba_marseille","lat":43.25124,"lon":5.4032,"is_reserved":false,"is_disabled":false,"rental_uris":{"android":"levelo://app?vid=4c7f0a88-98fa-4c22-9ee0-fe0aece5ffe2","ios":"levelo://app?vid=4c7f0a88-98fa-4c22-9ee0-fe0aece5ffe2"},"vehicle_type_id":"4","last_reported":1750522290,"current_range_meters":9600,"station_id":"ce4bhlh2rcd13ifvqgig","pricing_plan_id":"cebpf4jnsgd1na2vs0mg"},{"bike_id":"1438a182-8bf3-4520-b90a-4794031d4e8c","system_id":"levelo_inurba_marseille","lat":43.23149,"lon":5.43723,"is_reserved":false,"is_disabled":false,"rental_uris":{"android":"levelo://app?vid=1438a182-8bf3-4520-b90a-4794031d4e8c","ios":"levelo://app?vid=1438a182-8bf3-4520-b90a-4794031d4e8c"},"vehicle_type_id":"4","last_reported":1750522290,"current_range_meters":9600,"station_id":"ce4bhmp2rcd13ifvqgog","pricing_plan_id":"cebpf4jnsgd1na2vs0mg"},{"bike_id":"7bff1dbb-4ce3-46e4-9025-64ec057e4313","system_id":"levelo_inurba_marseille","lat":43.231948,"lon":5.355521,"is_reserved":false,"is_disabled":false,"rental_uris":{"android":"levelo://app?vid=7bff1dbb-4ce3-46e4-9025-64ec057e4313","ios":"levelo://app?vid=7bff1dbb-4ce3-46e4-9025-64ec057e4313"},"vehicle_type_id":"4","last_reported":1750522290,"current_range_meters":9600,"station_id":"ce4bhu92rcd13ifvqi70","pricing_plan_id":"cebpf4jnsgd1na2vs0mg"},{"bike_id":"bd27fe72-6fbc-453f-8b77-bee10ab3b13c","system_id":"levelo_inurba_marseille","lat":43.2953,"lon":5.42357,"is_reserved":false,"is_disabled":false,"rental_uris":{"android":"levelo://app?vid=bd27fe72-6fbc-453f-8b77-bee10ab3b13c","ios":"levelo://app?vid=bd27fe72-6fbc-453f-8b77-bee10ab3b13c"},"vehicle_type_id":"4","last_reported":1750522290,"current_range_meters":10000,"station_id":"","pricing_plan_id":"cebpf4jnsgd1na2vs0mg"},{"bike_id":"038d1165-6ba9-4191-b934-d60aa31aba8c","system_id":"levelo_inurba_marseille","lat":43.23159,"lon":5.43717,"is_reserved":false,"is_disabled":false,"rental_uris":{"android":"levelo://app?vid=038d1165-6ba9-4191-b934-d60aa31aba8c","ios":"levelo://app?vid=038d1165-6ba9-4191-b934-d60aa31aba8c"},"vehicle_type_id":"4","last_reported":1750522290,"current_range_meters":10000,"station_id":"ce4bhmp2rcd13ifvqgog","pricing_plan_id":"cebpf4jnsgd1na2vs0mg"},{"bike_id":"1061f478-72d6-4296-89d8-31dd76220114","system_id":"levelo_inurba_marseille","lat":43.24075,"lon":5.37764,"is_reserved":false,"is_disabled":false,"rental_uris":{"android":"levelo://app?vid=1061f478-72d6-4296-89d8-31dd76220114","ios":"levelo://app?vid=1061f478-72d6-4296-89d8-31dd76220114"},"vehicle_type_id":"4","last_reported":1750522290,"current_range_meters":10000,"station_id":"ce4bhnp2rcd13ifvqgvg","pricing_plan_id":"cebpf4jnsgd1na2vs0mg"},{"bike_id":"9ac906cc-c30d-4448-8abc-7046aafa6c39","system_id":"levelo_inurba_marseille","lat":43.231953,"lon":5.355578,"is_reserved":false,"is_disabled":false,"rental_uris":{"android":"levelo://app?vid=9ac906cc-c30d-4448-8abc-7046aafa6c39","ios":"levelo://app?vid=9ac906cc-c30d-4448-8abc-7046aafa6c39"},"vehicle_type_id":"4","last_reported":1750522290,"current_range_meters":10000,"station_id":"ce4bhu92rcd13ifvqi70","pricing_plan_id":"cebpf4jnsgd1na2vs0mg"},{"bike_id":"dc540ba2-fb63-45eb-b83a-1826fb3d30b7","system_id":"levelo_inurba_marseille","lat":43.245938,"lon":5.392497,"is_reserved":false,"is_disabled":false,"rental_uris":{"android":"levelo://app?vid=dc540ba2-fb63-45eb-b83a-1826fb3d30b7","ios":"levelo://app?vid=dc540ba2-fb63-45eb-b83a-1826fb3d30b7"},"vehicle_type_id":"4","last_reported":1750522290,"current_range_meters":10800,"station_id":"","pricing_plan_id":"cebpf4jnsgd1na2vs0mg"},{"bike_id":"8d5eeb77-60a3-4d69-9687-b8e6b551b11c","system_id":"levelo_inurba_marseille","lat":43.27829,"lon":5.41457,"is_reserved":false,"is_disabled":false,"rental_uris":{"android":"levelo://app?vid=8d5eeb77-60a3-4d69-9687-b8e6b551b11c","ios":"levelo://app?vid=8d5eeb77-60a3-4d69-9687-b8e6b551b11c"},"vehicle_type_id":"4","last_reported":1750522290,"current_range_meters":10800,"station_id":"","pricing_plan_id":"cebpf4jnsgd1na2vs0mg"},{"bike_id":"8ebd5dc2-04da-427c-888e-c0a64890efc7","system_id":"levelo_inurba_marseille","lat":43.29168,"lon":5.37168,"is_reserved":false,"is_disabled":false,"rental_uris":{"android":"levelo://app?vid=8ebd5dc2-04da-427c-888e-c0a64890efc7","ios":"levelo://app?vid=8ebd5dc2-04da-427c-888e-c0a64890efc7"},"vehicle_type_id":"4","last_reported":1750522290,"current_range_meters":10800,"station_id":"ce4bha92rcd13ifvqeh0","pricing_plan_id":"cebpf4jnsgd1na2vs0mg"},{"bike_id":"306d807b-09e3-4cc3-90b2-504dd2737f8a","system_id":"levelo_inurba_marseille","lat":43.29007,"lon":5.35614,"is_reserved":false,"is_disabled":false,"rental_uris":{"android":"levelo://app?vid=306d807b-09e3-4cc3-90b2-504dd2737f8a","ios":"levelo://app?vid=306d807b-09e3-4cc3-90b2-504dd2737f8a"},"vehicle_type_id":"4","last_reported":1750522290,"current_range_meters":10800,"station_id":"ce4bhb92rcd13ifvqen0","pricing_plan_id":"cebpf4jnsgd1na2vs0mg"},{"bike_id":"bae794a4-d206-4eaa-9888-7ffb89287003","system_id":"levelo_inurba_marseille","lat":43.24396,"lon":5.37037,"is_reserved":false,"is_disabled":false,"rental_uris":{"android":"levelo://app?vid=bae794a4-d206-4eaa-9888-7ffb89287003","ios":"levelo://app?vid=bae794a4-d206-4eaa-9888-7ffb89287003"},"vehicle_type_id":"4","last_reported":1750522290,"current_range_meters":10800,"station_id":"ce4bhhh2rcd13ifvqfk0","pricing_plan_id":"cebpf4jnsgd1na2vs0mg"},{"bike_id":"1bae81cf-6b68-499c-8e79-8d1e4c7a5c79","system_id":"levelo_inurba_marseille","lat":43.25581,"lon":5.3824,"is_reserved":false,"is_disabled":false,"rental_uris":{"android":"levelo://app?vid=1bae81cf-6b68-499c-8e79-8d1e4c7a5c79","ios":"levelo://app?vid=1bae81cf-6b68-499c-8e79-8d1e4c7a5c79"},"vehicle_type_id":"4","last_reported":1750522290,"current_range_meters":10800,"station_id":"ce4bhih2rcd13ifvqfs0","pricing_plan_id":"cebpf4jnsgd1na2vs0mg"},{"bike_id":"8ef11a45-504d-45b0-a2b5-97fef9594218","system_id":"levelo_inurba_marseille","lat":43.2957,"lon":5.38176,"is_reserved":false,"is_disabled":false,"rental_uris":{"android":"levelo://app?vid=8ef11a45-504d-45b0-a2b5-97fef9594218","ios":"levelo://app?vid=8ef11a45-504d-45b0-a2b5-97fef9594218"},"vehicle_type_id":"4","last_reported":1750522290,"current_range_meters":11200,"station_id":"","pricing_plan_id":"cebpf4jnsgd1na2vs0mg"},{"bike_id":"9256b76d-1ecf-4bd6-91c4-9bf87818b61a","system_id":"levelo_inurba_marseille","lat":43.30256,"lon":5.40058,"is_reserved":false,"is_disabled":false,"rental_uris":{"android":"levelo://app?vid=9256b76d-1ecf-4bd6-91c4-9bf87818b61a","ios":"levelo://app?vid=9256b76d-1ecf-4bd6-91c4-9bf87818b61a"},"vehicle_type_id":"4","last_reported":1750522290,"current_range_meters":11200,"station_id":"ce4bgvh2rcd13ifvqcs0","pricing_plan_id":"cebpf4jnsgd1na2vs0mg"},{"bike_id":"9364c100-2ad0-4ee7-8f5d-dc878c4b33e6","system_id":"levelo_inurba_marseille","lat":43.30422,"lon":5.41285,"is_reserved":false,"is_disabled":false,"rental_uris":{"android":"levelo://app?vid=9364c100-2ad0-4ee7-8f5d-dc878c4b33e6","ios":"levelo://app?vid=9364c100-2ad0-4ee7-8f5d-dc878c4b33e6"},"vehicle_type_id":"4","last_reported":1750522290,"current_range_meters":11200,"station_id":"ce4bhop2rcd13ifvqh8g","pricing_plan_id":"cebpf4jnsgd1na2vs0mg"},{"bike_id":"b388e53b-de48-427b-8e9b-348b36b57f00","system_id":"levelo_inurba_marseille","lat":43.232,"lon":5.35523,"is_reserved":false,"is_disabled":false,"rental_uris":{"android":"levelo://app?vid=b388e53b-de48-427b-8e9b-348b36b57f00","ios":"levelo://app?vid=b388e53b-de48-427b-8e9b-348b36b57f00"},"vehicle_type_id":"4","last_reported":1750522290,"current_range_meters":11200,"station_id":"ce4bhu92rcd13ifvqi70","pricing_plan_id":"cebpf4jnsgd1na2vs0mg"},{"bike_id":"273f3904-bf29-4421-b9b7-10fb6b0b0f45","system_id":"levelo_inurba_marseille","lat":43.30734,"lon":5.42435,"is_reserved":false,"is_disabled":false,"rental_uris":{"android":"levelo://app?vid=273f3904-bf29-4421-b9b7-10fb6b0b0f45","ios":"levelo://app?vid=273f3904-bf29-4421-b9b7-10fb6b0b0f45"},"vehicle_type_id":"4","last_reported":1750522290,"current_range_meters":11200,"station_id":"st_cvj6ca6bvosntc0bfgr0","pricing_plan_id":"cebpf4jnsgd1na2vs0mg"},{"bike_id":"d40af265-11b5-43a6-9bb6-f910f57901ba","system_id":"levelo_inurba_marseille","lat":43.33033,"lon":5.38002,"is_reserved":false,"is_disabled":false,"rental_uris":{"android":"levelo://app?vid=d40af265-11b5-43a6-9bb6-f910f57901ba","ios":"levelo://app?vid=d40af265-11b5-43a6-9bb6-f910f57901ba"},"vehicle_type_id":"4","last_reported":1750522290,"current_range_meters":11600,"station_id":"","pricing_plan_id":"cebpf4jnsgd1na2vs0mg"},{"bike_id":"ab3d1a0a-3af0-4f55-9da3-ce819b90fc50","system_id":"levelo_inurba_marseille","lat":43.30566,"lon":5.36573,"is_reserved":false,"is_disabled":false,"rental_uris":{"android":"levelo://app?vid=ab3d1a0a-3af0-4f55-9da3-ce819b90fc50","ios":"levelo://app?vid=ab3d1a0a-3af0-4f55-9da3-ce819b90fc50"},"vehicle_type_id":"4","last_reported":1750522290,"current_range_meters":11600,"station_id":"ce4bgs12rcd13ifvqcag","pricing_plan_id":"cebpf4jnsgd1na2vs0mg"},{"bike_id":"af1730ca-6980-4ea8-b80f-2eb12a03f93a","system_id":"levelo_inurba_marseille","lat":43.28851,"lon":5.35848,"is_reserved":false,"is_disabled":false,"rental_uris":{"android":"levelo://app?vid=af1730ca-6980-4ea8-b80f-2eb12a03f93a","ios":"levelo://app?vid=af1730ca-6980-4ea8-b80f-2eb12a03f93a"},"vehicle_type_id":"4","last_reported":1750522290,"current_range_meters":11600,"station_id":"ce4bhb12rcd13ifvqem0","pricing_plan_id":"cebpf4jnsgd1na2vs0mg"},{"bike_id":"975b81ff-b5a5-4f6b-8502-2c7ae428df8d","system_id":"levelo_inurba_marseille","lat":43.26193,"lon":5.3745,"is_reserved":false,"is_disabled":false,"rental_uris":{"android":"levelo://app?vid=975b81ff-b5a5-4f6b-8502-2c7ae428df8d","ios":"levelo://app?vid=975b81ff-b5a5-4f6b-8502-2c7ae428df8d"},"vehicle_type_id":"4","last_reported":1750522290,"current_range_meters":11600,"station_id":"ce4bhgp2rcd13ifvqfc0","pricing_plan_id":"cebpf4jnsgd1na2vs0mg"},{"bike_id":"3e58649e-5c00-425c-8b29-6224f6474a33","system_id":"levelo_inurba_marseille","lat":43.24391,"lon":5.37074,"is_reserved":false,"is_disabled":false,"rental_uris":{"android":"levelo://app?vid=3e58649e-5c00-425c-8b29-6224f6474a33","ios":"levelo://app?vid=3e58649e-5c00-425c-8b29-6224f6474a33"},"vehicle_type_id":"4","last_reported":1750522290,"current_range_meters":11600,"station_id":"ce4bhhh2rcd13ifvqfk0","pricing_plan_id":"cebpf4jnsgd1na2vs0mg"},{"bike_id":"abe2f17c-bd48-4b4a-b178-f4dffb5e1bd7","system_id":"levelo_inurba_marseille","lat":43.27206,"lon":5.39182,"is_reserved":false,"is_disabled":false,"rental_uris":{"android":"levelo://app?vid=abe2f17c-bd48-4b4a-b178-f4dffb5e1bd7","ios":"levelo://app?vid=abe2f17c-bd48-4b4a-b178-f4dffb5e1bd7"},"vehicle_type_id":"4","last_reported":1750522290,"current_range_meters":11600,"station_id":"ce4bhhp2rcd13ifvqfm0","pricing_plan_id":"cebpf4jnsgd1na2vs0mg"},{"bike_id":"4643bc90-1bac-4c4b-98b1-e2d500830573","system_id":"levelo_inurba_marseille","lat":43.31347,"lon":5.37653,"is_reserved":false,"is_disabled":false,"rental_uris":{"android":"levelo://app?vid=4643bc90-1bac-4c4b-98b1-e2d500830573","ios":"levelo://app?vid=4643bc90-1bac-4c4b-98b1-e2d500830573"},"vehicle_type_id":"4","last_reported":1750522290,"current_range_meters":12000,"station_id":"","pricing_plan_id":"cebpf4jnsgd1na2vs0mg"},{"bike_id":"a22aa312-0025-4f42-88e2-b1e95e79340f","system_id":"levelo_inurba_marseille","lat":43.31612,"lon":5.38376,"is_reserved":false,"is_disabled":false,"rental_uris":{"android":"levelo://app?vid=a22aa312-0025-4f42-88e2-b1e95e79340f","ios":"levelo://app?vid=a22aa312-0025-4f42-88e2-b1e95e79340f"},"vehicle_type_id":"4","last_reported":1750522290,"current_range_meters":12000,"station_id":"","pricing_plan_id":"cebpf4jnsgd1na2vs0mg"},{"bike_id":"765db69c-3da1-4a9d-ab4e-75a23b78cbe1","system_id":"levelo_inurba_marseille","lat":43.286847,"lon":5.374162,"is_reserved":false,"is_disabled":false,"rental_uris":{"android":"levelo://app?vid=765db69c-3da1-4a9d-ab4e-75a23b78cbe1","ios":"levelo://app?vid=765db69c-3da1-4a9d-ab4e-75a23b78cbe1"},"vehicle_type_id":"4","last_reported":1750522290,"current_range_meters":12000,"station_id":"ce4bh3p2rcd13ifvqdq0","pricing_plan_id":"cebpf4jnsgd1na2vs0mg"},{"bike_id":"119a023f-42ec-4111-8112-532288e80ef3","system_id":"levelo_inurba_marseille","lat":43.26207,"lon":5.37446,"is_reserved":false,"is_disabled":false,"rental_uris":{"android":"levelo://app?vid=119a023f-42ec-4111-8112-532288e80ef3","ios":"levelo://app?vid=119a023f-42ec-4111-8112-532288e80ef3"},"vehicle_type_id":"4","last_reported":1750522290,"current_range_meters":12000,"station_id":"ce4bhgp2rcd13ifvqfc0","pricing_plan_id":"cebpf4jnsgd1na2vs0mg"},{"bike_id":"f4b3b4af-6979-4ab7-85cc-22783bce37cc","system_id":"levelo_inurba_marseille","lat":43.29265,"lon":5.37635,"is_reserved":false,"is_disabled":false,"rental_uris":{"android":"levelo://app?vid=f4b3b4af-6979-4ab7-85cc-22783bce37cc","ios":"levelo://app?vid=f4b3b4af-6979-4ab7-85cc-22783bce37cc"},"vehicle_type_id":"4","last_reported":1750522290,"current_range_meters":12400,"station_id":"ce4bgi12rcd13ifvqb80","pricing_plan_id":"cebpf4jnsgd1na2vs0mg"},{"bike_id":"f607ce55-c35e-4a67-b5ad-4fe378bc5ee8","system_id":"levelo_inurba_marseille","lat":43.31239,"lon":5.36842,"is_reserved":false,"is_disabled":false,"rental_uris":{"android":"levelo://app?vid=f607ce55-c35e-4a67-b5ad-4fe378bc5ee8","ios":"levelo://app?vid=f607ce55-c35e-4a67-b5ad-4fe378bc5ee8"},"vehicle_type_id":"4","last_reported":1750522290,"current_range_meters":12400,"station_id":"ce4bgl92rcd13ifvqbq0","pricing_plan_id":"cebpf4jnsgd1na2vs0mg"},{"bike_id":"247b80b7-10fe-40f5-848b-d8ff192ca5b8","system_id":"levelo_inurba_marseille","lat":43.28029,"lon":5.36951,"is_reserved":false,"is_disabled":false,"rental_uris":{"android":"levelo://app?vid=247b80b7-10fe-40f5-848b-d8ff192ca5b8","ios":"levelo://app?vid=247b80b7-10fe-40f5-848b-d8ff192ca5b8"},"vehicle_type_id":"4","last_reported":1750522290,"current_range_meters":12400,"station_id":"ce4bha12rcd13ifvqef0","pricing_plan_id":"cebpf4jnsgd1na2vs0mg"},{"bike_id":"de668a56-0cea-4b6c-83b1-858012df297b","system_id":"levelo_inurba_marseille","lat":43.26561,"lon":5.37282,"is_reserved":false,"is_disabled":false,"rental_uris":{"android":"levelo://app?vid=de668a56-0cea-4b6c-83b1-858012df297b","ios":"levelo://app?vid=de668a56-0cea-4b6c-83b1-858012df297b"},"vehicle_type_id":"4","last_reported":1750522290,"current_range_meters":12400,"station_id":"ce4bhg12rcd13ifvqf70","pricing_plan_id":"cebpf4jnsgd1na2vs0mg"},{"bike_id":"b92cf024-c093-4c6a-a3e9-b0e331908c9a","system_id":"levelo_inurba_marseille","lat":43.281498,"lon":5.426417,"is_reserved":false,"is_disabled":false,"rental_uris":{"android":"levelo://app?vid=b92cf024-c093-4c6a-a3e9-b0e331908c9a","ios":"levelo://app?vid=b92cf024-c093-4c6a-a3e9-b0e331908c9a"},"vehicle_type_id":"4","last_reported":1750522290,"current_range_meters":12800,"station_id":"ce4bh092rcd13ifvqd30","pricing_plan_id":"cebpf4jnsgd1na2vs0mg"},{"bike_id":"3fe995b6-38ba-4766-9903-aeca59026e8d","system_id":"levelo_inurba_marseille","lat":43.292,"lon":5.39302,"is_reserved":false,"is_disabled":false,"rental_uris":{"android":"levelo://app?vid=3fe995b6-38ba-4766-9903-aeca59026e8d","ios":"levelo://app?vid=3fe995b6-38ba-4766-9903-aeca59026e8d"},"vehicle_type_id":"4","last_reported":1750522290,"current_range_meters":12800,"station_id":"ce4bh192rcd13ifvqdd0","pricing_plan_id":"cebpf4jnsgd1na2vs0mg"},{"bike_id":"f9c996cc-0bf5-45c9-b0ec-d0b25f72dfff","system_id":"levelo_inurba_marseille","lat":43.27213,"lon":5.39179,"is_reserved":false,"is_disabled":false,"rental_uris":{"android":"levelo://app?vid=f9c996cc-0bf5-45c9-b0ec-d0b25f72dfff","ios":"levelo://app?vid=f9c996cc-0bf5-45c9-b0ec-d0b25f72dfff"},"vehicle_type_id":"4","last_reported":1750522290,"current_range_meters":12800,"station_id":"ce4bhhp2rcd13ifvqfm0","pricing_plan_id":"cebpf4jnsgd1na2vs0mg"},{"bike_id":"2da05b47-6a2c-4aef-9636-353f6ebedcbc","system_id":"levelo_inurba_marseille","lat":43.26229,"lon":5.40446,"is_reserved":false,"is_disabled":false,"rental_uris":{"android":"levelo://app?vid=2da05b47-6a2c-4aef-9636-353f6ebedcbc","ios":"levelo://app?vid=2da05b47-6a2c-4aef-9636-353f6ebedcbc"},"vehicle_type_id":"4","last_reported":1750522290,"current_range_meters":12800,"station_id":"ce4bhmh2rcd13ifvqgmg","pricing_plan_id":"cebpf4jnsgd1na2vs0mg"},{"bike_id":"88bf09e4-3a7d-4ae6-9054-21701bd604b0","system_id":"levelo_inurba_marseille","lat":43.26941,"lon":5.40253,"is_reserved":false,"is_disabled":false,"rental_uris":{"android":"levelo://app?vid=88bf09e4-3a7d-4ae6-9054-21701bd604b0","ios":"levelo://app?vid=88bf09e4-3a7d-4ae6-9054-21701bd604b0"},"vehicle_type_id":"4","last_reported":1750522290,"current_range_meters":12800,"station_id":"cjm6bp8fraef2m0cb0m0","pricing_plan_id":"cebpf4jnsgd1na2vs0mg"},{"bike_id":"cc41180d-6b86-40bf-91c0-b83cb21b8b49","system_id":"levelo_inurba_marseille","lat":43.26887,"lon":5.40254,"is_reserved":false,"is_disabled":false,"rental_uris":{"android":"levelo://app?vid=cc41180d-6b86-40bf-91c0-b83cb21b8b49","ios":"levelo://app?vid=cc41180d-6b86-40bf-91c0-b83cb21b8b49"},"vehicle_type_id":"4","last_reported":1750522290,"current_range_meters":13600,"station_id":"","pricing_plan_id":"cebpf4jnsgd1na2vs0mg"},{"bike_id":"45fc6665-dbe6-400b-83e0-c71a67f4ddec","system_id":"levelo_inurba_marseille","lat":43.23194,"lon":5.35554,"is_reserved":false,"is_disabled":false,"rental_uris":{"android":"levelo://app?vid=45fc6665-dbe6-400b-83e0-c71a67f4ddec","ios":"levelo://app?vid=45fc6665-dbe6-400b-83e0-c71a67f4ddec"},"vehicle_type_id":"4","last_reported":1750522290,"current_range_meters":13600,"station_id":"ce4bhu92rcd13ifvqi70","pricing_plan_id":"cebpf4jnsgd1na2vs0mg"},{"bike_id":"ef119b9f-74f5-4323-bd7b-10725bc86e56","system_id":"levelo_inurba_marseille","lat":43.24215,"lon":5.36381,"is_reserved":false,"is_disabled":false,"rental_uris":{"android":"levelo://app?vid=ef119b9f-74f5-4323-bd7b-10725bc86e56","ios":"levelo://app?vid=ef119b9f-74f5-4323-bd7b-10725bc86e56"},"vehicle_type_id":"4","last_reported":1750522290,"current_range_meters":13600,"station_id":"cpo36qri1sfpv3e86is0","pricing_plan_id":"cebpf4jnsgd1na2vs0mg"},{"bike_id":"3b37c758-ee15-4ae3-bffc-4baa10dc212a","system_id":"levelo_inurba_marseille","lat":43.29886,"lon":5.38458,"is_reserved":false,"is_disabled":false,"rental_uris":{"android":"levelo://app?vid=3b37c758-ee15-4ae3-bffc-4baa10dc212a","ios":"levelo://app?vid=3b37c758-ee15-4ae3-bffc-4baa10dc212a"},"vehicle_type_id":"4","last_reported":1750522290,"current_range_meters":14000,"station_id":"","pricing_plan_id":"cebpf4jnsgd1na2vs0mg"},{"bike_id":"72cad076-971d-403c-a8ad-cdfd40356f10","system_id":"levelo_inurba_marseille","lat":43.295285,"lon":5.38552,"is_reserved":false,"is_disabled":false,"rental_uris":{"android":"levelo://app?vid=72cad076-971d-403c-a8ad-cdfd40356f10","ios":"levelo://app?vid=72cad076-971d-403c-a8ad-cdfd40356f10"},"vehicle_type_id":"4","last_reported":1750522290,"current_range_meters":14000,"station_id":"ce4bgih2rcd13ifvqba0","pricing_plan_id":"cebpf4jnsgd1na2vs0mg"},{"bike_id":"6f78ed0e-9d76-4158-88e3-3ba4d778b2ba","system_id":"levelo_inurba_marseille","lat":43.30794,"lon":5.37647,"is_reserved":false,"is_disabled":false,"rental_uris":{"android":"levelo://app?vid=6f78ed0e-9d76-4158-88e3-3ba4d778b2ba","ios":"levelo://app?vid=6f78ed0e-9d76-4158-88e3-3ba4d778b2ba"},"vehicle_type_id":"4","last_reported":1750522290,"current_range_meters":14000,"station_id":"ce4bgv92rcd13ifvqcq0","pricing_plan_id":"cebpf4jnsgd1na2vs0mg"},{"bike_id":"903a7bc2-af61-4cff-a24e-7733c1689bf6","system_id":"levelo_inurba_marseille","lat":43.29265,"lon":5.38442,"is_reserved":false,"is_disabled":false,"rental_uris":{"android":"levelo://app?vid=903a7bc2-af61-4cff-a24e-7733c1689bf6","ios":"levelo://app?vid=903a7bc2-af61-4cff-a24e-7733c1689bf6"},"vehicle_type_id":"4","last_reported":1750522290,"current_range_meters":14000,"station_id":"ce4bh692rcd13ifvqea0","pricing_plan_id":"cebpf4jnsgd1na2vs0mg"},{"bike_id":"47b0e8ed-1505-41e8-9bb6-271f11e0cd62","system_id":"levelo_inurba_marseille","lat":43.28033,"lon":5.36949,"is_reserved":false,"is_disabled":false,"rental_uris":{"android":"levelo://app?vid=47b0e8ed-1505-41e8-9bb6-271f11e0cd62","ios":"levelo://app?vid=47b0e8ed-1505-41e8-9bb6-271f11e0cd62"},"vehicle_type_id":"4","last_reported":1750522290,"current_range_meters":14000,"station_id":"ce4bha12rcd13ifvqef0","pricing_plan_id":"cebpf4jnsgd1na2vs0mg"},{"bike_id":"bbaa5fb8-e5af-4d6a-9919-3d331a380d18","system_id":"levelo_inurba_marseille","lat":43.27213,"lon":5.39181,"is_reserved":false,"is_disabled":false,"rental_uris":{"android":"levelo://app?vid=bbaa5fb8-e5af-4d6a-9919-3d331a380d18","ios":"levelo://app?vid=bbaa5fb8-e5af-4d6a-9919-3d331a380d18"},"vehicle_type_id":"4","last_reported":1750522290,"current_range_meters":14000,"station_id":"ce4bhhp2rcd13ifvqfm0","pricing_plan_id":"cebpf4jnsgd1na2vs0mg"},{"bike_id":"284f1e7c-d8e5-4a8c-a382-8993909f9dd9","system_id":"levelo_inurba_marseille","lat":43.27175,"lon":5.40994,"is_reserved":false,"is_disabled":false,"rental_uris":{"android":"levelo://app?vid=284f1e7c-d8e5-4a8c-a382-8993909f9dd9","ios":"levelo://app?vid=284f1e7c-d8e5-4a8c-a382-8993909f9dd9"},"vehicle_type_id":"4","last_reported":1750522290,"current_range_meters":14000,"station_id":"ce4bhl12rcd13ifvqgf0","pricing_plan_id":"cebpf4jnsgd1na2vs0mg"},{"bike_id":"b935579a-e9d3-4ccf-a111-a22b8dbf997d","system_id":"levelo_inurba_marseille","lat":43.211943,"lon":5.350736,"is_reserved":false,"is_disabled":false,"rental_uris":{"android":"levelo://app?vid=b935579a-e9d3-4ccf-a111-a22b8dbf997d","ios":"levelo://app?vid=b935579a-e9d3-4ccf-a111-a22b8dbf997d"},"vehicle_type_id":"4","last_reported":1750522290,"current_range_meters":14400,"station_id":"","pricing_plan_id":"cebpf4jnsgd1na2vs0mg"},{"bike_id":"562c525e-da28-45b6-b9a0-97aac8bca779","system_id":"levelo_inurba_marseille","lat":43.295356,"lon":5.385789,"is_reserved":false,"is_disabled":false,"rental_uris":{"android":"levelo://app?vid=562c525e-da28-45b6-b9a0-97aac8bca779","ios":"levelo://app?vid=562c525e-da28-45b6-b9a0-97aac8bca779"},"vehicle_type_id":"4","last_reported":1750522290,"current_range_meters":14400,"station_id":"ce4bgih2rcd13ifvqba0","pricing_plan_id":"cebpf4jnsgd1na2vs0mg"},{"bike_id":"6c7d6944-0ba9-47bb-806f-f847d27a0d63","system_id":"levelo_inurba_marseille","lat":43.305521,"lon":5.365395,"is_reserved":false,"is_disabled":false,"rental_uris":{"android":"levelo://app?vid=6c7d6944-0ba9-47bb-806f-f847d27a0d63","ios":"levelo://app?vid=6c7d6944-0ba9-47bb-806f-f847d27a0d63"},"vehicle_type_id":"4","last_reported":1750522290,"current_range_meters":14400,"station_id":"ce4bgs12rcd13ifvqcag","pricing_plan_id":"cebpf4jnsgd1na2vs0mg"},{"bike_id":"5f7237a6-85b9-4948-907f-16a9d2fed4ba","system_id":"levelo_inurba_marseille","lat":43.30637,"lon":5.40081,"is_reserved":false,"is_disabled":false,"rental_uris":{"android":"levelo://app?vid=5f7237a6-85b9-4948-907f-16a9d2fed4ba","ios":"levelo://app?vid=5f7237a6-85b9-4948-907f-16a9d2fed4ba"},"vehicle_type_id":"4","last_reported":1750522290,"current_range_meters":14400,"station_id":"ce4bh112rcd13ifvqda0","pricing_plan_id":"cebpf4jnsgd1na2vs0mg"},{"bike_id":"ccccc292-f2c2-49f6-9853-e709a1762eef","system_id":"levelo_inurba_marseille","lat":43.29075,"lon":5.37182,"is_reserved":false,"is_disabled":false,"rental_uris":{"android":"levelo://app?vid=ccccc292-f2c2-49f6-9853-e709a1762eef","ios":"levelo://app?vid=ccccc292-f2c2-49f6-9853-e709a1762eef"},"vehicle_type_id":"4","last_reported":1750522290,"current_range_meters":14400,"station_id":"ce4bh5p2rcd13ifvqe4g","pricing_plan_id":"cebpf4jnsgd1na2vs0mg"},{"bike_id":"945c03d5-eb4d-48dd-bccd-334c4d190b5b","system_id":"levelo_inurba_marseille","lat":43.289316,"lon":5.366398,"is_reserved":false,"is_disabled":false,"rental_uris":{"android":"levelo://app?vid=945c03d5-eb4d-48dd-bccd-334c4d190b5b","ios":"levelo://app?vid=945c03d5-eb4d-48dd-bccd-334c4d190b5b"},"vehicle_type_id":"4","last_reported":1750522290,"current_range_meters":14400,"station_id":"ce4bhap2rcd13ifvqek0","pricing_plan_id":"cebpf4jnsgd1na2vs0mg"},{"bike_id":"8b499c04-8dde-4c05-8dcf-01ce074f9af5","system_id":"levelo_inurba_marseille","lat":43.26195,"lon":5.37458,"is_reserved":false,"is_disabled":false,"rental_uris":{"android":"levelo://app?vid=8b499c04-8dde-4c05-8dcf-01ce074f9af5","ios":"levelo://app?vid=8b499c04-8dde-4c05-8dcf-01ce074f9af5"},"vehicle_type_id":"4","last_reported":1750522290,"current_range_meters":14400,"station_id":"ce4bhgp2rcd13ifvqfc0","pricing_plan_id":"cebpf4jnsgd1na2vs0mg"},{"bike_id":"8dd6706e-8fc4-45d1-b23f-6c34e1fa90f6","system_id":"levelo_inurba_marseille","lat":43.25086,"lon":5.39525,"is_reserved":false,"is_disabled":false,"rental_uris":{"android":"levelo://app?vid=8dd6706e-8fc4-45d1-b23f-6c34e1fa90f6","ios":"levelo://app?vid=8dd6706e-8fc4-45d1-b23f-6c34e1fa90f6"},"vehicle_type_id":"4","last_reported":1750522290,"current_range_meters":14400,"station_id":"ce4bhm12rcd13ifvqgkg","pricing_plan_id":"cebpf4jnsgd1na2vs0mg"},{"bike_id":"14e5a118-9329-49b0-9f0b-29d4986d8e88","system_id":"levelo_inurba_marseille","lat":43.32352,"lon":5.36749,"is_reserved":false,"is_disabled":false,"rental_uris":{"android":"levelo://app?vid=14e5a118-9329-49b0-9f0b-29d4986d8e88","ios":"levelo://app?vid=14e5a118-9329-49b0-9f0b-29d4986d8e88"},"vehicle_type_id":"4","last_reported":1750522290,"current_range_meters":14400,"station_id":"ce4bhsh2rcd13ifvqi2g","pricing_plan_id":"cebpf4jnsgd1na2vs0mg"},{"bike_id":"96527144-0ffd-4719-bd95-647e348feeae","system_id":"levelo_inurba_marseille","lat":43.27618,"lon":5.36114,"is_reserved":false,"is_disabled":false,"rental_uris":{"android":"levelo://app?vid=96527144-0ffd-4719-bd95-647e348feeae","ios":"levelo://app?vid=96527144-0ffd-4719-bd95-647e348feeae"},"vehicle_type_id":"4","last_reported":1750522290,"current_range_meters":14800,"station_id":"ce4bgj92rcd13ifvqbe0","pricing_plan_id":"cebpf4jnsgd1na2vs0mg"},{"bike_id":"ab5ec484-58ef-4a27-a3fa-b0b40eea0073","system_id":"levelo_inurba_marseille","lat":43.27899,"lon":5.38023,"is_reserved":false,"is_disabled":false,"rental_uris":{"android":"levelo://app?vid=ab5ec484-58ef-4a27-a3fa-b0b40eea0073","ios":"levelo://app?vid=ab5ec484-58ef-4a27-a3fa-b0b40eea0073"},"vehicle_type_id":"4","last_reported":1750522290,"current_range_meters":14800,"station_id":"ce4bhf92rcd13ifvqf50","pricing_plan_id":"cebpf4jnsgd1na2vs0mg"},{"bike_id":"889482d8-c579-4f42-a23a-ce5c98e22d71","system_id":"levelo_inurba_marseille","lat":43.2722,"lon":5.3919,"is_reserved":false,"is_disabled":false,"rental_uris":{"android":"levelo://app?vid=889482d8-c579-4f42-a23a-ce5c98e22d71","ios":"levelo://app?vid=889482d8-c579-4f42-a23a-ce5c98e22d71"},"vehicle_type_id":"4","last_reported":1750522290,"current_range_meters":14800,"station_id":"ce4bhhp2rcd13ifvqfm0","pricing_plan_id":"cebpf4jnsgd1na2vs0mg"},{"bike_id":"7796f5e8-c31e-4b7a-984f-643f7f59ed17","system_id":"levelo_inurba_marseille","lat":43.27054,"lon":5.40266,"is_reserved":false,"is_disabled":false,"rental_uris":{"android":"levelo://app?vid=7796f5e8-c31e-4b7a-984f-643f7f59ed17","ios":"levelo://app?vid=7796f5e8-c31e-4b7a-984f-643f7f59ed17"},"vehicle_type_id":"4","last_reported":1750522290,"current_range_meters":14800,"station_id":"ce4bhk92rcd13ifvqgc0","pricing_plan_id":"cebpf4jnsgd1na2vs0mg"},{"bike_id":"f9f2d1c4-ac80-4f0c-83f2-bf02e8850437","system_id":"levelo_inurba_marseille","lat":43.27056,"lon":5.40256,"is_reserved":false,"is_disabled":false,"rental_uris":{"android":"levelo://app?vid=f9f2d1c4-ac80-4f0c-83f2-bf02e8850437","ios":"levelo://app?vid=f9f2d1c4-ac80-4f0c-83f2-bf02e8850437"},"vehicle_type_id":"4","last_reported":1750522290,"current_range_meters":14800,"station_id":"ce4bhk92rcd13ifvqgc0","pricing_plan_id":"cebpf4jnsgd1na2vs0mg"},{"bike_id":"442b870b-26c2-45ed-8757-2a114115e8ca","system_id":"levelo_inurba_marseille","lat":43.25089,"lon":5.39517,"is_reserved":false,"is_disabled":false,"rental_uris":{"android":"levelo://app?vid=442b870b-26c2-45ed-8757-2a114115e8ca","ios":"levelo://app?vid=442b870b-26c2-45ed-8757-2a114115e8ca"},"vehicle_type_id":"4","last_reported":1750522290,"current_range_meters":14800,"station_id":"ce4bhm12rcd13ifvqgkg","pricing_plan_id":"cebpf4jnsgd1na2vs0mg"},{"bike_id":"a4a210b7-0995-4db8-8f6a-3163dc5bfc8f","system_id":"levelo_inurba_marseille","lat":43.231953,"lon":5.355503,"is_reserved":false,"is_disabled":false,"rental_uris":{"android":"levelo://app?vid=a4a210b7-0995-4db8-8f6a-3163dc5bfc8f","ios":"levelo://app?vid=a4a210b7-0995-4db8-8f6a-3163dc5bfc8f"},"vehicle_type_id":"4","last_reported":1750522290,"current_range_meters":14800,"station_id":"ce4bhu92rcd13ifvqi70","pricing_plan_id":"cebpf4jnsgd1na2vs0mg"},{"bike_id":"f65c6728-cf25-4980-b406-d78d516c43fa","system_id":"levelo_inurba_marseille","lat":43.21743,"lon":5.34607,"is_reserved":false,"is_disabled":false,"rental_uris":{"android":"levelo://app?vid=f65c6728-cf25-4980-b406-d78d516c43fa","ios":"levelo://app?vid=f65c6728-cf25-4980-b406-d78d516c43fa"},"vehicle_type_id":"4","last_reported":1750522290,"current_range_meters":14800,"station_id":"st_cvj6r9ubvosntc0bgbag","pricing_plan_id":"cebpf4jnsgd1na2vs0mg"},{"bike_id":"0cc71e27-51b7-43f4-a512-202439baca4f","system_id":"levelo_inurba_marseille","lat":43.29906,"lon":5.37487,"is_reserved":false,"is_disabled":false,"rental_uris":{"android":"levelo://app?vid=0cc71e27-51b7-43f4-a512-202439baca4f","ios":"levelo://app?vid=0cc71e27-51b7-43f4-a512-202439baca4f"},"vehicle_type_id":"4","last_reported":1750522290,"current_range_meters":15200,"station_id":"ce4bgjh2rcd13ifvqbg0","pricing_plan_id":"cebpf4jnsgd1na2vs0mg"},{"bike_id":"c3cbadaf-3d41-4cd6-ac1e-0afb48685945","system_id":"levelo_inurba_marseille","lat":43.3031,"lon":5.36886,"is_reserved":false,"is_disabled":false,"rental_uris":{"android":"levelo://app?vid=c3cbadaf-3d41-4cd6-ac1e-0afb48685945","ios":"levelo://app?vid=c3cbadaf-3d41-4cd6-ac1e-0afb48685945"},"vehicle_type_id":"4","last_reported":1750522290,"current_range_meters":15200,"station_id":"ce4bgqh2rcd13ifvqc5g","pricing_plan_id":"cebpf4jnsgd1na2vs0mg"},{"bike_id":"b139812f-e6b0-4928-8435-cf26844a51ac","system_id":"levelo_inurba_marseille","lat":43.30782,"lon":5.37642,"is_reserved":false,"is_disabled":false,"rental_uris":{"android":"levelo://app?vid=b139812f-e6b0-4928-8435-cf26844a51ac","ios":"levelo://app?vid=b139812f-e6b0-4928-8435-cf26844a51ac"},"vehicle_type_id":"4","last_reported":1750522290,"current_range_meters":15200,"station_id":"ce4bgv92rcd13ifvqcq0","pricing_plan_id":"cebpf4jnsgd1na2vs0mg"},{"bike_id":"42af1ad6-6df7-4506-b6a1-de51a02c0b15","system_id":"levelo_inurba_marseille","lat":43.2928,"lon":5.36848,"is_reserved":false,"is_disabled":false,"rental_uris":{"android":"levelo://app?vid=42af1ad6-6df7-4506-b6a1-de51a02c0b15","ios":"levelo://app?vid=42af1ad6-6df7-4506-b6a1-de51a02c0b15"},"vehicle_type_id":"4","last_reported":1750522290,"current_range_meters":15200,"station_id":"ce4bhbp2rcd13ifvqesg","pricing_plan_id":"cebpf4jnsgd1na2vs0mg"},{"bike_id":"b963b4c7-b314-4ddb-825b-844efc6b2419","system_id":"levelo_inurba_marseille","lat":43.26206,"lon":5.37445,"is_reserved":false,"is_disabled":false,"rental_uris":{"android":"levelo://app?vid=b963b4c7-b314-4ddb-825b-844efc6b2419","ios":"levelo://app?vid=b963b4c7-b314-4ddb-825b-844efc6b2419"},"vehicle_type_id":"4","last_reported":1750522290,"current_range_meters":15200,"station_id":"ce4bhgp2rcd13ifvqfc0","pricing_plan_id":"cebpf4jnsgd1na2vs0mg"},{"bike_id":"f88f66c2-a73e-4c0b-90f9-8ebddb3e3b73","system_id":"levelo_inurba_marseille","lat":43.26162,"lon":5.37458,"is_reserved":false,"is_disabled":false,"rental_uris":{"android":"levelo://app?vid=f88f66c2-a73e-4c0b-90f9-8ebddb3e3b73","ios":"levelo://app?vid=f88f66c2-a73e-4c0b-90f9-8ebddb3e3b73"},"vehicle_type_id":"4","last_reported":1750522290,"current_range_meters":15200,"station_id":"ce4bhgp2rcd13ifvqfc0","pricing_plan_id":"cebpf4jnsgd1na2vs0mg"},{"bike_id":"9a8de4f3-8323-4654-a5ab-1d863263f174","system_id":"levelo_inurba_marseille","lat":43.2619,"lon":5.37449,"is_reserved":false,"is_disabled":false,"rental_uris":{"android":"levelo://app?vid=9a8de4f3-8323-4654-a5ab-1d863263f174","ios":"levelo://app?vid=9a8de4f3-8323-4654-a5ab-1d863263f174"},"vehicle_type_id":"4","last_reported":1750522290,"current_range_meters":15200,"station_id":"ce4bhgp2rcd13ifvqfc0","pricing_plan_id":"cebpf4jnsgd1na2vs0mg"},{"bike_id":"9e026dd9-b7fd-4574-b6ae-0d7f2dcaf50e","system_id":"levelo_inurba_marseille","lat":43.26228,"lon":5.40455,"is_reserved":false,"is_disabled":false,"rental_uris":{"android":"levelo://app?vid=9e026dd9-b7fd-4574-b6ae-0d7f2dcaf50e","ios":"levelo://app?vid=9e026dd9-b7fd-4574-b6ae-0d7f2dcaf50e"},"vehicle_type_id":"4","last_reported":1750522290,"current_range_meters":15200,"station_id":"ce4bhmh2rcd13ifvqgmg","pricing_plan_id":"cebpf4jnsgd1na2vs0mg"},{"bike_id":"74c7d3a0-20a5-4854-b2da-e3b7e141ba02","system_id":"levelo_inurba_marseille","lat":43.21187,"lon":5.35074,"is_reserved":false,"is_disabled":false,"rental_uris":{"android":"levelo://app?vid=74c7d3a0-20a5-4854-b2da-e3b7e141ba02","ios":"levelo://app?vid=74c7d3a0-20a5-4854-b2da-e3b7e141ba02"},"vehicle_type_id":"4","last_reported":1750522290,"current_range_meters":15200,"station_id":"st_cvj6sg6p6f1abm77japg","pricing_plan_id":"cebpf4jnsgd1na2vs0mg"},{"bike_id":"6a4b59b0-64b7-4950-ae73-2324ba55dcce","system_id":"levelo_inurba_marseille","lat":43.33034,"lon":5.38168,"is_reserved":false,"is_disabled":false,"rental_uris":{"android":"levelo://app?vid=6a4b59b0-64b7-4950-ae73-2324ba55dcce","ios":"levelo://app?vid=6a4b59b0-64b7-4950-ae73-2324ba55dcce"},"vehicle_type_id":"4","last_reported":1750522290,"current_range_meters":16000,"station_id":"","pricing_plan_id":"cebpf4jnsgd1na2vs0mg"},{"bike_id":"e3c4d7b9-f727-45c0-b5fe-16201bc25137","system_id":"levelo_inurba_marseille","lat":43.30179,"lon":5.36616,"is_reserved":false,"is_disabled":false,"rental_uris":{"android":"levelo://app?vid=e3c4d7b9-f727-45c0-b5fe-16201bc25137","ios":"levelo://app?vid=e3c4d7b9-f727-45c0-b5fe-16201bc25137"},"vehicle_type_id":"4","last_reported":1750522290,"current_range_meters":16000,"station_id":"ce4bgrh2rcd13ifvqc8g","pricing_plan_id":"cebpf4jnsgd1na2vs0mg"},{"bike_id":"32ce7720-880c-469d-8048-027c8631c176","system_id":"levelo_inurba_marseille","lat":43.25503,"lon":5.37658,"is_reserved":false,"is_disabled":false,"rental_uris":{"android":"levelo://app?vid=32ce7720-880c-469d-8048-027c8631c176","ios":"levelo://app?vid=32ce7720-880c-469d-8048-027c8631c176"},"vehicle_type_id":"4","last_reported":1750522290,"current_range_meters":16000,"station_id":"ce4bhh12rcd13ifvqff0","pricing_plan_id":"cebpf4jnsgd1na2vs0mg"},{"bike_id":"ba9439c0-c9a9-4c35-9bc3-b74240fbe686","system_id":"levelo_inurba_marseille","lat":43.26979,"lon":5.38615,"is_reserved":false,"is_disabled":false,"rental_uris":{"android":"levelo://app?vid=ba9439c0-c9a9-4c35-9bc3-b74240fbe686","ios":"levelo://app?vid=ba9439c0-c9a9-4c35-9bc3-b74240fbe686"},"vehicle_type_id":"4","last_reported":1750522290,"current_range_meters":16000,"station_id":"ce4bhh92rcd13ifvqfh0","pricing_plan_id":"cebpf4jnsgd1na2vs0mg"},{"bike_id":"d580f51c-9c0b-4360-af03-44d51cbc1727","system_id":"levelo_inurba_marseille","lat":43.24394,"lon":5.37042,"is_reserved":false,"is_disabled":false,"rental_uris":{"android":"levelo://app?vid=d580f51c-9c0b-4360-af03-44d51cbc1727","ios":"levelo://app?vid=d580f51c-9c0b-4360-af03-44d51cbc1727"},"vehicle_type_id":"4","last_reported":1750522290,"current_range_meters":16000,"station_id":"ce4bhhh2rcd13ifvqfk0","pricing_plan_id":"cebpf4jnsgd1na2vs0mg"},{"bike_id":"2276109f-a058-40cd-aa6e-eb1a4c04c2aa","system_id":"levelo_inurba_marseille","lat":43.251136,"lon":5.403233,"is_reserved":false,"is_disabled":false,"rental_uris":{"android":"levelo://app?vid=2276109f-a058-40cd-aa6e-eb1a4c04c2aa","ios":"levelo://app?vid=2276109f-a058-40cd-aa6e-eb1a4c04c2aa"},"vehicle_type_id":"4","last_reported":1750522290,"current_range_meters":16000,"station_id":"ce4bhlh2rcd13ifvqgig","pricing_plan_id":"cebpf4jnsgd1na2vs0mg"},{"bike_id":"ee3026d9-e826-4f6d-afda-d2f4bce88d52","system_id":"levelo_inurba_marseille","lat":43.22501,"lon":5.34787,"is_reserved":false,"is_disabled":false,"rental_uris":{"android":"levelo://app?vid=ee3026d9-e826-4f6d-afda-d2f4bce88d52","ios":"levelo://app?vid=ee3026d9-e826-4f6d-afda-d2f4bce88d52"},"vehicle_type_id":"4","last_reported":1750522290,"current_range_meters":16000,"station_id":"st_cvj5dfep6f1abm77gieg","pricing_plan_id":"cebpf4jnsgd1na2vs0mg"},{"bike_id":"db76ccd8-7907-4d3d-8ebd-ea0cdadbca52","system_id":"levelo_inurba_marseille","lat":43.27292,"lon":5.39151,"is_reserved":false,"is_disabled":false,"rental_uris":{"android":"levelo://app?vid=db76ccd8-7907-4d3d-8ebd-ea0cdadbca52","ios":"levelo://app?vid=db76ccd8-7907-4d3d-8ebd-ea0cdadbca52"},"vehicle_type_id":"4","last_reported":1750522290,"current_range_meters":16400,"station_id":"","pricing_plan_id":"cebpf4jnsgd1na2vs0mg"},{"bike_id":"d4247daf-381e-4d72-a928-258ed6e0a95a","system_id":"levelo_inurba_marseille","lat":43.28104,"lon":5.37845,"is_reserved":false,"is_disabled":false,"rental_uris":{"android":"levelo://app?vid=d4247daf-381e-4d72-a928-258ed6e0a95a","ios":"levelo://app?vid=d4247daf-381e-4d72-a928-258ed6e0a95a"},"vehicle_type_id":"4","last_reported":1750522290,"current_range_meters":16400,"station_id":"ce4bha12rcd13ifvqee0","pricing_plan_id":"cebpf4jnsgd1na2vs0mg"},{"bike_id":"1cab16b2-4845-40da-b6e4-08e3076e05e4","system_id":"levelo_inurba_marseille","lat":43.279198,"lon":5.395748,"is_reserved":false,"is_disabled":false,"rental_uris":{"android":"levelo://app?vid=1cab16b2-4845-40da-b6e4-08e3076e05e4","ios":"levelo://app?vid=1cab16b2-4845-40da-b6e4-08e3076e05e4"},"vehicle_type_id":"4","last_reported":1750522290,"current_range_meters":16400,"station_id":"ce4bhf92rcd13ifvqf40","pricing_plan_id":"cebpf4jnsgd1na2vs0mg"},{"bike_id":"b135cdcd-e995-4800-ab4e-b9241575ffc4","system_id":"levelo_inurba_marseille","lat":43.26682,"lon":5.38276,"is_reserved":false,"is_disabled":false,"rental_uris":{"android":"levelo://app?vid=b135cdcd-e995-4800-ab4e-b9241575ffc4","ios":"levelo://app?vid=b135cdcd-e995-4800-ab4e-b9241575ffc4"},"vehicle_type_id":"4","last_reported":1750522290,"current_range_meters":16400,"station_id":"ce4bhg92rcd13ifvqf90","pricing_plan_id":"cebpf4jnsgd1na2vs0mg"},{"bike_id":"3c2e9093-f936-4a0a-bdcb-8a99fc996dde","system_id":"levelo_inurba_marseille","lat":43.26196,"lon":5.37451,"is_reserved":false,"is_disabled":false,"rental_uris":{"android":"levelo://app?vid=3c2e9093-f936-4a0a-bdcb-8a99fc996dde","ios":"levelo://app?vid=3c2e9093-f936-4a0a-bdcb-8a99fc996dde"},"vehicle_type_id":"4","last_reported":1750522290,"current_range_meters":16400,"station_id":"ce4bhgp2rcd13ifvqfc0","pricing_plan_id":"cebpf4jnsgd1na2vs0mg"},{"bike_id":"1c6eee43-889f-4cff-bc8c-307447a31830","system_id":"levelo_inurba_marseille","lat":43.30804,"lon":5.43519,"is_reserved":false,"is_disabled":false,"rental_uris":{"android":"levelo://app?vid=1c6eee43-889f-4cff-bc8c-307447a31830","ios":"levelo://app?vid=1c6eee43-889f-4cff-bc8c-307447a31830"},"vehicle_type_id":"4","last_reported":1750522290,"current_range_meters":16400,"station_id":"ce4bhph2rcd13ifvqheg","pricing_plan_id":"cebpf4jnsgd1na2vs0mg"},{"bike_id":"7943c725-cc5f-4e63-9abd-def0470a4ba5","system_id":"levelo_inurba_marseille","lat":43.2307,"lon":5.354946,"is_reserved":false,"is_disabled":false,"rental_uris":{"android":"levelo://app?vid=7943c725-cc5f-4e63-9abd-def0470a4ba5","ios":"levelo://app?vid=7943c725-cc5f-4e63-9abd-def0470a4ba5"},"vehicle_type_id":"4","last_reported":1750522290,"current_range_meters":16400,"station_id":"cpo3342slgdg3j2ifvpg","pricing_plan_id":"cebpf4jnsgd1na2vs0mg"},{"bike_id":"42275107-b881-4e4b-b528-893f7bd027f1","system_id":"levelo_inurba_marseille","lat":43.241683,"lon":5.36393,"is_reserved":false,"is_disabled":false,"rental_uris":{"android":"levelo://app?vid=42275107-b881-4e4b-b528-893f7bd027f1","ios":"levelo://app?vid=42275107-b881-4e4b-b528-893f7bd027f1"},"vehicle_type_id":"4","last_reported":1750522290,"current_range_meters":16400,"station_id":"cpo36qri1sfpv3e86is0","pricing_plan_id":"cebpf4jnsgd1na2vs0mg"},{"bike_id":"7c3434e7-ecd7-4565-9a0f-952b018128a9","system_id":"levelo_inurba_marseille","lat":43.211897,"lon":5.350757,"is_reserved":false,"is_disabled":false,"rental_uris":{"android":"levelo://app?vid=7c3434e7-ecd7-4565-9a0f-952b018128a9","ios":"levelo://app?vid=7c3434e7-ecd7-4565-9a0f-952b018128a9"},"vehicle_type_id":"4","last_reported":1750522290,"current_range_meters":16400,"station_id":"st_cvj6sg6p6f1abm77japg","pricing_plan_id":"cebpf4jnsgd1na2vs0mg"},{"bike_id":"ffbb0c22-3f4e-4cdb-a0e5-79e3b9f3e1a2","system_id":"levelo_inurba_marseille","lat":43.33769,"lon":5.37469,"is_reserved":false,"is_disabled":false,"rental_uris":{"android":"levelo://app?vid=ffbb0c22-3f4e-4cdb-a0e5-79e3b9f3e1a2","ios":"levelo://app?vid=ffbb0c22-3f4e-4cdb-a0e5-79e3b9f3e1a2"},"vehicle_type_id":"4","last_reported":1750522290,"current_range_meters":16800,"station_id":"","pricing_plan_id":"cebpf4jnsgd1na2vs0mg"},{"bike_id":"c605b045-acf7-412c-892b-f5f68aea97dc","system_id":"levelo_inurba_marseille","lat":43.29934,"lon":5.36547,"is_reserved":false,"is_disabled":false,"rental_uris":{"android":"levelo://app?vid=c605b045-acf7-412c-892b-f5f68aea97dc","ios":"levelo://app?vid=c605b045-acf7-412c-892b-f5f68aea97dc"},"vehicle_type_id":"4","last_reported":1750522290,"current_range_meters":16800,"station_id":"ce4bgm92rcd13ifvqbr0","pricing_plan_id":"cebpf4jnsgd1na2vs0mg"},{"bike_id":"f6dbacb6-6edc-4cad-9657-b66629b9cca0","system_id":"levelo_inurba_marseille","lat":43.294148,"lon":5.40059,"is_reserved":false,"is_disabled":false,"rental_uris":{"android":"levelo://app?vid=f6dbacb6-6edc-4cad-9657-b66629b9cca0","ios":"levelo://app?vid=f6dbacb6-6edc-4cad-9657-b66629b9cca0"},"vehicle_type_id":"4","last_reported":1750522290,"current_range_meters":16800,"station_id":"ce4bh3h2rcd13ifvqdo0","pricing_plan_id":"cebpf4jnsgd1na2vs0mg"},{"bike_id":"27a7c221-1579-4969-aad5-6db9840b00a8","system_id":"levelo_inurba_marseille","lat":43.28073,"lon":5.39661,"is_reserved":false,"is_disabled":false,"rental_uris":{"android":"levelo://app?vid=27a7c221-1579-4969-aad5-6db9840b00a8","ios":"levelo://app?vid=27a7c221-1579-4969-aad5-6db9840b00a8"},"vehicle_type_id":"4","last_reported":1750522290,"current_range_meters":16800,"station_id":"ce4bho12rcd13ifvqh2g","pricing_plan_id":"cebpf4jnsgd1na2vs0mg"},{"bike_id":"4d80d21e-3dc9-4004-a3c0-eb7b371a8ccf","system_id":"levelo_inurba_marseille","lat":43.33025,"lon":5.39338,"is_reserved":false,"is_disabled":false,"rental_uris":{"android":"levelo://app?vid=4d80d21e-3dc9-4004-a3c0-eb7b371a8ccf","ios":"levelo://app?vid=4d80d21e-3dc9-4004-a3c0-eb7b371a8ccf"},"vehicle_type_id":"4","last_reported":1750522290,"current_range_meters":17200,"station_id":"","pricing_plan_id":"cebpf4jnsgd1na2vs0mg"},{"bike_id":"16be7027-6eba-45eb-a129-323535d00889","system_id":"levelo_inurba_marseille","lat":43.29509,"lon":5.39401,"is_reserved":false,"is_disabled":false,"rental_uris":{"android":"levelo://app?vid=16be7027-6eba-45eb-a129-323535d00889","ios":"levelo://app?vid=16be7027-6eba-45eb-a129-323535d00889"},"vehicle_type_id":"4","last_reported":1750522290,"current_range_meters":17200,"station_id":"ce4bh292rcd13ifvqdf0","pricing_plan_id":"cebpf4jnsgd1na2vs0mg"},{"bike_id":"da4e6891-dc15-45f1-b2dc-07f82743c65f","system_id":"levelo_inurba_marseille","lat":43.26213,"lon":5.3745,"is_reserved":false,"is_disabled":false,"rental_uris":{"android":"levelo://app?vid=da4e6891-dc15-45f1-b2dc-07f82743c65f","ios":"levelo://app?vid=da4e6891-dc15-45f1-b2dc-07f82743c65f"},"vehicle_type_id":"4","last_reported":1750522290,"current_range_meters":17200,"station_id":"ce4bhgp2rcd13ifvqfc0","pricing_plan_id":"cebpf4jnsgd1na2vs0mg"},{"bike_id":"89ac06b5-f022-49b7-90f5-aa29dd87b063","system_id":"levelo_inurba_marseille","lat":43.2583,"lon":5.39445,"is_reserved":false,"is_disabled":false,"rental_uris":{"android":"levelo://app?vid=89ac06b5-f022-49b7-90f5-aa29dd87b063","ios":"levelo://app?vid=89ac06b5-f022-49b7-90f5-aa29dd87b063"},"vehicle_type_id":"4","last_reported":1750522290,"current_range_meters":17200,"station_id":"ce4bhip2rcd13ifvqft0","pricing_plan_id":"cebpf4jnsgd1na2vs0mg"},{"bike_id":"4d4df371-4a07-4078-b66c-0646e04ad4bf","system_id":"levelo_inurba_marseille","lat":43.29902,"lon":5.43667,"is_reserved":false,"is_disabled":false,"rental_uris":{"android":"levelo://app?vid=4d4df371-4a07-4078-b66c-0646e04ad4bf","ios":"levelo://app?vid=4d4df371-4a07-4078-b66c-0646e04ad4bf"},"vehicle_type_id":"4","last_reported":1750522290,"current_range_meters":17200,"station_id":"ce4bhpp2rcd13ifvqhfg","pricing_plan_id":"cebpf4jnsgd1na2vs0mg"},{"bike_id":"3483dabf-cfd0-441c-aa42-691ee5a35ae7","system_id":"levelo_inurba_marseille","lat":43.30611,"lon":5.365,"is_reserved":false,"is_disabled":false,"rental_uris":{"android":"levelo://app?vid=3483dabf-cfd0-441c-aa42-691ee5a35ae7","ios":"levelo://app?vid=3483dabf-cfd0-441c-aa42-691ee5a35ae7"},"vehicle_type_id":"4","last_reported":1750522290,"current_range_meters":17600,"station_id":"","pricing_plan_id":"cebpf4jnsgd1na2vs0mg"},{"bike_id":"325f440f-8ebd-48ae-97d4-f1ac6974d41c","system_id":"levelo_inurba_marseille","lat":43.29097,"lon":5.38131,"is_reserved":false,"is_disabled":false,"rental_uris":{"android":"levelo://app?vid=325f440f-8ebd-48ae-97d4-f1ac6974d41c","ios":"levelo://app?vid=325f440f-8ebd-48ae-97d4-f1ac6974d41c"},"vehicle_type_id":"4","last_reported":1750522290,"current_range_meters":17600,"station_id":"ce4bh512rcd13ifvqe2g","pricing_plan_id":"cebpf4jnsgd1na2vs0mg"},{"bike_id":"22174934-12b8-4eb3-8d3a-c6adcc86bacf","system_id":"levelo_inurba_marseille","lat":43.26199,"lon":5.37456,"is_reserved":false,"is_disabled":false,"rental_uris":{"android":"levelo://app?vid=22174934-12b8-4eb3-8d3a-c6adcc86bacf","ios":"levelo://app?vid=22174934-12b8-4eb3-8d3a-c6adcc86bacf"},"vehicle_type_id":"4","last_reported":1750522290,"current_range_meters":17600,"station_id":"ce4bhgp2rcd13ifvqfc0","pricing_plan_id":"cebpf4jnsgd1na2vs0mg"},{"bike_id":"5c36a3c8-5ae8-4eea-ab45-f9a865a01ceb","system_id":"levelo_inurba_marseille","lat":43.25088,"lon":5.39513,"is_reserved":false,"is_disabled":false,"rental_uris":{"android":"levelo://app?vid=5c36a3c8-5ae8-4eea-ab45-f9a865a01ceb","ios":"levelo://app?vid=5c36a3c8-5ae8-4eea-ab45-f9a865a01ceb"},"vehicle_type_id":"4","last_reported":1750522290,"current_range_meters":17600,"station_id":"ce4bhm12rcd13ifvqgkg","pricing_plan_id":"cebpf4jnsgd1na2vs0mg"},{"bike_id":"9e75c100-85ca-4492-a73a-af1316d83f7d","system_id":"levelo_inurba_marseille","lat":43.30356,"lon":5.41884,"is_reserved":false,"is_disabled":false,"rental_uris":{"android":"levelo://app?vid=9e75c100-85ca-4492-a73a-af1316d83f7d","ios":"levelo://app?vid=9e75c100-85ca-4492-a73a-af1316d83f7d"},"vehicle_type_id":"4","last_reported":1750522290,"current_range_meters":17600,"station_id":"ce4bhop2rcd13ifvqh7g","pricing_plan_id":"cebpf4jnsgd1na2vs0mg"},{"bike_id":"a1d9b9e4-7a89-458b-aba2-bb83ee93d746","system_id":"levelo_inurba_marseille","lat":43.26965,"lon":5.402516,"is_reserved":false,"is_disabled":false,"rental_uris":{"android":"levelo://app?vid=a1d9b9e4-7a89-458b-aba2-bb83ee93d746","ios":"levelo://app?vid=a1d9b9e4-7a89-458b-aba2-bb83ee93d746"},"vehicle_type_id":"4","last_reported":1750522290,"current_range_meters":17600,"station_id":"cjm6bp8fraef2m0cb0m0","pricing_plan_id":"cebpf4jnsgd1na2vs0mg"},{"bike_id":"ee6fddf9-6863-4a13-a31b-2f3228223d7e","system_id":"levelo_inurba_marseille","lat":43.21211,"lon":5.3507,"is_reserved":false,"is_disabled":false,"rental_uris":{"android":"levelo://app?vid=ee6fddf9-6863-4a13-a31b-2f3228223d7e","ios":"levelo://app?vid=ee6fddf9-6863-4a13-a31b-2f3228223d7e"},"vehicle_type_id":"4","last_reported":1750522290,"current_range_meters":17600,"station_id":"st_cvj6sg6p6f1abm77japg","pricing_plan_id":"cebpf4jnsgd1na2vs0mg"},{"bike_id":"a9e5e555-fdaf-49c0-b286-f0f2659b17d0","system_id":"levelo_inurba_marseille","lat":43.28326,"lon":5.43235,"is_reserved":false,"is_disabled":false,"rental_uris":{"android":"levelo://app?vid=a9e5e555-fdaf-49c0-b286-f0f2659b17d0","ios":"levelo://app?vid=a9e5e555-fdaf-49c0-b286-f0f2659b17d0"},"vehicle_type_id":"4","last_reported":1750522290,"current_range_meters":18000,"station_id":"","pricing_plan_id":"cebpf4jnsgd1na2vs0mg"},{"bike_id":"ec7dd39a-f66a-47ba-a2f0-c66181a44d65","system_id":"levelo_inurba_marseille","lat":43.29361,"lon":5.37829,"is_reserved":false,"is_disabled":false,"rental_uris":{"android":"levelo://app?vid=ec7dd39a-f66a-47ba-a2f0-c66181a44d65","ios":"levelo://app?vid=ec7dd39a-f66a-47ba-a2f0-c66181a44d65"},"vehicle_type_id":"4","last_reported":1750522290,"current_range_meters":18000,"station_id":"ce4bgjh2rcd13ifvqbf0","pricing_plan_id":"cebpf4jnsgd1na2vs0mg"},{"bike_id":"f35aae6a-130e-40d5-bd79-1b46f0fa45a6","system_id":"levelo_inurba_marseille","lat":43.30528,"lon":5.36548,"is_reserved":false,"is_disabled":false,"rental_uris":{"android":"levelo://app?vid=f35aae6a-130e-40d5-bd79-1b46f0fa45a6","ios":"levelo://app?vid=f35aae6a-130e-40d5-bd79-1b46f0fa45a6"},"vehicle_type_id":"4","last_reported":1750522290,"current_range_meters":18000,"station_id":"ce4bgs12rcd13ifvqcag","pricing_plan_id":"cebpf4jnsgd1na2vs0mg"},{"bike_id":"6f52b882-1e84-4c35-a7b0-3f89a2ff15f7","system_id":"levelo_inurba_marseille","lat":43.31325,"lon":5.39696,"is_reserved":false,"is_disabled":false,"rental_uris":{"android":"levelo://app?vid=6f52b882-1e84-4c35-a7b0-3f89a2ff15f7","ios":"levelo://app?vid=6f52b882-1e84-4c35-a7b0-3f89a2ff15f7"},"vehicle_type_id":"4","last_reported":1750522290,"current_range_meters":18000,"station_id":"ce4bgvp2rcd13ifvqcu0","pricing_plan_id":"cebpf4jnsgd1na2vs0mg"},{"bike_id":"24861ef6-6d8f-46d3-b1bd-b445607e21f1","system_id":"levelo_inurba_marseille","lat":43.25912,"lon":5.409,"is_reserved":false,"is_disabled":false,"rental_uris":{"android":"levelo://app?vid=24861ef6-6d8f-46d3-b1bd-b445607e21f1","ios":"levelo://app?vid=24861ef6-6d8f-46d3-b1bd-b445607e21f1"},"vehicle_type_id":"4","last_reported":1750522290,"current_range_meters":18000,"station_id":"ce4bhm92rcd13ifvqglg","pricing_plan_id":"cebpf4jnsgd1na2vs0mg"},{"bike_id":"138e36bb-aca2-4604-9e15-ae015bf802b5","system_id":"levelo_inurba_marseille","lat":43.31461,"lon":5.391986,"is_reserved":false,"is_disabled":false,"rental_uris":{"android":"levelo://app?vid=138e36bb-aca2-4604-9e15-ae015bf802b5","ios":"levelo://app?vid=138e36bb-aca2-4604-9e15-ae015bf802b5"},"vehicle_type_id":"4","last_reported":1750522290,"current_range_meters":18800,"station_id":"","pricing_plan_id":"cebpf4jnsgd1na2vs0mg"},{"bike_id":"377ec864-6a07-4987-8844-392b5fb8234b","system_id":"levelo_inurba_marseille","lat":43.317664,"lon":5.38808,"is_reserved":false,"is_disabled":false,"rental_uris":{"android":"levelo://app?vid=377ec864-6a07-4987-8844-392b5fb8234b","ios":"levelo://app?vid=377ec864-6a07-4987-8844-392b5fb8234b"},"vehicle_type_id":"4","last_reported":1750522290,"current_range_meters":18800,"station_id":"","pricing_plan_id":"cebpf4jnsgd1na2vs0mg"},{"bike_id":"2e647c25-fe30-4f8d-9f1d-b0fafa22af92","system_id":"levelo_inurba_marseille","lat":43.24806,"lon":5.37463,"is_reserved":false,"is_disabled":false,"rental_uris":{"android":"levelo://app?vid=2e647c25-fe30-4f8d-9f1d-b0fafa22af92","ios":"levelo://app?vid=2e647c25-fe30-4f8d-9f1d-b0fafa22af92"},"vehicle_type_id":"4","last_reported":1750522290,"current_range_meters":18800,"station_id":"ce4bhgh2rcd13ifvqfb0","pricing_plan_id":"cebpf4jnsgd1na2vs0mg"},{"bike_id":"aaedd79f-4933-4ae4-aa6e-c810a62a3355","system_id":"levelo_inurba_marseille","lat":43.26191,"lon":5.37449,"is_reserved":false,"is_disabled":false,"rental_uris":{"android":"levelo://app?vid=aaedd79f-4933-4ae4-aa6e-c810a62a3355","ios":"levelo://app?vid=aaedd79f-4933-4ae4-aa6e-c810a62a3355"},"vehicle_type_id":"4","last_reported":1750522290,"current_range_meters":18800,"station_id":"ce4bhgp2rcd13ifvqfc0","pricing_plan_id":"cebpf4jnsgd1na2vs0mg"},