{"last_updated":1738588523,"ttl":60,"version":"2.2","data":{"bikes":[{"bike_id":"0731d36f-35c9-460b-967c-3fbdf2d55c05","system_id":"levelo_inurba_marseille","lat":43.25138,"lon":5.40344,"is_reserved":false,"is_disabled":false,"rental_uris":{"android":"levelo://app?vid=0731d36f-35c9-460b-967c-3fbdf2d55c05","ios":"levelo://app?vid=0731d36f-35c9-460b-967c-3fbdf2d55c05"},"vehicle_type_id":"4","last_reported":1738588524,"current_range_meters":38800,"station_id":"ce4bhlh2rcd13ifvqgig","pricing_plan_id":"cebpf4jnsgd1na2vs0mg"},{"bike_id":"0a8a3a5c-c447-463f-bf02-213a834dd241","system_id":"levelo_inurba_marseille","lat":43.28713,"lon":5.37922,"is_reserved":false,"is_disabled":false,"rental_uris":{"android":"levelo://app?vid=0a8a3a5c-c447-463f-bf02-213a834dd241","ios":"levelo://app?vid=0a8a3a5c-c447-463f-bf02-213a834dd241"},"vehicle_type_id":"4","last_reported":1738588524,"current_range_meters":24000,"station_id":"ce4bh9p2rcd13ifvqec0","pricing_plan_id":"cebpf4jnsgd1na2vs0mg"},{"bike_id":"e91475a5-b081-4f06-b1dd-8358b8a295c8","system_id":"levelo_inurba_marseille","lat":43.29231,"lon":5.36069,"is_reserved":false,"is_disabled":false,"rental_uris":{"android":"levelo://app?vid=e91475a5-b081-4f06-b1dd-8358b8a295c8","ios":"levelo://app?vid=e91475a5-b081-4f06-b1dd-8358b8a295c8"},"vehicle_type_id":"4","last_reported":1738588524,"current_range_meters":37600,"station_id":"ce4bhbh2rcd13ifvqeqg","pricing_plan_id":"cebpf4jnsgd1na2vs0mg"},{"bike_id":"7880d2f6-75fb-4027-8e2a-e7e0a241edc0","system_id":"levelo_inurba_marseille","lat":43.30545,"lon":5.36551,"is_reserved":false,"is_disabled":false,"rental_uris":{"android":"levelo://app?vid=7880d2f6-75fb-4027-8e2a-e7e0a241edc0","ios":"levelo://app?vid=7880d2f6-75fb-4027-8e2a-e7e0a241edc0"},"vehicle_type_id":"4","last_reported":1738588524,"current_range_meters":8000,"station_id":"ce4bgs12rcd13ifvqcag","pricing_plan_id":"cebpf4jnsgd1na2vs0mg"},{"bike_id":"80dc2f71-f702-4d53-ba2b-bf89f26c9d76","system_id":"levelo_inurba_marseille","lat":43.24074,"lon":5.37741,"is_reserved":false,"is_disabled":false,"rental_uris":{"android":"levelo://app?vid=80dc2f71-f702-4d53-ba2b-bf89f26c9d76","ios":"levelo://app?vid=80dc2f71-f702-4d53-ba2b-bf89f26c9d76"},"vehicle_type_id":"4","last_reported":1738588524,"current_range_meters":39200,"station_id":"ce4bhnp2rcd13ifvqgvg","pricing_plan_id":"cebpf4jnsgd1na2vs0mg"},{"bike_id":"367b9221-bcf2-40c6-878d-7e982dcfde47","system_id":"levelo_inurba_marseille","lat":43.29711,"lon":5.36604,"is_reserved":false,"is_disabled":false,"rental_uris":{"android":"levelo://app?vid=367b9221-bcf2-40c6-878d-7e982dcfde47","ios":"levelo://app?vid=367b9221-bcf2-40c6-878d-7e982dcfde47"},"vehicle_type_id":"4","last_reported":1738588524,"current_range_meters":38800,"station_id":"ce4bgn12rcd13ifvqbt0","pricing_plan_id":"cebpf4jnsgd1na2vs0mg"},{"bike_id":"fc814a83-4ff5-43a8-a34b-7b78fc22ed1e","system_id":"levelo_inurba_marseille","lat":43.26686,"lon":5.38272,"is_reserved":false,"is_disabled":true,"rental_uris":{"android":"levelo://app?vid=fc814a83-4ff5-43a8-a34b-7b78fc22ed1e","ios":"levelo://app?vid=fc814a83-4ff5-43a8-a34b-7b78fc22ed1e"},"vehicle_type_id":"4","last_reported":1738588524,"current_range_meters":800,"station_id":"ce4bhg92rcd13ifvqf90","pricing_plan_id":"cebpf4jnsgd1na2vs0mg"},{"bike_id":"4d11b4e1-daa5-44ec-82ec-7ce0cbe19f20","system_id":"levelo_inurba_marseille","lat":43.25731,"lon":5.41098,"is_reserved":false,"is_disabled":false,"rental_uris":{"android":"levelo://app?vid=4d11b4e1-daa5-44ec-82ec-7ce0cbe19f20","ios":"levelo://app?vid=4d11b4e1-daa5-44ec-82ec-7ce0cbe19f20"},"vehicle_type_id":"4","last_reported":1738588524,"current_range_meters":22800,"station_id":"ce4bhkp2rcd13ifvqgd0","pricing_plan_id":"cebpf4jnsgd1na2vs0mg"},{"bike_id":"e028bef9-de68-41b8-97d0-a5d118a020b1","system_id":"levelo_inurba_marseille","lat":43.270547,"lon":5.402663,"is_reserved":false,"is_disabled":false,"rental_uris":{"android":"levelo://app?vid=e028bef9-de68-41b8-97d0-a5d118a020b1","ios":"levelo://app?vid=e028bef9-de68-41b8-97d0-a5d118a020b1"},"vehicle_type_id":"4","last_reported":1738588524,"current_range_meters":38800,"station_id":"ce4bhk92rcd13ifvqgc0","pricing_plan_id":"cebpf4jnsgd1na2vs0mg"},{"bike_id":"a9701041-4785-45b6-94b9-7e78b2a3068e","system_id":"levelo_inurba_marseille","lat":43.25116,"lon":5.40327,"is_reserved":false,"is_disabled":false,"rental_uris":{"android":"levelo://app?vid=a9701041-4785-45b6-94b9-7e78b2a3068e","ios":"levelo://app?vid=a9701041-4785-45b6-94b9-7e78b2a3068e"},"vehicle_type_id":"4","last_reported":1738588524,"current_range_meters":27600,"station_id":"ce4bhlh2rcd13ifvqgig","pricing_plan_id":"cebpf4jnsgd1na2vs0mg"},{"bike_id":"39fe4d38-0e6b-4ea1-b4af-c92b785fbb3f","system_id":"levelo_inurba_marseille","lat":43.30557,"lon":5.36524,"is_reserved":false,"is_disabled":false,"rental_uris":{"android":"levelo://app?vid=39fe4d38-0e6b-4ea1-b4af-c92b785fbb3f","ios":"levelo://app?vid=39fe4d38-0e6b-4ea1-b4af-c92b785fbb3f"},"vehicle_type_id":"4","last_reported":1738588524,"current_range_meters":38800,"station_id":"ce4bgs12rcd13ifvqcag","pricing_plan_id":"cebpf4jnsgd1na2vs0mg"},{"bike_id":"1abd4c10-fb00-4948-9735-5c7e538916f7","system_id":"levelo_inurba_marseille","lat":43.33021,"lon":5.37959,"is_reserved":false,"is_disabled":false,"rental_uris":{"android":"levelo://app?vid=1abd4c10-fb00-4948-9735-5c7e538916f7","ios":"levelo://app?vid=1abd4c10-fb00-4948-9735-5c7e538916f7"},"vehicle_type_id":"4","last_reported":1738588524,"current_range_meters":38800,"station_id":"","pricing_plan_id":"cebpf4jnsgd1na2vs0mg"},{"bike_id":"d5adce7b-29ed-48fe-adaa-a1d323c83b60","system_id":"levelo_inurba_marseille","lat":43.3044,"lon":5.39755,"is_reserved":false,"is_disabled":false,"rental_uris":{"android":"levelo://app?vid=d5adce7b-29ed-48fe-adaa-a1d323c83b60","ios":"levelo://app?vid=d5adce7b-29ed-48fe-adaa-a1d323c83b60"},"vehicle_type_id":"4","last_reported":1738588524,"current_range_meters":16000,"station_id":"ce4bh092rcd13ifvqd20","pricing_plan_id":"cebpf4jnsgd1na2vs0mg"},{"bike_id":"46d57953-5a8b-4a73-a05f-e65f22d873c6","system_id":"levelo_inurba_marseille","lat":43.27046,"lon":5.40286,"is_reserved":false,"is_disabled":false,"rental_uris":{"android":"levelo://app?vid=46d57953-5a8b-4a73-a05f-e65f22d873c6","ios":"levelo://app?vid=46d57953-5a8b-4a73-a05f-e65f22d873c6"},"vehicle_type_id":"4","last_reported":1738588524,"current_range_meters":36800,"station_id":"ce4bhk92rcd13ifvqgc0","pricing_plan_id":"cebpf4jnsgd1na2vs0mg"},{"bike_id":"f946d9ad-857c-4442-b3b2-a3da40e13610","system_id":"levelo_inurba_marseille","lat":43.29533,"lon":5.38539,"is_reserved":false,"is_disabled":false,"rental_uris":{"android":"levelo://app?vid=f946d9ad-857c-4442-b3b2-a3da40e13610","ios":"levelo://app?vid=f946d9ad-857c-4442-b3b2-a3da40e13610"},"vehicle_type_id":"4","last_reported":1738588524,"current_range_meters":24000,"station_id":"ce4bgih2rcd13ifvqba0","pricing_plan_id":"cebpf4jnsgd1na2vs0mg"},{"bike_id":"305120c3-fdbe-4837-b779-286ecadd3c5c","system_id":"levelo_inurba_marseille","lat":43.29696,"lon":5.37689,"is_reserved":false,"is_disabled":false,"rental_uris":{"android":"levelo://app?vid=305120c3-fdbe-4837-b779-286ecadd3c5c","ios":"levelo://app?vid=305120c3-fdbe-4837-b779-286ecadd3c5c"},"vehicle_type_id":"4","last_reported":1738588524,"current_range_meters":39200,"station_id":"ce4bgkh2rcd13ifvqbl0","pricing_plan_id":"cebpf4jnsgd1na2vs0mg"},{"bike_id":"fc2c2534-6b38-404c-91a0-095506c82e66","system_id":"levelo_inurba_marseille","lat":43.26922,"lon":5.40293,"is_reserved":false,"is_disabled":false,"rental_uris":{"android":"levelo://app?vid=fc2c2534-6b38-404c-91a0-095506c82e66","ios":"levelo://app?vid=fc2c2534-6b38-404c-91a0-095506c82e66"},"vehicle_type_id":"4","last_reported":1738588524,"current_range_meters":38000,"station_id":"cjm6bp8fraef2m0cb0m0","pricing_plan_id":"cebpf4jnsgd1na2vs0mg"},{"bike_id":"4255d86f-6cd2-4c78-b044-c18b3a57a600","system_id":"levelo_inurba_marseille","lat":43.26949,"lon":5.40233,"is_reserved":false,"is_disabled":false,"rental_uris":{"android":"levelo://app?vid=4255d86f-6cd2-4c78-b044-c18b3a57a600","ios":"levelo://app?vid=4255d86f-6cd2-4c78-b044-c18b3a57a600"},"vehicle_type_id":"4","last_reported":1738588524,"current_range_meters":38000,"station_id":"cjm6bp8fraef2m0cb0m0","pricing_plan_id":"cebpf4jnsgd1na2vs0mg"},{"bike_id":"49d702a3-2f94-4939-8d0c-bbe18c7c2959","system_id":"levelo_inurba_marseille","lat":43.30298,"lon":5.37707,"is_reserved":false,"is_disabled":false,"rental_uris":{"android":"levelo://app?vid=49d702a3-2f94-4939-8d0c-bbe18c7c2959","ios":"levelo://app?vid=49d702a3-2f94-4939-8d0c-bbe18c7c2959"},"vehicle_type_id":"4","last_reported":1738588524,"current_range_meters":38800,"station_id":"ce4bguh2rcd13ifvqcj0","pricing_plan_id":"cebpf4jnsgd1na2vs0mg"},{"bike_id":"2c0b1f01-61e9-401f-9c87-6be5f18283f2","system_id":"levelo_inurba_marseille","lat":43.32476,"lon":5.36566,"is_reserved":false,"is_disabled":false,"rental_uris":{"android":"levelo://app?vid=2c0b1f01-61e9-401f-9c87-6be5f18283f2","ios":"levelo://app?vid=2c0b1f01-61e9-401f-9c87-6be5f18283f2"},"vehicle_type_id":"4","last_reported":1738588524,"current_range_meters":21600,"station_id":"ce4bhs12rcd13ifvqhvg","pricing_plan_id":"cebpf4jnsgd1na2vs0mg"},{"bike_id":"3e574816-3754-460d-8072-f6ebe3757ea0","system_id":"levelo_inurba_marseille","lat":43.32355,"lon":5.36743,"is_reserved":false,"is_disabled":false,"rental_uris":{"android":"levelo://app?vid=3e574816-3754-460d-8072-f6ebe3757ea0","ios":"levelo://app?vid=3e574816-3754-460d-8072-f6ebe3757ea0"},"vehicle_type_id":"4","last_reported":1738588524,"current_range_meters":23200,"station_id":"ce4bhsh2rcd13ifvqi2g","pricing_plan_id":"cebpf4jnsgd1na2vs0mg"},{"bike_id":"73c5adb8-0998-4854-bb2c-683f7adc0ad5","system_id":"levelo_inurba_marseille","lat":43.32453,"lon":5.36585,"is_reserved":false,"is_disabled":false,"rental_uris":{"android":"levelo://app?vid=73c5adb8-0998-4854-bb2c-683f7adc0ad5","ios":"levelo://app?vid=73c5adb8-0998-4854-bb2c-683f7adc0ad5"},"vehicle_type_id":"4","last_reported":1738588524,"current_range_meters":27200,"station_id":"ce4bhs12rcd13ifvqhvg","pricing_plan_id":"cebpf4jnsgd1na2vs0mg"},{"bike_id":"572ac798-e882-4a8e-9dad-53cc794f05ee","system_id":"levelo_inurba_marseille","lat":43.25108,"lon":5.40301,"is_reserved":false,"is_disabled":false,"rental_uris":{"android":"levelo://app?vid=572ac798-e882-4a8e-9dad-53cc794f05ee","ios":"levelo://app?vid=572ac798-e882-4a8e-9dad-53cc794f05ee"},"vehicle_type_id":"4","last_reported":1738588524,"current_range_meters":26800,"station_id":"ce4bhlh2rcd13ifvqgig","pricing_plan_id":"cebpf4jnsgd1na2vs0mg"},{"bike_id":"a1a7079b-68b5-45ca-9af8-b6bc9f7cd559","system_id":"levelo_inurba_marseille","lat":43.22937,"lon":5.35368,"is_reserved":false,"is_disabled":false,"rental_uris":{"android":"levelo://app?vid=a1a7079b-68b5-45ca-9af8-b6bc9f7cd559","ios":"levelo://app?vid=a1a7079b-68b5-45ca-9af8-b6bc9f7cd559"},"vehicle_type_id":"4","last_reported":1738588524,"current_range_meters":38800,"station_id":"cpo3532slgdg3j2ikp40","pricing_plan_id":"cebpf4jnsgd1na2vs0mg"},{"bike_id":"921e8a23-ed2b-419f-a856-fc2e6d38a77b","system_id":"levelo_inurba_marseille","lat":43.27546,"lon":5.384267,"is_reserved":false,"is_disabled":false,"rental_uris":{"android":"levelo://app?vid=921e8a23-ed2b-419f-a856-fc2e6d38a77b","ios":"levelo://app?vid=921e8a23-ed2b-419f-a856-fc2e6d38a77b"},"vehicle_type_id":"4","last_reported":1738588524,"current_range_meters":37600,"station_id":"ce4bhh92rcd13ifvqfi0","pricing_plan_id":"cebpf4jnsgd1na2vs0mg"},{"bike_id":"b403cf73-1f73-48cd-9556-c9d0049be0c4","system_id":"levelo_inurba_marseille","lat":43.30946,"lon":5.39035,"is_reserved":false,"is_disabled":false,"rental_uris":{"android":"levelo://app?vid=b403cf73-1f73-48cd-9556-c9d0049be0c4","ios":"levelo://app?vid=b403cf73-1f73-48cd-9556-c9d0049be0c4"},"vehicle_type_id":"4","last_reported":1738588524,"current_range_meters":25200,"station_id":"ce4bgup2rcd13ifvqco0","pricing_plan_id":"cebpf4jnsgd1na2vs0mg"},{"bike_id":"4a02347c-ae91-4c9d-adba-44e31fcd384a","system_id":"levelo_inurba_marseille","lat":43.28418,"lon":5.34976,"is_reserved":false,"is_disabled":false,"rental_uris":{"android":"levelo://app?vid=4a02347c-ae91-4c9d-adba-44e31fcd384a","ios":"levelo://app?vid=4a02347c-ae91-4c9d-adba-44e31fcd384a"},"vehicle_type_id":"4","last_reported":1738588524,"current_range_meters":8400,"station_id":"ce4bhbh2rcd13ifvqepg","pricing_plan_id":"cebpf4jnsgd1na2vs0mg"},{"bike_id":"b40f8c27-06d4-4525-84a5-a89b5b01315b","system_id":"levelo_inurba_marseille","lat":43.29048,"lon":5.3996,"is_reserved":false,"is_disabled":false,"rental_uris":{"android":"levelo://app?vid=b40f8c27-06d4-4525-84a5-a89b5b01315b","ios":"levelo://app?vid=b40f8c27-06d4-4525-84a5-a89b5b01315b"},"vehicle_type_id":"4","last_reported":1738588524,"current_range_meters":29600,"station_id":"ce4bh392rcd13ifvqdm0","pricing_plan_id":"cebpf4jnsgd1na2vs0mg"},{"bike_id":"1e80229c-3730-4f6a-ad92-db35f7d75e3d","system_id":"levelo_inurba_marseille","lat":43.27178,"lon":5.40994,"is_reserved":false,"is_disabled":false,"rental_uris":{"android":"levelo://app?vid=1e80229c-3730-4f6a-ad92-db35f7d75e3d","ios":"levelo://app?vid=1e80229c-3730-4f6a-ad92-db35f7d75e3d"},"vehicle_type_id":"4","last_reported":1738588524,"current_range_meters":39200,"station_id":"ce4bhl12rcd13ifvqgf0","pricing_plan_id":"cebpf4jnsgd1na2vs0mg"},{"bike_id":"c9228628-7516-45ca-9407-c6021b151ee9","system_id":"levelo_inurba_marseille","lat":43.30162,"lon":5.38068,"is_reserved":false,"is_disabled":false,"rental_uris":{"android":"levelo://app?vid=c9228628-7516-45ca-9407-c6021b151ee9","ios":"levelo://app?vid=c9228628-7516-45ca-9407-c6021b151ee9"},"vehicle_type_id":"4","last_reported":1738588524,"current_range_meters":24400,"station_id":"ce4bgjp2rcd13ifvqbh0","pricing_plan_id":"cebpf4jnsgd1na2vs0mg"},{"bike_id":"b2a6436f-4c95-46dd-a3bd-6af91e9591d2","system_id":"levelo_inurba_marseille","lat":43.256,"lon":5.38251,"is_reserved":false,"is_disabled":false,"rental_uris":{"android":"levelo://app?vid=b2a6436f-4c95-46dd-a3bd-6af91e9591d2","ios":"levelo://app?vid=b2a6436f-4c95-46dd-a3bd-6af91e9591d2"},"vehicle_type_id":"4","last_reported":1738588524,"current_range_meters":24400,"station_id":"ce4bhih2rcd13ifvqfs0","pricing_plan_id":"cebpf4jnsgd1na2vs0mg"},{"bike_id":"80f3a639-e3bf-4ad4-a566-dbeb3f3b7d61","system_id":"levelo_inurba_marseille","lat":43.29789,"lon":5.38097,"is_reserved":false,"is_disabled":false,"rental_uris":{"android":"levelo://app?vid=80f3a639-e3bf-4ad4-a566-dbeb3f3b7d61","ios":"levelo://app?vid=80f3a639-e3bf-4ad4-a566-dbeb3f3b7d61"},"vehicle_type_id":"4","last_reported":1738588524,"current_range_meters":30000,"station_id":"ce4bgip2rcd13ifvqbb0","pricing_plan_id":"cebpf4jnsgd1na2vs0mg"},{"bike_id":"5e2f3061-5cb5-49e7-9456-3ac350702407","system_id":"levelo_inurba_marseille","lat":43.25717,"lon":5.41109,"is_reserved":false,"is_disabled":false,"rental_uris":{"android":"levelo://app?vid=5e2f3061-5cb5-49e7-9456-3ac350702407","ios":"levelo://app?vid=5e2f3061-5cb5-49e7-9456-3ac350702407"},"vehicle_type_id":"4","last_reported":1738588524,"current_range_meters":19200,"station_id":"ce4bhkp2rcd13ifvqgd0","pricing_plan_id":"cebpf4jnsgd1na2vs0mg"},{"bike_id":"e3cfeb5a-9d21-412c-be20-0ee979654d92","system_id":"levelo_inurba_marseille","lat":43.2515,"lon":5.40299,"is_reserved":false,"is_disabled":false,"rental_uris":{"android":"levelo://app?vid=e3cfeb5a-9d21-412c-be20-0ee979654d92","ios":"levelo://app?vid=e3cfeb5a-9d21-412c-be20-0ee979654d92"},"vehicle_type_id":"4","last_reported":1738588524,"current_range_meters":17200,"station_id":"ce4bhlh2rcd13ifvqgig","pricing_plan_id":"cebpf4jnsgd1na2vs0mg"},{"bike_id":"d1b2d7ac-0781-4702-996b-bb19e4a1e027","system_id":"levelo_inurba_marseille","lat":43.216,"lon":5.44533,"is_reserved":false,"is_disabled":false,"rental_uris":{"android":"levelo://app?vid=d1b2d7ac-0781-4702-996b-bb19e4a1e027","ios":"levelo://app?vid=d1b2d7ac-0781-4702-996b-bb19e4a1e027"},"vehicle_type_id":"4","last_reported":1738588524,"current_range_meters":25600,"station_id":"ce4bhmp2rcd13ifvqgog","pricing_plan_id":"cebpf4jnsgd1na2vs0mg"},{"bike_id":"1a794636-1de8-48ff-a1bf-f41557cb147d","system_id":"levelo_inurba_marseille","lat":43.34603,"lon":5.38062,"is_reserved":false,"is_disabled":false,"rental_uris":{"android":"levelo://app?vid=1a794636-1de8-48ff-a1bf-f41557cb147d","ios":"levelo://app?vid=1a794636-1de8-48ff-a1bf-f41557cb147d"},"vehicle_type_id":"4","last_reported":1738588524,"current_range_meters":18000,"station_id":"","pricing_plan_id":"cebpf4jnsgd1na2vs0mg"},{"bike_id":"a693ea90-744f-407b-8f5c-c2c84b819d4d","system_id":"levelo_inurba_marseille","lat":43.25862,"lon":5.399,"is_reserved":false,"is_disabled":false,"rental_uris":{"android":"levelo://app?vid=a693ea90-744f-407b-8f5c-c2c84b819d4d","ios":"levelo://app?vid=a693ea90-744f-407b-8f5c-c2c84b819d4d"},"vehicle_type_id":"4","last_reported":1738588524,"current_range_meters":23200,"station_id":"ce4bhl92rcd13ifvqghg","pricing_plan_id":"cebpf4jnsgd1na2vs0mg"},{"bike_id":"8ffd93a7-f1da-4894-a175-b7b2afaf3cb9","system_id":"levelo_inurba_marseille","lat":43.29276,"lon":5.36847,"is_reserved":false,"is_disabled":false,"rental_uris":{"android":"levelo://app?vid=8ffd93a7-f1da-4894-a175-b7b2afaf3cb9","ios":"levelo://app?vid=8ffd93a7-f1da-4894-a175-b7b2afaf3cb9"},"vehicle_type_id":"4","last_reported":1738588524,"current_range_meters":38400,"station_id":"ce4bhbp2rcd13ifvqesg","pricing_plan_id":"cebpf4jnsgd1na2vs0mg"},{"bike_id":"1072a59e-6a14-4a14-b356-7d5cf661bfb6","system_id":"levelo_inurba_marseille","lat":43.30155,"lon":5.37416,"is_reserved":false,"is_disabled":false,"rental_uris":{"android":"levelo://app?vid=1072a59e-6a14-4a14-b356-7d5cf661bfb6","ios":"levelo://app?vid=1072a59e-6a14-4a14-b356-7d5cf661bfb6"},"vehicle_type_id":"4","last_reported":1738588524,"current_range_meters":32000,"station_id":"ce4bgs92rcd13ifvqcc0","pricing_plan_id":"cebpf4jnsgd1na2vs0mg"},{"bike_id":"442fb9b9-0e6e-4c8e-841f-6ffdd9011d39","system_id":"levelo_inurba_marseille","lat":43.30882,"lon":5.39636,"is_reserved":false,"is_disabled":false,"rental_uris":{"android":"levelo://app?vid=442fb9b9-0e6e-4c8e-841f-6ffdd9011d39","ios":"levelo://app?vid=442fb9b9-0e6e-4c8e-841f-6ffdd9011d39"},"vehicle_type_id":"4","last_reported":1738588524,"current_range_meters":32400,"station_id":"ce4bh012rcd13ifvqcv0","pricing_plan_id":"cebpf4jnsgd1na2vs0mg"},{"bike_id":"0df62ab4-7a82-4bdd-bb55-9793b6fbc878","system_id":"levelo_inurba_marseille","lat":43.28159,"lon":5.42649,"is_reserved":false,"is_disabled":false,"rental_uris":{"android":"levelo://app?vid=0df62ab4-7a82-4bdd-bb55-9793b6fbc878","ios":"levelo://app?vid=0df62ab4-7a82-4bdd-bb55-9793b6fbc878"},"vehicle_type_id":"4","last_reported":1738588524,"current_range_meters":9200,"station_id":"ce4bhnh2rcd13ifvqgug","pricing_plan_id":"cebpf4jnsgd1na2vs0mg"},{"bike_id":"21e627db-2eae-414e-ae36-49e774f6b84e","system_id":"levelo_inurba_marseille","lat":43.29742,"lon":5.37672,"is_reserved":false,"is_disabled":true,"rental_uris":{"android":"levelo://app?vid=21e627db-2eae-414e-ae36-49e774f6b84e","ios":"levelo://app?vid=21e627db-2eae-414e-ae36-49e774f6b84e"},"vehicle_type_id":"4","last_reported":1738588524,"current_range_meters":16400,"station_id":"ce4bgkh2rcd13ifvqbl0","pricing_plan_id":"cebpf4jnsgd1na2vs0mg"},{"bike_id":"70db77fa-5101-4cc3-b5ef-7ecd27e20697","system_id":"levelo_inurba_marseille","lat":43.2306,"lon":5.35489,"is_reserved":false,"is_disabled":false,"rental_uris":{"android":"levelo://app?vid=70db77fa-5101-4cc3-b5ef-7ecd27e20697","ios":"levelo://app?vid=70db77fa-5101-4cc3-b5ef-7ecd27e20697"},"vehicle_type_id":"4","last_reported":1738588524,"current_range_meters":28000,"station_id":"cpo3342slgdg3j2ifvpg","pricing_plan_id":"cebpf4jnsgd1na2vs0mg"},{"bike_id":"38dd8171-df50-4a44-8070-e2633631abe2","system_id":"levelo_inurba_marseille","lat":43.29366,"lon":5.37855,"is_reserved":false,"is_disabled":false,"rental_uris":{"android":"levelo://app?vid=38dd8171-df50-4a44-8070-e2633631abe2","ios":"levelo://app?vid=38dd8171-df50-4a44-8070-e2633631abe2"},"vehicle_type_id":"4","last_reported":1738588524,"current_range_meters":15200,"station_id":"ce4bgjh2rcd13ifvqbf0","pricing_plan_id":"cebpf4jnsgd1na2vs0mg"},{"bike_id":"e33c097b-83d0-40ec-9fbf-364e5b0a9ef8","system_id":"levelo_inurba_marseille","lat":43.23193,"lon":5.3554,"is_reserved":false,"is_disabled":false,"rental_uris":{"android":"levelo://app?vid=e33c097b-83d0-40ec-9fbf-364e5b0a9ef8","ios":"levelo://app?vid=e33c097b-83d0-40ec-9fbf-364e5b0a9ef8"},"vehicle_type_id":"4","last_reported":1738588524,"current_range_meters":39200,"station_id":"ce4bhu92rcd13ifvqi70","pricing_plan_id":"cebpf4jnsgd1na2vs0mg"},{"bike_id":"f0ee6f69-0d7d-40af-9e27-223a4ba42233","system_id":"levelo_inurba_marseille","lat":43.26691,"lon":5.38274,"is_reserved":false,"is_disabled":false,"rental_uris":{"android":"levelo://app?vid=f0ee6f69-0d7d-40af-9e27-223a4ba42233","ios":"levelo://app?vid=f0ee6f69-0d7d-40af-9e27-223a4ba42233"},"vehicle_type_id":"4","last_reported":1738588524,"current_range_meters":28400,"station_id":"ce4bhg92rcd13ifvqf90","pricing_plan_id":"cebpf4jnsgd1na2vs0mg"},{"bike_id":"cb152ba6-5bb3-4fe7-833a-2d39ccf76270","system_id":"levelo_inurba_marseille","lat":43.3125,"lon":5.36848,"is_reserved":false,"is_disabled":false,"rental_uris":{"android":"levelo://app?vid=cb152ba6-5bb3-4fe7-833a-2d39ccf76270","ios":"levelo://app?vid=cb152ba6-5bb3-4fe7-833a-2d39ccf76270"},"vehicle_type_id":"4","last_reported":1738588524,"current_range_meters":9200,"station_id":"ce4bgl92rcd13ifvqbq0","pricing_plan_id":"cebpf4jnsgd1na2vs0mg"},{"bike_id":"e324d65a-1768-4bb4-8203-71a3480e0e20","system_id":"levelo_inurba_marseille","lat":43.2797,"lon":5.38739,"is_reserved":false,"is_disabled":false,"rental_uris":{"android":"levelo://app?vid=e324d65a-1768-4bb4-8203-71a3480e0e20","ios":"levelo://app?vid=e324d65a-1768-4bb4-8203-71a3480e0e20"},"vehicle_type_id":"4","last_reported":1738588524,"current_range_meters":33200,"station_id":"ce4bhg12rcd13ifvqf80","pricing_plan_id":"cebpf4jnsgd1na2vs0mg"},{"bike_id":"88a9606f-57eb-4ada-bcd9-9d189bfeae6e","system_id":"levelo_inurba_marseille","lat":43.314,"lon":5.36675,"is_reserved":false,"is_disabled":false,"rental_uris":{"android":"levelo://app?vid=88a9606f-57eb-4ada-bcd9-9d189bfeae6e","ios":"levelo://app?vid=88a9606f-57eb-4ada-bcd9-9d189bfeae6e"},"vehicle_type_id":"4","last_reported":1738588524,"current_range_meters":15200,"station_id":"","pricing_plan_id":"cebpf4jnsgd1na2vs0mg"},{"bike_id":"79350486-42a5-4412-ad61-1c973067a717","system_id":"levelo_inurba_marseille","lat":43.25737,"lon":5.41101,"is_reserved":false,"is_disabled":false,"rental_uris":{"android":"levelo://app?vid=79350486-42a5-4412-ad61-1c973067a717","ios":"levelo://app?vid=79350486-42a5-4412-ad61-1c973067a717"},"vehicle_type_id":"4","last_reported":1738588524,"current_range_meters":14400,"station_id":"ce4bhkp2rcd13ifvqgd0","pricing_plan_id":"cebpf4jnsgd1na2vs0mg"},{"bike_id":"136c0ed3-6f90-4bc6-8b72-fb34b9af1701","system_id":"levelo_inurba_marseille","lat":43.30143,"lon":5.38044,"is_reserved":false,"is_disabled":false,"rental_uris":{"android":"levelo://app?vid=136c0ed3-6f90-4bc6-8b72-fb34b9af1701","ios":"levelo://app?vid=136c0ed3-6f90-4bc6-8b72-fb34b9af1701"},"vehicle_type_id":"4","last_reported":1738588524,"current_range_meters":28800,"station_id":"ce4bh692rcd13ifvqe90","pricing_plan_id":"cebpf4jnsgd1na2vs0mg"},{"bike_id":"965eadaa-c150-4624-b3c2-7d3c174bc6b8","system_id":"levelo_inurba_marseille","lat":43.29207,"lon":5.3609,"is_reserved":false,"is_disabled":false,"rental_uris":{"android":"levelo://app?vid=965eadaa-c150-4624-b3c2-7d3c174bc6b8","ios":"levelo://app?vid=965eadaa-c150-4624-b3c2-7d3c174bc6b8"},"vehicle_type_id":"4","last_reported":1738588524,"current_range_meters":5600,"station_id":"ce4bhbh2rcd13ifvqeqg","pricing_plan_id":"cebpf4jnsgd1na2vs0mg"},{"bike_id":"72d4b87d-f364-446a-af75-305aa7c677d1","system_id":"levelo_inurba_marseille","lat":43.299225,"lon":5.374856,"is_reserved":false,"is_disabled":false,"rental_uris":{"android":"levelo://app?vid=72d4b87d-f364-446a-af75-305aa7c677d1","ios":"levelo://app?vid=72d4b87d-f364-446a-af75-305aa7c677d1"},"vehicle_type_id":"4","last_reported":1738588524,"current_range_meters":13600,"station_id":"ce4bgjh2rcd13ifvqbg0","pricing_plan_id":"cebpf4jnsgd1na2vs0mg"},{"bike_id":"de27dfc9-f2fb-4778-8226-69a993c0eb2e","system_id":"levelo_inurba_marseille","lat":43.2455,"lon":5.39516,"is_reserved":false,"is_disabled":false,"rental_uris":{"android":"levelo://app?vid=de27dfc9-f2fb-4778-8226-69a993c0eb2e","ios":"levelo://app?vid=de27dfc9-f2fb-4778-8226-69a993c0eb2e"},"vehicle_type_id":"4","last_reported":1738588524,"current_range_meters":38800,"station_id":"ce4bhlp2rcd13ifvqgjg","pricing_plan_id":"cebpf4jnsgd1na2vs0mg"},{"bike_id":"3a52a92d-295a-4496-a5f8-6b9dfdeea28c","system_id":"levelo_inurba_marseille","lat":43.29051,"lon":5.39984,"is_reserved":false,"is_disabled":false,"rental_uris":{"android":"levelo://app?vid=3a52a92d-295a-4496-a5f8-6b9dfdeea28c","ios":"levelo://app?vid=3a52a92d-295a-4496-a5f8-6b9dfdeea28c"},"vehicle_type_id":"4","last_reported":1738588524,"current_range_meters":21600,"station_id":"ce4bh392rcd13ifvqdm0","pricing_plan_id":"cebpf4jnsgd1na2vs0mg"},{"bike_id":"053b7c86-8fa2-42a0-8ea3-d5126e8cd464","system_id":"levelo_inurba_marseille","lat":43.28167,"lon":5.42634,"is_reserved":false,"is_disabled":false,"rental_uris":{"android":"levelo://app?vid=053b7c86-8fa2-42a0-8ea3-d5126e8cd464","ios":"levelo://app?vid=053b7c86-8fa2-42a0-8ea3-d5126e8cd464"},"vehicle_type_id":"4","last_reported":1738588524,"current_range_meters":29600,"station_id":"ce4bhnh2rcd13ifvqgug","pricing_plan_id":"cebpf4jnsgd1na2vs0mg"},{"bike_id":"761f8c7e-e88b-48dc-b0de-7607c12c337a","system_id":"levelo_inurba_marseille","lat":43.25013,"lon":5.38911,"is_reserved":false,"is_disabled":false,"rental_uris":{"android":"levelo://app?vid=761f8c7e-e88b-48dc-b0de-7607c12c337a","ios":"levelo://app?vid=761f8c7e-e88b-48dc-b0de-7607c12c337a"},"vehicle_type_id":"4","last_reported":1738588524,"current_range_meters":12800,"station_id":"ce4bhgp2rcd13ifvqfd0","pricing_plan_id":"cebpf4jnsgd1na2vs0mg"},{"bike_id":"2852fe06-4fd0-4b90-b60b-75ab02359f10","system_id":"levelo_inurba_marseille","lat":43.33628,"lon":5.4103,"is_reserved":false,"is_disabled":false,"rental_uris":{"android":"levelo://app?vid=2852fe06-4fd0-4b90-b60b-75ab02359f10","ios":"levelo://app?vid=2852fe06-4fd0-4b90-b60b-75ab02359f10"},"vehicle_type_id":"4","last_reported":1738588524,"current_range_meters":17200,"station_id":"ce4bhqh2rcd13ifvqhmg","pricing_plan_id":"cebpf4jnsgd1na2vs0mg"},{"bike_id":"89887b4f-d13d-48c5-baf0-23a3ebf8279c","system_id":"levelo_inurba_marseille","lat":43.24069,"lon":5.37758,"is_reserved":false,"is_disabled":false,"rental_uris":{"android":"levelo://app?vid=89887b4f-d13d-48c5-baf0-23a3ebf8279c","ios":"levelo://app?vid=89887b4f-d13d-48c5-baf0-23a3ebf8279c"},"vehicle_type_id":"4","last_reported":1738588524,"current_range_meters":38000,"station_id":"ce4bhnp2rcd13ifvqgvg","pricing_plan_id":"cebpf4jnsgd1na2vs0mg"},{"bike_id":"a7911a18-229e-4d36-a642-819a80f89d79","system_id":"levelo_inurba_marseille","lat":43.29312,"lon":5.37458,"is_reserved":false,"is_disabled":false,"rental_uris":{"android":"levelo://app?vid=a7911a18-229e-4d36-a642-819a80f89d79","ios":"levelo://app?vid=a7911a18-229e-4d36-a642-819a80f89d79"},"vehicle_type_id":"4","last_reported":1738588524,"current_range_meters":32400,"station_id":"ce4bgi12rcd13ifvqb70","pricing_plan_id":"cebpf4jnsgd1na2vs0mg"},{"bike_id":"ad4a5556-9fcb-419e-a382-d14bf27bf454","system_id":"levelo_inurba_marseille","lat":43.2828,"lon":5.35056,"is_reserved":false,"is_disabled":false,"rental_uris":{"android":"levelo://app?vid=ad4a5556-9fcb-419e-a382-d14bf27bf454","ios":"levelo://app?vid=ad4a5556-9fcb-419e-a382-d14bf27bf454"},"vehicle_type_id":"4","last_reported":1738588524,"current_range_meters":29600,"station_id":"ce4bhbp2rcd13ifvqerg","pricing_plan_id":"cebpf4jnsgd1na2vs0mg"},{"bike_id":"fa5685ee-a69a-44ee-b3fc-b39358282c95","system_id":"levelo_inurba_marseille","lat":43.30148,"lon":5.37407,"is_reserved":false,"is_disabled":false,"rental_uris":{"android":"levelo://app?vid=fa5685ee-a69a-44ee-b3fc-b39358282c95","ios":"levelo://app?vid=fa5685ee-a69a-44ee-b3fc-b39358282c95"},"vehicle_type_id":"4","last_reported":1738588524,"current_range_meters":34800,"station_id":"ce4bgs92rcd13ifvqcc0","pricing_plan_id":"cebpf4jnsgd1na2vs0mg"},{"bike_id":"ec4a35f5-4c8d-43d6-bd79-61d936024c79","system_id":"levelo_inurba_marseille","lat":43.28278,"lon":5.35067,"is_reserved":false,"is_disabled":false,"rental_uris":{"android":"levelo://app?vid=ec4a35f5-4c8d-43d6-bd79-61d936024c79","ios":"levelo://app?vid=ec4a35f5-4c8d-43d6-bd79-61d936024c79"},"vehicle_type_id":"4","last_reported":1738588524,"current_range_meters":28400,"station_id":"ce4bhbp2rcd13ifvqerg","pricing_plan_id":"cebpf4jnsgd1na2vs0mg"},{"bike_id":"8e599b88-5a17-40c8-a99e-aa5dfac0c156","system_id":"levelo_inurba_marseille","lat":43.24811,"lon":5.37459,"is_reserved":false,"is_disabled":false,"rental_uris":{"android":"levelo://app?vid=8e599b88-5a17-40c8-a99e-aa5dfac0c156","ios":"levelo://app?vid=8e599b88-5a17-40c8-a99e-aa5dfac0c156"},"vehicle_type_id":"4","last_reported":1738588524,"current_range_meters":30000,"station_id":"ce4bhgh2rcd13ifvqfb0","pricing_plan_id":"cebpf4jnsgd1na2vs0mg"},{"bike_id":"336ba170-f212-47ec-a8a9-236ae819b98c","system_id":"levelo_inurba_marseille","lat":43.30891,"lon":5.37205,"is_reserved":false,"is_disabled":false,"rental_uris":{"android":"levelo://app?vid=336ba170-f212-47ec-a8a9-236ae819b98c","ios":"levelo://app?vid=336ba170-f212-47ec-a8a9-236ae819b98c"},"vehicle_type_id":"4","last_reported":1738588524,"current_range_meters":28800,"station_id":"ce4bguh2rcd13ifvqckg","pricing_plan_id":"cebpf4jnsgd1na2vs0mg"},{"bike_id":"41d30d10-c454-494c-8bd4-c394fad5211c","system_id":"levelo_inurba_marseille","lat":43.3248,"lon":5.36574,"is_reserved":false,"is_disabled":false,"rental_uris":{"android":"levelo://app?vid=41d30d10-c454-494c-8bd4-c394fad5211c","ios":"levelo://app?vid=41d30d10-c454-494c-8bd4-c394fad5211c"},"vehicle_type_id":"4","last_reported":1738588524,"current_range_meters":12800,"station_id":"ce4bhs12rcd13ifvqhvg","pricing_plan_id":"cebpf4jnsgd1na2vs0mg"},{"bike_id":"8261f0c6-5745-419b-97b0-ff859095417b","system_id":"levelo_inurba_marseille","lat":43.26684,"lon":5.38264,"is_reserved":false,"is_disabled":false,"rental_uris":{"android":"levelo://app?vid=8261f0c6-5745-419b-97b0-ff859095417b","ios":"levelo://app?vid=8261f0c6-5745-419b-97b0-ff859095417b"},"vehicle_type_id":"4","last_reported":1738588524,"current_range_meters":9600,"station_id":"ce4bhg92rcd13ifvqf90","pricing_plan_id":"cebpf4jnsgd1na2vs0mg"},{"bike_id":"30a60464-4154-4294-86ad-099421500ae0","system_id":"levelo_inurba_marseille","lat":43.31305,"lon":5.36854,"is_reserved":false,"is_disabled":false,"rental_uris":{"android":"levelo://app?vid=30a60464-4154-4294-86ad-099421500ae0","ios":"levelo://app?vid=30a60464-4154-4294-86ad-099421500ae0"},"vehicle_type_id":"4","last_reported":1738588524,"current_range_meters":39200,"station_id":"ce4bgl92rcd13ifvqbq0","pricing_plan_id":"cebpf4jnsgd1na2vs0mg"},{"bike_id":"d84fcdca-c91f-4b90-96af-b490fd4b3889","system_id":"levelo_inurba_marseille","lat":43.26602,"lon":5.38967,"is_reserved":false,"is_disabled":true,"rental_uris":{"android":"levelo://app?vid=d84fcdca-c91f-4b90-96af-b490fd4b3889","ios":"levelo://app?vid=d84fcdca-c91f-4b90-96af-b490fd4b3889"},"vehicle_type_id":"4","last_reported":1738588524,"current_range_meters":38400,"station_id":"","pricing_plan_id":"cebpf4jnsgd1na2vs0mg"},{"bike_id":"a3cfb57e-631e-4687-b099-412c005193c6","system_id":"levelo_inurba_marseille","lat":43.30134,"lon":5.38771,"is_reserved":false,"is_disabled":false,"rental_uris":{"android":"levelo://app?vid=a3cfb57e-631e-4687-b099-412c005193c6","ios":"levelo://app?vid=a3cfb57e-631e-4687-b099-412c005193c6"},"vehicle_type_id":"4","last_reported":1738588524,"current_range_meters":3600,"station_id":"ce4bghh2rcd13ifvqb60","pricing_plan_id":"cebpf4jnsgd1na2vs0mg"},{"bike_id":"4e8d7c8d-4293-4a28-9fc6-2f0611784c68","system_id":"levelo_inurba_marseille","lat":43.3054,"lon":5.38422,"is_reserved":false,"is_disabled":false,"rental_uris":{"android":"levelo://app?vid=4e8d7c8d-4293-4a28-9fc6-2f0611784c68","ios":"levelo://app?vid=4e8d7c8d-4293-4a28-9fc6-2f0611784c68"},"vehicle_type_id":"4","last_reported":1738588524,"current_range_meters":38400,"station_id":"ce4bgg92rcd13ifvqb30","pricing_plan_id":"cebpf4jnsgd1na2vs0mg"},{"bike_id":"fd3d96e7-ab9e-49b9-8fde-ad45645e97d7","system_id":"levelo_inurba_marseille","lat":43.31256,"lon":5.36847,"is_reserved":false,"is_disabled":false,"rental_uris":{"android":"levelo://app?vid=fd3d96e7-ab9e-49b9-8fde-ad45645e97d7","ios":"levelo://app?vid=fd3d96e7-ab9e-49b9-8fde-ad45645e97d7"},"vehicle_type_id":"4","last_reported":1738588524,"current_range_meters":30400,"station_id":"ce4bgl92rcd13ifvqbq0","pricing_plan_id":"cebpf4jnsgd1na2vs0mg"},{"bike_id":"ebd54e97-9be8-4143-840e-77c8786e8ad7","system_id":"levelo_inurba_marseille","lat":43.2832,"lon":5.35029,"is_reserved":false,"is_disabled":true,"rental_uris":{"android":"levelo://app?vid=ebd54e97-9be8-4143-840e-77c8786e8ad7","ios":"levelo://app?vid=ebd54e97-9be8-4143-840e-77c8786e8ad7"},"vehicle_type_id":"4","last_reported":1738588524,"current_range_meters":37600,"station_id":"ce4bhbp2rcd13ifvqerg","pricing_plan_id":"cebpf4jnsgd1na2vs0mg"},{"bike_id":"3e0dd1eb-b170-47b0-8109-d4c0212c03c2","system_id":"levelo_inurba_marseille","lat":43.26807,"lon":5.40267,"is_reserved":false,"is_disabled":false,"rental_uris":{"android":"levelo://app?vid=3e0dd1eb-b170-47b0-8109-d4c0212c03c2","ios":"levelo://app?vid=3e0dd1eb-b170-47b0-8109-d4c0212c03c2"},"vehicle_type_id":"4","last_reported":1738588524,"current_range_meters":25200,"station_id":"ce501612rcd8frsf0b60","pricing_plan_id":"cebpf4jnsgd1na2vs0mg"},{"bike_id":"ed6939b1-0552-41c7-890a-7d84dc3f3ea1","system_id":"levelo_inurba_marseille","lat":43.274967,"lon":5.42448,"is_reserved":false,"is_disabled":false,"rental_uris":{"android":"levelo://app?vid=ed6939b1-0552-41c7-890a-7d84dc3f3ea1","ios":"levelo://app?vid=ed6939b1-0552-41c7-890a-7d84dc3f3ea1"},"vehicle_type_id":"4","last_reported":1738588524,"current_range_meters":15200,"station_id":"ce4bhn92rcd13ifvqgrg","pricing_plan_id":"cebpf4jnsgd1na2vs0mg"},{"bike_id":"d956c0fa-8e81-4a5c-a819-66560ebeacd2","system_id":"levelo_inurba_marseille","lat":43.28158,"lon":5.42648,"is_reserved":false,"is_disabled":false,"rental_uris":{"android":"levelo://app?vid=d956c0fa-8e81-4a5c-a819-66560ebeacd2","ios":"levelo://app?vid=d956c0fa-8e81-4a5c-a819-66560ebeacd2"},"vehicle_type_id":"4","last_reported":1738588524,"current_range_meters":10000,"station_id":"ce4bhnh2rcd13ifvqgug","pricing_plan_id":"cebpf4jnsgd1na2vs0mg"},{"bike_id":"6e349888-fddd-4b81-8c18-298d91b75aa5","system_id":"levelo_inurba_marseille","lat":43.32499,"lon":5.3657,"is_reserved":false,"is_disabled":false,"rental_uris":{"android":"levelo://app?vid=6e349888-fddd-4b81-8c18-298d91b75aa5","ios":"levelo://app?vid=6e349888-fddd-4b81-8c18-298d91b75aa5"},"vehicle_type_id":"4","last_reported":1738588524,"current_range_meters":30000,"station_id":"ce4bhs12rcd13ifvqhvg","pricing_plan_id":"cebpf4jnsgd1na2vs0mg"},{"bike_id":"1fe8819b-7ab4-4e22-a0d2-b24e3e952e5d","system_id":"levelo_inurba_marseille","lat":43.32499,"lon":5.36553,"is_reserved":false,"is_disabled":false,"rental_uris":{"android":"levelo://app?vid=1fe8819b-7ab4-4e22-a0d2-b24e3e952e5d","ios":"levelo://app?vid=1fe8819b-7ab4-4e22-a0d2-b24e3e952e5d"},"vehicle_type_id":"4","last_reported":1738588524,"current_range_meters":38800,"station_id":"ce4bhs12rcd13ifvqhvg","pricing_plan_id":"cebpf4jnsgd1na2vs0mg"},{"bike_id":"6d9b1015-d970-4f2c-b6be-1c48cd22397b","system_id":"levelo_inurba_marseille","lat":43.30427,"lon":5.3889,"is_reserved":false,"is_disabled":false,"rental_uris":{"android":"levelo://app?vid=6d9b1015-d970-4f2c-b6be-1c48cd22397b","ios":"levelo://app?vid=6d9b1015-d970-4f2c-b6be-1c48cd22397b"},"vehicle_type_id":"4","last_reported":1738588524,"current_range_meters":38000,"station_id":"ce4bgk12rcd13ifvqbi0","pricing_plan_id":"cebpf4jnsgd1na2vs0mg"},{"bike_id":"7e41b44b-247e-43f5-8fb5-eb6b4979acbd","system_id":"levelo_inurba_marseille","lat":43.284702,"lon":5.384265,"is_reserved":false,"is_disabled":false,"rental_uris":{"android":"levelo://app?vid=7e41b44b-247e-43f5-8fb5-eb6b4979acbd","ios":"levelo://app?vid=7e41b44b-247e-43f5-8fb5-eb6b4979acbd"},"vehicle_type_id":"4","last_reported":1738588524,"current_range_meters":30400,"station_id":"ce4bh512rcd13ifvqe3g","pricing_plan_id":"cebpf4jnsgd1na2vs0mg"},{"bike_id":"9852d283-9027-465c-82cf-12dda472aabb","system_id":"levelo_inurba_marseille","lat":43.30549,"lon":5.36684,"is_reserved":false,"is_disabled":false,"rental_uris":{"android":"levelo://app?vid=9852d283-9027-465c-82cf-12dda472aabb","ios":"levelo://app?vid=9852d283-9027-465c-82cf-12dda472aabb"},"vehicle_type_id":"4","last_reported":1738588524,"current_range_meters":34000,"station_id":"ce4bgrp2rcd13ifvqc9g","pricing_plan_id":"cebpf4jnsgd1na2vs0mg"},{"bike_id":"20e08c27-f0f9-4064-a833-9891dc0bf30e","system_id":"levelo_inurba_marseille","lat":43.28357,"lon":5.381003,"is_reserved":false,"is_disabled":false,"rental_uris":{"android":"levelo://app?vid=20e08c27-f0f9-4064-a833-9891dc0bf30e","ios":"levelo://app?vid=20e08c27-f0f9-4064-a833-9891dc0bf30e"},"vehicle_type_id":"4","last_reported":1738588524,"current_range_meters":2800,"station_id":"ce4bh412rcd13ifvqdr0","pricing_plan_id":"cebpf4jnsgd1na2vs0mg"},{"bike_id":"6f99bdd8-0664-4844-8e13-433c83a27ef2","system_id":"levelo_inurba_marseille","lat":43.26689,"lon":5.38262,"is_reserved":false,"is_disabled":false,"rental_uris":{"android":"levelo://app?vid=6f99bdd8-0664-4844-8e13-433c83a27ef2","ios":"levelo://app?vid=6f99bdd8-0664-4844-8e13-433c83a27ef2"},"vehicle_type_id":"4","last_reported":1738588524,"current_range_meters":38800,"station_id":"ce4bhg92rcd13ifvqf90","pricing_plan_id":"cebpf4jnsgd1na2vs0mg"},{"bike_id":"960b3dc6-24e4-4549-af43-c7149fb4fbf7","system_id":"levelo_inurba_marseille","lat":43.270481,"lon":5.402633,"is_reserved":false,"is_disabled":false,"rental_uris":{"android":"levelo://app?vid=960b3dc6-24e4-4549-af43-c7149fb4fbf7","ios":"levelo://app?vid=960b3dc6-24e4-4549-af43-c7149fb4fbf7"},"vehicle_type_id":"4","last_reported":1738588524,"current_range_meters":22400,"station_id":"ce4bhk92rcd13ifvqgc0","pricing_plan_id":"cebpf4jnsgd1na2vs0mg"},{"bike_id":"b8a10bf8-9efc-40f9-befa-1c1b083e6e8f","system_id":"levelo_inurba_marseille","lat":43.3015,"lon":5.37417,"is_reserved":false,"is_disabled":false,"rental_uris":{"android":"levelo://app?vid=b8a10bf8-9efc-40f9-befa-1c1b083e6e8f","ios":"levelo://app?vid=b8a10bf8-9efc-40f9-befa-1c1b083e6e8f"},"vehicle_type_id":"4","last_reported":1738588524,"current_range_meters":38400,"station_id":"ce4bgs92rcd13ifvqcc0","pricing_plan_id":"cebpf4jnsgd1na2vs0mg"},{"bike_id":"4922d910-738e-4c32-b977-abc56876919c","system_id":"levelo_inurba_marseille","lat":43.32502,"lon":5.36606,"is_reserved":false,"is_disabled":false,"rental_uris":{"android":"levelo://app?vid=4922d910-738e-4c32-b977-abc56876919c","ios":"levelo://app?vid=4922d910-738e-4c32-b977-abc56876919c"},"vehicle_type_id":"4","last_reported":1738588524,"current_range_meters":35200,"station_id":"ce4bhs12rcd13ifvqhvg","pricing_plan_id":"cebpf4jnsgd1na2vs0mg"},{"bike_id":"88f6ec14-1047-428a-bfc8-ed7564b679d3","system_id":"levelo_inurba_marseille","lat":43.24423,"lon":5.37048,"is_reserved":false,"is_disabled":false,"rental_uris":{"android":"levelo://app?vid=88f6ec14-1047-428a-bfc8-ed7564b679d3","ios":"levelo://app?vid=88f6ec14-1047-428a-bfc8-ed7564b679d3"},"vehicle_type_id":"4","last_reported":1738588524,"current_range_meters":8400,"station_id":"ce4bhhh2rcd13ifvqfk0","pricing_plan_id":"cebpf4jnsgd1na2vs0mg"},{"bike_id":"2c2a9490-2674-4529-baa0-aae73696b085","system_id":"levelo_inurba_marseille","lat":43.29242,"lon":5.36843,"is_reserved":false,"is_disabled":true,"rental_uris":{"android":"levelo://app?vid=2c2a9490-2674-4529-baa0-aae73696b085","ios":"levelo://app?vid=2c2a9490-2674-4529-baa0-aae73696b085"},"vehicle_type_id":"4","last_reported":1738588524,"current_range_meters":36400,"station_id":"ce4bhbp2rcd13ifvqesg","pricing_plan_id":"cebpf4jnsgd1na2vs0mg"},{"bike_id":"b238d109-7573-4ab1-97c7-ebb4220ae2eb","system_id":"levelo_inurba_marseille","lat":43.33744,"lon":5.39177,"is_reserved":false,"is_disabled":false,"rental_uris":{"android":"levelo://app?vid=b238d109-7573-4ab1-97c7-ebb4220ae2eb","ios":"levelo://app?vid=b238d109-7573-4ab1-97c7-ebb4220ae2eb"},"vehicle_type_id":"4","last_reported":1738588524,"current_range_meters":38800,"station_id":"ce4bhr92rcd13ifvqhsg","pricing_plan_id":"cebpf4jnsgd1na2vs0mg"},{"bike_id":"fad26299-4859-48d9-af16-461be31a4018","system_id":"levelo_inurba_marseille","lat":43.23186,"lon":5.39982,"is_reserved":false,"is_disabled":true,"rental_uris":{"android":"levelo://app?vid=fad26299-4859-48d9-af16-461be31a4018","ios":"levelo://app?vid=fad26299-4859-48d9-af16-461be31a4018"},"vehicle_type_id":"4","last_reported":1738588524,"current_range_meters":1200,"station_id":"ce4bhn12rcd13ifvqgqg","pricing_plan_id":"cebpf4jnsgd1na2vs0mg"},{"bike_id":"737292e1-4a7b-4742-800d-578ccd528124","system_id":"levelo_inurba_marseille","lat":43.24099,"lon":5.3775,"is_reserved":false,"is_disabled":false,"rental_uris":{"android":"levelo://app?vid=737292e1-4a7b-4742-800d-578ccd528124","ios":"levelo://app?vid=737292e1-4a7b-4742-800d-578ccd528124"},"vehicle_type_id":"4","last_reported":1738588524,"current_range_meters":37600,"station_id":"ce4bhnp2rcd13ifvqgvg","pricing_plan_id":"cebpf4jnsgd1na2vs0mg"},{"bike_id":"330b3d2d-d2cc-48ed-812f-2962ec3cf786","system_id":"levelo_inurba_marseille","lat":43.26555,"lon":5.38998,"is_reserved":false,"is_disabled":true,"rental_uris":{"android":"levelo://app?vid=330b3d2d-d2cc-48ed-812f-2962ec3cf786","ios":"levelo://app?vid=330b3d2d-d2cc-48ed-812f-2962ec3cf786"},"vehicle_type_id":"4","last_reported":1738588524,"current_range_meters":29600,"station_id":"ce4bhe12rcd13ifvqf30","pricing_plan_id":"cebpf4jnsgd1na2vs0mg"},{"bike_id":"303e4d28-92a5-40f0-84ab-0b370010d297","system_id":"levelo_inurba_marseille","lat":43.28154,"lon":5.42631,"is_reserved":false,"is_disabled":false,"rental_uris":{"android":"levelo://app?vid=303e4d28-92a5-40f0-84ab-0b370010d297","ios":"levelo://app?vid=303e4d28-92a5-40f0-84ab-0b370010d297"},"vehicle_type_id":"4","last_reported":1738588524,"current_range_meters":26800,"station_id":"ce4bhnh2rcd13ifvqgug","pricing_plan_id":"cebpf4jnsgd1na2vs0mg"},{"bike_id":"a4375b6e-c970-4ca3-acef-5afda99a0960","system_id":"levelo_inurba_marseille","lat":43.29036,"lon":5.37556,"is_reserved":false,"is_disabled":false,"rental_uris":{"android":"levelo://app?vid=a4375b6e-c970-4ca3-acef-5afda99a0960","ios":"levelo://app?vid=a4375b6e-c970-4ca3-acef-5afda99a0960"},"vehicle_type_id":"4","last_reported":1738588524,"current_range_meters":28000,"station_id":"ce4bh692rcd13ifvqe90","pricing_plan_id":"cebpf4jnsgd1na2vs0mg"},{"bike_id":"a1cecde7-649f-4649-b593-274521c6fb10","system_id":"levelo_inurba_marseille","lat":43.324755,"lon":5.365693,"is_reserved":false,"is_disabled":false,"rental_uris":{"android":"levelo://app?vid=a1cecde7-649f-4649-b593-274521c6fb10","ios":"levelo://app?vid=a1cecde7-649f-4649-b593-274521c6fb10"},"vehicle_type_id":"4","last_reported":1738588524,"current_range_meters":36800,"station_id":"ce4bhs12rcd13ifvqhvg","pricing_plan_id":"cebpf4jnsgd1na2vs0mg"},{"bike_id":"7a51146a-1c45-4b82-adf5-408833c113b3","system_id":"levelo_inurba_marseille","lat":43.30145,"lon":5.37419,"is_reserved":false,"is_disabled":false,"rental_uris":{"android":"levelo://app?vid=7a51146a-1c45-4b82-adf5-408833c113b3","ios":"levelo://app?vid=7a51146a-1c45-4b82-adf5-408833c113b3"},"vehicle_type_id":"4","last_reported":1738588524,"current_range_meters":20000,"station_id":"ce4bgs92rcd13ifvqcc0","pricing_plan_id":"cebpf4jnsgd1na2vs0mg"},{"bike_id":"79500cc6-8b4c-4098-9e85-6d2049d71809","system_id":"levelo_inurba_marseille","lat":43.282597,"lon":5.350554,"is_reserved":false,"is_disabled":false,"rental_uris":{"android":"levelo://app?vid=79500cc6-8b4c-4098-9e85-6d2049d71809","ios":"levelo://app?vid=79500cc6-8b4c-4098-9e85-6d2049d71809"},"vehicle_type_id":"4","last_reported":1738588524,"current_range_meters":12800,"station_id":"ce4bhbp2rcd13ifvqerg","pricing_plan_id":"cebpf4jnsgd1na2vs0mg"},{"bike_id":"649532be-fa76-4383-be23-503598f86cf3","system_id":"levelo_inurba_marseille","lat":43.24996,"lon":5.38936,"is_reserved":false,"is_disabled":false,"rental_uris":{"android":"levelo://app?vid=649532be-fa76-4383-be23-503598f86cf3","ios":"levelo://app?vid=649532be-fa76-4383-be23-503598f86cf3"},"vehicle_type_id":"4","last_reported":1738588524,"current_range_meters":28400,"station_id":"ce4bhgp2rcd13ifvqfd0","pricing_plan_id":"cebpf4jnsgd1na2vs0mg"},{"bike_id":"30e962a5-ed17-4781-966d-335d338660e0","system_id":"levelo_inurba_marseille","lat":43.32431,"lon":5.43489,"is_reserved":false,"is_disabled":false,"rental_uris":{"android":"levelo://app?vid=30e962a5-ed17-4781-966d-335d338660e0","ios":"levelo://app?vid=30e962a5-ed17-4781-966d-335d338660e0"},"vehicle_type_id":"4","last_reported":1738588524,"current_range_meters":17600,"station_id":"","pricing_plan_id":"cebpf4jnsgd1na2vs0mg"},{"bike_id":"9ab32a27-70bc-4581-86f3-4d4a0925201f","system_id":"levelo_inurba_marseille","lat":43.31273,"lon":5.40167,"is_reserved":false,"is_disabled":false,"rental_uris":{"android":"levelo://app?vid=9ab32a27-70bc-4581-86f3-4d4a0925201f","ios":"levelo://app?vid=9ab32a27-70bc-4581-86f3-4d4a0925201f"},"vehicle_type_id":"4","last_reported":1738588524,"current_range_meters":26000,"station_id":"ce4bh092rcd13ifvqd30","pricing_plan_id":"cebpf4jnsgd1na2vs0mg"},{"bike_id":"43a7f4e1-4bdb-4c85-b96c-d7e2dbc90838","system_id":"levelo_inurba_marseille","lat":43.32116,"lon":5.36791,"is_reserved":false,"is_disabled":false,"rental_uris":{"android":"levelo://app?vid=43a7f4e1-4bdb-4c85-b96c-d7e2dbc90838","ios":"levelo://app?vid=43a7f4e1-4bdb-4c85-b96c-d7e2dbc90838"},"vehicle_type_id":"4","last_reported":1738588524,"current_range_meters":38800,"station_id":"ce4bhrh2rcd13ifvqhug","pricing_plan_id":"cebpf4jnsgd1na2vs0mg"},{"bike_id":"d08ca28b-23df-4eba-b7b5-7910c4aa69d2","system_id":"levelo_inurba_marseille","lat":43.32496,"lon":5.36571,"is_reserved":false,"is_disabled":false,"rental_uris":{"android":"levelo://app?vid=d08ca28b-23df-4eba-b7b5-7910c4aa69d2","ios":"levelo://app?vid=d08ca28b-23df-4eba-b7b5-7910c4aa69d2"},"vehicle_type_id":"4","last_reported":1738588524,"current_range_meters":38400,"station_id":"ce4bhs12rcd13ifvqhvg","pricing_plan_id":"cebpf4jnsgd1na2vs0mg"},{"bike_id":"b7e18bb9-36ad-4981-b952-5a8bf57e6fa2","system_id":"levelo_inurba_marseille","lat":43.30418,"lon":5.41281,"is_reserved":false,"is_disabled":false,"rental_uris":{"android":"levelo://app?vid=b7e18bb9-36ad-4981-b952-5a8bf57e6fa2","ios":"levelo://app?vid=b7e18bb9-36ad-4981-b952-5a8bf57e6fa2"},"vehicle_type_id":"4","last_reported":1738588524,"current_range_meters":37600,"station_id":"ce4bhop2rcd13ifvqh8g","pricing_plan_id":"cebpf4jnsgd1na2vs0mg"},{"bike_id":"63c83b12-b2a9-4eb9-8643-912c82a0193e","system_id":"levelo_inurba_marseille","lat":43.2558,"lon":5.38223,"is_reserved":false,"is_disabled":false,"rental_uris":{"android":"levelo://app?vid=63c83b12-b2a9-4eb9-8643-912c82a0193e","ios":"levelo://app?vid=63c83b12-b2a9-4eb9-8643-912c82a0193e"},"vehicle_type_id":"4","last_reported":1738588524,"current_range_meters":17200,"station_id":"ce4bhih2rcd13ifvqfs0","pricing_plan_id":"cebpf4jnsgd1na2vs0mg"},{"bike_id":"0743b2ad-1d8d-4c13-8b00-57c9d01b1228","system_id":"levelo_inurba_marseille","lat":43.24172,"lon":5.36408,"is_reserved":false,"is_disabled":false,"rental_uris":{"android":"levelo://app?vid=0743b2ad-1d8d-4c13-8b00-57c9d01b1228","ios":"levelo://app?vid=0743b2ad-1d8d-4c13-8b00-57c9d01b1228"},"vehicle_type_id":"4","last_reported":1738588524,"current_range_meters":25200,"station_id":"cpo36qri1sfpv3e86is0","pricing_plan_id":"cebpf4jnsgd1na2vs0mg"},{"bike_id":"2cbd5193-ddde-4715-a2bf-e1cb8bb201c9","system_id":"levelo_inurba_marseille","lat":43.2849,"lon":5.38432,"is_reserved":false,"is_disabled":true,"rental_uris":{"android":"levelo://app?vid=2cbd5193-ddde-4715-a2bf-e1cb8bb201c9","ios":"levelo://app?vid=2cbd5193-ddde-4715-a2bf-e1cb8bb201c9"},"vehicle_type_id":"4","last_reported":1738588524,"current_range_meters":0,"station_id":"ce4bh512rcd13ifvqe3g","pricing_plan_id":"cebpf4jnsgd1na2vs0mg"},{"bike_id":"4a18fa25-a72b-4cad-ab40-77dc9d93d71e","system_id":"levelo_inurba_marseille","lat":43.28419,"lon":5.37499,"is_reserved":false,"is_disabled":true,"rental_uris":{"android":"levelo://app?vid=4a18fa25-a72b-4cad-ab40-77dc9d93d71e","ios":"levelo://app?vid=4a18fa25-a72b-4cad-ab40-77dc9d93d71e"},"vehicle_type_id":"4","last_reported":1738588524,"current_range_meters":0,"station_id":"ce4bh412rcd13ifvqds0","pricing_plan_id":"cebpf4jnsgd1na2vs0mg"},{"bike_id":"1acc3ea8-60c8-439c-8bcf-9693f375481f","system_id":"levelo_inurba_marseille","lat":43.26565,"lon":5.41116,"is_reserved":false,"is_disabled":false,"rental_uris":{"android":"levelo://app?vid=1acc3ea8-60c8-439c-8bcf-9693f375481f","ios":"levelo://app?vid=1acc3ea8-60c8-439c-8bcf-9693f375481f"},"vehicle_type_id":"4","last_reported":1738588524,"current_range_meters":35200,"station_id":"","pricing_plan_id":"cebpf4jnsgd1na2vs0mg"},{"bike_id":"30e2f64a-1993-4f6e-8293-e82a342923f7","system_id":"levelo_inurba_marseille","lat":43.28719,"lon":5.37916,"is_reserved":false,"is_disabled":false,"rental_uris":{"android":"levelo://app?vid=30e2f64a-1993-4f6e-8293-e82a342923f7","ios":"levelo://app?vid=30e2f64a-1993-4f6e-8293-e82a342923f7"},"vehicle_type_id":"4","last_reported":1738588524,"current_range_meters":32000,"station_id":"ce4bh9p2rcd13ifvqec0","pricing_plan_id":"cebpf4jnsgd1na2vs0mg"},{"bike_id":"96504d29-6ada-4d28-ad41-73315561e652","system_id":"levelo_inurba_marseille","lat":43.28616,"lon":5.35103,"is_reserved":false,"is_disabled":false,"rental_uris":{"android":"levelo://app?vid=96504d29-6ada-4d28-ad41-73315561e652","ios":"levelo://app?vid=96504d29-6ada-4d28-ad41-73315561e652"},"vehicle_type_id":"4","last_reported":1738588524,"current_range_meters":30800,"station_id":"ce4bhch2rcd13ifvqeug","pricing_plan_id":"cebpf4jnsgd1na2vs0mg"},{"bike_id":"2400e173-e992-4c8a-9c65-360a6aa3568c","system_id":"levelo_inurba_marseille","lat":43.23971,"lon":5.36625,"is_reserved":false,"is_disabled":false,"rental_uris":{"android":"levelo://app?vid=2400e173-e992-4c8a-9c65-360a6aa3568c","ios":"levelo://app?vid=2400e173-e992-4c8a-9c65-360a6aa3568c"},"vehicle_type_id":"4","last_reported":1738588524,"current_range_meters":37600,"station_id":"ce4bhi12rcd13ifvqfp0","pricing_plan_id":"cebpf4jnsgd1na2vs0mg"},{"bike_id":"9b6f7e40-7104-4088-afff-930184c675e8","system_id":"levelo_inurba_marseille","lat":43.28594,"lon":5.35129,"is_reserved":false,"is_disabled":false,"rental_uris":{"android":"levelo://app?vid=9b6f7e40-7104-4088-afff-930184c675e8","ios":"levelo://app?vid=9b6f7e40-7104-4088-afff-930184c675e8"},"vehicle_type_id":"4","last_reported":1738588524,"current_range_meters":30000,"station_id":"ce4bhch2rcd13ifvqeug","pricing_plan_id":"cebpf4jnsgd1na2vs0mg"},{"bike_id":"bce96d39-9ed1-4c5e-8f56-09556fe21087","system_id":"levelo_inurba_marseille","lat":43.29294,"lon":5.36822,"is_reserved":false,"is_disabled":false,"rental_uris":{"android":"levelo://app?vid=bce96d39-9ed1-4c5e-8f56-09556fe21087","ios":"levelo://app?vid=bce96d39-9ed1-4c5e-8f56-09556fe21087"},"vehicle_type_id":"4","last_reported":1738588524,"current_range_meters":38800,"station_id":"ce4bhbp2rcd13ifvqesg","pricing_plan_id":"cebpf4jnsgd1na2vs0mg"},{"bike_id":"5dcbe4ef-29a5-4b5c-960b-41882a122c7d","system_id":"levelo_inurba_marseille","lat":43.2408,"lon":5.37762,"is_reserved":false,"is_disabled":false,"rental_uris":{"android":"levelo://app?vid=5dcbe4ef-29a5-4b5c-960b-41882a122c7d","ios":"levelo://app?vid=5dcbe4ef-29a5-4b5c-960b-41882a122c7d"},"vehicle_type_id":"4","last_reported":1738588524,"current_range_meters":7200,"station_id":"ce4bhnp2rcd13ifvqgvg","pricing_plan_id":"cebpf4jnsgd1na2vs0mg"},{"bike_id":"895b886d-f041-450f-bbc7-c95d89abf42f","system_id":"levelo_inurba_marseille","lat":43.31134,"lon":5.38023,"is_reserved":false,"is_disabled":false,"rental_uris":{"android":"levelo://app?vid=895b886d-f041-450f-bbc7-c95d89abf42f","ios":"levelo://app?vid=895b886d-f041-450f-bbc7-c95d89abf42f"},"vehicle_type_id":"4","last_reported":1738588524,"current_range_meters":30400,"station_id":"","pricing_plan_id":"cebpf4jnsgd1na2vs0mg"},{"bike_id":"72f041c0-9dd1-4889-acb7-a6df29397ade","system_id":"levelo_inurba_marseille","lat":43.28147,"lon":5.426503,"is_reserved":false,"is_disabled":false,"rental_uris":{"android":"levelo://app?vid=72f041c0-9dd1-4889-acb7-a6df29397ade","ios":"levelo://app?vid=72f041c0-9dd1-4889-acb7-a6df29397ade"},"vehicle_type_id":"4","last_reported":1738588524,"current_range_meters":30400,"station_id":"ce4bhnh2rcd13ifvqgug","pricing_plan_id":"cebpf4jnsgd1na2vs0mg"},{"bike_id":"428d75e2-39d8-469c-999e-be5c80142ac1","system_id":"levelo_inurba_marseille","lat":43.30166,"lon":5.38095,"is_reserved":false,"is_disabled":false,"rental_uris":{"android":"levelo://app?vid=428d75e2-39d8-469c-999e-be5c80142ac1","ios":"levelo://app?vid=428d75e2-39d8-469c-999e-be5c80142ac1"},"vehicle_type_id":"4","last_reported":1738588524,"current_range_meters":38800,"station_id":"ce4bgjp2rcd13ifvqbh0","pricing_plan_id":"cebpf4jnsgd1na2vs0mg"},{"bike_id":"99630b4f-d397-4cd1-b643-a51d074b76bb","system_id":"levelo_inurba_marseille","lat":43.28458,"lon":5.35893,"is_reserved":false,"is_disabled":false,"rental_uris":{"android":"levelo://app?vid=99630b4f-d397-4cd1-b643-a51d074b76bb","ios":"levelo://app?vid=99630b4f-d397-4cd1-b643-a51d074b76bb"},"vehicle_type_id":"4","last_reported":1738588524,"current_range_meters":38800,"station_id":"ce4bhah2rcd13ifvqei0","pricing_plan_id":"cebpf4jnsgd1na2vs0mg"},{"bike_id":"dfca75c2-55e3-4e13-8b26-4b6ce664ebef","system_id":"levelo_inurba_marseille","lat":43.28415,"lon":5.34967,"is_reserved":false,"is_disabled":false,"rental_uris":{"android":"levelo://app?vid=dfca75c2-55e3-4e13-8b26-4b6ce664ebef","ios":"levelo://app?vid=dfca75c2-55e3-4e13-8b26-4b6ce664ebef"},"vehicle_type_id":"4","last_reported":1738588524,"current_range_meters":9200,"station_id":"ce4bhbh2rcd13ifvqepg","pricing_plan_id":"cebpf4jnsgd1na2vs0mg"},{"bike_id":"339024e8-3d81-4c07-84dd-594593317646","system_id":"levelo_inurba_marseille","lat":43.30542,"lon":5.36698,"is_reserved":false,"is_disabled":false,"rental_uris":{"android":"levelo://app?vid=339024e8-3d81-4c07-84dd-594593317646","ios":"levelo://app?vid=339024e8-3d81-4c07-84dd-594593317646"},"vehicle_type_id":"4","last_reported":1738588524,"current_range_meters":18000,"station_id":"ce4bgrp2rcd13ifvqc9g","pricing_plan_id":"cebpf4jnsgd1na2vs0mg"},{"bike_id":"69ab4131-8e27-4dc2-a773-cc2c675545c9","system_id":"levelo_inurba_marseille","lat":43.30919,"lon":5.36856,"is_reserved":false,"is_disabled":false,"rental_uris":{"android":"levelo://app?vid=69ab4131-8e27-4dc2-a773-cc2c675545c9","ios":"levelo://app?vid=69ab4131-8e27-4dc2-a773-cc2c675545c9"},"vehicle_type_id":"4","last_reported":1738588524,"current_range_meters":29600,"station_id":"ce4bgn92rcd13ifvqbvg","pricing_plan_id":"cebpf4jnsgd1na2vs0mg"},{"bike_id":"df721def-598a-4e24-a89a-4771bf19c6fb","system_id":"levelo_inurba_marseille","lat":43.27815,"lon":5.40711,"is_reserved":false,"is_disabled":false,"rental_uris":{"android":"levelo://app?vid=df721def-598a-4e24-a89a-4771bf19c6fb","ios":"levelo://app?vid=df721def-598a-4e24-a89a-4771bf19c6fb"},"vehicle_type_id":"4","last_reported":1738588524,"current_range_meters":38800,"station_id":"ce4bhnh2rcd13ifvqgtg","pricing_plan_id":"cebpf4jnsgd1na2vs0mg"},{"bike_id":"432bc086-190c-49bd-9f0f-b7d592e08498","system_id":"levelo_inurba_marseille","lat":43.23125,"lon":5.43727,"is_reserved":false,"is_disabled":false,"rental_uris":{"android":"levelo://app?vid=432bc086-190c-49bd-9f0f-b7d592e08498","ios":"levelo://app?vid=432bc086-190c-49bd-9f0f-b7d592e08498"},"vehicle_type_id":"4","last_reported":1738588524,"current_range_meters":19200,"station_id":"ce4bhmp2rcd13ifvqgog","pricing_plan_id":"cebpf4jnsgd1na2vs0mg"},{"bike_id":"905522ef-d4d4-4a33-8994-defbf52775ca","system_id":"levelo_inurba_marseille","lat":43.26218,"lon":5.40467,"is_reserved":false,"is_disabled":true,"rental_uris":{"android":"levelo://app?vid=905522ef-d4d4-4a33-8994-defbf52775ca","ios":"levelo://app?vid=905522ef-d4d4-4a33-8994-defbf52775ca"},"vehicle_type_id":"4","last_reported":1738588524,"current_range_meters":0,"station_id":"ce4bhmh2rcd13ifvqgmg","pricing_plan_id":"cebpf4jnsgd1na2vs0mg"},{"bike_id":"26abb639-9e77-4931-9f17-eaae3f1974fd","system_id":"levelo_inurba_marseille","lat":43.27377,"lon":5.36261,"is_reserved":false,"is_disabled":true,"rental_uris":{"android":"levelo://app?vid=26abb639-9e77-4931-9f17-eaae3f1974fd","ios":"levelo://app?vid=26abb639-9e77-4931-9f17-eaae3f1974fd"},"vehicle_type_id":"4","last_reported":1738588524,"current_range_meters":34800,"station_id":"ce4bhbh2rcd13ifvqeo0","pricing_plan_id":"cebpf4jnsgd1na2vs0mg"},{"bike_id":"3034d64e-f78e-468c-b4d6-2520a053438f","system_id":"levelo_inurba_marseille","lat":43.23189,"lon":5.39993,"is_reserved":false,"is_disabled":true,"rental_uris":{"android":"levelo://app?vid=3034d64e-f78e-468c-b4d6-2520a053438f","ios":"levelo://app?vid=3034d64e-f78e-468c-b4d6-2520a053438f"},"vehicle_type_id":"4","last_reported":1738588524,"current_range_meters":16400,"station_id":"ce4bhn12rcd13ifvqgqg","pricing_plan_id":"cebpf4jnsgd1na2vs0mg"},{"bike_id":"d90e136c-19fb-4606-b68d-750f0f50132a","system_id":"levelo_inurba_marseille","lat":43.23148,"lon":5.43705,"is_reserved":false,"is_disabled":true,"rental_uris":{"android":"levelo://app?vid=d90e136c-19fb-4606-b68d-750f0f50132a","ios":"levelo://app?vid=d90e136c-19fb-4606-b68d-750f0f50132a"},"vehicle_type_id":"4","last_reported":1738588524,"current_range_meters":0,"station_id":"ce4bhmp2rcd13ifvqgog","pricing_plan_id":"cebpf4jnsgd1na2vs0mg"},{"bike_id":"51045c4d-6739-4a77-a4b2-4fa7a8439b8f","system_id":"levelo_inurba_marseille","lat":43.29004,"lon":5.35604,"is_reserved":false,"is_disabled":false,"rental_uris":{"android":"levelo://app?vid=51045c4d-6739-4a77-a4b2-4fa7a8439b8f","ios":"levelo://app?vid=51045c4d-6739-4a77-a4b2-4fa7a8439b8f"},"vehicle_type_id":"4","last_reported":1738588524,"current_range_meters":37600,"station_id":"ce4bhb92rcd13ifvqen0","pricing_plan_id":"cebpf4jnsgd1na2vs0mg"},{"bike_id":"8f810d5d-88f6-432c-ab7e-f7109c887e5b","system_id":"levelo_inurba_marseille","lat":43.28707,"lon":5.39975,"is_reserved":false,"is_disabled":false,"rental_uris":{"android":"levelo://app?vid=8f810d5d-88f6-432c-ab7e-f7109c887e5b","ios":"levelo://app?vid=8f810d5d-88f6-432c-ab7e-f7109c887e5b"},"vehicle_type_id":"4","last_reported":1738588524,"current_range_meters":26000,"station_id":"ce4bho92rcd13ifvqh3g","pricing_plan_id":"cebpf4jnsgd1na2vs0mg"},{"bike_id":"9e768907-2758-4663-849c-1bfedc158f31","system_id":"levelo_inurba_marseille","lat":43.279114,"lon":5.395864,"is_reserved":false,"is_disabled":true,"rental_uris":{"android":"levelo://app?vid=9e768907-2758-4663-849c-1bfedc158f31","ios":"levelo://app?vid=9e768907-2758-4663-849c-1bfedc158f31"},"vehicle_type_id":"4","last_reported":1738588524,"current_range_meters":0,"station_id":"ce4bhf92rcd13ifvqf40","pricing_plan_id":"cebpf4jnsgd1na2vs0mg"},{"bike_id":"aa9462c4-d8ab-474f-9e59-bd021459ce10","system_id":"levelo_inurba_marseille","lat":43.260588,"lon":5.394146,"is_reserved":false,"is_disabled":false,"rental_uris":{"android":"levelo://app?vid=aa9462c4-d8ab-474f-9e59-bd021459ce10","ios":"levelo://app?vid=aa9462c4-d8ab-474f-9e59-bd021459ce10"},"vehicle_type_id":"4","last_reported":1738588524,"current_range_meters":39200,"station_id":"ce4bhh92rcd13ifvqfj0","pricing_plan_id":"cebpf4jnsgd1na2vs0mg"},{"bike_id":"4de48d8b-dc2e-433c-8427-ccbe26fd4d06","system_id":"levelo_inurba_marseille","lat":43.33729,"lon":5.39174,"is_reserved":false,"is_disabled":false,"rental_uris":{"android":"levelo://app?vid=4de48d8b-dc2e-433c-8427-ccbe26fd4d06","ios":"levelo://app?vid=4de48d8b-dc2e-433c-8427-ccbe26fd4d06"},"vehicle_type_id":"4","last_reported":1738588524,"current_range_meters":38000,"station_id":"ce4bhr92rcd13ifvqhsg","pricing_plan_id":"cebpf4jnsgd1na2vs0mg"},{"bike_id":"d7ece394-ff35-4e79-8cc3-dfe9bd6ff65c","system_id":"levelo_inurba_marseille","lat":43.30546,"lon":5.36534,"is_reserved":false,"is_disabled":false,"rental_uris":{"android":"levelo://app?vid=d7ece394-ff35-4e79-8cc3-dfe9bd6ff65c","ios":"levelo://app?vid=d7ece394-ff35-4e79-8cc3-dfe9bd6ff65c"},"vehicle_type_id":"4","last_reported":1738588524,"current_range_meters":38000,"station_id":"ce4bgs12rcd13ifvqcag","pricing_plan_id":"cebpf4jnsgd1na2vs0mg"},{"bike_id":"942ee348-f601-4816-a32c-40a8d55d3f6b","system_id":"levelo_inurba_marseille","lat":43.337444,"lon":5.374475,"is_reserved":false,"is_disabled":true,"rental_uris":{"android":"levelo://app?vid=942ee348-f601-4816-a32c-40a8d55d3f6b","ios":"levelo://app?vid=942ee348-f601-4816-a32c-40a8d55d3f6b"},"vehicle_type_id":"4","last_reported":1738588524,"current_range_meters":0,"station_id":"","pricing_plan_id":"cebpf4jnsgd1na2vs0mg"},{"bike_id":"a7d3b724-e07d-4e52-8cab-21bbc0e96cf8","system_id":"levelo_inurba_marseille","lat":43.26229,"lon":5.37447,"is_reserved":false,"is_disabled":false,"rental_uris":{"android":"levelo://app?vid=a7d3b724-e07d-4e52-8cab-21bbc0e96cf8","ios":"levelo://app?vid=a7d3b724-e07d-4e52-8cab-21bbc0e96cf8"},"vehicle_type_id":"4","last_reported":1738588524,"current_range_meters":23200,"station_id":"ce4bhgp2rcd13ifvqfc0","pricing_plan_id":"cebpf4jnsgd1na2vs0mg"},{"bike_id":"f509805c-cf62-4952-8cc2-f1abfdf78735","system_id":"levelo_inurba_marseille","lat":43.29279,"lon":5.36842,"is_reserved":false,"is_disabled":false,"rental_uris":{"android":"levelo://app?vid=f509805c-cf62-4952-8cc2-f1abfdf78735","ios":"levelo://app?vid=f509805c-cf62-4952-8cc2-f1abfdf78735"},"vehicle_type_id":"4","last_reported":1738588524,"current_range_meters":28800,"station_id":"ce4bhbp2rcd13ifvqesg","pricing_plan_id":"cebpf4jnsgd1na2vs0mg"},{"bike_id":"c48d7078-bc59-4ba8-bd60-976e5ef155d6","system_id":"levelo_inurba_marseille","lat":43.29179,"lon":5.403551,"is_reserved":false,"is_disabled":false,"rental_uris":{"android":"levelo://app?vid=c48d7078-bc59-4ba8-bd60-976e5ef155d6","ios":"levelo://app?vid=c48d7078-bc59-4ba8-bd60-976e5ef155d6"},"vehicle_type_id":"4","last_reported":1738588524,"current_range_meters":2800,"station_id":"ce4bh312rcd13ifvqdj0","pricing_plan_id":"cebpf4jnsgd1na2vs0mg"},{"bike_id":"9819be76-2d4b-4fb5-a60b-698c25adabe5","system_id":"levelo_inurba_marseille","lat":43.26212,"lon":5.37442,"is_reserved":false,"is_disabled":false,"rental_uris":{"android":"levelo://app?vid=9819be76-2d4b-4fb5-a60b-698c25adabe5","ios":"levelo://app?vid=9819be76-2d4b-4fb5-a60b-698c25adabe5"},"vehicle_type_id":"4","last_reported":1738588524,"current_range_meters":32800,"station_id":"ce4bhgp2rcd13ifvqfc0","pricing_plan_id":"cebpf4jnsgd1na2vs0mg"},{"bike_id":"c8bd1d84-2291-473f-ab82-361f165fe1db","system_id":"levelo_inurba_marseille","lat":43.24177,"lon":5.36413,"is_reserved":false,"is_disabled":false,"rental_uris":{"android":"levelo://app?vid=c8bd1d84-2291-473f-ab82-361f165fe1db","ios":"levelo://app?vid=c8bd1d84-2291-473f-ab82-361f165fe1db"},"vehicle_type_id":"4","last_reported":1738588524,"current_range_meters":26000,"station_id":"cpo36qri1sfpv3e86is0","pricing_plan_id":"cebpf4jnsgd1na2vs0mg"},{"bike_id":"87e2ffd2-9b11-47e0-98e2-0de5260bd635","system_id":"levelo_inurba_marseille","lat":43.29559,"lon":5.42243,"is_reserved":false,"is_disabled":false,"rental_uris":{"android":"levelo://app?vid=87e2ffd2-9b11-47e0-98e2-0de5260bd635","ios":"levelo://app?vid=87e2ffd2-9b11-47e0-98e2-0de5260bd635"},"vehicle_type_id":"4","last_reported":1738588524,"current_range_meters":26000,"station_id":"ce4bhph2rcd13ifvqhdg","pricing_plan_id":"cebpf4jnsgd1na2vs0mg"},{"bike_id":"61845533-208b-479f-8a69-5ba7897d81d2","system_id":"levelo_inurba_marseille","lat":43.30161,"lon":5.37412,"is_reserved":false,"is_disabled":false,"rental_uris":{"android":"levelo://app?vid=61845533-208b-479f-8a69-5ba7897d81d2","ios":"levelo://app?vid=61845533-208b-479f-8a69-5ba7897d81d2"},"vehicle_type_id":"4","last_reported":1738588524,"current_range_meters":6000,"station_id":"ce4bgs92rcd13ifvqcc0","pricing_plan_id":"cebpf4jnsgd1na2vs0mg"},{"bike_id":"bb846df9-2969-480a-aed6-edbcf9c326fb","system_id":"levelo_inurba_marseille","lat":43.24816,"lon":5.37456,"is_reserved":false,"is_disabled":false,"rental_uris":{"android":"levelo://app?vid=bb846df9-2969-480a-aed6-edbcf9c326fb","ios":"levelo://app?vid=bb846df9-2969-480a-aed6-edbcf9c326fb"},"vehicle_type_id":"4","last_reported":1738588524,"current_range_meters":29600,"station_id":"ce4bhgh2rcd13ifvqfb0","pricing_plan_id":"cebpf4jnsgd1na2vs0mg"},{"bike_id":"48ebfd2e-3b3a-4da2-a76d-11ff63396ffb","system_id":"levelo_inurba_marseille","lat":43.28,"lon":5.39998,"is_reserved":false,"is_disabled":true,"rental_uris":{"android":"levelo://app?vid=48ebfd2e-3b3a-4da2-a76d-11ff63396ffb","ios":"levelo://app?vid=48ebfd2e-3b3a-4da2-a76d-11ff63396ffb"},"vehicle_type_id":"4","last_reported":1738588524,"current_range_meters":20800,"station_id":"ce4bho92rcd13ifvqh4g","pricing_plan_id":"cebpf4jnsgd1na2vs0mg"},{"bike_id":"85e0a930-26fd-4edc-a536-795827c6b8db","system_id":"levelo_inurba_marseille","lat":43.28695,"lon":5.374,"is_reserved":false,"is_disabled":false,"rental_uris":{"android":"levelo://app?vid=85e0a930-26fd-4edc-a536-795827c6b8db","ios":"levelo://app?vid=85e0a930-26fd-4edc-a536-795827c6b8db"},"vehicle_type_id":"4","last_reported":1738588524,"current_range_meters":18000,"station_id":"ce4bh3p2rcd13ifvqdq0","pricing_plan_id":"cebpf4jnsgd1na2vs0mg"},{"bike_id":"cd07e062-2af1-406e-bcb9-5f1ec4730937","system_id":"levelo_inurba_marseille","lat":43.23063,"lon":5.35494,"is_reserved":false,"is_disabled":false,"rental_uris":{"android":"levelo://app?vid=cd07e062-2af1-406e-bcb9-5f1ec4730937","ios":"levelo://app?vid=cd07e062-2af1-406e-bcb9-5f1ec4730937"},"vehicle_type_id":"4","last_reported":1738588524,"current_range_meters":14000,"station_id":"cpo3342slgdg3j2ifvpg","pricing_plan_id":"cebpf4jnsgd1na2vs0mg"},{"bike_id":"ef522ec1-733b-4526-883e-365a20f2baa8","system_id":"levelo_inurba_marseille","lat":43.30557,"lon":5.36688,"is_reserved":false,"is_disabled":false,"rental_uris":{"android":"levelo://app?vid=ef522ec1-733b-4526-883e-365a20f2baa8","ios":"levelo://app?vid=ef522ec1-733b-4526-883e-365a20f2baa8"},"vehicle_type_id":"4","last_reported":1738588524,"current_range_meters":38800,"station_id":"ce4bgrp2rcd13ifvqc9g","pricing_plan_id":"cebpf4jnsgd1na2vs0mg"},{"bike_id":"96ffdb49-f6eb-4505-946f-e68b8afb4802","system_id":"levelo_inurba_marseille","lat":43.24083,"lon":5.37758,"is_reserved":false,"is_disabled":false,"rental_uris":{"android":"levelo://app?vid=96ffdb49-f6eb-4505-946f-e68b8afb4802","ios":"levelo://app?vid=96ffdb49-f6eb-4505-946f-e68b8afb4802"},"vehicle_type_id":"4","last_reported":1738588524,"current_range_meters":24800,"station_id":"ce4bhnp2rcd13ifvqgvg","pricing_plan_id":"cebpf4jnsgd1na2vs0mg"},{"bike_id":"1acac746-7104-43bf-859d-4c3abe437395","system_id":"levelo_inurba_marseille","lat":43.30313,"lon":5.3921,"is_reserved":false,"is_disabled":false,"rental_uris":{"android":"levelo://app?vid=1acac746-7104-43bf-859d-4c3abe437395","ios":"levelo://app?vid=1acac746-7104-43bf-859d-4c3abe437395"},"vehicle_type_id":"4","last_reported":1738588524,"current_range_meters":35200,"station_id":"ce4bgkh2rcd13ifvqbk0","pricing_plan_id":"cebpf4jnsgd1na2vs0mg"},{"bike_id":"ffb48148-25e1-4007-823f-b7c7c0363765","system_id":"levelo_inurba_marseille","lat":43.27496,"lon":5.42462,"is_reserved":false,"is_disabled":false,"rental_uris":{"android":"levelo://app?vid=ffb48148-25e1-4007-823f-b7c7c0363765","ios":"levelo://app?vid=ffb48148-25e1-4007-823f-b7c7c0363765"},"vehicle_type_id":"4","last_reported":1738588524,"current_range_meters":17600,"station_id":"ce4bhn92rcd13ifvqgrg","pricing_plan_id":"cebpf4jnsgd1na2vs0mg"},{"bike_id":"3b746b3d-e9b2-4b33-bcea-256d7d7d7193","system_id":"levelo_inurba_marseille","lat":43.27491,"lon":5.42461,"is_reserved":false,"is_disabled":false,"rental_uris":{"android":"levelo://app?vid=3b746b3d-e9b2-4b33-bcea-256d7d7d7193","ios":"levelo://app?vid=3b746b3d-e9b2-4b33-bcea-256d7d7d7193"},"vehicle_type_id":"4","last_reported":1738588524,"current_range_meters":6000,"station_id":"ce4bhn92rcd13ifvqgrg","pricing_plan_id":"cebpf4jnsgd1na2vs0mg"},{"bike_id":"df12aafd-7ad8-4984-b1b3-b743b66b768d","system_id":"levelo_inurba_marseille","lat":43.32483,"lon":5.36576,"is_reserved":false,"is_disabled":false,"rental_uris":{"android":"levelo://app?vid=df12aafd-7ad8-4984-b1b3-b743b66b768d","ios":"levelo://app?vid=df12aafd-7ad8-4984-b1b3-b743b66b768d"},"vehicle_type_id":"4","last_reported":1738588524,"current_range_meters":38800,"station_id":"ce4bhs12rcd13ifvqhvg","pricing_plan_id":"cebpf4jnsgd1na2vs0mg"},{"bike_id":"25dd7d99-58be-4b3b-b277-dba0487613ae","system_id":"levelo_inurba_marseille","lat":43.29253,"lon":5.38433,"is_reserved":false,"is_disabled":false,"rental_uris":{"android":"levelo://app?vid=25dd7d99-58be-4b3b-b277-dba0487613ae","ios":"levelo://app?vid=25dd7d99-58be-4b3b-b277-dba0487613ae"},"vehicle_type_id":"4","last_reported":1738588524,"current_range_meters":29600,"station_id":"ce4bh692rcd13ifvqea0","pricing_plan_id":"cebpf4jnsgd1na2vs0mg"},{"bike_id":"9a259c8b-3152-4605-8f89-f05f9307c88e","system_id":"levelo_inurba_marseille","lat":43.25492,"lon":5.37649,"is_reserved":false,"is_disabled":false,"rental_uris":{"android":"levelo://app?vid=9a259c8b-3152-4605-8f89-f05f9307c88e","ios":"levelo://app?vid=9a259c8b-3152-4605-8f89-f05f9307c88e"},"vehicle_type_id":"4","last_reported":1738588524,"current_range_meters":29600,"station_id":"ce4bhh12rcd13ifvqff0","pricing_plan_id":"cebpf4jnsgd1na2vs0mg"},{"bike_id":"4b8f445e-d4a3-436e-af35-fee03661f846","system_id":"levelo_inurba_marseille","lat":43.313586,"lon":5.36709,"is_reserved":false,"is_disabled":false,"rental_uris":{"android":"levelo://app?vid=4b8f445e-d4a3-436e-af35-fee03661f846","ios":"levelo://app?vid=4b8f445e-d4a3-436e-af35-fee03661f846"},"vehicle_type_id":"4","last_reported":1738588524,"current_range_meters":38800,"station_id":"ce4bgr92rcd13ifvqc6g","pricing_plan_id":"cebpf4jnsgd1na2vs0mg"},{"bike_id":"6680bef6-29dc-411f-98bd-c0592fd24b70","system_id":"levelo_inurba_marseille","lat":43.27067,"lon":5.40259,"is_reserved":false,"is_disabled":false,"rental_uris":{"android":"levelo://app?vid=6680bef6-29dc-411f-98bd-c0592fd24b70","ios":"levelo://app?vid=6680bef6-29dc-411f-98bd-c0592fd24b70"},"vehicle_type_id":"4","last_reported":1738588524,"current_range_meters":24400,"station_id":"ce4bhk92rcd13ifvqgc0","pricing_plan_id":"cebpf4jnsgd1na2vs0mg"},{"bike_id":"d99a1562-2d27-43a9-b8ae-c675dfd1d656","system_id":"levelo_inurba_marseille","lat":43.28723,"lon":5.37916,"is_reserved":false,"is_disabled":false,"rental_uris":{"android":"levelo://app?vid=d99a1562-2d27-43a9-b8ae-c675dfd1d656","ios":"levelo://app?vid=d99a1562-2d27-43a9-b8ae-c675dfd1d656"},"vehicle_type_id":"4","last_reported":1738588524,"current_range_meters":38800,"station_id":"ce4bh9p2rcd13ifvqec0","pricing_plan_id":"cebpf4jnsgd1na2vs0mg"},{"bike_id":"dc4418de-cc9c-4884-a926-958a5f8e274c","system_id":"levelo_inurba_marseille","lat":43.28622,"lon":5.35094,"is_reserved":false,"is_disabled":false,"rental_uris":{"android":"levelo://app?vid=dc4418de-cc9c-4884-a926-958a5f8e274c","ios":"levelo://app?vid=dc4418de-cc9c-4884-a926-958a5f8e274c"},"vehicle_type_id":"4","last_reported":1738588524,"current_range_meters":38800,"station_id":"ce4bhch2rcd13ifvqeug","pricing_plan_id":"cebpf4jnsgd1na2vs0mg"},{"bike_id":"710d575f-a84c-401c-a910-f04b3610e224","system_id":"levelo_inurba_marseille","lat":43.30156,"lon":5.37425,"is_reserved":false,"is_disabled":false,"rental_uris":{"android":"levelo://app?vid=710d575f-a84c-401c-a910-f04b3610e224","ios":"levelo://app?vid=710d575f-a84c-401c-a910-f04b3610e224"},"vehicle_type_id":"4","last_reported":1738588524,"current_range_meters":38800,"station_id":"ce4bgs92rcd13ifvqcc0","pricing_plan_id":"cebpf4jnsgd1na2vs0mg"},{"bike_id":"2edd9305-848f-45a7-989d-f83d93e513ea","system_id":"levelo_inurba_marseille","lat":43.24179,"lon":5.39736,"is_reserved":false,"is_disabled":false,"rental_uris":{"android":"levelo://app?vid=2edd9305-848f-45a7-989d-f83d93e513ea","ios":"levelo://app?vid=2edd9305-848f-45a7-989d-f83d93e513ea"},"vehicle_type_id":"4","last_reported":1738588524,"current_range_meters":15200,"station_id":"ce4bhn12rcd13ifvqgpg","pricing_plan_id":"cebpf4jnsgd1na2vs0mg"},{"bike_id":"aea619b9-7d74-45dd-a7df-e17e86e684a0","system_id":"levelo_inurba_marseille","lat":43.29912,"lon":5.37491,"is_reserved":false,"is_disabled":false,"rental_uris":{"android":"levelo://app?vid=aea619b9-7d74-45dd-a7df-e17e86e684a0","ios":"levelo://app?vid=aea619b9-7d74-45dd-a7df-e17e86e684a0"},"vehicle_type_id":"4","last_reported":1738588524,"current_range_meters":38400,"station_id":"ce4bgjh2rcd13ifvqbg0","pricing_plan_id":"cebpf4jnsgd1na2vs0mg"},{"bike_id":"987389a2-714b-4702-bea8-dab01f59e0c6","system_id":"levelo_inurba_marseille","lat":43.313749,"lon":5.367023,"is_reserved":false,"is_disabled":false,"rental_uris":{"android":"levelo://app?vid=987389a2-714b-4702-bea8-dab01f59e0c6","ios":"levelo://app?vid=987389a2-714b-4702-bea8-dab01f59e0c6"},"vehicle_type_id":"4","last_reported":1738588524,"current_range_meters":35200,"station_id":"ce4bgr92rcd13ifvqc6g","pricing_plan_id":"cebpf4jnsgd1na2vs0mg"},{"bike_id":"d7f4aa5e-40ed-4777-b516-f5779ff35ff8","system_id":"levelo_inurba_marseille","lat":43.26509,"lon":5.39557,"is_reserved":false,"is_disabled":false,"rental_uris":{"android":"levelo://app?vid=d7f4aa5e-40ed-4777-b516-f5779ff35ff8","ios":"levelo://app?vid=d7f4aa5e-40ed-4777-b516-f5779ff35ff8"},"vehicle_type_id":"4","last_reported":1738588524,"current_range_meters":38800,"station_id":"ce4bhi12rcd13ifvqfq0","pricing_plan_id":"cebpf4jnsgd1na2vs0mg"},{"bike_id":"fa48af50-f7f8-463b-8073-011bea7848cf","system_id":"levelo_inurba_marseille","lat":43.26944,"lon":5.4025,"is_reserved":false,"is_disabled":false,"rental_uris":{"android":"levelo://app?vid=fa48af50-f7f8-463b-8073-011bea7848cf","ios":"levelo://app?vid=fa48af50-f7f8-463b-8073-011bea7848cf"},"vehicle_type_id":"4","last_reported":1738588524,"current_range_meters":36800,"station_id":"cjm6bp8fraef2m0cb0m0","pricing_plan_id":"cebpf4jnsgd1na2vs0mg"},{"bike_id":"5ade7ba6-5cf8-4098-a2bc-7b052244e23a","system_id":"levelo_inurba_marseille","lat":43.276657,"lon":5.388833,"is_reserved":false,"is_disabled":false,"rental_uris":{"android":"levelo://app?vid=5ade7ba6-5cf8-4098-a2bc-7b052244e23a","ios":"levelo://app?vid=5ade7ba6-5cf8-4098-a2bc-7b052244e23a"},"vehicle_type_id":"4","last_reported":1738588524,"current_range_meters":18800,"station_id":"ce4bhi12rcd13ifvqfo0","pricing_plan_id":"cebpf4jnsgd1na2vs0mg"},{"bike_id":"e0cbf8f2-4a92-439e-b08d-e0ad98caa80c","system_id":"levelo_inurba_marseille","lat":43.29636,"lon":5.37167,"is_reserved":false,"is_disabled":false,"rental_uris":{"android":"levelo://app?vid=e0cbf8f2-4a92-439e-b08d-e0ad98caa80c","ios":"levelo://app?vid=e0cbf8f2-4a92-439e-b08d-e0ad98caa80c"},"vehicle_type_id":"4","last_reported":1738588524,"current_range_meters":38400,"station_id":"ce4bgnh2rcd13ifvqc0g","pricing_plan_id":"cebpf4jnsgd1na2vs0mg"},{"bike_id":"dbdfa809-53c1-4aa6-8539-88b7e02d360b","system_id":"levelo_inurba_marseille","lat":43.30157,"lon":5.38087,"is_reserved":false,"is_disabled":false,"rental_uris":{"android":"levelo://app?vid=dbdfa809-53c1-4aa6-8539-88b7e02d360b","ios":"levelo://app?vid=dbdfa809-53c1-4aa6-8539-88b7e02d360b"},"vehicle_type_id":"4","last_reported":1738588524,"current_range_meters":38800,"station_id":"ce4bgjp2rcd13ifvqbh0","pricing_plan_id":"cebpf4jnsgd1na2vs0mg"},{"bike_id":"7bbd1ca9-5cb4-4750-a3f0-60560373cbff","system_id":"levelo_inurba_marseille","lat":43.25496,"lon":5.3765,"is_reserved":false,"is_disabled":false,"rental_uris":{"android":"levelo://app?vid=7bbd1ca9-5cb4-4750-a3f0-60560373cbff","ios":"levelo://app?vid=7bbd1ca9-5cb4-4750-a3f0-60560373cbff"},"vehicle_type_id":"4","last_reported":1738588524,"current_range_meters":39200,"station_id":"ce4bhh12rcd13ifvqff0","pricing_plan_id":"cebpf4jnsgd1na2vs0mg"},{"bike_id":"2c2bdb89-24c3-4110-816f-1938ef100a9e","system_id":"levelo_inurba_marseille","lat":43.33013,"lon":5.38979,"is_reserved":false,"is_disabled":false,"rental_uris":{"android":"levelo://app?vid=2c2bdb89-24c3-4110-816f-1938ef100a9e","ios":"levelo://app?vid=2c2bdb89-24c3-4110-816f-1938ef100a9e"},"vehicle_type_id":"4","last_reported":1738588524,"current_range_meters":24800,"station_id":"ce4bhr92rcd13ifvqhrg","pricing_plan_id":"cebpf4jnsgd1na2vs0mg"},{"bike_id":"20d78091-b743-478b-a12c-d5c9f2c24bc2","system_id":"levelo_inurba_marseille","lat":43.26947,"lon":5.38624,"is_reserved":false,"is_disabled":false,"rental_uris":{"android":"levelo://app?vid=20d78091-b743-478b-a12c-d5c9f2c24bc2","ios":"levelo://app?vid=20d78091-b743-478b-a12c-d5c9f2c24bc2"},"vehicle_type_id":"4","last_reported":1738588524,"current_range_meters":38800,"station_id":"ce4bhh92rcd13ifvqfh0","pricing_plan_id":"cebpf4jnsgd1na2vs0mg"},{"bike_id":"a0222d19-7d7f-40e3-b642-f8d911504c75","system_id":"levelo_inurba_marseille","lat":43.29038,"lon":5.39951,"is_reserved":false,"is_disabled":false,"rental_uris":{"android":"levelo://app?vid=a0222d19-7d7f-40e3-b642-f8d911504c75","ios":"levelo://app?vid=a0222d19-7d7f-40e3-b642-f8d911504c75"},"vehicle_type_id":"4","last_reported":1738588524,"current_range_meters":31200,"station_id":"ce4bh392rcd13ifvqdm0","pricing_plan_id":"cebpf4jnsgd1na2vs0mg"},{"bike_id":"577383b2-bf58-4b25-8224-bf0cdd1be01d","system_id":"levelo_inurba_marseille","lat":43.241743,"lon":5.397306,"is_reserved":false,"is_disabled":false,"rental_uris":{"android":"levelo://app?vid=577383b2-bf58-4b25-8224-bf0cdd1be01d","ios":"levelo://app?vid=577383b2-bf58-4b25-8224-bf0cdd1be01d"},"vehicle_type_id":"4","last_reported":1738588524,"current_range_meters":24800,"station_id":"ce4bhn12rcd13ifvqgpg","pricing_plan_id":"cebpf4jnsgd1na2vs0mg"},{"bike_id":"1030592f-5474-4529-bbb2-97a09ffd2eb1","system_id":"levelo_inurba_marseille","lat":43.34142,"lon":5.40899,"is_reserved":false,"is_disabled":false,"rental_uris":{"android":"levelo://app?vid=1030592f-5474-4529-bbb2-97a09ffd2eb1","ios":"levelo://app?vid=1030592f-5474-4529-bbb2-97a09ffd2eb1"},"vehicle_type_id":"4","last_reported":1738588524,"current_range_meters":28800,"station_id":"ce4bhqh2rcd13ifvqhlg","pricing_plan_id":"cebpf4jnsgd1na2vs0mg"},{"bike_id":"6bb18b6b-35db-4080-8375-2a2e83c6fc4b","system_id":"levelo_inurba_marseille","lat":43.23157,"lon":5.4371,"is_reserved":false,"is_disabled":true,"rental_uris":{"android":"levelo://app?vid=6bb18b6b-35db-4080-8375-2a2e83c6fc4b","ios":"levelo://app?vid=6bb18b6b-35db-4080-8375-2a2e83c6fc4b"},"vehicle_type_id":"4","last_reported":1738588524,"current_range_meters":38800,"station_id":"ce4bhmp2rcd13ifvqgog","pricing_plan_id":"cebpf4jnsgd1na2vs0mg"},{"bike_id":"b51347e8-adaf-403b-bb32-5acb4d558eed","system_id":"levelo_inurba_marseille","lat":43.30941,"lon":5.39017,"is_reserved":false,"is_disabled":false,"rental_uris":{"android":"levelo://app?vid=b51347e8-adaf-403b-bb32-5acb4d558eed","ios":"levelo://app?vid=b51347e8-adaf-403b-bb32-5acb4d558eed"},"vehicle_type_id":"4","last_reported":1738588524,"current_range_meters":26800,"station_id":"ce4bgup2rcd13ifvqco0","pricing_plan_id":"cebpf4jnsgd1na2vs0mg"},{"bike_id":"f9a8963c-1f10-4079-b5e0-2c6b249fd0b1","system_id":"levelo_inurba_marseille","lat":43.29419,"lon":5.38615,"is_reserved":false,"is_disabled":false,"rental_uris":{"android":"levelo://app?vid=f9a8963c-1f10-4079-b5e0-2c6b249fd0b1","ios":"levelo://app?vid=f9a8963c-1f10-4079-b5e0-2c6b249fd0b1"},"vehicle_type_id":"4","last_reported":1738588524,"current_range_meters":16000,"station_id":"ce4bh2h2rcd13ifvqdh0","pricing_plan_id":"cebpf4jnsgd1na2vs0mg"},{"bike_id":"16d2c7b1-d8b9-4b3c-a6a9-f5add58b3e7a","system_id":"levelo_inurba_marseille","lat":43.24096,"lon":5.37756,"is_reserved":false,"is_disabled":false,"rental_uris":{"android":"levelo://app?vid=16d2c7b1-d8b9-4b3c-a6a9-f5add58b3e7a","ios":"levelo://app?vid=16d2c7b1-d8b9-4b3c-a6a9-f5add58b3e7a"},"vehicle_type_id":"4","last_reported":1738588524,"current_range_meters":25200,"station_id":"ce4bhnp2rcd13ifvqgvg","pricing_plan_id":"cebpf4jnsgd1na2vs0mg"},{"bike_id":"2fb85062-1158-465e-828e-3e87ffb49924","system_id":"levelo_inurba_marseille","lat":43.27616,"lon":5.36103,"is_reserved":false,"is_disabled":false,"rental_uris":{"android":"levelo://app?vid=2fb85062-1158-465e-828e-3e87ffb49924","ios":"levelo://app?vid=2fb85062-1158-465e-828e-3e87ffb49924"},"vehicle_type_id":"4","last_reported":1738588524,"current_range_meters":31200,"station_id":"ce4bgj92rcd13ifvqbe0","pricing_plan_id":"cebpf4jnsgd1na2vs0mg"},{"bike_id":"27a1618b-ec0c-4b1b-9df1-d6544781bbc9","system_id":"levelo_inurba_marseille","lat":43.25551,"lon":5.38205,"is_reserved":false,"is_disabled":false,"rental_uris":{"android":"levelo://app?vid=27a1618b-ec0c-4b1b-9df1-d6544781bbc9","ios":"levelo://app?vid=27a1618b-ec0c-4b1b-9df1-d6544781bbc9"},"vehicle_type_id":"4","last_reported":1738588524,"current_range_meters":11600,"station_id":"ce4bhih2rcd13ifvqfs0","pricing_plan_id":"cebpf4jnsgd1na2vs0mg"},{"bike_id":"67e28628-4e88-4d22-9395-5aa2097ec3d5","system_id":"levelo_inurba_marseille","lat":43.28937,"lon":5.36399,"is_reserved":false,"is_disabled":false,"rental_uris":{"android":"levelo://app?vid=67e28628-4e88-4d22-9395-5aa2097ec3d5","ios":"levelo://app?vid=67e28628-4e88-4d22-9395-5aa2097ec3d5"},"vehicle_type_id":"4","last_reported":1738588524,"current_range_meters":39200,"station_id":"ce4bhc92rcd13ifvqetg","pricing_plan_id":"cebpf4jnsgd1na2vs0mg"},{"bike_id":"1835d11e-5aeb-49c5-8332-a7f20203500d","system_id":"levelo_inurba_marseille","lat":43.31337,"lon":5.36727,"is_reserved":false,"is_disabled":false,"rental_uris":{"android":"levelo://app?vid=1835d11e-5aeb-49c5-8332-a7f20203500d","ios":"levelo://app?vid=1835d11e-5aeb-49c5-8332-a7f20203500d"},"vehicle_type_id":"4","last_reported":1738588524,"current_range_meters":38800,"station_id":"ce4bgr92rcd13ifvqc6g","pricing_plan_id":"cebpf4jnsgd1na2vs0mg"},{"bike_id":"6fa29cff-d8fa-4fb1-b5d9-4a419f3f6115","system_id":"levelo_inurba_marseille","lat":43.25949,"lon":5.40897,"is_reserved":false,"is_disabled":false,"rental_uris":{"android":"levelo://app?vid=6fa29cff-d8fa-4fb1-b5d9-4a419f3f6115","ios":"levelo://app?vid=6fa29cff-d8fa-4fb1-b5d9-4a419f3f6115"},"vehicle_type_id":"4","last_reported":1738588524,"current_range_meters":14800,"station_id":"ce4bhm92rcd13ifvqglg","pricing_plan_id":"cebpf4jnsgd1na2vs0mg"},{"bike_id":"7cf7455b-1a42-48fd-bebf-8bb1aed6e6fe","system_id":"levelo_inurba_marseille","lat":43.30949,"lon":5.39024,"is_reserved":false,"is_disabled":false,"rental_uris":{"android":"levelo://app?vid=7cf7455b-1a42-48fd-bebf-8bb1aed6e6fe","ios":"levelo://app?vid=7cf7455b-1a42-48fd-bebf-8bb1aed6e6fe"},"vehicle_type_id":"4","last_reported":1738588524,"current_range_meters":33600,"station_id":"ce4bgup2rcd13ifvqco0","pricing_plan_id":"cebpf4jnsgd1na2vs0mg"},{"bike_id":"8925b961-77ea-4fcf-8f2b-d895cd86bc19","system_id":"levelo_inurba_marseille","lat":43.23141,"lon":5.43723,"is_reserved":false,"is_disabled":false,"rental_uris":{"android":"levelo://app?vid=8925b961-77ea-4fcf-8f2b-d895cd86bc19","ios":"levelo://app?vid=8925b961-77ea-4fcf-8f2b-d895cd86bc19"},"vehicle_type_id":"4","last_reported":1738588524,"current_range_meters":14000,"station_id":"ce4bhmp2rcd13ifvqgog","pricing_plan_id":"cebpf4jnsgd1na2vs0mg"},{"bike_id":"bbf6782e-3d32-4f22-b667-5174c00b8cd2","system_id":"levelo_inurba_marseille","lat":43.29163,"lon":5.37166,"is_reserved":false,"is_disabled":false,"rental_uris":{"android":"levelo://app?vid=bbf6782e-3d32-4f22-b667-5174c00b8cd2","ios":"levelo://app?vid=bbf6782e-3d32-4f22-b667-5174c00b8cd2"},"vehicle_type_id":"4","last_reported":1738588524,"current_range_meters":18000,"station_id":"ce4bha92rcd13ifvqeh0","pricing_plan_id":"cebpf4jnsgd1na2vs0mg"},{"bike_id":"954b3118-a56f-45fe-8bc4-d8aca9496456","system_id":"levelo_inurba_marseille","lat":43.29708,"lon":5.36575,"is_reserved":false,"is_disabled":false,"rental_uris":{"android":"levelo://app?vid=954b3118-a56f-45fe-8bc4-d8aca9496456","ios":"levelo://app?vid=954b3118-a56f-45fe-8bc4-d8aca9496456"},"vehicle_type_id":"4","last_reported":1738588524,"current_range_meters":2800,"station_id":"ce4bgn12rcd13ifvqbt0","pricing_plan_id":"cebpf4jnsgd1na2vs0mg"},{"bike_id":"6e96992e-e0e6-4329-a80c-6528444b4b6f","system_id":"levelo_inurba_marseille","lat":43.28157,"lon":5.42663,"is_reserved":false,"is_disabled":true,"rental_uris":{"android":"levelo://app?vid=6e96992e-e0e6-4329-a80c-6528444b4b6f","ios":"levelo://app?vid=6e96992e-e0e6-4329-a80c-6528444b4b6f"},"vehicle_type_id":"4","last_reported":1738588524,"current_range_meters":1200,"station_id":"ce4bhnh2rcd13ifvqgug","pricing_plan_id":"cebpf4jnsgd1na2vs0mg"},{"bike_id":"d7ed013c-9da4-45e9-81c5-164338851061","system_id":"levelo_inurba_marseille","lat":43.28494,"lon":5.3855,"is_reserved":false,"is_disabled":false,"rental_uris":{"android":"levelo://app?vid=d7ed013c-9da4-45e9-81c5-164338851061","ios":"levelo://app?vid=d7ed013c-9da4-45e9-81c5-164338851061"},"vehicle_type_id":"4","last_reported":1738588524,"current_range_meters":38800,"station_id":"ce4bh8p2rcd13ifvqeb0","pricing_plan_id":"cebpf4jnsgd1na2vs0mg"},{"bike_id":"eb9c859e-ef39-446e-afa7-9063d5540a2c","system_id":"levelo_inurba_marseille","lat":43.329252,"lon":5.366994,"is_reserved":false,"is_disabled":false,"rental_uris":{"android":"levelo://app?vid=eb9c859e-ef39-446e-afa7-9063d5540a2c","ios":"levelo://app?vid=eb9c859e-ef39-446e-afa7-9063d5540a2c"},"vehicle_type_id":"4","last_reported":1738588524,"current_range_meters":32800,"station_id":"","pricing_plan_id":"cebpf4jnsgd1na2vs0mg"},{"bike_id":"3c12d71f-fdf6-47c7-8762-9a25ac4bcc24","system_id":"levelo_inurba_marseille","lat":43.26199,"lon":5.37925,"is_reserved":false,"is_disabled":false,"rental_uris":{"android":"levelo://app?vid=3c12d71f-fdf6-47c7-8762-9a25ac4bcc24","ios":"levelo://app?vid=3c12d71f-fdf6-47c7-8762-9a25ac4bcc24"},"vehicle_type_id":"4","last_reported":1738588524,"current_range_meters":24800,"station_id":"ce4bhjp2rcd13ifvqg90","pricing_plan_id":"cebpf4jnsgd1na2vs0mg"},{"bike_id":"42c5a1c4-fa81-451e-9aca-6c434ec39c24","system_id":"levelo_inurba_marseille","lat":43.31225,"lon":5.36844,"is_reserved":false,"is_disabled":false,"rental_uris":{"android":"levelo://app?vid=42c5a1c4-fa81-451e-9aca-6c434ec39c24","ios":"levelo://app?vid=42c5a1c4-fa81-451e-9aca-6c434ec39c24"},"vehicle_type_id":"4","last_reported":1738588524,"current_range_meters":39200,"station_id":"ce4bgl92rcd13ifvqbq0","pricing_plan_id":"cebpf4jnsgd1na2vs0mg"},{"bike_id":"5688ac17-5443-4dac-8fe6-c32fce7d33ec","system_id":"levelo_inurba_marseille","lat":43.27371,"lon":5.36236,"is_reserved":false,"is_disabled":false,"rental_uris":{"android":"levelo://app?vid=5688ac17-5443-4dac-8fe6-c32fce7d33ec","ios":"levelo://app?vid=5688ac17-5443-4dac-8fe6-c32fce7d33ec"},"vehicle_type_id":"4","last_reported":1738588524,"current_range_meters":7200,"station_id":"ce4bhbh2rcd13ifvqeo0","pricing_plan_id":"cebpf4jnsgd1na2vs0mg"},{"bike_id":"d935c547-b151-4f0d-b599-746151ec5725","system_id":"levelo_inurba_marseille","lat":43.29367,"lon":5.37852,"is_reserved":false,"is_disabled":true,"rental_uris":{"android":"levelo://app?vid=d935c547-b151-4f0d-b599-746151ec5725","ios":"levelo://app?vid=d935c547-b151-4f0d-b599-746151ec5725"},"vehicle_type_id":"4","last_reported":1738588524,"current_range_meters":28400,"station_id":"ce4bgjh2rcd13ifvqbf0","pricing_plan_id":"cebpf4jnsgd1na2vs0mg"},{"bike_id":"bd8fce10-db60-4637-88ad-07a5a938f039","system_id":"levelo_inurba_marseille","lat":43.28609,"lon":5.37062,"is_reserved":false,"is_disabled":true,"rental_uris":{"android":"levelo://app?vid=bd8fce10-db60-4637-88ad-07a5a938f039","ios":"levelo://app?vid=bd8fce10-db60-4637-88ad-07a5a938f039"},"vehicle_type_id":"4","last_reported":1738588524,"current_range_meters":38800,"station_id":"ce4bht12rcd13ifvqi60","pricing_plan_id":"cebpf4jnsgd1na2vs0mg"},{"bike_id":"aca7f856-95b0-4e97-8a0a-cf9d567272bd","system_id":"levelo_inurba_marseille","lat":43.23068,"lon":5.35477,"is_reserved":false,"is_disabled":false,"rental_uris":{"android":"levelo://app?vid=aca7f856-95b0-4e97-8a0a-cf9d567272bd","ios":"levelo://app?vid=aca7f856-95b0-4e97-8a0a-cf9d567272bd"},"vehicle_type_id":"4","last_reported":1738588524,"current_range_meters":36800,"station_id":"cpo3342slgdg3j2ifvpg","pricing_plan_id":"cebpf4jnsgd1na2vs0mg"},{"bike_id":"ffd810c4-873c-46d9-9479-4a00bc0ca2fb","system_id":"levelo_inurba_marseille","lat":43.29013,"lon":5.38125,"is_reserved":false,"is_disabled":false,"rental_uris":{"android":"levelo://app?vid=ffd810c4-873c-46d9-9479-4a00bc0ca2fb","ios":"levelo://app?vid=ffd810c4-873c-46d9-9479-4a00bc0ca2fb"},"vehicle_type_id":"4","last_reported":1738588524,"current_range_meters":11200,"station_id":"ce4bh4p2rcd13ifvqe1g","pricing_plan_id":"cebpf4jnsgd1na2vs0mg"},{"bike_id":"9d9e6714-036c-4151-8a5d-515ad00cd54b","system_id":"levelo_inurba_marseille","lat":43.23199,"lon":5.35549,"is_reserved":false,"is_disabled":false,"rental_uris":{"android":"levelo://app?vid=9d9e6714-036c-4151-8a5d-515ad00cd54b","ios":"levelo://app?vid=9d9e6714-036c-4151-8a5d-515ad00cd54b"},"vehicle_type_id":"4","last_reported":1738588524,"current_range_meters":22400,"station_id":"ce4bhu92rcd13ifvqi70","pricing_plan_id":"cebpf4jnsgd1na2vs0mg"},{"bike_id":"a0a9ff7c-65bc-459c-b1ae-c94d1bfe3e15","system_id":"levelo_inurba_marseille","lat":43.32501,"lon":5.36567,"is_reserved":false,"is_disabled":false,"rental_uris":{"android":"levelo://app?vid=a0a9ff7c-65bc-459c-b1ae-c94d1bfe3e15","ios":"levelo://app?vid=a0a9ff7c-65bc-459c-b1ae-c94d1bfe3e15"},"vehicle_type_id":"4","last_reported":1738588524,"current_range_meters":38800,"station_id":"ce4bhs12rcd13ifvqhvg","pricing_plan_id":"cebpf4jnsgd1na2vs0mg"},{"bike_id":"d9c026fc-f7a2-40b8-9ab9-8d21a9158f38","system_id":"levelo_inurba_marseille","lat":43.29422,"lon":5.38612,"is_reserved":false,"is_disabled":false,"rental_uris":{"android":"levelo://app?vid=d9c026fc-f7a2-40b8-9ab9-8d21a9158f38","ios":"levelo://app?vid=d9c026fc-f7a2-40b8-9ab9-8d21a9158f38"},"vehicle_type_id":"4","last_reported":1738588524,"current_range_meters":13600,"station_id":"ce4bh2h2rcd13ifvqdh0","pricing_plan_id":"cebpf4jnsgd1na2vs0mg"},{"bike_id":"206c3084-e015-4441-970f-5909e221fe84","system_id":"levelo_inurba_marseille","lat":43.29719,"lon":5.36607,"is_reserved":false,"is_disabled":false,"rental_uris":{"android":"levelo://app?vid=206c3084-e015-4441-970f-5909e221fe84","ios":"levelo://app?vid=206c3084-e015-4441-970f-5909e221fe84"},"vehicle_type_id":"4","last_reported":1738588524,"current_range_meters":33600,"station_id":"ce4bgn12rcd13ifvqbt0","pricing_plan_id":"cebpf4jnsgd1na2vs0mg"},{"bike_id":"4cbc1702-33a5-415f-a49a-64ced741e96f","system_id":"levelo_inurba_marseille","lat":43.30138,"lon":5.39846,"is_reserved":false,"is_disabled":false,"rental_uris":{"android":"levelo://app?vid=4cbc1702-33a5-415f-a49a-64ced741e96f","ios":"levelo://app?vid=4cbc1702-33a5-415f-a49a-64ced741e96f"},"vehicle_type_id":"4","last_reported":1738588524,"current_range_meters":36800,"station_id":"ce4bh0h2rcd13ifvqd40","pricing_plan_id":"cebpf4jnsgd1na2vs0mg"},{"bike_id":"fa86509c-c01b-48ea-b21a-3e978d1c54d5","system_id":"levelo_inurba_marseille","lat":43.30357,"lon":5.41887,"is_reserved":false,"is_disabled":true,"rental_uris":{"android":"levelo://app?vid=fa86509c-c01b-48ea-b21a-3e978d1c54d5","ios":"levelo://app?vid=fa86509c-c01b-48ea-b21a-3e978d1c54d5"},"vehicle_type_id":"4","last_reported":1738588524,"current_range_meters":37600,"station_id":"ce4bhop2rcd13ifvqh7g","pricing_plan_id":"cebpf4jnsgd1na2vs0mg"},{"bike_id":"f8245ac1-055c-4956-9505-c34c84a2fb02","system_id":"levelo_inurba_marseille","lat":43.30298,"lon":5.37402,"is_reserved":false,"is_disabled":true,"rental_uris":{"android":"levelo://app?vid=f8245ac1-055c-4956-9505-c34c84a2fb02","ios":"levelo://app?vid=f8245ac1-055c-4956-9505-c34c84a2fb02"},"vehicle_type_id":"4","last_reported":1738588524,"current_range_meters":34000,"station_id":"","pricing_plan_id":"cebpf4jnsgd1na2vs0mg"},{"bike_id":"69031904-28de-4fb5-89cb-e2203a303110","system_id":"levelo_inurba_marseille","lat":43.30882,"lon":5.36871,"is_reserved":false,"is_disabled":false,"rental_uris":{"android":"levelo://app?vid=69031904-28de-4fb5-89cb-e2203a303110","ios":"levelo://app?vid=69031904-28de-4fb5-89cb-e2203a303110"},"vehicle_type_id":"4","last_reported":1738588524,"current_range_meters":11200,"station_id":"ce4bgn92rcd13ifvqbvg","pricing_plan_id":"cebpf4jnsgd1na2vs0mg"},{"bike_id":"95858133-1c3d-40b1-9e0b-8a65c4bb099f","system_id":"levelo_inurba_marseille","lat":43.296382,"lon":5.406013,"is_reserved":false,"is_disabled":false,"rental_uris":{"android":"levelo://app?vid=95858133-1c3d-40b1-9e0b-8a65c4bb099f","ios":"levelo://app?vid=95858133-1c3d-40b1-9e0b-8a65c4bb099f"},"vehicle_type_id":"4","last_reported":1738588524,"current_range_meters":30400,"station_id":"ce4bh0h2rcd13ifvqd60","pricing_plan_id":"cebpf4jnsgd1na2vs0mg"},{"bike_id":"a2dd124f-1489-45c5-99ee-90f305650792","system_id":"levelo_inurba_marseille","lat":43.304268,"lon":5.397414,"is_reserved":false,"is_disabled":false,"rental_uris":{"android":"levelo://app?vid=a2dd124f-1489-45c5-99ee-90f305650792","ios":"levelo://app?vid=a2dd124f-1489-45c5-99ee-90f305650792"},"vehicle_type_id":"4","last_reported":1738588524,"current_range_meters":28000,"station_id":"ce4bh092rcd13ifvqd20","pricing_plan_id":"cebpf4jnsgd1na2vs0mg"},{"bike_id":"7b39ed00-86df-4303-bda1-bfc0fee1e7e2","system_id":"levelo_inurba_marseille","lat":43.32469,"lon":5.45544,"is_reserved":false,"is_disabled":false,"rental_uris":{"android":"levelo://app?vid=7b39ed00-86df-4303-bda1-bfc0fee1e7e2","ios":"levelo://app?vid=7b39ed00-86df-4303-bda1-bfc0fee1e7e2"},"vehicle_type_id":"4","last_reported":1738588524,"current_range_meters":28000,"station_id":"","pricing_plan_id":"cebpf4jnsgd1na2vs0mg"},{"bike_id":"122558e7-49be-4490-a9a5-2fc4de078d78","system_id":"levelo_inurba_marseille","lat":43.31167,"lon":5.38719,"is_reserved":false,"is_disabled":false,"rental_uris":{"android":"levelo://app?vid=122558e7-49be-4490-a9a5-2fc4de078d78","ios":"levelo://app?vid=122558e7-49be-4490-a9a5-2fc4de078d78"},"vehicle_type_id":"4","last_reported":1738588524,"current_range_meters":19600,"station_id":"ce4bgv12rcd13ifvqcp0","pricing_plan_id":"cebpf4jnsgd1na2vs0mg"},{"bike_id":"27965b13-db93-44ae-be4a-77a8d97c3b7e","system_id":"levelo_inurba_marseille","lat":43.26929,"lon":5.40256,"is_reserved":false,"is_disabled":false,"rental_uris":{"android":"levelo://app?vid=27965b13-db93-44ae-be4a-77a8d97c3b7e","ios":"levelo://app?vid=27965b13-db93-44ae-be4a-77a8d97c3b7e"},"vehicle_type_id":"4","last_reported":1738588524,"current_range_meters":39200,"station_id":"cjm6bp8fraef2m0cb0m0","pricing_plan_id":"cebpf4jnsgd1na2vs0mg"},{"bike_id":"801ab36d-60eb-4a97-a0b2-e1ffcc883136","system_id":"levelo_inurba_marseille","lat":43.33754,"lon":5.37458,"is_reserved":false,"is_disabled":false,"rental_uris":{"android":"levelo://app?vid=801ab36d-60eb-4a97-a0b2-e1ffcc883136","ios":"levelo://app?vid=801ab36d-60eb-4a97-a0b2-e1ffcc883136"},"vehicle_type_id":"4","last_reported":1738588524,"current_range_meters":38400,"station_id":"","pricing_plan_id":"cebpf4jnsgd1na2vs0mg"},{"bike_id":"ce09efa2-ec0b-46e3-853a-df30846fc53e","system_id":"levelo_inurba_marseille","lat":43.25829,"lon":5.39432,"is_reserved":false,"is_disabled":false,"rental_uris":{"android":"levelo://app?vid=ce09efa2-ec0b-46e3-853a-df30846fc53e","ios":"levelo://app?vid=ce09efa2-ec0b-46e3-853a-df30846fc53e"},"vehicle_type_id":"4","last_reported":1738588524,"current_range_meters":25200,"station_id":"ce4bhip2rcd13ifvqft0","pricing_plan_id":"cebpf4jnsgd1na2vs0mg"},{"bike_id":"78c6ad5f-ce80-4a37-86a4-a3d9ef223112","system_id":"levelo_inurba_marseille","lat":43.255814,"lon":5.382393,"is_reserved":false,"is_disabled":false,"rental_uris":{"android":"levelo://app?vid=78c6ad5f-ce80-4a37-86a4-a3d9ef223112","ios":"levelo://app?vid=78c6ad5f-ce80-4a37-86a4-a3d9ef223112"},"vehicle_type_id":"4","last_reported":1738588524,"current_range_meters":28000,"station_id":"ce4bhih2rcd13ifvqfs0","pricing_plan_id":"cebpf4jnsgd1na2vs0mg"},{"bike_id":"c7efea0b-41ab-47c4-93f0-43a53000a63b","system_id":"levelo_inurba_marseille","lat":43.23065,"lon":5.3549,"is_reserved":false,"is_disabled":false,"rental_uris":{"android":"levelo://app?vid=c7efea0b-41ab-47c4-93f0-43a53000a63b","ios":"levelo://app?vid=c7efea0b-41ab-47c4-93f0-43a53000a63b"},"vehicle_type_id":"4","last_reported":1738588524,"current_range_meters":35600,"station_id":"cpo3342slgdg3j2ifvpg","pricing_plan_id":"cebpf4jnsgd1na2vs0mg"},{"bike_id":"6ff923dc-3700-452d-a57f-331e63ca3c55","system_id":"levelo_inurba_marseille","lat":43.30428,"lon":5.39744,"is_reserved":false,"is_disabled":false,"rental_uris":{"android":"levelo://app?vid=6ff923dc-3700-452d-a57f-331e63ca3c55","ios":"levelo://app?vid=6ff923dc-3700-452d-a57f-331e63ca3c55"},"vehicle_type_id":"4","last_reported":1738588524,"current_range_meters":30000,"station_id":"ce4bh092rcd13ifvqd20","pricing_plan_id":"cebpf4jnsgd1na2vs0mg"},{"bike_id":"324c2be5-1d25-4100-9086-8cdc99db60dc","system_id":"levelo_inurba_marseille","lat":43.25931,"lon":5.40863,"is_reserved":false,"is_disabled":true,"rental_uris":{"android":"levelo://app?vid=324c2be5-1d25-4100-9086-8cdc99db60dc","ios":"levelo://app?vid=324c2be5-1d25-4100-9086-8cdc99db60dc"},"vehicle_type_id":"4","last_reported":1738588524,"current_range_meters":1600,"station_id":"ce4bhm92rcd13ifvqglg","pricing_plan_id":"cebpf4jnsgd1na2vs0mg"},{"bike_id":"2bf09fb3-a364-479f-a5ab-31279fd345da","system_id":"levelo_inurba_marseille","lat":43.27677,"lon":5.38887,"is_reserved":false,"is_disabled":false,"rental_uris":{"android":"levelo://app?vid=2bf09fb3-a364-479f-a5ab-31279fd345da","ios":"levelo://app?vid=2bf09fb3-a364-479f-a5ab-31279fd345da"},"vehicle_type_id":"4","last_reported":1738588524,"current_range_meters":38800,"station_id":"ce4bhi12rcd13ifvqfo0","pricing_plan_id":"cebpf4jnsgd1na2vs0mg"},{"bike_id":"626dbbe9-bed2-452d-9804-2c14caa0fe80","system_id":"levelo_inurba_marseille","lat":43.26027,"lon":5.37553,"is_reserved":false,"is_disabled":false,"rental_uris":{"android":"levelo://app?vid=626dbbe9-bed2-452d-9804-2c14caa0fe80","ios":"levelo://app?vid=626dbbe9-bed2-452d-9804-2c14caa0fe80"},"vehicle_type_id":"4","last_reported":1738588524,"current_range_meters":6000,"station_id":"ce4bhgh2rcd13ifvqfa0","pricing_plan_id":"cebpf4jnsgd1na2vs0mg"},{"bike_id":"439c2536-2abe-4087-b8ca-646055d51509","system_id":"levelo_inurba_marseille","lat":43.27083,"lon":5.40256,"is_reserved":false,"is_disabled":false,"rental_uris":{"android":"levelo://app?vid=439c2536-2abe-4087-b8ca-646055d51509","ios":"levelo://app?vid=439c2536-2abe-4087-b8ca-646055d51509"},"vehicle_type_id":"4","last_reported":1738588524,"current_range_meters":26000,"station_id":"ce4bhk92rcd13ifvqgc0","pricing_plan_id":"cebpf4jnsgd1na2vs0mg"},{"bike_id":"79b29b72-9a27-44fb-b66b-cf0538e9a6d8","system_id":"levelo_inurba_marseille","lat":43.25595,"lon":5.38215,"is_reserved":false,"is_disabled":false,"rental_uris":{"android":"levelo://app?vid=79b29b72-9a27-44fb-b66b-cf0538e9a6d8","ios":"levelo://app?vid=79b29b72-9a27-44fb-b66b-cf0538e9a6d8"},"vehicle_type_id":"4","last_reported":1738588524,"current_range_meters":16800,"station_id":"ce4bhih2rcd13ifvqfs0","pricing_plan_id":"cebpf4jnsgd1na2vs0mg"},{"bike_id":"8de15574-4ccd-4876-85d4-e980f39efeb7","system_id":"levelo_inurba_marseille","lat":43.3135,"lon":5.36711,"is_reserved":false,"is_disabled":false,"rental_uris":{"android":"levelo://app?vid=8de15574-4ccd-4876-85d4-e980f39efeb7","ios":"levelo://app?vid=8de15574-4ccd-4876-85d4-e980f39efeb7"},"vehicle_type_id":"4","last_reported":1738588524,"current_range_meters":38800,"station_id":"ce4bgr92rcd13ifvqc6g","pricing_plan_id":"cebpf4jnsgd1na2vs0mg"},