{"last_updated":1741464456,"ttl":60,"version":"2.2","data":{"bikes":[{"bike_id":"0f637d6f-79f8-4f82-9beb-659c54ae18b4","system_id":"levelo_inurba_marseille","lat":43.26201,"lon":5.40414,"is_reserved":false,"is_disabled":false,"rental_uris":{"android":"levelo://app?vid=0f637d6f-79f8-4f82-9beb-659c54ae18b4","ios":"levelo://app?vid=0f637d6f-79f8-4f82-9beb-659c54ae18b4"},"vehicle_type_id":"4","last_reported":1741464456,"current_range_meters":2800,"station_id":"ce4bhmh2rcd13ifvqgmg","pricing_plan_id":"cebpf4jnsgd1na2vs0mg"},{"bike_id":"929f74c6-32c7-499e-8149-0c3f9a84eba6","system_id":"levelo_inurba_marseille","lat":43.2742,"lon":5.3941,"is_reserved":false,"is_disabled":false,"rental_uris":{"android":"levelo://app?vid=929f74c6-32c7-499e-8149-0c3f9a84eba6","ios":"levelo://app?vid=929f74c6-32c7-499e-8149-0c3f9a84eba6"},"vehicle_type_id":"4","last_reported":1741464456,"current_range_meters":2800,"station_id":"ce4bhdp2rcd13ifvqf20","pricing_plan_id":"cebpf4jnsgd1na2vs0mg"},{"bike_id":"c7d6a08f-5a59-4b06-adc3-d747349357ff","system_id":"levelo_inurba_marseille","lat":43.2867,"lon":5.38651,"is_reserved":false,"is_disabled":false,"rental_uris":{"android":"levelo://app?vid=c7d6a08f-5a59-4b06-adc3-d747349357ff","ios":"levelo://app?vid=c7d6a08f-5a59-4b06-adc3-d747349357ff"},"vehicle_type_id":"4","last_reported":1741464456,"current_range_meters":2800,"station_id":"ce4bh492rcd13ifvqdug","pricing_plan_id":"cebpf4jnsgd1na2vs0mg"},{"bike_id":"ccac3438-a6f8-42eb-b049-1949fc56894a","system_id":"levelo_inurba_marseille","lat":43.23968,"lon":5.36632,"is_reserved":false,"is_disabled":false,"rental_uris":{"android":"levelo://app?vid=ccac3438-a6f8-42eb-b049-1949fc56894a","ios":"levelo://app?vid=ccac3438-a6f8-42eb-b049-1949fc56894a"},"vehicle_type_id":"4","last_reported":1741464456,"current_range_meters":2800,"station_id":"ce4bhi12rcd13ifvqfp0","pricing_plan_id":"cebpf4jnsgd1na2vs0mg"},{"bike_id":"f0732df1-6084-4dfb-9a71-b8dcb27bf341","system_id":"levelo_inurba_marseille","lat":43.27426,"lon":5.39419,"is_reserved":false,"is_disabled":false,"rental_uris":{"android":"levelo://app?vid=f0732df1-6084-4dfb-9a71-b8dcb27bf341","ios":"levelo://app?vid=f0732df1-6084-4dfb-9a71-b8dcb27bf341"},"vehicle_type_id":"4","last_reported":1741464456,"current_range_meters":2800,"station_id":"ce4bhdp2rcd13ifvqf20","pricing_plan_id":"cebpf4jnsgd1na2vs0mg"},{"bike_id":"0a2b0e39-40db-4c12-bb59-1736b7b48051","system_id":"levelo_inurba_marseille","lat":43.28495,"lon":5.38428,"is_reserved":false,"is_disabled":false,"rental_uris":{"android":"levelo://app?vid=0a2b0e39-40db-4c12-bb59-1736b7b48051","ios":"levelo://app?vid=0a2b0e39-40db-4c12-bb59-1736b7b48051"},"vehicle_type_id":"4","last_reported":1741464456,"current_range_meters":2800,"station_id":"ce4bh512rcd13ifvqe3g","pricing_plan_id":"cebpf4jnsgd1na2vs0mg"},{"bike_id":"98e60829-f81a-4fc7-beb0-5c1fe349f961","system_id":"levelo_inurba_marseille","lat":43.280312,"lon":5.369673,"is_reserved":false,"is_disabled":false,"rental_uris":{"android":"levelo://app?vid=98e60829-f81a-4fc7-beb0-5c1fe349f961","ios":"levelo://app?vid=98e60829-f81a-4fc7-beb0-5c1fe349f961"},"vehicle_type_id":"4","last_reported":1741464456,"current_range_meters":2800,"station_id":"ce4bha12rcd13ifvqef0","pricing_plan_id":"cebpf4jnsgd1na2vs0mg"},{"bike_id":"24425ade-4b82-4424-8b72-aebaac54db6c","system_id":"levelo_inurba_marseille","lat":43.28402,"lon":5.37517,"is_reserved":false,"is_disabled":false,"rental_uris":{"android":"levelo://app?vid=24425ade-4b82-4424-8b72-aebaac54db6c","ios":"levelo://app?vid=24425ade-4b82-4424-8b72-aebaac54db6c"},"vehicle_type_id":"4","last_reported":1741464456,"current_range_meters":2800,"station_id":"ce4bh412rcd13ifvqds0","pricing_plan_id":"cebpf4jnsgd1na2vs0mg"},{"bike_id":"f90efa61-82d5-4b97-b63e-fd11981af807","system_id":"levelo_inurba_marseille","lat":43.24807,"lon":5.37454,"is_reserved":false,"is_disabled":false,"rental_uris":{"android":"levelo://app?vid=f90efa61-82d5-4b97-b63e-fd11981af807","ios":"levelo://app?vid=f90efa61-82d5-4b97-b63e-fd11981af807"},"vehicle_type_id":"4","last_reported":1741464456,"current_range_meters":3200,"station_id":"ce4bhgh2rcd13ifvqfb0","pricing_plan_id":"cebpf4jnsgd1na2vs0mg"},{"bike_id":"6bf7353f-6b36-428e-a543-2ef967fb518a","system_id":"levelo_inurba_marseille","lat":43.290833,"lon":5.371982,"is_reserved":false,"is_disabled":false,"rental_uris":{"android":"levelo://app?vid=6bf7353f-6b36-428e-a543-2ef967fb518a","ios":"levelo://app?vid=6bf7353f-6b36-428e-a543-2ef967fb518a"},"vehicle_type_id":"4","last_reported":1741464456,"current_range_meters":2800,"station_id":"ce4bhah2rcd13ifvqei0","pricing_plan_id":"cebpf4jnsgd1na2vs0mg"},{"bike_id":"6ec82867-dafe-4b46-b625-9fc07bb00fb2","system_id":"levelo_inurba_marseille","lat":43.26211,"lon":5.37442,"is_reserved":false,"is_disabled":false,"rental_uris":{"android":"levelo://app?vid=6ec82867-dafe-4b46-b625-9fc07bb00fb2","ios":"levelo://app?vid=6ec82867-dafe-4b46-b625-9fc07bb00fb2"},"vehicle_type_id":"4","last_reported":1741464456,"current_range_meters":3200,"station_id":"ce4bhgp2rcd13ifvqfc0","pricing_plan_id":"cebpf4jnsgd1na2vs0mg"},{"bike_id":"3ecc7743-359f-4b7e-aa64-e550c74667ad","system_id":"levelo_inurba_marseille","lat":43.31125,"lon":5.3777,"is_reserved":false,"is_disabled":false,"rental_uris":{"android":"levelo://app?vid=3ecc7743-359f-4b7e-aa64-e550c74667ad","ios":"levelo://app?vid=3ecc7743-359f-4b7e-aa64-e550c74667ad"},"vehicle_type_id":"4","last_reported":1741464456,"current_range_meters":3200,"station_id":"ce4bgt92rcd13ifvqcg0","pricing_plan_id":"cebpf4jnsgd1na2vs0mg"},{"bike_id":"5af32a4e-cd23-457a-822b-2530e4da60f3","system_id":"levelo_inurba_marseille","lat":43.27943,"lon":5.41058,"is_reserved":false,"is_disabled":false,"rental_uris":{"android":"levelo://app?vid=5af32a4e-cd23-457a-822b-2530e4da60f3","ios":"levelo://app?vid=5af32a4e-cd23-457a-822b-2530e4da60f3"},"vehicle_type_id":"4","last_reported":1741464456,"current_range_meters":3200,"station_id":"ce4bhnp2rcd13ifvqh0g","pricing_plan_id":"cebpf4jnsgd1na2vs0mg"},{"bike_id":"c989a96a-6e31-4ce3-9fe3-c9add618e27c","system_id":"levelo_inurba_marseille","lat":43.28446,"lon":5.39194,"is_reserved":false,"is_disabled":true,"rental_uris":{"android":"levelo://app?vid=c989a96a-6e31-4ce3-9fe3-c9add618e27c","ios":"levelo://app?vid=c989a96a-6e31-4ce3-9fe3-c9add618e27c"},"vehicle_type_id":"4","last_reported":1741464456,"current_range_meters":3200,"station_id":"ce4bhoh2rcd13ifvqh5g","pricing_plan_id":"cebpf4jnsgd1na2vs0mg"},{"bike_id":"74092faf-ee4b-4926-b879-962be6d4a988","system_id":"levelo_inurba_marseille","lat":43.30356,"lon":5.37394,"is_reserved":false,"is_disabled":false,"rental_uris":{"android":"levelo://app?vid=74092faf-ee4b-4926-b879-962be6d4a988","ios":"levelo://app?vid=74092faf-ee4b-4926-b879-962be6d4a988"},"vehicle_type_id":"4","last_reported":1741464456,"current_range_meters":3600,"station_id":"","pricing_plan_id":"cebpf4jnsgd1na2vs0mg"},{"bike_id":"d0a76768-0bb0-4e00-b757-23fcfe57ff81","system_id":"levelo_inurba_marseille","lat":43.269487,"lon":5.389183,"is_reserved":false,"is_disabled":false,"rental_uris":{"android":"levelo://app?vid=d0a76768-0bb0-4e00-b757-23fcfe57ff81","ios":"levelo://app?vid=d0a76768-0bb0-4e00-b757-23fcfe57ff81"},"vehicle_type_id":"4","last_reported":1741464456,"current_range_meters":3200,"station_id":"ce4bhhh2rcd13ifvqfl0","pricing_plan_id":"cebpf4jnsgd1na2vs0mg"},{"bike_id":"21b363e8-386f-49ae-a31e-ee1cf97cc543","system_id":"levelo_inurba_marseille","lat":43.26555,"lon":5.37281,"is_reserved":false,"is_disabled":false,"rental_uris":{"android":"levelo://app?vid=21b363e8-386f-49ae-a31e-ee1cf97cc543","ios":"levelo://app?vid=21b363e8-386f-49ae-a31e-ee1cf97cc543"},"vehicle_type_id":"4","last_reported":1741464456,"current_range_meters":3600,"station_id":"ce4bhg12rcd13ifvqf70","pricing_plan_id":"cebpf4jnsgd1na2vs0mg"},{"bike_id":"e21a96f9-add6-45d9-a4f0-e85d9a6bffe7","system_id":"levelo_inurba_marseille","lat":43.25084,"lon":5.39512,"is_reserved":false,"is_disabled":false,"rental_uris":{"android":"levelo://app?vid=e21a96f9-add6-45d9-a4f0-e85d9a6bffe7","ios":"levelo://app?vid=e21a96f9-add6-45d9-a4f0-e85d9a6bffe7"},"vehicle_type_id":"4","last_reported":1741464456,"current_range_meters":3600,"station_id":"ce4bhm12rcd13ifvqgkg","pricing_plan_id":"cebpf4jnsgd1na2vs0mg"},{"bike_id":"4ed10b44-88a8-4dec-99db-545daad23c1c","system_id":"levelo_inurba_marseille","lat":43.23976,"lon":5.36616,"is_reserved":false,"is_disabled":false,"rental_uris":{"android":"levelo://app?vid=4ed10b44-88a8-4dec-99db-545daad23c1c","ios":"levelo://app?vid=4ed10b44-88a8-4dec-99db-545daad23c1c"},"vehicle_type_id":"4","last_reported":1741464456,"current_range_meters":3600,"station_id":"ce4bhi12rcd13ifvqfp0","pricing_plan_id":"cebpf4jnsgd1na2vs0mg"},{"bike_id":"4395a81e-c2ff-44f2-b12f-36df6bbd7e21","system_id":"levelo_inurba_marseille","lat":43.26796,"lon":5.39446,"is_reserved":false,"is_disabled":false,"rental_uris":{"android":"levelo://app?vid=4395a81e-c2ff-44f2-b12f-36df6bbd7e21","ios":"levelo://app?vid=4395a81e-c2ff-44f2-b12f-36df6bbd7e21"},"vehicle_type_id":"4","last_reported":1741464456,"current_range_meters":3600,"station_id":"ce4bhh12rcd13ifvqfg0","pricing_plan_id":"cebpf4jnsgd1na2vs0mg"},{"bike_id":"71b97289-d517-49a1-8c55-539e5a8554d3","system_id":"levelo_inurba_marseille","lat":43.26229,"lon":5.40435,"is_reserved":false,"is_disabled":false,"rental_uris":{"android":"levelo://app?vid=71b97289-d517-49a1-8c55-539e5a8554d3","ios":"levelo://app?vid=71b97289-d517-49a1-8c55-539e5a8554d3"},"vehicle_type_id":"4","last_reported":1741464456,"current_range_meters":3600,"station_id":"ce4bhmh2rcd13ifvqgmg","pricing_plan_id":"cebpf4jnsgd1na2vs0mg"},{"bike_id":"8f60d7d0-7cdc-48b3-a763-4552a7d55ea3","system_id":"levelo_inurba_marseille","lat":43.26858,"lon":5.40254,"is_reserved":false,"is_disabled":false,"rental_uris":{"android":"levelo://app?vid=8f60d7d0-7cdc-48b3-a763-4552a7d55ea3","ios":"levelo://app?vid=8f60d7d0-7cdc-48b3-a763-4552a7d55ea3"},"vehicle_type_id":"4","last_reported":1741464456,"current_range_meters":3600,"station_id":"","pricing_plan_id":"cebpf4jnsgd1na2vs0mg"},{"bike_id":"c3ace0f1-258a-473f-bbca-705d4d023f18","system_id":"levelo_inurba_marseille","lat":43.25707,"lon":5.41125,"is_reserved":false,"is_disabled":false,"rental_uris":{"android":"levelo://app?vid=c3ace0f1-258a-473f-bbca-705d4d023f18","ios":"levelo://app?vid=c3ace0f1-258a-473f-bbca-705d4d023f18"},"vehicle_type_id":"4","last_reported":1741464456,"current_range_meters":3600,"station_id":"ce4bhkp2rcd13ifvqgd0","pricing_plan_id":"cebpf4jnsgd1na2vs0mg"},{"bike_id":"605b43d3-d9ee-48bc-a8f6-393622b47687","system_id":"levelo_inurba_marseille","lat":43.27441,"lon":5.39404,"is_reserved":false,"is_disabled":false,"rental_uris":{"android":"levelo://app?vid=605b43d3-d9ee-48bc-a8f6-393622b47687","ios":"levelo://app?vid=605b43d3-d9ee-48bc-a8f6-393622b47687"},"vehicle_type_id":"4","last_reported":1741464456,"current_range_meters":3600,"station_id":"ce4bhdp2rcd13ifvqf20","pricing_plan_id":"cebpf4jnsgd1na2vs0mg"},{"bike_id":"d68ad3b9-60df-499f-927e-f29c9f9bf156","system_id":"levelo_inurba_marseille","lat":43.29419,"lon":5.38631,"is_reserved":false,"is_disabled":false,"rental_uris":{"android":"levelo://app?vid=d68ad3b9-60df-499f-927e-f29c9f9bf156","ios":"levelo://app?vid=d68ad3b9-60df-499f-927e-f29c9f9bf156"},"vehicle_type_id":"4","last_reported":1741464456,"current_range_meters":3600,"station_id":"ce4bh2h2rcd13ifvqdh0","pricing_plan_id":"cebpf4jnsgd1na2vs0mg"},{"bike_id":"04cac416-f980-4f10-a1db-76cb911255b8","system_id":"levelo_inurba_marseille","lat":43.32376,"lon":5.36771,"is_reserved":false,"is_disabled":false,"rental_uris":{"android":"levelo://app?vid=04cac416-f980-4f10-a1db-76cb911255b8","ios":"levelo://app?vid=04cac416-f980-4f10-a1db-76cb911255b8"},"vehicle_type_id":"4","last_reported":1741464456,"current_range_meters":3600,"station_id":"ce4bhsh2rcd13ifvqi2g","pricing_plan_id":"cebpf4jnsgd1na2vs0mg"},{"bike_id":"30af4b38-17f9-4eae-85ca-9d0045cd4d6d","system_id":"levelo_inurba_marseille","lat":43.25731,"lon":5.41114,"is_reserved":false,"is_disabled":false,"rental_uris":{"android":"levelo://app?vid=30af4b38-17f9-4eae-85ca-9d0045cd4d6d","ios":"levelo://app?vid=30af4b38-17f9-4eae-85ca-9d0045cd4d6d"},"vehicle_type_id":"4","last_reported":1741464456,"current_range_meters":3600,"station_id":"ce4bhkp2rcd13ifvqgd0","pricing_plan_id":"cebpf4jnsgd1na2vs0mg"},{"bike_id":"bad4cd87-2205-4eab-968f-e647a42bdf9d","system_id":"levelo_inurba_marseille","lat":43.28472,"lon":5.38423,"is_reserved":false,"is_disabled":false,"rental_uris":{"android":"levelo://app?vid=bad4cd87-2205-4eab-968f-e647a42bdf9d","ios":"levelo://app?vid=bad4cd87-2205-4eab-968f-e647a42bdf9d"},"vehicle_type_id":"4","last_reported":1741464456,"current_range_meters":3600,"station_id":"ce4bh512rcd13ifvqe3g","pricing_plan_id":"cebpf4jnsgd1na2vs0mg"},{"bike_id":"89b9b55a-1392-498d-b8a5-8520a39c9a74","system_id":"levelo_inurba_marseille","lat":43.29274,"lon":5.40123,"is_reserved":false,"is_disabled":true,"rental_uris":{"android":"levelo://app?vid=89b9b55a-1392-498d-b8a5-8520a39c9a74","ios":"levelo://app?vid=89b9b55a-1392-498d-b8a5-8520a39c9a74"},"vehicle_type_id":"4","last_reported":1741464456,"current_range_meters":4000,"station_id":"ce4bh312rcd13ifvqdk0","pricing_plan_id":"cebpf4jnsgd1na2vs0mg"},{"bike_id":"2d333629-56c1-4152-9882-38fae1dcef18","system_id":"levelo_inurba_marseille","lat":43.29539,"lon":5.39058,"is_reserved":false,"is_disabled":false,"rental_uris":{"android":"levelo://app?vid=2d333629-56c1-4152-9882-38fae1dcef18","ios":"levelo://app?vid=2d333629-56c1-4152-9882-38fae1dcef18"},"vehicle_type_id":"4","last_reported":1741464456,"current_range_meters":4000,"station_id":"ce4bh3p2rcd13ifvqdp0","pricing_plan_id":"cebpf4jnsgd1na2vs0mg"},{"bike_id":"ebc33aa2-29a0-4f8c-a4f4-0dd693269e2f","system_id":"levelo_inurba_marseille","lat":43.27438,"lon":5.39401,"is_reserved":false,"is_disabled":false,"rental_uris":{"android":"levelo://app?vid=ebc33aa2-29a0-4f8c-a4f4-0dd693269e2f","ios":"levelo://app?vid=ebc33aa2-29a0-4f8c-a4f4-0dd693269e2f"},"vehicle_type_id":"4","last_reported":1741464456,"current_range_meters":4000,"station_id":"ce4bhdp2rcd13ifvqf20","pricing_plan_id":"cebpf4jnsgd1na2vs0mg"},{"bike_id":"ef841903-cdc0-4227-af7f-cb9f26dc3c9b","system_id":"levelo_inurba_marseille","lat":43.314086,"lon":5.392614,"is_reserved":false,"is_disabled":false,"rental_uris":{"android":"levelo://app?vid=ef841903-cdc0-4227-af7f-cb9f26dc3c9b","ios":"levelo://app?vid=ef841903-cdc0-4227-af7f-cb9f26dc3c9b"},"vehicle_type_id":"4","last_reported":1741464456,"current_range_meters":4000,"station_id":"","pricing_plan_id":"cebpf4jnsgd1na2vs0mg"},{"bike_id":"5ce2d6b4-65d1-429d-bba1-462403d056a1","system_id":"levelo_inurba_marseille","lat":43.26946,"lon":5.40253,"is_reserved":false,"is_disabled":false,"rental_uris":{"android":"levelo://app?vid=5ce2d6b4-65d1-429d-bba1-462403d056a1","ios":"levelo://app?vid=5ce2d6b4-65d1-429d-bba1-462403d056a1"},"vehicle_type_id":"4","last_reported":1741464456,"current_range_meters":4000,"station_id":"cjm6bp8fraef2m0cb0m0","pricing_plan_id":"cebpf4jnsgd1na2vs0mg"},{"bike_id":"aa5a756e-2179-4e7e-8ead-14d0ff5950b5","system_id":"levelo_inurba_marseille","lat":43.27997,"lon":5.4001,"is_reserved":false,"is_disabled":false,"rental_uris":{"android":"levelo://app?vid=aa5a756e-2179-4e7e-8ead-14d0ff5950b5","ios":"levelo://app?vid=aa5a756e-2179-4e7e-8ead-14d0ff5950b5"},"vehicle_type_id":"4","last_reported":1741464456,"current_range_meters":4000,"station_id":"ce4bho92rcd13ifvqh4g","pricing_plan_id":"cebpf4jnsgd1na2vs0mg"},{"bike_id":"6fc9c63f-4027-4364-b51e-5e116296b3dc","system_id":"levelo_inurba_marseille","lat":43.29026,"lon":5.38642,"is_reserved":false,"is_disabled":false,"rental_uris":{"android":"levelo://app?vid=6fc9c63f-4027-4364-b51e-5e116296b3dc","ios":"levelo://app?vid=6fc9c63f-4027-4364-b51e-5e116296b3dc"},"vehicle_type_id":"4","last_reported":1741464456,"current_range_meters":4000,"station_id":"ce4bh4p2rcd13ifvqe0g","pricing_plan_id":"cebpf4jnsgd1na2vs0mg"},{"bike_id":"feb8605c-b0bc-404c-815c-c54037617170","system_id":"levelo_inurba_marseille","lat":43.30313,"lon":5.36888,"is_reserved":false,"is_disabled":false,"rental_uris":{"android":"levelo://app?vid=feb8605c-b0bc-404c-815c-c54037617170","ios":"levelo://app?vid=feb8605c-b0bc-404c-815c-c54037617170"},"vehicle_type_id":"4","last_reported":1741464456,"current_range_meters":4000,"station_id":"ce4bgqh2rcd13ifvqc5g","pricing_plan_id":"cebpf4jnsgd1na2vs0mg"},{"bike_id":"7ad3c4b6-b7ae-4cc9-b930-57fae659dc96","system_id":"levelo_inurba_marseille","lat":43.2659,"lon":5.39019,"is_reserved":false,"is_disabled":false,"rental_uris":{"android":"levelo://app?vid=7ad3c4b6-b7ae-4cc9-b930-57fae659dc96","ios":"levelo://app?vid=7ad3c4b6-b7ae-4cc9-b930-57fae659dc96"},"vehicle_type_id":"4","last_reported":1741464456,"current_range_meters":4400,"station_id":"ce4bhe12rcd13ifvqf30","pricing_plan_id":"cebpf4jnsgd1na2vs0mg"},{"bike_id":"a7fd6af6-c9ff-4416-b40d-fed955598cec","system_id":"levelo_inurba_marseille","lat":43.26808,"lon":5.39387,"is_reserved":false,"is_disabled":false,"rental_uris":{"android":"levelo://app?vid=a7fd6af6-c9ff-4416-b40d-fed955598cec","ios":"levelo://app?vid=a7fd6af6-c9ff-4416-b40d-fed955598cec"},"vehicle_type_id":"4","last_reported":1741464456,"current_range_meters":4400,"station_id":"ce4bhh12rcd13ifvqfg0","pricing_plan_id":"cebpf4jnsgd1na2vs0mg"},{"bike_id":"db361612-8186-4e1c-a8a1-a778740c3e27","system_id":"levelo_inurba_marseille","lat":43.26062,"lon":5.39393,"is_reserved":false,"is_disabled":false,"rental_uris":{"android":"levelo://app?vid=db361612-8186-4e1c-a8a1-a778740c3e27","ios":"levelo://app?vid=db361612-8186-4e1c-a8a1-a778740c3e27"},"vehicle_type_id":"4","last_reported":1741464456,"current_range_meters":4400,"station_id":"ce4bhh92rcd13ifvqfj0","pricing_plan_id":"cebpf4jnsgd1na2vs0mg"},{"bike_id":"6e5c1ec0-55c7-428f-ab14-fe8ef478e880","system_id":"levelo_inurba_marseille","lat":43.32077,"lon":5.40133,"is_reserved":false,"is_disabled":false,"rental_uris":{"android":"levelo://app?vid=6e5c1ec0-55c7-428f-ab14-fe8ef478e880","ios":"levelo://app?vid=6e5c1ec0-55c7-428f-ab14-fe8ef478e880"},"vehicle_type_id":"4","last_reported":1741464456,"current_range_meters":4400,"station_id":"","pricing_plan_id":"cebpf4jnsgd1na2vs0mg"},{"bike_id":"247b4340-3338-49f7-b20d-e36de088bbb8","system_id":"levelo_inurba_marseille","lat":43.29202,"lon":5.42661,"is_reserved":false,"is_disabled":false,"rental_uris":{"android":"levelo://app?vid=247b4340-3338-49f7-b20d-e36de088bbb8","ios":"levelo://app?vid=247b4340-3338-49f7-b20d-e36de088bbb8"},"vehicle_type_id":"4","last_reported":1741464456,"current_range_meters":4800,"station_id":"","pricing_plan_id":"cebpf4jnsgd1na2vs0mg"},{"bike_id":"56974071-05a7-4161-bb20-04599998a282","system_id":"levelo_inurba_marseille","lat":43.29248,"lon":5.36077,"is_reserved":false,"is_disabled":false,"rental_uris":{"android":"levelo://app?vid=56974071-05a7-4161-bb20-04599998a282","ios":"levelo://app?vid=56974071-05a7-4161-bb20-04599998a282"},"vehicle_type_id":"4","last_reported":1741464456,"current_range_meters":4800,"station_id":"ce4bhbh2rcd13ifvqeqg","pricing_plan_id":"cebpf4jnsgd1na2vs0mg"},{"bike_id":"8a04142c-0bc4-43e4-8f9e-fc8f2beafa5a","system_id":"levelo_inurba_marseille","lat":43.23966,"lon":5.36629,"is_reserved":false,"is_disabled":false,"rental_uris":{"android":"levelo://app?vid=8a04142c-0bc4-43e4-8f9e-fc8f2beafa5a","ios":"levelo://app?vid=8a04142c-0bc4-43e4-8f9e-fc8f2beafa5a"},"vehicle_type_id":"4","last_reported":1741464456,"current_range_meters":4800,"station_id":"ce4bhi12rcd13ifvqfp0","pricing_plan_id":"cebpf4jnsgd1na2vs0mg"},{"bike_id":"5d4e4574-6498-4372-afcd-f02df8652fd1","system_id":"levelo_inurba_marseille","lat":43.25729,"lon":5.41115,"is_reserved":false,"is_disabled":false,"rental_uris":{"android":"levelo://app?vid=5d4e4574-6498-4372-afcd-f02df8652fd1","ios":"levelo://app?vid=5d4e4574-6498-4372-afcd-f02df8652fd1"},"vehicle_type_id":"4","last_reported":1741464456,"current_range_meters":4800,"station_id":"ce4bhkp2rcd13ifvqgd0","pricing_plan_id":"cebpf4jnsgd1na2vs0mg"},{"bike_id":"60e1fe0f-c1dd-449c-85d9-a3dd616d061a","system_id":"levelo_inurba_marseille","lat":43.23188,"lon":5.35551,"is_reserved":false,"is_disabled":false,"rental_uris":{"android":"levelo://app?vid=60e1fe0f-c1dd-449c-85d9-a3dd616d061a","ios":"levelo://app?vid=60e1fe0f-c1dd-449c-85d9-a3dd616d061a"},"vehicle_type_id":"4","last_reported":1741464456,"current_range_meters":5600,"station_id":"ce4bhu92rcd13ifvqi70","pricing_plan_id":"cebpf4jnsgd1na2vs0mg"},{"bike_id":"9a60e1e8-63f7-404b-ae3b-040e6f3b24d4","system_id":"levelo_inurba_marseille","lat":43.27298,"lon":5.39063,"is_reserved":false,"is_disabled":false,"rental_uris":{"android":"levelo://app?vid=9a60e1e8-63f7-404b-ae3b-040e6f3b24d4","ios":"levelo://app?vid=9a60e1e8-63f7-404b-ae3b-040e6f3b24d4"},"vehicle_type_id":"4","last_reported":1741464456,"current_range_meters":5600,"station_id":"ce4bhgp2rcd13ifvqfe0","pricing_plan_id":"cebpf4jnsgd1na2vs0mg"},{"bike_id":"9d47b0d3-4f69-44b5-a82d-a36a43637504","system_id":"levelo_inurba_marseille","lat":43.28674,"lon":5.38673,"is_reserved":false,"is_disabled":false,"rental_uris":{"android":"levelo://app?vid=9d47b0d3-4f69-44b5-a82d-a36a43637504","ios":"levelo://app?vid=9d47b0d3-4f69-44b5-a82d-a36a43637504"},"vehicle_type_id":"4","last_reported":1741464456,"current_range_meters":5600,"station_id":"ce4bh492rcd13ifvqdug","pricing_plan_id":"cebpf4jnsgd1na2vs0mg"},{"bike_id":"2279e2ee-051e-40ba-b0f4-efde21e23b42","system_id":"levelo_inurba_marseille","lat":43.29527,"lon":5.39036,"is_reserved":false,"is_disabled":false,"rental_uris":{"android":"levelo://app?vid=2279e2ee-051e-40ba-b0f4-efde21e23b42","ios":"levelo://app?vid=2279e2ee-051e-40ba-b0f4-efde21e23b42"},"vehicle_type_id":"4","last_reported":1741464456,"current_range_meters":5600,"station_id":"ce4bh3p2rcd13ifvqdp0","pricing_plan_id":"cebpf4jnsgd1na2vs0mg"},{"bike_id":"3a1b561b-c284-43fb-bcd6-d9a44482b4ab","system_id":"levelo_inurba_marseille","lat":43.26586,"lon":5.3903,"is_reserved":false,"is_disabled":false,"rental_uris":{"android":"levelo://app?vid=3a1b561b-c284-43fb-bcd6-d9a44482b4ab","ios":"levelo://app?vid=3a1b561b-c284-43fb-bcd6-d9a44482b4ab"},"vehicle_type_id":"4","last_reported":1741464456,"current_range_meters":6000,"station_id":"ce4bhe12rcd13ifvqf30","pricing_plan_id":"cebpf4jnsgd1na2vs0mg"},{"bike_id":"6dfc0e33-74d7-4d06-b6c9-c996b6877cad","system_id":"levelo_inurba_marseille","lat":43.29257,"lon":5.38443,"is_reserved":false,"is_disabled":false,"rental_uris":{"android":"levelo://app?vid=6dfc0e33-74d7-4d06-b6c9-c996b6877cad","ios":"levelo://app?vid=6dfc0e33-74d7-4d06-b6c9-c996b6877cad"},"vehicle_type_id":"4","last_reported":1741464456,"current_range_meters":6000,"station_id":"ce4bh692rcd13ifvqea0","pricing_plan_id":"cebpf4jnsgd1na2vs0mg"},{"bike_id":"8310cde6-c1e7-4f34-9185-55193707cf9d","system_id":"levelo_inurba_marseille","lat":43.27828,"lon":5.40707,"is_reserved":false,"is_disabled":false,"rental_uris":{"android":"levelo://app?vid=8310cde6-c1e7-4f34-9185-55193707cf9d","ios":"levelo://app?vid=8310cde6-c1e7-4f34-9185-55193707cf9d"},"vehicle_type_id":"4","last_reported":1741464456,"current_range_meters":6000,"station_id":"ce4bhnh2rcd13ifvqgtg","pricing_plan_id":"cebpf4jnsgd1na2vs0mg"},{"bike_id":"747c6040-43e2-4eef-863e-e11c89365cc4","system_id":"levelo_inurba_marseille","lat":43.31216,"lon":5.36841,"is_reserved":false,"is_disabled":false,"rental_uris":{"android":"levelo://app?vid=747c6040-43e2-4eef-863e-e11c89365cc4","ios":"levelo://app?vid=747c6040-43e2-4eef-863e-e11c89365cc4"},"vehicle_type_id":"4","last_reported":1741464456,"current_range_meters":6000,"station_id":"ce4bgl92rcd13ifvqbq0","pricing_plan_id":"cebpf4jnsgd1na2vs0mg"},{"bike_id":"e5c2f9a0-d065-4e10-9bff-a9a02c7dbc80","system_id":"levelo_inurba_marseille","lat":43.298946,"lon":5.436639,"is_reserved":false,"is_disabled":false,"rental_uris":{"android":"levelo://app?vid=e5c2f9a0-d065-4e10-9bff-a9a02c7dbc80","ios":"levelo://app?vid=e5c2f9a0-d065-4e10-9bff-a9a02c7dbc80"},"vehicle_type_id":"4","last_reported":1741464456,"current_range_meters":6400,"station_id":"ce4bhpp2rcd13ifvqhfg","pricing_plan_id":"cebpf4jnsgd1na2vs0mg"},{"bike_id":"b4efb2e3-ae62-4feb-b372-130d06f39ae9","system_id":"levelo_inurba_marseille","lat":43.29952,"lon":5.38513,"is_reserved":false,"is_disabled":false,"rental_uris":{"android":"levelo://app?vid=b4efb2e3-ae62-4feb-b372-130d06f39ae9","ios":"levelo://app?vid=b4efb2e3-ae62-4feb-b372-130d06f39ae9"},"vehicle_type_id":"4","last_reported":1741464456,"current_range_meters":6800,"station_id":"ce4bgj92rcd13ifvqbd0","pricing_plan_id":"cebpf4jnsgd1na2vs0mg"},{"bike_id":"11baeae5-2ab4-4b58-b44e-32e3ee1cb5ce","system_id":"levelo_inurba_marseille","lat":43.28714,"lon":5.37932,"is_reserved":false,"is_disabled":false,"rental_uris":{"android":"levelo://app?vid=11baeae5-2ab4-4b58-b44e-32e3ee1cb5ce","ios":"levelo://app?vid=11baeae5-2ab4-4b58-b44e-32e3ee1cb5ce"},"vehicle_type_id":"4","last_reported":1741464456,"current_range_meters":6400,"station_id":"ce4bh9p2rcd13ifvqec0","pricing_plan_id":"cebpf4jnsgd1na2vs0mg"},{"bike_id":"4726fadd-f1de-4759-b5e9-4d05ce7a5c1d","system_id":"levelo_inurba_marseille","lat":43.31078,"lon":5.38342,"is_reserved":false,"is_disabled":false,"rental_uris":{"android":"levelo://app?vid=4726fadd-f1de-4759-b5e9-4d05ce7a5c1d","ios":"levelo://app?vid=4726fadd-f1de-4759-b5e9-4d05ce7a5c1d"},"vehicle_type_id":"4","last_reported":1741464456,"current_range_meters":6400,"station_id":"ce4bgv92rcd13ifvqcr0","pricing_plan_id":"cebpf4jnsgd1na2vs0mg"},{"bike_id":"60ecbc97-ef99-4e75-bc47-6bbe222b8943","system_id":"levelo_inurba_marseille","lat":43.29302,"lon":5.37164,"is_reserved":false,"is_disabled":false,"rental_uris":{"android":"levelo://app?vid=60ecbc97-ef99-4e75-bc47-6bbe222b8943","ios":"levelo://app?vid=60ecbc97-ef99-4e75-bc47-6bbe222b8943"},"vehicle_type_id":"4","last_reported":1741464456,"current_range_meters":6400,"station_id":"ce4bgh92rcd13ifvqb40","pricing_plan_id":"cebpf4jnsgd1na2vs0mg"},{"bike_id":"36918ee5-1ab7-4df8-96db-60d75df271ea","system_id":"levelo_inurba_marseille","lat":43.27915,"lon":5.39583,"is_reserved":false,"is_disabled":false,"rental_uris":{"android":"levelo://app?vid=36918ee5-1ab7-4df8-96db-60d75df271ea","ios":"levelo://app?vid=36918ee5-1ab7-4df8-96db-60d75df271ea"},"vehicle_type_id":"4","last_reported":1741464456,"current_range_meters":6000,"station_id":"ce4bhf92rcd13ifvqf40","pricing_plan_id":"cebpf4jnsgd1na2vs0mg"},{"bike_id":"5164012d-1892-41d0-ae0d-5e79e1526dbf","system_id":"levelo_inurba_marseille","lat":43.31493,"lon":5.37309,"is_reserved":false,"is_disabled":false,"rental_uris":{"android":"levelo://app?vid=5164012d-1892-41d0-ae0d-5e79e1526dbf","ios":"levelo://app?vid=5164012d-1892-41d0-ae0d-5e79e1526dbf"},"vehicle_type_id":"4","last_reported":1741464456,"current_range_meters":6400,"station_id":"ce4bgt12rcd13ifvqcd0","pricing_plan_id":"cebpf4jnsgd1na2vs0mg"},{"bike_id":"c1b37ffe-209e-42d6-87de-eb1e250701e0","system_id":"levelo_inurba_marseille","lat":43.27947,"lon":5.41057,"is_reserved":false,"is_disabled":false,"rental_uris":{"android":"levelo://app?vid=c1b37ffe-209e-42d6-87de-eb1e250701e0","ios":"levelo://app?vid=c1b37ffe-209e-42d6-87de-eb1e250701e0"},"vehicle_type_id":"4","last_reported":1741464456,"current_range_meters":6400,"station_id":"ce4bhnp2rcd13ifvqh0g","pricing_plan_id":"cebpf4jnsgd1na2vs0mg"},{"bike_id":"41189685-8245-49f0-a2b5-cf8a83385427","system_id":"levelo_inurba_marseille","lat":43.29254,"lon":5.38445,"is_reserved":false,"is_disabled":false,"rental_uris":{"android":"levelo://app?vid=41189685-8245-49f0-a2b5-cf8a83385427","ios":"levelo://app?vid=41189685-8245-49f0-a2b5-cf8a83385427"},"vehicle_type_id":"4","last_reported":1741464456,"current_range_meters":6400,"station_id":"ce4bh692rcd13ifvqea0","pricing_plan_id":"cebpf4jnsgd1na2vs0mg"},{"bike_id":"a97779ef-58e6-4110-bd62-9e9a676d75bc","system_id":"levelo_inurba_marseille","lat":43.29254,"lon":5.38439,"is_reserved":false,"is_disabled":false,"rental_uris":{"android":"levelo://app?vid=a97779ef-58e6-4110-bd62-9e9a676d75bc","ios":"levelo://app?vid=a97779ef-58e6-4110-bd62-9e9a676d75bc"},"vehicle_type_id":"4","last_reported":1741464456,"current_range_meters":6400,"station_id":"ce4bh692rcd13ifvqea0","pricing_plan_id":"cebpf4jnsgd1na2vs0mg"},{"bike_id":"27305ad5-3fc8-47a3-9c3d-1a17f119d9fa","system_id":"levelo_inurba_marseille","lat":43.25142,"lon":5.39544,"is_reserved":false,"is_disabled":false,"rental_uris":{"android":"levelo://app?vid=27305ad5-3fc8-47a3-9c3d-1a17f119d9fa","ios":"levelo://app?vid=27305ad5-3fc8-47a3-9c3d-1a17f119d9fa"},"vehicle_type_id":"4","last_reported":1741464456,"current_range_meters":6800,"station_id":"ce4bhm12rcd13ifvqgkg","pricing_plan_id":"cebpf4jnsgd1na2vs0mg"},{"bike_id":"c61134b0-1408-4f5b-8d03-135c1977fc47","system_id":"levelo_inurba_marseille","lat":43.30106,"lon":5.39851,"is_reserved":false,"is_disabled":false,"rental_uris":{"android":"levelo://app?vid=c61134b0-1408-4f5b-8d03-135c1977fc47","ios":"levelo://app?vid=c61134b0-1408-4f5b-8d03-135c1977fc47"},"vehicle_type_id":"4","last_reported":1741464456,"current_range_meters":6800,"station_id":"ce4bh0h2rcd13ifvqd40","pricing_plan_id":"cebpf4jnsgd1na2vs0mg"},{"bike_id":"25305dbe-974d-481a-8296-0926ee678627","system_id":"levelo_inurba_marseille","lat":43.241,"lon":5.37767,"is_reserved":false,"is_disabled":false,"rental_uris":{"android":"levelo://app?vid=25305dbe-974d-481a-8296-0926ee678627","ios":"levelo://app?vid=25305dbe-974d-481a-8296-0926ee678627"},"vehicle_type_id":"4","last_reported":1741464456,"current_range_meters":6800,"station_id":"ce4bhnp2rcd13ifvqgvg","pricing_plan_id":"cebpf4jnsgd1na2vs0mg"},{"bike_id":"e319fdb7-8ee3-4582-843c-5078956813a9","system_id":"levelo_inurba_marseille","lat":43.31484,"lon":5.37302,"is_reserved":false,"is_disabled":false,"rental_uris":{"android":"levelo://app?vid=e319fdb7-8ee3-4582-843c-5078956813a9","ios":"levelo://app?vid=e319fdb7-8ee3-4582-843c-5078956813a9"},"vehicle_type_id":"4","last_reported":1741464456,"current_range_meters":6800,"station_id":"ce4bgt12rcd13ifvqcd0","pricing_plan_id":"cebpf4jnsgd1na2vs0mg"},{"bike_id":"91c2a16f-0ec1-465a-b3e5-974e36c498b3","system_id":"levelo_inurba_marseille","lat":43.27811,"lon":5.40714,"is_reserved":false,"is_disabled":false,"rental_uris":{"android":"levelo://app?vid=91c2a16f-0ec1-465a-b3e5-974e36c498b3","ios":"levelo://app?vid=91c2a16f-0ec1-465a-b3e5-974e36c498b3"},"vehicle_type_id":"4","last_reported":1741464456,"current_range_meters":6800,"station_id":"ce4bhnh2rcd13ifvqgtg","pricing_plan_id":"cebpf4jnsgd1na2vs0mg"},{"bike_id":"90b8db64-bbd7-44bb-b7ee-15ff858ae528","system_id":"levelo_inurba_marseille","lat":43.27656,"lon":5.3994,"is_reserved":false,"is_disabled":false,"rental_uris":{"android":"levelo://app?vid=90b8db64-bbd7-44bb-b7ee-15ff858ae528","ios":"levelo://app?vid=90b8db64-bbd7-44bb-b7ee-15ff858ae528"},"vehicle_type_id":"4","last_reported":1741464456,"current_range_meters":6800,"station_id":"","pricing_plan_id":"cebpf4jnsgd1na2vs0mg"},{"bike_id":"24eab6f7-5b40-4e15-a267-f117df0d4ccf","system_id":"levelo_inurba_marseille","lat":43.23959,"lon":5.36641,"is_reserved":false,"is_disabled":false,"rental_uris":{"android":"levelo://app?vid=24eab6f7-5b40-4e15-a267-f117df0d4ccf","ios":"levelo://app?vid=24eab6f7-5b40-4e15-a267-f117df0d4ccf"},"vehicle_type_id":"4","last_reported":1741464456,"current_range_meters":6800,"station_id":"ce4bhi12rcd13ifvqfp0","pricing_plan_id":"cebpf4jnsgd1na2vs0mg"},{"bike_id":"ff69b590-8439-4948-a50c-f9b899fda469","system_id":"levelo_inurba_marseille","lat":43.23966,"lon":5.36664,"is_reserved":false,"is_disabled":false,"rental_uris":{"android":"levelo://app?vid=ff69b590-8439-4948-a50c-f9b899fda469","ios":"levelo://app?vid=ff69b590-8439-4948-a50c-f9b899fda469"},"vehicle_type_id":"4","last_reported":1741464456,"current_range_meters":6800,"station_id":"ce4bhi12rcd13ifvqfp0","pricing_plan_id":"cebpf4jnsgd1na2vs0mg"},{"bike_id":"45e74ffc-2cca-4755-99a2-a317bcba5976","system_id":"levelo_inurba_marseille","lat":43.25006,"lon":5.38913,"is_reserved":false,"is_disabled":false,"rental_uris":{"android":"levelo://app?vid=45e74ffc-2cca-4755-99a2-a317bcba5976","ios":"levelo://app?vid=45e74ffc-2cca-4755-99a2-a317bcba5976"},"vehicle_type_id":"4","last_reported":1741464456,"current_range_meters":6800,"station_id":"ce4bhgp2rcd13ifvqfd0","pricing_plan_id":"cebpf4jnsgd1na2vs0mg"},{"bike_id":"21bec0b8-8711-4e3f-b3b8-b68368b1ce2a","system_id":"levelo_inurba_marseille","lat":43.31178,"lon":5.38719,"is_reserved":false,"is_disabled":false,"rental_uris":{"android":"levelo://app?vid=21bec0b8-8711-4e3f-b3b8-b68368b1ce2a","ios":"levelo://app?vid=21bec0b8-8711-4e3f-b3b8-b68368b1ce2a"},"vehicle_type_id":"4","last_reported":1741464456,"current_range_meters":7200,"station_id":"ce4bgv12rcd13ifvqcp0","pricing_plan_id":"cebpf4jnsgd1na2vs0mg"},{"bike_id":"04f01095-728f-4b5d-bfff-096539c368f8","system_id":"levelo_inurba_marseille","lat":43.32652,"lon":5.40986,"is_reserved":false,"is_disabled":false,"rental_uris":{"android":"levelo://app?vid=04f01095-728f-4b5d-bfff-096539c368f8","ios":"levelo://app?vid=04f01095-728f-4b5d-bfff-096539c368f8"},"vehicle_type_id":"4","last_reported":1741464456,"current_range_meters":7200,"station_id":"ce4bhpp2rcd13ifvqhgg","pricing_plan_id":"cebpf4jnsgd1na2vs0mg"},{"bike_id":"0f8ced4b-8898-4331-9edd-7dd3582bb18a","system_id":"levelo_inurba_marseille","lat":43.26918,"lon":5.40324,"is_reserved":false,"is_disabled":false,"rental_uris":{"android":"levelo://app?vid=0f8ced4b-8898-4331-9edd-7dd3582bb18a","ios":"levelo://app?vid=0f8ced4b-8898-4331-9edd-7dd3582bb18a"},"vehicle_type_id":"4","last_reported":1741464456,"current_range_meters":7200,"station_id":"","pricing_plan_id":"cebpf4jnsgd1na2vs0mg"},{"bike_id":"7b62c62b-d961-49e1-afe1-b0b21a291801","system_id":"levelo_inurba_marseille","lat":43.27865,"lon":5.41742,"is_reserved":false,"is_disabled":false,"rental_uris":{"android":"levelo://app?vid=7b62c62b-d961-49e1-afe1-b0b21a291801","ios":"levelo://app?vid=7b62c62b-d961-49e1-afe1-b0b21a291801"},"vehicle_type_id":"4","last_reported":1741464456,"current_range_meters":7200,"station_id":"","pricing_plan_id":"cebpf4jnsgd1na2vs0mg"},{"bike_id":"3afc3119-4d36-40cd-be1c-6d1eacc0474e","system_id":"levelo_inurba_marseille","lat":43.26847,"lon":5.40909,"is_reserved":false,"is_disabled":false,"rental_uris":{"android":"levelo://app?vid=3afc3119-4d36-40cd-be1c-6d1eacc0474e","ios":"levelo://app?vid=3afc3119-4d36-40cd-be1c-6d1eacc0474e"},"vehicle_type_id":"4","last_reported":1741464456,"current_range_meters":7200,"station_id":"ce4bhk92rcd13ifvqgb0","pricing_plan_id":"cebpf4jnsgd1na2vs0mg"},{"bike_id":"60fba7df-4520-4d63-9c5b-9a7a002cedfb","system_id":"levelo_inurba_marseille","lat":43.28029,"lon":5.39128,"is_reserved":false,"is_disabled":false,"rental_uris":{"android":"levelo://app?vid=60fba7df-4520-4d63-9c5b-9a7a002cedfb","ios":"levelo://app?vid=60fba7df-4520-4d63-9c5b-9a7a002cedfb"},"vehicle_type_id":"4","last_reported":1741464456,"current_range_meters":7200,"station_id":"","pricing_plan_id":"cebpf4jnsgd1na2vs0mg"},{"bike_id":"abfef553-177d-4a18-8c6b-22c4ea0c85dc","system_id":"levelo_inurba_marseille","lat":43.292,"lon":5.39323,"is_reserved":false,"is_disabled":false,"rental_uris":{"android":"levelo://app?vid=abfef553-177d-4a18-8c6b-22c4ea0c85dc","ios":"levelo://app?vid=abfef553-177d-4a18-8c6b-22c4ea0c85dc"},"vehicle_type_id":"4","last_reported":1741464456,"current_range_meters":7200,"station_id":"ce4bh192rcd13ifvqdd0","pricing_plan_id":"cebpf4jnsgd1na2vs0mg"},{"bike_id":"e73fb96e-0764-498c-88ac-adb20e0dd955","system_id":"levelo_inurba_marseille","lat":43.26059,"lon":5.39343,"is_reserved":false,"is_disabled":false,"rental_uris":{"android":"levelo://app?vid=e73fb96e-0764-498c-88ac-adb20e0dd955","ios":"levelo://app?vid=e73fb96e-0764-498c-88ac-adb20e0dd955"},"vehicle_type_id":"4","last_reported":1741464456,"current_range_meters":7200,"station_id":"ce4bhh92rcd13ifvqfj0","pricing_plan_id":"cebpf4jnsgd1na2vs0mg"},{"bike_id":"5288f7d5-930d-45a8-bab2-bb08912ffd7d","system_id":"levelo_inurba_marseille","lat":43.26943,"lon":5.38638,"is_reserved":false,"is_disabled":false,"rental_uris":{"android":"levelo://app?vid=5288f7d5-930d-45a8-bab2-bb08912ffd7d","ios":"levelo://app?vid=5288f7d5-930d-45a8-bab2-bb08912ffd7d"},"vehicle_type_id":"4","last_reported":1741464456,"current_range_meters":7200,"station_id":"ce4bhh92rcd13ifvqfh0","pricing_plan_id":"cebpf4jnsgd1na2vs0mg"},{"bike_id":"9653428e-c460-43e8-8f96-8b7acaf2f668","system_id":"levelo_inurba_marseille","lat":43.27223,"lon":5.39066,"is_reserved":false,"is_disabled":false,"rental_uris":{"android":"levelo://app?vid=9653428e-c460-43e8-8f96-8b7acaf2f668","ios":"levelo://app?vid=9653428e-c460-43e8-8f96-8b7acaf2f668"},"vehicle_type_id":"4","last_reported":1741464456,"current_range_meters":7200,"station_id":"","pricing_plan_id":"cebpf4jnsgd1na2vs0mg"},{"bike_id":"7d295ec4-9c0e-4850-9c53-dd65645b97b2","system_id":"levelo_inurba_marseille","lat":43.26059,"lon":5.39363,"is_reserved":false,"is_disabled":false,"rental_uris":{"android":"levelo://app?vid=7d295ec4-9c0e-4850-9c53-dd65645b97b2","ios":"levelo://app?vid=7d295ec4-9c0e-4850-9c53-dd65645b97b2"},"vehicle_type_id":"4","last_reported":1741464456,"current_range_meters":8000,"station_id":"ce4bhh92rcd13ifvqfj0","pricing_plan_id":"cebpf4jnsgd1na2vs0mg"},{"bike_id":"43900f3a-f33b-4012-b4bc-ba37bd85dcda","system_id":"levelo_inurba_marseille","lat":43.29424,"lon":5.38637,"is_reserved":false,"is_disabled":false,"rental_uris":{"android":"levelo://app?vid=43900f3a-f33b-4012-b4bc-ba37bd85dcda","ios":"levelo://app?vid=43900f3a-f33b-4012-b4bc-ba37bd85dcda"},"vehicle_type_id":"4","last_reported":1741464456,"current_range_meters":8000,"station_id":"ce4bh2h2rcd13ifvqdh0","pricing_plan_id":"cebpf4jnsgd1na2vs0mg"},{"bike_id":"6d0356cd-03ed-4a8b-97c7-0e2dd8952c4d","system_id":"levelo_inurba_marseille","lat":43.31714,"lon":5.43707,"is_reserved":false,"is_disabled":false,"rental_uris":{"android":"levelo://app?vid=6d0356cd-03ed-4a8b-97c7-0e2dd8952c4d","ios":"levelo://app?vid=6d0356cd-03ed-4a8b-97c7-0e2dd8952c4d"},"vehicle_type_id":"4","last_reported":1741464456,"current_range_meters":8000,"station_id":"ce4bhp92rcd13ifvqhcg","pricing_plan_id":"cebpf4jnsgd1na2vs0mg"},{"bike_id":"99121d6d-76c3-4940-bf6e-13375dbd5bf4","system_id":"levelo_inurba_marseille","lat":43.23966,"lon":5.36632,"is_reserved":false,"is_disabled":false,"rental_uris":{"android":"levelo://app?vid=99121d6d-76c3-4940-bf6e-13375dbd5bf4","ios":"levelo://app?vid=99121d6d-76c3-4940-bf6e-13375dbd5bf4"},"vehicle_type_id":"4","last_reported":1741464456,"current_range_meters":8400,"station_id":"ce4bhi12rcd13ifvqfp0","pricing_plan_id":"cebpf4jnsgd1na2vs0mg"},{"bike_id":"b6d4299b-4fdb-4612-927d-2e81bbe91b45","system_id":"levelo_inurba_marseille","lat":43.32113,"lon":5.36785,"is_reserved":false,"is_disabled":false,"rental_uris":{"android":"levelo://app?vid=b6d4299b-4fdb-4612-927d-2e81bbe91b45","ios":"levelo://app?vid=b6d4299b-4fdb-4612-927d-2e81bbe91b45"},"vehicle_type_id":"4","last_reported":1741464456,"current_range_meters":8000,"station_id":"ce4bhrh2rcd13ifvqhug","pricing_plan_id":"cebpf4jnsgd1na2vs0mg"},{"bike_id":"2fd4f423-2dfb-4668-b095-ec6fbceb336f","system_id":"levelo_inurba_marseille","lat":43.27825,"lon":5.40727,"is_reserved":false,"is_disabled":false,"rental_uris":{"android":"levelo://app?vid=2fd4f423-2dfb-4668-b095-ec6fbceb336f","ios":"levelo://app?vid=2fd4f423-2dfb-4668-b095-ec6fbceb336f"},"vehicle_type_id":"4","last_reported":1741464456,"current_range_meters":7200,"station_id":"ce4bhnh2rcd13ifvqgtg","pricing_plan_id":"cebpf4jnsgd1na2vs0mg"},{"bike_id":"bd747c40-d689-4519-a59a-8567d2d93e10","system_id":"levelo_inurba_marseille","lat":43.28984,"lon":5.37847,"is_reserved":false,"is_disabled":false,"rental_uris":{"android":"levelo://app?vid=bd747c40-d689-4519-a59a-8567d2d93e10","ios":"levelo://app?vid=bd747c40-d689-4519-a59a-8567d2d93e10"},"vehicle_type_id":"4","last_reported":1741464456,"current_range_meters":8000,"station_id":"ce4bh9p2rcd13ifvqed0","pricing_plan_id":"cebpf4jnsgd1na2vs0mg"},{"bike_id":"9effefb9-02e3-4c25-ab75-e3a5ac01515f","system_id":"levelo_inurba_marseille","lat":43.26549,"lon":5.37295,"is_reserved":false,"is_disabled":true,"rental_uris":{"android":"levelo://app?vid=9effefb9-02e3-4c25-ab75-e3a5ac01515f","ios":"levelo://app?vid=9effefb9-02e3-4c25-ab75-e3a5ac01515f"},"vehicle_type_id":"4","last_reported":1741464456,"current_range_meters":8000,"station_id":"ce4bhg12rcd13ifvqf70","pricing_plan_id":"cebpf4jnsgd1na2vs0mg"},{"bike_id":"04027f9f-3617-4d0f-8003-b61a82d55757","system_id":"levelo_inurba_marseille","lat":43.27813,"lon":5.40701,"is_reserved":false,"is_disabled":false,"rental_uris":{"android":"levelo://app?vid=04027f9f-3617-4d0f-8003-b61a82d55757","ios":"levelo://app?vid=04027f9f-3617-4d0f-8003-b61a82d55757"},"vehicle_type_id":"4","last_reported":1741464456,"current_range_meters":8000,"station_id":"ce4bhnh2rcd13ifvqgtg","pricing_plan_id":"cebpf4jnsgd1na2vs0mg"},{"bike_id":"903ca8fb-a01f-48af-9d7f-844151e9f785","system_id":"levelo_inurba_marseille","lat":43.2796,"lon":5.41056,"is_reserved":false,"is_disabled":true,"rental_uris":{"android":"levelo://app?vid=903ca8fb-a01f-48af-9d7f-844151e9f785","ios":"levelo://app?vid=903ca8fb-a01f-48af-9d7f-844151e9f785"},"vehicle_type_id":"4","last_reported":1741464456,"current_range_meters":8000,"station_id":"ce4bhnp2rcd13ifvqh0g","pricing_plan_id":"cebpf4jnsgd1na2vs0mg"},{"bike_id":"1cbc1fcb-0863-40f2-9569-6010487f328c","system_id":"levelo_inurba_marseille","lat":43.27207,"lon":5.39199,"is_reserved":false,"is_disabled":false,"rental_uris":{"android":"levelo://app?vid=1cbc1fcb-0863-40f2-9569-6010487f328c","ios":"levelo://app?vid=1cbc1fcb-0863-40f2-9569-6010487f328c"},"vehicle_type_id":"4","last_reported":1741464456,"current_range_meters":8000,"station_id":"ce4bhhp2rcd13ifvqfm0","pricing_plan_id":"cebpf4jnsgd1na2vs0mg"},{"bike_id":"4c63458e-2db0-4cb3-bfc1-7ab137c5f028","system_id":"levelo_inurba_marseille","lat":43.26942,"lon":5.40245,"is_reserved":false,"is_disabled":false,"rental_uris":{"android":"levelo://app?vid=4c63458e-2db0-4cb3-bfc1-7ab137c5f028","ios":"levelo://app?vid=4c63458e-2db0-4cb3-bfc1-7ab137c5f028"},"vehicle_type_id":"4","last_reported":1741464456,"current_range_meters":8000,"station_id":"cjm6bp8fraef2m0cb0m0","pricing_plan_id":"cebpf4jnsgd1na2vs0mg"},{"bike_id":"f4fef931-b4a2-4ebe-bec3-6b00147f7cb2","system_id":"levelo_inurba_marseille","lat":43.27324,"lon":5.3909,"is_reserved":false,"is_disabled":false,"rental_uris":{"android":"levelo://app?vid=f4fef931-b4a2-4ebe-bec3-6b00147f7cb2","ios":"levelo://app?vid=f4fef931-b4a2-4ebe-bec3-6b00147f7cb2"},"vehicle_type_id":"4","last_reported":1741464456,"current_range_meters":8000,"station_id":"ce4bhgp2rcd13ifvqfe0","pricing_plan_id":"cebpf4jnsgd1na2vs0mg"},{"bike_id":"53bd1732-d8ff-41a5-8f1b-42274afdde26","system_id":"levelo_inurba_marseille","lat":43.29345,"lon":5.42824,"is_reserved":false,"is_disabled":false,"rental_uris":{"android":"levelo://app?vid=53bd1732-d8ff-41a5-8f1b-42274afdde26","ios":"levelo://app?vid=53bd1732-d8ff-41a5-8f1b-42274afdde26"},"vehicle_type_id":"4","last_reported":1741464456,"current_range_meters":8000,"station_id":"","pricing_plan_id":"cebpf4jnsgd1na2vs0mg"},{"bike_id":"4ffc685e-cd62-4cfd-b678-3ac700cffc15","system_id":"levelo_inurba_marseille","lat":43.27963,"lon":5.38736,"is_reserved":false,"is_disabled":false,"rental_uris":{"android":"levelo://app?vid=4ffc685e-cd62-4cfd-b678-3ac700cffc15","ios":"levelo://app?vid=4ffc685e-cd62-4cfd-b678-3ac700cffc15"},"vehicle_type_id":"4","last_reported":1741464456,"current_range_meters":8000,"station_id":"ce4bhg12rcd13ifvqf80","pricing_plan_id":"cebpf4jnsgd1na2vs0mg"},{"bike_id":"f2a28bae-9db2-4b5e-a55a-5c236f9931a1","system_id":"levelo_inurba_marseille","lat":43.29046,"lon":5.37565,"is_reserved":false,"is_disabled":false,"rental_uris":{"android":"levelo://app?vid=f2a28bae-9db2-4b5e-a55a-5c236f9931a1","ios":"levelo://app?vid=f2a28bae-9db2-4b5e-a55a-5c236f9931a1"},"vehicle_type_id":"4","last_reported":1741464456,"current_range_meters":8000,"station_id":"ce4bh692rcd13ifvqe90","pricing_plan_id":"cebpf4jnsgd1na2vs0mg"},{"bike_id":"6dc6a376-2d07-4693-8343-4e2c46120c7a","system_id":"levelo_inurba_marseille","lat":43.26794,"lon":5.39431,"is_reserved":false,"is_disabled":false,"rental_uris":{"android":"levelo://app?vid=6dc6a376-2d07-4693-8343-4e2c46120c7a","ios":"levelo://app?vid=6dc6a376-2d07-4693-8343-4e2c46120c7a"},"vehicle_type_id":"4","last_reported":1741464456,"current_range_meters":8000,"station_id":"ce4bhh12rcd13ifvqfg0","pricing_plan_id":"cebpf4jnsgd1na2vs0mg"},{"bike_id":"89ecf721-8cf4-46ba-ab9a-a3b7d4f24f88","system_id":"levelo_inurba_marseille","lat":43.30304,"lon":5.39209,"is_reserved":false,"is_disabled":false,"rental_uris":{"android":"levelo://app?vid=89ecf721-8cf4-46ba-ab9a-a3b7d4f24f88","ios":"levelo://app?vid=89ecf721-8cf4-46ba-ab9a-a3b7d4f24f88"},"vehicle_type_id":"4","last_reported":1741464456,"current_range_meters":8000,"station_id":"ce4bgkh2rcd13ifvqbk0","pricing_plan_id":"cebpf4jnsgd1na2vs0mg"},{"bike_id":"cb7e618a-093b-4757-8263-4076ceaa0e8a","system_id":"levelo_inurba_marseille","lat":43.25091,"lon":5.39507,"is_reserved":false,"is_disabled":false,"rental_uris":{"android":"levelo://app?vid=cb7e618a-093b-4757-8263-4076ceaa0e8a","ios":"levelo://app?vid=cb7e618a-093b-4757-8263-4076ceaa0e8a"},"vehicle_type_id":"4","last_reported":1741464456,"current_range_meters":8400,"station_id":"ce4bhm12rcd13ifvqgkg","pricing_plan_id":"cebpf4jnsgd1na2vs0mg"},{"bike_id":"04a6e96d-057a-40fb-a85d-79a6fc0e6d64","system_id":"levelo_inurba_marseille","lat":43.26938,"lon":5.40245,"is_reserved":false,"is_disabled":false,"rental_uris":{"android":"levelo://app?vid=04a6e96d-057a-40fb-a85d-79a6fc0e6d64","ios":"levelo://app?vid=04a6e96d-057a-40fb-a85d-79a6fc0e6d64"},"vehicle_type_id":"4","last_reported":1741464456,"current_range_meters":8400,"station_id":"cjm6bp8fraef2m0cb0m0","pricing_plan_id":"cebpf4jnsgd1na2vs0mg"},{"bike_id":"8968ebf0-976e-4199-a05d-0b5eb90e8fa7","system_id":"levelo_inurba_marseille","lat":43.25734,"lon":5.41083,"is_reserved":false,"is_disabled":false,"rental_uris":{"android":"levelo://app?vid=8968ebf0-976e-4199-a05d-0b5eb90e8fa7","ios":"levelo://app?vid=8968ebf0-976e-4199-a05d-0b5eb90e8fa7"},"vehicle_type_id":"4","last_reported":1741464456,"current_range_meters":8400,"station_id":"ce4bhkp2rcd13ifvqgd0","pricing_plan_id":"cebpf4jnsgd1na2vs0mg"},{"bike_id":"c40c13ce-fdbb-4f52-b2d8-1005d4c9277b","system_id":"levelo_inurba_marseille","lat":43.25405,"lon":5.41898,"is_reserved":false,"is_disabled":false,"rental_uris":{"android":"levelo://app?vid=c40c13ce-fdbb-4f52-b2d8-1005d4c9277b","ios":"levelo://app?vid=c40c13ce-fdbb-4f52-b2d8-1005d4c9277b"},"vehicle_type_id":"4","last_reported":1741464456,"current_range_meters":8400,"station_id":"","pricing_plan_id":"cebpf4jnsgd1na2vs0mg"},{"bike_id":"aa5a6ba6-9d57-42a9-a76f-86763ff3079f","system_id":"levelo_inurba_marseille","lat":43.27215,"lon":5.39186,"is_reserved":false,"is_disabled":false,"rental_uris":{"android":"levelo://app?vid=aa5a6ba6-9d57-42a9-a76f-86763ff3079f","ios":"levelo://app?vid=aa5a6ba6-9d57-42a9-a76f-86763ff3079f"},"vehicle_type_id":"4","last_reported":1741464456,"current_range_meters":8400,"station_id":"ce4bhhp2rcd13ifvqfm0","pricing_plan_id":"cebpf4jnsgd1na2vs0mg"},{"bike_id":"6f46e430-3990-4530-b0f2-2d4583660ccd","system_id":"levelo_inurba_marseille","lat":43.27433,"lon":5.39417,"is_reserved":false,"is_disabled":false,"rental_uris":{"android":"levelo://app?vid=6f46e430-3990-4530-b0f2-2d4583660ccd","ios":"levelo://app?vid=6f46e430-3990-4530-b0f2-2d4583660ccd"},"vehicle_type_id":"4","last_reported":1741464456,"current_range_meters":8400,"station_id":"ce4bhdp2rcd13ifvqf20","pricing_plan_id":"cebpf4jnsgd1na2vs0mg"},{"bike_id":"5408c69b-af36-4518-8b07-59da9b29cadf","system_id":"levelo_inurba_marseille","lat":43.30423,"lon":5.38901,"is_reserved":false,"is_disabled":false,"rental_uris":{"android":"levelo://app?vid=5408c69b-af36-4518-8b07-59da9b29cadf","ios":"levelo://app?vid=5408c69b-af36-4518-8b07-59da9b29cadf"},"vehicle_type_id":"4","last_reported":1741464456,"current_range_meters":8400,"station_id":"ce4bgk12rcd13ifvqbi0","pricing_plan_id":"cebpf4jnsgd1na2vs0mg"},{"bike_id":"60e01823-a385-4194-93b4-da26c6e21b1c","system_id":"levelo_inurba_marseille","lat":43.30437,"lon":5.39748,"is_reserved":false,"is_disabled":false,"rental_uris":{"android":"levelo://app?vid=60e01823-a385-4194-93b4-da26c6e21b1c","ios":"levelo://app?vid=60e01823-a385-4194-93b4-da26c6e21b1c"},"vehicle_type_id":"4","last_reported":1741464456,"current_range_meters":8400,"station_id":"ce4bh092rcd13ifvqd20","pricing_plan_id":"cebpf4jnsgd1na2vs0mg"},{"bike_id":"445f5ccc-731a-484d-b373-ff618ed50dbb","system_id":"levelo_inurba_marseille","lat":43.26941,"lon":5.38644,"is_reserved":false,"is_disabled":false,"rental_uris":{"android":"levelo://app?vid=445f5ccc-731a-484d-b373-ff618ed50dbb","ios":"levelo://app?vid=445f5ccc-731a-484d-b373-ff618ed50dbb"},"vehicle_type_id":"4","last_reported":1741464456,"current_range_meters":8400,"station_id":"ce4bhh92rcd13ifvqfh0","pricing_plan_id":"cebpf4jnsgd1na2vs0mg"},{"bike_id":"603e7930-ec9e-4dbc-b79e-c05aaea573ce","system_id":"levelo_inurba_marseille","lat":43.30784,"lon":5.43517,"is_reserved":false,"is_disabled":false,"rental_uris":{"android":"levelo://app?vid=603e7930-ec9e-4dbc-b79e-c05aaea573ce","ios":"levelo://app?vid=603e7930-ec9e-4dbc-b79e-c05aaea573ce"},"vehicle_type_id":"4","last_reported":1741464456,"current_range_meters":8400,"station_id":"ce4bhph2rcd13ifvqheg","pricing_plan_id":"cebpf4jnsgd1na2vs0mg"},{"bike_id":"c35465d8-2059-452b-aedf-263638f8047e","system_id":"levelo_inurba_marseille","lat":43.31102,"lon":5.37765,"is_reserved":false,"is_disabled":false,"rental_uris":{"android":"levelo://app?vid=c35465d8-2059-452b-aedf-263638f8047e","ios":"levelo://app?vid=c35465d8-2059-452b-aedf-263638f8047e"},"vehicle_type_id":"4","last_reported":1741464456,"current_range_meters":8400,"station_id":"ce4bgt92rcd13ifvqcg0","pricing_plan_id":"cebpf4jnsgd1na2vs0mg"},{"bike_id":"42155170-f769-480e-b54a-7297d54b5579","system_id":"levelo_inurba_marseille","lat":43.2735,"lon":5.39134,"is_reserved":false,"is_disabled":false,"rental_uris":{"android":"levelo://app?vid=42155170-f769-480e-b54a-7297d54b5579","ios":"levelo://app?vid=42155170-f769-480e-b54a-7297d54b5579"},"vehicle_type_id":"4","last_reported":1741464456,"current_range_meters":8400,"station_id":"ce4bhgp2rcd13ifvqfe0","pricing_plan_id":"cebpf4jnsgd1na2vs0mg"},{"bike_id":"cb0d4d15-0ce0-4061-8a04-93bcbe80bd0f","system_id":"levelo_inurba_marseille","lat":43.25963,"lon":5.4086,"is_reserved":false,"is_disabled":false,"rental_uris":{"android":"levelo://app?vid=cb0d4d15-0ce0-4061-8a04-93bcbe80bd0f","ios":"levelo://app?vid=cb0d4d15-0ce0-4061-8a04-93bcbe80bd0f"},"vehicle_type_id":"4","last_reported":1741464456,"current_range_meters":8400,"station_id":"","pricing_plan_id":"cebpf4jnsgd1na2vs0mg"},{"bike_id":"973cebf0-cbbb-4f5a-baaa-b65f9742a27d","system_id":"levelo_inurba_marseille","lat":43.29256,"lon":5.3844,"is_reserved":false,"is_disabled":false,"rental_uris":{"android":"levelo://app?vid=973cebf0-cbbb-4f5a-baaa-b65f9742a27d","ios":"levelo://app?vid=973cebf0-cbbb-4f5a-baaa-b65f9742a27d"},"vehicle_type_id":"4","last_reported":1741464456,"current_range_meters":8400,"station_id":"ce4bh692rcd13ifvqea0","pricing_plan_id":"cebpf4jnsgd1na2vs0mg"},{"bike_id":"7c11c067-b6f5-44dd-8ac2-42418c1e55db","system_id":"levelo_inurba_marseille","lat":43.26942,"lon":5.40249,"is_reserved":false,"is_disabled":false,"rental_uris":{"android":"levelo://app?vid=7c11c067-b6f5-44dd-8ac2-42418c1e55db","ios":"levelo://app?vid=7c11c067-b6f5-44dd-8ac2-42418c1e55db"},"vehicle_type_id":"4","last_reported":1741464456,"current_range_meters":8400,"station_id":"cjm6bp8fraef2m0cb0m0","pricing_plan_id":"cebpf4jnsgd1na2vs0mg"},{"bike_id":"985a64d9-a554-43d3-b14d-6c54aece15a8","system_id":"levelo_inurba_marseille","lat":43.26948,"lon":5.40246,"is_reserved":false,"is_disabled":false,"rental_uris":{"android":"levelo://app?vid=985a64d9-a554-43d3-b14d-6c54aece15a8","ios":"levelo://app?vid=985a64d9-a554-43d3-b14d-6c54aece15a8"},"vehicle_type_id":"4","last_reported":1741464456,"current_range_meters":8400,"station_id":"cjm6bp8fraef2m0cb0m0","pricing_plan_id":"cebpf4jnsgd1na2vs0mg"},{"bike_id":"ed8f7f27-25d5-483e-9a90-2580abb6b858","system_id":"levelo_inurba_marseille","lat":43.29266,"lon":5.38447,"is_reserved":false,"is_disabled":false,"rental_uris":{"android":"levelo://app?vid=ed8f7f27-25d5-483e-9a90-2580abb6b858","ios":"levelo://app?vid=ed8f7f27-25d5-483e-9a90-2580abb6b858"},"vehicle_type_id":"4","last_reported":1741464456,"current_range_meters":8400,"station_id":"ce4bh692rcd13ifvqea0","pricing_plan_id":"cebpf4jnsgd1na2vs0mg"},{"bike_id":"29a2dc41-176e-4ce3-9704-1e0c81ed4573","system_id":"levelo_inurba_marseille","lat":43.26089,"lon":5.39387,"is_reserved":false,"is_disabled":false,"rental_uris":{"android":"levelo://app?vid=29a2dc41-176e-4ce3-9704-1e0c81ed4573","ios":"levelo://app?vid=29a2dc41-176e-4ce3-9704-1e0c81ed4573"},"vehicle_type_id":"4","last_reported":1741464456,"current_range_meters":8400,"station_id":"ce4bhh92rcd13ifvqfj0","pricing_plan_id":"cebpf4jnsgd1na2vs0mg"},{"bike_id":"4c85eab2-52b8-4067-b8f2-6c525237fdc8","system_id":"levelo_inurba_marseille","lat":43.272,"lon":5.39196,"is_reserved":false,"is_disabled":false,"rental_uris":{"android":"levelo://app?vid=4c85eab2-52b8-4067-b8f2-6c525237fdc8","ios":"levelo://app?vid=4c85eab2-52b8-4067-b8f2-6c525237fdc8"},"vehicle_type_id":"4","last_reported":1741464456,"current_range_meters":8800,"station_id":"ce4bhhp2rcd13ifvqfm0","pricing_plan_id":"cebpf4jnsgd1na2vs0mg"},{"bike_id":"4f508b50-1e3d-40c5-be77-1e6495edbe07","system_id":"levelo_inurba_marseille","lat":43.25783,"lon":5.4105,"is_reserved":false,"is_disabled":false,"rental_uris":{"android":"levelo://app?vid=4f508b50-1e3d-40c5-be77-1e6495edbe07","ios":"levelo://app?vid=4f508b50-1e3d-40c5-be77-1e6495edbe07"},"vehicle_type_id":"4","last_reported":1741464456,"current_range_meters":8800,"station_id":"","pricing_plan_id":"cebpf4jnsgd1na2vs0mg"},{"bike_id":"c787a0ef-03a5-4d36-b53c-60238e9036da","system_id":"levelo_inurba_marseille","lat":43.23184,"lon":5.40003,"is_reserved":false,"is_disabled":false,"rental_uris":{"android":"levelo://app?vid=c787a0ef-03a5-4d36-b53c-60238e9036da","ios":"levelo://app?vid=c787a0ef-03a5-4d36-b53c-60238e9036da"},"vehicle_type_id":"4","last_reported":1741464456,"current_range_meters":8800,"station_id":"ce4bhn12rcd13ifvqgqg","pricing_plan_id":"cebpf4jnsgd1na2vs0mg"},{"bike_id":"a6c74a05-39e7-4da6-8b71-1ba187fc5bae","system_id":"levelo_inurba_marseille","lat":43.30561,"lon":5.36531,"is_reserved":false,"is_disabled":true,"rental_uris":{"android":"levelo://app?vid=a6c74a05-39e7-4da6-8b71-1ba187fc5bae","ios":"levelo://app?vid=a6c74a05-39e7-4da6-8b71-1ba187fc5bae"},"vehicle_type_id":"4","last_reported":1741464456,"current_range_meters":8800,"station_id":"ce4bgs12rcd13ifvqcag","pricing_plan_id":"cebpf4jnsgd1na2vs0mg"},{"bike_id":"7f82ad20-99b2-4a6a-8433-2e3442c85645","system_id":"levelo_inurba_marseille","lat":43.29972,"lon":5.38484,"is_reserved":false,"is_disabled":false,"rental_uris":{"android":"levelo://app?vid=7f82ad20-99b2-4a6a-8433-2e3442c85645","ios":"levelo://app?vid=7f82ad20-99b2-4a6a-8433-2e3442c85645"},"vehicle_type_id":"4","last_reported":1741464456,"current_range_meters":8800,"station_id":"ce4bgj92rcd13ifvqbd0","pricing_plan_id":"cebpf4jnsgd1na2vs0mg"},{"bike_id":"46c4231f-7385-4d40-9ad3-8b5e57378081","system_id":"levelo_inurba_marseille","lat":43.29537,"lon":5.38551,"is_reserved":false,"is_disabled":false,"rental_uris":{"android":"levelo://app?vid=46c4231f-7385-4d40-9ad3-8b5e57378081","ios":"levelo://app?vid=46c4231f-7385-4d40-9ad3-8b5e57378081"},"vehicle_type_id":"4","last_reported":1741464456,"current_range_meters":8800,"station_id":"ce4bgih2rcd13ifvqba0","pricing_plan_id":"cebpf4jnsgd1na2vs0mg"},{"bike_id":"52879805-308b-4b69-ae96-68177df49146","system_id":"levelo_inurba_marseille","lat":43.2869,"lon":5.38671,"is_reserved":false,"is_disabled":false,"rental_uris":{"android":"levelo://app?vid=52879805-308b-4b69-ae96-68177df49146","ios":"levelo://app?vid=52879805-308b-4b69-ae96-68177df49146"},"vehicle_type_id":"4","last_reported":1741464456,"current_range_meters":8800,"station_id":"ce4bh492rcd13ifvqdug","pricing_plan_id":"cebpf4jnsgd1na2vs0mg"},{"bike_id":"3c77d28d-ef5d-43f9-afd5-3b629025e592","system_id":"levelo_inurba_marseille","lat":43.29412,"lon":5.38616,"is_reserved":false,"is_disabled":false,"rental_uris":{"android":"levelo://app?vid=3c77d28d-ef5d-43f9-afd5-3b629025e592","ios":"levelo://app?vid=3c77d28d-ef5d-43f9-afd5-3b629025e592"},"vehicle_type_id":"4","last_reported":1741464456,"current_range_meters":8800,"station_id":"ce4bh2h2rcd13ifvqdh0","pricing_plan_id":"cebpf4jnsgd1na2vs0mg"},{"bike_id":"c54e76cd-efcc-47c2-b5e1-593386ffe01e","system_id":"levelo_inurba_marseille","lat":43.28975,"lon":5.37853,"is_reserved":false,"is_disabled":false,"rental_uris":{"android":"levelo://app?vid=c54e76cd-efcc-47c2-b5e1-593386ffe01e","ios":"levelo://app?vid=c54e76cd-efcc-47c2-b5e1-593386ffe01e"},"vehicle_type_id":"4","last_reported":1741464456,"current_range_meters":8800,"station_id":"ce4bh9p2rcd13ifvqed0","pricing_plan_id":"cebpf4jnsgd1na2vs0mg"},{"bike_id":"8df407ef-3091-4aac-af6a-d8e6fc5624c1","system_id":"levelo_inurba_marseille","lat":43.299773,"lon":5.371703,"is_reserved":false,"is_disabled":false,"rental_uris":{"android":"levelo://app?vid=8df407ef-3091-4aac-af6a-d8e6fc5624c1","ios":"levelo://app?vid=8df407ef-3091-4aac-af6a-d8e6fc5624c1"},"vehicle_type_id":"4","last_reported":1741464456,"current_range_meters":8800,"station_id":"ce4bgr92rcd13ifvqc7g","pricing_plan_id":"cebpf4jnsgd1na2vs0mg"},{"bike_id":"14cf3877-3af3-46f4-af3f-e93bc737cb7b","system_id":"levelo_inurba_marseille","lat":43.29847,"lon":5.36284,"is_reserved":false,"is_disabled":false,"rental_uris":{"android":"levelo://app?vid=14cf3877-3af3-46f4-af3f-e93bc737cb7b","ios":"levelo://app?vid=14cf3877-3af3-46f4-af3f-e93bc737cb7b"},"vehicle_type_id":"4","last_reported":1741464456,"current_range_meters":9200,"station_id":"ce4bgpp2rcd13ifvqc3g","pricing_plan_id":"cebpf4jnsgd1na2vs0mg"},{"bike_id":"ec3413ec-9556-453a-842c-c5af41101921","system_id":"levelo_inurba_marseille","lat":43.23152,"lon":5.4372,"is_reserved":false,"is_disabled":false,"rental_uris":{"android":"levelo://app?vid=ec3413ec-9556-453a-842c-c5af41101921","ios":"levelo://app?vid=ec3413ec-9556-453a-842c-c5af41101921"},"vehicle_type_id":"4","last_reported":1741464456,"current_range_meters":9200,"station_id":"ce4bhmp2rcd13ifvqgog","pricing_plan_id":"cebpf4jnsgd1na2vs0mg"},{"bike_id":"bdce6986-86c4-4404-aa26-b17249768109","system_id":"levelo_inurba_marseille","lat":43.27852,"lon":5.40718,"is_reserved":false,"is_disabled":false,"rental_uris":{"android":"levelo://app?vid=bdce6986-86c4-4404-aa26-b17249768109","ios":"levelo://app?vid=bdce6986-86c4-4404-aa26-b17249768109"},"vehicle_type_id":"4","last_reported":1741464456,"current_range_meters":9200,"station_id":"ce4bhnh2rcd13ifvqgtg","pricing_plan_id":"cebpf4jnsgd1na2vs0mg"},{"bike_id":"6b937baf-8fc2-4105-ab81-d2e048a9a93c","system_id":"levelo_inurba_marseille","lat":43.29389,"lon":5.38621,"is_reserved":false,"is_disabled":false,"rental_uris":{"android":"levelo://app?vid=6b937baf-8fc2-4105-ab81-d2e048a9a93c","ios":"levelo://app?vid=6b937baf-8fc2-4105-ab81-d2e048a9a93c"},"vehicle_type_id":"4","last_reported":1741464456,"current_range_meters":9200,"station_id":"ce4bh2h2rcd13ifvqdh0","pricing_plan_id":"cebpf4jnsgd1na2vs0mg"},{"bike_id":"987b21a2-73dc-4dc8-9990-cb99ebe446a3","system_id":"levelo_inurba_marseille","lat":43.27567,"lon":5.38418,"is_reserved":false,"is_disabled":false,"rental_uris":{"android":"levelo://app?vid=987b21a2-73dc-4dc8-9990-cb99ebe446a3","ios":"levelo://app?vid=987b21a2-73dc-4dc8-9990-cb99ebe446a3"},"vehicle_type_id":"4","last_reported":1741464456,"current_range_meters":9200,"station_id":"ce4bhh92rcd13ifvqfi0","pricing_plan_id":"cebpf4jnsgd1na2vs0mg"},{"bike_id":"42aedb88-473c-4518-8d54-dc991a6234b1","system_id":"levelo_inurba_marseille","lat":43.27808,"lon":5.40724,"is_reserved":false,"is_disabled":false,"rental_uris":{"android":"levelo://app?vid=42aedb88-473c-4518-8d54-dc991a6234b1","ios":"levelo://app?vid=42aedb88-473c-4518-8d54-dc991a6234b1"},"vehicle_type_id":"4","last_reported":1741464456,"current_range_meters":9200,"station_id":"ce4bhnh2rcd13ifvqgtg","pricing_plan_id":"cebpf4jnsgd1na2vs0mg"},{"bike_id":"f99326d0-73eb-43fe-9c8b-ba4690879103","system_id":"levelo_inurba_marseille","lat":43.27833,"lon":5.40718,"is_reserved":false,"is_disabled":false,"rental_uris":{"android":"levelo://app?vid=f99326d0-73eb-43fe-9c8b-ba4690879103","ios":"levelo://app?vid=f99326d0-73eb-43fe-9c8b-ba4690879103"},"vehicle_type_id":"4","last_reported":1741464456,"current_range_meters":9200,"station_id":"ce4bhnh2rcd13ifvqgtg","pricing_plan_id":"cebpf4jnsgd1na2vs0mg"},{"bike_id":"ebaf2159-d255-470d-a8fb-d3ef932c518c","system_id":"levelo_inurba_marseille","lat":43.30888,"lon":5.39652,"is_reserved":false,"is_disabled":false,"rental_uris":{"android":"levelo://app?vid=ebaf2159-d255-470d-a8fb-d3ef932c518c","ios":"levelo://app?vid=ebaf2159-d255-470d-a8fb-d3ef932c518c"},"vehicle_type_id":"4","last_reported":1741464456,"current_range_meters":9600,"station_id":"ce4bh012rcd13ifvqcv0","pricing_plan_id":"cebpf4jnsgd1na2vs0mg"},{"bike_id":"b2c2514d-58df-4080-9acc-0a3325c87525","system_id":"levelo_inurba_marseille","lat":43.323686,"lon":5.367557,"is_reserved":false,"is_disabled":false,"rental_uris":{"android":"levelo://app?vid=b2c2514d-58df-4080-9acc-0a3325c87525","ios":"levelo://app?vid=b2c2514d-58df-4080-9acc-0a3325c87525"},"vehicle_type_id":"4","last_reported":1741464456,"current_range_meters":9600,"station_id":"ce4bhsh2rcd13ifvqi2g","pricing_plan_id":"cebpf4jnsgd1na2vs0mg"},{"bike_id":"fdf45df4-47d5-41e8-a6c7-03ee85585140","system_id":"levelo_inurba_marseille","lat":43.26784,"lon":5.39428,"is_reserved":false,"is_disabled":true,"rental_uris":{"android":"levelo://app?vid=fdf45df4-47d5-41e8-a6c7-03ee85585140","ios":"levelo://app?vid=fdf45df4-47d5-41e8-a6c7-03ee85585140"},"vehicle_type_id":"4","last_reported":1741464456,"current_range_meters":9600,"station_id":"ce4bhh12rcd13ifvqfg0","pricing_plan_id":"cebpf4jnsgd1na2vs0mg"},{"bike_id":"3b32b7ae-055d-4265-832d-e3baa73f849b","system_id":"levelo_inurba_marseille","lat":43.3232,"lon":5.3826,"is_reserved":false,"is_disabled":false,"rental_uris":{"android":"levelo://app?vid=3b32b7ae-055d-4265-832d-e3baa73f849b","ios":"levelo://app?vid=3b32b7ae-055d-4265-832d-e3baa73f849b"},"vehicle_type_id":"4","last_reported":1741464456,"current_range_meters":9600,"station_id":"ce4bhr12rcd13ifvqhqg","pricing_plan_id":"cebpf4jnsgd1na2vs0mg"},{"bike_id":"f8c5647c-2c93-4ef6-aab4-42f6ca1b2c2c","system_id":"levelo_inurba_marseille","lat":43.290367,"lon":5.399591,"is_reserved":false,"is_disabled":false,"rental_uris":{"android":"levelo://app?vid=f8c5647c-2c93-4ef6-aab4-42f6ca1b2c2c","ios":"levelo://app?vid=f8c5647c-2c93-4ef6-aab4-42f6ca1b2c2c"},"vehicle_type_id":"4","last_reported":1741464456,"current_range_meters":9200,"station_id":"ce4bh492rcd13ifvqdug","pricing_plan_id":"cebpf4jnsgd1na2vs0mg"},{"bike_id":"692c3fd1-e388-4c38-bc5f-023f56dd0104","system_id":"levelo_inurba_marseille","lat":43.25727,"lon":5.41044,"is_reserved":false,"is_disabled":false,"rental_uris":{"android":"levelo://app?vid=692c3fd1-e388-4c38-bc5f-023f56dd0104","ios":"levelo://app?vid=692c3fd1-e388-4c38-bc5f-023f56dd0104"},"vehicle_type_id":"4","last_reported":1741464456,"current_range_meters":9600,"station_id":"","pricing_plan_id":"cebpf4jnsgd1na2vs0mg"},{"bike_id":"7ccf354e-d9c3-453e-9d8c-ff76790a4a22","system_id":"levelo_inurba_marseille","lat":43.29562,"lon":5.38554,"is_reserved":false,"is_disabled":false,"rental_uris":{"android":"levelo://app?vid=7ccf354e-d9c3-453e-9d8c-ff76790a4a22","ios":"levelo://app?vid=7ccf354e-d9c3-453e-9d8c-ff76790a4a22"},"vehicle_type_id":"4","last_reported":1741464456,"current_range_meters":9600,"station_id":"ce4bgih2rcd13ifvqba0","pricing_plan_id":"cebpf4jnsgd1na2vs0mg"},{"bike_id":"240cc10e-ecd8-4879-ab8b-28ab99473e26","system_id":"levelo_inurba_marseille","lat":43.27681,"lon":5.388765,"is_reserved":false,"is_disabled":false,"rental_uris":{"android":"levelo://app?vid=240cc10e-ecd8-4879-ab8b-28ab99473e26","ios":"levelo://app?vid=240cc10e-ecd8-4879-ab8b-28ab99473e26"},"vehicle_type_id":"4","last_reported":1741464456,"current_range_meters":9600,"station_id":"ce4bhi12rcd13ifvqfo0","pricing_plan_id":"cebpf4jnsgd1na2vs0mg"},{"bike_id":"1eae27e7-b16c-402d-88a7-74119068df4b","system_id":"levelo_inurba_marseille","lat":43.26778,"lon":5.39428,"is_reserved":false,"is_disabled":false,"rental_uris":{"android":"levelo://app?vid=1eae27e7-b16c-402d-88a7-74119068df4b","ios":"levelo://app?vid=1eae27e7-b16c-402d-88a7-74119068df4b"},"vehicle_type_id":"4","last_reported":1741464456,"current_range_meters":9600,"station_id":"ce4bhh12rcd13ifvqfg0","pricing_plan_id":"cebpf4jnsgd1na2vs0mg"},{"bike_id":"d399c68f-4683-4187-95d7-e32ffde3c66c","system_id":"levelo_inurba_marseille","lat":43.25122,"lon":5.39435,"is_reserved":false,"is_disabled":false,"rental_uris":{"android":"levelo://app?vid=d399c68f-4683-4187-95d7-e32ffde3c66c","ios":"levelo://app?vid=d399c68f-4683-4187-95d7-e32ffde3c66c"},"vehicle_type_id":"4","last_reported":1741464456,"current_range_meters":9600,"station_id":"ce4bhm12rcd13ifvqgkg","pricing_plan_id":"cebpf4jnsgd1na2vs0mg"},{"bike_id":"c0c9a2ce-2739-41db-af1b-d956dbc13131","system_id":"levelo_inurba_marseille","lat":43.27056,"lon":5.40262,"is_reserved":false,"is_disabled":false,"rental_uris":{"android":"levelo://app?vid=c0c9a2ce-2739-41db-af1b-d956dbc13131","ios":"levelo://app?vid=c0c9a2ce-2739-41db-af1b-d956dbc13131"},"vehicle_type_id":"4","last_reported":1741464456,"current_range_meters":9600,"station_id":"ce4bhk92rcd13ifvqgc0","pricing_plan_id":"cebpf4jnsgd1na2vs0mg"},{"bike_id":"b533f38f-df9a-4e01-86fb-08f4b9bfcdfb","system_id":"levelo_inurba_marseille","lat":43.26226,"lon":5.42151,"is_reserved":false,"is_disabled":false,"rental_uris":{"android":"levelo://app?vid=b533f38f-df9a-4e01-86fb-08f4b9bfcdfb","ios":"levelo://app?vid=b533f38f-df9a-4e01-86fb-08f4b9bfcdfb"},"vehicle_type_id":"4","last_reported":1741464456,"current_range_meters":9600,"station_id":"","pricing_plan_id":"cebpf4jnsgd1na2vs0mg"},{"bike_id":"e08a326f-68c7-44d0-a516-56cb97756f6d","system_id":"levelo_inurba_marseille","lat":43.29154,"lon":5.37169,"is_reserved":false,"is_disabled":false,"rental_uris":{"android":"levelo://app?vid=e08a326f-68c7-44d0-a516-56cb97756f6d","ios":"levelo://app?vid=e08a326f-68c7-44d0-a516-56cb97756f6d"},"vehicle_type_id":"4","last_reported":1741464456,"current_range_meters":9600,"station_id":"ce4bha92rcd13ifvqeh0","pricing_plan_id":"cebpf4jnsgd1na2vs0mg"},{"bike_id":"2e3c60b3-f5fc-40b6-b347-86b0b4f3ee6e","system_id":"levelo_inurba_marseille","lat":43.23186,"lon":5.39991,"is_reserved":false,"is_disabled":false,"rental_uris":{"android":"levelo://app?vid=2e3c60b3-f5fc-40b6-b347-86b0b4f3ee6e","ios":"levelo://app?vid=2e3c60b3-f5fc-40b6-b347-86b0b4f3ee6e"},"vehicle_type_id":"4","last_reported":1741464456,"current_range_meters":9600,"station_id":"ce4bhn12rcd13ifvqgqg","pricing_plan_id":"cebpf4jnsgd1na2vs0mg"},{"bike_id":"8a918602-9ac4-47c1-baf8-d4080cced523","system_id":"levelo_inurba_marseille","lat":43.29423,"lon":5.38633,"is_reserved":false,"is_disabled":false,"rental_uris":{"android":"levelo://app?vid=8a918602-9ac4-47c1-baf8-d4080cced523","ios":"levelo://app?vid=8a918602-9ac4-47c1-baf8-d4080cced523"},"vehicle_type_id":"4","last_reported":1741464456,"current_range_meters":9600,"station_id":"ce4bh2h2rcd13ifvqdh0","pricing_plan_id":"cebpf4jnsgd1na2vs0mg"},{"bike_id":"4535af30-838a-436f-9c39-afb86353063f","system_id":"levelo_inurba_marseille","lat":43.30198,"lon":5.39966,"is_reserved":false,"is_disabled":false,"rental_uris":{"android":"levelo://app?vid=4535af30-838a-436f-9c39-afb86353063f","ios":"levelo://app?vid=4535af30-838a-436f-9c39-afb86353063f"},"vehicle_type_id":"4","last_reported":1741464456,"current_range_meters":9600,"station_id":"","pricing_plan_id":"cebpf4jnsgd1na2vs0mg"},{"bike_id":"6e04b74d-b3cd-443d-95e9-a60e8e8a1f29","system_id":"levelo_inurba_marseille","lat":43.27208,"lon":5.39121,"is_reserved":false,"is_disabled":false,"rental_uris":{"android":"levelo://app?vid=6e04b74d-b3cd-443d-95e9-a60e8e8a1f29","ios":"levelo://app?vid=6e04b74d-b3cd-443d-95e9-a60e8e8a1f29"},"vehicle_type_id":"4","last_reported":1741464456,"current_range_meters":9600,"station_id":"ce4bhhp2rcd13ifvqfm0","pricing_plan_id":"cebpf4jnsgd1na2vs0mg"},{"bike_id":"680f50b0-bd88-46fa-8b64-7606994c73f2","system_id":"levelo_inurba_marseille","lat":43.29616,"lon":5.37175,"is_reserved":false,"is_disabled":true,"rental_uris":{"android":"levelo://app?vid=680f50b0-bd88-46fa-8b64-7606994c73f2","ios":"levelo://app?vid=680f50b0-bd88-46fa-8b64-7606994c73f2"},"vehicle_type_id":"4","last_reported":1741464456,"current_range_meters":10000,"station_id":"ce4bgnh2rcd13ifvqc0g","pricing_plan_id":"cebpf4jnsgd1na2vs0mg"},{"bike_id":"ee022ac9-5867-4c25-b86e-2ab924e40d78","system_id":"levelo_inurba_marseille","lat":43.25492,"lon":5.37646,"is_reserved":false,"is_disabled":false,"rental_uris":{"android":"levelo://app?vid=ee022ac9-5867-4c25-b86e-2ab924e40d78","ios":"levelo://app?vid=ee022ac9-5867-4c25-b86e-2ab924e40d78"},"vehicle_type_id":"4","last_reported":1741464456,"current_range_meters":10000,"station_id":"ce4bhh12rcd13ifvqff0","pricing_plan_id":"cebpf4jnsgd1na2vs0mg"},{"bike_id":"ceba9718-ab60-4cb9-96ce-4a71468fdec5","system_id":"levelo_inurba_marseille","lat":43.2942,"lon":5.38633,"is_reserved":false,"is_disabled":false,"rental_uris":{"android":"levelo://app?vid=ceba9718-ab60-4cb9-96ce-4a71468fdec5","ios":"levelo://app?vid=ceba9718-ab60-4cb9-96ce-4a71468fdec5"},"vehicle_type_id":"4","last_reported":1741464456,"current_range_meters":10000,"station_id":"ce4bh2h2rcd13ifvqdh0","pricing_plan_id":"cebpf4jnsgd1na2vs0mg"},{"bike_id":"1042d58a-9ab0-4a70-8721-331f271ce5a5","system_id":"levelo_inurba_marseille","lat":43.2318,"lon":5.39989,"is_reserved":false,"is_disabled":false,"rental_uris":{"android":"levelo://app?vid=1042d58a-9ab0-4a70-8721-331f271ce5a5","ios":"levelo://app?vid=1042d58a-9ab0-4a70-8721-331f271ce5a5"},"vehicle_type_id":"4","last_reported":1741464456,"current_range_meters":10000,"station_id":"ce4bhn12rcd13ifvqgqg","pricing_plan_id":"cebpf4jnsgd1na2vs0mg"},{"bike_id":"0ee34a75-da67-4fcc-bde2-63a3210d095a","system_id":"levelo_inurba_marseille","lat":43.29437,"lon":5.3863,"is_reserved":false,"is_disabled":false,"rental_uris":{"android":"levelo://app?vid=0ee34a75-da67-4fcc-bde2-63a3210d095a","ios":"levelo://app?vid=0ee34a75-da67-4fcc-bde2-63a3210d095a"},"vehicle_type_id":"4","last_reported":1741464456,"current_range_meters":10000,"station_id":"ce4bh2h2rcd13ifvqdh0","pricing_plan_id":"cebpf4jnsgd1na2vs0mg"},{"bike_id":"6e2925bf-8875-4fff-a415-293325b374e2","system_id":"levelo_inurba_marseille","lat":43.29429,"lon":5.38627,"is_reserved":false,"is_disabled":false,"rental_uris":{"android":"levelo://app?vid=6e2925bf-8875-4fff-a415-293325b374e2","ios":"levelo://app?vid=6e2925bf-8875-4fff-a415-293325b374e2"},"vehicle_type_id":"4","last_reported":1741464456,"current_range_meters":10000,"station_id":"ce4bh2h2rcd13ifvqdh0","pricing_plan_id":"cebpf4jnsgd1na2vs0mg"},{"bike_id":"82798ebb-132d-402c-a08c-5aa81e89de35","system_id":"levelo_inurba_marseille","lat":43.27315,"lon":5.3907,"is_reserved":false,"is_disabled":false,"rental_uris":{"android":"levelo://app?vid=82798ebb-132d-402c-a08c-5aa81e89de35","ios":"levelo://app?vid=82798ebb-132d-402c-a08c-5aa81e89de35"},"vehicle_type_id":"4","last_reported":1741464456,"current_range_meters":10000,"station_id":"ce4bhgp2rcd13ifvqfe0","pricing_plan_id":"cebpf4jnsgd1na2vs0mg"},{"bike_id":"388ea826-f5fa-4632-a530-45d13cc0a769","system_id":"levelo_inurba_marseille","lat":43.23185,"lon":5.39992,"is_reserved":false,"is_disabled":false,"rental_uris":{"android":"levelo://app?vid=388ea826-f5fa-4632-a530-45d13cc0a769","ios":"levelo://app?vid=388ea826-f5fa-4632-a530-45d13cc0a769"},"vehicle_type_id":"4","last_reported":1741464456,"current_range_meters":10000,"station_id":"ce4bhn12rcd13ifvqgqg","pricing_plan_id":"cebpf4jnsgd1na2vs0mg"},{"bike_id":"2cd62b5d-cb55-4130-8b4a-c96f5828ffcd","system_id":"levelo_inurba_marseille","lat":43.27312,"lon":5.39127,"is_reserved":false,"is_disabled":false,"rental_uris":{"android":"levelo://app?vid=2cd62b5d-cb55-4130-8b4a-c96f5828ffcd","ios":"levelo://app?vid=2cd62b5d-cb55-4130-8b4a-c96f5828ffcd"},"vehicle_type_id":"4","last_reported":1741464456,"current_range_meters":10000,"station_id":"ce4bhgp2rcd13ifvqfe0","pricing_plan_id":"cebpf4jnsgd1na2vs0mg"},{"bike_id":"f5bd6fd0-9a91-44c5-89ca-b9733e401914","system_id":"levelo_inurba_marseille","lat":43.28659,"lon":5.38666,"is_reserved":false,"is_disabled":false,"rental_uris":{"android":"levelo://app?vid=f5bd6fd0-9a91-44c5-89ca-b9733e401914","ios":"levelo://app?vid=f5bd6fd0-9a91-44c5-89ca-b9733e401914"},"vehicle_type_id":"4","last_reported":1741464456,"current_range_meters":10000,"station_id":"ce4bh492rcd13ifvqdug","pricing_plan_id":"cebpf4jnsgd1na2vs0mg"},{"bike_id":"7d4cc756-9c8b-4502-ad8d-d022cadf052f","system_id":"levelo_inurba_marseille","lat":43.2733,"lon":5.39101,"is_reserved":false,"is_disabled":false,"rental_uris":{"android":"levelo://app?vid=7d4cc756-9c8b-4502-ad8d-d022cadf052f","ios":"levelo://app?vid=7d4cc756-9c8b-4502-ad8d-d022cadf052f"},"vehicle_type_id":"4","last_reported":1741464456,"current_range_meters":10000,"station_id":"ce4bhgp2rcd13ifvqfe0","pricing_plan_id":"cebpf4jnsgd1na2vs0mg"},{"bike_id":"49728009-0f50-46ba-a132-6d4fe5f38e91","system_id":"levelo_inurba_marseille","lat":43.29419,"lon":5.38641,"is_reserved":false,"is_disabled":false,"rental_uris":{"android":"levelo://app?vid=49728009-0f50-46ba-a132-6d4fe5f38e91","ios":"levelo://app?vid=49728009-0f50-46ba-a132-6d4fe5f38e91"},"vehicle_type_id":"4","last_reported":1741464456,"current_range_meters":10000,"station_id":"ce4bh2h2rcd13ifvqdh0","pricing_plan_id":"cebpf4jnsgd1na2vs0mg"},{"bike_id":"467f24b0-1c2c-41bb-9acf-4644c163c18c","system_id":"levelo_inurba_marseille","lat":43.27344,"lon":5.3911,"is_reserved":false,"is_disabled":false,"rental_uris":{"android":"levelo://app?vid=467f24b0-1c2c-41bb-9acf-4644c163c18c","ios":"levelo://app?vid=467f24b0-1c2c-41bb-9acf-4644c163c18c"},"vehicle_type_id":"4","last_reported":1741464456,"current_range_meters":10000,"station_id":"ce4bhgp2rcd13ifvqfe0","pricing_plan_id":"cebpf4jnsgd1na2vs0mg"},{"bike_id":"51e3163b-db9f-4541-9cd3-6ea675a921b2","system_id":"levelo_inurba_marseille","lat":43.29034,"lon":5.38132,"is_reserved":false,"is_disabled":false,"rental_uris":{"android":"levelo://app?vid=51e3163b-db9f-4541-9cd3-6ea675a921b2","ios":"levelo://app?vid=51e3163b-db9f-4541-9cd3-6ea675a921b2"},"vehicle_type_id":"4","last_reported":1741464456,"current_range_meters":10000,"station_id":"ce4bh4p2rcd13ifvqe1g","pricing_plan_id":"cebpf4jnsgd1na2vs0mg"},{"bike_id":"22102663-9d96-4c0c-8389-e16e73b1b3dc","system_id":"levelo_inurba_marseille","lat":43.27796,"lon":5.40683,"is_reserved":false,"is_disabled":false,"rental_uris":{"android":"levelo://app?vid=22102663-9d96-4c0c-8389-e16e73b1b3dc","ios":"levelo://app?vid=22102663-9d96-4c0c-8389-e16e73b1b3dc"},"vehicle_type_id":"4","last_reported":1741464456,"current_range_meters":10000,"station_id":"ce4bhnh2rcd13ifvqgtg","pricing_plan_id":"cebpf4jnsgd1na2vs0mg"},{"bike_id":"5196ac3c-367e-4925-a06b-76f5cc0dc41b","system_id":"levelo_inurba_marseille","lat":43.30138,"lon":5.39869,"is_reserved":false,"is_disabled":false,"rental_uris":{"android":"levelo://app?vid=5196ac3c-367e-4925-a06b-76f5cc0dc41b","ios":"levelo://app?vid=5196ac3c-367e-4925-a06b-76f5cc0dc41b"},"vehicle_type_id":"4","last_reported":1741464456,"current_range_meters":10000,"station_id":"ce4bh0h2rcd13ifvqd40","pricing_plan_id":"cebpf4jnsgd1na2vs0mg"},{"bike_id":"436bcdbb-61d6-407c-bb12-7dc81cb26c80","system_id":"levelo_inurba_marseille","lat":43.29262,"lon":5.37592,"is_reserved":false,"is_disabled":false,"rental_uris":{"android":"levelo://app?vid=436bcdbb-61d6-407c-bb12-7dc81cb26c80","ios":"levelo://app?vid=436bcdbb-61d6-407c-bb12-7dc81cb26c80"},"vehicle_type_id":"4","last_reported":1741464456,"current_range_meters":10000,"station_id":"ce4bgi12rcd13ifvqb80","pricing_plan_id":"cebpf4jnsgd1na2vs0mg"},{"bike_id":"859907bb-89cf-47e5-8202-d4e928b86369","system_id":"levelo_inurba_marseille","lat":43.30547,"lon":5.36708,"is_reserved":false,"is_disabled":false,"rental_uris":{"android":"levelo://app?vid=859907bb-89cf-47e5-8202-d4e928b86369","ios":"levelo://app?vid=859907bb-89cf-47e5-8202-d4e928b86369"},"vehicle_type_id":"4","last_reported":1741464456,"current_range_meters":10000,"station_id":"ce4bgrp2rcd13ifvqc9g","pricing_plan_id":"cebpf4jnsgd1na2vs0mg"},{"bike_id":"eaa3cf00-9ae8-4c97-9bea-c424ccd5e353","system_id":"levelo_inurba_marseille","lat":43.29438,"lon":5.38657,"is_reserved":false,"is_disabled":false,"rental_uris":{"android":"levelo://app?vid=eaa3cf00-9ae8-4c97-9bea-c424ccd5e353","ios":"levelo://app?vid=eaa3cf00-9ae8-4c97-9bea-c424ccd5e353"},"vehicle_type_id":"4","last_reported":1741464456,"current_range_meters":10800,"station_id":"ce4bh2h2rcd13ifvqdh0","pricing_plan_id":"cebpf4jnsgd1na2vs0mg"},{"bike_id":"ad284fdb-e6f9-4c5a-9e2c-c44130087410","system_id":"levelo_inurba_marseille","lat":43.23187,"lon":5.39984,"is_reserved":false,"is_disabled":false,"rental_uris":{"android":"levelo://app?vid=ad284fdb-e6f9-4c5a-9e2c-c44130087410","ios":"levelo://app?vid=ad284fdb-e6f9-4c5a-9e2c-c44130087410"},"vehicle_type_id":"4","last_reported":1741464456,"current_range_meters":10800,"station_id":"ce4bhn12rcd13ifvqgqg","pricing_plan_id":"cebpf4jnsgd1na2vs0mg"},{"bike_id":"1ce10cb6-7f5d-4a74-b8f5-026eb289a50d","system_id":"levelo_inurba_marseille","lat":43.292916,"lon":5.374484,"is_reserved":false,"is_disabled":false,"rental_uris":{"android":"levelo://app?vid=1ce10cb6-7f5d-4a74-b8f5-026eb289a50d","ios":"levelo://app?vid=1ce10cb6-7f5d-4a74-b8f5-026eb289a50d"},"vehicle_type_id":"4","last_reported":1741464456,"current_range_meters":10800,"station_id":"ce4bgi12rcd13ifvqb70","pricing_plan_id":"cebpf4jnsgd1na2vs0mg"},{"bike_id":"b1f7cf29-7408-4d87-9cb8-baf70db34fac","system_id":"levelo_inurba_marseille","lat":43.29256,"lon":5.38435,"is_reserved":false,"is_disabled":false,"rental_uris":{"android":"levelo://app?vid=b1f7cf29-7408-4d87-9cb8-baf70db34fac","ios":"levelo://app?vid=b1f7cf29-7408-4d87-9cb8-baf70db34fac"},"vehicle_type_id":"4","last_reported":1741464456,"current_range_meters":10800,"station_id":"ce4bh692rcd13ifvqea0","pricing_plan_id":"cebpf4jnsgd1na2vs0mg"},{"bike_id":"6cb839e2-8b93-4081-bc0f-cb73dd07e07c","system_id":"levelo_inurba_marseille","lat":43.26793,"lon":5.39405,"is_reserved":false,"is_disabled":false,"rental_uris":{"android":"levelo://app?vid=6cb839e2-8b93-4081-bc0f-cb73dd07e07c","ios":"levelo://app?vid=6cb839e2-8b93-4081-bc0f-cb73dd07e07c"},"vehicle_type_id":"4","last_reported":1741464456,"current_range_meters":10800,"station_id":"ce4bhh12rcd13ifvqfg0","pricing_plan_id":"cebpf4jnsgd1na2vs0mg"},{"bike_id":"4a1ae94d-6097-41a3-b34a-9188c525407b","system_id":"levelo_inurba_marseille","lat":43.295224,"lon":5.393999,"is_reserved":false,"is_disabled":false,"rental_uris":{"android":"levelo://app?vid=4a1ae94d-6097-41a3-b34a-9188c525407b","ios":"levelo://app?vid=4a1ae94d-6097-41a3-b34a-9188c525407b"},"vehicle_type_id":"4","last_reported":1741464456,"current_range_meters":10800,"station_id":"ce4bh092rcd13ifvqd30","pricing_plan_id":"cebpf4jnsgd1na2vs0mg"},{"bike_id":"50c337ef-39d0-4321-9176-674793ff2bbe","system_id":"levelo_inurba_marseille","lat":43.28073,"lon":5.39648,"is_reserved":false,"is_disabled":false,"rental_uris":{"android":"levelo://app?vid=50c337ef-39d0-4321-9176-674793ff2bbe","ios":"levelo://app?vid=50c337ef-39d0-4321-9176-674793ff2bbe"},"vehicle_type_id":"4","last_reported":1741464456,"current_range_meters":10800,"station_id":"ce4bho12rcd13ifvqh2g","pricing_plan_id":"cebpf4jnsgd1na2vs0mg"},{"bike_id":"cdc6fa71-b8c0-46e7-902c-4e18b52385d2","system_id":"levelo_inurba_marseille","lat":43.28816,"lon":5.40091,"is_reserved":false,"is_disabled":false,"rental_uris":{"android":"levelo://app?vid=cdc6fa71-b8c0-46e7-902c-4e18b52385d2","ios":"levelo://app?vid=cdc6fa71-b8c0-46e7-902c-4e18b52385d2"},"vehicle_type_id":"4","last_reported":1741464456,"current_range_meters":10800,"station_id":"","pricing_plan_id":"cebpf4jnsgd1na2vs0mg"},{"bike_id":"ce8e0952-bd72-46a8-9481-a4de30a0a55a","system_id":"levelo_inurba_marseille","lat":43.29294,"lon":5.38461,"is_reserved":false,"is_disabled":false,"rental_uris":{"android":"levelo://app?vid=ce8e0952-bd72-46a8-9481-a4de30a0a55a","ios":"levelo://app?vid=ce8e0952-bd72-46a8-9481-a4de30a0a55a"},"vehicle_type_id":"4","last_reported":1741464456,"current_range_meters":10800,"station_id":"ce4bh692rcd13ifvqea0","pricing_plan_id":"cebpf4jnsgd1na2vs0mg"},{"bike_id":"ac086f2b-7874-450a-8443-7e4673baea6c","system_id":"levelo_inurba_marseille","lat":43.29959,"lon":5.39774,"is_reserved":false,"is_disabled":false,"rental_uris":{"android":"levelo://app?vid=ac086f2b-7874-450a-8443-7e4673baea6c","ios":"levelo://app?vid=ac086f2b-7874-450a-8443-7e4673baea6c"},"vehicle_type_id":"4","last_reported":1741464456,"current_range_meters":10800,"station_id":"","pricing_plan_id":"cebpf4jnsgd1na2vs0mg"},{"bike_id":"f43d1194-3196-4110-a0c3-2623e4058b26","system_id":"levelo_inurba_marseille","lat":43.29417,"lon":5.38629,"is_reserved":false,"is_disabled":false,"rental_uris":{"android":"levelo://app?vid=f43d1194-3196-4110-a0c3-2623e4058b26","ios":"levelo://app?vid=f43d1194-3196-4110-a0c3-2623e4058b26"},"vehicle_type_id":"4","last_reported":1741464456,"current_range_meters":10800,"station_id":"ce4bh2h2rcd13ifvqdh0","pricing_plan_id":"cebpf4jnsgd1na2vs0mg"},{"bike_id":"a4bfc0bb-d729-426a-b68b-5430db755fc0","system_id":"levelo_inurba_marseille","lat":43.25823,"lon":5.39435,"is_reserved":false,"is_disabled":false,"rental_uris":{"android":"levelo://app?vid=a4bfc0bb-d729-426a-b68b-5430db755fc0","ios":"levelo://app?vid=a4bfc0bb-d729-426a-b68b-5430db755fc0"},"vehicle_type_id":"4","last_reported":1741464456,"current_range_meters":10800,"station_id":"ce4bhip2rcd13ifvqft0","pricing_plan_id":"cebpf4jnsgd1na2vs0mg"},{"bike_id":"30ca0a12-56c0-4feb-9059-10680035a6ae","system_id":"levelo_inurba_marseille","lat":43.28721,"lon":5.37387,"is_reserved":false,"is_disabled":true,"rental_uris":{"android":"levelo://app?vid=30ca0a12-56c0-4feb-9059-10680035a6ae","ios":"levelo://app?vid=30ca0a12-56c0-4feb-9059-10680035a6ae"},"vehicle_type_id":"4","last_reported":1741464456,"current_range_meters":11200,"station_id":"ce4bh3p2rcd13ifvqdq0","pricing_plan_id":"cebpf4jnsgd1na2vs0mg"},{"bike_id":"ebbdd46f-ca55-4950-b358-b47cb2bc6c99","system_id":"levelo_inurba_marseille","lat":43.31484,"lon":5.37307,"is_reserved":false,"is_disabled":false,"rental_uris":{"android":"levelo://app?vid=ebbdd46f-ca55-4950-b358-b47cb2bc6c99","ios":"levelo://app?vid=ebbdd46f-ca55-4950-b358-b47cb2bc6c99"},"vehicle_type_id":"4","last_reported":1741464456,"current_range_meters":10800,"station_id":"ce4bgt12rcd13ifvqcd0","pricing_plan_id":"cebpf4jnsgd1na2vs0mg"},{"bike_id":"c194a208-4b50-4047-85f4-774affe5a46b","system_id":"levelo_inurba_marseille","lat":43.32288,"lon":5.38278,"is_reserved":false,"is_disabled":false,"rental_uris":{"android":"levelo://app?vid=c194a208-4b50-4047-85f4-774affe5a46b","ios":"levelo://app?vid=c194a208-4b50-4047-85f4-774affe5a46b"},"vehicle_type_id":"4","last_reported":1741464456,"current_range_meters":11200,"station_id":"ce4bhr12rcd13ifvqhqg","pricing_plan_id":"cebpf4jnsgd1na2vs0mg"},{"bike_id":"3be8c499-627d-47bc-89a0-e77bb54b7784","system_id":"levelo_inurba_marseille","lat":43.29421,"lon":5.38642,"is_reserved":false,"is_disabled":false,"rental_uris":{"android":"levelo://app?vid=3be8c499-627d-47bc-89a0-e77bb54b7784","ios":"levelo://app?vid=3be8c499-627d-47bc-89a0-e77bb54b7784"},"vehicle_type_id":"4","last_reported":1741464456,"current_range_meters":11200,"station_id":"ce4bh2h2rcd13ifvqdh0","pricing_plan_id":"cebpf4jnsgd1na2vs0mg"},{"bike_id":"f0a12ca0-129c-45e9-86c2-d821cb1fc440","system_id":"levelo_inurba_marseille","lat":43.28362,"lon":5.38644,"is_reserved":false,"is_disabled":false,"rental_uris":{"android":"levelo://app?vid=f0a12ca0-129c-45e9-86c2-d821cb1fc440","ios":"levelo://app?vid=f0a12ca0-129c-45e9-86c2-d821cb1fc440"},"vehicle_type_id":"4","last_reported":1741464456,"current_range_meters":11200,"station_id":"ce4bh492rcd13ifvqdvg","pricing_plan_id":"cebpf4jnsgd1na2vs0mg"},{"bike_id":"93b65028-e8a4-4c8f-876a-ae246ea8ac90","system_id":"levelo_inurba_marseille","lat":43.31346,"lon":5.38484,"is_reserved":false,"is_disabled":true,"rental_uris":{"android":"levelo://app?vid=93b65028-e8a4-4c8f-876a-ae246ea8ac90","ios":"levelo://app?vid=93b65028-e8a4-4c8f-876a-ae246ea8ac90"},"vehicle_type_id":"4","last_reported":1741464456,"current_range_meters":11600,"station_id":"ce4bgt92rcd13ifvqcf0","pricing_plan_id":"cebpf4jnsgd1na2vs0mg"},{"bike_id":"3e3ed28a-d70d-4e7b-8492-a13a8b5faa63","system_id":"levelo_inurba_marseille","lat":43.25867,"lon":5.39899,"is_reserved":false,"is_disabled":false,"rental_uris":{"android":"levelo://app?vid=3e3ed28a-d70d-4e7b-8492-a13a8b5faa63","ios":"levelo://app?vid=3e3ed28a-d70d-4e7b-8492-a13a8b5faa63"},"vehicle_type_id":"4","last_reported":1741464456,"current_range_meters":11600,"station_id":"ce4bhl92rcd13ifvqghg","pricing_plan_id":"cebpf4jnsgd1na2vs0mg"},{"bike_id":"19bbe8da-d7df-496e-a677-cbaab925cf5e","system_id":"levelo_inurba_marseille","lat":43.24869,"lon":5.42525,"is_reserved":false,"is_disabled":false,"rental_uris":{"android":"levelo://app?vid=19bbe8da-d7df-496e-a677-cbaab925cf5e","ios":"levelo://app?vid=19bbe8da-d7df-496e-a677-cbaab925cf5e"},"vehicle_type_id":"4","last_reported":1741464456,"current_range_meters":11600,"station_id":"","pricing_plan_id":"cebpf4jnsgd1na2vs0mg"},{"bike_id":"3ec3e2aa-eb1a-4432-8bc2-401db54ef086","system_id":"levelo_inurba_marseille","lat":43.29528,"lon":5.38545,"is_reserved":false,"is_disabled":false,"rental_uris":{"android":"levelo://app?vid=3ec3e2aa-eb1a-4432-8bc2-401db54ef086","ios":"levelo://app?vid=3ec3e2aa-eb1a-4432-8bc2-401db54ef086"},"vehicle_type_id":"4","last_reported":1741464456,"current_range_meters":11600,"station_id":"ce4bgih2rcd13ifvqba0","pricing_plan_id":"cebpf4jnsgd1na2vs0mg"},{"bike_id":"995be221-1e45-4844-9e95-b50ed8dcccf5","system_id":"levelo_inurba_marseille","lat":43.26944,"lon":5.40256,"is_reserved":false,"is_disabled":false,"rental_uris":{"android":"levelo://app?vid=995be221-1e45-4844-9e95-b50ed8dcccf5","ios":"levelo://app?vid=995be221-1e45-4844-9e95-b50ed8dcccf5"},"vehicle_type_id":"4","last_reported":1741464456,"current_range_meters":11600,"station_id":"cjm6bp8fraef2m0cb0m0","pricing_plan_id":"cebpf4jnsgd1na2vs0mg"},{"bike_id":"ead2b8ea-f152-40ea-80fb-ee1211b8cefb","system_id":"levelo_inurba_marseille","lat":43.26938,"lon":5.40295,"is_reserved":false,"is_disabled":false,"rental_uris":{"android":"levelo://app?vid=ead2b8ea-f152-40ea-80fb-ee1211b8cefb","ios":"levelo://app?vid=ead2b8ea-f152-40ea-80fb-ee1211b8cefb"},"vehicle_type_id":"4","last_reported":1741464456,"current_range_meters":11600,"station_id":"cjm6bp8fraef2m0cb0m0","pricing_plan_id":"cebpf4jnsgd1na2vs0mg"},{"bike_id":"7608df5b-89ec-4ea9-946b-9db71cfd80f8","system_id":"levelo_inurba_marseille","lat":43.27282,"lon":5.39056,"is_reserved":false,"is_disabled":false,"rental_uris":{"android":"levelo://app?vid=7608df5b-89ec-4ea9-946b-9db71cfd80f8","ios":"levelo://app?vid=7608df5b-89ec-4ea9-946b-9db71cfd80f8"},"vehicle_type_id":"4","last_reported":1741464456,"current_range_meters":11600,"station_id":"ce4bhgp2rcd13ifvqfe0","pricing_plan_id":"cebpf4jnsgd1na2vs0mg"},{"bike_id":"1255397c-ce62-4d3c-b34c-42b1e892168c","system_id":"levelo_inurba_marseille","lat":43.257219,"lon":5.411151,"is_reserved":false,"is_disabled":false,"rental_uris":{"android":"levelo://app?vid=1255397c-ce62-4d3c-b34c-42b1e892168c","ios":"levelo://app?vid=1255397c-ce62-4d3c-b34c-42b1e892168c"},"vehicle_type_id":"4","last_reported":1741464456,"current_range_meters":11600,"station_id":"ce4bhkp2rcd13ifvqgd0","pricing_plan_id":"cebpf4jnsgd1na2vs0mg"},{"bike_id":"a3254120-3f80-4656-aa30-cfcf9608df23","system_id":"levelo_inurba_marseille","lat":43.29911,"lon":5.38144,"is_reserved":false,"is_disabled":false,"rental_uris":{"android":"levelo://app?vid=a3254120-3f80-4656-aa30-cfcf9608df23","ios":"levelo://app?vid=a3254120-3f80-4656-aa30-cfcf9608df23"},"vehicle_type_id":"4","last_reported":1741464456,"current_range_meters":11600,"station_id":"ce4bgj12rcd13ifvqbc0","pricing_plan_id":"cebpf4jnsgd1na2vs0mg"},{"bike_id":"d993ab19-e76d-432b-8653-464be6e9eb29","system_id":"levelo_inurba_marseille","lat":43.2551,"lon":5.37688,"is_reserved":false,"is_disabled":false,"rental_uris":{"android":"levelo://app?vid=d993ab19-e76d-432b-8653-464be6e9eb29","ios":"levelo://app?vid=d993ab19-e76d-432b-8653-464be6e9eb29"},"vehicle_type_id":"4","last_reported":1741464456,"current_range_meters":11600,"station_id":"ce4bhh12rcd13ifvqff0","pricing_plan_id":"cebpf4jnsgd1na2vs0mg"},{"bike_id":"8d2450bf-ad8a-4f22-8e67-e9802cf13a8b","system_id":"levelo_inurba_marseille","lat":43.2942,"lon":5.38632,"is_reserved":false,"is_disabled":false,"rental_uris":{"android":"levelo://app?vid=8d2450bf-ad8a-4f22-8e67-e9802cf13a8b","ios":"levelo://app?vid=8d2450bf-ad8a-4f22-8e67-e9802cf13a8b"},"vehicle_type_id":"4","last_reported":1741464456,"current_range_meters":11600,"station_id":"ce4bh2h2rcd13ifvqdh0","pricing_plan_id":"cebpf4jnsgd1na2vs0mg"},{"bike_id":"27a6b204-3d97-48fc-a6af-98472eefa32b","system_id":"levelo_inurba_marseille","lat":43.30355,"lon":5.41874,"is_reserved":false,"is_disabled":false,"rental_uris":{"android":"levelo://app?vid=27a6b204-3d97-48fc-a6af-98472eefa32b","ios":"levelo://app?vid=27a6b204-3d97-48fc-a6af-98472eefa32b"},"vehicle_type_id":"4","last_reported":1741464456,"current_range_meters":11200,"station_id":"ce4bhop2rcd13ifvqh7g","pricing_plan_id":"cebpf4jnsgd1na2vs0mg"},{"bike_id":"74921a3d-81fd-4139-a16d-7c498eb42c3c","system_id":"levelo_inurba_marseille","lat":43.28668,"lon":5.38666,"is_reserved":false,"is_disabled":false,"rental_uris":{"android":"levelo://app?vid=74921a3d-81fd-4139-a16d-7c498eb42c3c","ios":"levelo://app?vid=74921a3d-81fd-4139-a16d-7c498eb42c3c"},"vehicle_type_id":"4","last_reported":1741464456,"current_range_meters":12000,"station_id":"ce4bh492rcd13ifvqdug","pricing_plan_id":"cebpf4jnsgd1na2vs0mg"},{"bike_id":"8553ea77-af7b-4706-b9f5-f59d0519664e","system_id":"levelo_inurba_marseille","lat":43.2804,"lon":5.36939,"is_reserved":false,"is_disabled":false,"rental_uris":{"android":"levelo://app?vid=8553ea77-af7b-4706-b9f5-f59d0519664e","ios":"levelo://app?vid=8553ea77-af7b-4706-b9f5-f59d0519664e"},"vehicle_type_id":"4","last_reported":1741464456,"current_range_meters":12000,"station_id":"ce4bha12rcd13ifvqef0","pricing_plan_id":"cebpf4jnsgd1na2vs0mg"},{"bike_id":"3c0e4035-a221-4175-9c1f-5404a2e80550","system_id":"levelo_inurba_marseille","lat":43.26976,"lon":5.40291,"is_reserved":false,"is_disabled":false,"rental_uris":{"android":"levelo://app?vid=3c0e4035-a221-4175-9c1f-5404a2e80550","ios":"levelo://app?vid=3c0e4035-a221-4175-9c1f-5404a2e80550"},"vehicle_type_id":"4","last_reported":1741464456,"current_range_meters":12000,"station_id":"cjm6bp8fraef2m0cb0m0","pricing_plan_id":"cebpf4jnsgd1na2vs0mg"},{"bike_id":"11b7a25e-3666-4f03-9678-8949d8d94550","system_id":"levelo_inurba_marseille","lat":43.2721,"lon":5.39177,"is_reserved":false,"is_disabled":false,"rental_uris":{"android":"levelo://app?vid=11b7a25e-3666-4f03-9678-8949d8d94550","ios":"levelo://app?vid=11b7a25e-3666-4f03-9678-8949d8d94550"},"vehicle_type_id":"4","last_reported":1741464456,"current_range_meters":12000,"station_id":"ce4bhhp2rcd13ifvqfm0","pricing_plan_id":"cebpf4jnsgd1na2vs0mg"},{"bike_id":"ae353e94-7e4c-4b6b-9baa-27cbf5d6202d","system_id":"levelo_inurba_marseille","lat":43.29263,"lon":5.38447,"is_reserved":false,"is_disabled":false,"rental_uris":{"android":"levelo://app?vid=ae353e94-7e4c-4b6b-9baa-27cbf5d6202d","ios":"levelo://app?vid=ae353e94-7e4c-4b6b-9baa-27cbf5d6202d"},"vehicle_type_id":"4","last_reported":1741464456,"current_range_meters":12000,"station_id":"ce4bh692rcd13ifvqea0","pricing_plan_id":"cebpf4jnsgd1na2vs0mg"},{"bike_id":"fc5966ba-78bb-4e6f-a5e7-e1a08b7e88dd","system_id":"levelo_inurba_marseille","lat":43.27076,"lon":5.42272,"is_reserved":false,"is_disabled":false,"rental_uris":{"android":"levelo://app?vid=fc5966ba-78bb-4e6f-a5e7-e1a08b7e88dd","ios":"levelo://app?vid=fc5966ba-78bb-4e6f-a5e7-e1a08b7e88dd"},"vehicle_type_id":"4","last_reported":1741464456,"current_range_meters":12000,"station_id":"ce4bhk92rcd13ifvqgb0","pricing_plan_id":"cebpf4jnsgd1na2vs0mg"},{"bike_id":"fa5f4ae3-cf0a-4a20-9eda-f9dea51e6c4a","system_id":"levelo_inurba_marseille","lat":43.26769,"lon":5.3941,"is_reserved":false,"is_disabled":false,"rental_uris":{"android":"levelo://app?vid=fa5f4ae3-cf0a-4a20-9eda-f9dea51e6c4a","ios":"levelo://app?vid=fa5f4ae3-cf0a-4a20-9eda-f9dea51e6c4a"},"vehicle_type_id":"4","last_reported":1741464456,"current_range_meters":12000,"station_id":"ce4bhh12rcd13ifvqfg0","pricing_plan_id":"cebpf4jnsgd1na2vs0mg"},{"bike_id":"ccba082c-4942-45f9-9417-55e704974493","system_id":"levelo_inurba_marseille","lat":43.27798,"lon":5.40633,"is_reserved":false,"is_disabled":false,"rental_uris":{"android":"levelo://app?vid=ccba082c-4942-45f9-9417-55e704974493","ios":"levelo://app?vid=ccba082c-4942-45f9-9417-55e704974493"},"vehicle_type_id":"4","last_reported":1741464456,"current_range_meters":12000,"station_id":"","pricing_plan_id":"cebpf4jnsgd1na2vs0mg"},{"bike_id":"0e698c9d-47bc-4045-944d-ecfd6b2414bc","system_id":"levelo_inurba_marseille","lat":43.31097,"lon":5.42438,"is_reserved":false,"is_disabled":false,"rental_uris":{"android":"levelo://app?vid=0e698c9d-47bc-4045-944d-ecfd6b2414bc","ios":"levelo://app?vid=0e698c9d-47bc-4045-944d-ecfd6b2414bc"},"vehicle_type_id":"4","last_reported":1741464456,"current_range_meters":12000,"station_id":"ce4bhp92rcd13ifvqhag","pricing_plan_id":"cebpf4jnsgd1na2vs0mg"},{"bike_id":"716ad52e-6276-401a-9565-37b068cf8f1c","system_id":"levelo_inurba_marseille","lat":43.24813,"lon":5.3746,"is_reserved":false,"is_disabled":false,"rental_uris":{"android":"levelo://app?vid=716ad52e-6276-401a-9565-37b068cf8f1c","ios":"levelo://app?vid=716ad52e-6276-401a-9565-37b068cf8f1c"},"vehicle_type_id":"4","last_reported":1741464456,"current_range_meters":12400,"station_id":"ce4bhgh2rcd13ifvqfb0","pricing_plan_id":"cebpf4jnsgd1na2vs0mg"},{"bike_id":"1ffe0839-d6b0-49e0-a58b-164465fcccd9","system_id":"levelo_inurba_marseille","lat":43.24655,"lon":5.38923,"is_reserved":false,"is_disabled":false,"rental_uris":{"android":"levelo://app?vid=1ffe0839-d6b0-49e0-a58b-164465fcccd9","ios":"levelo://app?vid=1ffe0839-d6b0-49e0-a58b-164465fcccd9"},"vehicle_type_id":"4","last_reported":1741464456,"current_range_meters":12400,"station_id":"ce4bhg12rcd13ifvqf60","pricing_plan_id":"cebpf4jnsgd1na2vs0mg"},{"bike_id":"6cfa6918-9998-41e2-be7e-8892614f1312","system_id":"levelo_inurba_marseille","lat":43.23961,"lon":5.36647,"is_reserved":false,"is_disabled":false,"rental_uris":{"android":"levelo://app?vid=6cfa6918-9998-41e2-be7e-8892614f1312","ios":"levelo://app?vid=6cfa6918-9998-41e2-be7e-8892614f1312"},"vehicle_type_id":"4","last_reported":1741464456,"current_range_meters":12400,"station_id":"ce4bhi12rcd13ifvqfp0","pricing_plan_id":"cebpf4jnsgd1na2vs0mg"},{"bike_id":"bfe03db3-d69a-445a-a62a-d6ccdbb319ad","system_id":"levelo_inurba_marseille","lat":43.295266,"lon":5.385507,"is_reserved":false,"is_disabled":false,"rental_uris":{"android":"levelo://app?vid=bfe03db3-d69a-445a-a62a-d6ccdbb319ad","ios":"levelo://app?vid=bfe03db3-d69a-445a-a62a-d6ccdbb319ad"},"vehicle_type_id":"4","last_reported":1741464456,"current_range_meters":12400,"station_id":"","pricing_plan_id":"cebpf4jnsgd1na2vs0mg"},{"bike_id":"10dfff2d-b299-4962-bf80-63c16208170a","system_id":"levelo_inurba_marseille","lat":43.29637,"lon":5.40599,"is_reserved":false,"is_disabled":false,"rental_uris":{"android":"levelo://app?vid=10dfff2d-b299-4962-bf80-63c16208170a","ios":"levelo://app?vid=10dfff2d-b299-4962-bf80-63c16208170a"},"vehicle_type_id":"4","last_reported":1741464456,"current_range_meters":12000,"station_id":"ce4bh0h2rcd13ifvqd60","pricing_plan_id":"cebpf4jnsgd1na2vs0mg"},{"bike_id":"b6782d42-1cb3-4d18-9e93-a2663a231807","system_id":"levelo_inurba_marseille","lat":43.29529,"lon":5.38537,"is_reserved":false,"is_disabled":false,"rental_uris":{"android":"levelo://app?vid=b6782d42-1cb3-4d18-9e93-a2663a231807","ios":"levelo://app?vid=b6782d42-1cb3-4d18-9e93-a2663a231807"},"vehicle_type_id":"4","last_reported":1741464456,"current_range_meters":12400,"station_id":"ce4bgih2rcd13ifvqba0","pricing_plan_id":"cebpf4jnsgd1na2vs0mg"},{"bike_id":"128c6e9a-f050-4340-a828-773721c0287d","system_id":"levelo_inurba_marseille","lat":43.26966,"lon":5.40299,"is_reserved":false,"is_disabled":false,"rental_uris":{"android":"levelo://app?vid=128c6e9a-f050-4340-a828-773721c0287d","ios":"levelo://app?vid=128c6e9a-f050-4340-a828-773721c0287d"},"vehicle_type_id":"4","last_reported":1741464456,"current_range_meters":12400,"station_id":"cjm6bp8fraef2m0cb0m0","pricing_plan_id":"cebpf4jnsgd1na2vs0mg"},{"bike_id":"1608e183-2296-45f0-bc2d-41ecabeea494","system_id":"levelo_inurba_marseille","lat":43.27973,"lon":5.4002,"is_reserved":false,"is_disabled":false,"rental_uris":{"android":"levelo://app?vid=1608e183-2296-45f0-bc2d-41ecabeea494","ios":"levelo://app?vid=1608e183-2296-45f0-bc2d-41ecabeea494"},"vehicle_type_id":"4","last_reported":1741464456,"current_range_meters":12800,"station_id":"ce4bho92rcd13ifvqh4g","pricing_plan_id":"cebpf4jnsgd1na2vs0mg"},{"bike_id":"effb33b7-23c3-43b7-b606-498fb90951c9","system_id":"levelo_inurba_marseille","lat":43.27973,"lon":5.38739,"is_reserved":false,"is_disabled":false,"rental_uris":{"android":"levelo://app?vid=effb33b7-23c3-43b7-b606-498fb90951c9","ios":"levelo://app?vid=effb33b7-23c3-43b7-b606-498fb90951c9"},"vehicle_type_id":"4","last_reported":1741464456,"current_range_meters":12800,"station_id":"ce4bhg12rcd13ifvqf80","pricing_plan_id":"cebpf4jnsgd1na2vs0mg"},{"bike_id":"abe85e27-884b-429d-9250-e7f2ee93ed01","system_id":"levelo_inurba_marseille","lat":43.2926,"lon":5.38438,"is_reserved":false,"is_disabled":false,"rental_uris":{"android":"levelo://app?vid=abe85e27-884b-429d-9250-e7f2ee93ed01","ios":"levelo://app?vid=abe85e27-884b-429d-9250-e7f2ee93ed01"},"vehicle_type_id":"4","last_reported":1741464456,"current_range_meters":12800,"station_id":"ce4bh692rcd13ifvqea0","pricing_plan_id":"cebpf4jnsgd1na2vs0mg"},{"bike_id":"a0f47016-86c2-44a8-86e4-ab6fc080b00d","system_id":"levelo_inurba_marseille","lat":43.27942,"lon":5.41041,"is_reserved":false,"is_disabled":false,"rental_uris":{"android":"levelo://app?vid=a0f47016-86c2-44a8-86e4-ab6fc080b00d","ios":"levelo://app?vid=a0f47016-86c2-44a8-86e4-ab6fc080b00d"},"vehicle_type_id":"4","last_reported":1741464456,"current_range_meters":12800,"station_id":"ce4bhnp2rcd13ifvqh0g","pricing_plan_id":"cebpf4jnsgd1na2vs0mg"},{"bike_id":"61e388e0-88e8-4998-828e-6cf2d929078c","system_id":"levelo_inurba_marseille","lat":43.32111,"lon":5.36789,"is_reserved":false,"is_disabled":false,"rental_uris":{"android":"levelo://app?vid=61e388e0-88e8-4998-828e-6cf2d929078c","ios":"levelo://app?vid=61e388e0-88e8-4998-828e-6cf2d929078c"},"vehicle_type_id":"4","last_reported":1741464456,"current_range_meters":12800,"station_id":"ce4bhrh2rcd13ifvqhug","pricing_plan_id":"cebpf4jnsgd1na2vs0mg"},{"bike_id":"cb9741bc-643a-4d23-8717-61f0eafe1247","system_id":"levelo_inurba_marseille","lat":43.29253,"lon":5.38439,"is_reserved":false,"is_disabled":false,"rental_uris":{"android":"levelo://app?vid=cb9741bc-643a-4d23-8717-61f0eafe1247","ios":"levelo://app?vid=cb9741bc-643a-4d23-8717-61f0eafe1247"},"vehicle_type_id":"4","last_reported":1741464456,"current_range_meters":12800,"station_id":"ce4bh692rcd13ifvqea0","pricing_plan_id":"cebpf4jnsgd1na2vs0mg"},